{"last_updated":1703297743,"ttl":30,"version":"2.2","data":{"bikes":[{"bike_id":"115918ad-03be-4a9f-9e8b-13d77d784a34","system_id":"levelo_inurba_marseille","lat":43.313391,"lon":5.36706,"is_reserved":false,"is_disabled":false,"rental_uris":{"android":"levelo://app?vid=115918ad-03be-4a9f-9e8b-13d77d784a34","ios":"levelo://app?vid=115918ad-03be-4a9f-9e8b-13d77d784a34"},"vehicle_type_id":"4","last_reported":1703297743,"current_range_meters":28400,"station_id":"ce4bgr92rcd13ifvqc6g","pricing_plan_id":"free"},{"bike_id":"9d8db9d4-b6f4-46d3-8619-672e6448567c","system_id":"levelo_inurba_marseille","lat":43.314811,"lon":5.373103,"is_reserved":false,"is_disabled":false,"rental_uris":{"android":"levelo://app?vid=9d8db9d4-b6f4-46d3-8619-672e6448567c","ios":"levelo://app?vid=9d8db9d4-b6f4-46d3-8619-672e6448567c"},"vehicle_type_id":"4","last_reported":1703297743,"current_range_meters":29200,"station_id":"ce4bgt12rcd13ifvqcd0","pricing_plan_id":"free"},{"bike_id":"76cd6e01-c627-440e-928f-198583ab32f4","system_id":"levelo_inurba_marseille","lat":43.314811,"lon":5.373103,"is_reserved":false,"is_disabled":false,"rental_uris":{"android":"levelo://app?vid=76cd6e01-c627-440e-928f-198583ab32f4","ios":"levelo://app?vid=76cd6e01-c627-440e-928f-198583ab32f4"},"vehicle_type_id":"4","last_reported":1703297743,"current_range_meters":21600,"station_id":"ce4bgt12rcd13ifvqcd0","pricing_plan_id":"free"},{"bike_id":"ec3214d1-0cbf-4d91-9c7b-1538d332cbaf","system_id":"levelo_inurba_marseille","lat":43.314811,"lon":5.373103,"is_reserved":false,"is_disabled":false,"rental_uris":{"android":"levelo://app?vid=ec3214d1-0cbf-4d91-9c7b-1538d332cbaf","ios":"levelo://app?vid=ec3214d1-0cbf-4d91-9c7b-1538d332cbaf"},"vehicle_type_id":"4","last_reported":1703297743,"current_range_meters":9200,"station_id":"ce4bgt12rcd13ifvqcd0","pricing_plan_id":"free"},{"bike_id":"d37d52c6-a1eb-4740-a5cc-e7935cd603f0","system_id":"levelo_inurba_marseille","lat":43.314811,"lon":5.373103,"is_reserved":false,"is_disabled":false,"rental_uris":{"android":"levelo://app?vid=d37d52c6-a1eb-4740-a5cc-e7935cd603f0","ios":"levelo://app?vid=d37d52c6-a1eb-4740-a5cc-e7935cd603f0"},"vehicle_type_id":"4","last_reported":1703297743,"current_range_meters":28400,"station_id":"ce4bgt12rcd13ifvqcd0","pricing_plan_id":"free"},{"bike_id":"554bec16-531e-499e-868f-0c09ac81bda8","system_id":"levelo_inurba_marseille","lat":43.314811,"lon":5.373104,"is_reserved":false,"is_disabled":false,"rental_uris":{"android":"levelo://app?vid=554bec16-531e-499e-868f-0c09ac81bda8","ios":"levelo://app?vid=554bec16-531e-499e-868f-0c09ac81bda8"},"vehicle_type_id":"4","last_reported":1703297743,"current_range_meters":29600,"station_id":"ce4bgt12rcd13ifvqcd0","pricing_plan_id":"free"},{"bike_id":"75d62c3a-a73b-435f-86d1-5a1088daf589","system_id":"levelo_inurba_marseille","lat":43.305989,"lon":5.37225,"is_reserved":false,"is_disabled":false,"rental_uris":{"android":"levelo://app?vid=75d62c3a-a73b-435f-86d1-5a1088daf589","ios":"levelo://app?vid=75d62c3a-a73b-435f-86d1-5a1088daf589"},"vehicle_type_id":"4","last_reported":1703297743,"current_range_meters":26000,"station_id":"ce4bgqh2rcd13ifvqc4g","pricing_plan_id":"free"},{"bike_id":"998b93c2-ad43-4345-8feb-a7bf91d1b163","system_id":"levelo_inurba_marseille","lat":43.30591,"lon":5.37219,"is_reserved":false,"is_disabled":false,"rental_uris":{"android":"levelo://app?vid=998b93c2-ad43-4345-8feb-a7bf91d1b163","ios":"levelo://app?vid=998b93c2-ad43-4345-8feb-a7bf91d1b163"},"vehicle_type_id":"4","last_reported":1703297743,"current_range_meters":15200,"station_id":"ce4bgqh2rcd13ifvqc4g","pricing_plan_id":"free"},{"bike_id":"fb118b0a-db0f-4e92-a91a-a6fadc82352a","system_id":"levelo_inurba_marseille","lat":43.311131,"lon":5.377651,"is_reserved":false,"is_disabled":false,"rental_uris":{"android":"levelo://app?vid=fb118b0a-db0f-4e92-a91a-a6fadc82352a","ios":"levelo://app?vid=fb118b0a-db0f-4e92-a91a-a6fadc82352a"},"vehicle_type_id":"4","last_reported":1703297743,"current_range_meters":6400,"station_id":"ce4bgt92rcd13ifvqcg0","pricing_plan_id":"free"},{"bike_id":"4ea1c1f0-39af-45f0-9dfc-f695c9c6b5f4","system_id":"levelo_inurba_marseille","lat":43.307945,"lon":5.376487,"is_reserved":false,"is_disabled":false,"rental_uris":{"android":"levelo://app?vid=4ea1c1f0-39af-45f0-9dfc-f695c9c6b5f4","ios":"levelo://app?vid=4ea1c1f0-39af-45f0-9dfc-f695c9c6b5f4"},"vehicle_type_id":"4","last_reported":1703297743,"current_range_meters":27600,"station_id":"ce4bgv92rcd13ifvqcq0","pricing_plan_id":"free"},{"bike_id":"31064d41-982a-4d68-957c-a6ab36a1327f","system_id":"levelo_inurba_marseille","lat":43.317075,"lon":5.377367,"is_reserved":false,"is_disabled":false,"rental_uris":{"android":"levelo://app?vid=31064d41-982a-4d68-957c-a6ab36a1327f","ios":"levelo://app?vid=31064d41-982a-4d68-957c-a6ab36a1327f"},"vehicle_type_id":"4","last_reported":1703297743,"current_range_meters":30000,"station_id":"ce4bgth2rcd13ifvqch0","pricing_plan_id":"free"},{"bike_id":"bc74c432-90ab-4b82-bc0b-9716a4ccf6b2","system_id":"levelo_inurba_marseille","lat":43.317075,"lon":5.377367,"is_reserved":false,"is_disabled":false,"rental_uris":{"android":"levelo://app?vid=bc74c432-90ab-4b82-bc0b-9716a4ccf6b2","ios":"levelo://app?vid=bc74c432-90ab-4b82-bc0b-9716a4ccf6b2"},"vehicle_type_id":"4","last_reported":1703297743,"current_range_meters":17200,"station_id":"ce4bgth2rcd13ifvqch0","pricing_plan_id":"free"},{"bike_id":"d48d57bf-fbfb-4ed4-bb4b-a1413b2a4eba","system_id":"levelo_inurba_marseille","lat":43.301939,"lon":5.366286,"is_reserved":false,"is_disabled":false,"rental_uris":{"android":"levelo://app?vid=d48d57bf-fbfb-4ed4-bb4b-a1413b2a4eba","ios":"levelo://app?vid=d48d57bf-fbfb-4ed4-bb4b-a1413b2a4eba"},"vehicle_type_id":"4","last_reported":1703297743,"current_range_meters":31200,"station_id":"ce4bgrh2rcd13ifvqc8g","pricing_plan_id":"free"},{"bike_id":"cf28ca03-6df3-4dbf-a190-bbac42653145","system_id":"levelo_inurba_marseille","lat":43.301939,"lon":5.366286,"is_reserved":false,"is_disabled":false,"rental_uris":{"android":"levelo://app?vid=cf28ca03-6df3-4dbf-a190-bbac42653145","ios":"levelo://app?vid=cf28ca03-6df3-4dbf-a190-bbac42653145"},"vehicle_type_id":"4","last_reported":1703297743,"current_range_meters":26400,"station_id":"ce4bgrh2rcd13ifvqc8g","pricing_plan_id":"free"},{"bike_id":"93e3df6a-5fb6-401c-a19e-e3d9b65be1d8","system_id":"levelo_inurba_marseille","lat":43.308012,"lon":5.381511,"is_reserved":false,"is_disabled":false,"rental_uris":{"android":"levelo://app?vid=93e3df6a-5fb6-401c-a19e-e3d9b65be1d8","ios":"levelo://app?vid=93e3df6a-5fb6-401c-a19e-e3d9b65be1d8"},"vehicle_type_id":"4","last_reported":1703297743,"current_range_meters":28800,"station_id":"ce4bgt12rcd13ifvqce0","pricing_plan_id":"free"},{"bike_id":"63ca6f18-ce5d-451b-b1d7-9e3f22efda1e","system_id":"levelo_inurba_marseille","lat":43.324771,"lon":5.36557,"is_reserved":false,"is_disabled":false,"rental_uris":{"android":"levelo://app?vid=63ca6f18-ce5d-451b-b1d7-9e3f22efda1e","ios":"levelo://app?vid=63ca6f18-ce5d-451b-b1d7-9e3f22efda1e"},"vehicle_type_id":"4","last_reported":1703297743,"current_range_meters":23600,"station_id":"ce4bhs12rcd13ifvqhvg","pricing_plan_id":"free"},{"bike_id":"0f12f4a1-9d18-4087-b872-4b0ae162eb1d","system_id":"levelo_inurba_marseille","lat":43.324771,"lon":5.36557,"is_reserved":false,"is_disabled":false,"rental_uris":{"android":"levelo://app?vid=0f12f4a1-9d18-4087-b872-4b0ae162eb1d","ios":"levelo://app?vid=0f12f4a1-9d18-4087-b872-4b0ae162eb1d"},"vehicle_type_id":"4","last_reported":1703297743,"current_range_meters":0,"station_id":"ce4bhs12rcd13ifvqhvg","pricing_plan_id":"free"},{"bike_id":"4b176a2b-35a8-478e-93c2-e09cc8ed4702","system_id":"levelo_inurba_marseille","lat":43.302784,"lon":5.377158,"is_reserved":false,"is_disabled":false,"rental_uris":{"android":"levelo://app?vid=4b176a2b-35a8-478e-93c2-e09cc8ed4702","ios":"levelo://app?vid=4b176a2b-35a8-478e-93c2-e09cc8ed4702"},"vehicle_type_id":"4","last_reported":1703297743,"current_range_meters":800,"station_id":"ce4bguh2rcd13ifvqcj0","pricing_plan_id":"free"},{"bike_id":"84ff0b10-c257-4323-b98a-de8b16b89652","system_id":"levelo_inurba_marseille","lat":43.302784,"lon":5.377158,"is_reserved":false,"is_disabled":false,"rental_uris":{"android":"levelo://app?vid=84ff0b10-c257-4323-b98a-de8b16b89652","ios":"levelo://app?vid=84ff0b10-c257-4323-b98a-de8b16b89652"},"vehicle_type_id":"4","last_reported":1703297743,"current_range_meters":4800,"station_id":"ce4bguh2rcd13ifvqcj0","pricing_plan_id":"free"},{"bike_id":"69599836-e945-413a-a849-741769f44bc7","system_id":"levelo_inurba_marseille","lat":43.302784,"lon":5.377158,"is_reserved":false,"is_disabled":false,"rental_uris":{"android":"levelo://app?vid=69599836-e945-413a-a849-741769f44bc7","ios":"levelo://app?vid=69599836-e945-413a-a849-741769f44bc7"},"vehicle_type_id":"4","last_reported":1703297743,"current_range_meters":16000,"station_id":"ce4bguh2rcd13ifvqcj0","pricing_plan_id":"free"},{"bike_id":"08a4cd95-4c29-4f5a-9d62-af409fc42d0b","system_id":"levelo_inurba_marseille","lat":43.301429,"lon":5.37413,"is_reserved":false,"is_disabled":false,"rental_uris":{"android":"levelo://app?vid=08a4cd95-4c29-4f5a-9d62-af409fc42d0b","ios":"levelo://app?vid=08a4cd95-4c29-4f5a-9d62-af409fc42d0b"},"vehicle_type_id":"4","last_reported":1703297743,"current_range_meters":31600,"station_id":"ce4bgs92rcd13ifvqcc0","pricing_plan_id":"free"},{"bike_id":"729a54ba-c089-4d7b-91f9-f9e593a9f53e","system_id":"levelo_inurba_marseille","lat":43.301429,"lon":5.37413,"is_reserved":false,"is_disabled":false,"rental_uris":{"android":"levelo://app?vid=729a54ba-c089-4d7b-91f9-f9e593a9f53e","ios":"levelo://app?vid=729a54ba-c089-4d7b-91f9-f9e593a9f53e"},"vehicle_type_id":"4","last_reported":1703297743,"current_range_meters":21200,"station_id":"ce4bgs92rcd13ifvqcc0","pricing_plan_id":"free"},{"bike_id":"9c231161-337f-4eba-87d3-44d75eaa84aa","system_id":"levelo_inurba_marseille","lat":43.319935,"lon":5.381699,"is_reserved":false,"is_disabled":false,"rental_uris":{"android":"levelo://app?vid=9c231161-337f-4eba-87d3-44d75eaa84aa","ios":"levelo://app?vid=9c231161-337f-4eba-87d3-44d75eaa84aa"},"vehicle_type_id":"4","last_reported":1703297743,"current_range_meters":29200,"station_id":"ce4bhr12rcd13ifvqhpg","pricing_plan_id":"free"},{"bike_id":"82b7c1aa-506b-4cff-953c-bb835d7847c3","system_id":"levelo_inurba_marseille","lat":43.319935,"lon":5.381699,"is_reserved":false,"is_disabled":false,"rental_uris":{"android":"levelo://app?vid=82b7c1aa-506b-4cff-953c-bb835d7847c3","ios":"levelo://app?vid=82b7c1aa-506b-4cff-953c-bb835d7847c3"},"vehicle_type_id":"4","last_reported":1703297743,"current_range_meters":12800,"station_id":"ce4bhr12rcd13ifvqhpg","pricing_plan_id":"free"},{"bike_id":"0660b770-dd60-4e90-8802-23f4be821afa","system_id":"levelo_inurba_marseille","lat":43.319935,"lon":5.381699,"is_reserved":false,"is_disabled":false,"rental_uris":{"android":"levelo://app?vid=0660b770-dd60-4e90-8802-23f4be821afa","ios":"levelo://app?vid=0660b770-dd60-4e90-8802-23f4be821afa"},"vehicle_type_id":"4","last_reported":1703297743,"current_range_meters":4400,"station_id":"ce4bhr12rcd13ifvqhpg","pricing_plan_id":"free"},{"bike_id":"dc0f6af5-c02c-4610-baea-e5c6ca16f530","system_id":"levelo_inurba_marseille","lat":43.31995,"lon":5.381515,"is_reserved":false,"is_disabled":false,"rental_uris":{"android":"levelo://app?vid=dc0f6af5-c02c-4610-baea-e5c6ca16f530","ios":"levelo://app?vid=dc0f6af5-c02c-4610-baea-e5c6ca16f530"},"vehicle_type_id":"4","last_reported":1703297743,"current_range_meters":27200,"station_id":"ce4bhr12rcd13ifvqhpg","pricing_plan_id":"free"},{"bike_id":"7f17d550-d32d-4490-8e9d-12fbd3d7571d","system_id":"levelo_inurba_marseille","lat":43.319935,"lon":5.381699,"is_reserved":false,"is_disabled":false,"rental_uris":{"android":"levelo://app?vid=7f17d550-d32d-4490-8e9d-12fbd3d7571d","ios":"levelo://app?vid=7f17d550-d32d-4490-8e9d-12fbd3d7571d"},"vehicle_type_id":"4","last_reported":1703297743,"current_range_meters":20800,"station_id":"ce4bhr12rcd13ifvqhpg","pricing_plan_id":"free"},{"bike_id":"a4d91f4c-0227-4bc9-a904-969806ef4ac5","system_id":"levelo_inurba_marseille","lat":43.319935,"lon":5.381699,"is_reserved":false,"is_disabled":false,"rental_uris":{"android":"levelo://app?vid=a4d91f4c-0227-4bc9-a904-969806ef4ac5","ios":"levelo://app?vid=a4d91f4c-0227-4bc9-a904-969806ef4ac5"},"vehicle_type_id":"4","last_reported":1703297743,"current_range_meters":20000,"station_id":"ce4bhr12rcd13ifvqhpg","pricing_plan_id":"free"},{"bike_id":"c616a760-5d15-46bb-9d75-552ebc124cb7","system_id":"levelo_inurba_marseille","lat":43.319935,"lon":5.381699,"is_reserved":false,"is_disabled":false,"rental_uris":{"android":"levelo://app?vid=c616a760-5d15-46bb-9d75-552ebc124cb7","ios":"levelo://app?vid=c616a760-5d15-46bb-9d75-552ebc124cb7"},"vehicle_type_id":"4","last_reported":1703297743,"current_range_meters":18400,"station_id":"ce4bhr12rcd13ifvqhpg","pricing_plan_id":"free"},{"bike_id":"965cf9c4-61d5-49c2-b8b1-76508d620af4","system_id":"levelo_inurba_marseille","lat":43.319935,"lon":5.381699,"is_reserved":false,"is_disabled":false,"rental_uris":{"android":"levelo://app?vid=965cf9c4-61d5-49c2-b8b1-76508d620af4","ios":"levelo://app?vid=965cf9c4-61d5-49c2-b8b1-76508d620af4"},"vehicle_type_id":"4","last_reported":1703297743,"current_range_meters":18800,"station_id":"ce4bhr12rcd13ifvqhpg","pricing_plan_id":"free"},{"bike_id":"ef8af028-1549-48a0-977e-4457f6b198f5","system_id":"levelo_inurba_marseille","lat":43.313571,"lon":5.384829,"is_reserved":false,"is_disabled":false,"rental_uris":{"android":"levelo://app?vid=ef8af028-1549-48a0-977e-4457f6b198f5","ios":"levelo://app?vid=ef8af028-1549-48a0-977e-4457f6b198f5"},"vehicle_type_id":"4","last_reported":1703297743,"current_range_meters":28800,"station_id":"ce4bgt92rcd13ifvqcf0","pricing_plan_id":"free"},{"bike_id":"b2298684-599c-482e-b07c-b5922fa63ab5","system_id":"levelo_inurba_marseille","lat":43.313571,"lon":5.384829,"is_reserved":false,"is_disabled":false,"rental_uris":{"android":"levelo://app?vid=b2298684-599c-482e-b07c-b5922fa63ab5","ios":"levelo://app?vid=b2298684-599c-482e-b07c-b5922fa63ab5"},"vehicle_type_id":"4","last_reported":1703297743,"current_range_meters":23200,"station_id":"ce4bgt92rcd13ifvqcf0","pricing_plan_id":"free"},{"bike_id":"ee321798-28cf-42d8-b778-539ba298faed","system_id":"levelo_inurba_marseille","lat":43.299222,"lon":5.365554,"is_reserved":false,"is_disabled":false,"rental_uris":{"android":"levelo://app?vid=ee321798-28cf-42d8-b778-539ba298faed","ios":"levelo://app?vid=ee321798-28cf-42d8-b778-539ba298faed"},"vehicle_type_id":"4","last_reported":1703297743,"current_range_meters":12400,"station_id":"ce4bgm92rcd13ifvqbr0","pricing_plan_id":"free"},{"bike_id":"b621ba55-00db-4085-a0db-544f404b7ec6","system_id":"levelo_inurba_marseille","lat":43.305364,"lon":5.384119,"is_reserved":false,"is_disabled":false,"rental_uris":{"android":"levelo://app?vid=b621ba55-00db-4085-a0db-544f404b7ec6","ios":"levelo://app?vid=b621ba55-00db-4085-a0db-544f404b7ec6"},"vehicle_type_id":"4","last_reported":1703297743,"current_range_meters":6400,"station_id":"ce4bgg92rcd13ifvqb30","pricing_plan_id":"free"},{"bike_id":"9970c10e-2018-44f8-8ebc-a7b426751cf0","system_id":"levelo_inurba_marseille","lat":43.305364,"lon":5.384119,"is_reserved":false,"is_disabled":false,"rental_uris":{"android":"levelo://app?vid=9970c10e-2018-44f8-8ebc-a7b426751cf0","ios":"levelo://app?vid=9970c10e-2018-44f8-8ebc-a7b426751cf0"},"vehicle_type_id":"4","last_reported":1703297743,"current_range_meters":4000,"station_id":"ce4bgg92rcd13ifvqb30","pricing_plan_id":"free"},{"bike_id":"dd3cdca6-74f1-48ab-aaf2-b328e1b973f6","system_id":"levelo_inurba_marseille","lat":43.311722,"lon":5.387247,"is_reserved":false,"is_disabled":false,"rental_uris":{"android":"levelo://app?vid=dd3cdca6-74f1-48ab-aaf2-b328e1b973f6","ios":"levelo://app?vid=dd3cdca6-74f1-48ab-aaf2-b328e1b973f6"},"vehicle_type_id":"4","last_reported":1703297743,"current_range_meters":24800,"station_id":"ce4bgv12rcd13ifvqcp0","pricing_plan_id":"free"},{"bike_id":"39f0daf9-5d2a-4157-a9bf-21ba28fbcf18","system_id":"levelo_inurba_marseille","lat":43.311722,"lon":5.387247,"is_reserved":false,"is_disabled":false,"rental_uris":{"android":"levelo://app?vid=39f0daf9-5d2a-4157-a9bf-21ba28fbcf18","ios":"levelo://app?vid=39f0daf9-5d2a-4157-a9bf-21ba28fbcf18"},"vehicle_type_id":"4","last_reported":1703297743,"current_range_meters":31600,"station_id":"ce4bgv12rcd13ifvqcp0","pricing_plan_id":"free"},{"bike_id":"8e793923-fa4c-438b-978b-8708cbf0b182","system_id":"levelo_inurba_marseille","lat":43.311722,"lon":5.387247,"is_reserved":false,"is_disabled":false,"rental_uris":{"android":"levelo://app?vid=8e793923-fa4c-438b-978b-8708cbf0b182","ios":"levelo://app?vid=8e793923-fa4c-438b-978b-8708cbf0b182"},"vehicle_type_id":"4","last_reported":1703297743,"current_range_meters":15200,"station_id":"ce4bgv12rcd13ifvqcp0","pricing_plan_id":"free"},{"bike_id":"e4cf6f6e-7d8c-4b7e-ab01-7de3c446c970","system_id":"levelo_inurba_marseille","lat":43.322872,"lon":5.382756,"is_reserved":false,"is_disabled":false,"rental_uris":{"android":"levelo://app?vid=e4cf6f6e-7d8c-4b7e-ab01-7de3c446c970","ios":"levelo://app?vid=e4cf6f6e-7d8c-4b7e-ab01-7de3c446c970"},"vehicle_type_id":"4","last_reported":1703297743,"current_range_meters":31200,"station_id":"ce4bhr12rcd13ifvqhqg","pricing_plan_id":"free"},{"bike_id":"62a0e181-56c1-4aad-a05b-240ecf27baec","system_id":"levelo_inurba_marseille","lat":43.322872,"lon":5.382756,"is_reserved":false,"is_disabled":false,"rental_uris":{"android":"levelo://app?vid=62a0e181-56c1-4aad-a05b-240ecf27baec","ios":"levelo://app?vid=62a0e181-56c1-4aad-a05b-240ecf27baec"},"vehicle_type_id":"4","last_reported":1703297743,"current_range_meters":31200,"station_id":"ce4bhr12rcd13ifvqhqg","pricing_plan_id":"free"},{"bike_id":"6ef56fd5-1a7c-4c71-8bf8-33afeff899ef","system_id":"levelo_inurba_marseille","lat":43.322872,"lon":5.382756,"is_reserved":false,"is_disabled":false,"rental_uris":{"android":"levelo://app?vid=6ef56fd5-1a7c-4c71-8bf8-33afeff899ef","ios":"levelo://app?vid=6ef56fd5-1a7c-4c71-8bf8-33afeff899ef"},"vehicle_type_id":"4","last_reported":1703297743,"current_range_meters":18800,"station_id":"ce4bhr12rcd13ifvqhqg","pricing_plan_id":"free"},{"bike_id":"f5987233-1d3e-4901-8b4d-56e1ca83344b","system_id":"levelo_inurba_marseille","lat":43.322872,"lon":5.382756,"is_reserved":false,"is_disabled":false,"rental_uris":{"android":"levelo://app?vid=f5987233-1d3e-4901-8b4d-56e1ca83344b","ios":"levelo://app?vid=f5987233-1d3e-4901-8b4d-56e1ca83344b"},"vehicle_type_id":"4","last_reported":1703297743,"current_range_meters":31600,"station_id":"ce4bhr12rcd13ifvqhqg","pricing_plan_id":"free"},{"bike_id":"d728a8b4-bece-4be0-a14a-8abb6b425cd7","system_id":"levelo_inurba_marseille","lat":43.328371,"lon":5.366909,"is_reserved":false,"is_disabled":false,"rental_uris":{"android":"levelo://app?vid=d728a8b4-bece-4be0-a14a-8abb6b425cd7","ios":"levelo://app?vid=d728a8b4-bece-4be0-a14a-8abb6b425cd7"},"vehicle_type_id":"4","last_reported":1703297743,"current_range_meters":15200,"station_id":"ce4bhs92rcd13ifvqi0g","pricing_plan_id":"free"},{"bike_id":"6cba446c-9ee9-4546-8c3c-626825b73b1e","system_id":"levelo_inurba_marseille","lat":43.328371,"lon":5.366909,"is_reserved":false,"is_disabled":false,"rental_uris":{"android":"levelo://app?vid=6cba446c-9ee9-4546-8c3c-626825b73b1e","ios":"levelo://app?vid=6cba446c-9ee9-4546-8c3c-626825b73b1e"},"vehicle_type_id":"4","last_reported":1703297743,"current_range_meters":5200,"station_id":"ce4bhs92rcd13ifvqi0g","pricing_plan_id":"free"},{"bike_id":"aa3fb6e4-1c03-44e5-96a0-f8edc6b5e34f","system_id":"levelo_inurba_marseille","lat":43.328371,"lon":5.366909,"is_reserved":false,"is_disabled":false,"rental_uris":{"android":"levelo://app?vid=aa3fb6e4-1c03-44e5-96a0-f8edc6b5e34f","ios":"levelo://app?vid=aa3fb6e4-1c03-44e5-96a0-f8edc6b5e34f"},"vehicle_type_id":"4","last_reported":1703297743,"current_range_meters":0,"station_id":"ce4bhs92rcd13ifvqi0g","pricing_plan_id":"free"},{"bike_id":"d2be49f4-d512-450f-80de-370a6da97420","system_id":"levelo_inurba_marseille","lat":43.328371,"lon":5.366909,"is_reserved":false,"is_disabled":false,"rental_uris":{"android":"levelo://app?vid=d2be49f4-d512-450f-80de-370a6da97420","ios":"levelo://app?vid=d2be49f4-d512-450f-80de-370a6da97420"},"vehicle_type_id":"4","last_reported":1703297743,"current_range_meters":2800,"station_id":"ce4bhs92rcd13ifvqi0g","pricing_plan_id":"free"},{"bike_id":"b2244d4b-5cac-47c6-abf7-da027fdb3f39","system_id":"levelo_inurba_marseille","lat":43.328371,"lon":5.366909,"is_reserved":false,"is_disabled":false,"rental_uris":{"android":"levelo://app?vid=b2244d4b-5cac-47c6-abf7-da027fdb3f39","ios":"levelo://app?vid=b2244d4b-5cac-47c6-abf7-da027fdb3f39"},"vehicle_type_id":"4","last_reported":1703297743,"current_range_meters":24000,"station_id":"ce4bhs92rcd13ifvqi0g","pricing_plan_id":"free"},{"bike_id":"525f6ec1-c089-48ad-8216-d8e073aa768d","system_id":"levelo_inurba_marseille","lat":43.32849,"lon":5.36686,"is_reserved":false,"is_disabled":false,"rental_uris":{"android":"levelo://app?vid=525f6ec1-c089-48ad-8216-d8e073aa768d","ios":"levelo://app?vid=525f6ec1-c089-48ad-8216-d8e073aa768d"},"vehicle_type_id":"4","last_reported":1703297743,"current_range_meters":3600,"station_id":"ce4bhs92rcd13ifvqi0g","pricing_plan_id":"free"},{"bike_id":"0eb456c9-b32c-41c1-9b31-d5728e3b8202","system_id":"levelo_inurba_marseille","lat":43.309589,"lon":5.390258,"is_reserved":false,"is_disabled":false,"rental_uris":{"android":"levelo://app?vid=0eb456c9-b32c-41c1-9b31-d5728e3b8202","ios":"levelo://app?vid=0eb456c9-b32c-41c1-9b31-d5728e3b8202"},"vehicle_type_id":"4","last_reported":1703297743,"current_range_meters":29600,"station_id":"ce4bgup2rcd13ifvqco0","pricing_plan_id":"free"},{"bike_id":"978bd87e-148d-4d12-929b-ed562b80b796","system_id":"levelo_inurba_marseille","lat":43.309589,"lon":5.390258,"is_reserved":false,"is_disabled":false,"rental_uris":{"android":"levelo://app?vid=978bd87e-148d-4d12-929b-ed562b80b796","ios":"levelo://app?vid=978bd87e-148d-4d12-929b-ed562b80b796"},"vehicle_type_id":"4","last_reported":1703297743,"current_range_meters":26400,"station_id":"ce4bgup2rcd13ifvqco0","pricing_plan_id":"free"},{"bike_id":"4ef0fa5d-af1f-4fa7-bc6a-e349b7fdae8e","system_id":"levelo_inurba_marseille","lat":43.309589,"lon":5.390258,"is_reserved":false,"is_disabled":false,"rental_uris":{"android":"levelo://app?vid=4ef0fa5d-af1f-4fa7-bc6a-e349b7fdae8e","ios":"levelo://app?vid=4ef0fa5d-af1f-4fa7-bc6a-e349b7fdae8e"},"vehicle_type_id":"4","last_reported":1703297743,"current_range_meters":22800,"station_id":"ce4bgup2rcd13ifvqco0","pricing_plan_id":"free"},{"bike_id":"b9c8fefe-fcf2-4e1c-95c9-c0ffed42221d","system_id":"levelo_inurba_marseille","lat":43.317557,"lon":5.390173,"is_reserved":false,"is_disabled":false,"rental_uris":{"android":"levelo://app?vid=b9c8fefe-fcf2-4e1c-95c9-c0ffed42221d","ios":"levelo://app?vid=b9c8fefe-fcf2-4e1c-95c9-c0ffed42221d"},"vehicle_type_id":"4","last_reported":1703297743,"current_range_meters":31200,"station_id":"ce4bhqp2rcd13ifvqhng","pricing_plan_id":"free"},{"bike_id":"c8fb1772-b152-41b4-b416-0d39c46a6ebd","system_id":"levelo_inurba_marseille","lat":43.317557,"lon":5.390173,"is_reserved":false,"is_disabled":false,"rental_uris":{"android":"levelo://app?vid=c8fb1772-b152-41b4-b416-0d39c46a6ebd","ios":"levelo://app?vid=c8fb1772-b152-41b4-b416-0d39c46a6ebd"},"vehicle_type_id":"4","last_reported":1703297743,"current_range_meters":4000,"station_id":"ce4bhqp2rcd13ifvqhng","pricing_plan_id":"free"},{"bike_id":"62e22e3e-8174-4ec7-90f7-4445322daa77","system_id":"levelo_inurba_marseille","lat":43.317557,"lon":5.390173,"is_reserved":false,"is_disabled":false,"rental_uris":{"android":"levelo://app?vid=62e22e3e-8174-4ec7-90f7-4445322daa77","ios":"levelo://app?vid=62e22e3e-8174-4ec7-90f7-4445322daa77"},"vehicle_type_id":"4","last_reported":1703297743,"current_range_meters":25200,"station_id":"ce4bhqp2rcd13ifvqhng","pricing_plan_id":"free"},{"bike_id":"d39682ea-d8f1-45a4-b2b8-5a732fb091bc","system_id":"levelo_inurba_marseille","lat":43.317557,"lon":5.390173,"is_reserved":false,"is_disabled":false,"rental_uris":{"android":"levelo://app?vid=d39682ea-d8f1-45a4-b2b8-5a732fb091bc","ios":"levelo://app?vid=d39682ea-d8f1-45a4-b2b8-5a732fb091bc"},"vehicle_type_id":"4","last_reported":1703297743,"current_range_meters":31200,"station_id":"ce4bhqp2rcd13ifvqhng","pricing_plan_id":"free"},{"bike_id":"b3e69c1d-7e5a-4757-bef8-3569af454ae7","system_id":"levelo_inurba_marseille","lat":43.317546,"lon":5.390205,"is_reserved":false,"is_disabled":false,"rental_uris":{"android":"levelo://app?vid=b3e69c1d-7e5a-4757-bef8-3569af454ae7","ios":"levelo://app?vid=b3e69c1d-7e5a-4757-bef8-3569af454ae7"},"vehicle_type_id":"4","last_reported":1703297743,"current_range_meters":19200,"station_id":"ce4bhqp2rcd13ifvqhng","pricing_plan_id":"free"},{"bike_id":"43855516-4c02-494d-aefa-3c215dbc6b85","system_id":"levelo_inurba_marseille","lat":43.317557,"lon":5.390173,"is_reserved":false,"is_disabled":false,"rental_uris":{"android":"levelo://app?vid=43855516-4c02-494d-aefa-3c215dbc6b85","ios":"levelo://app?vid=43855516-4c02-494d-aefa-3c215dbc6b85"},"vehicle_type_id":"4","last_reported":1703297743,"current_range_meters":0,"station_id":"ce4bhqp2rcd13ifvqhng","pricing_plan_id":"free"},{"bike_id":"cdb3d701-5381-4219-9cdd-c446bf2fa9ab","system_id":"levelo_inurba_marseille","lat":43.295354,"lon":5.361235,"is_reserved":false,"is_disabled":false,"rental_uris":{"android":"levelo://app?vid=cdb3d701-5381-4219-9cdd-c446bf2fa9ab","ios":"levelo://app?vid=cdb3d701-5381-4219-9cdd-c446bf2fa9ab"},"vehicle_type_id":"4","last_reported":1703297743,"current_range_meters":7200,"station_id":"","pricing_plan_id":"free"},{"bike_id":"dc576f31-c21e-42d2-97a4-815b145b7f58","system_id":"levelo_inurba_marseille","lat":43.32367,"lon":5.388836,"is_reserved":false,"is_disabled":false,"rental_uris":{"android":"levelo://app?vid=dc576f31-c21e-42d2-97a4-815b145b7f58","ios":"levelo://app?vid=dc576f31-c21e-42d2-97a4-815b145b7f58"},"vehicle_type_id":"4","last_reported":1703297743,"current_range_meters":800,"station_id":"ce4bhqp2rcd13ifvqhog","pricing_plan_id":"free"},{"bike_id":"eaa5e0c9-2b1c-4467-ab68-bbff3d6c2e68","system_id":"levelo_inurba_marseille","lat":43.32367,"lon":5.388836,"is_reserved":false,"is_disabled":false,"rental_uris":{"android":"levelo://app?vid=eaa5e0c9-2b1c-4467-ab68-bbff3d6c2e68","ios":"levelo://app?vid=eaa5e0c9-2b1c-4467-ab68-bbff3d6c2e68"},"vehicle_type_id":"4","last_reported":1703297743,"current_range_meters":20000,"station_id":"ce4bhqp2rcd13ifvqhog","pricing_plan_id":"free"},{"bike_id":"035ba96c-8560-4c70-973e-f7eb3e99c40c","system_id":"levelo_inurba_marseille","lat":43.32367,"lon":5.388836,"is_reserved":false,"is_disabled":false,"rental_uris":{"android":"levelo://app?vid=035ba96c-8560-4c70-973e-f7eb3e99c40c","ios":"levelo://app?vid=035ba96c-8560-4c70-973e-f7eb3e99c40c"},"vehicle_type_id":"4","last_reported":1703297743,"current_range_meters":19200,"station_id":"ce4bhqp2rcd13ifvqhog","pricing_plan_id":"free"},{"bike_id":"72d38d52-dc54-4223-abff-e8c043aba851","system_id":"levelo_inurba_marseille","lat":43.297945,"lon":5.385325,"is_reserved":false,"is_disabled":false,"rental_uris":{"android":"levelo://app?vid=72d38d52-dc54-4223-abff-e8c043aba851","ios":"levelo://app?vid=72d38d52-dc54-4223-abff-e8c043aba851"},"vehicle_type_id":"4","last_reported":1703297743,"current_range_meters":4800,"station_id":"","pricing_plan_id":"free"},{"bike_id":"ae1b7190-ba1b-4371-8714-bf5fef234478","system_id":"levelo_inurba_marseille","lat":43.293259,"lon":5.371586,"is_reserved":false,"is_disabled":false,"rental_uris":{"android":"levelo://app?vid=ae1b7190-ba1b-4371-8714-bf5fef234478","ios":"levelo://app?vid=ae1b7190-ba1b-4371-8714-bf5fef234478"},"vehicle_type_id":"4","last_reported":1703297743,"current_range_meters":24400,"station_id":"ce4bgh92rcd13ifvqb40","pricing_plan_id":"free"},{"bike_id":"e35aad00-e198-44c6-ad37-5d26adf72f63","system_id":"levelo_inurba_marseille","lat":43.305994,"lon":5.393687,"is_reserved":false,"is_disabled":false,"rental_uris":{"android":"levelo://app?vid=e35aad00-e198-44c6-ad37-5d26adf72f63","ios":"levelo://app?vid=e35aad00-e198-44c6-ad37-5d26adf72f63"},"vehicle_type_id":"4","last_reported":1703297743,"current_range_meters":29600,"station_id":"ce4bh0p2rcd13ifvqd80","pricing_plan_id":"free"},{"bike_id":"af52fdc1-b407-4d65-bd2e-28002895db0e","system_id":"levelo_inurba_marseille","lat":43.2936,"lon":5.37835,"is_reserved":false,"is_disabled":false,"rental_uris":{"android":"levelo://app?vid=af52fdc1-b407-4d65-bd2e-28002895db0e","ios":"levelo://app?vid=af52fdc1-b407-4d65-bd2e-28002895db0e"},"vehicle_type_id":"4","last_reported":1703297743,"current_range_meters":26800,"station_id":"ce4bgjh2rcd13ifvqbf0","pricing_plan_id":"free"},{"bike_id":"6b18bf16-2713-445d-a871-514ed4097ac6","system_id":"levelo_inurba_marseille","lat":43.309038,"lon":5.396546,"is_reserved":false,"is_disabled":false,"rental_uris":{"android":"levelo://app?vid=6b18bf16-2713-445d-a871-514ed4097ac6","ios":"levelo://app?vid=6b18bf16-2713-445d-a871-514ed4097ac6"},"vehicle_type_id":"4","last_reported":1703297743,"current_range_meters":3200,"station_id":"ce4bh012rcd13ifvqcv0","pricing_plan_id":"free"},{"bike_id":"8654e53c-b133-4b8c-978f-4f1f1fd06d2d","system_id":"levelo_inurba_marseille","lat":43.309047,"lon":5.396551,"is_reserved":false,"is_disabled":false,"rental_uris":{"android":"levelo://app?vid=8654e53c-b133-4b8c-978f-4f1f1fd06d2d","ios":"levelo://app?vid=8654e53c-b133-4b8c-978f-4f1f1fd06d2d"},"vehicle_type_id":"4","last_reported":1703297743,"current_range_meters":26000,"station_id":"ce4bh012rcd13ifvqcv0","pricing_plan_id":"free"},{"bike_id":"787a319f-9a79-4164-8fbf-55115fc93c14","system_id":"levelo_inurba_marseille","lat":43.292005,"lon":5.357875,"is_reserved":false,"is_disabled":false,"rental_uris":{"android":"levelo://app?vid=787a319f-9a79-4164-8fbf-55115fc93c14","ios":"levelo://app?vid=787a319f-9a79-4164-8fbf-55115fc93c14"},"vehicle_type_id":"4","last_reported":1703297743,"current_range_meters":400,"station_id":"ce4bhb12rcd13ifvqel0","pricing_plan_id":"free"},{"bike_id":"745b3ffa-fd0e-427a-8fc0-7f4276899b6e","system_id":"levelo_inurba_marseille","lat":43.309047,"lon":5.396551,"is_reserved":false,"is_disabled":false,"rental_uris":{"android":"levelo://app?vid=745b3ffa-fd0e-427a-8fc0-7f4276899b6e","ios":"levelo://app?vid=745b3ffa-fd0e-427a-8fc0-7f4276899b6e"},"vehicle_type_id":"4","last_reported":1703297743,"current_range_meters":16400,"station_id":"ce4bh012rcd13ifvqcv0","pricing_plan_id":"free"},{"bike_id":"d3cc02c2-2b0a-46f6-962c-8d5cf9b92e1d","system_id":"levelo_inurba_marseille","lat":43.313291,"lon":5.396838,"is_reserved":false,"is_disabled":false,"rental_uris":{"android":"levelo://app?vid=d3cc02c2-2b0a-46f6-962c-8d5cf9b92e1d","ios":"levelo://app?vid=d3cc02c2-2b0a-46f6-962c-8d5cf9b92e1d"},"vehicle_type_id":"4","last_reported":1703297743,"current_range_meters":12800,"station_id":"ce4bgvp2rcd13ifvqcu0","pricing_plan_id":"free"},{"bike_id":"89c8d67e-2c01-4fa3-8754-d919555d7b42","system_id":"levelo_inurba_marseille","lat":43.291994,"lon":5.357886,"is_reserved":false,"is_disabled":false,"rental_uris":{"android":"levelo://app?vid=89c8d67e-2c01-4fa3-8754-d919555d7b42","ios":"levelo://app?vid=89c8d67e-2c01-4fa3-8754-d919555d7b42"},"vehicle_type_id":"4","last_reported":1703297743,"current_range_meters":28400,"station_id":"ce4bhb12rcd13ifvqel0","pricing_plan_id":"free"},{"bike_id":"9c4bd2fc-3d5e-46d7-a52e-17b1c35c085b","system_id":"levelo_inurba_marseille","lat":43.313291,"lon":5.396838,"is_reserved":false,"is_disabled":false,"rental_uris":{"android":"levelo://app?vid=9c4bd2fc-3d5e-46d7-a52e-17b1c35c085b","ios":"levelo://app?vid=9c4bd2fc-3d5e-46d7-a52e-17b1c35c085b"},"vehicle_type_id":"4","last_reported":1703297743,"current_range_meters":14400,"station_id":"ce4bgvp2rcd13ifvqcu0","pricing_plan_id":"free"},{"bike_id":"c23d4d29-19f0-4ca1-80c0-8118d77a30aa","system_id":"levelo_inurba_marseille","lat":43.313291,"lon":5.396838,"is_reserved":false,"is_disabled":false,"rental_uris":{"android":"levelo://app?vid=c23d4d29-19f0-4ca1-80c0-8118d77a30aa","ios":"levelo://app?vid=c23d4d29-19f0-4ca1-80c0-8118d77a30aa"},"vehicle_type_id":"4","last_reported":1703297743,"current_range_meters":25200,"station_id":"ce4bgvp2rcd13ifvqcu0","pricing_plan_id":"free"},{"bike_id":"38d8ffb9-ac7c-4e14-9721-daaee9d23c1a","system_id":"levelo_inurba_marseille","lat":43.313291,"lon":5.396838,"is_reserved":false,"is_disabled":false,"rental_uris":{"android":"levelo://app?vid=38d8ffb9-ac7c-4e14-9721-daaee9d23c1a","ios":"levelo://app?vid=38d8ffb9-ac7c-4e14-9721-daaee9d23c1a"},"vehicle_type_id":"4","last_reported":1703297743,"current_range_meters":31200,"station_id":"ce4bgvp2rcd13ifvqcu0","pricing_plan_id":"free"},{"bike_id":"60de5ffc-41f6-43eb-b69f-c56cc8381207","system_id":"levelo_inurba_marseille","lat":43.313291,"lon":5.396838,"is_reserved":false,"is_disabled":false,"rental_uris":{"android":"levelo://app?vid=60de5ffc-41f6-43eb-b69f-c56cc8381207","ios":"levelo://app?vid=60de5ffc-41f6-43eb-b69f-c56cc8381207"},"vehicle_type_id":"4","last_reported":1703297743,"current_range_meters":28800,"station_id":"ce4bgvp2rcd13ifvqcu0","pricing_plan_id":"free"},{"bike_id":"cbc62839-3c9d-4d9e-963f-bbabfe928114","system_id":"levelo_inurba_marseille","lat":43.313291,"lon":5.396838,"is_reserved":false,"is_disabled":false,"rental_uris":{"android":"levelo://app?vid=cbc62839-3c9d-4d9e-963f-bbabfe928114","ios":"levelo://app?vid=cbc62839-3c9d-4d9e-963f-bbabfe928114"},"vehicle_type_id":"4","last_reported":1703297743,"current_range_meters":29200,"station_id":"ce4bgvp2rcd13ifvqcu0","pricing_plan_id":"free"},{"bike_id":"fa38fcc7-ca87-4463-a289-03c7cd4e6723","system_id":"levelo_inurba_marseille","lat":43.313291,"lon":5.396838,"is_reserved":false,"is_disabled":false,"rental_uris":{"android":"levelo://app?vid=fa38fcc7-ca87-4463-a289-03c7cd4e6723","ios":"levelo://app?vid=fa38fcc7-ca87-4463-a289-03c7cd4e6723"},"vehicle_type_id":"4","last_reported":1703297743,"current_range_meters":31200,"station_id":"ce4bgvp2rcd13ifvqcu0","pricing_plan_id":"free"},{"bike_id":"365351fb-9dc0-4763-85db-886ebe3b10db","system_id":"levelo_inurba_marseille","lat":43.313291,"lon":5.396838,"is_reserved":false,"is_disabled":false,"rental_uris":{"android":"levelo://app?vid=365351fb-9dc0-4763-85db-886ebe3b10db","ios":"levelo://app?vid=365351fb-9dc0-4763-85db-886ebe3b10db"},"vehicle_type_id":"4","last_reported":1703297743,"current_range_meters":6800,"station_id":"ce4bgvp2rcd13ifvqcu0","pricing_plan_id":"free"},{"bike_id":"a90b8b83-e596-4fc1-8b62-b201f740b064","system_id":"levelo_inurba_marseille","lat":43.313291,"lon":5.396838,"is_reserved":false,"is_disabled":false,"rental_uris":{"android":"levelo://app?vid=a90b8b83-e596-4fc1-8b62-b201f740b064","ios":"levelo://app?vid=a90b8b83-e596-4fc1-8b62-b201f740b064"},"vehicle_type_id":"4","last_reported":1703297743,"current_range_meters":31200,"station_id":"ce4bgvp2rcd13ifvqcu0","pricing_plan_id":"free"},{"bike_id":"a3f899e3-7023-44e7-9080-b8249dcf4b23","system_id":"levelo_inurba_marseille","lat":43.309038,"lon":5.396546,"is_reserved":false,"is_disabled":false,"rental_uris":{"android":"levelo://app?vid=a3f899e3-7023-44e7-9080-b8249dcf4b23","ios":"levelo://app?vid=a3f899e3-7023-44e7-9080-b8249dcf4b23"},"vehicle_type_id":"4","last_reported":1703297743,"current_range_meters":21200,"station_id":"ce4bh012rcd13ifvqcv0","pricing_plan_id":"free"},{"bike_id":"391fd59d-c17f-42ab-af5d-4958a8115fc0","system_id":"levelo_inurba_marseille","lat":43.309038,"lon":5.396546,"is_reserved":false,"is_disabled":false,"rental_uris":{"android":"levelo://app?vid=391fd59d-c17f-42ab-af5d-4958a8115fc0","ios":"levelo://app?vid=391fd59d-c17f-42ab-af5d-4958a8115fc0"},"vehicle_type_id":"4","last_reported":1703297743,"current_range_meters":30800,"station_id":"ce4bh012rcd13ifvqcv0","pricing_plan_id":"free"},{"bike_id":"eceb5307-053e-422d-bbd0-9af032e873b8","system_id":"levelo_inurba_marseille","lat":43.313291,"lon":5.396838,"is_reserved":false,"is_disabled":false,"rental_uris":{"android":"levelo://app?vid=eceb5307-053e-422d-bbd0-9af032e873b8","ios":"levelo://app?vid=eceb5307-053e-422d-bbd0-9af032e873b8"},"vehicle_type_id":"4","last_reported":1703297743,"current_range_meters":31200,"station_id":"ce4bgvp2rcd13ifvqcu0","pricing_plan_id":"free"},{"bike_id":"5b2aae5d-ed5d-47f6-abab-1dc9f5dbcaea","system_id":"levelo_inurba_marseille","lat":43.309047,"lon":5.396551,"is_reserved":false,"is_disabled":false,"rental_uris":{"android":"levelo://app?vid=5b2aae5d-ed5d-47f6-abab-1dc9f5dbcaea","ios":"levelo://app?vid=5b2aae5d-ed5d-47f6-abab-1dc9f5dbcaea"},"vehicle_type_id":"4","last_reported":1703297743,"current_range_meters":19200,"station_id":"ce4bh012rcd13ifvqcv0","pricing_plan_id":"free"},{"bike_id":"c4b5c253-f844-42fd-82a6-50cb9b8a64cd","system_id":"levelo_inurba_marseille","lat":43.313291,"lon":5.396838,"is_reserved":false,"is_disabled":false,"rental_uris":{"android":"levelo://app?vid=c4b5c253-f844-42fd-82a6-50cb9b8a64cd","ios":"levelo://app?vid=c4b5c253-f844-42fd-82a6-50cb9b8a64cd"},"vehicle_type_id":"4","last_reported":1703297743,"current_range_meters":31200,"station_id":"ce4bgvp2rcd13ifvqcu0","pricing_plan_id":"free"},{"bike_id":"91a64ce8-d82d-4164-b1dd-67385c0ea760","system_id":"levelo_inurba_marseille","lat":43.29529,"lon":5.385581,"is_reserved":false,"is_disabled":false,"rental_uris":{"android":"levelo://app?vid=91a64ce8-d82d-4164-b1dd-67385c0ea760","ios":"levelo://app?vid=91a64ce8-d82d-4164-b1dd-67385c0ea760"},"vehicle_type_id":"4","last_reported":1703297743,"current_range_meters":16400,"station_id":"ce4bgih2rcd13ifvqba0","pricing_plan_id":"free"},{"bike_id":"1cdb7fe1-f4e6-4212-968d-54421a6e3220","system_id":"levelo_inurba_marseille","lat":43.29068,"lon":5.37169,"is_reserved":false,"is_disabled":false,"rental_uris":{"android":"levelo://app?vid=1cdb7fe1-f4e6-4212-968d-54421a6e3220","ios":"levelo://app?vid=1cdb7fe1-f4e6-4212-968d-54421a6e3220"},"vehicle_type_id":"4","last_reported":1703297743,"current_range_meters":7200,"station_id":"ce4bh5p2rcd13ifvqe4g","pricing_plan_id":"free"},{"bike_id":"7eada8fb-8c59-41ea-ae15-1164bd9fc1af","system_id":"levelo_inurba_marseille","lat":43.324436,"lon":5.393513,"is_reserved":false,"is_disabled":false,"rental_uris":{"android":"levelo://app?vid=7eada8fb-8c59-41ea-ae15-1164bd9fc1af","ios":"levelo://app?vid=7eada8fb-8c59-41ea-ae15-1164bd9fc1af"},"vehicle_type_id":"4","last_reported":1703297743,"current_range_meters":30800,"station_id":"","pricing_plan_id":"free"},{"bike_id":"dd007d71-4a6c-403a-a1a0-ea0c10c811f9","system_id":"levelo_inurba_marseille","lat":43.290624,"lon":5.359245,"is_reserved":false,"is_disabled":false,"rental_uris":{"android":"levelo://app?vid=dd007d71-4a6c-403a-a1a0-ea0c10c811f9","ios":"levelo://app?vid=dd007d71-4a6c-403a-a1a0-ea0c10c811f9"},"vehicle_type_id":"4","last_reported":1703297743,"current_range_meters":31200,"station_id":"ce4bha92rcd13ifvqeg0","pricing_plan_id":"free"},{"bike_id":"81ecd235-69e4-434d-8b01-82b37874aab3","system_id":"levelo_inurba_marseille","lat":43.290631,"lon":5.359244,"is_reserved":false,"is_disabled":false,"rental_uris":{"android":"levelo://app?vid=81ecd235-69e4-434d-8b01-82b37874aab3","ios":"levelo://app?vid=81ecd235-69e4-434d-8b01-82b37874aab3"},"vehicle_type_id":"4","last_reported":1703297743,"current_range_meters":31200,"station_id":"ce4bha92rcd13ifvqeg0","pricing_plan_id":"free"},{"bike_id":"14c14df6-3d79-4e82-b696-58ac6d869466","system_id":"levelo_inurba_marseille","lat":43.290624,"lon":5.359245,"is_reserved":false,"is_disabled":false,"rental_uris":{"android":"levelo://app?vid=14c14df6-3d79-4e82-b696-58ac6d869466","ios":"levelo://app?vid=14c14df6-3d79-4e82-b696-58ac6d869466"},"vehicle_type_id":"4","last_reported":1703297743,"current_range_meters":4000,"station_id":"ce4bha92rcd13ifvqeg0","pricing_plan_id":"free"},{"bike_id":"05a91304-c3de-4da2-834e-5964d898eaca","system_id":"levelo_inurba_marseille","lat":43.290631,"lon":5.359244,"is_reserved":false,"is_disabled":false,"rental_uris":{"android":"levelo://app?vid=05a91304-c3de-4da2-834e-5964d898eaca","ios":"levelo://app?vid=05a91304-c3de-4da2-834e-5964d898eaca"},"vehicle_type_id":"4","last_reported":1703297743,"current_range_meters":30400,"station_id":"ce4bha92rcd13ifvqeg0","pricing_plan_id":"free"},{"bike_id":"df98e185-d4ae-4208-ae02-a269a9e50adc","system_id":"levelo_inurba_marseille","lat":43.294153,"lon":5.386305,"is_reserved":false,"is_disabled":false,"rental_uris":{"android":"levelo://app?vid=df98e185-d4ae-4208-ae02-a269a9e50adc","ios":"levelo://app?vid=df98e185-d4ae-4208-ae02-a269a9e50adc"},"vehicle_type_id":"4","last_reported":1703297743,"current_range_meters":15600,"station_id":"ce4bh2h2rcd13ifvqdh0","pricing_plan_id":"free"},{"bike_id":"8dad4e37-2f92-4863-b9c7-c6a96b875ab5","system_id":"levelo_inurba_marseille","lat":43.289468,"lon":5.363719,"is_reserved":false,"is_disabled":false,"rental_uris":{"android":"levelo://app?vid=8dad4e37-2f92-4863-b9c7-c6a96b875ab5","ios":"levelo://app?vid=8dad4e37-2f92-4863-b9c7-c6a96b875ab5"},"vehicle_type_id":"4","last_reported":1703297743,"current_range_meters":30400,"station_id":"ce4bhc92rcd13ifvqetg","pricing_plan_id":"free"},{"bike_id":"cd6abb99-9829-46d6-8d05-81660d0496be","system_id":"levelo_inurba_marseille","lat":43.290104,"lon":5.356111,"is_reserved":false,"is_disabled":false,"rental_uris":{"android":"levelo://app?vid=cd6abb99-9829-46d6-8d05-81660d0496be","ios":"levelo://app?vid=cd6abb99-9829-46d6-8d05-81660d0496be"},"vehicle_type_id":"4","last_reported":1703297743,"current_range_meters":22800,"station_id":"ce4bhb92rcd13ifvqen0","pricing_plan_id":"free"},{"bike_id":"a217858c-904c-4927-86c0-6b271dfa38f8","system_id":"levelo_inurba_marseille","lat":43.290104,"lon":5.356111,"is_reserved":false,"is_disabled":false,"rental_uris":{"android":"levelo://app?vid=a217858c-904c-4927-86c0-6b271dfa38f8","ios":"levelo://app?vid=a217858c-904c-4927-86c0-6b271dfa38f8"},"vehicle_type_id":"4","last_reported":1703297743,"current_range_meters":24000,"station_id":"ce4bhb92rcd13ifvqen0","pricing_plan_id":"free"},{"bike_id":"8c2faf6e-553a-4df6-b833-7fc891d1b91d","system_id":"levelo_inurba_marseille","lat":43.290995,"lon":5.381361,"is_reserved":false,"is_disabled":false,"rental_uris":{"android":"levelo://app?vid=8c2faf6e-553a-4df6-b833-7fc891d1b91d","ios":"levelo://app?vid=8c2faf6e-553a-4df6-b833-7fc891d1b91d"},"vehicle_type_id":"4","last_reported":1703297743,"current_range_meters":18800,"station_id":"ce4bh512rcd13ifvqe2g","pricing_plan_id":"free"},{"bike_id":"1e927759-30b9-4a8c-aa31-b628fdb90c4d","system_id":"levelo_inurba_marseille","lat":43.295169,"lon":5.390426,"is_reserved":false,"is_disabled":false,"rental_uris":{"android":"levelo://app?vid=1e927759-30b9-4a8c-aa31-b628fdb90c4d","ios":"levelo://app?vid=1e927759-30b9-4a8c-aa31-b628fdb90c4d"},"vehicle_type_id":"4","last_reported":1703297743,"current_range_meters":8000,"station_id":"ce4bh3p2rcd13ifvqdp0","pricing_plan_id":"free"},{"bike_id":"5f476807-2cdf-4e90-95d4-5c969ff44176","system_id":"levelo_inurba_marseille","lat":43.297815,"lon":5.393548,"is_reserved":false,"is_disabled":false,"rental_uris":{"android":"levelo://app?vid=5f476807-2cdf-4e90-95d4-5c969ff44176","ios":"levelo://app?vid=5f476807-2cdf-4e90-95d4-5c969ff44176"},"vehicle_type_id":"4","last_reported":1703297743,"current_range_meters":18400,"station_id":"chh1huq6cuj3fo74tm60","pricing_plan_id":"free"},{"bike_id":"05fff6a7-69be-496f-8807-94fe102f048d","system_id":"levelo_inurba_marseille","lat":43.295169,"lon":5.390426,"is_reserved":false,"is_disabled":false,"rental_uris":{"android":"levelo://app?vid=05fff6a7-69be-496f-8807-94fe102f048d","ios":"levelo://app?vid=05fff6a7-69be-496f-8807-94fe102f048d"},"vehicle_type_id":"4","last_reported":1703297743,"current_range_meters":29600,"station_id":"ce4bh3p2rcd13ifvqdp0","pricing_plan_id":"free"},{"bike_id":"0e155c0e-5b61-4c1e-b428-7a4daeaeed51","system_id":"levelo_inurba_marseille","lat":43.28856,"lon":5.358371,"is_reserved":false,"is_disabled":false,"rental_uris":{"android":"levelo://app?vid=0e155c0e-5b61-4c1e-b428-7a4daeaeed51","ios":"levelo://app?vid=0e155c0e-5b61-4c1e-b428-7a4daeaeed51"},"vehicle_type_id":"4","last_reported":1703297743,"current_range_meters":6400,"station_id":"ce4bhb12rcd13ifvqem0","pricing_plan_id":"free"},{"bike_id":"8ef0b422-19f6-411f-94a3-e522ab90585c","system_id":"levelo_inurba_marseille","lat":43.28856,"lon":5.358371,"is_reserved":false,"is_disabled":false,"rental_uris":{"android":"levelo://app?vid=8ef0b422-19f6-411f-94a3-e522ab90585c","ios":"levelo://app?vid=8ef0b422-19f6-411f-94a3-e522ab90585c"},"vehicle_type_id":"4","last_reported":1703297743,"current_range_meters":400,"station_id":"ce4bhb12rcd13ifvqem0","pricing_plan_id":"free"},{"bike_id":"53e421d9-65d6-44cf-8edd-899c2cf616e6","system_id":"levelo_inurba_marseille","lat":43.312609,"lon":5.401662,"is_reserved":false,"is_disabled":false,"rental_uris":{"android":"levelo://app?vid=53e421d9-65d6-44cf-8edd-899c2cf616e6","ios":"levelo://app?vid=53e421d9-65d6-44cf-8edd-899c2cf616e6"},"vehicle_type_id":"4","last_reported":1703297743,"current_range_meters":20400,"station_id":"ce4bh092rcd13ifvqd30","pricing_plan_id":"free"},{"bike_id":"cb834f18-e533-4e4b-866a-78b5e9e89f81","system_id":"levelo_inurba_marseille","lat":43.312609,"lon":5.401662,"is_reserved":false,"is_disabled":false,"rental_uris":{"android":"levelo://app?vid=cb834f18-e533-4e4b-866a-78b5e9e89f81","ios":"levelo://app?vid=cb834f18-e533-4e4b-866a-78b5e9e89f81"},"vehicle_type_id":"4","last_reported":1703297743,"current_range_meters":6000,"station_id":"ce4bh092rcd13ifvqd30","pricing_plan_id":"free"},{"bike_id":"7c110479-4714-4504-a115-fa58983029c8","system_id":"levelo_inurba_marseille","lat":43.30931,"lon":5.40145,"is_reserved":false,"is_disabled":false,"rental_uris":{"android":"levelo://app?vid=7c110479-4714-4504-a115-fa58983029c8","ios":"levelo://app?vid=7c110479-4714-4504-a115-fa58983029c8"},"vehicle_type_id":"4","last_reported":1703297743,"current_range_meters":0,"station_id":"","pricing_plan_id":"free"},{"bike_id":"7549ac9b-d1ad-40eb-9cd5-33a56b7ad2fb","system_id":"levelo_inurba_marseille","lat":43.309371,"lon":5.401449,"is_reserved":false,"is_disabled":false,"rental_uris":{"android":"levelo://app?vid=7549ac9b-d1ad-40eb-9cd5-33a56b7ad2fb","ios":"levelo://app?vid=7549ac9b-d1ad-40eb-9cd5-33a56b7ad2fb"},"vehicle_type_id":"4","last_reported":1703297743,"current_range_meters":20400,"station_id":"ce4bgvp2rcd13ifvqct0","pricing_plan_id":"free"},{"bike_id":"5442de4e-bff5-4457-9eff-f4bd8123b423","system_id":"levelo_inurba_marseille","lat":43.306412,"lon":5.401035,"is_reserved":false,"is_disabled":false,"rental_uris":{"android":"levelo://app?vid=5442de4e-bff5-4457-9eff-f4bd8123b423","ios":"levelo://app?vid=5442de4e-bff5-4457-9eff-f4bd8123b423"},"vehicle_type_id":"4","last_reported":1703297743,"current_range_meters":29600,"station_id":"ce4bh112rcd13ifvqda0","pricing_plan_id":"free"},{"bike_id":"f01fc780-09a3-489f-afc7-f01c2d89bba2","system_id":"levelo_inurba_marseille","lat":43.30642,"lon":5.401031,"is_reserved":false,"is_disabled":false,"rental_uris":{"android":"levelo://app?vid=f01fc780-09a3-489f-afc7-f01c2d89bba2","ios":"levelo://app?vid=f01fc780-09a3-489f-afc7-f01c2d89bba2"},"vehicle_type_id":"4","last_reported":1703297743,"current_range_meters":22400,"station_id":"ce4bh112rcd13ifvqda0","pricing_plan_id":"free"},{"bike_id":"9147d20d-052b-4f74-9a58-44d3a98b3237","system_id":"levelo_inurba_marseille","lat":43.309203,"lon":5.401467,"is_reserved":false,"is_disabled":false,"rental_uris":{"android":"levelo://app?vid=9147d20d-052b-4f74-9a58-44d3a98b3237","ios":"levelo://app?vid=9147d20d-052b-4f74-9a58-44d3a98b3237"},"vehicle_type_id":"4","last_reported":1703297743,"current_range_meters":5600,"station_id":"ce4bgvp2rcd13ifvqct0","pricing_plan_id":"free"},{"bike_id":"b3667c9d-bbb6-450c-9d12-a0bfd40990f8","system_id":"levelo_inurba_marseille","lat":43.309303,"lon":5.401507,"is_reserved":false,"is_disabled":false,"rental_uris":{"android":"levelo://app?vid=b3667c9d-bbb6-450c-9d12-a0bfd40990f8","ios":"levelo://app?vid=b3667c9d-bbb6-450c-9d12-a0bfd40990f8"},"vehicle_type_id":"4","last_reported":1703297743,"current_range_meters":17600,"station_id":"ce4bgvp2rcd13ifvqct0","pricing_plan_id":"free"},{"bike_id":"fb80af67-0bd9-41bb-9332-628b36cf4a3e","system_id":"levelo_inurba_marseille","lat":43.30927,"lon":5.40158,"is_reserved":false,"is_disabled":false,"rental_uris":{"android":"levelo://app?vid=fb80af67-0bd9-41bb-9332-628b36cf4a3e","ios":"levelo://app?vid=fb80af67-0bd9-41bb-9332-628b36cf4a3e"},"vehicle_type_id":"4","last_reported":1703297743,"current_range_meters":19200,"station_id":"","pricing_plan_id":"free"},{"bike_id":"3f6afa85-cff6-4d13-a0d3-9212c867d1d1","system_id":"levelo_inurba_marseille","lat":43.298789,"lon":5.397245,"is_reserved":false,"is_disabled":false,"rental_uris":{"android":"levelo://app?vid=3f6afa85-cff6-4d13-a0d3-9212c867d1d1","ios":"levelo://app?vid=3f6afa85-cff6-4d13-a0d3-9212c867d1d1"},"vehicle_type_id":"4","last_reported":1703297743,"current_range_meters":1200,"station_id":"ce4bh0h2rcd13ifvqd50","pricing_plan_id":"free"},{"bike_id":"baa99744-c241-4434-b1f3-82817ff7d8b2","system_id":"levelo_inurba_marseille","lat":43.286961,"lon":5.373785,"is_reserved":false,"is_disabled":false,"rental_uris":{"android":"levelo://app?vid=baa99744-c241-4434-b1f3-82817ff7d8b2","ios":"levelo://app?vid=baa99744-c241-4434-b1f3-82817ff7d8b2"},"vehicle_type_id":"4","last_reported":1703297743,"current_range_meters":31200,"station_id":"ce4bh3p2rcd13ifvqdq0","pricing_plan_id":"free"},{"bike_id":"d9319860-de7a-4ba2-95a1-203c76321596","system_id":"levelo_inurba_marseille","lat":43.298778,"lon":5.397485,"is_reserved":false,"is_disabled":false,"rental_uris":{"android":"levelo://app?vid=d9319860-de7a-4ba2-95a1-203c76321596","ios":"levelo://app?vid=d9319860-de7a-4ba2-95a1-203c76321596"},"vehicle_type_id":"4","last_reported":1703297743,"current_range_meters":4800,"station_id":"ce4bh0h2rcd13ifvqd50","pricing_plan_id":"free"},{"bike_id":"383c9d44-b5e8-4584-8ddd-9bb759232b03","system_id":"levelo_inurba_marseille","lat":43.298681,"lon":5.397225,"is_reserved":false,"is_disabled":false,"rental_uris":{"android":"levelo://app?vid=383c9d44-b5e8-4584-8ddd-9bb759232b03","ios":"levelo://app?vid=383c9d44-b5e8-4584-8ddd-9bb759232b03"},"vehicle_type_id":"4","last_reported":1703297743,"current_range_meters":12800,"station_id":"ce4bh0h2rcd13ifvqd50","pricing_plan_id":"free"},{"bike_id":"ee2dd77e-3591-40ff-8daa-c75d8a4bb17c","system_id":"levelo_inurba_marseille","lat":43.286961,"lon":5.373785,"is_reserved":false,"is_disabled":false,"rental_uris":{"android":"levelo://app?vid=ee2dd77e-3591-40ff-8daa-c75d8a4bb17c","ios":"levelo://app?vid=ee2dd77e-3591-40ff-8daa-c75d8a4bb17c"},"vehicle_type_id":"4","last_reported":1703297743,"current_range_meters":21600,"station_id":"ce4bh3p2rcd13ifvqdq0","pricing_plan_id":"free"},{"bike_id":"22716659-e897-42e6-a159-cc041ee50987","system_id":"levelo_inurba_marseille","lat":43.298681,"lon":5.397225,"is_reserved":false,"is_disabled":false,"rental_uris":{"android":"levelo://app?vid=22716659-e897-42e6-a159-cc041ee50987","ios":"levelo://app?vid=22716659-e897-42e6-a159-cc041ee50987"},"vehicle_type_id":"4","last_reported":1703297743,"current_range_meters":26800,"station_id":"ce4bh0h2rcd13ifvqd50","pricing_plan_id":"free"},{"bike_id":"dba5d776-6b5a-4c2c-b5f5-ea57412fbe25","system_id":"levelo_inurba_marseille","lat":43.302759,"lon":5.400793,"is_reserved":false,"is_disabled":false,"rental_uris":{"android":"levelo://app?vid=dba5d776-6b5a-4c2c-b5f5-ea57412fbe25","ios":"levelo://app?vid=dba5d776-6b5a-4c2c-b5f5-ea57412fbe25"},"vehicle_type_id":"4","last_reported":1703297743,"current_range_meters":29200,"station_id":"ce4bgvh2rcd13ifvqcs0","pricing_plan_id":"free"},{"bike_id":"43f1d977-5024-425f-9b0f-aa4fbdc8122e","system_id":"levelo_inurba_marseille","lat":43.302759,"lon":5.400793,"is_reserved":false,"is_disabled":false,"rental_uris":{"android":"levelo://app?vid=43f1d977-5024-425f-9b0f-aa4fbdc8122e","ios":"levelo://app?vid=43f1d977-5024-425f-9b0f-aa4fbdc8122e"},"vehicle_type_id":"4","last_reported":1703297743,"current_range_meters":4800,"station_id":"ce4bgvh2rcd13ifvqcs0","pricing_plan_id":"free"},{"bike_id":"27b66ec1-94f4-441d-a7e0-2db4ab89f0de","system_id":"levelo_inurba_marseille","lat":43.302759,"lon":5.400793,"is_reserved":false,"is_disabled":false,"rental_uris":{"android":"levelo://app?vid=27b66ec1-94f4-441d-a7e0-2db4ab89f0de","ios":"levelo://app?vid=27b66ec1-94f4-441d-a7e0-2db4ab89f0de"},"vehicle_type_id":"4","last_reported":1703297743,"current_range_meters":30800,"station_id":"ce4bgvh2rcd13ifvqcs0","pricing_plan_id":"free"},{"bike_id":"be70652c-11eb-40a4-bc1b-bdcf9873b074","system_id":"levelo_inurba_marseille","lat":43.302759,"lon":5.400793,"is_reserved":false,"is_disabled":false,"rental_uris":{"android":"levelo://app?vid=be70652c-11eb-40a4-bc1b-bdcf9873b074","ios":"levelo://app?vid=be70652c-11eb-40a4-bc1b-bdcf9873b074"},"vehicle_type_id":"4","last_reported":1703297743,"current_range_meters":17200,"station_id":"ce4bgvh2rcd13ifvqcs0","pricing_plan_id":"free"},{"bike_id":"b269c749-19b3-457a-9f11-021ccc443c55","system_id":"levelo_inurba_marseille","lat":43.286039,"lon":5.370679,"is_reserved":false,"is_disabled":false,"rental_uris":{"android":"levelo://app?vid=b269c749-19b3-457a-9f11-021ccc443c55","ios":"levelo://app?vid=b269c749-19b3-457a-9f11-021ccc443c55"},"vehicle_type_id":"4","last_reported":1703297743,"current_range_meters":17600,"station_id":"ce4bht12rcd13ifvqi60","pricing_plan_id":"free"},{"bike_id":"07420774-1b3c-4f89-9962-d7fd0d94bc67","system_id":"levelo_inurba_marseille","lat":43.287184,"lon":5.37937,"is_reserved":false,"is_disabled":false,"rental_uris":{"android":"levelo://app?vid=07420774-1b3c-4f89-9962-d7fd0d94bc67","ios":"levelo://app?vid=07420774-1b3c-4f89-9962-d7fd0d94bc67"},"vehicle_type_id":"4","last_reported":1703297743,"current_range_meters":20000,"station_id":"ce4bh9p2rcd13ifvqec0","pricing_plan_id":"free"},{"bike_id":"8d7088d7-7e98-4530-8f59-682e05945221","system_id":"levelo_inurba_marseille","lat":43.316828,"lon":5.404723,"is_reserved":false,"is_disabled":false,"rental_uris":{"android":"levelo://app?vid=8d7088d7-7e98-4530-8f59-682e05945221","ios":"levelo://app?vid=8d7088d7-7e98-4530-8f59-682e05945221"},"vehicle_type_id":"4","last_reported":1703297743,"current_range_meters":8000,"station_id":"ce4bh012rcd13ifvqd00","pricing_plan_id":"free"},{"bike_id":"e2adfa7c-882e-48a1-9ee4-b36e6186ebbf","system_id":"levelo_inurba_marseille","lat":43.330912,"lon":5.396935,"is_reserved":false,"is_disabled":false,"rental_uris":{"android":"levelo://app?vid=e2adfa7c-882e-48a1-9ee4-b36e6186ebbf","ios":"levelo://app?vid=e2adfa7c-882e-48a1-9ee4-b36e6186ebbf"},"vehicle_type_id":"4","last_reported":1703297743,"current_range_meters":16400,"station_id":"","pricing_plan_id":"free"},{"bike_id":"6681f091-8cae-40db-82be-2afedc79afec","system_id":"levelo_inurba_marseille","lat":43.297974,"lon":5.400771,"is_reserved":false,"is_disabled":false,"rental_uris":{"android":"levelo://app?vid=6681f091-8cae-40db-82be-2afedc79afec","ios":"levelo://app?vid=6681f091-8cae-40db-82be-2afedc79afec"},"vehicle_type_id":"4","last_reported":1703297743,"current_range_meters":3600,"station_id":"","pricing_plan_id":"free"},{"bike_id":"ce83a5c5-1b59-4268-ba3a-86cabe0b3ae5","system_id":"levelo_inurba_marseille","lat":43.284538,"lon":5.358657,"is_reserved":false,"is_disabled":false,"rental_uris":{"android":"levelo://app?vid=ce83a5c5-1b59-4268-ba3a-86cabe0b3ae5","ios":"levelo://app?vid=ce83a5c5-1b59-4268-ba3a-86cabe0b3ae5"},"vehicle_type_id":"4","last_reported":1703297743,"current_range_meters":19200,"station_id":"ce4bhah2rcd13ifvqei0","pricing_plan_id":"free"},{"bike_id":"9b286649-dd17-4f6f-8f11-5ea7a55c74cd","system_id":"levelo_inurba_marseille","lat":43.284538,"lon":5.358657,"is_reserved":false,"is_disabled":false,"rental_uris":{"android":"levelo://app?vid=9b286649-dd17-4f6f-8f11-5ea7a55c74cd","ios":"levelo://app?vid=9b286649-dd17-4f6f-8f11-5ea7a55c74cd"},"vehicle_type_id":"4","last_reported":1703297743,"current_range_meters":24800,"station_id":"ce4bhah2rcd13ifvqei0","pricing_plan_id":"free"},{"bike_id":"c16cc541-06dd-4714-80b3-98b3d284a258","system_id":"levelo_inurba_marseille","lat":43.284538,"lon":5.358657,"is_reserved":false,"is_disabled":false,"rental_uris":{"android":"levelo://app?vid=c16cc541-06dd-4714-80b3-98b3d284a258","ios":"levelo://app?vid=c16cc541-06dd-4714-80b3-98b3d284a258"},"vehicle_type_id":"4","last_reported":1703297743,"current_range_meters":11600,"station_id":"ce4bhah2rcd13ifvqei0","pricing_plan_id":"free"},{"bike_id":"cf9125ac-0535-4783-a319-869bdec2aa22","system_id":"levelo_inurba_marseille","lat":43.284538,"lon":5.358657,"is_reserved":false,"is_disabled":false,"rental_uris":{"android":"levelo://app?vid=cf9125ac-0535-4783-a319-869bdec2aa22","ios":"levelo://app?vid=cf9125ac-0535-4783-a319-869bdec2aa22"},"vehicle_type_id":"4","last_reported":1703297743,"current_range_meters":22400,"station_id":"ce4bhah2rcd13ifvqei0","pricing_plan_id":"free"},{"bike_id":"83288a3f-e51d-4f36-bdc0-a92e9f42e34e","system_id":"levelo_inurba_marseille","lat":43.295733,"lon":5.399591,"is_reserved":false,"is_disabled":false,"rental_uris":{"android":"levelo://app?vid=83288a3f-e51d-4f36-bdc0-a92e9f42e34e","ios":"levelo://app?vid=83288a3f-e51d-4f36-bdc0-a92e9f42e34e"},"vehicle_type_id":"4","last_reported":1703297743,"current_range_meters":30000,"station_id":"ce4bh312rcd13ifvqdj0","pricing_plan_id":"free"},{"bike_id":"1855a3e2-5858-4ce4-8f1d-d66ae9e326a1","system_id":"levelo_inurba_marseille","lat":43.295713,"lon":5.399639,"is_reserved":false,"is_disabled":false,"rental_uris":{"android":"levelo://app?vid=1855a3e2-5858-4ce4-8f1d-d66ae9e326a1","ios":"levelo://app?vid=1855a3e2-5858-4ce4-8f1d-d66ae9e326a1"},"vehicle_type_id":"4","last_reported":1703297743,"current_range_meters":28400,"station_id":"ce4bh312rcd13ifvqdj0","pricing_plan_id":"free"},{"bike_id":"ae0ee3ea-4525-4ebf-b192-cc0a6cce2969","system_id":"levelo_inurba_marseille","lat":43.29572,"lon":5.39968,"is_reserved":false,"is_disabled":false,"rental_uris":{"android":"levelo://app?vid=ae0ee3ea-4525-4ebf-b192-cc0a6cce2969","ios":"levelo://app?vid=ae0ee3ea-4525-4ebf-b192-cc0a6cce2969"},"vehicle_type_id":"4","last_reported":1703297743,"current_range_meters":2800,"station_id":"ce4bh312rcd13ifvqdj0","pricing_plan_id":"free"},{"bike_id":"92d58033-4974-4f48-831f-3771357c5698","system_id":"levelo_inurba_marseille","lat":43.283998,"lon":5.375062,"is_reserved":false,"is_disabled":false,"rental_uris":{"android":"levelo://app?vid=92d58033-4974-4f48-831f-3771357c5698","ios":"levelo://app?vid=92d58033-4974-4f48-831f-3771357c5698"},"vehicle_type_id":"4","last_reported":1703297743,"current_range_meters":30400,"station_id":"ce4bh412rcd13ifvqds0","pricing_plan_id":"free"},{"bike_id":"233eb238-e400-46e7-9601-45e4ec2edf9e","system_id":"levelo_inurba_marseille","lat":43.337168,"lon":5.391825,"is_reserved":false,"is_disabled":false,"rental_uris":{"android":"levelo://app?vid=233eb238-e400-46e7-9601-45e4ec2edf9e","ios":"levelo://app?vid=233eb238-e400-46e7-9601-45e4ec2edf9e"},"vehicle_type_id":"4","last_reported":1703297743,"current_range_meters":25200,"station_id":"ce4bhr92rcd13ifvqhsg","pricing_plan_id":"free"},{"bike_id":"3b7e3ec0-988e-4aeb-bcf3-3017c628b5d3","system_id":"levelo_inurba_marseille","lat":43.33717,"lon":5.391857,"is_reserved":false,"is_disabled":false,"rental_uris":{"android":"levelo://app?vid=3b7e3ec0-988e-4aeb-bcf3-3017c628b5d3","ios":"levelo://app?vid=3b7e3ec0-988e-4aeb-bcf3-3017c628b5d3"},"vehicle_type_id":"4","last_reported":1703297743,"current_range_meters":30000,"station_id":"ce4bhr92rcd13ifvqhsg","pricing_plan_id":"free"},{"bike_id":"b306bef3-61ce-4097-b249-eebc7da08ee6","system_id":"levelo_inurba_marseille","lat":43.32333,"lon":5.406175,"is_reserved":false,"is_disabled":false,"rental_uris":{"android":"levelo://app?vid=b306bef3-61ce-4097-b249-eebc7da08ee6","ios":"levelo://app?vid=b306bef3-61ce-4097-b249-eebc7da08ee6"},"vehicle_type_id":"4","last_reported":1703297743,"current_range_meters":27600,"station_id":"ce4bhq92rcd13ifvqhjg","pricing_plan_id":"free"},{"bike_id":"b7c71217-6fce-490c-9bd4-073ff8143718","system_id":"levelo_inurba_marseille","lat":43.33717,"lon":5.391857,"is_reserved":false,"is_disabled":false,"rental_uris":{"android":"levelo://app?vid=b7c71217-6fce-490c-9bd4-073ff8143718","ios":"levelo://app?vid=b7c71217-6fce-490c-9bd4-073ff8143718"},"vehicle_type_id":"4","last_reported":1703297743,"current_range_meters":31200,"station_id":"ce4bhr92rcd13ifvqhsg","pricing_plan_id":"free"},{"bike_id":"69a23a1c-70a2-4aea-9058-ccf2c18c7b58","system_id":"levelo_inurba_marseille","lat":43.33717,"lon":5.391857,"is_reserved":false,"is_disabled":false,"rental_uris":{"android":"levelo://app?vid=69a23a1c-70a2-4aea-9058-ccf2c18c7b58","ios":"levelo://app?vid=69a23a1c-70a2-4aea-9058-ccf2c18c7b58"},"vehicle_type_id":"4","last_reported":1703297743,"current_range_meters":30400,"station_id":"ce4bhr92rcd13ifvqhsg","pricing_plan_id":"free"},{"bike_id":"59011a2b-febb-42aa-8ad7-1259ad1712e3","system_id":"levelo_inurba_marseille","lat":43.288501,"lon":5.393087,"is_reserved":false,"is_disabled":false,"rental_uris":{"android":"levelo://app?vid=59011a2b-febb-42aa-8ad7-1259ad1712e3","ios":"levelo://app?vid=59011a2b-febb-42aa-8ad7-1259ad1712e3"},"vehicle_type_id":"4","last_reported":1703297743,"current_range_meters":28800,"station_id":"ce4bh2p2rcd13ifvqdi0","pricing_plan_id":"free"},{"bike_id":"9d529b75-68bf-461d-a200-5fe479ed1362","system_id":"levelo_inurba_marseille","lat":43.283494,"lon":5.380945,"is_reserved":false,"is_disabled":false,"rental_uris":{"android":"levelo://app?vid=9d529b75-68bf-461d-a200-5fe479ed1362","ios":"levelo://app?vid=9d529b75-68bf-461d-a200-5fe479ed1362"},"vehicle_type_id":"4","last_reported":1703297743,"current_range_meters":6400,"station_id":"ce4bh412rcd13ifvqdr0","pricing_plan_id":"free"},{"bike_id":"fd6583fe-bfb4-4eec-9c48-29450c69b4e5","system_id":"levelo_inurba_marseille","lat":43.283494,"lon":5.380945,"is_reserved":false,"is_disabled":false,"rental_uris":{"android":"levelo://app?vid=fd6583fe-bfb4-4eec-9c48-29450c69b4e5","ios":"levelo://app?vid=fd6583fe-bfb4-4eec-9c48-29450c69b4e5"},"vehicle_type_id":"4","last_reported":1703297743,"current_range_meters":23600,"station_id":"ce4bh412rcd13ifvqdr0","pricing_plan_id":"free"},{"bike_id":"3836b981-ce8c-4134-a5b7-097c6433e054","system_id":"levelo_inurba_marseille","lat":43.283498,"lon":5.380948,"is_reserved":false,"is_disabled":false,"rental_uris":{"android":"levelo://app?vid=3836b981-ce8c-4134-a5b7-097c6433e054","ios":"levelo://app?vid=3836b981-ce8c-4134-a5b7-097c6433e054"},"vehicle_type_id":"4","last_reported":1703297743,"current_range_meters":28000,"station_id":"ce4bh412rcd13ifvqdr0","pricing_plan_id":"free"},{"bike_id":"b02feee7-8174-41b3-95be-62f87df2ecbb","system_id":"levelo_inurba_marseille","lat":43.283494,"lon":5.380945,"is_reserved":false,"is_disabled":false,"rental_uris":{"android":"levelo://app?vid=b02feee7-8174-41b3-95be-62f87df2ecbb","ios":"levelo://app?vid=b02feee7-8174-41b3-95be-62f87df2ecbb"},"vehicle_type_id":"4","last_reported":1703297743,"current_range_meters":27200,"station_id":"ce4bh412rcd13ifvqdr0","pricing_plan_id":"free"},{"bike_id":"b6f1f3de-4488-4b2c-932e-085734e4f1f1","system_id":"levelo_inurba_marseille","lat":43.284217,"lon":5.349697,"is_reserved":false,"is_disabled":false,"rental_uris":{"android":"levelo://app?vid=b6f1f3de-4488-4b2c-932e-085734e4f1f1","ios":"levelo://app?vid=b6f1f3de-4488-4b2c-932e-085734e4f1f1"},"vehicle_type_id":"4","last_reported":1703297743,"current_range_meters":26800,"station_id":"ce4bhbh2rcd13ifvqepg","pricing_plan_id":"free"},{"bike_id":"e05e32f5-da1c-4867-b59d-08f9c7c0b28e","system_id":"levelo_inurba_marseille","lat":43.292803,"lon":5.401163,"is_reserved":false,"is_disabled":false,"rental_uris":{"android":"levelo://app?vid=e05e32f5-da1c-4867-b59d-08f9c7c0b28e","ios":"levelo://app?vid=e05e32f5-da1c-4867-b59d-08f9c7c0b28e"},"vehicle_type_id":"4","last_reported":1703297743,"current_range_meters":0,"station_id":"ce4bh312rcd13ifvqdk0","pricing_plan_id":"free"},{"bike_id":"04f28328-211a-4bce-841f-fb08b0f788c1","system_id":"levelo_inurba_marseille","lat":43.292724,"lon":5.401131,"is_reserved":false,"is_disabled":false,"rental_uris":{"android":"levelo://app?vid=04f28328-211a-4bce-841f-fb08b0f788c1","ios":"levelo://app?vid=04f28328-211a-4bce-841f-fb08b0f788c1"},"vehicle_type_id":"4","last_reported":1703297743,"current_range_meters":15200,"station_id":"ce4bh312rcd13ifvqdk0","pricing_plan_id":"free"},{"bike_id":"d8ca7455-ec88-4250-8ec0-3fc21f92c74f","system_id":"levelo_inurba_marseille","lat":43.292724,"lon":5.401131,"is_reserved":false,"is_disabled":false,"rental_uris":{"android":"levelo://app?vid=d8ca7455-ec88-4250-8ec0-3fc21f92c74f","ios":"levelo://app?vid=d8ca7455-ec88-4250-8ec0-3fc21f92c74f"},"vehicle_type_id":"4","last_reported":1703297743,"current_range_meters":16400,"station_id":"ce4bh312rcd13ifvqdk0","pricing_plan_id":"free"},{"bike_id":"f9b73bdf-131b-4fe4-867c-b422d1d46b98","system_id":"levelo_inurba_marseille","lat":43.283502,"lon":5.386471,"is_reserved":false,"is_disabled":false,"rental_uris":{"android":"levelo://app?vid=f9b73bdf-131b-4fe4-867c-b422d1d46b98","ios":"levelo://app?vid=f9b73bdf-131b-4fe4-867c-b422d1d46b98"},"vehicle_type_id":"4","last_reported":1703297743,"current_range_meters":9200,"station_id":"ce4bh492rcd13ifvqdvg","pricing_plan_id":"free"},{"bike_id":"0c07039d-f042-4577-ad3b-2eb17b5732ec","system_id":"levelo_inurba_marseille","lat":43.282691,"lon":5.350726,"is_reserved":false,"is_disabled":false,"rental_uris":{"android":"levelo://app?vid=0c07039d-f042-4577-ad3b-2eb17b5732ec","ios":"levelo://app?vid=0c07039d-f042-4577-ad3b-2eb17b5732ec"},"vehicle_type_id":"4","last_reported":1703297743,"current_range_meters":9200,"station_id":"ce4bhbp2rcd13ifvqerg","pricing_plan_id":"free"},{"bike_id":"e4cfc497-fbed-435b-8e40-d54801b28e62","system_id":"levelo_inurba_marseille","lat":43.282754,"lon":5.350519,"is_reserved":false,"is_disabled":false,"rental_uris":{"android":"levelo://app?vid=e4cfc497-fbed-435b-8e40-d54801b28e62","ios":"levelo://app?vid=e4cfc497-fbed-435b-8e40-d54801b28e62"},"vehicle_type_id":"4","last_reported":1703297743,"current_range_meters":26000,"station_id":"ce4bhbp2rcd13ifvqerg","pricing_plan_id":"free"},{"bike_id":"1b26201c-d66a-4386-9421-943cb96302d6","system_id":"levelo_inurba_marseille","lat":43.282744,"lon":5.350533,"is_reserved":false,"is_disabled":false,"rental_uris":{"android":"levelo://app?vid=1b26201c-d66a-4386-9421-943cb96302d6","ios":"levelo://app?vid=1b26201c-d66a-4386-9421-943cb96302d6"},"vehicle_type_id":"4","last_reported":1703297743,"current_range_meters":31200,"station_id":"ce4bhbp2rcd13ifvqerg","pricing_plan_id":"free"},{"bike_id":"8d954b9b-7cc9-4db6-b465-bf95f174b85f","system_id":"levelo_inurba_marseille","lat":43.2804,"lon":5.36944,"is_reserved":false,"is_disabled":false,"rental_uris":{"android":"levelo://app?vid=8d954b9b-7cc9-4db6-b465-bf95f174b85f","ios":"levelo://app?vid=8d954b9b-7cc9-4db6-b465-bf95f174b85f"},"vehicle_type_id":"4","last_reported":1703297743,"current_range_meters":2800,"station_id":"ce4bha12rcd13ifvqef0","pricing_plan_id":"free"},{"bike_id":"2024a61b-7173-4785-8359-84679011d211","system_id":"levelo_inurba_marseille","lat":43.280382,"lon":5.369291,"is_reserved":false,"is_disabled":false,"rental_uris":{"android":"levelo://app?vid=2024a61b-7173-4785-8359-84679011d211","ios":"levelo://app?vid=2024a61b-7173-4785-8359-84679011d211"},"vehicle_type_id":"4","last_reported":1703297743,"current_range_meters":26000,"station_id":"ce4bha12rcd13ifvqef0","pricing_plan_id":"free"},{"bike_id":"9ffafec3-6611-4556-9571-530e1d819b18","system_id":"levelo_inurba_marseille","lat":43.280382,"lon":5.369291,"is_reserved":false,"is_disabled":false,"rental_uris":{"android":"levelo://app?vid=9ffafec3-6611-4556-9571-530e1d819b18","ios":"levelo://app?vid=9ffafec3-6611-4556-9571-530e1d819b18"},"vehicle_type_id":"4","last_reported":1703297743,"current_range_meters":16400,"station_id":"ce4bha12rcd13ifvqef0","pricing_plan_id":"free"},{"bike_id":"289d2076-0005-417e-aaf4-5a60e1989df9","system_id":"levelo_inurba_marseille","lat":43.28039,"lon":5.369297,"is_reserved":false,"is_disabled":false,"rental_uris":{"android":"levelo://app?vid=289d2076-0005-417e-aaf4-5a60e1989df9","ios":"levelo://app?vid=289d2076-0005-417e-aaf4-5a60e1989df9"},"vehicle_type_id":"4","last_reported":1703297743,"current_range_meters":26000,"station_id":"ce4bha12rcd13ifvqef0","pricing_plan_id":"free"},{"bike_id":"86a968dc-f141-4fe8-a39b-55246f534eb4","system_id":"levelo_inurba_marseille","lat":43.28039,"lon":5.369297,"is_reserved":false,"is_disabled":false,"rental_uris":{"android":"levelo://app?vid=86a968dc-f141-4fe8-a39b-55246f534eb4","ios":"levelo://app?vid=86a968dc-f141-4fe8-a39b-55246f534eb4"},"vehicle_type_id":"4","last_reported":1703297743,"current_range_meters":18800,"station_id":"ce4bha12rcd13ifvqef0","pricing_plan_id":"free"},{"bike_id":"06197de1-47f7-4cb7-9a62-a0f13e3be420","system_id":"levelo_inurba_marseille","lat":43.280382,"lon":5.369291,"is_reserved":false,"is_disabled":false,"rental_uris":{"android":"levelo://app?vid=06197de1-47f7-4cb7-9a62-a0f13e3be420","ios":"levelo://app?vid=06197de1-47f7-4cb7-9a62-a0f13e3be420"},"vehicle_type_id":"4","last_reported":1703297743,"current_range_meters":22400,"station_id":"ce4bha12rcd13ifvqef0","pricing_plan_id":"free"},{"bike_id":"4e6e0cb9-8580-4877-9440-e2f1dedcc1db","system_id":"levelo_inurba_marseille","lat":43.29041,"lon":5.399634,"is_reserved":false,"is_disabled":false,"rental_uris":{"android":"levelo://app?vid=4e6e0cb9-8580-4877-9440-e2f1dedcc1db","ios":"levelo://app?vid=4e6e0cb9-8580-4877-9440-e2f1dedcc1db"},"vehicle_type_id":"4","last_reported":1703297743,"current_range_meters":27600,"station_id":"ce4bh392rcd13ifvqdm0","pricing_plan_id":"free"},{"bike_id":"295a1f8e-902b-4f4f-824f-dff3e157680d","system_id":"levelo_inurba_marseille","lat":43.281044,"lon":5.378308,"is_reserved":false,"is_disabled":false,"rental_uris":{"android":"levelo://app?vid=295a1f8e-902b-4f4f-824f-dff3e157680d","ios":"levelo://app?vid=295a1f8e-902b-4f4f-824f-dff3e157680d"},"vehicle_type_id":"4","last_reported":1703297743,"current_range_meters":28000,"station_id":"ce4bha12rcd13ifvqee0","pricing_plan_id":"free"},{"bike_id":"8379dd3c-9b88-4dae-95f2-cf66f3df6a33","system_id":"levelo_inurba_marseille","lat":43.281044,"lon":5.378308,"is_reserved":false,"is_disabled":false,"rental_uris":{"android":"levelo://app?vid=8379dd3c-9b88-4dae-95f2-cf66f3df6a33","ios":"levelo://app?vid=8379dd3c-9b88-4dae-95f2-cf66f3df6a33"},"vehicle_type_id":"4","last_reported":1703297743,"current_range_meters":29600,"station_id":"ce4bha12rcd13ifvqee0","pricing_plan_id":"free"},{"bike_id":"04b2224b-e90e-4c8f-82a0-113ec71e2013","system_id":"levelo_inurba_marseille","lat":43.296263,"lon":5.40601,"is_reserved":false,"is_disabled":false,"rental_uris":{"android":"levelo://app?vid=04b2224b-e90e-4c8f-82a0-113ec71e2013","ios":"levelo://app?vid=04b2224b-e90e-4c8f-82a0-113ec71e2013"},"vehicle_type_id":"4","last_reported":1703297743,"current_range_meters":1200,"station_id":"ce4bh0h2rcd13ifvqd60","pricing_plan_id":"free"},{"bike_id":"4a7194a6-bdc2-4d67-a274-476a5cbc95aa","system_id":"levelo_inurba_marseille","lat":43.281044,"lon":5.378308,"is_reserved":false,"is_disabled":false,"rental_uris":{"android":"levelo://app?vid=4a7194a6-bdc2-4d67-a274-476a5cbc95aa","ios":"levelo://app?vid=4a7194a6-bdc2-4d67-a274-476a5cbc95aa"},"vehicle_type_id":"4","last_reported":1703297743,"current_range_meters":26800,"station_id":"ce4bha12rcd13ifvqee0","pricing_plan_id":"free"},{"bike_id":"4c43b076-ecab-4426-a7e6-d095a83b2ead","system_id":"levelo_inurba_marseille","lat":43.284462,"lon":5.392121,"is_reserved":false,"is_disabled":false,"rental_uris":{"android":"levelo://app?vid=4c43b076-ecab-4426-a7e6-d095a83b2ead","ios":"levelo://app?vid=4c43b076-ecab-4426-a7e6-d095a83b2ead"},"vehicle_type_id":"4","last_reported":1703297743,"current_range_meters":31200,"station_id":"ce4bhoh2rcd13ifvqh5g","pricing_plan_id":"free"},{"bike_id":"4c33b76c-4bbb-496b-a596-f3563dcc2cc8","system_id":"levelo_inurba_marseille","lat":43.285742,"lon":5.395004,"is_reserved":false,"is_disabled":false,"rental_uris":{"android":"levelo://app?vid=4c33b76c-4bbb-496b-a596-f3563dcc2cc8","ios":"levelo://app?vid=4c33b76c-4bbb-496b-a596-f3563dcc2cc8"},"vehicle_type_id":"4","last_reported":1703297743,"current_range_meters":30400,"station_id":"ce4bh292rcd13ifvqdg0","pricing_plan_id":"free"},{"bike_id":"54a19b5f-c93d-48fc-8dbd-1a738c52f387","system_id":"levelo_inurba_marseille","lat":43.28573,"lon":5.394992,"is_reserved":false,"is_disabled":false,"rental_uris":{"android":"levelo://app?vid=54a19b5f-c93d-48fc-8dbd-1a738c52f387","ios":"levelo://app?vid=54a19b5f-c93d-48fc-8dbd-1a738c52f387"},"vehicle_type_id":"4","last_reported":1703297743,"current_range_meters":29600,"station_id":"ce4bh292rcd13ifvqdg0","pricing_plan_id":"free"},{"bike_id":"921b424d-ad0d-4c7a-9d74-66e3a49bfa19","system_id":"levelo_inurba_marseille","lat":43.326605,"lon":5.409903,"is_reserved":false,"is_disabled":false,"rental_uris":{"android":"levelo://app?vid=921b424d-ad0d-4c7a-9d74-66e3a49bfa19","ios":"levelo://app?vid=921b424d-ad0d-4c7a-9d74-66e3a49bfa19"},"vehicle_type_id":"4","last_reported":1703297743,"current_range_meters":28800,"station_id":"ce4bhpp2rcd13ifvqhgg","pricing_plan_id":"free"},{"bike_id":"2dce41b4-f1e9-4565-979b-d206af37124f","system_id":"levelo_inurba_marseille","lat":43.326605,"lon":5.409903,"is_reserved":false,"is_disabled":false,"rental_uris":{"android":"levelo://app?vid=2dce41b4-f1e9-4565-979b-d206af37124f","ios":"levelo://app?vid=2dce41b4-f1e9-4565-979b-d206af37124f"},"vehicle_type_id":"4","last_reported":1703297743,"current_range_meters":31200,"station_id":"ce4bhpp2rcd13ifvqhgg","pricing_plan_id":"free"},{"bike_id":"49d73e02-e5c2-4882-b44f-d8c5e2af2b78","system_id":"levelo_inurba_marseille","lat":43.326605,"lon":5.409903,"is_reserved":false,"is_disabled":false,"rental_uris":{"android":"levelo://app?vid=49d73e02-e5c2-4882-b44f-d8c5e2af2b78","ios":"levelo://app?vid=49d73e02-e5c2-4882-b44f-d8c5e2af2b78"},"vehicle_type_id":"4","last_reported":1703297743,"current_range_meters":29600,"station_id":"ce4bhpp2rcd13ifvqhgg","pricing_plan_id":"free"},{"bike_id":"3facbe4d-388c-40d0-82e4-59c677c06a34","system_id":"levelo_inurba_marseille","lat":43.30422,"lon":5.4128,"is_reserved":false,"is_disabled":false,"rental_uris":{"android":"levelo://app?vid=3facbe4d-388c-40d0-82e4-59c677c06a34","ios":"levelo://app?vid=3facbe4d-388c-40d0-82e4-59c677c06a34"},"vehicle_type_id":"4","last_reported":1703297743,"current_range_meters":2400,"station_id":"ce4bhop2rcd13ifvqh8g","pricing_plan_id":"free"},{"bike_id":"2994219f-f282-434d-a4a5-dcac2f9151e5","system_id":"levelo_inurba_marseille","lat":43.30417,"lon":5.41279,"is_reserved":false,"is_disabled":false,"rental_uris":{"android":"levelo://app?vid=2994219f-f282-434d-a4a5-dcac2f9151e5","ios":"levelo://app?vid=2994219f-f282-434d-a4a5-dcac2f9151e5"},"vehicle_type_id":"4","last_reported":1703297743,"current_range_meters":13200,"station_id":"ce4bhop2rcd13ifvqh8g","pricing_plan_id":"free"},{"bike_id":"5580da28-ece3-4ebd-b97a-6c4bbe169f57","system_id":"levelo_inurba_marseille","lat":43.304192,"lon":5.41287,"is_reserved":false,"is_disabled":false,"rental_uris":{"android":"levelo://app?vid=5580da28-ece3-4ebd-b97a-6c4bbe169f57","ios":"levelo://app?vid=5580da28-ece3-4ebd-b97a-6c4bbe169f57"},"vehicle_type_id":"4","last_reported":1703297743,"current_range_meters":0,"station_id":"ce4bhop2rcd13ifvqh8g","pricing_plan_id":"free"},{"bike_id":"f2a735b9-b183-4b03-acbe-8b823bd40b24","system_id":"levelo_inurba_marseille","lat":43.30412,"lon":5.41285,"is_reserved":false,"is_disabled":false,"rental_uris":{"android":"levelo://app?vid=f2a735b9-b183-4b03-acbe-8b823bd40b24","ios":"levelo://app?vid=f2a735b9-b183-4b03-acbe-8b823bd40b24"},"vehicle_type_id":"4","last_reported":1703297743,"current_range_meters":31200,"station_id":"ce4bhop2rcd13ifvqh8g","pricing_plan_id":"free"},{"bike_id":"7f89473b-4ee2-4ba8-86bf-bc53e18d4702","system_id":"levelo_inurba_marseille","lat":43.3042,"lon":5.412893,"is_reserved":false,"is_disabled":false,"rental_uris":{"android":"levelo://app?vid=7f89473b-4ee2-4ba8-86bf-bc53e18d4702","ios":"levelo://app?vid=7f89473b-4ee2-4ba8-86bf-bc53e18d4702"},"vehicle_type_id":"4","last_reported":1703297743,"current_range_meters":2400,"station_id":"ce4bhop2rcd13ifvqh8g","pricing_plan_id":"free"},{"bike_id":"03a8f128-97e5-40ae-9081-744f8ce83749","system_id":"levelo_inurba_marseille","lat":43.279087,"lon":5.380114,"is_reserved":false,"is_disabled":false,"rental_uris":{"android":"levelo://app?vid=03a8f128-97e5-40ae-9081-744f8ce83749","ios":"levelo://app?vid=03a8f128-97e5-40ae-9081-744f8ce83749"},"vehicle_type_id":"4","last_reported":1703297743,"current_range_meters":30000,"station_id":"ce4bhf92rcd13ifvqf50","pricing_plan_id":"free"},{"bike_id":"0607fcfe-033a-447c-9428-df4bb5a0f943","system_id":"levelo_inurba_marseille","lat":43.287154,"lon":5.399979,"is_reserved":false,"is_disabled":false,"rental_uris":{"android":"levelo://app?vid=0607fcfe-033a-447c-9428-df4bb5a0f943","ios":"levelo://app?vid=0607fcfe-033a-447c-9428-df4bb5a0f943"},"vehicle_type_id":"4","last_reported":1703297743,"current_range_meters":20800,"station_id":"ce4bho92rcd13ifvqh3g","pricing_plan_id":"free"},{"bike_id":"9986dd27-e307-4e70-8e40-dd32425fb1f1","system_id":"levelo_inurba_marseille","lat":43.28719,"lon":5.39991,"is_reserved":false,"is_disabled":false,"rental_uris":{"android":"levelo://app?vid=9986dd27-e307-4e70-8e40-dd32425fb1f1","ios":"levelo://app?vid=9986dd27-e307-4e70-8e40-dd32425fb1f1"},"vehicle_type_id":"4","last_reported":1703297743,"current_range_meters":12000,"station_id":"ce4bho92rcd13ifvqh3g","pricing_plan_id":"free"},{"bike_id":"1db55c21-5b1c-4276-b8ff-c0616eb64739","system_id":"levelo_inurba_marseille","lat":43.287154,"lon":5.399979,"is_reserved":false,"is_disabled":false,"rental_uris":{"android":"levelo://app?vid=1db55c21-5b1c-4276-b8ff-c0616eb64739","ios":"levelo://app?vid=1db55c21-5b1c-4276-b8ff-c0616eb64739"},"vehicle_type_id":"4","last_reported":1703297743,"current_range_meters":30800,"station_id":"ce4bho92rcd13ifvqh3g","pricing_plan_id":"free"},{"bike_id":"0c36cc18-c5bf-4fa6-b54b-3ef1845ee118","system_id":"levelo_inurba_marseille","lat":43.287154,"lon":5.399979,"is_reserved":false,"is_disabled":false,"rental_uris":{"android":"levelo://app?vid=0c36cc18-c5bf-4fa6-b54b-3ef1845ee118","ios":"levelo://app?vid=0c36cc18-c5bf-4fa6-b54b-3ef1845ee118"},"vehicle_type_id":"4","last_reported":1703297743,"current_range_meters":20400,"station_id":"ce4bho92rcd13ifvqh3g","pricing_plan_id":"free"},{"bike_id":"4e8e6023-ce65-468d-93fa-ea027a64e38b","system_id":"levelo_inurba_marseille","lat":43.287154,"lon":5.399979,"is_reserved":false,"is_disabled":false,"rental_uris":{"android":"levelo://app?vid=4e8e6023-ce65-468d-93fa-ea027a64e38b","ios":"levelo://app?vid=4e8e6023-ce65-468d-93fa-ea027a64e38b"},"vehicle_type_id":"4","last_reported":1703297743,"current_range_meters":24800,"station_id":"ce4bho92rcd13ifvqh3g","pricing_plan_id":"free"},{"bike_id":"3abf6371-b3c9-4f2e-92be-ad71562b6a11","system_id":"levelo_inurba_marseille","lat":43.287123,"lon":5.39994,"is_reserved":false,"is_disabled":false,"rental_uris":{"android":"levelo://app?vid=3abf6371-b3c9-4f2e-92be-ad71562b6a11","ios":"levelo://app?vid=3abf6371-b3c9-4f2e-92be-ad71562b6a11"},"vehicle_type_id":"4","last_reported":1703297743,"current_range_meters":6800,"station_id":"ce4bho92rcd13ifvqh3g","pricing_plan_id":"free"},{"bike_id":"16a844c1-6100-4598-a2c7-1b96bf22fe28","system_id":"levelo_inurba_marseille","lat":43.279742,"lon":5.38744,"is_reserved":false,"is_disabled":false,"rental_uris":{"android":"levelo://app?vid=16a844c1-6100-4598-a2c7-1b96bf22fe28","ios":"levelo://app?vid=16a844c1-6100-4598-a2c7-1b96bf22fe28"},"vehicle_type_id":"4","last_reported":1703297743,"current_range_meters":16800,"station_id":"ce4bhg12rcd13ifvqf80","pricing_plan_id":"free"},{"bike_id":"48279459-055f-4ba5-908d-239be802e3b5","system_id":"levelo_inurba_marseille","lat":43.299577,"lon":5.413277,"is_reserved":false,"is_disabled":false,"rental_uris":{"android":"levelo://app?vid=48279459-055f-4ba5-908d-239be802e3b5","ios":"levelo://app?vid=48279459-055f-4ba5-908d-239be802e3b5"},"vehicle_type_id":"4","last_reported":1703297743,"current_range_meters":30400,"station_id":"ce4bhp12rcd13ifvqh9g","pricing_plan_id":"free"},{"bike_id":"ccb09e77-93f2-420a-bc71-9d98620ed12b","system_id":"levelo_inurba_marseille","lat":43.279742,"lon":5.38744,"is_reserved":false,"is_disabled":false,"rental_uris":{"android":"levelo://app?vid=ccb09e77-93f2-420a-bc71-9d98620ed12b","ios":"levelo://app?vid=ccb09e77-93f2-420a-bc71-9d98620ed12b"},"vehicle_type_id":"4","last_reported":1703297743,"current_range_meters":15200,"station_id":"ce4bhg12rcd13ifvqf80","pricing_plan_id":"free"},{"bike_id":"3c990e90-1eed-4343-9b72-6fb2ce5c8fda","system_id":"levelo_inurba_marseille","lat":43.27618,"lon":5.3612,"is_reserved":false,"is_disabled":false,"rental_uris":{"android":"levelo://app?vid=3c990e90-1eed-4343-9b72-6fb2ce5c8fda","ios":"levelo://app?vid=3c990e90-1eed-4343-9b72-6fb2ce5c8fda"},"vehicle_type_id":"4","last_reported":1703297743,"current_range_meters":2000,"station_id":"ce4bgj92rcd13ifvqbe0","pricing_plan_id":"free"},{"bike_id":"db2046b0-697a-4d2e-8814-6af0aeab90a8","system_id":"levelo_inurba_marseille","lat":43.276179,"lon":5.361009,"is_reserved":false,"is_disabled":false,"rental_uris":{"android":"levelo://app?vid=db2046b0-697a-4d2e-8814-6af0aeab90a8","ios":"levelo://app?vid=db2046b0-697a-4d2e-8814-6af0aeab90a8"},"vehicle_type_id":"4","last_reported":1703297743,"current_range_meters":5200,"station_id":"ce4bgj92rcd13ifvqbe0","pricing_plan_id":"free"},{"bike_id":"070405fa-eb96-4f42-a319-94624396ce09","system_id":"levelo_inurba_marseille","lat":43.280784,"lon":5.396622,"is_reserved":false,"is_disabled":false,"rental_uris":{"android":"levelo://app?vid=070405fa-eb96-4f42-a319-94624396ce09","ios":"levelo://app?vid=070405fa-eb96-4f42-a319-94624396ce09"},"vehicle_type_id":"4","last_reported":1703297743,"current_range_meters":13600,"station_id":"ce4bho12rcd13ifvqh2g","pricing_plan_id":"free"},{"bike_id":"f6a29d14-aee7-4b91-a8c6-8625046948d6","system_id":"levelo_inurba_marseille","lat":43.278401,"lon":5.392152,"is_reserved":false,"is_disabled":false,"rental_uris":{"android":"levelo://app?vid=f6a29d14-aee7-4b91-a8c6-8625046948d6","ios":"levelo://app?vid=f6a29d14-aee7-4b91-a8c6-8625046948d6"},"vehicle_type_id":"4","last_reported":1703297743,"current_range_meters":25200,"station_id":"ce4bhjp2rcd13ifvqga0","pricing_plan_id":"free"},{"bike_id":"1779bede-f7c9-40ca-b6b2-10f0531b0bea","system_id":"levelo_inurba_marseille","lat":43.278401,"lon":5.392152,"is_reserved":false,"is_disabled":false,"rental_uris":{"android":"levelo://app?vid=1779bede-f7c9-40ca-b6b2-10f0531b0bea","ios":"levelo://app?vid=1779bede-f7c9-40ca-b6b2-10f0531b0bea"},"vehicle_type_id":"4","last_reported":1703297743,"current_range_meters":22000,"station_id":"ce4bhjp2rcd13ifvqga0","pricing_plan_id":"free"},{"bike_id":"85140b79-1d5c-4c1f-b734-02a48fa0e504","system_id":"levelo_inurba_marseille","lat":43.278401,"lon":5.392152,"is_reserved":false,"is_disabled":false,"rental_uris":{"android":"levelo://app?vid=85140b79-1d5c-4c1f-b734-02a48fa0e504","ios":"levelo://app?vid=85140b79-1d5c-4c1f-b734-02a48fa0e504"},"vehicle_type_id":"4","last_reported":1703297743,"current_range_meters":15600,"station_id":"ce4bhjp2rcd13ifvqga0","pricing_plan_id":"free"},{"bike_id":"1cf773da-d503-4f1b-8437-4a6b465d5f1a","system_id":"levelo_inurba_marseille","lat":43.278393,"lon":5.392013,"is_reserved":false,"is_disabled":false,"rental_uris":{"android":"levelo://app?vid=1cf773da-d503-4f1b-8437-4a6b465d5f1a","ios":"levelo://app?vid=1cf773da-d503-4f1b-8437-4a6b465d5f1a"},"vehicle_type_id":"4","last_reported":1703297743,"current_range_meters":0,"station_id":"ce4bhjp2rcd13ifvqga0","pricing_plan_id":"free"},{"bike_id":"48cb72d6-5769-46dd-a4f2-54dfd0bfb283","system_id":"levelo_inurba_marseille","lat":43.273613,"lon":5.362705,"is_reserved":false,"is_disabled":false,"rental_uris":{"android":"levelo://app?vid=48cb72d6-5769-46dd-a4f2-54dfd0bfb283","ios":"levelo://app?vid=48cb72d6-5769-46dd-a4f2-54dfd0bfb283"},"vehicle_type_id":"4","last_reported":1703297743,"current_range_meters":28800,"station_id":"ce4bhbh2rcd13ifvqeo0","pricing_plan_id":"free"},{"bike_id":"843de36b-095c-4afd-830d-de0e9d07ea09","system_id":"levelo_inurba_marseille","lat":43.273613,"lon":5.362705,"is_reserved":false,"is_disabled":false,"rental_uris":{"android":"levelo://app?vid=843de36b-095c-4afd-830d-de0e9d07ea09","ios":"levelo://app?vid=843de36b-095c-4afd-830d-de0e9d07ea09"},"vehicle_type_id":"4","last_reported":1703297743,"current_range_meters":30000,"station_id":"ce4bhbh2rcd13ifvqeo0","pricing_plan_id":"free"},{"bike_id":"e09a6d18-e62b-45bc-ba72-f8db6df2fcf5","system_id":"levelo_inurba_marseille","lat":43.273609,"lon":5.362708,"is_reserved":false,"is_disabled":false,"rental_uris":{"android":"levelo://app?vid=e09a6d18-e62b-45bc-ba72-f8db6df2fcf5","ios":"levelo://app?vid=e09a6d18-e62b-45bc-ba72-f8db6df2fcf5"},"vehicle_type_id":"4","last_reported":1703297743,"current_range_meters":30000,"station_id":"ce4bhbh2rcd13ifvqeo0","pricing_plan_id":"free"},{"bike_id":"d25de747-3cec-4576-99a5-27d47914b475","system_id":"levelo_inurba_marseille","lat":43.336134,"lon":5.410341,"is_reserved":false,"is_disabled":false,"rental_uris":{"android":"levelo://app?vid=d25de747-3cec-4576-99a5-27d47914b475","ios":"levelo://app?vid=d25de747-3cec-4576-99a5-27d47914b475"},"vehicle_type_id":"4","last_reported":1703297743,"current_range_meters":25600,"station_id":"ce4bhqh2rcd13ifvqhmg","pricing_plan_id":"free"},{"bike_id":"511388d4-c760-4094-88ff-7089e112f7e1","system_id":"levelo_inurba_marseille","lat":43.336148,"lon":5.410349,"is_reserved":false,"is_disabled":false,"rental_uris":{"android":"levelo://app?vid=511388d4-c760-4094-88ff-7089e112f7e1","ios":"levelo://app?vid=511388d4-c760-4094-88ff-7089e112f7e1"},"vehicle_type_id":"4","last_reported":1703297743,"current_range_meters":20000,"station_id":"ce4bhqh2rcd13ifvqhmg","pricing_plan_id":"free"},{"bike_id":"107d35fb-f284-4514-99a6-11ba1e926114","system_id":"levelo_inurba_marseille","lat":43.276769,"lon":5.388787,"is_reserved":false,"is_disabled":false,"rental_uris":{"android":"levelo://app?vid=107d35fb-f284-4514-99a6-11ba1e926114","ios":"levelo://app?vid=107d35fb-f284-4514-99a6-11ba1e926114"},"vehicle_type_id":"4","last_reported":1703297743,"current_range_meters":8400,"station_id":"ce4bhi12rcd13ifvqfo0","pricing_plan_id":"free"},{"bike_id":"0eb99f76-9044-469e-b5cd-4c052b458bfb","system_id":"levelo_inurba_marseille","lat":43.276769,"lon":5.388787,"is_reserved":false,"is_disabled":false,"rental_uris":{"android":"levelo://app?vid=0eb99f76-9044-469e-b5cd-4c052b458bfb","ios":"levelo://app?vid=0eb99f76-9044-469e-b5cd-4c052b458bfb"},"vehicle_type_id":"4","last_reported":1703297743,"current_range_meters":22400,"station_id":"ce4bhi12rcd13ifvqfo0","pricing_plan_id":"free"},{"bike_id":"dcd92362-1ec1-400f-8e0c-299a3282265b","system_id":"levelo_inurba_marseille","lat":43.276771,"lon":5.388799,"is_reserved":false,"is_disabled":false,"rental_uris":{"android":"levelo://app?vid=dcd92362-1ec1-400f-8e0c-299a3282265b","ios":"levelo://app?vid=dcd92362-1ec1-400f-8e0c-299a3282265b"},"vehicle_type_id":"4","last_reported":1703297743,"current_range_meters":30800,"station_id":"ce4bhi12rcd13ifvqfo0","pricing_plan_id":"free"},{"bike_id":"9e5c25e1-990c-4015-ba32-154357056fd9","system_id":"levelo_inurba_marseille","lat":43.276771,"lon":5.388799,"is_reserved":false,"is_disabled":false,"rental_uris":{"android":"levelo://app?vid=9e5c25e1-990c-4015-ba32-154357056fd9","ios":"levelo://app?vid=9e5c25e1-990c-4015-ba32-154357056fd9"},"vehicle_type_id":"4","last_reported":1703297743,"current_range_meters":26800,"station_id":"ce4bhi12rcd13ifvqfo0","pricing_plan_id":"free"},{"bike_id":"358230c6-2f53-4c94-bd58-3ab03d16e35d","system_id":"levelo_inurba_marseille","lat":43.276769,"lon":5.388787,"is_reserved":false,"is_disabled":false,"rental_uris":{"android":"levelo://app?vid=358230c6-2f53-4c94-bd58-3ab03d16e35d","ios":"levelo://app?vid=358230c6-2f53-4c94-bd58-3ab03d16e35d"},"vehicle_type_id":"4","last_reported":1703297743,"current_range_meters":20000,"station_id":"ce4bhi12rcd13ifvqfo0","pricing_plan_id":"free"},{"bike_id":"0eaedfa9-1ab3-4a2f-bf28-f8642f328c07","system_id":"levelo_inurba_marseille","lat":43.276769,"lon":5.388787,"is_reserved":false,"is_disabled":false,"rental_uris":{"android":"levelo://app?vid=0eaedfa9-1ab3-4a2f-bf28-f8642f328c07","ios":"levelo://app?vid=0eaedfa9-1ab3-4a2f-bf28-f8642f328c07"},"vehicle_type_id":"4","last_reported":1703297743,"current_range_meters":1200,"station_id":"ce4bhi12rcd13ifvqfo0","pricing_plan_id":"free"},{"bike_id":"9d8a300c-7356-461f-8e60-7c138328974e","system_id":"levelo_inurba_marseille","lat":43.317121,"lon":5.423936,"is_reserved":false,"is_disabled":false,"rental_uris":{"android":"levelo://app?vid=9d8a300c-7356-461f-8e60-7c138328974e","ios":"levelo://app?vid=9d8a300c-7356-461f-8e60-7c138328974e"},"vehicle_type_id":"4","last_reported":1703297743,"current_range_meters":29200,"station_id":"ce4bhp92rcd13ifvqhbg","pricing_plan_id":"free"},{"bike_id":"7c92ac06-9f8b-4771-8927-7d3efcae43ac","system_id":"levelo_inurba_marseille","lat":43.310785,"lon":5.424305,"is_reserved":false,"is_disabled":false,"rental_uris":{"android":"levelo://app?vid=7c92ac06-9f8b-4771-8927-7d3efcae43ac","ios":"levelo://app?vid=7c92ac06-9f8b-4771-8927-7d3efcae43ac"},"vehicle_type_id":"4","last_reported":1703297743,"current_range_meters":19600,"station_id":"ce4bhp92rcd13ifvqhag","pricing_plan_id":"free"},{"bike_id":"b2bae555-70b7-4476-bc50-e1d2a40076e2","system_id":"levelo_inurba_marseille","lat":43.295511,"lon":5.422926,"is_reserved":false,"is_disabled":false,"rental_uris":{"android":"levelo://app?vid=b2bae555-70b7-4476-bc50-e1d2a40076e2","ios":"levelo://app?vid=b2bae555-70b7-4476-bc50-e1d2a40076e2"},"vehicle_type_id":"4","last_reported":1703297743,"current_range_meters":25600,"station_id":"ce4bhph2rcd13ifvqhdg","pricing_plan_id":"free"},{"bike_id":"122b6657-3126-49f2-8128-9c403fcfe05f","system_id":"levelo_inurba_marseille","lat":43.272116,"lon":5.391747,"is_reserved":false,"is_disabled":false,"rental_uris":{"android":"levelo://app?vid=122b6657-3126-49f2-8128-9c403fcfe05f","ios":"levelo://app?vid=122b6657-3126-49f2-8128-9c403fcfe05f"},"vehicle_type_id":"4","last_reported":1703297743,"current_range_meters":28800,"station_id":"ce4bhhp2rcd13ifvqfm0","pricing_plan_id":"free"},{"bike_id":"af97c205-9600-4cf7-ae64-21d37e85c8a2","system_id":"levelo_inurba_marseille","lat":43.278128,"lon":5.407195,"is_reserved":false,"is_disabled":false,"rental_uris":{"android":"levelo://app?vid=af97c205-9600-4cf7-ae64-21d37e85c8a2","ios":"levelo://app?vid=af97c205-9600-4cf7-ae64-21d37e85c8a2"},"vehicle_type_id":"4","last_reported":1703297743,"current_range_meters":26000,"station_id":"ce4bhnh2rcd13ifvqgtg","pricing_plan_id":"free"},{"bike_id":"61eb82ec-2c75-446c-87b7-5541b962f95f","system_id":"levelo_inurba_marseille","lat":43.269467,"lon":5.386439,"is_reserved":false,"is_disabled":false,"rental_uris":{"android":"levelo://app?vid=61eb82ec-2c75-446c-87b7-5541b962f95f","ios":"levelo://app?vid=61eb82ec-2c75-446c-87b7-5541b962f95f"},"vehicle_type_id":"4","last_reported":1703297743,"current_range_meters":27600,"station_id":"ce4bhh92rcd13ifvqfh0","pricing_plan_id":"free"},{"bike_id":"5a5ac261-9383-48c6-aae2-bc4a8af2166e","system_id":"levelo_inurba_marseille","lat":43.279465,"lon":5.410561,"is_reserved":false,"is_disabled":false,"rental_uris":{"android":"levelo://app?vid=5a5ac261-9383-48c6-aae2-bc4a8af2166e","ios":"levelo://app?vid=5a5ac261-9383-48c6-aae2-bc4a8af2166e"},"vehicle_type_id":"4","last_reported":1703297743,"current_range_meters":27600,"station_id":"ce4bhnp2rcd13ifvqh0g","pricing_plan_id":"free"},{"bike_id":"d80d28d4-33ac-48bd-a703-0607e3c3611a","system_id":"levelo_inurba_marseille","lat":43.279465,"lon":5.410561,"is_reserved":false,"is_disabled":false,"rental_uris":{"android":"levelo://app?vid=d80d28d4-33ac-48bd-a703-0607e3c3611a","ios":"levelo://app?vid=d80d28d4-33ac-48bd-a703-0607e3c3611a"},"vehicle_type_id":"4","last_reported":1703297743,"current_range_meters":2000,"station_id":"ce4bhnp2rcd13ifvqh0g","pricing_plan_id":"free"},{"bike_id":"385b0312-2927-4d00-9c28-a102b4122825","system_id":"levelo_inurba_marseille","lat":43.269319,"lon":5.389397,"is_reserved":false,"is_disabled":false,"rental_uris":{"android":"levelo://app?vid=385b0312-2927-4d00-9c28-a102b4122825","ios":"levelo://app?vid=385b0312-2927-4d00-9c28-a102b4122825"},"vehicle_type_id":"4","last_reported":1703297743,"current_range_meters":28000,"station_id":"ce4bhhh2rcd13ifvqfl0","pricing_plan_id":"free"},{"bike_id":"8030204b-84e1-4f67-82c1-8471ea1e1bb5","system_id":"levelo_inurba_marseille","lat":43.26681,"lon":5.382694,"is_reserved":false,"is_disabled":false,"rental_uris":{"android":"levelo://app?vid=8030204b-84e1-4f67-82c1-8471ea1e1bb5","ios":"levelo://app?vid=8030204b-84e1-4f67-82c1-8471ea1e1bb5"},"vehicle_type_id":"4","last_reported":1703297743,"current_range_meters":27600,"station_id":"ce4bhg92rcd13ifvqf90","pricing_plan_id":"free"},{"bike_id":"7eadc037-d475-4a82-a1e8-cae59da23a91","system_id":"levelo_inurba_marseille","lat":43.26681,"lon":5.382694,"is_reserved":false,"is_disabled":false,"rental_uris":{"android":"levelo://app?vid=7eadc037-d475-4a82-a1e8-cae59da23a91","ios":"levelo://app?vid=7eadc037-d475-4a82-a1e8-cae59da23a91"},"vehicle_type_id":"4","last_reported":1703297743,"current_range_meters":20000,"station_id":"ce4bhg92rcd13ifvqf90","pricing_plan_id":"free"},{"bike_id":"9f64aafd-c841-405b-aa4d-882e9d32084c","system_id":"levelo_inurba_marseille","lat":43.26552,"lon":5.37287,"is_reserved":false,"is_disabled":false,"rental_uris":{"android":"levelo://app?vid=9f64aafd-c841-405b-aa4d-882e9d32084c","ios":"levelo://app?vid=9f64aafd-c841-405b-aa4d-882e9d32084c"},"vehicle_type_id":"4","last_reported":1703297743,"current_range_meters":20800,"station_id":"ce4bhg12rcd13ifvqf70","pricing_plan_id":"free"},{"bike_id":"8a8118d2-1be5-4451-b2d9-0ba1321b8f2d","system_id":"levelo_inurba_marseille","lat":43.28001,"lon":5.41636,"is_reserved":false,"is_disabled":false,"rental_uris":{"android":"levelo://app?vid=8a8118d2-1be5-4451-b2d9-0ba1321b8f2d","ios":"levelo://app?vid=8a8118d2-1be5-4451-b2d9-0ba1321b8f2d"},"vehicle_type_id":"4","last_reported":1703297743,"current_range_meters":11600,"station_id":"ce4bho12rcd13ifvqh1g","pricing_plan_id":"free"},{"bike_id":"7dbab88e-f24e-4f52-9d01-769ec1c71328","system_id":"levelo_inurba_marseille","lat":43.308051,"lon":5.43527,"is_reserved":false,"is_disabled":false,"rental_uris":{"android":"levelo://app?vid=7dbab88e-f24e-4f52-9d01-769ec1c71328","ios":"levelo://app?vid=7dbab88e-f24e-4f52-9d01-769ec1c71328"},"vehicle_type_id":"4","last_reported":1703297743,"current_range_meters":24000,"station_id":"ce4bhph2rcd13ifvqheg","pricing_plan_id":"free"},{"bike_id":"47c3210a-9bdf-4b50-a52e-5994dcc84599","system_id":"levelo_inurba_marseille","lat":43.26949,"lon":5.40262,"is_reserved":false,"is_disabled":false,"rental_uris":{"android":"levelo://app?vid=47c3210a-9bdf-4b50-a52e-5994dcc84599","ios":"levelo://app?vid=47c3210a-9bdf-4b50-a52e-5994dcc84599"},"vehicle_type_id":"4","last_reported":1703297743,"current_range_meters":6400,"station_id":"cjm6bp8fraef2m0cb0m0","pricing_plan_id":"free"},{"bike_id":"c58e1262-f8e5-4cce-9f1b-ca3654f61e11","system_id":"levelo_inurba_marseille","lat":43.26949,"lon":5.40262,"is_reserved":false,"is_disabled":false,"rental_uris":{"android":"levelo://app?vid=c58e1262-f8e5-4cce-9f1b-ca3654f61e11","ios":"levelo://app?vid=c58e1262-f8e5-4cce-9f1b-ca3654f61e11"},"vehicle_type_id":"4","last_reported":1703297743,"current_range_meters":10800,"station_id":"cjm6bp8fraef2m0cb0m0","pricing_plan_id":"free"},{"bike_id":"a36e5938-cfe7-4a1e-b899-9e1c72d03485","system_id":"levelo_inurba_marseille","lat":43.317104,"lon":5.436818,"is_reserved":false,"is_disabled":false,"rental_uris":{"android":"levelo://app?vid=a36e5938-cfe7-4a1e-b899-9e1c72d03485","ios":"levelo://app?vid=a36e5938-cfe7-4a1e-b899-9e1c72d03485"},"vehicle_type_id":"4","last_reported":1703297743,"current_range_meters":6800,"station_id":"ce4bhp92rcd13ifvqhcg","pricing_plan_id":"free"},{"bike_id":"7fbe02a0-b05d-40e2-885a-21861b971e54","system_id":"levelo_inurba_marseille","lat":43.317104,"lon":5.436818,"is_reserved":false,"is_disabled":false,"rental_uris":{"android":"levelo://app?vid=7fbe02a0-b05d-40e2-885a-21861b971e54","ios":"levelo://app?vid=7fbe02a0-b05d-40e2-885a-21861b971e54"},"vehicle_type_id":"4","last_reported":1703297743,"current_range_meters":10000,"station_id":"ce4bhp92rcd13ifvqhcg","pricing_plan_id":"free"},{"bike_id":"335681ec-9d1c-491b-ae06-a269e8d79a54","system_id":"levelo_inurba_marseille","lat":43.317104,"lon":5.436818,"is_reserved":false,"is_disabled":false,"rental_uris":{"android":"levelo://app?vid=335681ec-9d1c-491b-ae06-a269e8d79a54","ios":"levelo://app?vid=335681ec-9d1c-491b-ae06-a269e8d79a54"},"vehicle_type_id":"4","last_reported":1703297743,"current_range_meters":18800,"station_id":"ce4bhp92rcd13ifvqhcg","pricing_plan_id":"free"},{"bike_id":"9ae51110-6160-4830-8874-7193cd37da3a","system_id":"levelo_inurba_marseille","lat":43.261782,"lon":5.374515,"is_reserved":false,"is_disabled":false,"rental_uris":{"android":"levelo://app?vid=9ae51110-6160-4830-8874-7193cd37da3a","ios":"levelo://app?vid=9ae51110-6160-4830-8874-7193cd37da3a"},"vehicle_type_id":"4","last_reported":1703297743,"current_range_meters":20800,"station_id":"ce4bhgp2rcd13ifvqfc0","pricing_plan_id":"free"},{"bike_id":"9a22b759-cb02-4a9f-b32d-4de2997c4531","system_id":"levelo_inurba_marseille","lat":43.317104,"lon":5.436818,"is_reserved":false,"is_disabled":false,"rental_uris":{"android":"levelo://app?vid=9a22b759-cb02-4a9f-b32d-4de2997c4531","ios":"levelo://app?vid=9a22b759-cb02-4a9f-b32d-4de2997c4531"},"vehicle_type_id":"4","last_reported":1703297743,"current_range_meters":800,"station_id":"ce4bhp92rcd13ifvqhcg","pricing_plan_id":"free"},{"bike_id":"3c97a8a7-622c-4d01-a316-783cde5fc7f9","system_id":"levelo_inurba_marseille","lat":43.317104,"lon":5.436818,"is_reserved":false,"is_disabled":false,"rental_uris":{"android":"levelo://app?vid=3c97a8a7-622c-4d01-a316-783cde5fc7f9","ios":"levelo://app?vid=3c97a8a7-622c-4d01-a316-783cde5fc7f9"},"vehicle_type_id":"4","last_reported":1703297743,"current_range_meters":25200,"station_id":"ce4bhp92rcd13ifvqhcg","pricing_plan_id":"free"},{"bike_id":"cb3bedef-14c4-4d98-84e3-b4d224805958","system_id":"levelo_inurba_marseille","lat":43.271368,"lon":5.40928,"is_reserved":false,"is_disabled":false,"rental_uris":{"android":"levelo://app?vid=cb3bedef-14c4-4d98-84e3-b4d224805958","ios":"levelo://app?vid=cb3bedef-14c4-4d98-84e3-b4d224805958"},"vehicle_type_id":"4","last_reported":1703297743,"current_range_meters":27200,"station_id":"ce4bhl12rcd13ifvqgf0","pricing_plan_id":"free"},{"bike_id":"ecded0b1-26e9-4178-868a-0ff40f1e2ee0","system_id":"levelo_inurba_marseille","lat":43.271388,"lon":5.409269,"is_reserved":false,"is_disabled":false,"rental_uris":{"android":"levelo://app?vid=ecded0b1-26e9-4178-868a-0ff40f1e2ee0","ios":"levelo://app?vid=ecded0b1-26e9-4178-868a-0ff40f1e2ee0"},"vehicle_type_id":"4","last_reported":1703297743,"current_range_meters":30000,"station_id":"ce4bhl12rcd13ifvqgf0","pricing_plan_id":"free"},{"bike_id":"9a11cea6-5728-4fbd-9162-591fb81b9f95","system_id":"levelo_inurba_marseille","lat":43.267959,"lon":5.402687,"is_reserved":false,"is_disabled":false,"rental_uris":{"android":"levelo://app?vid=9a11cea6-5728-4fbd-9162-591fb81b9f95","ios":"levelo://app?vid=9a11cea6-5728-4fbd-9162-591fb81b9f95"},"vehicle_type_id":"4","last_reported":1703297743,"current_range_meters":25200,"station_id":"ce501612rcd8frsf0b60","pricing_plan_id":"free"},