{"last_updated":1737468489,"ttl":60,"version":"2.2","data":{"bikes":[{"bike_id":"b74b855a-0a8e-44e1-aa63-99dc34613857","system_id":"levelo_inurba_marseille","lat":43.29905,"lon":5.43666,"is_reserved":false,"is_disabled":false,"rental_uris":{"android":"levelo://app?vid=b74b855a-0a8e-44e1-aa63-99dc34613857","ios":"levelo://app?vid=b74b855a-0a8e-44e1-aa63-99dc34613857"},"vehicle_type_id":"4","last_reported":1737468490,"current_range_meters":28400,"station_id":"ce4bhpp2rcd13ifvqhfg","pricing_plan_id":"cebpf4jnsgd1na2vs0mg"},{"bike_id":"689dda7a-7032-4dcd-8149-6c95173bb231","system_id":"levelo_inurba_marseille","lat":43.30569,"lon":5.36523,"is_reserved":false,"is_disabled":false,"rental_uris":{"android":"levelo://app?vid=689dda7a-7032-4dcd-8149-6c95173bb231","ios":"levelo://app?vid=689dda7a-7032-4dcd-8149-6c95173bb231"},"vehicle_type_id":"4","last_reported":1737468490,"current_range_meters":38400,"station_id":"ce4bgs12rcd13ifvqcag","pricing_plan_id":"cebpf4jnsgd1na2vs0mg"},{"bike_id":"09321f67-cf27-418c-af77-a7bb9615c767","system_id":"levelo_inurba_marseille","lat":43.29588,"lon":5.38092,"is_reserved":false,"is_disabled":false,"rental_uris":{"android":"levelo://app?vid=09321f67-cf27-418c-af77-a7bb9615c767","ios":"levelo://app?vid=09321f67-cf27-418c-af77-a7bb9615c767"},"vehicle_type_id":"4","last_reported":1737468490,"current_range_meters":38800,"station_id":"ce4bgl12rcd13ifvqbo0","pricing_plan_id":"cebpf4jnsgd1na2vs0mg"},{"bike_id":"af64160c-1ddf-442c-aba8-bfd72e2963c6","system_id":"levelo_inurba_marseille","lat":43.28454,"lon":5.35891,"is_reserved":false,"is_disabled":false,"rental_uris":{"android":"levelo://app?vid=af64160c-1ddf-442c-aba8-bfd72e2963c6","ios":"levelo://app?vid=af64160c-1ddf-442c-aba8-bfd72e2963c6"},"vehicle_type_id":"4","last_reported":1737468490,"current_range_meters":26000,"station_id":"ce4bhah2rcd13ifvqei0","pricing_plan_id":"cebpf4jnsgd1na2vs0mg"},{"bike_id":"4ae7bd19-32eb-4847-ac6c-e6763de81997","system_id":"levelo_inurba_marseille","lat":43.337444,"lon":5.374475,"is_reserved":false,"is_disabled":false,"rental_uris":{"android":"levelo://app?vid=4ae7bd19-32eb-4847-ac6c-e6763de81997","ios":"levelo://app?vid=4ae7bd19-32eb-4847-ac6c-e6763de81997"},"vehicle_type_id":"4","last_reported":1737468490,"current_range_meters":38800,"station_id":"","pricing_plan_id":"cebpf4jnsgd1na2vs0mg"},{"bike_id":"7760d970-1182-495f-8d2c-90ea2db662e3","system_id":"levelo_inurba_marseille","lat":43.28037,"lon":5.36951,"is_reserved":false,"is_disabled":false,"rental_uris":{"android":"levelo://app?vid=7760d970-1182-495f-8d2c-90ea2db662e3","ios":"levelo://app?vid=7760d970-1182-495f-8d2c-90ea2db662e3"},"vehicle_type_id":"4","last_reported":1737468490,"current_range_meters":39200,"station_id":"ce4bha12rcd13ifvqef0","pricing_plan_id":"cebpf4jnsgd1na2vs0mg"},{"bike_id":"db7d33f6-1676-4961-be7e-7d1fef015396","system_id":"levelo_inurba_marseille","lat":43.30156,"lon":5.37394,"is_reserved":false,"is_disabled":false,"rental_uris":{"android":"levelo://app?vid=db7d33f6-1676-4961-be7e-7d1fef015396","ios":"levelo://app?vid=db7d33f6-1676-4961-be7e-7d1fef015396"},"vehicle_type_id":"4","last_reported":1737468490,"current_range_meters":39200,"station_id":"ce4bgs92rcd13ifvqcc0","pricing_plan_id":"cebpf4jnsgd1na2vs0mg"},{"bike_id":"dbfc6bbb-0554-4b09-9ba3-6a0d99a97020","system_id":"levelo_inurba_marseille","lat":43.30539,"lon":5.38438,"is_reserved":false,"is_disabled":false,"rental_uris":{"android":"levelo://app?vid=dbfc6bbb-0554-4b09-9ba3-6a0d99a97020","ios":"levelo://app?vid=dbfc6bbb-0554-4b09-9ba3-6a0d99a97020"},"vehicle_type_id":"4","last_reported":1737468490,"current_range_meters":38800,"station_id":"ce4bgg92rcd13ifvqb30","pricing_plan_id":"cebpf4jnsgd1na2vs0mg"},{"bike_id":"0efcb19d-a5d5-4cbb-a0ba-146fb16ac38e","system_id":"levelo_inurba_marseille","lat":43.30585,"lon":5.36536,"is_reserved":false,"is_disabled":false,"rental_uris":{"android":"levelo://app?vid=0efcb19d-a5d5-4cbb-a0ba-146fb16ac38e","ios":"levelo://app?vid=0efcb19d-a5d5-4cbb-a0ba-146fb16ac38e"},"vehicle_type_id":"4","last_reported":1737468490,"current_range_meters":39200,"station_id":"ce4bgs12rcd13ifvqcag","pricing_plan_id":"cebpf4jnsgd1na2vs0mg"},{"bike_id":"700b1483-11de-437f-a420-0d3199c15fd5","system_id":"levelo_inurba_marseille","lat":43.301446,"lon":5.387703,"is_reserved":false,"is_disabled":true,"rental_uris":{"android":"levelo://app?vid=700b1483-11de-437f-a420-0d3199c15fd5","ios":"levelo://app?vid=700b1483-11de-437f-a420-0d3199c15fd5"},"vehicle_type_id":"4","last_reported":1737468490,"current_range_meters":4800,"station_id":"ce4bhoh2rcd13ifvqh6g","pricing_plan_id":"cebpf4jnsgd1na2vs0mg"},{"bike_id":"a9212900-1e0d-420e-b40b-16ee89a0dae3","system_id":"levelo_inurba_marseille","lat":43.26556,"lon":5.3901,"is_reserved":false,"is_disabled":false,"rental_uris":{"android":"levelo://app?vid=a9212900-1e0d-420e-b40b-16ee89a0dae3","ios":"levelo://app?vid=a9212900-1e0d-420e-b40b-16ee89a0dae3"},"vehicle_type_id":"4","last_reported":1737468490,"current_range_meters":17200,"station_id":"ce4bhe12rcd13ifvqf30","pricing_plan_id":"cebpf4jnsgd1na2vs0mg"},{"bike_id":"a77430c7-a93a-45f7-b054-9b8bf58b026d","system_id":"levelo_inurba_marseille","lat":43.29892,"lon":5.39749,"is_reserved":false,"is_disabled":false,"rental_uris":{"android":"levelo://app?vid=a77430c7-a93a-45f7-b054-9b8bf58b026d","ios":"levelo://app?vid=a77430c7-a93a-45f7-b054-9b8bf58b026d"},"vehicle_type_id":"4","last_reported":1737468490,"current_range_meters":33200,"station_id":"ce4bh0h2rcd13ifvqd50","pricing_plan_id":"cebpf4jnsgd1na2vs0mg"},{"bike_id":"0da8be6e-e3b2-41cf-af76-58614e9065e2","system_id":"levelo_inurba_marseille","lat":43.30048,"lon":5.40074,"is_reserved":false,"is_disabled":false,"rental_uris":{"android":"levelo://app?vid=0da8be6e-e3b2-41cf-af76-58614e9065e2","ios":"levelo://app?vid=0da8be6e-e3b2-41cf-af76-58614e9065e2"},"vehicle_type_id":"4","last_reported":1737468490,"current_range_meters":39200,"station_id":"ce4bh112rcd13ifvqd90","pricing_plan_id":"cebpf4jnsgd1na2vs0mg"},{"bike_id":"de6c3ea9-ddfb-45b0-9a99-8c4f234f7bc2","system_id":"levelo_inurba_marseille","lat":43.296,"lon":5.38094,"is_reserved":false,"is_disabled":false,"rental_uris":{"android":"levelo://app?vid=de6c3ea9-ddfb-45b0-9a99-8c4f234f7bc2","ios":"levelo://app?vid=de6c3ea9-ddfb-45b0-9a99-8c4f234f7bc2"},"vehicle_type_id":"4","last_reported":1737468490,"current_range_meters":36000,"station_id":"ce4bgl12rcd13ifvqbo0","pricing_plan_id":"cebpf4jnsgd1na2vs0mg"},{"bike_id":"73169cd6-f9a0-45a0-a1c3-b786228af92a","system_id":"levelo_inurba_marseille","lat":43.30464,"lon":5.37911,"is_reserved":false,"is_disabled":false,"rental_uris":{"android":"levelo://app?vid=73169cd6-f9a0-45a0-a1c3-b786228af92a","ios":"levelo://app?vid=73169cd6-f9a0-45a0-a1c3-b786228af92a"},"vehicle_type_id":"4","last_reported":1737468490,"current_range_meters":36000,"station_id":"ce4bgup2rcd13ifvqcn0","pricing_plan_id":"cebpf4jnsgd1na2vs0mg"},{"bike_id":"48a4db89-2f72-4ee8-b0ea-b0bc6e5aab84","system_id":"levelo_inurba_marseille","lat":43.26066,"lon":5.394,"is_reserved":false,"is_disabled":false,"rental_uris":{"android":"levelo://app?vid=48a4db89-2f72-4ee8-b0ea-b0bc6e5aab84","ios":"levelo://app?vid=48a4db89-2f72-4ee8-b0ea-b0bc6e5aab84"},"vehicle_type_id":"4","last_reported":1737468490,"current_range_meters":38800,"station_id":"ce4bhh92rcd13ifvqfj0","pricing_plan_id":"cebpf4jnsgd1na2vs0mg"},{"bike_id":"06cfd958-c471-4dfe-8613-29275f91d3d2","system_id":"levelo_inurba_marseille","lat":43.29073,"lon":5.37207,"is_reserved":false,"is_disabled":false,"rental_uris":{"android":"levelo://app?vid=06cfd958-c471-4dfe-8613-29275f91d3d2","ios":"levelo://app?vid=06cfd958-c471-4dfe-8613-29275f91d3d2"},"vehicle_type_id":"4","last_reported":1737468490,"current_range_meters":6800,"station_id":"ce4bh5p2rcd13ifvqe4g","pricing_plan_id":"cebpf4jnsgd1na2vs0mg"},{"bike_id":"c720628d-33ae-47d0-9c92-d89e2737a85a","system_id":"levelo_inurba_marseille","lat":43.246482,"lon":5.388896,"is_reserved":false,"is_disabled":false,"rental_uris":{"android":"levelo://app?vid=c720628d-33ae-47d0-9c92-d89e2737a85a","ios":"levelo://app?vid=c720628d-33ae-47d0-9c92-d89e2737a85a"},"vehicle_type_id":"4","last_reported":1737468490,"current_range_meters":36400,"station_id":"ce4bhg12rcd13ifvqf60","pricing_plan_id":"cebpf4jnsgd1na2vs0mg"},{"bike_id":"a2771881-b956-4a9a-9bc9-a89642d437c9","system_id":"levelo_inurba_marseille","lat":43.23209,"lon":5.35545,"is_reserved":false,"is_disabled":false,"rental_uris":{"android":"levelo://app?vid=a2771881-b956-4a9a-9bc9-a89642d437c9","ios":"levelo://app?vid=a2771881-b956-4a9a-9bc9-a89642d437c9"},"vehicle_type_id":"4","last_reported":1737468490,"current_range_meters":38800,"station_id":"ce4bhu92rcd13ifvqi70","pricing_plan_id":"cebpf4jnsgd1na2vs0mg"},{"bike_id":"38deec00-54a4-4647-b71a-a7db3d6a1353","system_id":"levelo_inurba_marseille","lat":43.321018,"lon":5.367885,"is_reserved":false,"is_disabled":false,"rental_uris":{"android":"levelo://app?vid=38deec00-54a4-4647-b71a-a7db3d6a1353","ios":"levelo://app?vid=38deec00-54a4-4647-b71a-a7db3d6a1353"},"vehicle_type_id":"4","last_reported":1737468490,"current_range_meters":12800,"station_id":"ce4bhrh2rcd13ifvqhug","pricing_plan_id":"cebpf4jnsgd1na2vs0mg"},{"bike_id":"0d78df30-723c-4495-9e80-871e3dcd593f","system_id":"levelo_inurba_marseille","lat":43.30145,"lon":5.3741,"is_reserved":false,"is_disabled":false,"rental_uris":{"android":"levelo://app?vid=0d78df30-723c-4495-9e80-871e3dcd593f","ios":"levelo://app?vid=0d78df30-723c-4495-9e80-871e3dcd593f"},"vehicle_type_id":"4","last_reported":1737468490,"current_range_meters":39200,"station_id":"ce4bgs92rcd13ifvqcc0","pricing_plan_id":"cebpf4jnsgd1na2vs0mg"},{"bike_id":"d29f90ef-576b-417e-82e9-944e6b255e68","system_id":"levelo_inurba_marseille","lat":43.30454,"lon":5.38897,"is_reserved":false,"is_disabled":true,"rental_uris":{"android":"levelo://app?vid=d29f90ef-576b-417e-82e9-944e6b255e68","ios":"levelo://app?vid=d29f90ef-576b-417e-82e9-944e6b255e68"},"vehicle_type_id":"4","last_reported":1737468490,"current_range_meters":800,"station_id":"ce4bgk12rcd13ifvqbi0","pricing_plan_id":"cebpf4jnsgd1na2vs0mg"},{"bike_id":"d07b2279-a1f4-4e07-a311-73b4f7f2bf4b","system_id":"levelo_inurba_marseille","lat":43.29044,"lon":5.37579,"is_reserved":false,"is_disabled":false,"rental_uris":{"android":"levelo://app?vid=d07b2279-a1f4-4e07-a311-73b4f7f2bf4b","ios":"levelo://app?vid=d07b2279-a1f4-4e07-a311-73b4f7f2bf4b"},"vehicle_type_id":"4","last_reported":1737468490,"current_range_meters":39200,"station_id":"ce4bh692rcd13ifvqe90","pricing_plan_id":"cebpf4jnsgd1na2vs0mg"},{"bike_id":"8e397219-ab21-4c6f-9c63-ad326c41c0fa","system_id":"levelo_inurba_marseille","lat":43.28077,"lon":5.39651,"is_reserved":false,"is_disabled":false,"rental_uris":{"android":"levelo://app?vid=8e397219-ab21-4c6f-9c63-ad326c41c0fa","ios":"levelo://app?vid=8e397219-ab21-4c6f-9c63-ad326c41c0fa"},"vehicle_type_id":"4","last_reported":1737468490,"current_range_meters":33200,"station_id":"ce4bho12rcd13ifvqh2g","pricing_plan_id":"cebpf4jnsgd1na2vs0mg"},{"bike_id":"f927862b-a9a0-4d1d-be64-143392c27d77","system_id":"levelo_inurba_marseille","lat":43.31265,"lon":5.36844,"is_reserved":false,"is_disabled":false,"rental_uris":{"android":"levelo://app?vid=f927862b-a9a0-4d1d-be64-143392c27d77","ios":"levelo://app?vid=f927862b-a9a0-4d1d-be64-143392c27d77"},"vehicle_type_id":"4","last_reported":1737468490,"current_range_meters":28400,"station_id":"ce4bgl92rcd13ifvqbq0","pricing_plan_id":"cebpf4jnsgd1na2vs0mg"},{"bike_id":"e87016fb-66e9-45c3-ae3b-d82280cf2ed7","system_id":"levelo_inurba_marseille","lat":43.32545,"lon":5.41477,"is_reserved":false,"is_disabled":false,"rental_uris":{"android":"levelo://app?vid=e87016fb-66e9-45c3-ae3b-d82280cf2ed7","ios":"levelo://app?vid=e87016fb-66e9-45c3-ae3b-d82280cf2ed7"},"vehicle_type_id":"4","last_reported":1737468490,"current_range_meters":26800,"station_id":"ce4bhq12rcd13ifvqhhg","pricing_plan_id":"cebpf4jnsgd1na2vs0mg"},{"bike_id":"ad3665cc-4757-4e98-9e3b-b3f13103b812","system_id":"levelo_inurba_marseille","lat":43.29594,"lon":5.37723,"is_reserved":false,"is_disabled":false,"rental_uris":{"android":"levelo://app?vid=ad3665cc-4757-4e98-9e3b-b3f13103b812","ios":"levelo://app?vid=ad3665cc-4757-4e98-9e3b-b3f13103b812"},"vehicle_type_id":"4","last_reported":1737468490,"current_range_meters":10000,"station_id":"ce4bgi92rcd13ifvqb90","pricing_plan_id":"cebpf4jnsgd1na2vs0mg"},{"bike_id":"ab7b1d7a-8ae0-4c4a-9611-7e663b41825a","system_id":"levelo_inurba_marseille","lat":43.32294,"lon":5.3831,"is_reserved":false,"is_disabled":false,"rental_uris":{"android":"levelo://app?vid=ab7b1d7a-8ae0-4c4a-9611-7e663b41825a","ios":"levelo://app?vid=ab7b1d7a-8ae0-4c4a-9611-7e663b41825a"},"vehicle_type_id":"4","last_reported":1737468490,"current_range_meters":38800,"station_id":"ce4bhr12rcd13ifvqhqg","pricing_plan_id":"cebpf4jnsgd1na2vs0mg"},{"bike_id":"d4a18e16-6eb1-455f-9f8d-52c212244e83","system_id":"levelo_inurba_marseille","lat":43.27805,"lon":5.40496,"is_reserved":false,"is_disabled":true,"rental_uris":{"android":"levelo://app?vid=d4a18e16-6eb1-455f-9f8d-52c212244e83","ios":"levelo://app?vid=d4a18e16-6eb1-455f-9f8d-52c212244e83"},"vehicle_type_id":"4","last_reported":1737468490,"current_range_meters":0,"station_id":"","pricing_plan_id":"cebpf4jnsgd1na2vs0mg"},{"bike_id":"9a46fc70-7cd3-48e2-808e-3b382fbb61cd","system_id":"levelo_inurba_marseille","lat":43.23151,"lon":5.4372,"is_reserved":false,"is_disabled":false,"rental_uris":{"android":"levelo://app?vid=9a46fc70-7cd3-48e2-808e-3b382fbb61cd","ios":"levelo://app?vid=9a46fc70-7cd3-48e2-808e-3b382fbb61cd"},"vehicle_type_id":"4","last_reported":1737468490,"current_range_meters":14000,"station_id":"ce4bhmp2rcd13ifvqgog","pricing_plan_id":"cebpf4jnsgd1na2vs0mg"},{"bike_id":"188e09b2-ccb8-432b-be6f-8dbc57a72e1a","system_id":"levelo_inurba_marseille","lat":43.31265,"lon":5.40166,"is_reserved":false,"is_disabled":false,"rental_uris":{"android":"levelo://app?vid=188e09b2-ccb8-432b-be6f-8dbc57a72e1a","ios":"levelo://app?vid=188e09b2-ccb8-432b-be6f-8dbc57a72e1a"},"vehicle_type_id":"4","last_reported":1737468490,"current_range_meters":16800,"station_id":"ce4bh092rcd13ifvqd30","pricing_plan_id":"cebpf4jnsgd1na2vs0mg"},{"bike_id":"227d4ac6-e6e3-42e5-b7a5-8c29ce937191","system_id":"levelo_inurba_marseille","lat":43.27958,"lon":5.38692,"is_reserved":false,"is_disabled":false,"rental_uris":{"android":"levelo://app?vid=227d4ac6-e6e3-42e5-b7a5-8c29ce937191","ios":"levelo://app?vid=227d4ac6-e6e3-42e5-b7a5-8c29ce937191"},"vehicle_type_id":"4","last_reported":1737468490,"current_range_meters":36400,"station_id":"ce4bhg12rcd13ifvqf80","pricing_plan_id":"cebpf4jnsgd1na2vs0mg"},{"bike_id":"d91be513-c350-4df2-80c9-9eac41eaf470","system_id":"levelo_inurba_marseille","lat":43.27957,"lon":5.38694,"is_reserved":false,"is_disabled":true,"rental_uris":{"android":"levelo://app?vid=d91be513-c350-4df2-80c9-9eac41eaf470","ios":"levelo://app?vid=d91be513-c350-4df2-80c9-9eac41eaf470"},"vehicle_type_id":"4","last_reported":1737468490,"current_range_meters":0,"station_id":"ce4bhg12rcd13ifvqf80","pricing_plan_id":"cebpf4jnsgd1na2vs0mg"},{"bike_id":"6a78cdec-357c-4bf7-b1c8-4906d06f964d","system_id":"levelo_inurba_marseille","lat":43.29096,"lon":5.38137,"is_reserved":false,"is_disabled":false,"rental_uris":{"android":"levelo://app?vid=6a78cdec-357c-4bf7-b1c8-4906d06f964d","ios":"levelo://app?vid=6a78cdec-357c-4bf7-b1c8-4906d06f964d"},"vehicle_type_id":"4","last_reported":1737468490,"current_range_meters":10800,"station_id":"ce4bh512rcd13ifvqe2g","pricing_plan_id":"cebpf4jnsgd1na2vs0mg"},{"bike_id":"22086f1e-8965-4707-9ed7-32ff6fc770d2","system_id":"levelo_inurba_marseille","lat":43.27915,"lon":5.39581,"is_reserved":false,"is_disabled":false,"rental_uris":{"android":"levelo://app?vid=22086f1e-8965-4707-9ed7-32ff6fc770d2","ios":"levelo://app?vid=22086f1e-8965-4707-9ed7-32ff6fc770d2"},"vehicle_type_id":"4","last_reported":1737468490,"current_range_meters":9200,"station_id":"ce4bhf92rcd13ifvqf40","pricing_plan_id":"cebpf4jnsgd1na2vs0mg"},{"bike_id":"2013d2d2-593d-4dd7-bc08-8296754af443","system_id":"levelo_inurba_marseille","lat":43.27493,"lon":5.42457,"is_reserved":false,"is_disabled":false,"rental_uris":{"android":"levelo://app?vid=2013d2d2-593d-4dd7-bc08-8296754af443","ios":"levelo://app?vid=2013d2d2-593d-4dd7-bc08-8296754af443"},"vehicle_type_id":"4","last_reported":1737468490,"current_range_meters":14000,"station_id":"ce4bhn92rcd13ifvqgrg","pricing_plan_id":"cebpf4jnsgd1na2vs0mg"},{"bike_id":"7713b736-42c7-418d-9664-842f15f64aef","system_id":"levelo_inurba_marseille","lat":43.30155,"lon":5.38094,"is_reserved":false,"is_disabled":false,"rental_uris":{"android":"levelo://app?vid=7713b736-42c7-418d-9664-842f15f64aef","ios":"levelo://app?vid=7713b736-42c7-418d-9664-842f15f64aef"},"vehicle_type_id":"4","last_reported":1737468490,"current_range_meters":39200,"station_id":"ce4bgjp2rcd13ifvqbh0","pricing_plan_id":"cebpf4jnsgd1na2vs0mg"},{"bike_id":"c35f2a56-0945-408c-ab7b-059d91aadb6e","system_id":"levelo_inurba_marseille","lat":43.25935,"lon":5.40884,"is_reserved":false,"is_disabled":false,"rental_uris":{"android":"levelo://app?vid=c35f2a56-0945-408c-ab7b-059d91aadb6e","ios":"levelo://app?vid=c35f2a56-0945-408c-ab7b-059d91aadb6e"},"vehicle_type_id":"4","last_reported":1737468490,"current_range_meters":21600,"station_id":"ce4bhm92rcd13ifvqglg","pricing_plan_id":"cebpf4jnsgd1na2vs0mg"},{"bike_id":"53e56092-bf59-4d37-8073-3e35714bc05d","system_id":"levelo_inurba_marseille","lat":43.23166,"lon":5.43704,"is_reserved":false,"is_disabled":false,"rental_uris":{"android":"levelo://app?vid=53e56092-bf59-4d37-8073-3e35714bc05d","ios":"levelo://app?vid=53e56092-bf59-4d37-8073-3e35714bc05d"},"vehicle_type_id":"4","last_reported":1737468490,"current_range_meters":17200,"station_id":"ce4bhmp2rcd13ifvqgog","pricing_plan_id":"cebpf4jnsgd1na2vs0mg"},{"bike_id":"89e5d999-b64a-4894-b233-fbd2ca840386","system_id":"levelo_inurba_marseille","lat":43.30916,"lon":5.36853,"is_reserved":false,"is_disabled":false,"rental_uris":{"android":"levelo://app?vid=89e5d999-b64a-4894-b233-fbd2ca840386","ios":"levelo://app?vid=89e5d999-b64a-4894-b233-fbd2ca840386"},"vehicle_type_id":"4","last_reported":1737468490,"current_range_meters":32800,"station_id":"ce4bgn92rcd13ifvqbvg","pricing_plan_id":"cebpf4jnsgd1na2vs0mg"},{"bike_id":"d98c383f-deee-439b-9ec7-deec2a8acf6b","system_id":"levelo_inurba_marseille","lat":43.30323,"lon":5.36906,"is_reserved":false,"is_disabled":false,"rental_uris":{"android":"levelo://app?vid=d98c383f-deee-439b-9ec7-deec2a8acf6b","ios":"levelo://app?vid=d98c383f-deee-439b-9ec7-deec2a8acf6b"},"vehicle_type_id":"4","last_reported":1737468490,"current_range_meters":37600,"station_id":"ce4bgqh2rcd13ifvqc5g","pricing_plan_id":"cebpf4jnsgd1na2vs0mg"},{"bike_id":"f0af8429-ac7c-4974-b8ef-9e94a78407d7","system_id":"levelo_inurba_marseille","lat":43.292,"lon":5.39327,"is_reserved":false,"is_disabled":false,"rental_uris":{"android":"levelo://app?vid=f0af8429-ac7c-4974-b8ef-9e94a78407d7","ios":"levelo://app?vid=f0af8429-ac7c-4974-b8ef-9e94a78407d7"},"vehicle_type_id":"4","last_reported":1737468490,"current_range_meters":38800,"station_id":"ce4bh192rcd13ifvqdd0","pricing_plan_id":"cebpf4jnsgd1na2vs0mg"},{"bike_id":"7e4c7ea3-48f8-4aac-8b08-3e4fa595f4e5","system_id":"levelo_inurba_marseille","lat":43.28708,"lon":5.37386,"is_reserved":false,"is_disabled":false,"rental_uris":{"android":"levelo://app?vid=7e4c7ea3-48f8-4aac-8b08-3e4fa595f4e5","ios":"levelo://app?vid=7e4c7ea3-48f8-4aac-8b08-3e4fa595f4e5"},"vehicle_type_id":"4","last_reported":1737468490,"current_range_meters":18000,"station_id":"ce4bh3p2rcd13ifvqdq0","pricing_plan_id":"cebpf4jnsgd1na2vs0mg"},{"bike_id":"c6aec08a-95b2-468e-b6ba-3552b798296e","system_id":"levelo_inurba_marseille","lat":43.33614,"lon":5.4101,"is_reserved":false,"is_disabled":false,"rental_uris":{"android":"levelo://app?vid=c6aec08a-95b2-468e-b6ba-3552b798296e","ios":"levelo://app?vid=c6aec08a-95b2-468e-b6ba-3552b798296e"},"vehicle_type_id":"4","last_reported":1737468490,"current_range_meters":28000,"station_id":"ce4bhqh2rcd13ifvqhmg","pricing_plan_id":"cebpf4jnsgd1na2vs0mg"},{"bike_id":"1f6dc155-db14-4993-a445-66a4306b1945","system_id":"levelo_inurba_marseille","lat":43.28417,"lon":5.37505,"is_reserved":false,"is_disabled":false,"rental_uris":{"android":"levelo://app?vid=1f6dc155-db14-4993-a445-66a4306b1945","ios":"levelo://app?vid=1f6dc155-db14-4993-a445-66a4306b1945"},"vehicle_type_id":"4","last_reported":1737468490,"current_range_meters":28400,"station_id":"ce4bh412rcd13ifvqds0","pricing_plan_id":"cebpf4jnsgd1na2vs0mg"},{"bike_id":"5855ebd7-ede6-4105-9d82-16373e349c1b","system_id":"levelo_inurba_marseille","lat":43.29852,"lon":5.39724,"is_reserved":false,"is_disabled":false,"rental_uris":{"android":"levelo://app?vid=5855ebd7-ede6-4105-9d82-16373e349c1b","ios":"levelo://app?vid=5855ebd7-ede6-4105-9d82-16373e349c1b"},"vehicle_type_id":"4","last_reported":1737468490,"current_range_meters":28400,"station_id":"ce4bh0h2rcd13ifvqd50","pricing_plan_id":"cebpf4jnsgd1na2vs0mg"},{"bike_id":"57089681-4dfb-4ed4-9d3a-5124dafb4159","system_id":"levelo_inurba_marseille","lat":43.27068,"lon":5.42276,"is_reserved":false,"is_disabled":false,"rental_uris":{"android":"levelo://app?vid=57089681-4dfb-4ed4-9d3a-5124dafb4159","ios":"levelo://app?vid=57089681-4dfb-4ed4-9d3a-5124dafb4159"},"vehicle_type_id":"4","last_reported":1737468490,"current_range_meters":38800,"station_id":"ce4bhk92rcd13ifvqgb0","pricing_plan_id":"cebpf4jnsgd1na2vs0mg"},{"bike_id":"4a242ce2-1c32-4092-9fe4-bddd9349a0b2","system_id":"levelo_inurba_marseille","lat":43.309802,"lon":5.3805,"is_reserved":false,"is_disabled":false,"rental_uris":{"android":"levelo://app?vid=4a242ce2-1c32-4092-9fe4-bddd9349a0b2","ios":"levelo://app?vid=4a242ce2-1c32-4092-9fe4-bddd9349a0b2"},"vehicle_type_id":"4","last_reported":1737468490,"current_range_meters":38400,"station_id":"ce4bgt12rcd13ifvqce0","pricing_plan_id":"cebpf4jnsgd1na2vs0mg"},{"bike_id":"a036d79a-5d90-4c7f-ae02-024da4f1b856","system_id":"levelo_inurba_marseille","lat":43.30787,"lon":5.37643,"is_reserved":false,"is_disabled":false,"rental_uris":{"android":"levelo://app?vid=a036d79a-5d90-4c7f-ae02-024da4f1b856","ios":"levelo://app?vid=a036d79a-5d90-4c7f-ae02-024da4f1b856"},"vehicle_type_id":"4","last_reported":1737468490,"current_range_meters":18800,"station_id":"ce4bgv92rcd13ifvqcq0","pricing_plan_id":"cebpf4jnsgd1na2vs0mg"},{"bike_id":"580fd682-a63d-4470-bd40-a527c3d7e682","system_id":"levelo_inurba_marseille","lat":43.25007,"lon":5.38931,"is_reserved":false,"is_disabled":false,"rental_uris":{"android":"levelo://app?vid=580fd682-a63d-4470-bd40-a527c3d7e682","ios":"levelo://app?vid=580fd682-a63d-4470-bd40-a527c3d7e682"},"vehicle_type_id":"4","last_reported":1737468490,"current_range_meters":38800,"station_id":"ce4bhgp2rcd13ifvqfd0","pricing_plan_id":"cebpf4jnsgd1na2vs0mg"},{"bike_id":"bcd175e1-1fd1-4b01-ba8a-35156c99c1cc","system_id":"levelo_inurba_marseille","lat":43.31266,"lon":5.40166,"is_reserved":false,"is_disabled":false,"rental_uris":{"android":"levelo://app?vid=bcd175e1-1fd1-4b01-ba8a-35156c99c1cc","ios":"levelo://app?vid=bcd175e1-1fd1-4b01-ba8a-35156c99c1cc"},"vehicle_type_id":"4","last_reported":1737468490,"current_range_meters":5600,"station_id":"ce4bh092rcd13ifvqd30","pricing_plan_id":"cebpf4jnsgd1na2vs0mg"},{"bike_id":"3f7adcb8-552a-4309-bdb8-bd6e87e7c99b","system_id":"levelo_inurba_marseille","lat":43.27499,"lon":5.42448,"is_reserved":false,"is_disabled":false,"rental_uris":{"android":"levelo://app?vid=3f7adcb8-552a-4309-bdb8-bd6e87e7c99b","ios":"levelo://app?vid=3f7adcb8-552a-4309-bdb8-bd6e87e7c99b"},"vehicle_type_id":"4","last_reported":1737468490,"current_range_meters":6800,"station_id":"ce4bhn92rcd13ifvqgrg","pricing_plan_id":"cebpf4jnsgd1na2vs0mg"},{"bike_id":"d0deaa0f-336c-4daf-981a-c3ffec1ee136","system_id":"levelo_inurba_marseille","lat":43.26558,"lon":5.37284,"is_reserved":false,"is_disabled":false,"rental_uris":{"android":"levelo://app?vid=d0deaa0f-336c-4daf-981a-c3ffec1ee136","ios":"levelo://app?vid=d0deaa0f-336c-4daf-981a-c3ffec1ee136"},"vehicle_type_id":"4","last_reported":1737468490,"current_range_meters":35200,"station_id":"ce4bhg12rcd13ifvqf70","pricing_plan_id":"cebpf4jnsgd1na2vs0mg"},{"bike_id":"ea24bff1-8ef0-42d3-9502-f00d1e534ce7","system_id":"levelo_inurba_marseille","lat":43.29891,"lon":5.43649,"is_reserved":false,"is_disabled":false,"rental_uris":{"android":"levelo://app?vid=ea24bff1-8ef0-42d3-9502-f00d1e534ce7","ios":"levelo://app?vid=ea24bff1-8ef0-42d3-9502-f00d1e534ce7"},"vehicle_type_id":"4","last_reported":1737468490,"current_range_meters":28800,"station_id":"ce4bhpp2rcd13ifvqhfg","pricing_plan_id":"cebpf4jnsgd1na2vs0mg"},{"bike_id":"ea4936bb-a020-48d0-ad34-8742c0d8a98c","system_id":"levelo_inurba_marseille","lat":43.30936,"lon":5.3687,"is_reserved":false,"is_disabled":false,"rental_uris":{"android":"levelo://app?vid=ea4936bb-a020-48d0-ad34-8742c0d8a98c","ios":"levelo://app?vid=ea4936bb-a020-48d0-ad34-8742c0d8a98c"},"vehicle_type_id":"4","last_reported":1737468490,"current_range_meters":30800,"station_id":"ce4bgn92rcd13ifvqbvg","pricing_plan_id":"cebpf4jnsgd1na2vs0mg"},{"bike_id":"31257c94-14b2-42e2-9664-77ef70ea51d9","system_id":"levelo_inurba_marseille","lat":43.32494,"lon":5.36567,"is_reserved":false,"is_disabled":false,"rental_uris":{"android":"levelo://app?vid=31257c94-14b2-42e2-9664-77ef70ea51d9","ios":"levelo://app?vid=31257c94-14b2-42e2-9664-77ef70ea51d9"},"vehicle_type_id":"4","last_reported":1737468490,"current_range_meters":38800,"station_id":"ce4bhs12rcd13ifvqhvg","pricing_plan_id":"cebpf4jnsgd1na2vs0mg"},{"bike_id":"0fd1c5c9-0fa2-4564-9a4c-3de2682c23ea","system_id":"levelo_inurba_marseille","lat":43.31323,"lon":5.39696,"is_reserved":false,"is_disabled":false,"rental_uris":{"android":"levelo://app?vid=0fd1c5c9-0fa2-4564-9a4c-3de2682c23ea","ios":"levelo://app?vid=0fd1c5c9-0fa2-4564-9a4c-3de2682c23ea"},"vehicle_type_id":"4","last_reported":1737468490,"current_range_meters":22000,"station_id":"ce4bgvp2rcd13ifvqcu0","pricing_plan_id":"cebpf4jnsgd1na2vs0mg"},{"bike_id":"f92792d1-0411-4612-bea8-abbe1f53205a","system_id":"levelo_inurba_marseille","lat":43.27493,"lon":5.42455,"is_reserved":false,"is_disabled":false,"rental_uris":{"android":"levelo://app?vid=f92792d1-0411-4612-bea8-abbe1f53205a","ios":"levelo://app?vid=f92792d1-0411-4612-bea8-abbe1f53205a"},"vehicle_type_id":"4","last_reported":1737468490,"current_range_meters":32000,"station_id":"ce4bhn92rcd13ifvqgrg","pricing_plan_id":"cebpf4jnsgd1na2vs0mg"},{"bike_id":"b6cc31be-151e-4d56-8839-e71a9cd45b18","system_id":"levelo_inurba_marseille","lat":43.23194,"lon":5.35561,"is_reserved":false,"is_disabled":false,"rental_uris":{"android":"levelo://app?vid=b6cc31be-151e-4d56-8839-e71a9cd45b18","ios":"levelo://app?vid=b6cc31be-151e-4d56-8839-e71a9cd45b18"},"vehicle_type_id":"4","last_reported":1737468490,"current_range_meters":36800,"station_id":"ce4bhu92rcd13ifvqi70","pricing_plan_id":"cebpf4jnsgd1na2vs0mg"},{"bike_id":"1a0a2514-1dbf-4be6-9e23-d2b90daf2f22","system_id":"levelo_inurba_marseille","lat":43.23147,"lon":5.43717,"is_reserved":false,"is_disabled":false,"rental_uris":{"android":"levelo://app?vid=1a0a2514-1dbf-4be6-9e23-d2b90daf2f22","ios":"levelo://app?vid=1a0a2514-1dbf-4be6-9e23-d2b90daf2f22"},"vehicle_type_id":"4","last_reported":1737468490,"current_range_meters":38800,"station_id":"ce4bhmp2rcd13ifvqgog","pricing_plan_id":"cebpf4jnsgd1na2vs0mg"},{"bike_id":"a3f9409b-5174-4369-8b70-69215ea7bae7","system_id":"levelo_inurba_marseille","lat":43.3094,"lon":5.40189,"is_reserved":false,"is_disabled":false,"rental_uris":{"android":"levelo://app?vid=a3f9409b-5174-4369-8b70-69215ea7bae7","ios":"levelo://app?vid=a3f9409b-5174-4369-8b70-69215ea7bae7"},"vehicle_type_id":"4","last_reported":1737468490,"current_range_meters":38000,"station_id":"ce4bgvp2rcd13ifvqct0","pricing_plan_id":"cebpf4jnsgd1na2vs0mg"},{"bike_id":"1e2d0724-4724-4845-bb8e-655813ce19e9","system_id":"levelo_inurba_marseille","lat":43.29097,"lon":5.38137,"is_reserved":false,"is_disabled":false,"rental_uris":{"android":"levelo://app?vid=1e2d0724-4724-4845-bb8e-655813ce19e9","ios":"levelo://app?vid=1e2d0724-4724-4845-bb8e-655813ce19e9"},"vehicle_type_id":"4","last_reported":1737468490,"current_range_meters":39200,"station_id":"ce4bh512rcd13ifvqe2g","pricing_plan_id":"cebpf4jnsgd1na2vs0mg"},{"bike_id":"503f4e76-2279-4cdf-a5a2-2531a91f3a3a","system_id":"levelo_inurba_marseille","lat":43.26555,"lon":5.3729,"is_reserved":false,"is_disabled":false,"rental_uris":{"android":"levelo://app?vid=503f4e76-2279-4cdf-a5a2-2531a91f3a3a","ios":"levelo://app?vid=503f4e76-2279-4cdf-a5a2-2531a91f3a3a"},"vehicle_type_id":"4","last_reported":1737468490,"current_range_meters":36000,"station_id":"ce4bhg12rcd13ifvqf70","pricing_plan_id":"cebpf4jnsgd1na2vs0mg"},{"bike_id":"28ef1c1e-dd89-43e8-817b-9b489831397b","system_id":"levelo_inurba_marseille","lat":43.27085,"lon":5.39596,"is_reserved":false,"is_disabled":true,"rental_uris":{"android":"levelo://app?vid=28ef1c1e-dd89-43e8-817b-9b489831397b","ios":"levelo://app?vid=28ef1c1e-dd89-43e8-817b-9b489831397b"},"vehicle_type_id":"4","last_reported":1737468490,"current_range_meters":0,"station_id":"","pricing_plan_id":"cebpf4jnsgd1na2vs0mg"},{"bike_id":"bf04cb94-1bb7-4539-a87b-98c1f139ab50","system_id":"levelo_inurba_marseille","lat":43.29933,"lon":5.37483,"is_reserved":false,"is_disabled":false,"rental_uris":{"android":"levelo://app?vid=bf04cb94-1bb7-4539-a87b-98c1f139ab50","ios":"levelo://app?vid=bf04cb94-1bb7-4539-a87b-98c1f139ab50"},"vehicle_type_id":"4","last_reported":1737468490,"current_range_meters":24800,"station_id":"ce4bgjh2rcd13ifvqbg0","pricing_plan_id":"cebpf4jnsgd1na2vs0mg"},{"bike_id":"f5eb2954-a920-4d50-b464-6e2159331675","system_id":"levelo_inurba_marseille","lat":43.29243,"lon":5.38427,"is_reserved":false,"is_disabled":false,"rental_uris":{"android":"levelo://app?vid=f5eb2954-a920-4d50-b464-6e2159331675","ios":"levelo://app?vid=f5eb2954-a920-4d50-b464-6e2159331675"},"vehicle_type_id":"4","last_reported":1737468490,"current_range_meters":31200,"station_id":"ce4bh692rcd13ifvqea0","pricing_plan_id":"cebpf4jnsgd1na2vs0mg"},{"bike_id":"973357c8-dead-42ca-92e9-500225bc994c","system_id":"levelo_inurba_marseille","lat":43.33016,"lon":5.38984,"is_reserved":false,"is_disabled":false,"rental_uris":{"android":"levelo://app?vid=973357c8-dead-42ca-92e9-500225bc994c","ios":"levelo://app?vid=973357c8-dead-42ca-92e9-500225bc994c"},"vehicle_type_id":"4","last_reported":1737468490,"current_range_meters":38800,"station_id":"ce4bhr92rcd13ifvqhrg","pricing_plan_id":"cebpf4jnsgd1na2vs0mg"},{"bike_id":"5ba33ed4-44f7-44c7-9028-14f12774d250","system_id":"levelo_inurba_marseille","lat":43.30277,"lon":5.3768,"is_reserved":false,"is_disabled":false,"rental_uris":{"android":"levelo://app?vid=5ba33ed4-44f7-44c7-9028-14f12774d250","ios":"levelo://app?vid=5ba33ed4-44f7-44c7-9028-14f12774d250"},"vehicle_type_id":"4","last_reported":1737468490,"current_range_meters":11600,"station_id":"ce4bguh2rcd13ifvqcj0","pricing_plan_id":"cebpf4jnsgd1na2vs0mg"},{"bike_id":"fcd68c93-66be-468c-94e2-34110e104422","system_id":"levelo_inurba_marseille","lat":43.27495,"lon":5.42468,"is_reserved":false,"is_disabled":false,"rental_uris":{"android":"levelo://app?vid=fcd68c93-66be-468c-94e2-34110e104422","ios":"levelo://app?vid=fcd68c93-66be-468c-94e2-34110e104422"},"vehicle_type_id":"4","last_reported":1737468490,"current_range_meters":24000,"station_id":"ce4bhn92rcd13ifvqgrg","pricing_plan_id":"cebpf4jnsgd1na2vs0mg"},{"bike_id":"e1b86826-a513-4fa0-8111-6fab965861d5","system_id":"levelo_inurba_marseille","lat":43.31709,"lon":5.43708,"is_reserved":false,"is_disabled":false,"rental_uris":{"android":"levelo://app?vid=e1b86826-a513-4fa0-8111-6fab965861d5","ios":"levelo://app?vid=e1b86826-a513-4fa0-8111-6fab965861d5"},"vehicle_type_id":"4","last_reported":1737468490,"current_range_meters":15200,"station_id":"ce4bhp92rcd13ifvqhcg","pricing_plan_id":"cebpf4jnsgd1na2vs0mg"},{"bike_id":"584a2a6a-e927-4176-a83e-1ee67ef5c40a","system_id":"levelo_inurba_marseille","lat":43.30157,"lon":5.38081,"is_reserved":false,"is_disabled":false,"rental_uris":{"android":"levelo://app?vid=584a2a6a-e927-4176-a83e-1ee67ef5c40a","ios":"levelo://app?vid=584a2a6a-e927-4176-a83e-1ee67ef5c40a"},"vehicle_type_id":"4","last_reported":1737468490,"current_range_meters":23200,"station_id":"ce4bgjp2rcd13ifvqbh0","pricing_plan_id":"cebpf4jnsgd1na2vs0mg"},{"bike_id":"8112b41a-9039-44f6-adb6-bac932dd3721","system_id":"levelo_inurba_marseille","lat":43.30538,"lon":5.36552,"is_reserved":false,"is_disabled":false,"rental_uris":{"android":"levelo://app?vid=8112b41a-9039-44f6-adb6-bac932dd3721","ios":"levelo://app?vid=8112b41a-9039-44f6-adb6-bac932dd3721"},"vehicle_type_id":"4","last_reported":1737468490,"current_range_meters":24800,"station_id":"ce4bgs12rcd13ifvqcag","pricing_plan_id":"cebpf4jnsgd1na2vs0mg"},{"bike_id":"ee3a02e7-0486-4c1e-b32e-8abdd1762a67","system_id":"levelo_inurba_marseille","lat":43.273782,"lon":5.362403,"is_reserved":false,"is_disabled":false,"rental_uris":{"android":"levelo://app?vid=ee3a02e7-0486-4c1e-b32e-8abdd1762a67","ios":"levelo://app?vid=ee3a02e7-0486-4c1e-b32e-8abdd1762a67"},"vehicle_type_id":"4","last_reported":1737468490,"current_range_meters":36000,"station_id":"","pricing_plan_id":"cebpf4jnsgd1na2vs0mg"},{"bike_id":"a9667386-5370-4b94-b202-eea81d19e9ae","system_id":"levelo_inurba_marseille","lat":43.30128,"lon":5.38782,"is_reserved":false,"is_disabled":false,"rental_uris":{"android":"levelo://app?vid=a9667386-5370-4b94-b202-eea81d19e9ae","ios":"levelo://app?vid=a9667386-5370-4b94-b202-eea81d19e9ae"},"vehicle_type_id":"4","last_reported":1737468490,"current_range_meters":30400,"station_id":"ce4bghh2rcd13ifvqb60","pricing_plan_id":"cebpf4jnsgd1na2vs0mg"},{"bike_id":"c0a9ad9e-ef85-426e-a63f-da46becf7660","system_id":"levelo_inurba_marseille","lat":43.30813,"lon":5.38128,"is_reserved":false,"is_disabled":false,"rental_uris":{"android":"levelo://app?vid=c0a9ad9e-ef85-426e-a63f-da46becf7660","ios":"levelo://app?vid=c0a9ad9e-ef85-426e-a63f-da46becf7660"},"vehicle_type_id":"4","last_reported":1737468490,"current_range_meters":38800,"station_id":"ce4bgt12rcd13ifvqce0","pricing_plan_id":"cebpf4jnsgd1na2vs0mg"},{"bike_id":"6d170c43-ed25-40d3-b88a-cefadd58002d","system_id":"levelo_inurba_marseille","lat":43.33626,"lon":5.41031,"is_reserved":false,"is_disabled":false,"rental_uris":{"android":"levelo://app?vid=6d170c43-ed25-40d3-b88a-cefadd58002d","ios":"levelo://app?vid=6d170c43-ed25-40d3-b88a-cefadd58002d"},"vehicle_type_id":"4","last_reported":1737468490,"current_range_meters":24800,"station_id":"ce4bhqh2rcd13ifvqhmg","pricing_plan_id":"cebpf4jnsgd1na2vs0mg"},{"bike_id":"1bc4f972-1eb6-4a1e-8920-bbde83f7ed86","system_id":"levelo_inurba_marseille","lat":43.3093,"lon":5.36864,"is_reserved":false,"is_disabled":false,"rental_uris":{"android":"levelo://app?vid=1bc4f972-1eb6-4a1e-8920-bbde83f7ed86","ios":"levelo://app?vid=1bc4f972-1eb6-4a1e-8920-bbde83f7ed86"},"vehicle_type_id":"4","last_reported":1737468490,"current_range_meters":38800,"station_id":"ce4bgn92rcd13ifvqbvg","pricing_plan_id":"cebpf4jnsgd1na2vs0mg"},{"bike_id":"1f5cb474-798b-4357-9d76-fbb42e648fb5","system_id":"levelo_inurba_marseille","lat":43.2863,"lon":5.35088,"is_reserved":false,"is_disabled":false,"rental_uris":{"android":"levelo://app?vid=1f5cb474-798b-4357-9d76-fbb42e648fb5","ios":"levelo://app?vid=1f5cb474-798b-4357-9d76-fbb42e648fb5"},"vehicle_type_id":"4","last_reported":1737468490,"current_range_meters":14800,"station_id":"ce4bhch2rcd13ifvqeug","pricing_plan_id":"cebpf4jnsgd1na2vs0mg"},{"bike_id":"14d59d68-0961-486f-873c-aabbdb9ca44f","system_id":"levelo_inurba_marseille","lat":43.28277,"lon":5.35108,"is_reserved":false,"is_disabled":true,"rental_uris":{"android":"levelo://app?vid=14d59d68-0961-486f-873c-aabbdb9ca44f","ios":"levelo://app?vid=14d59d68-0961-486f-873c-aabbdb9ca44f"},"vehicle_type_id":"4","last_reported":1737468490,"current_range_meters":0,"station_id":"ce4bhbp2rcd13ifvqerg","pricing_plan_id":"cebpf4jnsgd1na2vs0mg"},{"bike_id":"7b2b96b7-8723-423b-bc80-b7103e400bb0","system_id":"levelo_inurba_marseille","lat":43.27181,"lon":5.40987,"is_reserved":false,"is_disabled":false,"rental_uris":{"android":"levelo://app?vid=7b2b96b7-8723-423b-bc80-b7103e400bb0","ios":"levelo://app?vid=7b2b96b7-8723-423b-bc80-b7103e400bb0"},"vehicle_type_id":"4","last_reported":1737468490,"current_range_meters":39200,"station_id":"ce4bhl12rcd13ifvqgf0","pricing_plan_id":"cebpf4jnsgd1na2vs0mg"},{"bike_id":"b1e7c0e3-f276-47c4-8832-08cec6a6eeae","system_id":"levelo_inurba_marseille","lat":43.30532,"lon":5.36722,"is_reserved":false,"is_disabled":false,"rental_uris":{"android":"levelo://app?vid=b1e7c0e3-f276-47c4-8832-08cec6a6eeae","ios":"levelo://app?vid=b1e7c0e3-f276-47c4-8832-08cec6a6eeae"},"vehicle_type_id":"4","last_reported":1737468490,"current_range_meters":38000,"station_id":"ce4bgrp2rcd13ifvqc9g","pricing_plan_id":"cebpf4jnsgd1na2vs0mg"},{"bike_id":"69c5f992-b640-46d6-bd55-6c4390105b36","system_id":"levelo_inurba_marseille","lat":43.29882,"lon":5.36377,"is_reserved":false,"is_disabled":false,"rental_uris":{"android":"levelo://app?vid=69c5f992-b640-46d6-bd55-6c4390105b36","ios":"levelo://app?vid=69c5f992-b640-46d6-bd55-6c4390105b36"},"vehicle_type_id":"4","last_reported":1737468490,"current_range_meters":24000,"station_id":"ce4bgpp2rcd13ifvqc3g","pricing_plan_id":"cebpf4jnsgd1na2vs0mg"},{"bike_id":"188a488e-e122-4c05-97a4-b179fcfd46e1","system_id":"levelo_inurba_marseille","lat":43.29834,"lon":5.3809,"is_reserved":false,"is_disabled":false,"rental_uris":{"android":"levelo://app?vid=188a488e-e122-4c05-97a4-b179fcfd46e1","ios":"levelo://app?vid=188a488e-e122-4c05-97a4-b179fcfd46e1"},"vehicle_type_id":"4","last_reported":1737468490,"current_range_meters":38400,"station_id":"ce4bgip2rcd13ifvqbb0","pricing_plan_id":"cebpf4jnsgd1na2vs0mg"},{"bike_id":"64b66824-f064-4903-8358-094ea3275fbf","system_id":"levelo_inurba_marseille","lat":43.303,"lon":5.37683,"is_reserved":false,"is_disabled":false,"rental_uris":{"android":"levelo://app?vid=64b66824-f064-4903-8358-094ea3275fbf","ios":"levelo://app?vid=64b66824-f064-4903-8358-094ea3275fbf"},"vehicle_type_id":"4","last_reported":1737468490,"current_range_meters":38800,"station_id":"ce4bguh2rcd13ifvqcj0","pricing_plan_id":"cebpf4jnsgd1na2vs0mg"},{"bike_id":"1e18800a-d2e0-4756-9e2e-944ef60290aa","system_id":"levelo_inurba_marseille","lat":43.26559,"lon":5.39028,"is_reserved":false,"is_disabled":false,"rental_uris":{"android":"levelo://app?vid=1e18800a-d2e0-4756-9e2e-944ef60290aa","ios":"levelo://app?vid=1e18800a-d2e0-4756-9e2e-944ef60290aa"},"vehicle_type_id":"4","last_reported":1737468490,"current_range_meters":18000,"station_id":"ce4bhe12rcd13ifvqf30","pricing_plan_id":"cebpf4jnsgd1na2vs0mg"},{"bike_id":"1b1acf8d-54ac-4efe-96ff-66c901f3aba1","system_id":"levelo_inurba_marseille","lat":43.30537,"lon":5.36515,"is_reserved":false,"is_disabled":false,"rental_uris":{"android":"levelo://app?vid=1b1acf8d-54ac-4efe-96ff-66c901f3aba1","ios":"levelo://app?vid=1b1acf8d-54ac-4efe-96ff-66c901f3aba1"},"vehicle_type_id":"4","last_reported":1737468490,"current_range_meters":38800,"station_id":"ce4bgs12rcd13ifvqcag","pricing_plan_id":"cebpf4jnsgd1na2vs0mg"},{"bike_id":"8076bd92-0b86-4a50-9f27-950dd6b69f10","system_id":"levelo_inurba_marseille","lat":43.33591,"lon":5.41003,"is_reserved":false,"is_disabled":true,"rental_uris":{"android":"levelo://app?vid=8076bd92-0b86-4a50-9f27-950dd6b69f10","ios":"levelo://app?vid=8076bd92-0b86-4a50-9f27-950dd6b69f10"},"vehicle_type_id":"4","last_reported":1737468490,"current_range_meters":0,"station_id":"ce4bhqh2rcd13ifvqhmg","pricing_plan_id":"cebpf4jnsgd1na2vs0mg"},{"bike_id":"7e3448d7-e848-4498-ad6e-1e45efec6aab","system_id":"levelo_inurba_marseille","lat":43.30308,"lon":5.39205,"is_reserved":false,"is_disabled":false,"rental_uris":{"android":"levelo://app?vid=7e3448d7-e848-4498-ad6e-1e45efec6aab","ios":"levelo://app?vid=7e3448d7-e848-4498-ad6e-1e45efec6aab"},"vehicle_type_id":"4","last_reported":1737468490,"current_range_meters":37600,"station_id":"ce4bgkh2rcd13ifvqbk0","pricing_plan_id":"cebpf4jnsgd1na2vs0mg"},{"bike_id":"9ac7dbd1-20c8-4872-a68b-c41e9b2437a2","system_id":"levelo_inurba_marseille","lat":43.25825,"lon":5.39431,"is_reserved":false,"is_disabled":false,"rental_uris":{"android":"levelo://app?vid=9ac7dbd1-20c8-4872-a68b-c41e9b2437a2","ios":"levelo://app?vid=9ac7dbd1-20c8-4872-a68b-c41e9b2437a2"},"vehicle_type_id":"4","last_reported":1737468490,"current_range_meters":29600,"station_id":"ce4bhip2rcd13ifvqft0","pricing_plan_id":"cebpf4jnsgd1na2vs0mg"},{"bike_id":"cb33197b-e426-4634-8e46-bbf41a0bbbd8","system_id":"levelo_inurba_marseille","lat":43.31375,"lon":5.36703,"is_reserved":false,"is_disabled":false,"rental_uris":{"android":"levelo://app?vid=cb33197b-e426-4634-8e46-bbf41a0bbbd8","ios":"levelo://app?vid=cb33197b-e426-4634-8e46-bbf41a0bbbd8"},"vehicle_type_id":"4","last_reported":1737468490,"current_range_meters":39200,"station_id":"ce4bgr92rcd13ifvqc6g","pricing_plan_id":"cebpf4jnsgd1na2vs0mg"},{"bike_id":"6e1433da-ca9f-4090-b658-fb877339609a","system_id":"levelo_inurba_marseille","lat":43.27818,"lon":5.40732,"is_reserved":false,"is_disabled":false,"rental_uris":{"android":"levelo://app?vid=6e1433da-ca9f-4090-b658-fb877339609a","ios":"levelo://app?vid=6e1433da-ca9f-4090-b658-fb877339609a"},"vehicle_type_id":"4","last_reported":1737468490,"current_range_meters":37600,"station_id":"ce4bhnh2rcd13ifvqgtg","pricing_plan_id":"cebpf4jnsgd1na2vs0mg"},{"bike_id":"89a2217f-f95a-4949-8fe3-295bef65420d","system_id":"levelo_inurba_marseille","lat":43.24167,"lon":5.36396,"is_reserved":false,"is_disabled":false,"rental_uris":{"android":"levelo://app?vid=89a2217f-f95a-4949-8fe3-295bef65420d","ios":"levelo://app?vid=89a2217f-f95a-4949-8fe3-295bef65420d"},"vehicle_type_id":"4","last_reported":1737468490,"current_range_meters":17600,"station_id":"cpo36qri1sfpv3e86is0","pricing_plan_id":"cebpf4jnsgd1na2vs0mg"},{"bike_id":"af6d5d8d-79e6-4aa3-b664-b8e2ded40f3b","system_id":"levelo_inurba_marseille","lat":43.28484,"lon":5.35875,"is_reserved":false,"is_disabled":false,"rental_uris":{"android":"levelo://app?vid=af6d5d8d-79e6-4aa3-b664-b8e2ded40f3b","ios":"levelo://app?vid=af6d5d8d-79e6-4aa3-b664-b8e2ded40f3b"},"vehicle_type_id":"4","last_reported":1737468490,"current_range_meters":11600,"station_id":"ce4bhah2rcd13ifvqei0","pricing_plan_id":"cebpf4jnsgd1na2vs0mg"},{"bike_id":"9ae99da4-e73a-446f-8dbc-c6d40e4fe51d","system_id":"levelo_inurba_marseille","lat":43.25872,"lon":5.39897,"is_reserved":false,"is_disabled":false,"rental_uris":{"android":"levelo://app?vid=9ae99da4-e73a-446f-8dbc-c6d40e4fe51d","ios":"levelo://app?vid=9ae99da4-e73a-446f-8dbc-c6d40e4fe51d"},"vehicle_type_id":"4","last_reported":1737468490,"current_range_meters":24800,"station_id":"ce4bhl92rcd13ifvqghg","pricing_plan_id":"cebpf4jnsgd1na2vs0mg"},{"bike_id":"9ca4de9a-cfca-4937-bf4d-f360d7c8f7f5","system_id":"levelo_inurba_marseille","lat":43.30547,"lon":5.36536,"is_reserved":false,"is_disabled":false,"rental_uris":{"android":"levelo://app?vid=9ca4de9a-cfca-4937-bf4d-f360d7c8f7f5","ios":"levelo://app?vid=9ca4de9a-cfca-4937-bf4d-f360d7c8f7f5"},"vehicle_type_id":"4","last_reported":1737468490,"current_range_meters":38000,"station_id":"ce4bgs12rcd13ifvqcag","pricing_plan_id":"cebpf4jnsgd1na2vs0mg"},{"bike_id":"b55cbed2-2a41-48c6-8d5c-ee78621f6d83","system_id":"levelo_inurba_marseille","lat":43.3135,"lon":5.36716,"is_reserved":false,"is_disabled":false,"rental_uris":{"android":"levelo://app?vid=b55cbed2-2a41-48c6-8d5c-ee78621f6d83","ios":"levelo://app?vid=b55cbed2-2a41-48c6-8d5c-ee78621f6d83"},"vehicle_type_id":"4","last_reported":1737468490,"current_range_meters":16000,"station_id":"ce4bgr92rcd13ifvqc6g","pricing_plan_id":"cebpf4jnsgd1na2vs0mg"},{"bike_id":"bc3cb943-742e-40bf-bf7f-ac4cda7bd3c3","system_id":"levelo_inurba_marseille","lat":43.28971,"lon":5.3668,"is_reserved":false,"is_disabled":false,"rental_uris":{"android":"levelo://app?vid=bc3cb943-742e-40bf-bf7f-ac4cda7bd3c3","ios":"levelo://app?vid=bc3cb943-742e-40bf-bf7f-ac4cda7bd3c3"},"vehicle_type_id":"4","last_reported":1737468490,"current_range_meters":22800,"station_id":"","pricing_plan_id":"cebpf4jnsgd1na2vs0mg"},{"bike_id":"f0a60498-54f7-46be-829f-7c991cb3a69f","system_id":"levelo_inurba_marseille","lat":43.29967,"lon":5.38503,"is_reserved":false,"is_disabled":false,"rental_uris":{"android":"levelo://app?vid=f0a60498-54f7-46be-829f-7c991cb3a69f","ios":"levelo://app?vid=f0a60498-54f7-46be-829f-7c991cb3a69f"},"vehicle_type_id":"4","last_reported":1737468490,"current_range_meters":7200,"station_id":"ce4bgj92rcd13ifvqbd0","pricing_plan_id":"cebpf4jnsgd1na2vs0mg"},{"bike_id":"4891786e-abb0-40fb-8f67-e8889ab2c468","system_id":"levelo_inurba_marseille","lat":43.29791,"lon":5.39349,"is_reserved":false,"is_disabled":false,"rental_uris":{"android":"levelo://app?vid=4891786e-abb0-40fb-8f67-e8889ab2c468","ios":"levelo://app?vid=4891786e-abb0-40fb-8f67-e8889ab2c468"},"vehicle_type_id":"4","last_reported":1737468490,"current_range_meters":28400,"station_id":"chh1huq6cuj3fo74tm60","pricing_plan_id":"cebpf4jnsgd1na2vs0mg"},{"bike_id":"38fedafe-549e-4d5b-8abc-34e39e4aebe4","system_id":"levelo_inurba_marseille","lat":43.31104,"lon":5.37764,"is_reserved":false,"is_disabled":false,"rental_uris":{"android":"levelo://app?vid=38fedafe-549e-4d5b-8abc-34e39e4aebe4","ios":"levelo://app?vid=38fedafe-549e-4d5b-8abc-34e39e4aebe4"},"vehicle_type_id":"4","last_reported":1737468490,"current_range_meters":18800,"station_id":"ce4bgt92rcd13ifvqcg0","pricing_plan_id":"cebpf4jnsgd1na2vs0mg"},{"bike_id":"82b9fcb3-21e7-403c-b9c6-7c15b2e435d8","system_id":"levelo_inurba_marseille","lat":43.28166,"lon":5.4264,"is_reserved":false,"is_disabled":false,"rental_uris":{"android":"levelo://app?vid=82b9fcb3-21e7-403c-b9c6-7c15b2e435d8","ios":"levelo://app?vid=82b9fcb3-21e7-403c-b9c6-7c15b2e435d8"},"vehicle_type_id":"4","last_reported":1737468490,"current_range_meters":16800,"station_id":"ce4bhnh2rcd13ifvqgug","pricing_plan_id":"cebpf4jnsgd1na2vs0mg"},{"bike_id":"ca5ebe5c-d696-4d10-94b0-99fa9093db2a","system_id":"levelo_inurba_marseille","lat":43.32468,"lon":5.3656,"is_reserved":false,"is_disabled":false,"rental_uris":{"android":"levelo://app?vid=ca5ebe5c-d696-4d10-94b0-99fa9093db2a","ios":"levelo://app?vid=ca5ebe5c-d696-4d10-94b0-99fa9093db2a"},"vehicle_type_id":"4","last_reported":1737468490,"current_range_meters":25200,"station_id":"ce4bhs12rcd13ifvqhvg","pricing_plan_id":"cebpf4jnsgd1na2vs0mg"},{"bike_id":"bd214701-809b-453e-9cc2-7825ea5224b0","system_id":"levelo_inurba_marseille","lat":43.28481,"lon":5.38406,"is_reserved":false,"is_disabled":false,"rental_uris":{"android":"levelo://app?vid=bd214701-809b-453e-9cc2-7825ea5224b0","ios":"levelo://app?vid=bd214701-809b-453e-9cc2-7825ea5224b0"},"vehicle_type_id":"4","last_reported":1737468490,"current_range_meters":25600,"station_id":"ce4bh512rcd13ifvqe3g","pricing_plan_id":"cebpf4jnsgd1na2vs0mg"},{"bike_id":"b86a3e1d-3f83-41ea-bb2d-340a69ea0c88","system_id":"levelo_inurba_marseille","lat":43.31696,"lon":5.3773,"is_reserved":false,"is_disabled":false,"rental_uris":{"android":"levelo://app?vid=b86a3e1d-3f83-41ea-bb2d-340a69ea0c88","ios":"levelo://app?vid=b86a3e1d-3f83-41ea-bb2d-340a69ea0c88"},"vehicle_type_id":"4","last_reported":1737468490,"current_range_meters":27600,"station_id":"ce4bgth2rcd13ifvqch0","pricing_plan_id":"cebpf4jnsgd1na2vs0mg"},{"bike_id":"519b51a8-90c4-44c3-9c8b-ad9a743bab37","system_id":"levelo_inurba_marseille","lat":43.30531,"lon":5.38428,"is_reserved":false,"is_disabled":false,"rental_uris":{"android":"levelo://app?vid=519b51a8-90c4-44c3-9c8b-ad9a743bab37","ios":"levelo://app?vid=519b51a8-90c4-44c3-9c8b-ad9a743bab37"},"vehicle_type_id":"4","last_reported":1737468490,"current_range_meters":38800,"station_id":"ce4bgg92rcd13ifvqb30","pricing_plan_id":"cebpf4jnsgd1na2vs0mg"},{"bike_id":"378d9166-59a9-47ab-ad0b-6f11e8b99403","system_id":"levelo_inurba_marseille","lat":43.27499,"lon":5.4246,"is_reserved":false,"is_disabled":false,"rental_uris":{"android":"levelo://app?vid=378d9166-59a9-47ab-ad0b-6f11e8b99403","ios":"levelo://app?vid=378d9166-59a9-47ab-ad0b-6f11e8b99403"},"vehicle_type_id":"4","last_reported":1737468490,"current_range_meters":13600,"station_id":"ce4bhn92rcd13ifvqgrg","pricing_plan_id":"cebpf4jnsgd1na2vs0mg"},{"bike_id":"807ee5b2-e581-4231-9f5d-3fd3a9e2157d","system_id":"levelo_inurba_marseille","lat":43.29054,"lon":5.3591,"is_reserved":false,"is_disabled":false,"rental_uris":{"android":"levelo://app?vid=807ee5b2-e581-4231-9f5d-3fd3a9e2157d","ios":"levelo://app?vid=807ee5b2-e581-4231-9f5d-3fd3a9e2157d"},"vehicle_type_id":"4","last_reported":1737468490,"current_range_meters":14400,"station_id":"ce4bha92rcd13ifvqeg0","pricing_plan_id":"cebpf4jnsgd1na2vs0mg"},{"bike_id":"9f7820e2-2bd7-4996-991f-4d612e54ba00","system_id":"levelo_inurba_marseille","lat":43.27982,"lon":5.38721,"is_reserved":false,"is_disabled":false,"rental_uris":{"android":"levelo://app?vid=9f7820e2-2bd7-4996-991f-4d612e54ba00","ios":"levelo://app?vid=9f7820e2-2bd7-4996-991f-4d612e54ba00"},"vehicle_type_id":"4","last_reported":1737468490,"current_range_meters":25600,"station_id":"ce4bhg12rcd13ifvqf80","pricing_plan_id":"cebpf4jnsgd1na2vs0mg"},{"bike_id":"49e863e7-823e-4e9b-9150-30a232f530d5","system_id":"levelo_inurba_marseille","lat":43.28471,"lon":5.35887,"is_reserved":false,"is_disabled":false,"rental_uris":{"android":"levelo://app?vid=49e863e7-823e-4e9b-9150-30a232f530d5","ios":"levelo://app?vid=49e863e7-823e-4e9b-9150-30a232f530d5"},"vehicle_type_id":"4","last_reported":1737468490,"current_range_meters":28000,"station_id":"ce4bhah2rcd13ifvqei0","pricing_plan_id":"cebpf4jnsgd1na2vs0mg"},{"bike_id":"8e37d5a1-5a26-42a5-8fbe-c99733a808dd","system_id":"levelo_inurba_marseille","lat":43.26078,"lon":5.39399,"is_reserved":false,"is_disabled":false,"rental_uris":{"android":"levelo://app?vid=8e37d5a1-5a26-42a5-8fbe-c99733a808dd","ios":"levelo://app?vid=8e37d5a1-5a26-42a5-8fbe-c99733a808dd"},"vehicle_type_id":"4","last_reported":1737468490,"current_range_meters":39200,"station_id":"ce4bhh92rcd13ifvqfj0","pricing_plan_id":"cebpf4jnsgd1na2vs0mg"},{"bike_id":"8f1bbc58-26e8-49fc-bb78-9690f6d99ccb","system_id":"levelo_inurba_marseille","lat":43.29103,"lon":5.38139,"is_reserved":false,"is_disabled":false,"rental_uris":{"android":"levelo://app?vid=8f1bbc58-26e8-49fc-bb78-9690f6d99ccb","ios":"levelo://app?vid=8f1bbc58-26e8-49fc-bb78-9690f6d99ccb"},"vehicle_type_id":"4","last_reported":1737468490,"current_range_meters":39200,"station_id":"ce4bh512rcd13ifvqe2g","pricing_plan_id":"cebpf4jnsgd1na2vs0mg"},{"bike_id":"ab52a76e-dbde-44a0-a10d-cff218511304","system_id":"levelo_inurba_marseille","lat":43.29639,"lon":5.40582,"is_reserved":false,"is_disabled":false,"rental_uris":{"android":"levelo://app?vid=ab52a76e-dbde-44a0-a10d-cff218511304","ios":"levelo://app?vid=ab52a76e-dbde-44a0-a10d-cff218511304"},"vehicle_type_id":"4","last_reported":1737468490,"current_range_meters":38400,"station_id":"ce4bh0h2rcd13ifvqd60","pricing_plan_id":"cebpf4jnsgd1na2vs0mg"},{"bike_id":"22c3b3f3-6835-405e-9c28-a86f29f70685","system_id":"levelo_inurba_marseille","lat":43.250053,"lon":5.389401,"is_reserved":false,"is_disabled":false,"rental_uris":{"android":"levelo://app?vid=22c3b3f3-6835-405e-9c28-a86f29f70685","ios":"levelo://app?vid=22c3b3f3-6835-405e-9c28-a86f29f70685"},"vehicle_type_id":"4","last_reported":1737468490,"current_range_meters":22000,"station_id":"ce4bhgp2rcd13ifvqfd0","pricing_plan_id":"cebpf4jnsgd1na2vs0mg"},{"bike_id":"b61d20cd-c79c-4b41-8496-a3dca87a21d1","system_id":"levelo_inurba_marseille","lat":43.26496,"lon":5.39546,"is_reserved":false,"is_disabled":false,"rental_uris":{"android":"levelo://app?vid=b61d20cd-c79c-4b41-8496-a3dca87a21d1","ios":"levelo://app?vid=b61d20cd-c79c-4b41-8496-a3dca87a21d1"},"vehicle_type_id":"4","last_reported":1737468490,"current_range_meters":39200,"station_id":"ce4bhi12rcd13ifvqfq0","pricing_plan_id":"cebpf4jnsgd1na2vs0mg"},{"bike_id":"64dd059b-ecf7-48ee-8d07-a03165f684e7","system_id":"levelo_inurba_marseille","lat":43.29923,"lon":5.37489,"is_reserved":false,"is_disabled":false,"rental_uris":{"android":"levelo://app?vid=64dd059b-ecf7-48ee-8d07-a03165f684e7","ios":"levelo://app?vid=64dd059b-ecf7-48ee-8d07-a03165f684e7"},"vehicle_type_id":"4","last_reported":1737468490,"current_range_meters":39200,"station_id":"ce4bgjh2rcd13ifvqbg0","pricing_plan_id":"cebpf4jnsgd1na2vs0mg"},{"bike_id":"95672351-e031-46fd-9ace-38eaf7cf9d4b","system_id":"levelo_inurba_marseille","lat":43.31073,"lon":5.38359,"is_reserved":false,"is_disabled":false,"rental_uris":{"android":"levelo://app?vid=95672351-e031-46fd-9ace-38eaf7cf9d4b","ios":"levelo://app?vid=95672351-e031-46fd-9ace-38eaf7cf9d4b"},"vehicle_type_id":"4","last_reported":1737468490,"current_range_meters":16400,"station_id":"ce4bgv92rcd13ifvqcr0","pricing_plan_id":"cebpf4jnsgd1na2vs0mg"},{"bike_id":"9504b7e0-2f20-49ea-814e-e380f0d8ec79","system_id":"levelo_inurba_marseille","lat":43.321035,"lon":5.367907,"is_reserved":false,"is_disabled":false,"rental_uris":{"android":"levelo://app?vid=9504b7e0-2f20-49ea-814e-e380f0d8ec79","ios":"levelo://app?vid=9504b7e0-2f20-49ea-814e-e380f0d8ec79"},"vehicle_type_id":"4","last_reported":1737468490,"current_range_meters":38000,"station_id":"ce4bhrh2rcd13ifvqhug","pricing_plan_id":"cebpf4jnsgd1na2vs0mg"},{"bike_id":"26cd6232-7439-487f-ad71-3c837845e907","system_id":"levelo_inurba_marseille","lat":43.26565,"lon":5.39007,"is_reserved":false,"is_disabled":false,"rental_uris":{"android":"levelo://app?vid=26cd6232-7439-487f-ad71-3c837845e907","ios":"levelo://app?vid=26cd6232-7439-487f-ad71-3c837845e907"},"vehicle_type_id":"4","last_reported":1737468490,"current_range_meters":36000,"station_id":"ce4bhe12rcd13ifvqf30","pricing_plan_id":"cebpf4jnsgd1na2vs0mg"},{"bike_id":"57fdbf3d-1599-4d8b-877d-fd8c510341a7","system_id":"levelo_inurba_marseille","lat":43.28355,"lon":5.38099,"is_reserved":false,"is_disabled":false,"rental_uris":{"android":"levelo://app?vid=57fdbf3d-1599-4d8b-877d-fd8c510341a7","ios":"levelo://app?vid=57fdbf3d-1599-4d8b-877d-fd8c510341a7"},"vehicle_type_id":"4","last_reported":1737468490,"current_range_meters":39200,"station_id":"ce4bh412rcd13ifvqdr0","pricing_plan_id":"cebpf4jnsgd1na2vs0mg"},{"bike_id":"2e391245-990a-489f-b7cc-387a1c7f1479","system_id":"levelo_inurba_marseille","lat":43.30533,"lon":5.36696,"is_reserved":false,"is_disabled":false,"rental_uris":{"android":"levelo://app?vid=2e391245-990a-489f-b7cc-387a1c7f1479","ios":"levelo://app?vid=2e391245-990a-489f-b7cc-387a1c7f1479"},"vehicle_type_id":"4","last_reported":1737468490,"current_range_meters":26000,"station_id":"ce4bgrp2rcd13ifvqc9g","pricing_plan_id":"cebpf4jnsgd1na2vs0mg"},{"bike_id":"cf70a61e-0c89-4f0f-be61-eb685b9540e4","system_id":"levelo_inurba_marseille","lat":43.3107,"lon":5.38357,"is_reserved":false,"is_disabled":false,"rental_uris":{"android":"levelo://app?vid=cf70a61e-0c89-4f0f-be61-eb685b9540e4","ios":"levelo://app?vid=cf70a61e-0c89-4f0f-be61-eb685b9540e4"},"vehicle_type_id":"4","last_reported":1737468490,"current_range_meters":6400,"station_id":"ce4bgv92rcd13ifvqcr0","pricing_plan_id":"cebpf4jnsgd1na2vs0mg"},{"bike_id":"732f6a5f-7f4f-46d6-a1d7-0e5df1ebf234","system_id":"levelo_inurba_marseille","lat":43.27076,"lon":5.42279,"is_reserved":false,"is_disabled":false,"rental_uris":{"android":"levelo://app?vid=732f6a5f-7f4f-46d6-a1d7-0e5df1ebf234","ios":"levelo://app?vid=732f6a5f-7f4f-46d6-a1d7-0e5df1ebf234"},"vehicle_type_id":"4","last_reported":1737468490,"current_range_meters":16800,"station_id":"ce4bhk92rcd13ifvqgb0","pricing_plan_id":"cebpf4jnsgd1na2vs0mg"},{"bike_id":"13eb1080-0165-43df-ba68-3da74a387126","system_id":"levelo_inurba_marseille","lat":43.31247,"lon":5.36866,"is_reserved":false,"is_disabled":false,"rental_uris":{"android":"levelo://app?vid=13eb1080-0165-43df-ba68-3da74a387126","ios":"levelo://app?vid=13eb1080-0165-43df-ba68-3da74a387126"},"vehicle_type_id":"4","last_reported":1737468490,"current_range_meters":38800,"station_id":"ce4bgl92rcd13ifvqbq0","pricing_plan_id":"cebpf4jnsgd1na2vs0mg"},{"bike_id":"6afeeefa-11c0-4f74-82c2-cb592a43a0b2","system_id":"levelo_inurba_marseille","lat":43.28145,"lon":5.42623,"is_reserved":false,"is_disabled":false,"rental_uris":{"android":"levelo://app?vid=6afeeefa-11c0-4f74-82c2-cb592a43a0b2","ios":"levelo://app?vid=6afeeefa-11c0-4f74-82c2-cb592a43a0b2"},"vehicle_type_id":"4","last_reported":1737468490,"current_range_meters":26000,"station_id":"ce4bhnh2rcd13ifvqgug","pricing_plan_id":"cebpf4jnsgd1na2vs0mg"},{"bike_id":"55e9e33f-65d7-4114-a3b6-94916cdab4b2","system_id":"levelo_inurba_marseille","lat":43.264953,"lon":5.395754,"is_reserved":false,"is_disabled":false,"rental_uris":{"android":"levelo://app?vid=55e9e33f-65d7-4114-a3b6-94916cdab4b2","ios":"levelo://app?vid=55e9e33f-65d7-4114-a3b6-94916cdab4b2"},"vehicle_type_id":"4","last_reported":1737468490,"current_range_meters":38000,"station_id":"ce4bhi12rcd13ifvqfq0","pricing_plan_id":"cebpf4jnsgd1na2vs0mg"},{"bike_id":"6fc6bbb7-6328-4049-bab7-e7f46823cfcd","system_id":"levelo_inurba_marseille","lat":43.26565,"lon":5.39,"is_reserved":false,"is_disabled":false,"rental_uris":{"android":"levelo://app?vid=6fc6bbb7-6328-4049-bab7-e7f46823cfcd","ios":"levelo://app?vid=6fc6bbb7-6328-4049-bab7-e7f46823cfcd"},"vehicle_type_id":"4","last_reported":1737468490,"current_range_meters":30000,"station_id":"ce4bhe12rcd13ifvqf30","pricing_plan_id":"cebpf4jnsgd1na2vs0mg"},{"bike_id":"6e32a172-90e4-4d86-8f8a-689baae2f4e9","system_id":"levelo_inurba_marseille","lat":43.24407,"lon":5.37041,"is_reserved":false,"is_disabled":false,"rental_uris":{"android":"levelo://app?vid=6e32a172-90e4-4d86-8f8a-689baae2f4e9","ios":"levelo://app?vid=6e32a172-90e4-4d86-8f8a-689baae2f4e9"},"vehicle_type_id":"4","last_reported":1737468490,"current_range_meters":38400,"station_id":"ce4bhhh2rcd13ifvqfk0","pricing_plan_id":"cebpf4jnsgd1na2vs0mg"},{"bike_id":"7aa9710a-b7e3-4890-81ca-654444a2204c","system_id":"levelo_inurba_marseille","lat":43.25933,"lon":5.4088,"is_reserved":false,"is_disabled":false,"rental_uris":{"android":"levelo://app?vid=7aa9710a-b7e3-4890-81ca-654444a2204c","ios":"levelo://app?vid=7aa9710a-b7e3-4890-81ca-654444a2204c"},"vehicle_type_id":"4","last_reported":1737468490,"current_range_meters":16400,"station_id":"ce4bhm92rcd13ifvqglg","pricing_plan_id":"cebpf4jnsgd1na2vs0mg"},{"bike_id":"2a898f38-49df-467f-a8b9-fb31af979ea1","system_id":"levelo_inurba_marseille","lat":43.28673,"lon":5.38656,"is_reserved":false,"is_disabled":false,"rental_uris":{"android":"levelo://app?vid=2a898f38-49df-467f-a8b9-fb31af979ea1","ios":"levelo://app?vid=2a898f38-49df-467f-a8b9-fb31af979ea1"},"vehicle_type_id":"4","last_reported":1737468490,"current_range_meters":18000,"station_id":"ce4bh492rcd13ifvqdug","pricing_plan_id":"cebpf4jnsgd1na2vs0mg"},{"bike_id":"dc1e0543-d596-4cf7-9ce5-dd553c749807","system_id":"levelo_inurba_marseille","lat":43.30891,"lon":5.37181,"is_reserved":false,"is_disabled":false,"rental_uris":{"android":"levelo://app?vid=dc1e0543-d596-4cf7-9ce5-dd553c749807","ios":"levelo://app?vid=dc1e0543-d596-4cf7-9ce5-dd553c749807"},"vehicle_type_id":"4","last_reported":1737468490,"current_range_meters":27200,"station_id":"ce4bguh2rcd13ifvqckg","pricing_plan_id":"cebpf4jnsgd1na2vs0mg"},{"bike_id":"14bf62af-c950-435b-82dd-0bca67231add","system_id":"levelo_inurba_marseille","lat":43.25737,"lon":5.41117,"is_reserved":false,"is_disabled":false,"rental_uris":{"android":"levelo://app?vid=14bf62af-c950-435b-82dd-0bca67231add","ios":"levelo://app?vid=14bf62af-c950-435b-82dd-0bca67231add"},"vehicle_type_id":"4","last_reported":1737468490,"current_range_meters":38800,"station_id":"ce4bhkp2rcd13ifvqgd0","pricing_plan_id":"cebpf4jnsgd1na2vs0mg"},{"bike_id":"bd1aad8f-af1d-453a-adbb-9539bd875d5e","system_id":"levelo_inurba_marseille","lat":43.25726,"lon":5.41098,"is_reserved":false,"is_disabled":false,"rental_uris":{"android":"levelo://app?vid=bd1aad8f-af1d-453a-adbb-9539bd875d5e","ios":"levelo://app?vid=bd1aad8f-af1d-453a-adbb-9539bd875d5e"},"vehicle_type_id":"4","last_reported":1737468490,"current_range_meters":34800,"station_id":"ce4bhkp2rcd13ifvqgd0","pricing_plan_id":"cebpf4jnsgd1na2vs0mg"},{"bike_id":"bb2aa27c-d314-433f-a134-98756fdc47bc","system_id":"levelo_inurba_marseille","lat":43.31369,"lon":5.36747,"is_reserved":false,"is_disabled":false,"rental_uris":{"android":"levelo://app?vid=bb2aa27c-d314-433f-a134-98756fdc47bc","ios":"levelo://app?vid=bb2aa27c-d314-433f-a134-98756fdc47bc"},"vehicle_type_id":"4","last_reported":1737468490,"current_range_meters":39200,"station_id":"ce4bgr92rcd13ifvqc6g","pricing_plan_id":"cebpf4jnsgd1na2vs0mg"},{"bike_id":"ee7c1eee-ee5f-416d-a598-75bf3d5959cb","system_id":"levelo_inurba_marseille","lat":43.30889,"lon":5.39661,"is_reserved":false,"is_disabled":false,"rental_uris":{"android":"levelo://app?vid=ee7c1eee-ee5f-416d-a598-75bf3d5959cb","ios":"levelo://app?vid=ee7c1eee-ee5f-416d-a598-75bf3d5959cb"},"vehicle_type_id":"4","last_reported":1737468490,"current_range_meters":21600,"station_id":"ce4bh012rcd13ifvqcv0","pricing_plan_id":"cebpf4jnsgd1na2vs0mg"},{"bike_id":"6eecfa42-288a-44e5-896d-b70fc5bb4004","system_id":"levelo_inurba_marseille","lat":43.30335,"lon":5.40434,"is_reserved":false,"is_disabled":false,"rental_uris":{"android":"levelo://app?vid=6eecfa42-288a-44e5-896d-b70fc5bb4004","ios":"levelo://app?vid=6eecfa42-288a-44e5-896d-b70fc5bb4004"},"vehicle_type_id":"4","last_reported":1737468490,"current_range_meters":30800,"station_id":"ce4bh012rcd13ifvqd10","pricing_plan_id":"cebpf4jnsgd1na2vs0mg"},{"bike_id":"a0dcfdba-dfdf-45c7-9937-5177471c6076","system_id":"levelo_inurba_marseille","lat":43.30155,"lon":5.38093,"is_reserved":false,"is_disabled":false,"rental_uris":{"android":"levelo://app?vid=a0dcfdba-dfdf-45c7-9937-5177471c6076","ios":"levelo://app?vid=a0dcfdba-dfdf-45c7-9937-5177471c6076"},"vehicle_type_id":"4","last_reported":1737468490,"current_range_meters":12400,"station_id":"ce4bgjp2rcd13ifvqbh0","pricing_plan_id":"cebpf4jnsgd1na2vs0mg"},{"bike_id":"bbea1ffa-6b57-4f80-80af-ae98c5144da8","system_id":"levelo_inurba_marseille","lat":43.31885,"lon":5.40746,"is_reserved":false,"is_disabled":false,"rental_uris":{"android":"levelo://app?vid=bbea1ffa-6b57-4f80-80af-ae98c5144da8","ios":"levelo://app?vid=bbea1ffa-6b57-4f80-80af-ae98c5144da8"},"vehicle_type_id":"4","last_reported":1737468490,"current_range_meters":37600,"station_id":"ce4bhq12rcd13ifvqhig","pricing_plan_id":"cebpf4jnsgd1na2vs0mg"},{"bike_id":"7c4b9d70-e01e-49f4-bcc2-da404f462a85","system_id":"levelo_inurba_marseille","lat":43.29313,"lon":5.3717,"is_reserved":false,"is_disabled":false,"rental_uris":{"android":"levelo://app?vid=7c4b9d70-e01e-49f4-bcc2-da404f462a85","ios":"levelo://app?vid=7c4b9d70-e01e-49f4-bcc2-da404f462a85"},"vehicle_type_id":"4","last_reported":1737468490,"current_range_meters":38800,"station_id":"ce4bgh92rcd13ifvqb40","pricing_plan_id":"cebpf4jnsgd1na2vs0mg"},{"bike_id":"1947b9fe-210e-4950-b25b-63dfddaf200f","system_id":"levelo_inurba_marseille","lat":43.32043,"lon":5.41545,"is_reserved":false,"is_disabled":false,"rental_uris":{"android":"levelo://app?vid=1947b9fe-210e-4950-b25b-63dfddaf200f","ios":"levelo://app?vid=1947b9fe-210e-4950-b25b-63dfddaf200f"},"vehicle_type_id":"4","last_reported":1737468490,"current_range_meters":36400,"station_id":"ce4bhq92rcd13ifvqhkg","pricing_plan_id":"cebpf4jnsgd1na2vs0mg"},{"bike_id":"1a3b29b3-17e8-4775-8d86-74e3b8c314ae","system_id":"levelo_inurba_marseille","lat":43.30557,"lon":5.36703,"is_reserved":false,"is_disabled":false,"rental_uris":{"android":"levelo://app?vid=1a3b29b3-17e8-4775-8d86-74e3b8c314ae","ios":"levelo://app?vid=1a3b29b3-17e8-4775-8d86-74e3b8c314ae"},"vehicle_type_id":"4","last_reported":1737468490,"current_range_meters":38800,"station_id":"ce4bgrp2rcd13ifvqc9g","pricing_plan_id":"cebpf4jnsgd1na2vs0mg"},{"bike_id":"ca74e526-580c-493e-b181-17fe0bc8eae8","system_id":"levelo_inurba_marseille","lat":43.25931,"lon":5.40895,"is_reserved":false,"is_disabled":false,"rental_uris":{"android":"levelo://app?vid=ca74e526-580c-493e-b181-17fe0bc8eae8","ios":"levelo://app?vid=ca74e526-580c-493e-b181-17fe0bc8eae8"},"vehicle_type_id":"4","last_reported":1737468490,"current_range_meters":38800,"station_id":"ce4bhm92rcd13ifvqglg","pricing_plan_id":"cebpf4jnsgd1na2vs0mg"},{"bike_id":"ce348ecb-e6da-4256-ae38-a3cca0ccf065","system_id":"levelo_inurba_marseille","lat":43.30522,"lon":5.36715,"is_reserved":false,"is_disabled":false,"rental_uris":{"android":"levelo://app?vid=ce348ecb-e6da-4256-ae38-a3cca0ccf065","ios":"levelo://app?vid=ce348ecb-e6da-4256-ae38-a3cca0ccf065"},"vehicle_type_id":"4","last_reported":1737468490,"current_range_meters":38800,"station_id":"ce4bgrp2rcd13ifvqc9g","pricing_plan_id":"cebpf4jnsgd1na2vs0mg"},{"bike_id":"6cb81402-af76-49ae-949f-f7a641143894","system_id":"levelo_inurba_marseille","lat":43.28657,"lon":5.35105,"is_reserved":false,"is_disabled":false,"rental_uris":{"android":"levelo://app?vid=6cb81402-af76-49ae-949f-f7a641143894","ios":"levelo://app?vid=6cb81402-af76-49ae-949f-f7a641143894"},"vehicle_type_id":"4","last_reported":1737468490,"current_range_meters":32800,"station_id":"ce4bhch2rcd13ifvqeug","pricing_plan_id":"cebpf4jnsgd1na2vs0mg"},{"bike_id":"85d7e38a-f6fb-4ea2-af92-6bde8d3590e9","system_id":"levelo_inurba_marseille","lat":43.27794,"lon":5.40696,"is_reserved":false,"is_disabled":false,"rental_uris":{"android":"levelo://app?vid=85d7e38a-f6fb-4ea2-af92-6bde8d3590e9","ios":"levelo://app?vid=85d7e38a-f6fb-4ea2-af92-6bde8d3590e9"},"vehicle_type_id":"4","last_reported":1737468490,"current_range_meters":26800,"station_id":"ce4bhnh2rcd13ifvqgtg","pricing_plan_id":"cebpf4jnsgd1na2vs0mg"},{"bike_id":"84a7d486-83f1-44a8-8bae-fd056d6abbcd","system_id":"levelo_inurba_marseille","lat":43.31287,"lon":5.40162,"is_reserved":false,"is_disabled":false,"rental_uris":{"android":"levelo://app?vid=84a7d486-83f1-44a8-8bae-fd056d6abbcd","ios":"levelo://app?vid=84a7d486-83f1-44a8-8bae-fd056d6abbcd"},"vehicle_type_id":"4","last_reported":1737468490,"current_range_meters":22000,"station_id":"ce4bh092rcd13ifvqd30","pricing_plan_id":"cebpf4jnsgd1na2vs0mg"},{"bike_id":"40e5a64d-65b5-4754-b8f6-3564af0d8c58","system_id":"levelo_inurba_marseille","lat":43.2314,"lon":5.43731,"is_reserved":false,"is_disabled":false,"rental_uris":{"android":"levelo://app?vid=40e5a64d-65b5-4754-b8f6-3564af0d8c58","ios":"levelo://app?vid=40e5a64d-65b5-4754-b8f6-3564af0d8c58"},"vehicle_type_id":"4","last_reported":1737468490,"current_range_meters":5600,"station_id":"ce4bhmp2rcd13ifvqgog","pricing_plan_id":"cebpf4jnsgd1na2vs0mg"},{"bike_id":"cf536bc6-bc1a-4165-a4ad-01a9dd1076de","system_id":"levelo_inurba_marseille","lat":43.28424,"lon":5.3498,"is_reserved":false,"is_disabled":false,"rental_uris":{"android":"levelo://app?vid=cf536bc6-bc1a-4165-a4ad-01a9dd1076de","ios":"levelo://app?vid=cf536bc6-bc1a-4165-a4ad-01a9dd1076de"},"vehicle_type_id":"4","last_reported":1737468490,"current_range_meters":9600,"station_id":"ce4bhbh2rcd13ifvqepg","pricing_plan_id":"cebpf4jnsgd1na2vs0mg"},{"bike_id":"a223c467-4497-477e-9ef5-4a13b06430b5","system_id":"levelo_inurba_marseille","lat":43.26089,"lon":5.3977,"is_reserved":false,"is_disabled":false,"rental_uris":{"android":"levelo://app?vid=a223c467-4497-477e-9ef5-4a13b06430b5","ios":"levelo://app?vid=a223c467-4497-477e-9ef5-4a13b06430b5"},"vehicle_type_id":"4","last_reported":1737468490,"current_range_meters":36800,"station_id":"","pricing_plan_id":"cebpf4jnsgd1na2vs0mg"},{"bike_id":"23379a95-72b4-449c-abbd-5871cdaaa4bd","system_id":"levelo_inurba_marseille","lat":43.30523,"lon":5.36711,"is_reserved":false,"is_disabled":false,"rental_uris":{"android":"levelo://app?vid=23379a95-72b4-449c-abbd-5871cdaaa4bd","ios":"levelo://app?vid=23379a95-72b4-449c-abbd-5871cdaaa4bd"},"vehicle_type_id":"4","last_reported":1737468490,"current_range_meters":36800,"station_id":"ce4bgrp2rcd13ifvqc9g","pricing_plan_id":"cebpf4jnsgd1na2vs0mg"},{"bike_id":"d44356ee-1627-49cf-9791-ae478b9a3994","system_id":"levelo_inurba_marseille","lat":43.28744,"lon":5.39974,"is_reserved":false,"is_disabled":false,"rental_uris":{"android":"levelo://app?vid=d44356ee-1627-49cf-9791-ae478b9a3994","ios":"levelo://app?vid=d44356ee-1627-49cf-9791-ae478b9a3994"},"vehicle_type_id":"4","last_reported":1737468490,"current_range_meters":2800,"station_id":"ce4bho92rcd13ifvqh3g","pricing_plan_id":"cebpf4jnsgd1na2vs0mg"},{"bike_id":"009e4e21-eaff-4df3-a6cd-96d6c5c81fda","system_id":"levelo_inurba_marseille","lat":43.30565,"lon":5.36538,"is_reserved":false,"is_disabled":false,"rental_uris":{"android":"levelo://app?vid=009e4e21-eaff-4df3-a6cd-96d6c5c81fda","ios":"levelo://app?vid=009e4e21-eaff-4df3-a6cd-96d6c5c81fda"},"vehicle_type_id":"4","last_reported":1737468490,"current_range_meters":23200,"station_id":"ce4bgs12rcd13ifvqcag","pricing_plan_id":"cebpf4jnsgd1na2vs0mg"},{"bike_id":"9ad55cd1-1aeb-49fe-a88b-1c698b2d62c5","system_id":"levelo_inurba_marseille","lat":43.3092,"lon":5.4014,"is_reserved":false,"is_disabled":false,"rental_uris":{"android":"levelo://app?vid=9ad55cd1-1aeb-49fe-a88b-1c698b2d62c5","ios":"levelo://app?vid=9ad55cd1-1aeb-49fe-a88b-1c698b2d62c5"},"vehicle_type_id":"4","last_reported":1737468490,"current_range_meters":10800,"station_id":"ce4bgvp2rcd13ifvqct0","pricing_plan_id":"cebpf4jnsgd1na2vs0mg"},{"bike_id":"a478c8e4-70f7-4330-80af-a80f08fe66b3","system_id":"levelo_inurba_marseille","lat":43.25735,"lon":5.41145,"is_reserved":false,"is_disabled":false,"rental_uris":{"android":"levelo://app?vid=a478c8e4-70f7-4330-80af-a80f08fe66b3","ios":"levelo://app?vid=a478c8e4-70f7-4330-80af-a80f08fe66b3"},"vehicle_type_id":"4","last_reported":1737468490,"current_range_meters":24400,"station_id":"ce4bhkp2rcd13ifvqgd0","pricing_plan_id":"cebpf4jnsgd1na2vs0mg"},{"bike_id":"9ea35a92-1564-493c-991c-f92a347b776b","system_id":"levelo_inurba_marseille","lat":43.30556,"lon":5.36531,"is_reserved":false,"is_disabled":false,"rental_uris":{"android":"levelo://app?vid=9ea35a92-1564-493c-991c-f92a347b776b","ios":"levelo://app?vid=9ea35a92-1564-493c-991c-f92a347b776b"},"vehicle_type_id":"4","last_reported":1737468490,"current_range_meters":24800,"station_id":"ce4bgs12rcd13ifvqcag","pricing_plan_id":"cebpf4jnsgd1na2vs0mg"},{"bike_id":"e70ef129-9269-4977-88ab-de087f1ca58a","system_id":"levelo_inurba_marseille","lat":43.28468,"lon":5.35889,"is_reserved":false,"is_disabled":false,"rental_uris":{"android":"levelo://app?vid=e70ef129-9269-4977-88ab-de087f1ca58a","ios":"levelo://app?vid=e70ef129-9269-4977-88ab-de087f1ca58a"},"vehicle_type_id":"4","last_reported":1737468490,"current_range_meters":9600,"station_id":"ce4bhah2rcd13ifvqei0","pricing_plan_id":"cebpf4jnsgd1na2vs0mg"},{"bike_id":"308cc682-94fd-427f-a7f4-c7ad2e8f89c9","system_id":"levelo_inurba_marseille","lat":43.28443,"lon":5.35891,"is_reserved":false,"is_disabled":false,"rental_uris":{"android":"levelo://app?vid=308cc682-94fd-427f-a7f4-c7ad2e8f89c9","ios":"levelo://app?vid=308cc682-94fd-427f-a7f4-c7ad2e8f89c9"},"vehicle_type_id":"4","last_reported":1737468490,"current_range_meters":30400,"station_id":"ce4bhah2rcd13ifvqei0","pricing_plan_id":"cebpf4jnsgd1na2vs0mg"},{"bike_id":"713c2070-5fbc-40f7-a36f-126465d4c68d","system_id":"levelo_inurba_marseille","lat":43.29766,"lon":5.3709,"is_reserved":false,"is_disabled":false,"rental_uris":{"android":"levelo://app?vid=713c2070-5fbc-40f7-a36f-126465d4c68d","ios":"levelo://app?vid=713c2070-5fbc-40f7-a36f-126465d4c68d"},"vehicle_type_id":"4","last_reported":1737468490,"current_range_meters":4800,"station_id":"ce4bgop2rcd13ifvqc1g","pricing_plan_id":"cebpf4jnsgd1na2vs0mg"},{"bike_id":"10d27098-69e9-48b1-9d26-115b0af1cc68","system_id":"levelo_inurba_marseille","lat":43.30545,"lon":5.36529,"is_reserved":false,"is_disabled":false,"rental_uris":{"android":"levelo://app?vid=10d27098-69e9-48b1-9d26-115b0af1cc68","ios":"levelo://app?vid=10d27098-69e9-48b1-9d26-115b0af1cc68"},"vehicle_type_id":"4","last_reported":1737468490,"current_range_meters":31200,"station_id":"ce4bgs12rcd13ifvqcag","pricing_plan_id":"cebpf4jnsgd1na2vs0mg"},{"bike_id":"0328f7ed-1f9d-4bf4-a61b-d78fae39d26e","system_id":"levelo_inurba_marseille","lat":43.2909,"lon":5.38145,"is_reserved":false,"is_disabled":false,"rental_uris":{"android":"levelo://app?vid=0328f7ed-1f9d-4bf4-a61b-d78fae39d26e","ios":"levelo://app?vid=0328f7ed-1f9d-4bf4-a61b-d78fae39d26e"},"vehicle_type_id":"4","last_reported":1737468490,"current_range_meters":3600,"station_id":"ce4bh512rcd13ifvqe2g","pricing_plan_id":"cebpf4jnsgd1na2vs0mg"},{"bike_id":"4e36db74-06bf-477a-bee9-51805eb8c5d1","system_id":"levelo_inurba_marseille","lat":43.2767,"lon":5.38904,"is_reserved":false,"is_disabled":false,"rental_uris":{"android":"levelo://app?vid=4e36db74-06bf-477a-bee9-51805eb8c5d1","ios":"levelo://app?vid=4e36db74-06bf-477a-bee9-51805eb8c5d1"},"vehicle_type_id":"4","last_reported":1737468490,"current_range_meters":31200,"station_id":"ce4bhi12rcd13ifvqfo0","pricing_plan_id":"cebpf4jnsgd1na2vs0mg"},{"bike_id":"a4fbf9ce-9fe7-476c-b76c-ebb20789a665","system_id":"levelo_inurba_marseille","lat":43.29599,"lon":5.38106,"is_reserved":false,"is_disabled":false,"rental_uris":{"android":"levelo://app?vid=a4fbf9ce-9fe7-476c-b76c-ebb20789a665","ios":"levelo://app?vid=a4fbf9ce-9fe7-476c-b76c-ebb20789a665"},"vehicle_type_id":"4","last_reported":1737468490,"current_range_meters":38000,"station_id":"ce4bgl12rcd13ifvqbo0","pricing_plan_id":"cebpf4jnsgd1na2vs0mg"},{"bike_id":"0fdc2558-c265-4c0f-b88d-b053909c0353","system_id":"levelo_inurba_marseille","lat":43.2466,"lon":5.3889,"is_reserved":false,"is_disabled":false,"rental_uris":{"android":"levelo://app?vid=0fdc2558-c265-4c0f-b88d-b053909c0353","ios":"levelo://app?vid=0fdc2558-c265-4c0f-b88d-b053909c0353"},"vehicle_type_id":"4","last_reported":1737468490,"current_range_meters":28800,"station_id":"ce4bhg12rcd13ifvqf60","pricing_plan_id":"cebpf4jnsgd1na2vs0mg"},{"bike_id":"3965fbee-4ca6-470c-8db4-3c059617bf7d","system_id":"levelo_inurba_marseille","lat":43.29801,"lon":5.38093,"is_reserved":false,"is_disabled":false,"rental_uris":{"android":"levelo://app?vid=3965fbee-4ca6-470c-8db4-3c059617bf7d","ios":"levelo://app?vid=3965fbee-4ca6-470c-8db4-3c059617bf7d"},"vehicle_type_id":"4","last_reported":1737468490,"current_range_meters":14400,"station_id":"ce4bgip2rcd13ifvqbb0","pricing_plan_id":"cebpf4jnsgd1na2vs0mg"},{"bike_id":"ec01a950-0de2-4665-a5e7-65756e11e135","system_id":"levelo_inurba_marseille","lat":43.29898,"lon":5.43651,"is_reserved":false,"is_disabled":false,"rental_uris":{"android":"levelo://app?vid=ec01a950-0de2-4665-a5e7-65756e11e135","ios":"levelo://app?vid=ec01a950-0de2-4665-a5e7-65756e11e135"},"vehicle_type_id":"4","last_reported":1737468490,"current_range_meters":25600,"station_id":"ce4bhpp2rcd13ifvqhfg","pricing_plan_id":"cebpf4jnsgd1na2vs0mg"},{"bike_id":"e6efafa0-d303-4958-9222-2ec836e1f865","system_id":"levelo_inurba_marseille","lat":43.29897,"lon":5.38116,"is_reserved":false,"is_disabled":false,"rental_uris":{"android":"levelo://app?vid=e6efafa0-d303-4958-9222-2ec836e1f865","ios":"levelo://app?vid=e6efafa0-d303-4958-9222-2ec836e1f865"},"vehicle_type_id":"4","last_reported":1737468490,"current_range_meters":20800,"station_id":"ce4bgj12rcd13ifvqbc0","pricing_plan_id":"cebpf4jnsgd1na2vs0mg"},{"bike_id":"66ce096e-2d59-4d30-bb68-6329fea7fe13","system_id":"levelo_inurba_marseille","lat":43.32101,"lon":5.3678,"is_reserved":false,"is_disabled":false,"rental_uris":{"android":"levelo://app?vid=66ce096e-2d59-4d30-bb68-6329fea7fe13","ios":"levelo://app?vid=66ce096e-2d59-4d30-bb68-6329fea7fe13"},"vehicle_type_id":"4","last_reported":1737468490,"current_range_meters":27600,"station_id":"ce4bhrh2rcd13ifvqhug","pricing_plan_id":"cebpf4jnsgd1na2vs0mg"},{"bike_id":"03db88d0-d795-4992-88ee-05e2cce5a137","system_id":"levelo_inurba_marseille","lat":43.29084,"lon":5.38149,"is_reserved":false,"is_disabled":false,"rental_uris":{"android":"levelo://app?vid=03db88d0-d795-4992-88ee-05e2cce5a137","ios":"levelo://app?vid=03db88d0-d795-4992-88ee-05e2cce5a137"},"vehicle_type_id":"4","last_reported":1737468490,"current_range_meters":38000,"station_id":"ce4bh512rcd13ifvqe2g","pricing_plan_id":"cebpf4jnsgd1na2vs0mg"},{"bike_id":"6c5bc4fb-7692-4139-a6b1-f6405304a300","system_id":"levelo_inurba_marseille","lat":43.274867,"lon":5.42464,"is_reserved":false,"is_disabled":false,"rental_uris":{"android":"levelo://app?vid=6c5bc4fb-7692-4139-a6b1-f6405304a300","ios":"levelo://app?vid=6c5bc4fb-7692-4139-a6b1-f6405304a300"},"vehicle_type_id":"4","last_reported":1737468490,"current_range_meters":23200,"station_id":"ce4bhn92rcd13ifvqgrg","pricing_plan_id":"cebpf4jnsgd1na2vs0mg"},{"bike_id":"2ab7bad2-4f1d-403e-829c-3a3d88e8d4fa","system_id":"levelo_inurba_marseille","lat":43.30783,"lon":5.37643,"is_reserved":false,"is_disabled":false,"rental_uris":{"android":"levelo://app?vid=2ab7bad2-4f1d-403e-829c-3a3d88e8d4fa","ios":"levelo://app?vid=2ab7bad2-4f1d-403e-829c-3a3d88e8d4fa"},"vehicle_type_id":"4","last_reported":1737468490,"current_range_meters":28000,"station_id":"ce4bgv92rcd13ifvqcq0","pricing_plan_id":"cebpf4jnsgd1na2vs0mg"},{"bike_id":"497ca8d7-ebef-47b1-8af4-e055e5527d9d","system_id":"levelo_inurba_marseille","lat":43.25873,"lon":5.39912,"is_reserved":false,"is_disabled":false,"rental_uris":{"android":"levelo://app?vid=497ca8d7-ebef-47b1-8af4-e055e5527d9d","ios":"levelo://app?vid=497ca8d7-ebef-47b1-8af4-e055e5527d9d"},"vehicle_type_id":"4","last_reported":1737468490,"current_range_meters":39200,"station_id":"ce4bhl92rcd13ifvqghg","pricing_plan_id":"cebpf4jnsgd1na2vs0mg"},{"bike_id":"dfea0709-9749-4c09-85e3-372bf2f1faa3","system_id":"levelo_inurba_marseille","lat":43.30158,"lon":5.37415,"is_reserved":false,"is_disabled":false,"rental_uris":{"android":"levelo://app?vid=dfea0709-9749-4c09-85e3-372bf2f1faa3","ios":"levelo://app?vid=dfea0709-9749-4c09-85e3-372bf2f1faa3"},"vehicle_type_id":"4","last_reported":1737468490,"current_range_meters":27200,"station_id":"ce4bgs92rcd13ifvqcc0","pricing_plan_id":"cebpf4jnsgd1na2vs0mg"},{"bike_id":"c58a3e89-36cf-4bb0-a7c8-9e31a2ac39c5","system_id":"levelo_inurba_marseille","lat":43.27381,"lon":5.36263,"is_reserved":false,"is_disabled":false,"rental_uris":{"android":"levelo://app?vid=c58a3e89-36cf-4bb0-a7c8-9e31a2ac39c5","ios":"levelo://app?vid=c58a3e89-36cf-4bb0-a7c8-9e31a2ac39c5"},"vehicle_type_id":"4","last_reported":1737468490,"current_range_meters":26000,"station_id":"ce4bhbh2rcd13ifvqeo0","pricing_plan_id":"cebpf4jnsgd1na2vs0mg"},{"bike_id":"7c1b7fdd-7a56-4a25-a7cc-d8b1f6b3802b","system_id":"levelo_inurba_marseille","lat":43.26559,"lon":5.37283,"is_reserved":false,"is_disabled":false,"rental_uris":{"android":"levelo://app?vid=7c1b7fdd-7a56-4a25-a7cc-d8b1f6b3802b","ios":"levelo://app?vid=7c1b7fdd-7a56-4a25-a7cc-d8b1f6b3802b"},"vehicle_type_id":"4","last_reported":1737468490,"current_range_meters":10800,"station_id":"ce4bhg12rcd13ifvqf70","pricing_plan_id":"cebpf4jnsgd1na2vs0mg"},{"bike_id":"ad3158cf-c5bd-4af5-99cc-ead9d2bdb981","system_id":"levelo_inurba_marseille","lat":43.29631,"lon":5.37075,"is_reserved":false,"is_disabled":false,"rental_uris":{"android":"levelo://app?vid=ad3158cf-c5bd-4af5-99cc-ead9d2bdb981","ios":"levelo://app?vid=ad3158cf-c5bd-4af5-99cc-ead9d2bdb981"},"vehicle_type_id":"4","last_reported":1737468490,"current_range_meters":8400,"station_id":"","pricing_plan_id":"cebpf4jnsgd1na2vs0mg"},{"bike_id":"a546c80e-be19-49d2-8b0e-32a5cddcab01","system_id":"levelo_inurba_marseille","lat":43.30784,"lon":5.37649,"is_reserved":false,"is_disabled":false,"rental_uris":{"android":"levelo://app?vid=a546c80e-be19-49d2-8b0e-32a5cddcab01","ios":"levelo://app?vid=a546c80e-be19-49d2-8b0e-32a5cddcab01"},"vehicle_type_id":"4","last_reported":1737468490,"current_range_meters":33200,"station_id":"ce4bgv92rcd13ifvqcq0","pricing_plan_id":"cebpf4jnsgd1na2vs0mg"},{"bike_id":"f29197b7-892b-4656-99c5-484d8091a1b7","system_id":"levelo_inurba_marseille","lat":43.30526,"lon":5.36682,"is_reserved":false,"is_disabled":false,"rental_uris":{"android":"levelo://app?vid=f29197b7-892b-4656-99c5-484d8091a1b7","ios":"levelo://app?vid=f29197b7-892b-4656-99c5-484d8091a1b7"},"vehicle_type_id":"4","last_reported":1737468490,"current_range_meters":39200,"station_id":"ce4bgrp2rcd13ifvqc9g","pricing_plan_id":"cebpf4jnsgd1na2vs0mg"},{"bike_id":"c63545a7-0958-43b8-9a12-90a8d5922737","system_id":"levelo_inurba_marseille","lat":43.24197,"lon":5.39724,"is_reserved":false,"is_disabled":false,"rental_uris":{"android":"levelo://app?vid=c63545a7-0958-43b8-9a12-90a8d5922737","ios":"levelo://app?vid=c63545a7-0958-43b8-9a12-90a8d5922737"},"vehicle_type_id":"4","last_reported":1737468490,"current_range_meters":39200,"station_id":"ce4bhn12rcd13ifvqgpg","pricing_plan_id":"cebpf4jnsgd1na2vs0mg"},{"bike_id":"5434439c-80a7-45ef-8e7d-a897cb833684","system_id":"levelo_inurba_marseille","lat":43.32332,"lon":5.36691,"is_reserved":false,"is_disabled":false,"rental_uris":{"android":"levelo://app?vid=5434439c-80a7-45ef-8e7d-a897cb833684","ios":"levelo://app?vid=5434439c-80a7-45ef-8e7d-a897cb833684"},"vehicle_type_id":"4","last_reported":1737468490,"current_range_meters":38800,"station_id":"ce4bhsh2rcd13ifvqi2g","pricing_plan_id":"cebpf4jnsgd1na2vs0mg"},{"bike_id":"ef1fc9d5-d036-4f48-874b-f910389f6d84","system_id":"levelo_inurba_marseille","lat":43.29973,"lon":5.37168,"is_reserved":false,"is_disabled":false,"rental_uris":{"android":"levelo://app?vid=ef1fc9d5-d036-4f48-874b-f910389f6d84","ios":"levelo://app?vid=ef1fc9d5-d036-4f48-874b-f910389f6d84"},"vehicle_type_id":"4","last_reported":1737468490,"current_range_meters":11200,"station_id":"ce4bgr92rcd13ifvqc7g","pricing_plan_id":"cebpf4jnsgd1na2vs0mg"},{"bike_id":"35c8a44e-3d93-4de3-b85d-4f21a04feb82","system_id":"levelo_inurba_marseille","lat":43.32373,"lon":5.38878,"is_reserved":false,"is_disabled":false,"rental_uris":{"android":"levelo://app?vid=35c8a44e-3d93-4de3-b85d-4f21a04feb82","ios":"levelo://app?vid=35c8a44e-3d93-4de3-b85d-4f21a04feb82"},"vehicle_type_id":"4","last_reported":1737468490,"current_range_meters":30000,"station_id":"ce4bhqp2rcd13ifvqhog","pricing_plan_id":"cebpf4jnsgd1na2vs0mg"},{"bike_id":"42707e4f-fc86-4055-94d3-267e0305077b","system_id":"levelo_inurba_marseille","lat":43.2986,"lon":5.36296,"is_reserved":false,"is_disabled":true,"rental_uris":{"android":"levelo://app?vid=42707e4f-fc86-4055-94d3-267e0305077b","ios":"levelo://app?vid=42707e4f-fc86-4055-94d3-267e0305077b"},"vehicle_type_id":"4","last_reported":1737468490,"current_range_meters":0,"station_id":"ce4bgpp2rcd13ifvqc3g","pricing_plan_id":"cebpf4jnsgd1na2vs0mg"},{"bike_id":"9516e717-340d-4fd1-b66f-2a9c48ed0545","system_id":"levelo_inurba_marseille","lat":43.30437,"lon":5.3974,"is_reserved":false,"is_disabled":false,"rental_uris":{"android":"levelo://app?vid=9516e717-340d-4fd1-b66f-2a9c48ed0545","ios":"levelo://app?vid=9516e717-340d-4fd1-b66f-2a9c48ed0545"},"vehicle_type_id":"4","last_reported":1737468490,"current_range_meters":30400,"station_id":"ce4bh092rcd13ifvqd20","pricing_plan_id":"cebpf4jnsgd1na2vs0mg"},{"bike_id":"3dd094e6-7b23-41d2-9e4a-a9cfaaac6a3e","system_id":"levelo_inurba_marseille","lat":43.33621,"lon":5.41041,"is_reserved":false,"is_disabled":false,"rental_uris":{"android":"levelo://app?vid=3dd094e6-7b23-41d2-9e4a-a9cfaaac6a3e","ios":"levelo://app?vid=3dd094e6-7b23-41d2-9e4a-a9cfaaac6a3e"},"vehicle_type_id":"4","last_reported":1737468490,"current_range_meters":38000,"station_id":"ce4bhqh2rcd13ifvqhmg","pricing_plan_id":"cebpf4jnsgd1na2vs0mg"},{"bike_id":"d8859e6e-a4e3-47e3-a7b3-395dafe80873","system_id":"levelo_inurba_marseille","lat":43.30459,"lon":5.37901,"is_reserved":false,"is_disabled":false,"rental_uris":{"android":"levelo://app?vid=d8859e6e-a4e3-47e3-a7b3-395dafe80873","ios":"levelo://app?vid=d8859e6e-a4e3-47e3-a7b3-395dafe80873"},"vehicle_type_id":"4","last_reported":1737468490,"current_range_meters":34000,"station_id":"ce4bgup2rcd13ifvqcn0","pricing_plan_id":"cebpf4jnsgd1na2vs0mg"},{"bike_id":"ffee3e92-aedf-4ae9-83cb-cc457d76f7ad","system_id":"levelo_inurba_marseille","lat":43.32661,"lon":5.4099,"is_reserved":false,"is_disabled":false,"rental_uris":{"android":"levelo://app?vid=ffee3e92-aedf-4ae9-83cb-cc457d76f7ad","ios":"levelo://app?vid=ffee3e92-aedf-4ae9-83cb-cc457d76f7ad"},"vehicle_type_id":"4","last_reported":1737468490,"current_range_meters":31200,"station_id":"ce4bhpp2rcd13ifvqhgg","pricing_plan_id":"cebpf4jnsgd1na2vs0mg"},{"bike_id":"524b093f-b071-41c0-9fe4-f158e085c588","system_id":"levelo_inurba_marseille","lat":43.32527,"lon":5.36558,"is_reserved":false,"is_disabled":false,"rental_uris":{"android":"levelo://app?vid=524b093f-b071-41c0-9fe4-f158e085c588","ios":"levelo://app?vid=524b093f-b071-41c0-9fe4-f158e085c588"},"vehicle_type_id":"4","last_reported":1737468490,"current_range_meters":28400,"station_id":"ce4bhs12rcd13ifvqhvg","pricing_plan_id":"cebpf4jnsgd1na2vs0mg"},{"bike_id":"56fc7b61-3973-4ee9-b3b7-9d9cf800a9d0","system_id":"levelo_inurba_marseille","lat":43.31266,"lon":5.40164,"is_reserved":false,"is_disabled":false,"rental_uris":{"android":"levelo://app?vid=56fc7b61-3973-4ee9-b3b7-9d9cf800a9d0","ios":"levelo://app?vid=56fc7b61-3973-4ee9-b3b7-9d9cf800a9d0"},"vehicle_type_id":"4","last_reported":1737468490,"current_range_meters":25600,"station_id":"ce4bh092rcd13ifvqd30","pricing_plan_id":"cebpf4jnsgd1na2vs0mg"},{"bike_id":"51a7e0a8-522c-4cc1-9c0e-aff2f6e94438","system_id":"levelo_inurba_marseille","lat":43.30545,"lon":5.38424,"is_reserved":false,"is_disabled":false,"rental_uris":{"android":"levelo://app?vid=51a7e0a8-522c-4cc1-9c0e-aff2f6e94438","ios":"levelo://app?vid=51a7e0a8-522c-4cc1-9c0e-aff2f6e94438"},"vehicle_type_id":"4","last_reported":1737468490,"current_range_meters":37600,"station_id":"ce4bgg92rcd13ifvqb30","pricing_plan_id":"cebpf4jnsgd1na2vs0mg"},{"bike_id":"bbe30ec8-e43d-4675-922b-0c8995bb10f8","system_id":"levelo_inurba_marseille","lat":43.27634,"lon":5.38955,"is_reserved":false,"is_disabled":false,"rental_uris":{"android":"levelo://app?vid=bbe30ec8-e43d-4675-922b-0c8995bb10f8","ios":"levelo://app?vid=bbe30ec8-e43d-4675-922b-0c8995bb10f8"},"vehicle_type_id":"4","last_reported":1737468490,"current_range_meters":39200,"station_id":"ce4bhi12rcd13ifvqfo0","pricing_plan_id":"cebpf4jnsgd1na2vs0mg"},{"bike_id":"fa57abae-fda9-4476-9534-06cf27caa9bf","system_id":"levelo_inurba_marseille","lat":43.2985,"lon":5.36289,"is_reserved":false,"is_disabled":false,"rental_uris":{"android":"levelo://app?vid=fa57abae-fda9-4476-9534-06cf27caa9bf","ios":"levelo://app?vid=fa57abae-fda9-4476-9534-06cf27caa9bf"},"vehicle_type_id":"4","last_reported":1737468490,"current_range_meters":19600,"station_id":"ce4bgpp2rcd13ifvqc3g","pricing_plan_id":"cebpf4jnsgd1na2vs0mg"},{"bike_id":"df64b2e3-e8c7-4a2c-8b42-e5fc7ddbf9f7","system_id":"levelo_inurba_marseille","lat":43.26784,"lon":5.39414,"is_reserved":false,"is_disabled":false,"rental_uris":{"android":"levelo://app?vid=df64b2e3-e8c7-4a2c-8b42-e5fc7ddbf9f7","ios":"levelo://app?vid=df64b2e3-e8c7-4a2c-8b42-e5fc7ddbf9f7"},"vehicle_type_id":"4","last_reported":1737468490,"current_range_meters":38000,"station_id":"ce4bhh12rcd13ifvqfg0","pricing_plan_id":"cebpf4jnsgd1na2vs0mg"},{"bike_id":"a86a6700-765e-49cb-a89a-158a0b203e3f","system_id":"levelo_inurba_marseille","lat":43.2468,"lon":5.3815,"is_reserved":false,"is_disabled":false,"rental_uris":{"android":"levelo://app?vid=a86a6700-765e-49cb-a89a-158a0b203e3f","ios":"levelo://app?vid=a86a6700-765e-49cb-a89a-158a0b203e3f"},"vehicle_type_id":"4","last_reported":1737468490,"current_range_meters":35600,"station_id":"ce4bhih2rcd13ifvqfr0","pricing_plan_id":"cebpf4jnsgd1na2vs0mg"},{"bike_id":"b5b91842-f1aa-4bba-964f-7a9484225fb0","system_id":"levelo_inurba_marseille","lat":43.2588,"lon":5.39906,"is_reserved":false,"is_disabled":false,"rental_uris":{"android":"levelo://app?vid=b5b91842-f1aa-4bba-964f-7a9484225fb0","ios":"levelo://app?vid=b5b91842-f1aa-4bba-964f-7a9484225fb0"},"vehicle_type_id":"4","last_reported":1737468490,"current_range_meters":39200,"station_id":"ce4bhl92rcd13ifvqghg","pricing_plan_id":"cebpf4jnsgd1na2vs0mg"},{"bike_id":"60b7d049-237a-4dbd-ad0c-436ecde1802f","system_id":"levelo_inurba_marseille","lat":43.23195,"lon":5.35554,"is_reserved":false,"is_disabled":false,"rental_uris":{"android":"levelo://app?vid=60b7d049-237a-4dbd-ad0c-436ecde1802f","ios":"levelo://app?vid=60b7d049-237a-4dbd-ad0c-436ecde1802f"},"vehicle_type_id":"4","last_reported":1737468490,"current_range_meters":20400,"station_id":"ce4bhu92rcd13ifvqi70","pricing_plan_id":"cebpf4jnsgd1na2vs0mg"},{"bike_id":"7a14c908-5d21-478e-b2fb-cdaa7ed81c08","system_id":"levelo_inurba_marseille","lat":43.2722,"lon":5.39194,"is_reserved":false,"is_disabled":false,"rental_uris":{"android":"levelo://app?vid=7a14c908-5d21-478e-b2fb-cdaa7ed81c08","ios":"levelo://app?vid=7a14c908-5d21-478e-b2fb-cdaa7ed81c08"},"vehicle_type_id":"4","last_reported":1737468490,"current_range_meters":38800,"station_id":"ce4bhhp2rcd13ifvqfm0","pricing_plan_id":"cebpf4jnsgd1na2vs0mg"},{"bike_id":"86d67274-3f7f-4b7f-936e-b73e7a0da0d3","system_id":"levelo_inurba_marseille","lat":43.30549,"lon":5.36688,"is_reserved":false,"is_disabled":false,"rental_uris":{"android":"levelo://app?vid=86d67274-3f7f-4b7f-936e-b73e7a0da0d3","ios":"levelo://app?vid=86d67274-3f7f-4b7f-936e-b73e7a0da0d3"},"vehicle_type_id":"4","last_reported":1737468490,"current_range_meters":39200,"station_id":"ce4bgrp2rcd13ifvqc9g","pricing_plan_id":"cebpf4jnsgd1na2vs0mg"},{"bike_id":"4359b7a2-6217-486b-954d-ac708500e499","system_id":"levelo_inurba_marseille","lat":43.30085,"lon":5.39064,"is_reserved":false,"is_disabled":false,"rental_uris":{"android":"levelo://app?vid=4359b7a2-6217-486b-954d-ac708500e499","ios":"levelo://app?vid=4359b7a2-6217-486b-954d-ac708500e499"},"vehicle_type_id":"4","last_reported":1737468490,"current_range_meters":33600,"station_id":"ce4bh192rcd13ifvqdb0","pricing_plan_id":"cebpf4jnsgd1na2vs0mg"},{"bike_id":"cea541d4-3f8e-4079-91ad-02075f617536","system_id":"levelo_inurba_marseille","lat":43.27374,"lon":5.36247,"is_reserved":false,"is_disabled":false,"rental_uris":{"android":"levelo://app?vid=cea541d4-3f8e-4079-91ad-02075f617536","ios":"levelo://app?vid=cea541d4-3f8e-4079-91ad-02075f617536"},"vehicle_type_id":"4","last_reported":1737468490,"current_range_meters":39200,"station_id":"ce4bhbh2rcd13ifvqeo0","pricing_plan_id":"cebpf4jnsgd1na2vs0mg"},{"bike_id":"4a056786-bc85-4309-a7b3-2d018225f433","system_id":"levelo_inurba_marseille","lat":43.29969,"lon":5.385,"is_reserved":false,"is_disabled":false,"rental_uris":{"android":"levelo://app?vid=4a056786-bc85-4309-a7b3-2d018225f433","ios":"levelo://app?vid=4a056786-bc85-4309-a7b3-2d018225f433"},"vehicle_type_id":"4","last_reported":1737468490,"current_range_meters":38400,"station_id":"ce4bgj92rcd13ifvqbd0","pricing_plan_id":"cebpf4jnsgd1na2vs0mg"},{"bike_id":"4f990209-04d5-4ce5-bcf6-1abc31b5d30d","system_id":"levelo_inurba_marseille","lat":43.30532,"lon":5.36596,"is_reserved":false,"is_disabled":false,"rental_uris":{"android":"levelo://app?vid=4f990209-04d5-4ce5-bcf6-1abc31b5d30d","ios":"levelo://app?vid=4f990209-04d5-4ce5-bcf6-1abc31b5d30d"},"vehicle_type_id":"4","last_reported":1737468490,"current_range_meters":38800,"station_id":"ce4bgs12rcd13ifvqcag","pricing_plan_id":"cebpf4jnsgd1na2vs0mg"},{"bike_id":"a2665873-ff7d-4ec2-9a56-ebacf8c35007","system_id":"levelo_inurba_marseille","lat":43.29245,"lon":5.36088,"is_reserved":false,"is_disabled":false,"rental_uris":{"android":"levelo://app?vid=a2665873-ff7d-4ec2-9a56-ebacf8c35007","ios":"levelo://app?vid=a2665873-ff7d-4ec2-9a56-ebacf8c35007"},"vehicle_type_id":"4","last_reported":1737468490,"current_range_meters":28000,"station_id":"ce4bhbh2rcd13ifvqeqg","pricing_plan_id":"cebpf4jnsgd1na2vs0mg"},{"bike_id":"16483ab7-511b-4965-ade6-72c3442926cd","system_id":"levelo_inurba_marseille","lat":43.24389,"lon":5.3706,"is_reserved":false,"is_disabled":false,"rental_uris":{"android":"levelo://app?vid=16483ab7-511b-4965-ade6-72c3442926cd","ios":"levelo://app?vid=16483ab7-511b-4965-ade6-72c3442926cd"},"vehicle_type_id":"4","last_reported":1737468490,"current_range_meters":28800,"station_id":"ce4bhhh2rcd13ifvqfk0","pricing_plan_id":"cebpf4jnsgd1na2vs0mg"},{"bike_id":"292f8adc-7623-41ea-a3ea-158a93156577","system_id":"levelo_inurba_marseille","lat":43.30551,"lon":5.38439,"is_reserved":false,"is_disabled":false,"rental_uris":{"android":"levelo://app?vid=292f8adc-7623-41ea-a3ea-158a93156577","ios":"levelo://app?vid=292f8adc-7623-41ea-a3ea-158a93156577"},"vehicle_type_id":"4","last_reported":1737468490,"current_range_meters":29600,"station_id":"ce4bgg92rcd13ifvqb30","pricing_plan_id":"cebpf4jnsgd1na2vs0mg"},{"bike_id":"842dbf50-474a-4f28-922c-6c63296056d8","system_id":"levelo_inurba_marseille","lat":43.29363,"lon":5.37841,"is_reserved":false,"is_disabled":false,"rental_uris":{"android":"levelo://app?vid=842dbf50-474a-4f28-922c-6c63296056d8","ios":"levelo://app?vid=842dbf50-474a-4f28-922c-6c63296056d8"},"vehicle_type_id":"4","last_reported":1737468490,"current_range_meters":30800,"station_id":"ce4bgjh2rcd13ifvqbf0","pricing_plan_id":"cebpf4jnsgd1na2vs0mg"},{"bike_id":"09271c13-bc57-4a1b-ad60-73ddd2d0ee51","system_id":"levelo_inurba_marseille","lat":43.31404,"lon":5.36682,"is_reserved":false,"is_disabled":false,"rental_uris":{"android":"levelo://app?vid=09271c13-bc57-4a1b-ad60-73ddd2d0ee51","ios":"levelo://app?vid=09271c13-bc57-4a1b-ad60-73ddd2d0ee51"},"vehicle_type_id":"4","last_reported":1737468490,"current_range_meters":39200,"station_id":"ce4bgr92rcd13ifvqc6g","pricing_plan_id":"cebpf4jnsgd1na2vs0mg"},{"bike_id":"b1178cb4-439f-49c8-944f-b5adf4637300","system_id":"levelo_inurba_marseille","lat":43.28164,"lon":5.42604,"is_reserved":false,"is_disabled":false,"rental_uris":{"android":"levelo://app?vid=b1178cb4-439f-49c8-944f-b5adf4637300","ios":"levelo://app?vid=b1178cb4-439f-49c8-944f-b5adf4637300"},"vehicle_type_id":"4","last_reported":1737468490,"current_range_meters":24400,"station_id":"ce4bhnh2rcd13ifvqgug","pricing_plan_id":"cebpf4jnsgd1na2vs0mg"},{"bike_id":"64b084cb-bee9-4bf3-b5f1-99ae8fc22268","system_id":"levelo_inurba_marseille","lat":43.24186,"lon":5.39721,"is_reserved":false,"is_disabled":false,"rental_uris":{"android":"levelo://app?vid=64b084cb-bee9-4bf3-b5f1-99ae8fc22268","ios":"levelo://app?vid=64b084cb-bee9-4bf3-b5f1-99ae8fc22268"},"vehicle_type_id":"4","last_reported":1737468490,"current_range_meters":27200,"station_id":"ce4bhn12rcd13ifvqgpg","pricing_plan_id":"cebpf4jnsgd1na2vs0mg"},{"bike_id":"6e63ef53-d2fb-4193-8563-06449ed74b84","system_id":"levelo_inurba_marseille","lat":43.29907,"lon":5.38133,"is_reserved":false,"is_disabled":true,"rental_uris":{"android":"levelo://app?vid=6e63ef53-d2fb-4193-8563-06449ed74b84","ios":"levelo://app?vid=6e63ef53-d2fb-4193-8563-06449ed74b84"},"vehicle_type_id":"4","last_reported":1737468490,"current_range_meters":0,"station_id":"ce4bgj12rcd13ifvqbc0","pricing_plan_id":"cebpf4jnsgd1na2vs0mg"},{"bike_id":"8c41923f-f8b7-414c-ac57-371b93aa88d3","system_id":"levelo_inurba_marseille","lat":43.29986,"lon":5.37148,"is_reserved":false,"is_disabled":false,"rental_uris":{"android":"levelo://app?vid=8c41923f-f8b7-414c-ac57-371b93aa88d3","ios":"levelo://app?vid=8c41923f-f8b7-414c-ac57-371b93aa88d3"},"vehicle_type_id":"4","last_reported":1737468490,"current_range_meters":30400,"station_id":"ce4bgr92rcd13ifvqc7g","pricing_plan_id":"cebpf4jnsgd1na2vs0mg"},{"bike_id":"e67b0eef-d916-463e-900e-bb2b15e4f670","system_id":"levelo_inurba_marseille","lat":43.28998,"lon":5.37822,"is_reserved":false,"is_disabled":false,"rental_uris":{"android":"levelo://app?vid=e67b0eef-d916-463e-900e-bb2b15e4f670","ios":"levelo://app?vid=e67b0eef-d916-463e-900e-bb2b15e4f670"},"vehicle_type_id":"4","last_reported":1737468490,"current_range_meters":38000,"station_id":"ce4bh9p2rcd13ifvqed0","pricing_plan_id":"cebpf4jnsgd1na2vs0mg"},{"bike_id":"0aaedd18-95c7-458b-bb63-6504ef2e11ba","system_id":"levelo_inurba_marseille","lat":43.32138,"lon":5.36761,"is_reserved":false,"is_disabled":false,"rental_uris":{"android":"levelo://app?vid=0aaedd18-95c7-458b-bb63-6504ef2e11ba","ios":"levelo://app?vid=0aaedd18-95c7-458b-bb63-6504ef2e11ba"},"vehicle_type_id":"4","last_reported":1737468490,"current_range_meters":33600,"station_id":"","pricing_plan_id":"cebpf4jnsgd1na2vs0mg"},{"bike_id":"bae2b977-4017-4ce1-9e76-00aec7797b10","system_id":"levelo_inurba_marseille","lat":43.26561,"lon":5.37283,"is_reserved":false,"is_disabled":false,"rental_uris":{"android":"levelo://app?vid=bae2b977-4017-4ce1-9e76-00aec7797b10","ios":"levelo://app?vid=bae2b977-4017-4ce1-9e76-00aec7797b10"},"vehicle_type_id":"4","last_reported":1737468490,"current_range_meters":36000,"station_id":"ce4bhg12rcd13ifvqf70","pricing_plan_id":"cebpf4jnsgd1na2vs0mg"},{"bike_id":"a00f9d10-2df3-4a8a-9537-639a60aaa7db","system_id":"levelo_inurba_marseille","lat":43.32487,"lon":5.36576,"is_reserved":false,"is_disabled":false,"rental_uris":{"android":"levelo://app?vid=a00f9d10-2df3-4a8a-9537-639a60aaa7db","ios":"levelo://app?vid=a00f9d10-2df3-4a8a-9537-639a60aaa7db"},"vehicle_type_id":"4","last_reported":1737468490,"current_range_meters":35600,"station_id":"ce4bhs12rcd13ifvqhvg","pricing_plan_id":"cebpf4jnsgd1na2vs0mg"},{"bike_id":"f0eb1d86-49d7-4e30-9a1d-73e3b3c13f46","system_id":"levelo_inurba_marseille","lat":43.27811,"lon":5.39215,"is_reserved":false,"is_disabled":false,"rental_uris":{"android":"levelo://app?vid=f0eb1d86-49d7-4e30-9a1d-73e3b3c13f46","ios":"levelo://app?vid=f0eb1d86-49d7-4e30-9a1d-73e3b3c13f46"},"vehicle_type_id":"4","last_reported":1737468490,"current_range_meters":38800,"station_id":"ce4bhjp2rcd13ifvqga0","pricing_plan_id":"cebpf4jnsgd1na2vs0mg"},{"bike_id":"efe195fb-7312-450f-9b0a-0660a67af784","system_id":"levelo_inurba_marseille","lat":43.28259,"lon":5.35053,"is_reserved":false,"is_disabled":false,"rental_uris":{"android":"levelo://app?vid=efe195fb-7312-450f-9b0a-0660a67af784","ios":"levelo://app?vid=efe195fb-7312-450f-9b0a-0660a67af784"},"vehicle_type_id":"4","last_reported":1737468490,"current_range_meters":32800,"station_id":"ce4bhbp2rcd13ifvqerg","pricing_plan_id":"cebpf4jnsgd1na2vs0mg"},{"bike_id":"be5af88f-b9fb-4c45-affa-947d36a2d441","system_id":"levelo_inurba_marseille","lat":43.26552,"lon":5.3729,"is_reserved":false,"is_disabled":false,"rental_uris":{"android":"levelo://app?vid=be5af88f-b9fb-4c45-affa-947d36a2d441","ios":"levelo://app?vid=be5af88f-b9fb-4c45-affa-947d36a2d441"},"vehicle_type_id":"4","last_reported":1737468490,"current_range_meters":9200,"station_id":"ce4bhg12rcd13ifvqf70","pricing_plan_id":"cebpf4jnsgd1na2vs0mg"},{"bike_id":"f44a29e1-3bea-4ba3-bef5-da548dc5ebb0","system_id":"levelo_inurba_marseille","lat":43.31188,"lon":5.38717,"is_reserved":false,"is_disabled":false,"rental_uris":{"android":"levelo://app?vid=f44a29e1-3bea-4ba3-bef5-da548dc5ebb0","ios":"levelo://app?vid=f44a29e1-3bea-4ba3-bef5-da548dc5ebb0"},"vehicle_type_id":"4","last_reported":1737468490,"current_range_meters":29600,"station_id":"ce4bgv12rcd13ifvqcp0","pricing_plan_id":"cebpf4jnsgd1na2vs0mg"},{"bike_id":"fe86eaaa-dd2c-4693-ba7d-b1cfe3cb2d83","system_id":"levelo_inurba_marseille","lat":43.2956,"lon":5.42287,"is_reserved":false,"is_disabled":false,"rental_uris":{"android":"levelo://app?vid=fe86eaaa-dd2c-4693-ba7d-b1cfe3cb2d83","ios":"levelo://app?vid=fe86eaaa-dd2c-4693-ba7d-b1cfe3cb2d83"},"vehicle_type_id":"4","last_reported":1737468490,"current_range_meters":32000,"station_id":"ce4bh0h2rcd13ifvqd60","pricing_plan_id":"cebpf4jnsgd1na2vs0mg"},{"bike_id":"3b867b2f-5589-493e-aea9-24191145a659","system_id":"levelo_inurba_marseille","lat":43.28944,"lon":5.36645,"is_reserved":false,"is_disabled":false,"rental_uris":{"android":"levelo://app?vid=3b867b2f-5589-493e-aea9-24191145a659","ios":"levelo://app?vid=3b867b2f-5589-493e-aea9-24191145a659"},"vehicle_type_id":"4","last_reported":1737468490,"current_range_meters":27200,"station_id":"ce4bhap2rcd13ifvqek0","pricing_plan_id":"cebpf4jnsgd1na2vs0mg"},