{"last_updated":1729120137,"ttl":60,"version":"2.2","data":{"bikes":[{"bike_id":"60882861-bf8c-4d22-964f-ecff7d884ae5","system_id":"levelo_inurba_marseille","lat":43.24999,"lon":5.38928,"is_reserved":false,"is_disabled":false,"rental_uris":{"android":"levelo://app?vid=60882861-bf8c-4d22-964f-ecff7d884ae5","ios":"levelo://app?vid=60882861-bf8c-4d22-964f-ecff7d884ae5"},"vehicle_type_id":"4","last_reported":1729120137,"current_range_meters":40000,"station_id":"ce4bhgp2rcd13ifvqfd0","pricing_plan_id":"cebpf4jnsgd1na2vs0mg"},{"bike_id":"43cd7b5a-c989-427b-b9c5-6da18d1e2981","system_id":"levelo_inurba_marseille","lat":43.31684,"lon":5.40464,"is_reserved":false,"is_disabled":false,"rental_uris":{"android":"levelo://app?vid=43cd7b5a-c989-427b-b9c5-6da18d1e2981","ios":"levelo://app?vid=43cd7b5a-c989-427b-b9c5-6da18d1e2981"},"vehicle_type_id":"4","last_reported":1729120137,"current_range_meters":38800,"station_id":"ce4bh012rcd13ifvqd00","pricing_plan_id":"cebpf4jnsgd1na2vs0mg"},{"bike_id":"7a98df95-25ce-4d1a-bfd1-b29e50bca92e","system_id":"levelo_inurba_marseille","lat":43.29258,"lon":5.40903,"is_reserved":false,"is_disabled":false,"rental_uris":{"android":"levelo://app?vid=7a98df95-25ce-4d1a-bfd1-b29e50bca92e","ios":"levelo://app?vid=7a98df95-25ce-4d1a-bfd1-b29e50bca92e"},"vehicle_type_id":"4","last_reported":1729120137,"current_range_meters":28800,"station_id":"ce4bh192rcd13ifvqdc0","pricing_plan_id":"cebpf4jnsgd1na2vs0mg"},{"bike_id":"38af802b-0dd3-4001-8bdf-786db676d355","system_id":"levelo_inurba_marseille","lat":43.305506,"lon":5.374937,"is_reserved":false,"is_disabled":false,"rental_uris":{"android":"levelo://app?vid=38af802b-0dd3-4001-8bdf-786db676d355","ios":"levelo://app?vid=38af802b-0dd3-4001-8bdf-786db676d355"},"vehicle_type_id":"4","last_reported":1729120137,"current_range_meters":33200,"station_id":"","pricing_plan_id":"cebpf4jnsgd1na2vs0mg"},{"bike_id":"a8f63e31-a061-4340-ac24-cf1c35bfad22","system_id":"levelo_inurba_marseille","lat":43.31274,"lon":5.40164,"is_reserved":false,"is_disabled":false,"rental_uris":{"android":"levelo://app?vid=a8f63e31-a061-4340-ac24-cf1c35bfad22","ios":"levelo://app?vid=a8f63e31-a061-4340-ac24-cf1c35bfad22"},"vehicle_type_id":"4","last_reported":1729120137,"current_range_meters":22800,"station_id":"ce4bh092rcd13ifvqd30","pricing_plan_id":"cebpf4jnsgd1na2vs0mg"},{"bike_id":"676ec6c4-6b42-43e0-81fe-327782965da5","system_id":"levelo_inurba_marseille","lat":43.337444,"lon":5.374475,"is_reserved":false,"is_disabled":false,"rental_uris":{"android":"levelo://app?vid=676ec6c4-6b42-43e0-81fe-327782965da5","ios":"levelo://app?vid=676ec6c4-6b42-43e0-81fe-327782965da5"},"vehicle_type_id":"4","last_reported":1729120137,"current_range_meters":19200,"station_id":"","pricing_plan_id":"cebpf4jnsgd1na2vs0mg"},{"bike_id":"9d3a04b9-e109-4532-ba3e-d100b657cd60","system_id":"levelo_inurba_marseille","lat":43.311793,"lon":5.38718,"is_reserved":false,"is_disabled":false,"rental_uris":{"android":"levelo://app?vid=9d3a04b9-e109-4532-ba3e-d100b657cd60","ios":"levelo://app?vid=9d3a04b9-e109-4532-ba3e-d100b657cd60"},"vehicle_type_id":"4","last_reported":1729120137,"current_range_meters":8400,"station_id":"ce4bgv12rcd13ifvqcp0","pricing_plan_id":"cebpf4jnsgd1na2vs0mg"},{"bike_id":"6ef86ff5-9253-428e-ad31-d3879edca395","system_id":"levelo_inurba_marseille","lat":43.25171,"lon":5.37834,"is_reserved":false,"is_disabled":false,"rental_uris":{"android":"levelo://app?vid=6ef86ff5-9253-428e-ad31-d3879edca395","ios":"levelo://app?vid=6ef86ff5-9253-428e-ad31-d3879edca395"},"vehicle_type_id":"4","last_reported":1729120137,"current_range_meters":14800,"station_id":"","pricing_plan_id":"cebpf4jnsgd1na2vs0mg"},{"bike_id":"ee22ed23-b661-4149-8d5e-d3667e92dc0b","system_id":"levelo_inurba_marseille","lat":43.27494,"lon":5.4245,"is_reserved":false,"is_disabled":false,"rental_uris":{"android":"levelo://app?vid=ee22ed23-b661-4149-8d5e-d3667e92dc0b","ios":"levelo://app?vid=ee22ed23-b661-4149-8d5e-d3667e92dc0b"},"vehicle_type_id":"4","last_reported":1729120137,"current_range_meters":36800,"station_id":"ce4bhn92rcd13ifvqgrg","pricing_plan_id":"cebpf4jnsgd1na2vs0mg"},{"bike_id":"5e3bc5d0-d299-4af6-8212-065a73233b87","system_id":"levelo_inurba_marseille","lat":43.24387,"lon":5.37053,"is_reserved":false,"is_disabled":false,"rental_uris":{"android":"levelo://app?vid=5e3bc5d0-d299-4af6-8212-065a73233b87","ios":"levelo://app?vid=5e3bc5d0-d299-4af6-8212-065a73233b87"},"vehicle_type_id":"4","last_reported":1729120137,"current_range_meters":25200,"station_id":"ce4bhhh2rcd13ifvqfk0","pricing_plan_id":"cebpf4jnsgd1na2vs0mg"},{"bike_id":"46019ded-0e84-493f-b7bb-3e63a1be50f6","system_id":"levelo_inurba_marseille","lat":43.25731,"lon":5.41107,"is_reserved":false,"is_disabled":false,"rental_uris":{"android":"levelo://app?vid=46019ded-0e84-493f-b7bb-3e63a1be50f6","ios":"levelo://app?vid=46019ded-0e84-493f-b7bb-3e63a1be50f6"},"vehicle_type_id":"4","last_reported":1729120137,"current_range_meters":35200,"station_id":"ce4bhkp2rcd13ifvqgd0","pricing_plan_id":"cebpf4jnsgd1na2vs0mg"},{"bike_id":"cfe68d4f-eb61-4ff2-b903-bf1cf8e56faf","system_id":"levelo_inurba_marseille","lat":43.28445,"lon":5.39182,"is_reserved":false,"is_disabled":false,"rental_uris":{"android":"levelo://app?vid=cfe68d4f-eb61-4ff2-b903-bf1cf8e56faf","ios":"levelo://app?vid=cfe68d4f-eb61-4ff2-b903-bf1cf8e56faf"},"vehicle_type_id":"4","last_reported":1729120137,"current_range_meters":16400,"station_id":"ce4bhoh2rcd13ifvqh5g","pricing_plan_id":"cebpf4jnsgd1na2vs0mg"},{"bike_id":"5c039dfa-844e-4370-9d10-bf097ef1eab3","system_id":"levelo_inurba_marseille","lat":43.28566,"lon":5.39486,"is_reserved":false,"is_disabled":false,"rental_uris":{"android":"levelo://app?vid=5c039dfa-844e-4370-9d10-bf097ef1eab3","ios":"levelo://app?vid=5c039dfa-844e-4370-9d10-bf097ef1eab3"},"vehicle_type_id":"4","last_reported":1729120137,"current_range_meters":16800,"station_id":"ce4bh292rcd13ifvqdg0","pricing_plan_id":"cebpf4jnsgd1na2vs0mg"},{"bike_id":"183c4e3f-68f6-4e3a-b21c-e713c85a4569","system_id":"levelo_inurba_marseille","lat":43.30137,"lon":5.3988,"is_reserved":false,"is_disabled":false,"rental_uris":{"android":"levelo://app?vid=183c4e3f-68f6-4e3a-b21c-e713c85a4569","ios":"levelo://app?vid=183c4e3f-68f6-4e3a-b21c-e713c85a4569"},"vehicle_type_id":"4","last_reported":1729120137,"current_range_meters":9600,"station_id":"ce4bh0h2rcd13ifvqd40","pricing_plan_id":"cebpf4jnsgd1na2vs0mg"},{"bike_id":"2702bce9-0dbf-43a3-a781-d01b806104bc","system_id":"levelo_inurba_marseille","lat":43.295663,"lon":5.399705,"is_reserved":false,"is_disabled":false,"rental_uris":{"android":"levelo://app?vid=2702bce9-0dbf-43a3-a781-d01b806104bc","ios":"levelo://app?vid=2702bce9-0dbf-43a3-a781-d01b806104bc"},"vehicle_type_id":"4","last_reported":1729120137,"current_range_meters":18000,"station_id":"ce4bh312rcd13ifvqdj0","pricing_plan_id":"cebpf4jnsgd1na2vs0mg"},{"bike_id":"63b06a67-c778-4433-957a-842b5bbd290a","system_id":"levelo_inurba_marseille","lat":43.27561,"lon":5.38424,"is_reserved":false,"is_disabled":false,"rental_uris":{"android":"levelo://app?vid=63b06a67-c778-4433-957a-842b5bbd290a","ios":"levelo://app?vid=63b06a67-c778-4433-957a-842b5bbd290a"},"vehicle_type_id":"4","last_reported":1729120137,"current_range_meters":27600,"station_id":"ce4bhh92rcd13ifvqfi0","pricing_plan_id":"cebpf4jnsgd1na2vs0mg"},{"bike_id":"798cf6c8-7a22-4509-899a-7b57d44fa87f","system_id":"levelo_inurba_marseille","lat":43.32002,"lon":5.38161,"is_reserved":false,"is_disabled":false,"rental_uris":{"android":"levelo://app?vid=798cf6c8-7a22-4509-899a-7b57d44fa87f","ios":"levelo://app?vid=798cf6c8-7a22-4509-899a-7b57d44fa87f"},"vehicle_type_id":"4","last_reported":1729120137,"current_range_meters":33600,"station_id":"ce4bhr12rcd13ifvqhpg","pricing_plan_id":"cebpf4jnsgd1na2vs0mg"},{"bike_id":"f2357069-7375-4c25-b8c7-26176b295c89","system_id":"levelo_inurba_marseille","lat":43.31715,"lon":5.43704,"is_reserved":false,"is_disabled":false,"rental_uris":{"android":"levelo://app?vid=f2357069-7375-4c25-b8c7-26176b295c89","ios":"levelo://app?vid=f2357069-7375-4c25-b8c7-26176b295c89"},"vehicle_type_id":"4","last_reported":1729120137,"current_range_meters":11600,"station_id":"ce4bhp92rcd13ifvqhcg","pricing_plan_id":"cebpf4jnsgd1na2vs0mg"},{"bike_id":"042e5b40-9e97-45f4-843e-ff54af18e3a3","system_id":"levelo_inurba_marseille","lat":43.337444,"lon":5.374475,"is_reserved":false,"is_disabled":false,"rental_uris":{"android":"levelo://app?vid=042e5b40-9e97-45f4-843e-ff54af18e3a3","ios":"levelo://app?vid=042e5b40-9e97-45f4-843e-ff54af18e3a3"},"vehicle_type_id":"4","last_reported":1729120137,"current_range_meters":34000,"station_id":"","pricing_plan_id":"cebpf4jnsgd1na2vs0mg"},{"bike_id":"d25e3192-c141-44fa-83a9-f7ae7b4adfc7","system_id":"levelo_inurba_marseille","lat":43.23193,"lon":5.39976,"is_reserved":false,"is_disabled":false,"rental_uris":{"android":"levelo://app?vid=d25e3192-c141-44fa-83a9-f7ae7b4adfc7","ios":"levelo://app?vid=d25e3192-c141-44fa-83a9-f7ae7b4adfc7"},"vehicle_type_id":"4","last_reported":1729120137,"current_range_meters":38800,"station_id":"ce4bhn12rcd13ifvqgqg","pricing_plan_id":"cebpf4jnsgd1na2vs0mg"},{"bike_id":"ef4d9647-ba56-42de-b65d-b48764ab3b8b","system_id":"levelo_inurba_marseille","lat":43.28009,"lon":5.40006,"is_reserved":false,"is_disabled":false,"rental_uris":{"android":"levelo://app?vid=ef4d9647-ba56-42de-b65d-b48764ab3b8b","ios":"levelo://app?vid=ef4d9647-ba56-42de-b65d-b48764ab3b8b"},"vehicle_type_id":"4","last_reported":1729120137,"current_range_meters":24000,"station_id":"ce4bho92rcd13ifvqh4g","pricing_plan_id":"cebpf4jnsgd1na2vs0mg"},{"bike_id":"bfd0964c-ad0d-4a1d-acae-dc1c1b8a097b","system_id":"levelo_inurba_marseille","lat":43.3026,"lon":5.40072,"is_reserved":false,"is_disabled":false,"rental_uris":{"android":"levelo://app?vid=bfd0964c-ad0d-4a1d-acae-dc1c1b8a097b","ios":"levelo://app?vid=bfd0964c-ad0d-4a1d-acae-dc1c1b8a097b"},"vehicle_type_id":"4","last_reported":1729120137,"current_range_meters":38800,"station_id":"ce4bgvh2rcd13ifvqcs0","pricing_plan_id":"cebpf4jnsgd1na2vs0mg"},{"bike_id":"9b57a733-ce7f-4bc3-a164-005f5b251f43","system_id":"levelo_inurba_marseille","lat":43.29003,"lon":5.35602,"is_reserved":false,"is_disabled":false,"rental_uris":{"android":"levelo://app?vid=9b57a733-ce7f-4bc3-a164-005f5b251f43","ios":"levelo://app?vid=9b57a733-ce7f-4bc3-a164-005f5b251f43"},"vehicle_type_id":"4","last_reported":1729120137,"current_range_meters":36000,"station_id":"ce4bhb92rcd13ifvqen0","pricing_plan_id":"cebpf4jnsgd1na2vs0mg"},{"bike_id":"b1b60781-1f61-4f02-bc26-c0542080d31e","system_id":"levelo_inurba_marseille","lat":43.30925,"lon":5.40142,"is_reserved":false,"is_disabled":false,"rental_uris":{"android":"levelo://app?vid=b1b60781-1f61-4f02-bc26-c0542080d31e","ios":"levelo://app?vid=b1b60781-1f61-4f02-bc26-c0542080d31e"},"vehicle_type_id":"4","last_reported":1729120137,"current_range_meters":30400,"station_id":"ce4bgvp2rcd13ifvqct0","pricing_plan_id":"cebpf4jnsgd1na2vs0mg"},{"bike_id":"a65fe6a7-86dd-4bce-b2b6-f7b122f46b65","system_id":"levelo_inurba_marseille","lat":43.28415,"lon":5.37512,"is_reserved":false,"is_disabled":false,"rental_uris":{"android":"levelo://app?vid=a65fe6a7-86dd-4bce-b2b6-f7b122f46b65","ios":"levelo://app?vid=a65fe6a7-86dd-4bce-b2b6-f7b122f46b65"},"vehicle_type_id":"4","last_reported":1729120137,"current_range_meters":32800,"station_id":"ce4bh412rcd13ifvqds0","pricing_plan_id":"cebpf4jnsgd1na2vs0mg"},{"bike_id":"d431d213-4458-42c1-99e7-f7fc65d44d06","system_id":"levelo_inurba_marseille","lat":43.28576,"lon":5.39495,"is_reserved":false,"is_disabled":false,"rental_uris":{"android":"levelo://app?vid=d431d213-4458-42c1-99e7-f7fc65d44d06","ios":"levelo://app?vid=d431d213-4458-42c1-99e7-f7fc65d44d06"},"vehicle_type_id":"4","last_reported":1729120137,"current_range_meters":38000,"station_id":"ce4bh292rcd13ifvqdg0","pricing_plan_id":"cebpf4jnsgd1na2vs0mg"},{"bike_id":"e0ba7378-4139-4f45-a9e6-4d17e46e0da7","system_id":"levelo_inurba_marseille","lat":43.27987,"lon":5.40013,"is_reserved":false,"is_disabled":false,"rental_uris":{"android":"levelo://app?vid=e0ba7378-4139-4f45-a9e6-4d17e46e0da7","ios":"levelo://app?vid=e0ba7378-4139-4f45-a9e6-4d17e46e0da7"},"vehicle_type_id":"4","last_reported":1729120137,"current_range_meters":28800,"station_id":"ce4bho92rcd13ifvqh4g","pricing_plan_id":"cebpf4jnsgd1na2vs0mg"},{"bike_id":"3fa7aefb-9148-44d0-9bb7-0d9d401bd12d","system_id":"levelo_inurba_marseille","lat":43.29874,"lon":5.397363,"is_reserved":false,"is_disabled":false,"rental_uris":{"android":"levelo://app?vid=3fa7aefb-9148-44d0-9bb7-0d9d401bd12d","ios":"levelo://app?vid=3fa7aefb-9148-44d0-9bb7-0d9d401bd12d"},"vehicle_type_id":"4","last_reported":1729120137,"current_range_meters":36800,"station_id":"ce4bh0h2rcd13ifvqd50","pricing_plan_id":"cebpf4jnsgd1na2vs0mg"},{"bike_id":"3d0ee87b-66fb-488e-b5d3-c5b0d406322c","system_id":"levelo_inurba_marseille","lat":43.24529,"lon":5.4284,"is_reserved":false,"is_disabled":false,"rental_uris":{"android":"levelo://app?vid=3d0ee87b-66fb-488e-b5d3-c5b0d406322c","ios":"levelo://app?vid=3d0ee87b-66fb-488e-b5d3-c5b0d406322c"},"vehicle_type_id":"4","last_reported":1729120137,"current_range_meters":38400,"station_id":"","pricing_plan_id":"cebpf4jnsgd1na2vs0mg"},{"bike_id":"56da5a5d-e301-4452-8c07-d6a5a0f92928","system_id":"levelo_inurba_marseille","lat":43.30541,"lon":5.36704,"is_reserved":false,"is_disabled":false,"rental_uris":{"android":"levelo://app?vid=56da5a5d-e301-4452-8c07-d6a5a0f92928","ios":"levelo://app?vid=56da5a5d-e301-4452-8c07-d6a5a0f92928"},"vehicle_type_id":"4","last_reported":1729120137,"current_range_meters":9200,"station_id":"ce4bgrp2rcd13ifvqc9g","pricing_plan_id":"cebpf4jnsgd1na2vs0mg"},{"bike_id":"9e86bce5-0001-4db8-8193-ae63f1bd7629","system_id":"levelo_inurba_marseille","lat":43.31525,"lon":5.38033,"is_reserved":false,"is_disabled":false,"rental_uris":{"android":"levelo://app?vid=9e86bce5-0001-4db8-8193-ae63f1bd7629","ios":"levelo://app?vid=9e86bce5-0001-4db8-8193-ae63f1bd7629"},"vehicle_type_id":"4","last_reported":1729120137,"current_range_meters":9200,"station_id":"ce4bhsp2rcd13ifvqi50","pricing_plan_id":"cebpf4jnsgd1na2vs0mg"},{"bike_id":"89971878-8b61-417d-bbdd-e44868234182","system_id":"levelo_inurba_marseille","lat":43.30643,"lon":5.40081,"is_reserved":false,"is_disabled":false,"rental_uris":{"android":"levelo://app?vid=89971878-8b61-417d-bbdd-e44868234182","ios":"levelo://app?vid=89971878-8b61-417d-bbdd-e44868234182"},"vehicle_type_id":"4","last_reported":1729120137,"current_range_meters":10800,"station_id":"ce4bh112rcd13ifvqda0","pricing_plan_id":"cebpf4jnsgd1na2vs0mg"},{"bike_id":"851bada0-f0f3-427a-91b9-2220a922230e","system_id":"levelo_inurba_marseille","lat":43.31528,"lon":5.38046,"is_reserved":false,"is_disabled":false,"rental_uris":{"android":"levelo://app?vid=851bada0-f0f3-427a-91b9-2220a922230e","ios":"levelo://app?vid=851bada0-f0f3-427a-91b9-2220a922230e"},"vehicle_type_id":"4","last_reported":1729120137,"current_range_meters":28000,"station_id":"ce4bhsp2rcd13ifvqi50","pricing_plan_id":"cebpf4jnsgd1na2vs0mg"},{"bike_id":"6cd899d8-1f88-459f-b491-3f17e4af5020","system_id":"levelo_inurba_marseille","lat":43.24071,"lon":5.37772,"is_reserved":false,"is_disabled":false,"rental_uris":{"android":"levelo://app?vid=6cd899d8-1f88-459f-b491-3f17e4af5020","ios":"levelo://app?vid=6cd899d8-1f88-459f-b491-3f17e4af5020"},"vehicle_type_id":"4","last_reported":1729120137,"current_range_meters":26000,"station_id":"ce4bhnp2rcd13ifvqgvg","pricing_plan_id":"cebpf4jnsgd1na2vs0mg"},{"bike_id":"5bf1fbcd-3b04-4ff9-98d0-4c591b143bd0","system_id":"levelo_inurba_marseille","lat":43.25083,"lon":5.39519,"is_reserved":false,"is_disabled":false,"rental_uris":{"android":"levelo://app?vid=5bf1fbcd-3b04-4ff9-98d0-4c591b143bd0","ios":"levelo://app?vid=5bf1fbcd-3b04-4ff9-98d0-4c591b143bd0"},"vehicle_type_id":"4","last_reported":1729120137,"current_range_meters":20000,"station_id":"ce4bhm12rcd13ifvqgkg","pricing_plan_id":"cebpf4jnsgd1na2vs0mg"},{"bike_id":"12a0ce46-2b5b-482a-baf5-be50baa26765","system_id":"levelo_inurba_marseille","lat":43.28155,"lon":5.42638,"is_reserved":false,"is_disabled":false,"rental_uris":{"android":"levelo://app?vid=12a0ce46-2b5b-482a-baf5-be50baa26765","ios":"levelo://app?vid=12a0ce46-2b5b-482a-baf5-be50baa26765"},"vehicle_type_id":"4","last_reported":1729120137,"current_range_meters":32000,"station_id":"ce4bhnh2rcd13ifvqgug","pricing_plan_id":"cebpf4jnsgd1na2vs0mg"},{"bike_id":"572ed7b0-691c-497d-9a19-61e65acf0f2d","system_id":"levelo_inurba_marseille","lat":43.25116,"lon":5.40316,"is_reserved":false,"is_disabled":false,"rental_uris":{"android":"levelo://app?vid=572ed7b0-691c-497d-9a19-61e65acf0f2d","ios":"levelo://app?vid=572ed7b0-691c-497d-9a19-61e65acf0f2d"},"vehicle_type_id":"4","last_reported":1729120137,"current_range_meters":26000,"station_id":"ce4bhlh2rcd13ifvqgig","pricing_plan_id":"cebpf4jnsgd1na2vs0mg"},{"bike_id":"caa50f4a-17a8-4d51-8772-27afd11b3a71","system_id":"levelo_inurba_marseille","lat":43.27562,"lon":5.38431,"is_reserved":false,"is_disabled":false,"rental_uris":{"android":"levelo://app?vid=caa50f4a-17a8-4d51-8772-27afd11b3a71","ios":"levelo://app?vid=caa50f4a-17a8-4d51-8772-27afd11b3a71"},"vehicle_type_id":"4","last_reported":1729120137,"current_range_meters":26000,"station_id":"ce4bhh92rcd13ifvqfi0","pricing_plan_id":"cebpf4jnsgd1na2vs0mg"},{"bike_id":"b58afb44-3039-462c-9ec9-b4194f236606","system_id":"levelo_inurba_marseille","lat":43.308888,"lon":5.39651,"is_reserved":false,"is_disabled":false,"rental_uris":{"android":"levelo://app?vid=b58afb44-3039-462c-9ec9-b4194f236606","ios":"levelo://app?vid=b58afb44-3039-462c-9ec9-b4194f236606"},"vehicle_type_id":"4","last_reported":1729120137,"current_range_meters":34800,"station_id":"ce4bh012rcd13ifvqcv0","pricing_plan_id":"cebpf4jnsgd1na2vs0mg"},{"bike_id":"7dc20ac5-4922-4545-aeeb-2910b2064a34","system_id":"levelo_inurba_marseille","lat":43.28455,"lon":5.35892,"is_reserved":false,"is_disabled":false,"rental_uris":{"android":"levelo://app?vid=7dc20ac5-4922-4545-aeeb-2910b2064a34","ios":"levelo://app?vid=7dc20ac5-4922-4545-aeeb-2910b2064a34"},"vehicle_type_id":"4","last_reported":1729120137,"current_range_meters":37600,"station_id":"ce4bhah2rcd13ifvqei0","pricing_plan_id":"cebpf4jnsgd1na2vs0mg"},{"bike_id":"5e43d9b3-6d4a-407c-a9f8-e8f2e4dc0db3","system_id":"levelo_inurba_marseille","lat":43.26959,"lon":5.38631,"is_reserved":false,"is_disabled":false,"rental_uris":{"android":"levelo://app?vid=5e43d9b3-6d4a-407c-a9f8-e8f2e4dc0db3","ios":"levelo://app?vid=5e43d9b3-6d4a-407c-a9f8-e8f2e4dc0db3"},"vehicle_type_id":"4","last_reported":1729120137,"current_range_meters":34800,"station_id":"ce4bhh92rcd13ifvqfh0","pricing_plan_id":"cebpf4jnsgd1na2vs0mg"},{"bike_id":"a8dce093-4f1c-4ea0-b22a-79050193c3bf","system_id":"levelo_inurba_marseille","lat":43.30638,"lon":5.40076,"is_reserved":false,"is_disabled":false,"rental_uris":{"android":"levelo://app?vid=a8dce093-4f1c-4ea0-b22a-79050193c3bf","ios":"levelo://app?vid=a8dce093-4f1c-4ea0-b22a-79050193c3bf"},"vehicle_type_id":"4","last_reported":1729120137,"current_range_meters":9600,"station_id":"ce4bh112rcd13ifvqda0","pricing_plan_id":"cebpf4jnsgd1na2vs0mg"},{"bike_id":"05545084-0c06-4cb7-bb4b-6c510970601e","system_id":"levelo_inurba_marseille","lat":43.31122,"lon":5.37753,"is_reserved":false,"is_disabled":false,"rental_uris":{"android":"levelo://app?vid=05545084-0c06-4cb7-bb4b-6c510970601e","ios":"levelo://app?vid=05545084-0c06-4cb7-bb4b-6c510970601e"},"vehicle_type_id":"4","last_reported":1729120137,"current_range_meters":40000,"station_id":"ce4bgt92rcd13ifvqcg0","pricing_plan_id":"cebpf4jnsgd1na2vs0mg"},{"bike_id":"d3e02234-2473-432a-89ac-358e423cfef9","system_id":"levelo_inurba_marseille","lat":43.286676,"lon":5.36348,"is_reserved":false,"is_disabled":false,"rental_uris":{"android":"levelo://app?vid=d3e02234-2473-432a-89ac-358e423cfef9","ios":"levelo://app?vid=d3e02234-2473-432a-89ac-358e423cfef9"},"vehicle_type_id":"4","last_reported":1729120137,"current_range_meters":12800,"station_id":"ce4bhah2rcd13ifvqej0","pricing_plan_id":"cebpf4jnsgd1na2vs0mg"},{"bike_id":"c7a0e644-2914-45e2-b797-40e8921eaf65","system_id":"levelo_inurba_marseille","lat":43.287,"lon":5.37393,"is_reserved":false,"is_disabled":false,"rental_uris":{"android":"levelo://app?vid=c7a0e644-2914-45e2-b797-40e8921eaf65","ios":"levelo://app?vid=c7a0e644-2914-45e2-b797-40e8921eaf65"},"vehicle_type_id":"4","last_reported":1729120137,"current_range_meters":28800,"station_id":"ce4bh3p2rcd13ifvqdq0","pricing_plan_id":"cebpf4jnsgd1na2vs0mg"},{"bike_id":"713e0e1c-d14a-4377-b642-420d2b342bbe","system_id":"levelo_inurba_marseille","lat":43.28456,"lon":5.35884,"is_reserved":false,"is_disabled":false,"rental_uris":{"android":"levelo://app?vid=713e0e1c-d14a-4377-b642-420d2b342bbe","ios":"levelo://app?vid=713e0e1c-d14a-4377-b642-420d2b342bbe"},"vehicle_type_id":"4","last_reported":1729120137,"current_range_meters":9200,"station_id":"ce4bhah2rcd13ifvqei0","pricing_plan_id":"cebpf4jnsgd1na2vs0mg"},{"bike_id":"bdb4f070-8bae-407b-bc70-9ee3db878f96","system_id":"levelo_inurba_marseille","lat":43.24667,"lon":5.38157,"is_reserved":false,"is_disabled":false,"rental_uris":{"android":"levelo://app?vid=bdb4f070-8bae-407b-bc70-9ee3db878f96","ios":"levelo://app?vid=bdb4f070-8bae-407b-bc70-9ee3db878f96"},"vehicle_type_id":"4","last_reported":1729120137,"current_range_meters":22800,"station_id":"ce4bhih2rcd13ifvqfr0","pricing_plan_id":"cebpf4jnsgd1na2vs0mg"},{"bike_id":"a6b4578e-3cab-4bcb-ae84-333753b03084","system_id":"levelo_inurba_marseille","lat":43.2318,"lon":5.39989,"is_reserved":false,"is_disabled":false,"rental_uris":{"android":"levelo://app?vid=a6b4578e-3cab-4bcb-ae84-333753b03084","ios":"levelo://app?vid=a6b4578e-3cab-4bcb-ae84-333753b03084"},"vehicle_type_id":"4","last_reported":1729120137,"current_range_meters":38400,"station_id":"ce4bhn12rcd13ifvqgqg","pricing_plan_id":"cebpf4jnsgd1na2vs0mg"},{"bike_id":"a149fe7e-fad8-4a0f-bdc5-381fde4a6176","system_id":"levelo_inurba_marseille","lat":43.2987,"lon":5.39726,"is_reserved":false,"is_disabled":false,"rental_uris":{"android":"levelo://app?vid=a149fe7e-fad8-4a0f-bdc5-381fde4a6176","ios":"levelo://app?vid=a149fe7e-fad8-4a0f-bdc5-381fde4a6176"},"vehicle_type_id":"4","last_reported":1729120137,"current_range_meters":39200,"station_id":"ce4bh0h2rcd13ifvqd50","pricing_plan_id":"cebpf4jnsgd1na2vs0mg"},{"bike_id":"87542a63-8d63-491b-83e3-8a4c8019fce9","system_id":"levelo_inurba_marseille","lat":43.30887,"lon":5.3963,"is_reserved":false,"is_disabled":false,"rental_uris":{"android":"levelo://app?vid=87542a63-8d63-491b-83e3-8a4c8019fce9","ios":"levelo://app?vid=87542a63-8d63-491b-83e3-8a4c8019fce9"},"vehicle_type_id":"4","last_reported":1729120137,"current_range_meters":30400,"station_id":"ce4bh012rcd13ifvqcv0","pricing_plan_id":"cebpf4jnsgd1na2vs0mg"},{"bike_id":"8e8d46c3-6a96-480e-b7fd-bc578daaaec6","system_id":"levelo_inurba_marseille","lat":43.30925,"lon":5.40143,"is_reserved":false,"is_disabled":false,"rental_uris":{"android":"levelo://app?vid=8e8d46c3-6a96-480e-b7fd-bc578daaaec6","ios":"levelo://app?vid=8e8d46c3-6a96-480e-b7fd-bc578daaaec6"},"vehicle_type_id":"4","last_reported":1729120137,"current_range_meters":9200,"station_id":"ce4bgvp2rcd13ifvqct0","pricing_plan_id":"cebpf4jnsgd1na2vs0mg"},{"bike_id":"6c0cb852-8a6d-4147-92b5-d0bcf163ea0b","system_id":"levelo_inurba_marseille","lat":43.26199,"lon":5.37926,"is_reserved":false,"is_disabled":false,"rental_uris":{"android":"levelo://app?vid=6c0cb852-8a6d-4147-92b5-d0bcf163ea0b","ios":"levelo://app?vid=6c0cb852-8a6d-4147-92b5-d0bcf163ea0b"},"vehicle_type_id":"4","last_reported":1729120137,"current_range_meters":38000,"station_id":"ce4bhjp2rcd13ifvqg90","pricing_plan_id":"cebpf4jnsgd1na2vs0mg"},{"bike_id":"849d667f-a3d5-4521-83fe-4b487c716fd2","system_id":"levelo_inurba_marseille","lat":43.28702,"lon":5.39981,"is_reserved":false,"is_disabled":false,"rental_uris":{"android":"levelo://app?vid=849d667f-a3d5-4521-83fe-4b487c716fd2","ios":"levelo://app?vid=849d667f-a3d5-4521-83fe-4b487c716fd2"},"vehicle_type_id":"4","last_reported":1729120137,"current_range_meters":29600,"station_id":"ce4bho92rcd13ifvqh3g","pricing_plan_id":"cebpf4jnsgd1na2vs0mg"},{"bike_id":"faafdf6c-f564-4ef6-b6e1-54989b90e65d","system_id":"levelo_inurba_marseille","lat":43.31173,"lon":5.38715,"is_reserved":false,"is_disabled":false,"rental_uris":{"android":"levelo://app?vid=faafdf6c-f564-4ef6-b6e1-54989b90e65d","ios":"levelo://app?vid=faafdf6c-f564-4ef6-b6e1-54989b90e65d"},"vehicle_type_id":"4","last_reported":1729120137,"current_range_meters":38800,"station_id":"ce4bgv12rcd13ifvqcp0","pricing_plan_id":"cebpf4jnsgd1na2vs0mg"},{"bike_id":"51218d5a-a4cd-42ed-8091-20b8f3a2d0ca","system_id":"levelo_inurba_marseille","lat":43.28861,"lon":5.35833,"is_reserved":false,"is_disabled":false,"rental_uris":{"android":"levelo://app?vid=51218d5a-a4cd-42ed-8091-20b8f3a2d0ca","ios":"levelo://app?vid=51218d5a-a4cd-42ed-8091-20b8f3a2d0ca"},"vehicle_type_id":"4","last_reported":1729120137,"current_range_meters":16400,"station_id":"ce4bhb12rcd13ifvqem0","pricing_plan_id":"cebpf4jnsgd1na2vs0mg"},{"bike_id":"91bae32e-eacc-4bbe-816a-469e3c21f127","system_id":"levelo_inurba_marseille","lat":43.29264,"lon":5.40897,"is_reserved":false,"is_disabled":false,"rental_uris":{"android":"levelo://app?vid=91bae32e-eacc-4bbe-816a-469e3c21f127","ios":"levelo://app?vid=91bae32e-eacc-4bbe-816a-469e3c21f127"},"vehicle_type_id":"4","last_reported":1729120137,"current_range_meters":32800,"station_id":"ce4bh192rcd13ifvqdc0","pricing_plan_id":"cebpf4jnsgd1na2vs0mg"},{"bike_id":"e33ac884-db23-43f2-a98d-070fee5c013c","system_id":"levelo_inurba_marseille","lat":43.33715,"lon":5.39182,"is_reserved":false,"is_disabled":false,"rental_uris":{"android":"levelo://app?vid=e33ac884-db23-43f2-a98d-070fee5c013c","ios":"levelo://app?vid=e33ac884-db23-43f2-a98d-070fee5c013c"},"vehicle_type_id":"4","last_reported":1729120137,"current_range_meters":40000,"station_id":"ce4bhr92rcd13ifvqhsg","pricing_plan_id":"cebpf4jnsgd1na2vs0mg"},{"bike_id":"af7f2d64-17dc-42fb-a98b-46080d1d96a1","system_id":"levelo_inurba_marseille","lat":43.25728,"lon":5.41115,"is_reserved":false,"is_disabled":false,"rental_uris":{"android":"levelo://app?vid=af7f2d64-17dc-42fb-a98b-46080d1d96a1","ios":"levelo://app?vid=af7f2d64-17dc-42fb-a98b-46080d1d96a1"},"vehicle_type_id":"4","last_reported":1729120137,"current_range_meters":20400,"station_id":"ce4bhkp2rcd13ifvqgd0","pricing_plan_id":"cebpf4jnsgd1na2vs0mg"},{"bike_id":"086c83ee-e6fd-4d6d-bf3f-5d95889fb8a2","system_id":"levelo_inurba_marseille","lat":43.29273,"lon":5.40119,"is_reserved":false,"is_disabled":false,"rental_uris":{"android":"levelo://app?vid=086c83ee-e6fd-4d6d-bf3f-5d95889fb8a2","ios":"levelo://app?vid=086c83ee-e6fd-4d6d-bf3f-5d95889fb8a2"},"vehicle_type_id":"4","last_reported":1729120137,"current_range_meters":33600,"station_id":"ce4bh312rcd13ifvqdk0","pricing_plan_id":"cebpf4jnsgd1na2vs0mg"},{"bike_id":"cf082c9e-105a-45c0-87f0-9187061a40f0","system_id":"levelo_inurba_marseille","lat":43.29256,"lon":5.40915,"is_reserved":false,"is_disabled":false,"rental_uris":{"android":"levelo://app?vid=cf082c9e-105a-45c0-87f0-9187061a40f0","ios":"levelo://app?vid=cf082c9e-105a-45c0-87f0-9187061a40f0"},"vehicle_type_id":"4","last_reported":1729120137,"current_range_meters":36400,"station_id":"ce4bh192rcd13ifvqdc0","pricing_plan_id":"cebpf4jnsgd1na2vs0mg"},{"bike_id":"eb2975e6-751f-46f3-9f1c-bba14fd6b1d4","system_id":"levelo_inurba_marseille","lat":43.31164,"lon":5.38719,"is_reserved":false,"is_disabled":false,"rental_uris":{"android":"levelo://app?vid=eb2975e6-751f-46f3-9f1c-bba14fd6b1d4","ios":"levelo://app?vid=eb2975e6-751f-46f3-9f1c-bba14fd6b1d4"},"vehicle_type_id":"4","last_reported":1729120137,"current_range_meters":16000,"station_id":"ce4bgv12rcd13ifvqcp0","pricing_plan_id":"cebpf4jnsgd1na2vs0mg"},{"bike_id":"bccffad3-9e91-4d99-a249-a6d681893e09","system_id":"levelo_inurba_marseille","lat":43.29566,"lon":5.39972,"is_reserved":false,"is_disabled":false,"rental_uris":{"android":"levelo://app?vid=bccffad3-9e91-4d99-a249-a6d681893e09","ios":"levelo://app?vid=bccffad3-9e91-4d99-a249-a6d681893e09"},"vehicle_type_id":"4","last_reported":1729120137,"current_range_meters":28800,"station_id":"ce4bh312rcd13ifvqdj0","pricing_plan_id":"cebpf4jnsgd1na2vs0mg"},{"bike_id":"90263e99-d5aa-44b8-a4c8-0353aa3b308c","system_id":"levelo_inurba_marseille","lat":43.23066,"lon":5.35492,"is_reserved":false,"is_disabled":false,"rental_uris":{"android":"levelo://app?vid=90263e99-d5aa-44b8-a4c8-0353aa3b308c","ios":"levelo://app?vid=90263e99-d5aa-44b8-a4c8-0353aa3b308c"},"vehicle_type_id":"4","last_reported":1729120137,"current_range_meters":11600,"station_id":"cpo3342slgdg3j2ifvpg","pricing_plan_id":"cebpf4jnsgd1na2vs0mg"},{"bike_id":"2871640c-a4f3-4f61-a342-156b39b491e5","system_id":"levelo_inurba_marseille","lat":43.23151,"lon":5.43718,"is_reserved":false,"is_disabled":false,"rental_uris":{"android":"levelo://app?vid=2871640c-a4f3-4f61-a342-156b39b491e5","ios":"levelo://app?vid=2871640c-a4f3-4f61-a342-156b39b491e5"},"vehicle_type_id":"4","last_reported":1729120137,"current_range_meters":17200,"station_id":"ce4bhmp2rcd13ifvqgog","pricing_plan_id":"cebpf4jnsgd1na2vs0mg"},{"bike_id":"cc5599a5-2bca-4653-86ce-dddb137b5a79","system_id":"levelo_inurba_marseille","lat":43.25112,"lon":5.40327,"is_reserved":false,"is_disabled":false,"rental_uris":{"android":"levelo://app?vid=cc5599a5-2bca-4653-86ce-dddb137b5a79","ios":"levelo://app?vid=cc5599a5-2bca-4653-86ce-dddb137b5a79"},"vehicle_type_id":"4","last_reported":1729120137,"current_range_meters":24000,"station_id":"ce4bhlh2rcd13ifvqgig","pricing_plan_id":"cebpf4jnsgd1na2vs0mg"},{"bike_id":"d3457713-0e8e-4bee-ae6b-c4b8b36e8262","system_id":"levelo_inurba_marseille","lat":43.31991,"lon":5.3816,"is_reserved":false,"is_disabled":false,"rental_uris":{"android":"levelo://app?vid=d3457713-0e8e-4bee-ae6b-c4b8b36e8262","ios":"levelo://app?vid=d3457713-0e8e-4bee-ae6b-c4b8b36e8262"},"vehicle_type_id":"4","last_reported":1729120137,"current_range_meters":40000,"station_id":"ce4bhr12rcd13ifvqhpg","pricing_plan_id":"cebpf4jnsgd1na2vs0mg"},{"bike_id":"c8356f63-c63d-40f1-af3e-891940805776","system_id":"levelo_inurba_marseille","lat":43.25936,"lon":5.40903,"is_reserved":false,"is_disabled":false,"rental_uris":{"android":"levelo://app?vid=c8356f63-c63d-40f1-af3e-891940805776","ios":"levelo://app?vid=c8356f63-c63d-40f1-af3e-891940805776"},"vehicle_type_id":"4","last_reported":1729120137,"current_range_meters":30000,"station_id":"ce4bhm92rcd13ifvqglg","pricing_plan_id":"cebpf4jnsgd1na2vs0mg"},{"bike_id":"7db0ec6d-085c-4813-b3f7-84036c3560ec","system_id":"levelo_inurba_marseille","lat":43.28574,"lon":5.39497,"is_reserved":false,"is_disabled":false,"rental_uris":{"android":"levelo://app?vid=7db0ec6d-085c-4813-b3f7-84036c3560ec","ios":"levelo://app?vid=7db0ec6d-085c-4813-b3f7-84036c3560ec"},"vehicle_type_id":"4","last_reported":1729120137,"current_range_meters":24400,"station_id":"ce4bh292rcd13ifvqdg0","pricing_plan_id":"cebpf4jnsgd1na2vs0mg"},{"bike_id":"8d77eae3-f786-4047-b864-8565f1692cfc","system_id":"levelo_inurba_marseille","lat":43.27065,"lon":5.42267,"is_reserved":false,"is_disabled":false,"rental_uris":{"android":"levelo://app?vid=8d77eae3-f786-4047-b864-8565f1692cfc","ios":"levelo://app?vid=8d77eae3-f786-4047-b864-8565f1692cfc"},"vehicle_type_id":"4","last_reported":1729120137,"current_range_meters":3200,"station_id":"ce4bhk92rcd13ifvqgb0","pricing_plan_id":"cebpf4jnsgd1na2vs0mg"},{"bike_id":"c56f6937-5ef6-491d-8577-91a1972d529d","system_id":"levelo_inurba_marseille","lat":43.317,"lon":5.40463,"is_reserved":false,"is_disabled":false,"rental_uris":{"android":"levelo://app?vid=c56f6937-5ef6-491d-8577-91a1972d529d","ios":"levelo://app?vid=c56f6937-5ef6-491d-8577-91a1972d529d"},"vehicle_type_id":"4","last_reported":1729120137,"current_range_meters":16400,"station_id":"ce4bh012rcd13ifvqd00","pricing_plan_id":"cebpf4jnsgd1na2vs0mg"},{"bike_id":"fe9c7a61-b2b0-4ebc-af65-cac17d736808","system_id":"levelo_inurba_marseille","lat":43.28699,"lon":5.39985,"is_reserved":false,"is_disabled":false,"rental_uris":{"android":"levelo://app?vid=fe9c7a61-b2b0-4ebc-af65-cac17d736808","ios":"levelo://app?vid=fe9c7a61-b2b0-4ebc-af65-cac17d736808"},"vehicle_type_id":"4","last_reported":1729120137,"current_range_meters":30400,"station_id":"ce4bho92rcd13ifvqh3g","pricing_plan_id":"cebpf4jnsgd1na2vs0mg"},{"bike_id":"87c76e3b-31c5-4b27-b7b6-906003ba12bd","system_id":"levelo_inurba_marseille","lat":43.28478,"lon":5.3841,"is_reserved":false,"is_disabled":false,"rental_uris":{"android":"levelo://app?vid=87c76e3b-31c5-4b27-b7b6-906003ba12bd","ios":"levelo://app?vid=87c76e3b-31c5-4b27-b7b6-906003ba12bd"},"vehicle_type_id":"4","last_reported":1729120137,"current_range_meters":35600,"station_id":"ce4bh512rcd13ifvqe3g","pricing_plan_id":"cebpf4jnsgd1na2vs0mg"},{"bike_id":"ebb6577c-ea8b-4cc1-b954-f3473e85ae11","system_id":"levelo_inurba_marseille","lat":43.25499,"lon":5.37646,"is_reserved":false,"is_disabled":false,"rental_uris":{"android":"levelo://app?vid=ebb6577c-ea8b-4cc1-b954-f3473e85ae11","ios":"levelo://app?vid=ebb6577c-ea8b-4cc1-b954-f3473e85ae11"},"vehicle_type_id":"4","last_reported":1729120137,"current_range_meters":37600,"station_id":"ce4bhh12rcd13ifvqff0","pricing_plan_id":"cebpf4jnsgd1na2vs0mg"},{"bike_id":"f6c6dde0-891f-43ab-a799-cf6f69934fc9","system_id":"levelo_inurba_marseille","lat":43.29058,"lon":5.35912,"is_reserved":false,"is_disabled":false,"rental_uris":{"android":"levelo://app?vid=f6c6dde0-891f-43ab-a799-cf6f69934fc9","ios":"levelo://app?vid=f6c6dde0-891f-43ab-a799-cf6f69934fc9"},"vehicle_type_id":"4","last_reported":1729120137,"current_range_meters":38000,"station_id":"ce4bha92rcd13ifvqeg0","pricing_plan_id":"cebpf4jnsgd1na2vs0mg"},{"bike_id":"1ac934dc-7eba-4c90-8cce-fb3e7425e98d","system_id":"levelo_inurba_marseille","lat":43.30785,"lon":5.37656,"is_reserved":false,"is_disabled":false,"rental_uris":{"android":"levelo://app?vid=1ac934dc-7eba-4c90-8cce-fb3e7425e98d","ios":"levelo://app?vid=1ac934dc-7eba-4c90-8cce-fb3e7425e98d"},"vehicle_type_id":"4","last_reported":1729120137,"current_range_meters":36000,"station_id":"ce4bgv92rcd13ifvqcq0","pricing_plan_id":"cebpf4jnsgd1na2vs0mg"},{"bike_id":"b219a071-4953-4752-a156-a66810a00ee6","system_id":"levelo_inurba_marseille","lat":43.26554,"lon":5.37287,"is_reserved":false,"is_disabled":false,"rental_uris":{"android":"levelo://app?vid=b219a071-4953-4752-a156-a66810a00ee6","ios":"levelo://app?vid=b219a071-4953-4752-a156-a66810a00ee6"},"vehicle_type_id":"4","last_reported":1729120137,"current_range_meters":23200,"station_id":"ce4bhg12rcd13ifvqf70","pricing_plan_id":"cebpf4jnsgd1na2vs0mg"},{"bike_id":"b5b99623-414d-4eb1-b427-c0178ad49012","system_id":"levelo_inurba_marseille","lat":43.25717,"lon":5.41115,"is_reserved":false,"is_disabled":false,"rental_uris":{"android":"levelo://app?vid=b5b99623-414d-4eb1-b427-c0178ad49012","ios":"levelo://app?vid=b5b99623-414d-4eb1-b427-c0178ad49012"},"vehicle_type_id":"4","last_reported":1729120137,"current_range_meters":37600,"station_id":"ce4bhkp2rcd13ifvqgd0","pricing_plan_id":"cebpf4jnsgd1na2vs0mg"},{"bike_id":"8a2124ac-5422-4960-bd68-1bcb8591b5b6","system_id":"levelo_inurba_marseille","lat":43.246662,"lon":5.381614,"is_reserved":false,"is_disabled":false,"rental_uris":{"android":"levelo://app?vid=8a2124ac-5422-4960-bd68-1bcb8591b5b6","ios":"levelo://app?vid=8a2124ac-5422-4960-bd68-1bcb8591b5b6"},"vehicle_type_id":"4","last_reported":1729120137,"current_range_meters":30800,"station_id":"ce4bhih2rcd13ifvqfr0","pricing_plan_id":"cebpf4jnsgd1na2vs0mg"},{"bike_id":"fa7bbdc9-afbe-404d-8676-647037cc76a9","system_id":"levelo_inurba_marseille","lat":43.23183,"lon":5.35547,"is_reserved":false,"is_disabled":false,"rental_uris":{"android":"levelo://app?vid=fa7bbdc9-afbe-404d-8676-647037cc76a9","ios":"levelo://app?vid=fa7bbdc9-afbe-404d-8676-647037cc76a9"},"vehicle_type_id":"4","last_reported":1729120137,"current_range_meters":36800,"station_id":"ce4bhu92rcd13ifvqi70","pricing_plan_id":"cebpf4jnsgd1na2vs0mg"},{"bike_id":"c72a80b3-732b-4352-9c21-737d91286679","system_id":"levelo_inurba_marseille","lat":43.28565,"lon":5.39494,"is_reserved":false,"is_disabled":false,"rental_uris":{"android":"levelo://app?vid=c72a80b3-732b-4352-9c21-737d91286679","ios":"levelo://app?vid=c72a80b3-732b-4352-9c21-737d91286679"},"vehicle_type_id":"4","last_reported":1729120137,"current_range_meters":34000,"station_id":"ce4bh292rcd13ifvqdg0","pricing_plan_id":"cebpf4jnsgd1na2vs0mg"},{"bike_id":"931ad2f4-35ea-42b5-bc1a-1fdec477398a","system_id":"levelo_inurba_marseille","lat":43.337444,"lon":5.374475,"is_reserved":false,"is_disabled":false,"rental_uris":{"android":"levelo://app?vid=931ad2f4-35ea-42b5-bc1a-1fdec477398a","ios":"levelo://app?vid=931ad2f4-35ea-42b5-bc1a-1fdec477398a"},"vehicle_type_id":"4","last_reported":1729120137,"current_range_meters":36400,"station_id":"","pricing_plan_id":"cebpf4jnsgd1na2vs0mg"},{"bike_id":"7b9fe451-7a11-474c-9063-21c15b0c577b","system_id":"levelo_inurba_marseille","lat":43.30206,"lon":5.39464,"is_reserved":false,"is_disabled":false,"rental_uris":{"android":"levelo://app?vid=7b9fe451-7a11-474c-9063-21c15b0c577b","ios":"levelo://app?vid=7b9fe451-7a11-474c-9063-21c15b0c577b"},"vehicle_type_id":"4","last_reported":1729120137,"current_range_meters":38800,"station_id":"ce4bh0p2rcd13ifvqd70","pricing_plan_id":"cebpf4jnsgd1na2vs0mg"},{"bike_id":"89e45b8b-dc82-4018-a313-5f868c8711f0","system_id":"levelo_inurba_marseille","lat":43.33613,"lon":5.41036,"is_reserved":false,"is_disabled":false,"rental_uris":{"android":"levelo://app?vid=89e45b8b-dc82-4018-a313-5f868c8711f0","ios":"levelo://app?vid=89e45b8b-dc82-4018-a313-5f868c8711f0"},"vehicle_type_id":"4","last_reported":1729120137,"current_range_meters":40000,"station_id":"ce4bhqh2rcd13ifvqhmg","pricing_plan_id":"cebpf4jnsgd1na2vs0mg"},{"bike_id":"543b5141-f53c-4d1c-b6b6-b150adf52504","system_id":"levelo_inurba_marseille","lat":43.31173,"lon":5.38716,"is_reserved":false,"is_disabled":false,"rental_uris":{"android":"levelo://app?vid=543b5141-f53c-4d1c-b6b6-b150adf52504","ios":"levelo://app?vid=543b5141-f53c-4d1c-b6b6-b150adf52504"},"vehicle_type_id":"4","last_reported":1729120137,"current_range_meters":26000,"station_id":"ce4bgv12rcd13ifvqcp0","pricing_plan_id":"cebpf4jnsgd1na2vs0mg"},{"bike_id":"0a0670db-b874-441e-acee-24140b51ffca","system_id":"levelo_inurba_marseille","lat":43.28428,"lon":5.39202,"is_reserved":false,"is_disabled":false,"rental_uris":{"android":"levelo://app?vid=0a0670db-b874-441e-acee-24140b51ffca","ios":"levelo://app?vid=0a0670db-b874-441e-acee-24140b51ffca"},"vehicle_type_id":"4","last_reported":1729120137,"current_range_meters":38800,"station_id":"ce4bhoh2rcd13ifvqh5g","pricing_plan_id":"cebpf4jnsgd1na2vs0mg"},{"bike_id":"45457f1e-35ec-442c-8026-18efc435cb6c","system_id":"levelo_inurba_marseille","lat":43.2872,"lon":5.39985,"is_reserved":false,"is_disabled":false,"rental_uris":{"android":"levelo://app?vid=45457f1e-35ec-442c-8026-18efc435cb6c","ios":"levelo://app?vid=45457f1e-35ec-442c-8026-18efc435cb6c"},"vehicle_type_id":"4","last_reported":1729120137,"current_range_meters":28800,"station_id":"ce4bho92rcd13ifvqh3g","pricing_plan_id":"cebpf4jnsgd1na2vs0mg"},{"bike_id":"81e32d4e-df25-4349-90c7-1831752870c9","system_id":"levelo_inurba_marseille","lat":43.27933,"lon":5.41046,"is_reserved":false,"is_disabled":false,"rental_uris":{"android":"levelo://app?vid=81e32d4e-df25-4349-90c7-1831752870c9","ios":"levelo://app?vid=81e32d4e-df25-4349-90c7-1831752870c9"},"vehicle_type_id":"4","last_reported":1729120137,"current_range_meters":32400,"station_id":"ce4bhnp2rcd13ifvqh0g","pricing_plan_id":"cebpf4jnsgd1na2vs0mg"},{"bike_id":"8c1ec6cb-2291-4814-837b-be8625c706f3","system_id":"levelo_inurba_marseille","lat":43.23197,"lon":5.3555,"is_reserved":false,"is_disabled":false,"rental_uris":{"android":"levelo://app?vid=8c1ec6cb-2291-4814-837b-be8625c706f3","ios":"levelo://app?vid=8c1ec6cb-2291-4814-837b-be8625c706f3"},"vehicle_type_id":"4","last_reported":1729120137,"current_range_meters":38800,"station_id":"ce4bhu92rcd13ifvqi70","pricing_plan_id":"cebpf4jnsgd1na2vs0mg"},{"bike_id":"a396408c-fa95-4f68-9664-eff40a16440a","system_id":"levelo_inurba_marseille","lat":43.304688,"lon":5.379094,"is_reserved":false,"is_disabled":false,"rental_uris":{"android":"levelo://app?vid=a396408c-fa95-4f68-9664-eff40a16440a","ios":"levelo://app?vid=a396408c-fa95-4f68-9664-eff40a16440a"},"vehicle_type_id":"4","last_reported":1729120137,"current_range_meters":22000,"station_id":"ce4bgup2rcd13ifvqcn0","pricing_plan_id":"cebpf4jnsgd1na2vs0mg"},{"bike_id":"da25335c-2765-4f27-b99f-8564868115cc","system_id":"levelo_inurba_marseille","lat":43.29275,"lon":5.40122,"is_reserved":false,"is_disabled":false,"rental_uris":{"android":"levelo://app?vid=da25335c-2765-4f27-b99f-8564868115cc","ios":"levelo://app?vid=da25335c-2765-4f27-b99f-8564868115cc"},"vehicle_type_id":"4","last_reported":1729120137,"current_range_meters":10800,"station_id":"ce4bh312rcd13ifvqdk0","pricing_plan_id":"cebpf4jnsgd1na2vs0mg"},{"bike_id":"8cd9a0be-5e98-4d55-a4ec-d164ab97f55f","system_id":"levelo_inurba_marseille","lat":43.3199,"lon":5.38149,"is_reserved":false,"is_disabled":false,"rental_uris":{"android":"levelo://app?vid=8cd9a0be-5e98-4d55-a4ec-d164ab97f55f","ios":"levelo://app?vid=8cd9a0be-5e98-4d55-a4ec-d164ab97f55f"},"vehicle_type_id":"4","last_reported":1729120137,"current_range_meters":15200,"station_id":"ce4bhr12rcd13ifvqhpg","pricing_plan_id":"cebpf4jnsgd1na2vs0mg"},{"bike_id":"6aad7b35-09a3-4656-912f-91689d5fb051","system_id":"levelo_inurba_marseille","lat":43.26211,"lon":5.37934,"is_reserved":false,"is_disabled":false,"rental_uris":{"android":"levelo://app?vid=6aad7b35-09a3-4656-912f-91689d5fb051","ios":"levelo://app?vid=6aad7b35-09a3-4656-912f-91689d5fb051"},"vehicle_type_id":"4","last_reported":1729120137,"current_range_meters":25600,"station_id":"ce4bhjp2rcd13ifvqg90","pricing_plan_id":"cebpf4jnsgd1na2vs0mg"},{"bike_id":"88e5ccf0-a5fb-4a08-93a6-23b524d570e8","system_id":"levelo_inurba_marseille","lat":43.30204,"lon":5.38946,"is_reserved":false,"is_disabled":false,"rental_uris":{"android":"levelo://app?vid=88e5ccf0-a5fb-4a08-93a6-23b524d570e8","ios":"levelo://app?vid=88e5ccf0-a5fb-4a08-93a6-23b524d570e8"},"vehicle_type_id":"4","last_reported":1729120137,"current_range_meters":8400,"station_id":"ce4bh392rcd13ifvqdm0","pricing_plan_id":"cebpf4jnsgd1na2vs0mg"},{"bike_id":"db810d77-ca6d-4491-b176-96ce95bcc9bc","system_id":"levelo_inurba_marseille","lat":43.25727,"lon":5.41103,"is_reserved":false,"is_disabled":false,"rental_uris":{"android":"levelo://app?vid=db810d77-ca6d-4491-b176-96ce95bcc9bc","ios":"levelo://app?vid=db810d77-ca6d-4491-b176-96ce95bcc9bc"},"vehicle_type_id":"4","last_reported":1729120137,"current_range_meters":38000,"station_id":"ce4bhkp2rcd13ifvqgd0","pricing_plan_id":"cebpf4jnsgd1na2vs0mg"},{"bike_id":"c02f842a-f0c7-4310-b5bd-a3d42ba74564","system_id":"levelo_inurba_marseille","lat":43.31068,"lon":5.38345,"is_reserved":false,"is_disabled":false,"rental_uris":{"android":"levelo://app?vid=c02f842a-f0c7-4310-b5bd-a3d42ba74564","ios":"levelo://app?vid=c02f842a-f0c7-4310-b5bd-a3d42ba74564"},"vehicle_type_id":"4","last_reported":1729120137,"current_range_meters":38800,"station_id":"ce4bgv92rcd13ifvqcr0","pricing_plan_id":"cebpf4jnsgd1na2vs0mg"},{"bike_id":"4dff3f2d-8f80-481e-a769-c8fed23ab2fa","system_id":"levelo_inurba_marseille","lat":43.26198,"lon":5.37928,"is_reserved":false,"is_disabled":false,"rental_uris":{"android":"levelo://app?vid=4dff3f2d-8f80-481e-a769-c8fed23ab2fa","ios":"levelo://app?vid=4dff3f2d-8f80-481e-a769-c8fed23ab2fa"},"vehicle_type_id":"4","last_reported":1729120137,"current_range_meters":22800,"station_id":"ce4bhjp2rcd13ifvqg90","pricing_plan_id":"cebpf4jnsgd1na2vs0mg"},{"bike_id":"2d3ed27a-f7ed-4429-affd-6349b92ad9ac","system_id":"levelo_inurba_marseille","lat":43.27893,"lon":5.38015,"is_reserved":false,"is_disabled":false,"rental_uris":{"android":"levelo://app?vid=2d3ed27a-f7ed-4429-affd-6349b92ad9ac","ios":"levelo://app?vid=2d3ed27a-f7ed-4429-affd-6349b92ad9ac"},"vehicle_type_id":"4","last_reported":1729120137,"current_range_meters":38000,"station_id":"ce4bhf92rcd13ifvqf50","pricing_plan_id":"cebpf4jnsgd1na2vs0mg"},{"bike_id":"09ba8262-4e38-4d25-a916-fe154f2cdd71","system_id":"levelo_inurba_marseille","lat":43.28703,"lon":5.39977,"is_reserved":false,"is_disabled":false,"rental_uris":{"android":"levelo://app?vid=09ba8262-4e38-4d25-a916-fe154f2cdd71","ios":"levelo://app?vid=09ba8262-4e38-4d25-a916-fe154f2cdd71"},"vehicle_type_id":"4","last_reported":1729120137,"current_range_meters":36800,"station_id":"ce4bho92rcd13ifvqh3g","pricing_plan_id":"cebpf4jnsgd1na2vs0mg"},{"bike_id":"874494de-7452-4f47-9fec-c5ec79478035","system_id":"levelo_inurba_marseille","lat":43.23962,"lon":5.36637,"is_reserved":false,"is_disabled":false,"rental_uris":{"android":"levelo://app?vid=874494de-7452-4f47-9fec-c5ec79478035","ios":"levelo://app?vid=874494de-7452-4f47-9fec-c5ec79478035"},"vehicle_type_id":"4","last_reported":1729120137,"current_range_meters":30800,"station_id":"ce4bhi12rcd13ifvqfp0","pricing_plan_id":"cebpf4jnsgd1na2vs0mg"},{"bike_id":"d275ccb7-db3a-4232-96c4-1ade4be3a4ec","system_id":"levelo_inurba_marseille","lat":43.308,"lon":5.38158,"is_reserved":false,"is_disabled":false,"rental_uris":{"android":"levelo://app?vid=d275ccb7-db3a-4232-96c4-1ade4be3a4ec","ios":"levelo://app?vid=d275ccb7-db3a-4232-96c4-1ade4be3a4ec"},"vehicle_type_id":"4","last_reported":1729120137,"current_range_meters":37600,"station_id":"ce4bgt12rcd13ifvqce0","pricing_plan_id":"cebpf4jnsgd1na2vs0mg"},{"bike_id":"08ae83cb-f31d-469e-8b8d-1172d9f867d3","system_id":"levelo_inurba_marseille","lat":43.23963,"lon":5.36631,"is_reserved":false,"is_disabled":false,"rental_uris":{"android":"levelo://app?vid=08ae83cb-f31d-469e-8b8d-1172d9f867d3","ios":"levelo://app?vid=08ae83cb-f31d-469e-8b8d-1172d9f867d3"},"vehicle_type_id":"4","last_reported":1729120137,"current_range_meters":20000,"station_id":"ce4bhi12rcd13ifvqfp0","pricing_plan_id":"cebpf4jnsgd1na2vs0mg"},{"bike_id":"a9400308-7820-4b35-a30e-ac5b59ed3f3e","system_id":"levelo_inurba_marseille","lat":43.25122,"lon":5.40316,"is_reserved":false,"is_disabled":false,"rental_uris":{"android":"levelo://app?vid=a9400308-7820-4b35-a30e-ac5b59ed3f3e","ios":"levelo://app?vid=a9400308-7820-4b35-a30e-ac5b59ed3f3e"},"vehicle_type_id":"4","last_reported":1729120137,"current_range_meters":40000,"station_id":"ce4bhlh2rcd13ifvqgig","pricing_plan_id":"cebpf4jnsgd1na2vs0mg"},{"bike_id":"0994d7f0-fa2e-480f-b967-2b1e1b476b78","system_id":"levelo_inurba_marseille","lat":43.23191,"lon":5.35552,"is_reserved":false,"is_disabled":false,"rental_uris":{"android":"levelo://app?vid=0994d7f0-fa2e-480f-b967-2b1e1b476b78","ios":"levelo://app?vid=0994d7f0-fa2e-480f-b967-2b1e1b476b78"},"vehicle_type_id":"4","last_reported":1729120137,"current_range_meters":18000,"station_id":"ce4bhu92rcd13ifvqi70","pricing_plan_id":"cebpf4jnsgd1na2vs0mg"},{"bike_id":"d4621715-5d09-414c-8559-b87d264e65c2","system_id":"levelo_inurba_marseille","lat":43.28102,"lon":5.3784,"is_reserved":false,"is_disabled":false,"rental_uris":{"android":"levelo://app?vid=d4621715-5d09-414c-8559-b87d264e65c2","ios":"levelo://app?vid=d4621715-5d09-414c-8559-b87d264e65c2"},"vehicle_type_id":"4","last_reported":1729120137,"current_range_meters":36400,"station_id":"ce4bha12rcd13ifvqee0","pricing_plan_id":"cebpf4jnsgd1na2vs0mg"},{"bike_id":"dcedea5b-73c4-4888-b703-3d96c56f5318","system_id":"levelo_inurba_marseille","lat":43.30939,"lon":5.40144,"is_reserved":false,"is_disabled":false,"rental_uris":{"android":"levelo://app?vid=dcedea5b-73c4-4888-b703-3d96c56f5318","ios":"levelo://app?vid=dcedea5b-73c4-4888-b703-3d96c56f5318"},"vehicle_type_id":"4","last_reported":1729120137,"current_range_meters":20000,"station_id":"ce4bgvp2rcd13ifvqct0","pricing_plan_id":"cebpf4jnsgd1na2vs0mg"},{"bike_id":"66ccc46d-618e-4760-b09c-27382152bdab","system_id":"levelo_inurba_marseille","lat":43.23193,"lon":5.35543,"is_reserved":false,"is_disabled":false,"rental_uris":{"android":"levelo://app?vid=66ccc46d-618e-4760-b09c-27382152bdab","ios":"levelo://app?vid=66ccc46d-618e-4760-b09c-27382152bdab"},"vehicle_type_id":"4","last_reported":1729120137,"current_range_meters":36400,"station_id":"ce4bhu92rcd13ifvqi70","pricing_plan_id":"cebpf4jnsgd1na2vs0mg"},{"bike_id":"adbb4006-9169-42f4-ba89-837213e218e2","system_id":"levelo_inurba_marseille","lat":43.26944,"lon":5.40255,"is_reserved":false,"is_disabled":false,"rental_uris":{"android":"levelo://app?vid=adbb4006-9169-42f4-ba89-837213e218e2","ios":"levelo://app?vid=adbb4006-9169-42f4-ba89-837213e218e2"},"vehicle_type_id":"4","last_reported":1729120137,"current_range_meters":28000,"station_id":"cjm6bp8fraef2m0cb0m0","pricing_plan_id":"cebpf4jnsgd1na2vs0mg"},{"bike_id":"a073cbb3-1627-43ef-923a-3c793e1abf15","system_id":"levelo_inurba_marseille","lat":43.3088,"lon":5.39629,"is_reserved":false,"is_disabled":false,"rental_uris":{"android":"levelo://app?vid=a073cbb3-1627-43ef-923a-3c793e1abf15","ios":"levelo://app?vid=a073cbb3-1627-43ef-923a-3c793e1abf15"},"vehicle_type_id":"4","last_reported":1729120137,"current_range_meters":34800,"station_id":"ce4bh012rcd13ifvqcv0","pricing_plan_id":"cebpf4jnsgd1na2vs0mg"},{"bike_id":"8e2b0f48-ccb5-4260-b9f7-e017b8cb13de","system_id":"levelo_inurba_marseille","lat":43.28104,"lon":5.37838,"is_reserved":false,"is_disabled":false,"rental_uris":{"android":"levelo://app?vid=8e2b0f48-ccb5-4260-b9f7-e017b8cb13de","ios":"levelo://app?vid=8e2b0f48-ccb5-4260-b9f7-e017b8cb13de"},"vehicle_type_id":"4","last_reported":1729120137,"current_range_meters":38400,"station_id":"ce4bha12rcd13ifvqee0","pricing_plan_id":"cebpf4jnsgd1na2vs0mg"},{"bike_id":"2208eed6-92d9-4d46-88d0-e19a867b711f","system_id":"levelo_inurba_marseille","lat":43.30325,"lon":5.40439,"is_reserved":false,"is_disabled":false,"rental_uris":{"android":"levelo://app?vid=2208eed6-92d9-4d46-88d0-e19a867b711f","ios":"levelo://app?vid=2208eed6-92d9-4d46-88d0-e19a867b711f"},"vehicle_type_id":"4","last_reported":1729120137,"current_range_meters":38800,"station_id":"ce4bh012rcd13ifvqd10","pricing_plan_id":"cebpf4jnsgd1na2vs0mg"},{"bike_id":"3217dae9-794c-4d02-8696-cd25ba0d10fa","system_id":"levelo_inurba_marseille","lat":43.30417,"lon":5.41292,"is_reserved":false,"is_disabled":false,"rental_uris":{"android":"levelo://app?vid=3217dae9-794c-4d02-8696-cd25ba0d10fa","ios":"levelo://app?vid=3217dae9-794c-4d02-8696-cd25ba0d10fa"},"vehicle_type_id":"4","last_reported":1729120137,"current_range_meters":38800,"station_id":"ce4bhop2rcd13ifvqh8g","pricing_plan_id":"cebpf4jnsgd1na2vs0mg"},{"bike_id":"f35bf8c9-6a46-43c9-8d4f-2819ae217681","system_id":"levelo_inurba_marseille","lat":43.32659,"lon":5.40996,"is_reserved":false,"is_disabled":false,"rental_uris":{"android":"levelo://app?vid=f35bf8c9-6a46-43c9-8d4f-2819ae217681","ios":"levelo://app?vid=f35bf8c9-6a46-43c9-8d4f-2819ae217681"},"vehicle_type_id":"4","last_reported":1729120137,"current_range_meters":20000,"station_id":"ce4bhpp2rcd13ifvqhgg","pricing_plan_id":"cebpf4jnsgd1na2vs0mg"},{"bike_id":"f64d87dd-e9f5-40b3-9fce-ab56b783abeb","system_id":"levelo_inurba_marseille","lat":43.31167,"lon":5.38717,"is_reserved":false,"is_disabled":false,"rental_uris":{"android":"levelo://app?vid=f64d87dd-e9f5-40b3-9fce-ab56b783abeb","ios":"levelo://app?vid=f64d87dd-e9f5-40b3-9fce-ab56b783abeb"},"vehicle_type_id":"4","last_reported":1729120137,"current_range_meters":32400,"station_id":"ce4bgv12rcd13ifvqcp0","pricing_plan_id":"cebpf4jnsgd1na2vs0mg"},{"bike_id":"30404aca-08a3-4264-987a-aa6acb1f5cf1","system_id":"levelo_inurba_marseille","lat":43.25936,"lon":5.409,"is_reserved":false,"is_disabled":false,"rental_uris":{"android":"levelo://app?vid=30404aca-08a3-4264-987a-aa6acb1f5cf1","ios":"levelo://app?vid=30404aca-08a3-4264-987a-aa6acb1f5cf1"},"vehicle_type_id":"4","last_reported":1729120137,"current_range_meters":24400,"station_id":"ce4bhm92rcd13ifvqglg","pricing_plan_id":"cebpf4jnsgd1na2vs0mg"},{"bike_id":"64300fe9-1131-424a-b9a3-638bb5781faa","system_id":"levelo_inurba_marseille","lat":43.31276,"lon":5.40159,"is_reserved":false,"is_disabled":false,"rental_uris":{"android":"levelo://app?vid=64300fe9-1131-424a-b9a3-638bb5781faa","ios":"levelo://app?vid=64300fe9-1131-424a-b9a3-638bb5781faa"},"vehicle_type_id":"4","last_reported":1729120137,"current_range_meters":11200,"station_id":"ce4bh092rcd13ifvqd30","pricing_plan_id":"cebpf4jnsgd1na2vs0mg"},{"bike_id":"6300df2c-b9fe-4275-916d-dd75e59140c9","system_id":"levelo_inurba_marseille","lat":43.2319,"lon":5.35543,"is_reserved":false,"is_disabled":false,"rental_uris":{"android":"levelo://app?vid=6300df2c-b9fe-4275-916d-dd75e59140c9","ios":"levelo://app?vid=6300df2c-b9fe-4275-916d-dd75e59140c9"},"vehicle_type_id":"4","last_reported":1729120137,"current_range_meters":36400,"station_id":"ce4bhu92rcd13ifvqi70","pricing_plan_id":"cebpf4jnsgd1na2vs0mg"},{"bike_id":"f9dcef24-46bb-48b7-adaf-938d3db7b7f1","system_id":"levelo_inurba_marseille","lat":43.30889,"lon":5.3719,"is_reserved":false,"is_disabled":false,"rental_uris":{"android":"levelo://app?vid=f9dcef24-46bb-48b7-adaf-938d3db7b7f1","ios":"levelo://app?vid=f9dcef24-46bb-48b7-adaf-938d3db7b7f1"},"vehicle_type_id":"4","last_reported":1729120137,"current_range_meters":18000,"station_id":"ce4bguh2rcd13ifvqckg","pricing_plan_id":"cebpf4jnsgd1na2vs0mg"},{"bike_id":"6d56330f-5e73-42d5-b4b2-2b0523e4e635","system_id":"levelo_inurba_marseille","lat":43.27937,"lon":5.410429,"is_reserved":false,"is_disabled":false,"rental_uris":{"android":"levelo://app?vid=6d56330f-5e73-42d5-b4b2-2b0523e4e635","ios":"levelo://app?vid=6d56330f-5e73-42d5-b4b2-2b0523e4e635"},"vehicle_type_id":"4","last_reported":1729120137,"current_range_meters":20000,"station_id":"ce4bhnp2rcd13ifvqh0g","pricing_plan_id":"cebpf4jnsgd1na2vs0mg"},{"bike_id":"613c8ae3-a799-410f-92ce-3bf349e7941d","system_id":"levelo_inurba_marseille","lat":43.25092,"lon":5.39515,"is_reserved":false,"is_disabled":false,"rental_uris":{"android":"levelo://app?vid=613c8ae3-a799-410f-92ce-3bf349e7941d","ios":"levelo://app?vid=613c8ae3-a799-410f-92ce-3bf349e7941d"},"vehicle_type_id":"4","last_reported":1729120137,"current_range_meters":39200,"station_id":"ce4bhm12rcd13ifvqgkg","pricing_plan_id":"cebpf4jnsgd1na2vs0mg"},{"bike_id":"f57a1134-2f9e-4ac3-ba09-645288304c6f","system_id":"levelo_inurba_marseille","lat":43.29898,"lon":5.43666,"is_reserved":false,"is_disabled":false,"rental_uris":{"android":"levelo://app?vid=f57a1134-2f9e-4ac3-ba09-645288304c6f","ios":"levelo://app?vid=f57a1134-2f9e-4ac3-ba09-645288304c6f"},"vehicle_type_id":"4","last_reported":1729120137,"current_range_meters":38000,"station_id":"ce4bhpp2rcd13ifvqhfg","pricing_plan_id":"cebpf4jnsgd1na2vs0mg"},{"bike_id":"c57aae9a-3542-4a2f-8bb2-558da61afdaf","system_id":"levelo_inurba_marseille","lat":43.30257,"lon":5.40057,"is_reserved":false,"is_disabled":false,"rental_uris":{"android":"levelo://app?vid=c57aae9a-3542-4a2f-8bb2-558da61afdaf","ios":"levelo://app?vid=c57aae9a-3542-4a2f-8bb2-558da61afdaf"},"vehicle_type_id":"4","last_reported":1729120137,"current_range_meters":38000,"station_id":"ce4bgvh2rcd13ifvqcs0","pricing_plan_id":"cebpf4jnsgd1na2vs0mg"},{"bike_id":"cd26ba12-f665-4e80-b30d-fa818267c67a","system_id":"levelo_inurba_marseille","lat":43.25121,"lon":5.40319,"is_reserved":false,"is_disabled":false,"rental_uris":{"android":"levelo://app?vid=cd26ba12-f665-4e80-b30d-fa818267c67a","ios":"levelo://app?vid=cd26ba12-f665-4e80-b30d-fa818267c67a"},"vehicle_type_id":"4","last_reported":1729120137,"current_range_meters":24800,"station_id":"ce4bhlh2rcd13ifvqgig","pricing_plan_id":"cebpf4jnsgd1na2vs0mg"},{"bike_id":"d291fb23-0c90-4ef4-8b5b-d7e0c37c96db","system_id":"levelo_inurba_marseille","lat":43.30331,"lon":5.40431,"is_reserved":false,"is_disabled":false,"rental_uris":{"android":"levelo://app?vid=d291fb23-0c90-4ef4-8b5b-d7e0c37c96db","ios":"levelo://app?vid=d291fb23-0c90-4ef4-8b5b-d7e0c37c96db"},"vehicle_type_id":"4","last_reported":1729120137,"current_range_meters":37600,"station_id":"ce4bh012rcd13ifvqd10","pricing_plan_id":"cebpf4jnsgd1na2vs0mg"},{"bike_id":"de0b7dfc-54b2-4640-8457-3c332d3a3bf9","system_id":"levelo_inurba_marseille","lat":43.30645,"lon":5.40089,"is_reserved":false,"is_disabled":false,"rental_uris":{"android":"levelo://app?vid=de0b7dfc-54b2-4640-8457-3c332d3a3bf9","ios":"levelo://app?vid=de0b7dfc-54b2-4640-8457-3c332d3a3bf9"},"vehicle_type_id":"4","last_reported":1729120137,"current_range_meters":28400,"station_id":"ce4bh112rcd13ifvqda0","pricing_plan_id":"cebpf4jnsgd1na2vs0mg"},{"bike_id":"22150343-e19c-494e-95a4-269e317a2422","system_id":"levelo_inurba_marseille","lat":43.2887,"lon":5.39309,"is_reserved":false,"is_disabled":false,"rental_uris":{"android":"levelo://app?vid=22150343-e19c-494e-95a4-269e317a2422","ios":"levelo://app?vid=22150343-e19c-494e-95a4-269e317a2422"},"vehicle_type_id":"4","last_reported":1729120137,"current_range_meters":39200,"station_id":"ce4bh2p2rcd13ifvqdi0","pricing_plan_id":"cebpf4jnsgd1na2vs0mg"},{"bike_id":"76a04350-7aae-4d41-9e62-24112822e72c","system_id":"levelo_inurba_marseille","lat":43.29963,"lon":5.4133,"is_reserved":false,"is_disabled":false,"rental_uris":{"android":"levelo://app?vid=76a04350-7aae-4d41-9e62-24112822e72c","ios":"levelo://app?vid=76a04350-7aae-4d41-9e62-24112822e72c"},"vehicle_type_id":"4","last_reported":1729120137,"current_range_meters":38800,"station_id":"ce4bhp12rcd13ifvqh9g","pricing_plan_id":"cebpf4jnsgd1na2vs0mg"},{"bike_id":"5f817fb6-ffca-4ef5-86eb-c765e037de5b","system_id":"levelo_inurba_marseille","lat":43.2695,"lon":5.4025,"is_reserved":false,"is_disabled":false,"rental_uris":{"android":"levelo://app?vid=5f817fb6-ffca-4ef5-86eb-c765e037de5b","ios":"levelo://app?vid=5f817fb6-ffca-4ef5-86eb-c765e037de5b"},"vehicle_type_id":"4","last_reported":1729120137,"current_range_meters":19200,"station_id":"cjm6bp8fraef2m0cb0m0","pricing_plan_id":"cebpf4jnsgd1na2vs0mg"},{"bike_id":"0c2973fe-e0bf-4d3e-a5a9-913bc93310e6","system_id":"levelo_inurba_marseille","lat":43.2873,"lon":5.36074,"is_reserved":false,"is_disabled":false,"rental_uris":{"android":"levelo://app?vid=0c2973fe-e0bf-4d3e-a5a9-913bc93310e6","ios":"levelo://app?vid=0c2973fe-e0bf-4d3e-a5a9-913bc93310e6"},"vehicle_type_id":"4","last_reported":1729120137,"current_range_meters":24800,"station_id":"cki0cbj6b192h4jlfktg","pricing_plan_id":"cebpf4jnsgd1na2vs0mg"},{"bike_id":"7be05975-abf1-4cf0-b2a2-9c6e9d14775a","system_id":"levelo_inurba_marseille","lat":43.27553,"lon":5.38434,"is_reserved":false,"is_disabled":false,"rental_uris":{"android":"levelo://app?vid=7be05975-abf1-4cf0-b2a2-9c6e9d14775a","ios":"levelo://app?vid=7be05975-abf1-4cf0-b2a2-9c6e9d14775a"},"vehicle_type_id":"4","last_reported":1729120137,"current_range_meters":10800,"station_id":"ce4bhh92rcd13ifvqfi0","pricing_plan_id":"cebpf4jnsgd1na2vs0mg"},{"bike_id":"3ed97689-64de-44a4-8654-31563cd4203b","system_id":"levelo_inurba_marseille","lat":43.27941,"lon":5.4105,"is_reserved":false,"is_disabled":false,"rental_uris":{"android":"levelo://app?vid=3ed97689-64de-44a4-8654-31563cd4203b","ios":"levelo://app?vid=3ed97689-64de-44a4-8654-31563cd4203b"},"vehicle_type_id":"4","last_reported":1729120137,"current_range_meters":8800,"station_id":"ce4bhnp2rcd13ifvqh0g","pricing_plan_id":"cebpf4jnsgd1na2vs0mg"},{"bike_id":"94ee1443-2ca0-433e-88f9-bdbac5a159fe","system_id":"levelo_inurba_marseille","lat":43.31124,"lon":5.37759,"is_reserved":false,"is_disabled":false,"rental_uris":{"android":"levelo://app?vid=94ee1443-2ca0-433e-88f9-bdbac5a159fe","ios":"levelo://app?vid=94ee1443-2ca0-433e-88f9-bdbac5a159fe"},"vehicle_type_id":"4","last_reported":1729120137,"current_range_meters":27600,"station_id":"ce4bgt92rcd13ifvqcg0","pricing_plan_id":"cebpf4jnsgd1na2vs0mg"},{"bike_id":"2140b6a3-5118-4150-823e-9225aeb56201","system_id":"levelo_inurba_marseille","lat":43.23195,"lon":5.35547,"is_reserved":false,"is_disabled":false,"rental_uris":{"android":"levelo://app?vid=2140b6a3-5118-4150-823e-9225aeb56201","ios":"levelo://app?vid=2140b6a3-5118-4150-823e-9225aeb56201"},"vehicle_type_id":"4","last_reported":1729120137,"current_range_meters":38400,"station_id":"ce4bhu92rcd13ifvqi70","pricing_plan_id":"cebpf4jnsgd1na2vs0mg"},{"bike_id":"8f557e3a-e042-4d01-b362-455fe3912d45","system_id":"levelo_inurba_marseille","lat":43.33611,"lon":5.41026,"is_reserved":false,"is_disabled":false,"rental_uris":{"android":"levelo://app?vid=8f557e3a-e042-4d01-b362-455fe3912d45","ios":"levelo://app?vid=8f557e3a-e042-4d01-b362-455fe3912d45"},"vehicle_type_id":"4","last_reported":1729120137,"current_range_meters":40000,"station_id":"ce4bhqh2rcd13ifvqhmg","pricing_plan_id":"cebpf4jnsgd1na2vs0mg"},{"bike_id":"01e1edc1-1218-4d8f-ac0f-5ba9b7dc6357","system_id":"levelo_inurba_marseille","lat":43.29786,"lon":5.39349,"is_reserved":false,"is_disabled":false,"rental_uris":{"android":"levelo://app?vid=01e1edc1-1218-4d8f-ac0f-5ba9b7dc6357","ios":"levelo://app?vid=01e1edc1-1218-4d8f-ac0f-5ba9b7dc6357"},"vehicle_type_id":"4","last_reported":1729120137,"current_range_meters":38800,"station_id":"chh1huq6cuj3fo74tm60","pricing_plan_id":"cebpf4jnsgd1na2vs0mg"},{"bike_id":"6d3bf938-0787-415e-949c-c2324e1c36b9","system_id":"levelo_inurba_marseille","lat":43.31074,"lon":5.38354,"is_reserved":false,"is_disabled":false,"rental_uris":{"android":"levelo://app?vid=6d3bf938-0787-415e-949c-c2324e1c36b9","ios":"levelo://app?vid=6d3bf938-0787-415e-949c-c2324e1c36b9"},"vehicle_type_id":"4","last_reported":1729120137,"current_range_meters":31200,"station_id":"ce4bgv92rcd13ifvqcr0","pricing_plan_id":"cebpf4jnsgd1na2vs0mg"},{"bike_id":"64038440-7d16-488e-ba76-3dcaf2fc4cb0","system_id":"levelo_inurba_marseille","lat":43.3188,"lon":5.40733,"is_reserved":false,"is_disabled":false,"rental_uris":{"android":"levelo://app?vid=64038440-7d16-488e-ba76-3dcaf2fc4cb0","ios":"levelo://app?vid=64038440-7d16-488e-ba76-3dcaf2fc4cb0"},"vehicle_type_id":"4","last_reported":1729120137,"current_range_meters":38400,"station_id":"ce4bhq12rcd13ifvqhig","pricing_plan_id":"cebpf4jnsgd1na2vs0mg"},{"bike_id":"54f41ad6-9c2c-426d-b16c-6ba6c0f0ec05","system_id":"levelo_inurba_marseille","lat":43.2868,"lon":5.39027,"is_reserved":false,"is_disabled":false,"rental_uris":{"android":"levelo://app?vid=54f41ad6-9c2c-426d-b16c-6ba6c0f0ec05","ios":"levelo://app?vid=54f41ad6-9c2c-426d-b16c-6ba6c0f0ec05"},"vehicle_type_id":"4","last_reported":1729120137,"current_range_meters":33600,"station_id":"ce4bh0h2rcd13ifvqd50","pricing_plan_id":"cebpf4jnsgd1na2vs0mg"},{"bike_id":"ea5e655f-17be-40c7-9228-17d3eab622b7","system_id":"levelo_inurba_marseille","lat":43.23191,"lon":5.39992,"is_reserved":false,"is_disabled":false,"rental_uris":{"android":"levelo://app?vid=ea5e655f-17be-40c7-9228-17d3eab622b7","ios":"levelo://app?vid=ea5e655f-17be-40c7-9228-17d3eab622b7"},"vehicle_type_id":"4","last_reported":1729120137,"current_range_meters":38800,"station_id":"ce4bhn12rcd13ifvqgqg","pricing_plan_id":"cebpf4jnsgd1na2vs0mg"},{"bike_id":"6ebb35c2-df5b-492f-8deb-47d4baec0f74","system_id":"levelo_inurba_marseille","lat":43.25586,"lon":5.38229,"is_reserved":false,"is_disabled":false,"rental_uris":{"android":"levelo://app?vid=6ebb35c2-df5b-492f-8deb-47d4baec0f74","ios":"levelo://app?vid=6ebb35c2-df5b-492f-8deb-47d4baec0f74"},"vehicle_type_id":"4","last_reported":1729120137,"current_range_meters":39200,"station_id":"ce4bhih2rcd13ifvqfs0","pricing_plan_id":"cebpf4jnsgd1na2vs0mg"},{"bike_id":"80be08ff-304a-4329-b0df-46f6267d3ecd","system_id":"levelo_inurba_marseille","lat":43.32286,"lon":5.38272,"is_reserved":false,"is_disabled":false,"rental_uris":{"android":"levelo://app?vid=80be08ff-304a-4329-b0df-46f6267d3ecd","ios":"levelo://app?vid=80be08ff-304a-4329-b0df-46f6267d3ecd"},"vehicle_type_id":"4","last_reported":1729120137,"current_range_meters":27600,"station_id":"ce4bhr12rcd13ifvqhqg","pricing_plan_id":"cebpf4jnsgd1na2vs0mg"},{"bike_id":"640350ac-69ee-4118-a052-72396d01dfd7","system_id":"levelo_inurba_marseille","lat":43.24385,"lon":5.37055,"is_reserved":false,"is_disabled":false,"rental_uris":{"android":"levelo://app?vid=640350ac-69ee-4118-a052-72396d01dfd7","ios":"levelo://app?vid=640350ac-69ee-4118-a052-72396d01dfd7"},"vehicle_type_id":"4","last_reported":1729120137,"current_range_meters":32800,"station_id":"ce4bhhh2rcd13ifvqfk0","pricing_plan_id":"cebpf4jnsgd1na2vs0mg"},{"bike_id":"6b4015f6-e20d-4276-86e3-41cffa5ffe2a","system_id":"levelo_inurba_marseille","lat":43.24071,"lon":5.37771,"is_reserved":false,"is_disabled":false,"rental_uris":{"android":"levelo://app?vid=6b4015f6-e20d-4276-86e3-41cffa5ffe2a","ios":"levelo://app?vid=6b4015f6-e20d-4276-86e3-41cffa5ffe2a"},"vehicle_type_id":"4","last_reported":1729120137,"current_range_meters":24000,"station_id":"ce4bhnp2rcd13ifvqgvg","pricing_plan_id":"cebpf4jnsgd1na2vs0mg"},{"bike_id":"8d56d269-4b29-48f3-afa4-2d25429a351d","system_id":"levelo_inurba_marseille","lat":43.29033,"lon":5.39969,"is_reserved":false,"is_disabled":false,"rental_uris":{"android":"levelo://app?vid=8d56d269-4b29-48f3-afa4-2d25429a351d","ios":"levelo://app?vid=8d56d269-4b29-48f3-afa4-2d25429a351d"},"vehicle_type_id":"4","last_reported":1729120137,"current_range_meters":34800,"station_id":"ce4bh392rcd13ifvqdm0","pricing_plan_id":"cebpf4jnsgd1na2vs0mg"},{"bike_id":"83bcafb6-7740-4133-8b56-4bf302222f17","system_id":"levelo_inurba_marseille","lat":43.2397,"lon":5.36626,"is_reserved":false,"is_disabled":false,"rental_uris":{"android":"levelo://app?vid=83bcafb6-7740-4133-8b56-4bf302222f17","ios":"levelo://app?vid=83bcafb6-7740-4133-8b56-4bf302222f17"},"vehicle_type_id":"4","last_reported":1729120137,"current_range_meters":7200,"station_id":"ce4bhi12rcd13ifvqfp0","pricing_plan_id":"cebpf4jnsgd1na2vs0mg"},{"bike_id":"ec6587cd-401c-4054-a6aa-db07f021b3d4","system_id":"levelo_inurba_marseille","lat":43.2844,"lon":5.39186,"is_reserved":false,"is_disabled":false,"rental_uris":{"android":"levelo://app?vid=ec6587cd-401c-4054-a6aa-db07f021b3d4","ios":"levelo://app?vid=ec6587cd-401c-4054-a6aa-db07f021b3d4"},"vehicle_type_id":"4","last_reported":1729120137,"current_range_meters":38400,"station_id":"ce4bhoh2rcd13ifvqh5g","pricing_plan_id":"cebpf4jnsgd1na2vs0mg"},{"bike_id":"3213665e-989c-4d22-9f5a-31c8522597dd","system_id":"levelo_inurba_marseille","lat":43.296,"lon":5.36142,"is_reserved":false,"is_disabled":false,"rental_uris":{"android":"levelo://app?vid=3213665e-989c-4d22-9f5a-31c8522597dd","ios":"levelo://app?vid=3213665e-989c-4d22-9f5a-31c8522597dd"},"vehicle_type_id":"4","last_reported":1729120137,"current_range_meters":30800,"station_id":"","pricing_plan_id":"cebpf4jnsgd1na2vs0mg"},{"bike_id":"85a43556-7d17-45ce-b0ba-e030bdf7e83d","system_id":"levelo_inurba_marseille","lat":43.28027,"lon":5.36968,"is_reserved":false,"is_disabled":false,"rental_uris":{"android":"levelo://app?vid=85a43556-7d17-45ce-b0ba-e030bdf7e83d","ios":"levelo://app?vid=85a43556-7d17-45ce-b0ba-e030bdf7e83d"},"vehicle_type_id":"4","last_reported":1729120137,"current_range_meters":39200,"station_id":"ce4bha12rcd13ifvqef0","pricing_plan_id":"cebpf4jnsgd1na2vs0mg"},{"bike_id":"932e2e38-c586-4ac4-8061-8f4fe5e78405","system_id":"levelo_inurba_marseille","lat":43.28436,"lon":5.39191,"is_reserved":false,"is_disabled":false,"rental_uris":{"android":"levelo://app?vid=932e2e38-c586-4ac4-8061-8f4fe5e78405","ios":"levelo://app?vid=932e2e38-c586-4ac4-8061-8f4fe5e78405"},"vehicle_type_id":"4","last_reported":1729120137,"current_range_meters":32400,"station_id":"ce4bhoh2rcd13ifvqh5g","pricing_plan_id":"cebpf4jnsgd1na2vs0mg"},{"bike_id":"ba69c766-7b52-4df2-9a01-12b1972d425e","system_id":"levelo_inurba_marseille","lat":43.33607,"lon":5.41034,"is_reserved":false,"is_disabled":false,"rental_uris":{"android":"levelo://app?vid=ba69c766-7b52-4df2-9a01-12b1972d425e","ios":"levelo://app?vid=ba69c766-7b52-4df2-9a01-12b1972d425e"},"vehicle_type_id":"4","last_reported":1729120137,"current_range_meters":37600,"station_id":"ce4bhqh2rcd13ifvqhmg","pricing_plan_id":"cebpf4jnsgd1na2vs0mg"},{"bike_id":"8880634a-1297-4c03-b9b6-85f524d5a1b8","system_id":"levelo_inurba_marseille","lat":43.30235,"lon":5.40046,"is_reserved":false,"is_disabled":false,"rental_uris":{"android":"levelo://app?vid=8880634a-1297-4c03-b9b6-85f524d5a1b8","ios":"levelo://app?vid=8880634a-1297-4c03-b9b6-85f524d5a1b8"},"vehicle_type_id":"4","last_reported":1729120137,"current_range_meters":36000,"station_id":"ce4bgvh2rcd13ifvqcs0","pricing_plan_id":"cebpf4jnsgd1na2vs0mg"},{"bike_id":"6245334c-81d8-4c5d-a4c0-abdfb1ea8d8f","system_id":"levelo_inurba_marseille","lat":43.31088,"lon":5.42427,"is_reserved":false,"is_disabled":false,"rental_uris":{"android":"levelo://app?vid=6245334c-81d8-4c5d-a4c0-abdfb1ea8d8f","ios":"levelo://app?vid=6245334c-81d8-4c5d-a4c0-abdfb1ea8d8f"},"vehicle_type_id":"4","last_reported":1729120137,"current_range_meters":6400,"station_id":"ce4bhp92rcd13ifvqhag","pricing_plan_id":"cebpf4jnsgd1na2vs0mg"},{"bike_id":"1641b826-604a-4181-8231-dca386f637a6","system_id":"levelo_inurba_marseille","lat":43.23196,"lon":5.35544,"is_reserved":false,"is_disabled":false,"rental_uris":{"android":"levelo://app?vid=1641b826-604a-4181-8231-dca386f637a6","ios":"levelo://app?vid=1641b826-604a-4181-8231-dca386f637a6"},"vehicle_type_id":"4","last_reported":1729120137,"current_range_meters":36800,"station_id":"ce4bhu92rcd13ifvqi70","pricing_plan_id":"cebpf4jnsgd1na2vs0mg"},{"bike_id":"89211ee2-076f-4df3-92bd-cd8885f2e76d","system_id":"levelo_inurba_marseille","lat":43.23193,"lon":5.35557,"is_reserved":false,"is_disabled":false,"rental_uris":{"android":"levelo://app?vid=89211ee2-076f-4df3-92bd-cd8885f2e76d","ios":"levelo://app?vid=89211ee2-076f-4df3-92bd-cd8885f2e76d"},"vehicle_type_id":"4","last_reported":1729120137,"current_range_meters":36400,"station_id":"ce4bhu92rcd13ifvqi70","pricing_plan_id":"cebpf4jnsgd1na2vs0mg"},{"bike_id":"9f889efc-42cd-4cb1-bc9a-8eb4b981bcf1","system_id":"levelo_inurba_marseille","lat":43.27827,"lon":5.39214,"is_reserved":false,"is_disabled":false,"rental_uris":{"android":"levelo://app?vid=9f889efc-42cd-4cb1-bc9a-8eb4b981bcf1","ios":"levelo://app?vid=9f889efc-42cd-4cb1-bc9a-8eb4b981bcf1"},"vehicle_type_id":"4","last_reported":1729120137,"current_range_meters":3600,"station_id":"ce4bhjp2rcd13ifvqga0","pricing_plan_id":"cebpf4jnsgd1na2vs0mg"},{"bike_id":"dc6d4244-7d8b-476a-a645-a5e7fb7ab6b2","system_id":"levelo_inurba_marseille","lat":43.28725,"lon":5.36081,"is_reserved":false,"is_disabled":false,"rental_uris":{"android":"levelo://app?vid=dc6d4244-7d8b-476a-a645-a5e7fb7ab6b2","ios":"levelo://app?vid=dc6d4244-7d8b-476a-a645-a5e7fb7ab6b2"},"vehicle_type_id":"4","last_reported":1729120137,"current_range_meters":3200,"station_id":"cki0cbj6b192h4jlfktg","pricing_plan_id":"cebpf4jnsgd1na2vs0mg"},{"bike_id":"add25e84-d14b-417d-b8f1-58f8574a0bce","system_id":"levelo_inurba_marseille","lat":43.28411,"lon":5.3752,"is_reserved":false,"is_disabled":false,"rental_uris":{"android":"levelo://app?vid=add25e84-d14b-417d-b8f1-58f8574a0bce","ios":"levelo://app?vid=add25e84-d14b-417d-b8f1-58f8574a0bce"},"vehicle_type_id":"4","last_reported":1729120137,"current_range_meters":8800,"station_id":"ce4bh412rcd13ifvqds0","pricing_plan_id":"cebpf4jnsgd1na2vs0mg"},{"bike_id":"a194f68f-2119-4e05-b45d-db07c56cb037","system_id":"levelo_inurba_marseille","lat":43.29579,"lon":5.3674,"is_reserved":false,"is_disabled":false,"rental_uris":{"android":"levelo://app?vid=a194f68f-2119-4e05-b45d-db07c56cb037","ios":"levelo://app?vid=a194f68f-2119-4e05-b45d-db07c56cb037"},"vehicle_type_id":"4","last_reported":1729120137,"current_range_meters":26800,"station_id":"ce4bgph2rcd13ifvqc2g","pricing_plan_id":"cebpf4jnsgd1na2vs0mg"},{"bike_id":"b0d32892-91f1-45ad-ba89-968a04f1b24c","system_id":"levelo_inurba_marseille","lat":43.32485,"lon":5.3657,"is_reserved":false,"is_disabled":false,"rental_uris":{"android":"levelo://app?vid=b0d32892-91f1-45ad-ba89-968a04f1b24c","ios":"levelo://app?vid=b0d32892-91f1-45ad-ba89-968a04f1b24c"},"vehicle_type_id":"4","last_reported":1729120137,"current_range_meters":38400,"station_id":"ce4bhs12rcd13ifvqhvg","pricing_plan_id":"cebpf4jnsgd1na2vs0mg"},{"bike_id":"c578b0df-8e72-4cf3-b064-b97180609dff","system_id":"levelo_inurba_marseille","lat":43.23188,"lon":5.39986,"is_reserved":false,"is_disabled":false,"rental_uris":{"android":"levelo://app?vid=c578b0df-8e72-4cf3-b064-b97180609dff","ios":"levelo://app?vid=c578b0df-8e72-4cf3-b064-b97180609dff"},"vehicle_type_id":"4","last_reported":1729120137,"current_range_meters":9200,"station_id":"ce4bhn12rcd13ifvqgqg","pricing_plan_id":"cebpf4jnsgd1na2vs0mg"},{"bike_id":"271ad3b3-7413-4e92-8118-8e153b1d3026","system_id":"levelo_inurba_marseille","lat":43.308806,"lon":5.396477,"is_reserved":false,"is_disabled":false,"rental_uris":{"android":"levelo://app?vid=271ad3b3-7413-4e92-8118-8e153b1d3026","ios":"levelo://app?vid=271ad3b3-7413-4e92-8118-8e153b1d3026"},"vehicle_type_id":"4","last_reported":1729120137,"current_range_meters":33200,"station_id":"ce4bh012rcd13ifvqcv0","pricing_plan_id":"cebpf4jnsgd1na2vs0mg"},{"bike_id":"e1ca0435-626a-4b70-a9bf-9a1427eb9221","system_id":"levelo_inurba_marseille","lat":43.32332,"lon":5.40621,"is_reserved":false,"is_disabled":false,"rental_uris":{"android":"levelo://app?vid=e1ca0435-626a-4b70-a9bf-9a1427eb9221","ios":"levelo://app?vid=e1ca0435-626a-4b70-a9bf-9a1427eb9221"},"vehicle_type_id":"4","last_reported":1729120137,"current_range_meters":16400,"station_id":"ce4bhq92rcd13ifvqhjg","pricing_plan_id":"cebpf4jnsgd1na2vs0mg"},{"bike_id":"afcc66a1-298d-483e-93e3-62b59e7df33e","system_id":"levelo_inurba_marseille","lat":43.29044,"lon":5.39976,"is_reserved":false,"is_disabled":false,"rental_uris":{"android":"levelo://app?vid=afcc66a1-298d-483e-93e3-62b59e7df33e","ios":"levelo://app?vid=afcc66a1-298d-483e-93e3-62b59e7df33e"},"vehicle_type_id":"4","last_reported":1729120137,"current_range_meters":38800,"station_id":"ce4bh392rcd13ifvqdm0","pricing_plan_id":"cebpf4jnsgd1na2vs0mg"},{"bike_id":"65a4f7fb-68f0-47e9-ac16-e9219e58dae5","system_id":"levelo_inurba_marseille","lat":43.31139,"lon":5.37764,"is_reserved":false,"is_disabled":false,"rental_uris":{"android":"levelo://app?vid=65a4f7fb-68f0-47e9-ac16-e9219e58dae5","ios":"levelo://app?vid=65a4f7fb-68f0-47e9-ac16-e9219e58dae5"},"vehicle_type_id":"4","last_reported":1729120137,"current_range_meters":40000,"station_id":"ce4bgt92rcd13ifvqcg0","pricing_plan_id":"cebpf4jnsgd1na2vs0mg"},{"bike_id":"192c150c-19e3-4208-9a94-6e32fed23c14","system_id":"levelo_inurba_marseille","lat":43.29448,"lon":5.39748,"is_reserved":false,"is_disabled":false,"rental_uris":{"android":"levelo://app?vid=192c150c-19e3-4208-9a94-6e32fed23c14","ios":"levelo://app?vid=192c150c-19e3-4208-9a94-6e32fed23c14"},"vehicle_type_id":"4","last_reported":1729120137,"current_range_meters":37600,"station_id":"ce4bh3h2rcd13ifvqdo0","pricing_plan_id":"cebpf4jnsgd1na2vs0mg"},{"bike_id":"9205b820-641c-4556-9bc3-59b828eca97c","system_id":"levelo_inurba_marseille","lat":43.31119,"lon":5.3776,"is_reserved":false,"is_disabled":false,"rental_uris":{"android":"levelo://app?vid=9205b820-641c-4556-9bc3-59b828eca97c","ios":"levelo://app?vid=9205b820-641c-4556-9bc3-59b828eca97c"},"vehicle_type_id":"4","last_reported":1729120137,"current_range_meters":12000,"station_id":"ce4bgt92rcd13ifvqcg0","pricing_plan_id":"cebpf4jnsgd1na2vs0mg"},{"bike_id":"448507d1-2887-4b00-b742-a809cd67ef32","system_id":"levelo_inurba_marseille","lat":43.315388,"lon":5.380292,"is_reserved":false,"is_disabled":false,"rental_uris":{"android":"levelo://app?vid=448507d1-2887-4b00-b742-a809cd67ef32","ios":"levelo://app?vid=448507d1-2887-4b00-b742-a809cd67ef32"},"vehicle_type_id":"4","last_reported":1729120137,"current_range_meters":16000,"station_id":"ce4bhsp2rcd13ifvqi50","pricing_plan_id":"cebpf4jnsgd1na2vs0mg"},{"bike_id":"87440bd7-4730-412f-b52f-03b263c3d6ba","system_id":"levelo_inurba_marseille","lat":43.2319,"lon":5.35558,"is_reserved":false,"is_disabled":false,"rental_uris":{"android":"levelo://app?vid=87440bd7-4730-412f-b52f-03b263c3d6ba","ios":"levelo://app?vid=87440bd7-4730-412f-b52f-03b263c3d6ba"},"vehicle_type_id":"4","last_reported":1729120137,"current_range_meters":22800,"station_id":"ce4bhu92rcd13ifvqi70","pricing_plan_id":"cebpf4jnsgd1na2vs0mg"},{"bike_id":"7b98e5cd-0e82-4493-9779-29528e876c23","system_id":"levelo_inurba_marseille","lat":43.3117,"lon":5.38718,"is_reserved":false,"is_disabled":false,"rental_uris":{"android":"levelo://app?vid=7b98e5cd-0e82-4493-9779-29528e876c23","ios":"levelo://app?vid=7b98e5cd-0e82-4493-9779-29528e876c23"},"vehicle_type_id":"4","last_reported":1729120137,"current_range_meters":40000,"station_id":"ce4bgv12rcd13ifvqcp0","pricing_plan_id":"cebpf4jnsgd1na2vs0mg"},{"bike_id":"921b477e-15c8-4404-9f20-1758fb7015e9","system_id":"levelo_inurba_marseille","lat":43.24176,"lon":5.39733,"is_reserved":false,"is_disabled":false,"rental_uris":{"android":"levelo://app?vid=921b477e-15c8-4404-9f20-1758fb7015e9","ios":"levelo://app?vid=921b477e-15c8-4404-9f20-1758fb7015e9"},"vehicle_type_id":"4","last_reported":1729120137,"current_range_meters":27200,"station_id":"ce4bhn12rcd13ifvqgpg","pricing_plan_id":"cebpf4jnsgd1na2vs0mg"},{"bike_id":"993f7f77-2c3b-45bf-bc05-ed3e99f4b253","system_id":"levelo_inurba_marseille","lat":43.29215,"lon":5.36039,"is_reserved":false,"is_disabled":false,"rental_uris":{"android":"levelo://app?vid=993f7f77-2c3b-45bf-bc05-ed3e99f4b253","ios":"levelo://app?vid=993f7f77-2c3b-45bf-bc05-ed3e99f4b253"},"vehicle_type_id":"4","last_reported":1729120137,"current_range_meters":38800,"station_id":"ce4bhbh2rcd13ifvqeqg","pricing_plan_id":"cebpf4jnsgd1na2vs0mg"},{"bike_id":"c595ccf1-697c-49b4-a0de-96e7ec994a6c","system_id":"levelo_inurba_marseille","lat":43.31077,"lon":5.38335,"is_reserved":false,"is_disabled":false,"rental_uris":{"android":"levelo://app?vid=c595ccf1-697c-49b4-a0de-96e7ec994a6c","ios":"levelo://app?vid=c595ccf1-697c-49b4-a0de-96e7ec994a6c"},"vehicle_type_id":"4","last_reported":1729120137,"current_range_meters":35200,"station_id":"ce4bgv92rcd13ifvqcr0","pricing_plan_id":"cebpf4jnsgd1na2vs0mg"},{"bike_id":"cbc0f41c-f406-4437-b8c7-7ccab2e9a106","system_id":"levelo_inurba_marseille","lat":43.28442,"lon":5.39188,"is_reserved":false,"is_disabled":false,"rental_uris":{"android":"levelo://app?vid=cbc0f41c-f406-4437-b8c7-7ccab2e9a106","ios":"levelo://app?vid=cbc0f41c-f406-4437-b8c7-7ccab2e9a106"},"vehicle_type_id":"4","last_reported":1729120137,"current_range_meters":9600,"station_id":"ce4bhoh2rcd13ifvqh5g","pricing_plan_id":"cebpf4jnsgd1na2vs0mg"},{"bike_id":"ff96eee3-1ac8-4888-9ae7-e4b6cc8154af","system_id":"levelo_inurba_marseille","lat":43.33739,"lon":5.3746,"is_reserved":false,"is_disabled":false,"rental_uris":{"android":"levelo://app?vid=ff96eee3-1ac8-4888-9ae7-e4b6cc8154af","ios":"levelo://app?vid=ff96eee3-1ac8-4888-9ae7-e4b6cc8154af"},"vehicle_type_id":"4","last_reported":1729120137,"current_range_meters":27600,"station_id":"","pricing_plan_id":"cebpf4jnsgd1na2vs0mg"},{"bike_id":"4ce84ed3-4a9b-46da-b53e-3703c04d1049","system_id":"levelo_inurba_marseille","lat":43.28663,"lon":5.36348,"is_reserved":false,"is_disabled":false,"rental_uris":{"android":"levelo://app?vid=4ce84ed3-4a9b-46da-b53e-3703c04d1049","ios":"levelo://app?vid=4ce84ed3-4a9b-46da-b53e-3703c04d1049"},"vehicle_type_id":"4","last_reported":1729120137,"current_range_meters":16800,"station_id":"ce4bhah2rcd13ifvqej0","pricing_plan_id":"cebpf4jnsgd1na2vs0mg"},{"bike_id":"2fdcaed5-d419-4b9a-b8e4-1008e362f75e","system_id":"levelo_inurba_marseille","lat":43.28348,"lon":5.38097,"is_reserved":false,"is_disabled":false,"rental_uris":{"android":"levelo://app?vid=2fdcaed5-d419-4b9a-b8e4-1008e362f75e","ios":"levelo://app?vid=2fdcaed5-d419-4b9a-b8e4-1008e362f75e"},"vehicle_type_id":"4","last_reported":1729120137,"current_range_meters":23200,"station_id":"ce4bh412rcd13ifvqdr0","pricing_plan_id":"cebpf4jnsgd1na2vs0mg"},{"bike_id":"929d87fb-691c-4199-8e80-94f3d7b47091","system_id":"levelo_inurba_marseille","lat":43.31686,"lon":5.40459,"is_reserved":false,"is_disabled":false,"rental_uris":{"android":"levelo://app?vid=929d87fb-691c-4199-8e80-94f3d7b47091","ios":"levelo://app?vid=929d87fb-691c-4199-8e80-94f3d7b47091"},"vehicle_type_id":"4","last_reported":1729120137,"current_range_meters":25200,"station_id":"ce4bh012rcd13ifvqd00","pricing_plan_id":"cebpf4jnsgd1na2vs0mg"},{"bike_id":"49c3db25-f66c-4541-ad54-af787a8b9e0e","system_id":"levelo_inurba_marseille","lat":43.27495,"lon":5.42452,"is_reserved":false,"is_disabled":false,"rental_uris":{"android":"levelo://app?vid=49c3db25-f66c-4541-ad54-af787a8b9e0e","ios":"levelo://app?vid=49c3db25-f66c-4541-ad54-af787a8b9e0e"},"vehicle_type_id":"4","last_reported":1729120137,"current_range_meters":9200,"station_id":"ce4bhn92rcd13ifvqgrg","pricing_plan_id":"cebpf4jnsgd1na2vs0mg"},{"bike_id":"f8bf582f-eccc-472c-8d9a-0513345453f5","system_id":"levelo_inurba_marseille","lat":43.29633,"lon":5.40607,"is_reserved":false,"is_disabled":false,"rental_uris":{"android":"levelo://app?vid=f8bf582f-eccc-472c-8d9a-0513345453f5","ios":"levelo://app?vid=f8bf582f-eccc-472c-8d9a-0513345453f5"},"vehicle_type_id":"4","last_reported":1729120137,"current_range_meters":38800,"station_id":"ce4bh0h2rcd13ifvqd60","pricing_plan_id":"cebpf4jnsgd1na2vs0mg"},{"bike_id":"f05c7789-7748-4f87-a7fd-f7d3d84a55ab","system_id":"levelo_inurba_marseille","lat":43.30602,"lon":5.37219,"is_reserved":false,"is_disabled":false,"rental_uris":{"android":"levelo://app?vid=f05c7789-7748-4f87-a7fd-f7d3d84a55ab","ios":"levelo://app?vid=f05c7789-7748-4f87-a7fd-f7d3d84a55ab"},"vehicle_type_id":"4","last_reported":1729120137,"current_range_meters":16000,"station_id":"ce4bgqh2rcd13ifvqc4g","pricing_plan_id":"cebpf4jnsgd1na2vs0mg"},{"bike_id":"3b922f0e-2823-4c39-9e27-d9836eb9e938","system_id":"levelo_inurba_marseille","lat":43.30593,"lon":5.39346,"is_reserved":false,"is_disabled":false,"rental_uris":{"android":"levelo://app?vid=3b922f0e-2823-4c39-9e27-d9836eb9e938","ios":"levelo://app?vid=3b922f0e-2823-4c39-9e27-d9836eb9e938"},"vehicle_type_id":"4","last_reported":1729120137,"current_range_meters":36800,"station_id":"ce4bh0p2rcd13ifvqd80","pricing_plan_id":"cebpf4jnsgd1na2vs0mg"},{"bike_id":"a65351e3-b47e-49e0-8cbf-c0f61530276f","system_id":"levelo_inurba_marseille","lat":43.29073,"lon":5.37161,"is_reserved":false,"is_disabled":false,"rental_uris":{"android":"levelo://app?vid=a65351e3-b47e-49e0-8cbf-c0f61530276f","ios":"levelo://app?vid=a65351e3-b47e-49e0-8cbf-c0f61530276f"},"vehicle_type_id":"4","last_reported":1729120137,"current_range_meters":16800,"station_id":"ce4bh5p2rcd13ifvqe4g","pricing_plan_id":"cebpf4jnsgd1na2vs0mg"},{"bike_id":"21eae3c7-8cee-4e0e-a4b7-916747effbbf","system_id":"levelo_inurba_marseille","lat":43.28352,"lon":5.38103,"is_reserved":false,"is_disabled":false,"rental_uris":{"android":"levelo://app?vid=21eae3c7-8cee-4e0e-a4b7-916747effbbf","ios":"levelo://app?vid=21eae3c7-8cee-4e0e-a4b7-916747effbbf"},"vehicle_type_id":"4","last_reported":1729120137,"current_range_meters":38000,"station_id":"ce4bh412rcd13ifvqdr0","pricing_plan_id":"cebpf4jnsgd1na2vs0mg"},{"bike_id":"648b6b48-311f-4c42-aa8d-803f0a68a464","system_id":"levelo_inurba_marseille","lat":43.33608,"lon":5.41035,"is_reserved":false,"is_disabled":false,"rental_uris":{"android":"levelo://app?vid=648b6b48-311f-4c42-aa8d-803f0a68a464","ios":"levelo://app?vid=648b6b48-311f-4c42-aa8d-803f0a68a464"},"vehicle_type_id":"4","last_reported":1729120137,"current_range_meters":24400,"station_id":"ce4bhqh2rcd13ifvqhmg","pricing_plan_id":"cebpf4jnsgd1na2vs0mg"},{"bike_id":"cf6ce6fd-0591-4831-b59e-ad4a377cd13a","system_id":"levelo_inurba_marseille","lat":43.24177,"lon":5.39735,"is_reserved":false,"is_disabled":false,"rental_uris":{"android":"levelo://app?vid=cf6ce6fd-0591-4831-b59e-ad4a377cd13a","ios":"levelo://app?vid=cf6ce6fd-0591-4831-b59e-ad4a377cd13a"},"vehicle_type_id":"4","last_reported":1729120137,"current_range_meters":8400,"station_id":"ce4bhn12rcd13ifvqgpg","pricing_plan_id":"cebpf4jnsgd1na2vs0mg"},{"bike_id":"f45d0f2a-b4df-461e-85f4-434a21fab5ef","system_id":"levelo_inurba_marseille","lat":43.30961,"lon":5.39042,"is_reserved":false,"is_disabled":false,"rental_uris":{"android":"levelo://app?vid=f45d0f2a-b4df-461e-85f4-434a21fab5ef","ios":"levelo://app?vid=f45d0f2a-b4df-461e-85f4-434a21fab5ef"},"vehicle_type_id":"4","last_reported":1729120137,"current_range_meters":4000,"station_id":"ce4bgup2rcd13ifvqco0","pricing_plan_id":"cebpf4jnsgd1na2vs0mg"},{"bike_id":"cc5b7569-0a80-4efc-88b5-0cfec89540cb","system_id":"levelo_inurba_marseille","lat":43.27894,"lon":5.38,"is_reserved":false,"is_disabled":false,"rental_uris":{"android":"levelo://app?vid=cc5b7569-0a80-4efc-88b5-0cfec89540cb","ios":"levelo://app?vid=cc5b7569-0a80-4efc-88b5-0cfec89540cb"},"vehicle_type_id":"4","last_reported":1729120137,"current_range_meters":39200,"station_id":"ce4bhf92rcd13ifvqf50","pricing_plan_id":"cebpf4jnsgd1na2vs0mg"},{"bike_id":"bf40c61b-24bf-4127-85c3-b1b705bc2103","system_id":"levelo_inurba_marseille","lat":43.31526,"lon":5.38025,"is_reserved":false,"is_disabled":false,"rental_uris":{"android":"levelo://app?vid=bf40c61b-24bf-4127-85c3-b1b705bc2103","ios":"levelo://app?vid=bf40c61b-24bf-4127-85c3-b1b705bc2103"},"vehicle_type_id":"4","last_reported":1729120137,"current_range_meters":21600,"station_id":"ce4bhsp2rcd13ifvqi50","pricing_plan_id":"cebpf4jnsgd1na2vs0mg"},{"bike_id":"8031cdf0-96c0-401a-812c-b5eae6bc0857","system_id":"levelo_inurba_marseille","lat":43.28437,"lon":5.39183,"is_reserved":false,"is_disabled":false,"rental_uris":{"android":"levelo://app?vid=8031cdf0-96c0-401a-812c-b5eae6bc0857","ios":"levelo://app?vid=8031cdf0-96c0-401a-812c-b5eae6bc0857"},"vehicle_type_id":"4","last_reported":1729120137,"current_range_meters":34000,"station_id":"ce4bhoh2rcd13ifvqh5g","pricing_plan_id":"cebpf4jnsgd1na2vs0mg"},{"bike_id":"5f2ccaba-1424-4647-b813-d9f591616da3","system_id":"levelo_inurba_marseille","lat":43.313568,"lon":5.38495,"is_reserved":false,"is_disabled":false,"rental_uris":{"android":"levelo://app?vid=5f2ccaba-1424-4647-b813-d9f591616da3","ios":"levelo://app?vid=5f2ccaba-1424-4647-b813-d9f591616da3"},"vehicle_type_id":"4","last_reported":1729120137,"current_range_meters":34800,"station_id":"ce4bgt92rcd13ifvqcf0","pricing_plan_id":"cebpf4jnsgd1na2vs0mg"},{"bike_id":"dc1b6e17-45a6-4048-a501-2875e7336967","system_id":"levelo_inurba_marseille","lat":43.25828,"lon":5.39435,"is_reserved":false,"is_disabled":false,"rental_uris":{"android":"levelo://app?vid=dc1b6e17-45a6-4048-a501-2875e7336967","ios":"levelo://app?vid=dc1b6e17-45a6-4048-a501-2875e7336967"},"vehicle_type_id":"4","last_reported":1729120137,"current_range_meters":38800,"station_id":"ce4bhip2rcd13ifvqft0","pricing_plan_id":"cebpf4jnsgd1na2vs0mg"},{"bike_id":"292b9425-1372-40d4-bf0a-fe57aa779a41","system_id":"levelo_inurba_marseille","lat":43.23064,"lon":5.35495,"is_reserved":false,"is_disabled":false,"rental_uris":{"android":"levelo://app?vid=292b9425-1372-40d4-bf0a-fe57aa779a41","ios":"levelo://app?vid=292b9425-1372-40d4-bf0a-fe57aa779a41"},"vehicle_type_id":"4","last_reported":1729120137,"current_range_meters":26800,"station_id":"cpo3342slgdg3j2ifvpg","pricing_plan_id":"cebpf4jnsgd1na2vs0mg"},{"bike_id":"ee05f638-6df5-4391-946d-0d99cd4a4030","system_id":"levelo_inurba_marseille","lat":43.31281,"lon":5.40159,"is_reserved":false,"is_disabled":false,"rental_uris":{"android":"levelo://app?vid=ee05f638-6df5-4391-946d-0d99cd4a4030","ios":"levelo://app?vid=ee05f638-6df5-4391-946d-0d99cd4a4030"},"vehicle_type_id":"4","last_reported":1729120137,"current_range_meters":26800,"station_id":"ce4bh092rcd13ifvqd30","pricing_plan_id":"cebpf4jnsgd1na2vs0mg"},{"bike_id":"94eae76f-9257-483c-89a4-cf0ade9875e4","system_id":"levelo_inurba_marseille","lat":43.28438,"lon":5.39181,"is_reserved":false,"is_disabled":false,"rental_uris":{"android":"levelo://app?vid=94eae76f-9257-483c-89a4-cf0ade9875e4","ios":"levelo://app?vid=94eae76f-9257-483c-89a4-cf0ade9875e4"},"vehicle_type_id":"4","last_reported":1729120137,"current_range_meters":36000,"station_id":"ce4bhoh2rcd13ifvqh5g","pricing_plan_id":"cebpf4jnsgd1na2vs0mg"},{"bike_id":"8518d50a-def0-42c3-8f65-459244226eb7","system_id":"levelo_inurba_marseille","lat":43.308866,"lon":5.396401,"is_reserved":false,"is_disabled":false,"rental_uris":{"android":"levelo://app?vid=8518d50a-def0-42c3-8f65-459244226eb7","ios":"levelo://app?vid=8518d50a-def0-42c3-8f65-459244226eb7"},"vehicle_type_id":"4","last_reported":1729120137,"current_range_meters":9200,"station_id":"ce4bh012rcd13ifvqcv0","pricing_plan_id":"cebpf4jnsgd1na2vs0mg"},{"bike_id":"3948ef85-7a18-43d7-a301-aabc4c951faf","system_id":"levelo_inurba_marseille","lat":43.28698,"lon":5.37397,"is_reserved":false,"is_disabled":false,"rental_uris":{"android":"levelo://app?vid=3948ef85-7a18-43d7-a301-aabc4c951faf","ios":"levelo://app?vid=3948ef85-7a18-43d7-a301-aabc4c951faf"},"vehicle_type_id":"4","last_reported":1729120137,"current_range_meters":30400,"station_id":"ce4bh3p2rcd13ifvqdq0","pricing_plan_id":"cebpf4jnsgd1na2vs0mg"},{"bike_id":"32a580c4-53d6-43f4-8202-300b3057e660","system_id":"levelo_inurba_marseille","lat":43.284208,"lon":5.375135,"is_reserved":false,"is_disabled":false,"rental_uris":{"android":"levelo://app?vid=32a580c4-53d6-43f4-8202-300b3057e660","ios":"levelo://app?vid=32a580c4-53d6-43f4-8202-300b3057e660"},"vehicle_type_id":"4","last_reported":1729120137,"current_range_meters":3600,"station_id":"ce4bh412rcd13ifvqds0","pricing_plan_id":"cebpf4jnsgd1na2vs0mg"},{"bike_id":"dd62f9ac-80b8-463b-a6c1-7f959e633dbc","system_id":"levelo_inurba_marseille","lat":43.30239,"lon":5.40015,"is_reserved":false,"is_disabled":false,"rental_uris":{"android":"levelo://app?vid=dd62f9ac-80b8-463b-a6c1-7f959e633dbc","ios":"levelo://app?vid=dd62f9ac-80b8-463b-a6c1-7f959e633dbc"},"vehicle_type_id":"4","last_reported":1729120137,"current_range_meters":38800,"station_id":"","pricing_plan_id":"cebpf4jnsgd1na2vs0mg"},{"bike_id":"49b75a91-d34f-4cd0-a94c-376dd7b8cab3","system_id":"levelo_inurba_marseille","lat":43.27895,"lon":5.37996,"is_reserved":false,"is_disabled":false,"rental_uris":{"android":"levelo://app?vid=49b75a91-d34f-4cd0-a94c-376dd7b8cab3","ios":"levelo://app?vid=49b75a91-d34f-4cd0-a94c-376dd7b8cab3"},"vehicle_type_id":"4","last_reported":1729120137,"current_range_meters":17600,"station_id":"ce4bhf92rcd13ifvqf50","pricing_plan_id":"cebpf4jnsgd1na2vs0mg"},{"bike_id":"9ba3e93e-4e4d-4950-920c-6e9f36a6cdd6","system_id":"levelo_inurba_marseille","lat":43.27068,"lon":5.4227,"is_reserved":false,"is_disabled":false,"rental_uris":{"android":"levelo://app?vid=9ba3e93e-4e4d-4950-920c-6e9f36a6cdd6","ios":"levelo://app?vid=9ba3e93e-4e4d-4950-920c-6e9f36a6cdd6"},"vehicle_type_id":"4","last_reported":1729120137,"current_range_meters":16000,"station_id":"ce4bhk92rcd13ifvqgb0","pricing_plan_id":"cebpf4jnsgd1na2vs0mg"},{"bike_id":"9ae9ecd0-f305-4ca9-9f55-8f7a582efa50","system_id":"levelo_inurba_marseille","lat":43.269296,"lon":5.389219,"is_reserved":false,"is_disabled":false,"rental_uris":{"android":"levelo://app?vid=9ae9ecd0-f305-4ca9-9f55-8f7a582efa50","ios":"levelo://app?vid=9ae9ecd0-f305-4ca9-9f55-8f7a582efa50"},"vehicle_type_id":"4","last_reported":1729120137,"current_range_meters":32000,"station_id":"ce4bh512rcd13ifvqe3g","pricing_plan_id":"cebpf4jnsgd1na2vs0mg"},{"bike_id":"f2df68e1-d4b0-44b5-aa2d-ae13816a9202","system_id":"levelo_inurba_marseille","lat":43.28456,"lon":5.35892,"is_reserved":false,"is_disabled":false,"rental_uris":{"android":"levelo://app?vid=f2df68e1-d4b0-44b5-aa2d-ae13816a9202","ios":"levelo://app?vid=f2df68e1-d4b0-44b5-aa2d-ae13816a9202"},"vehicle_type_id":"4","last_reported":1729120137,"current_range_meters":29600,"station_id":"ce4bhah2rcd13ifvqei0","pricing_plan_id":"cebpf4jnsgd1na2vs0mg"},{"bike_id":"8f92183b-9caa-4b94-9f74-30ea384c83a2","system_id":"levelo_inurba_marseille","lat":43.25089,"lon":5.39523,"is_reserved":false,"is_disabled":false,"rental_uris":{"android":"levelo://app?vid=8f92183b-9caa-4b94-9f74-30ea384c83a2","ios":"levelo://app?vid=8f92183b-9caa-4b94-9f74-30ea384c83a2"},"vehicle_type_id":"4","last_reported":1729120137,"current_range_meters":34800,"station_id":"ce4bhm12rcd13ifvqgkg","pricing_plan_id":"cebpf4jnsgd1na2vs0mg"},{"bike_id":"6540288d-da06-44f9-96a8-10586f47ce33","system_id":"levelo_inurba_marseille","lat":43.32661,"lon":5.41002,"is_reserved":false,"is_disabled":false,"rental_uris":{"android":"levelo://app?vid=6540288d-da06-44f9-96a8-10586f47ce33","ios":"levelo://app?vid=6540288d-da06-44f9-96a8-10586f47ce33"},"vehicle_type_id":"4","last_reported":1729120137,"current_range_meters":38800,"station_id":"ce4bhpp2rcd13ifvqhgg","pricing_plan_id":"cebpf4jnsgd1na2vs0mg"},{"bike_id":"65406e49-8594-4cfa-8223-dde29203d51c","system_id":"levelo_inurba_marseille","lat":43.27374,"lon":5.36251,"is_reserved":false,"is_disabled":false,"rental_uris":{"android":"levelo://app?vid=65406e49-8594-4cfa-8223-dde29203d51c","ios":"levelo://app?vid=65406e49-8594-4cfa-8223-dde29203d51c"},"vehicle_type_id":"4","last_reported":1729120137,"current_range_meters":6400,"station_id":"ce4bhbh2rcd13ifvqeo0","pricing_plan_id":"cebpf4jnsgd1na2vs0mg"},{"bike_id":"062fd435-e62a-4678-9d8e-1fcfac65814f","system_id":"levelo_inurba_marseille","lat":43.31333,"lon":5.39689,"is_reserved":false,"is_disabled":false,"rental_uris":{"android":"levelo://app?vid=062fd435-e62a-4678-9d8e-1fcfac65814f","ios":"levelo://app?vid=062fd435-e62a-4678-9d8e-1fcfac65814f"},"vehicle_type_id":"4","last_reported":1729120137,"current_range_meters":38800,"station_id":"ce4bgvp2rcd13ifvqcu0","pricing_plan_id":"cebpf4jnsgd1na2vs0mg"},{"bike_id":"ae34c915-6c8c-45f4-bd71-c5975b0e71f4","system_id":"levelo_inurba_marseille","lat":43.31881,"lon":5.40734,"is_reserved":false,"is_disabled":false,"rental_uris":{"android":"levelo://app?vid=ae34c915-6c8c-45f4-bd71-c5975b0e71f4","ios":"levelo://app?vid=ae34c915-6c8c-45f4-bd71-c5975b0e71f4"},"vehicle_type_id":"4","last_reported":1729120137,"current_range_meters":38000,"station_id":"ce4bhq12rcd13ifvqhig","pricing_plan_id":"cebpf4jnsgd1na2vs0mg"},{"bike_id":"064bc3f1-4c7d-4e67-b0b0-c95b28fcb395","system_id":"levelo_inurba_marseille","lat":43.24083,"lon":5.3775,"is_reserved":false,"is_disabled":false,"rental_uris":{"android":"levelo://app?vid=064bc3f1-4c7d-4e67-b0b0-c95b28fcb395","ios":"levelo://app?vid=064bc3f1-4c7d-4e67-b0b0-c95b28fcb395"},"vehicle_type_id":"4","last_reported":1729120137,"current_range_meters":26000,"station_id":"ce4bhnp2rcd13ifvqgvg","pricing_plan_id":"cebpf4jnsgd1na2vs0mg"},{"bike_id":"7e022d50-fee0-48bd-8f68-64779ba65969","system_id":"levelo_inurba_marseille","lat":43.2572,"lon":5.41109,"is_reserved":false,"is_disabled":false,"rental_uris":{"android":"levelo://app?vid=7e022d50-fee0-48bd-8f68-64779ba65969","ios":"levelo://app?vid=7e022d50-fee0-48bd-8f68-64779ba65969"},"vehicle_type_id":"4","last_reported":1729120137,"current_range_meters":5600,"station_id":"ce4bhkp2rcd13ifvqgd0","pricing_plan_id":"cebpf4jnsgd1na2vs0mg"},{"bike_id":"e38fe455-6945-4317-999e-7341140a3fe7","system_id":"levelo_inurba_marseille","lat":43.28698,"lon":5.39982,"is_reserved":false,"is_disabled":false,"rental_uris":{"android":"levelo://app?vid=e38fe455-6945-4317-999e-7341140a3fe7","ios":"levelo://app?vid=e38fe455-6945-4317-999e-7341140a3fe7"},"vehicle_type_id":"4","last_reported":1729120137,"current_range_meters":32000,"station_id":"ce4bho92rcd13ifvqh3g","pricing_plan_id":"cebpf4jnsgd1na2vs0mg"},{"bike_id":"4b39118f-bb62-406b-9203-0b8ddf9c99cc","system_id":"levelo_inurba_marseille","lat":43.22934,"lon":5.35378,"is_reserved":false,"is_disabled":false,"rental_uris":{"android":"levelo://app?vid=4b39118f-bb62-406b-9203-0b8ddf9c99cc","ios":"levelo://app?vid=4b39118f-bb62-406b-9203-0b8ddf9c99cc"},"vehicle_type_id":"4","last_reported":1729120137,"current_range_meters":15200,"station_id":"cpo3532slgdg3j2ikp40","pricing_plan_id":"cebpf4jnsgd1na2vs0mg"},{"bike_id":"00a1a3c1-308f-421f-9abc-f307a7cf6cc0","system_id":"levelo_inurba_marseille","lat":43.299617,"lon":5.413265,"is_reserved":false,"is_disabled":false,"rental_uris":{"android":"levelo://app?vid=00a1a3c1-308f-421f-9abc-f307a7cf6cc0","ios":"levelo://app?vid=00a1a3c1-308f-421f-9abc-f307a7cf6cc0"},"vehicle_type_id":"4","last_reported":1729120137,"current_range_meters":38800,"station_id":"ce4bhp12rcd13ifvqh9g","pricing_plan_id":"cebpf4jnsgd1na2vs0mg"},{"bike_id":"5b3eae3d-8263-4b58-bd6e-af97afc7f6f4","system_id":"levelo_inurba_marseille","lat":43.29583,"lon":5.36744,"is_reserved":false,"is_disabled":false,"rental_uris":{"android":"levelo://app?vid=5b3eae3d-8263-4b58-bd6e-af97afc7f6f4","ios":"levelo://app?vid=5b3eae3d-8263-4b58-bd6e-af97afc7f6f4"},"vehicle_type_id":"4","last_reported":1729120137,"current_range_meters":14800,"station_id":"ce4bgph2rcd13ifvqc2g","pricing_plan_id":"cebpf4jnsgd1na2vs0mg"},{"bike_id":"15a0fb58-97fc-44a6-a470-84a4ce5fd498","system_id":"levelo_inurba_marseille","lat":43.30601,"lon":5.39357,"is_reserved":false,"is_disabled":false,"rental_uris":{"android":"levelo://app?vid=15a0fb58-97fc-44a6-a470-84a4ce5fd498","ios":"levelo://app?vid=15a0fb58-97fc-44a6-a470-84a4ce5fd498"},"vehicle_type_id":"4","last_reported":1729120137,"current_range_meters":28400,"station_id":"ce4bh0p2rcd13ifvqd80","pricing_plan_id":"cebpf4jnsgd1na2vs0mg"},{"bike_id":"f5fa6493-fc7c-42e4-b3f8-48e1a1dd711c","system_id":"levelo_inurba_marseille","lat":43.31325,"lon":5.39695,"is_reserved":false,"is_disabled":false,"rental_uris":{"android":"levelo://app?vid=f5fa6493-fc7c-42e4-b3f8-48e1a1dd711c","ios":"levelo://app?vid=f5fa6493-fc7c-42e4-b3f8-48e1a1dd711c"},"vehicle_type_id":"4","last_reported":1729120137,"current_range_meters":24400,"station_id":"ce4bgvp2rcd13ifvqcu0","pricing_plan_id":"cebpf4jnsgd1na2vs0mg"},{"bike_id":"a9d80141-cb04-4f88-bcc5-9763572e3517","system_id":"levelo_inurba_marseille","lat":43.23195,"lon":5.35546,"is_reserved":false,"is_disabled":false,"rental_uris":{"android":"levelo://app?vid=a9d80141-cb04-4f88-bcc5-9763572e3517","ios":"levelo://app?vid=a9d80141-cb04-4f88-bcc5-9763572e3517"},"vehicle_type_id":"4","last_reported":1729120137,"current_range_meters":36800,"station_id":"ce4bhu92rcd13ifvqi70","pricing_plan_id":"cebpf4jnsgd1na2vs0mg"},{"bike_id":"2c6e294c-f13d-4321-8a92-e25b2a5b65ea","system_id":"levelo_inurba_marseille","lat":43.284617,"lon":5.358962,"is_reserved":false,"is_disabled":false,"rental_uris":{"android":"levelo://app?vid=2c6e294c-f13d-4321-8a92-e25b2a5b65ea","ios":"levelo://app?vid=2c6e294c-f13d-4321-8a92-e25b2a5b65ea"},"vehicle_type_id":"4","last_reported":1729120137,"current_range_meters":38800,"station_id":"ce4bhah2rcd13ifvqei0","pricing_plan_id":"cebpf4jnsgd1na2vs0mg"},{"bike_id":"6fdc67ad-c4b0-4a6e-98ce-569a07565fa4","system_id":"levelo_inurba_marseille","lat":43.24665,"lon":5.3817,"is_reserved":false,"is_disabled":false,"rental_uris":{"android":"levelo://app?vid=6fdc67ad-c4b0-4a6e-98ce-569a07565fa4","ios":"levelo://app?vid=6fdc67ad-c4b0-4a6e-98ce-569a07565fa4"},"vehicle_type_id":"4","last_reported":1729120137,"current_range_meters":8000,"station_id":"ce4bhih2rcd13ifvqfr0","pricing_plan_id":"cebpf4jnsgd1na2vs0mg"},{"bike_id":"58fc0300-f080-417b-95f8-1703c9f98f7e","system_id":"levelo_inurba_marseille","lat":43.2951,"lon":5.36349,"is_reserved":false,"is_disabled":false,"rental_uris":{"android":"levelo://app?vid=58fc0300-f080-417b-95f8-1703c9f98f7e","ios":"levelo://app?vid=58fc0300-f080-417b-95f8-1703c9f98f7e"},"vehicle_type_id":"4","last_reported":1729120137,"current_range_meters":16800,"station_id":"","pricing_plan_id":"cebpf4jnsgd1na2vs0mg"},{"bike_id":"8dd2e3cf-bd56-4995-8abf-09c0673583de","system_id":"levelo_inurba_marseille","lat":43.28462,"lon":5.35883,"is_reserved":false,"is_disabled":false,"rental_uris":{"android":"levelo://app?vid=8dd2e3cf-bd56-4995-8abf-09c0673583de","ios":"levelo://app?vid=8dd2e3cf-bd56-4995-8abf-09c0673583de"},"vehicle_type_id":"4","last_reported":1729120137,"current_range_meters":38800,"station_id":"ce4bhah2rcd13ifvqei0","pricing_plan_id":"cebpf4jnsgd1na2vs0mg"},