{"last_updated":1704226035,"ttl":30,"version":"2.2","data":{"bikes":[{"bike_id":"93617ab3-b933-493b-90fc-f66e4d44f71f","system_id":"levelo_inurba_marseille","lat":43.31503,"lon":5.37307,"is_reserved":false,"is_disabled":false,"rental_uris":{"android":"levelo://app?vid=93617ab3-b933-493b-90fc-f66e4d44f71f","ios":"levelo://app?vid=93617ab3-b933-493b-90fc-f66e4d44f71f"},"vehicle_type_id":"4","last_reported":1704226035,"current_range_meters":0,"station_id":"ce4bgt12rcd13ifvqcd0","pricing_plan_id":"free"},{"bike_id":"b67355a2-2710-4d85-a32e-96da2e5fa644","system_id":"levelo_inurba_marseille","lat":43.305989,"lon":5.37225,"is_reserved":false,"is_disabled":false,"rental_uris":{"android":"levelo://app?vid=b67355a2-2710-4d85-a32e-96da2e5fa644","ios":"levelo://app?vid=b67355a2-2710-4d85-a32e-96da2e5fa644"},"vehicle_type_id":"4","last_reported":1704226035,"current_range_meters":16800,"station_id":"ce4bgqh2rcd13ifvqc4g","pricing_plan_id":"free"},{"bike_id":"46c55e44-38ac-4c19-9373-8a3342a01177","system_id":"levelo_inurba_marseille","lat":43.31138,"lon":5.37826,"is_reserved":false,"is_disabled":false,"rental_uris":{"android":"levelo://app?vid=46c55e44-38ac-4c19-9373-8a3342a01177","ios":"levelo://app?vid=46c55e44-38ac-4c19-9373-8a3342a01177"},"vehicle_type_id":"4","last_reported":1704226035,"current_range_meters":18000,"station_id":"","pricing_plan_id":"free"},{"bike_id":"25af9e1c-886c-4f64-92f2-5ca68e46ae4a","system_id":"levelo_inurba_marseille","lat":43.31722,"lon":5.37668,"is_reserved":false,"is_disabled":false,"rental_uris":{"android":"levelo://app?vid=25af9e1c-886c-4f64-92f2-5ca68e46ae4a","ios":"levelo://app?vid=25af9e1c-886c-4f64-92f2-5ca68e46ae4a"},"vehicle_type_id":"4","last_reported":1704226035,"current_range_meters":13200,"station_id":"","pricing_plan_id":"free"},{"bike_id":"377c8254-82f4-487c-b5e0-397493086885","system_id":"levelo_inurba_marseille","lat":43.307945,"lon":5.376487,"is_reserved":false,"is_disabled":false,"rental_uris":{"android":"levelo://app?vid=377c8254-82f4-487c-b5e0-397493086885","ios":"levelo://app?vid=377c8254-82f4-487c-b5e0-397493086885"},"vehicle_type_id":"4","last_reported":1704226035,"current_range_meters":26000,"station_id":"ce4bgv92rcd13ifvqcq0","pricing_plan_id":"free"},{"bike_id":"954d2c68-38e6-4e76-b222-3091a5da1356","system_id":"levelo_inurba_marseille","lat":43.317075,"lon":5.377367,"is_reserved":false,"is_disabled":false,"rental_uris":{"android":"levelo://app?vid=954d2c68-38e6-4e76-b222-3091a5da1356","ios":"levelo://app?vid=954d2c68-38e6-4e76-b222-3091a5da1356"},"vehicle_type_id":"4","last_reported":1704226035,"current_range_meters":4400,"station_id":"ce4bgth2rcd13ifvqch0","pricing_plan_id":"free"},{"bike_id":"a158a497-f5e0-4b42-a166-096899b92f55","system_id":"levelo_inurba_marseille","lat":43.317075,"lon":5.377367,"is_reserved":false,"is_disabled":false,"rental_uris":{"android":"levelo://app?vid=a158a497-f5e0-4b42-a166-096899b92f55","ios":"levelo://app?vid=a158a497-f5e0-4b42-a166-096899b92f55"},"vehicle_type_id":"4","last_reported":1704226035,"current_range_meters":16000,"station_id":"ce4bgth2rcd13ifvqch0","pricing_plan_id":"free"},{"bike_id":"086e6c4e-c719-4117-b81a-b622f4f7a36c","system_id":"levelo_inurba_marseille","lat":43.317075,"lon":5.377367,"is_reserved":false,"is_disabled":false,"rental_uris":{"android":"levelo://app?vid=086e6c4e-c719-4117-b81a-b622f4f7a36c","ios":"levelo://app?vid=086e6c4e-c719-4117-b81a-b622f4f7a36c"},"vehicle_type_id":"4","last_reported":1704226035,"current_range_meters":25600,"station_id":"ce4bgth2rcd13ifvqch0","pricing_plan_id":"free"},{"bike_id":"8671f309-876b-443c-a17a-efddd8fbc310","system_id":"levelo_inurba_marseille","lat":43.30304,"lon":5.368987,"is_reserved":false,"is_disabled":false,"rental_uris":{"android":"levelo://app?vid=8671f309-876b-443c-a17a-efddd8fbc310","ios":"levelo://app?vid=8671f309-876b-443c-a17a-efddd8fbc310"},"vehicle_type_id":"4","last_reported":1704226035,"current_range_meters":6800,"station_id":"ce4bgqh2rcd13ifvqc5g","pricing_plan_id":"free"},{"bike_id":"e9749590-cb61-451b-85c4-51a841592100","system_id":"levelo_inurba_marseille","lat":43.303046,"lon":5.368981,"is_reserved":false,"is_disabled":false,"rental_uris":{"android":"levelo://app?vid=e9749590-cb61-451b-85c4-51a841592100","ios":"levelo://app?vid=e9749590-cb61-451b-85c4-51a841592100"},"vehicle_type_id":"4","last_reported":1704226035,"current_range_meters":25600,"station_id":"ce4bgqh2rcd13ifvqc5g","pricing_plan_id":"free"},{"bike_id":"02d07295-65b6-4b9d-a64a-ec91c454be4f","system_id":"levelo_inurba_marseille","lat":43.301939,"lon":5.366286,"is_reserved":false,"is_disabled":false,"rental_uris":{"android":"levelo://app?vid=02d07295-65b6-4b9d-a64a-ec91c454be4f","ios":"levelo://app?vid=02d07295-65b6-4b9d-a64a-ec91c454be4f"},"vehicle_type_id":"4","last_reported":1704226035,"current_range_meters":21200,"station_id":"ce4bgrh2rcd13ifvqc8g","pricing_plan_id":"free"},{"bike_id":"7437da4f-60f9-4c4e-8610-7f28098550a8","system_id":"levelo_inurba_marseille","lat":43.301939,"lon":5.366286,"is_reserved":false,"is_disabled":false,"rental_uris":{"android":"levelo://app?vid=7437da4f-60f9-4c4e-8610-7f28098550a8","ios":"levelo://app?vid=7437da4f-60f9-4c4e-8610-7f28098550a8"},"vehicle_type_id":"4","last_reported":1704226035,"current_range_meters":30800,"station_id":"ce4bgrh2rcd13ifvqc8g","pricing_plan_id":"free"},{"bike_id":"fda865ec-3f75-4f64-9f03-d7d64edceca3","system_id":"levelo_inurba_marseille","lat":43.304606,"lon":5.379026,"is_reserved":false,"is_disabled":false,"rental_uris":{"android":"levelo://app?vid=fda865ec-3f75-4f64-9f03-d7d64edceca3","ios":"levelo://app?vid=fda865ec-3f75-4f64-9f03-d7d64edceca3"},"vehicle_type_id":"4","last_reported":1704226035,"current_range_meters":31200,"station_id":"ce4bgup2rcd13ifvqcn0","pricing_plan_id":"free"},{"bike_id":"5377074b-30e2-4d67-825b-9deb3b1dbed3","system_id":"levelo_inurba_marseille","lat":43.304708,"lon":5.379039,"is_reserved":false,"is_disabled":false,"rental_uris":{"android":"levelo://app?vid=5377074b-30e2-4d67-825b-9deb3b1dbed3","ios":"levelo://app?vid=5377074b-30e2-4d67-825b-9deb3b1dbed3"},"vehicle_type_id":"4","last_reported":1704226035,"current_range_meters":10000,"station_id":"","pricing_plan_id":"free"},{"bike_id":"fa7e78b7-c8e3-4d85-b5d0-0661d7b28b94","system_id":"levelo_inurba_marseille","lat":43.304606,"lon":5.379026,"is_reserved":false,"is_disabled":false,"rental_uris":{"android":"levelo://app?vid=fa7e78b7-c8e3-4d85-b5d0-0661d7b28b94","ios":"levelo://app?vid=fa7e78b7-c8e3-4d85-b5d0-0661d7b28b94"},"vehicle_type_id":"4","last_reported":1704226035,"current_range_meters":21200,"station_id":"ce4bgup2rcd13ifvqcn0","pricing_plan_id":"free"},{"bike_id":"4fd61088-6c40-4a9a-be8f-a9eb5ec82138","system_id":"levelo_inurba_marseille","lat":43.32005,"lon":5.38169,"is_reserved":false,"is_disabled":false,"rental_uris":{"android":"levelo://app?vid=4fd61088-6c40-4a9a-be8f-a9eb5ec82138","ios":"levelo://app?vid=4fd61088-6c40-4a9a-be8f-a9eb5ec82138"},"vehicle_type_id":"4","last_reported":1704226035,"current_range_meters":14000,"station_id":"ce4bhr12rcd13ifvqhpg","pricing_plan_id":"free"},{"bike_id":"e5573ed6-a4d6-4737-8acc-e585b57e0427","system_id":"levelo_inurba_marseille","lat":43.313571,"lon":5.384829,"is_reserved":false,"is_disabled":false,"rental_uris":{"android":"levelo://app?vid=e5573ed6-a4d6-4737-8acc-e585b57e0427","ios":"levelo://app?vid=e5573ed6-a4d6-4737-8acc-e585b57e0427"},"vehicle_type_id":"4","last_reported":1704226035,"current_range_meters":1200,"station_id":"ce4bgt92rcd13ifvqcf0","pricing_plan_id":"free"},{"bike_id":"d60c186d-8dd5-4367-932d-c10a72aed291","system_id":"levelo_inurba_marseille","lat":43.313571,"lon":5.384829,"is_reserved":false,"is_disabled":false,"rental_uris":{"android":"levelo://app?vid=d60c186d-8dd5-4367-932d-c10a72aed291","ios":"levelo://app?vid=d60c186d-8dd5-4367-932d-c10a72aed291"},"vehicle_type_id":"4","last_reported":1704226035,"current_range_meters":18000,"station_id":"ce4bgt92rcd13ifvqcf0","pricing_plan_id":"free"},{"bike_id":"a2427446-c7b0-492e-97cf-bdde94dfd9b4","system_id":"levelo_inurba_marseille","lat":43.313571,"lon":5.384829,"is_reserved":false,"is_disabled":false,"rental_uris":{"android":"levelo://app?vid=a2427446-c7b0-492e-97cf-bdde94dfd9b4","ios":"levelo://app?vid=a2427446-c7b0-492e-97cf-bdde94dfd9b4"},"vehicle_type_id":"4","last_reported":1704226035,"current_range_meters":28000,"station_id":"ce4bgt92rcd13ifvqcf0","pricing_plan_id":"free"},{"bike_id":"918b0c4f-9f90-4a33-8454-b6b062a47494","system_id":"levelo_inurba_marseille","lat":43.313571,"lon":5.384829,"is_reserved":false,"is_disabled":false,"rental_uris":{"android":"levelo://app?vid=918b0c4f-9f90-4a33-8454-b6b062a47494","ios":"levelo://app?vid=918b0c4f-9f90-4a33-8454-b6b062a47494"},"vehicle_type_id":"4","last_reported":1704226035,"current_range_meters":9200,"station_id":"ce4bgt92rcd13ifvqcf0","pricing_plan_id":"free"},{"bike_id":"17504bde-947a-4cd6-98b3-9a4c66aca99b","system_id":"levelo_inurba_marseille","lat":43.313827,"lon":5.385007,"is_reserved":false,"is_disabled":false,"rental_uris":{"android":"levelo://app?vid=17504bde-947a-4cd6-98b3-9a4c66aca99b","ios":"levelo://app?vid=17504bde-947a-4cd6-98b3-9a4c66aca99b"},"vehicle_type_id":"4","last_reported":1704226035,"current_range_meters":20000,"station_id":"ce4bgt92rcd13ifvqcf0","pricing_plan_id":"free"},{"bike_id":"ea8dd7d5-08f4-413f-bff9-8f3c1a713d75","system_id":"levelo_inurba_marseille","lat":43.313571,"lon":5.384829,"is_reserved":false,"is_disabled":false,"rental_uris":{"android":"levelo://app?vid=ea8dd7d5-08f4-413f-bff9-8f3c1a713d75","ios":"levelo://app?vid=ea8dd7d5-08f4-413f-bff9-8f3c1a713d75"},"vehicle_type_id":"4","last_reported":1704226035,"current_range_meters":1200,"station_id":"ce4bgt92rcd13ifvqcf0","pricing_plan_id":"free"},{"bike_id":"ab91c59d-cb60-4786-b67d-2957dfe43dc1","system_id":"levelo_inurba_marseille","lat":43.298433,"lon":5.362774,"is_reserved":false,"is_disabled":false,"rental_uris":{"android":"levelo://app?vid=ab91c59d-cb60-4786-b67d-2957dfe43dc1","ios":"levelo://app?vid=ab91c59d-cb60-4786-b67d-2957dfe43dc1"},"vehicle_type_id":"4","last_reported":1704226035,"current_range_meters":26400,"station_id":"ce4bgpp2rcd13ifvqc3g","pricing_plan_id":"free"},{"bike_id":"55ef0d3a-76db-43f2-a8fc-7d1979f095e7","system_id":"levelo_inurba_marseille","lat":43.311722,"lon":5.387247,"is_reserved":false,"is_disabled":false,"rental_uris":{"android":"levelo://app?vid=55ef0d3a-76db-43f2-a8fc-7d1979f095e7","ios":"levelo://app?vid=55ef0d3a-76db-43f2-a8fc-7d1979f095e7"},"vehicle_type_id":"4","last_reported":1704226035,"current_range_meters":10400,"station_id":"ce4bgv12rcd13ifvqcp0","pricing_plan_id":"free"},{"bike_id":"a860ee3b-0d14-4f2e-b915-5c86078b558a","system_id":"levelo_inurba_marseille","lat":43.311722,"lon":5.387247,"is_reserved":false,"is_disabled":false,"rental_uris":{"android":"levelo://app?vid=a860ee3b-0d14-4f2e-b915-5c86078b558a","ios":"levelo://app?vid=a860ee3b-0d14-4f2e-b915-5c86078b558a"},"vehicle_type_id":"4","last_reported":1704226035,"current_range_meters":11600,"station_id":"ce4bgv12rcd13ifvqcp0","pricing_plan_id":"free"},{"bike_id":"9e316ee8-7f02-4c13-8183-4d9c57cafd93","system_id":"levelo_inurba_marseille","lat":43.311722,"lon":5.387247,"is_reserved":false,"is_disabled":false,"rental_uris":{"android":"levelo://app?vid=9e316ee8-7f02-4c13-8183-4d9c57cafd93","ios":"levelo://app?vid=9e316ee8-7f02-4c13-8183-4d9c57cafd93"},"vehicle_type_id":"4","last_reported":1704226035,"current_range_meters":18800,"station_id":"ce4bgv12rcd13ifvqcp0","pricing_plan_id":"free"},{"bike_id":"c2e37c1a-0678-4f11-a1e2-2f3c1cf93638","system_id":"levelo_inurba_marseille","lat":43.311722,"lon":5.387247,"is_reserved":false,"is_disabled":false,"rental_uris":{"android":"levelo://app?vid=c2e37c1a-0678-4f11-a1e2-2f3c1cf93638","ios":"levelo://app?vid=c2e37c1a-0678-4f11-a1e2-2f3c1cf93638"},"vehicle_type_id":"4","last_reported":1704226035,"current_range_meters":8000,"station_id":"ce4bgv12rcd13ifvqcp0","pricing_plan_id":"free"},{"bike_id":"9108a465-9635-4eec-bd75-f8031a6d05ed","system_id":"levelo_inurba_marseille","lat":43.311722,"lon":5.387247,"is_reserved":false,"is_disabled":false,"rental_uris":{"android":"levelo://app?vid=9108a465-9635-4eec-bd75-f8031a6d05ed","ios":"levelo://app?vid=9108a465-9635-4eec-bd75-f8031a6d05ed"},"vehicle_type_id":"4","last_reported":1704226035,"current_range_meters":20000,"station_id":"ce4bgv12rcd13ifvqcp0","pricing_plan_id":"free"},{"bike_id":"32017a6d-23ea-40ad-9cae-c15467ecc4b1","system_id":"levelo_inurba_marseille","lat":43.311722,"lon":5.387247,"is_reserved":false,"is_disabled":false,"rental_uris":{"android":"levelo://app?vid=32017a6d-23ea-40ad-9cae-c15467ecc4b1","ios":"levelo://app?vid=32017a6d-23ea-40ad-9cae-c15467ecc4b1"},"vehicle_type_id":"4","last_reported":1704226035,"current_range_meters":7200,"station_id":"ce4bgv12rcd13ifvqcp0","pricing_plan_id":"free"},{"bike_id":"f629bdd7-11a7-4b7c-9182-6332f4076f6b","system_id":"levelo_inurba_marseille","lat":43.325543,"lon":5.377379,"is_reserved":false,"is_disabled":false,"rental_uris":{"android":"levelo://app?vid=f629bdd7-11a7-4b7c-9182-6332f4076f6b","ios":"levelo://app?vid=f629bdd7-11a7-4b7c-9182-6332f4076f6b"},"vehicle_type_id":"4","last_reported":1704226035,"current_range_meters":18000,"station_id":"","pricing_plan_id":"free"},{"bike_id":"926a1caf-2164-42c0-93f6-8cacf423c384","system_id":"levelo_inurba_marseille","lat":43.297794,"lon":5.370888,"is_reserved":false,"is_disabled":false,"rental_uris":{"android":"levelo://app?vid=926a1caf-2164-42c0-93f6-8cacf423c384","ios":"levelo://app?vid=926a1caf-2164-42c0-93f6-8cacf423c384"},"vehicle_type_id":"4","last_reported":1704226035,"current_range_meters":4800,"station_id":"ce4bgop2rcd13ifvqc1g","pricing_plan_id":"free"},{"bike_id":"8c6bdf02-a0f4-4369-bde2-2d78ebb33537","system_id":"levelo_inurba_marseille","lat":43.322872,"lon":5.382756,"is_reserved":false,"is_disabled":false,"rental_uris":{"android":"levelo://app?vid=8c6bdf02-a0f4-4369-bde2-2d78ebb33537","ios":"levelo://app?vid=8c6bdf02-a0f4-4369-bde2-2d78ebb33537"},"vehicle_type_id":"4","last_reported":1704226035,"current_range_meters":19600,"station_id":"ce4bhr12rcd13ifvqhqg","pricing_plan_id":"free"},{"bike_id":"8752a032-5a63-4551-8b69-590b5f45408e","system_id":"levelo_inurba_marseille","lat":43.322872,"lon":5.382756,"is_reserved":false,"is_disabled":false,"rental_uris":{"android":"levelo://app?vid=8752a032-5a63-4551-8b69-590b5f45408e","ios":"levelo://app?vid=8752a032-5a63-4551-8b69-590b5f45408e"},"vehicle_type_id":"4","last_reported":1704226035,"current_range_meters":24800,"station_id":"ce4bhr12rcd13ifvqhqg","pricing_plan_id":"free"},{"bike_id":"2b06df78-a4c1-486a-a736-ddc81ebff8e0","system_id":"levelo_inurba_marseille","lat":43.328371,"lon":5.366912,"is_reserved":false,"is_disabled":false,"rental_uris":{"android":"levelo://app?vid=2b06df78-a4c1-486a-a736-ddc81ebff8e0","ios":"levelo://app?vid=2b06df78-a4c1-486a-a736-ddc81ebff8e0"},"vehicle_type_id":"4","last_reported":1704226035,"current_range_meters":10400,"station_id":"ce4bhs92rcd13ifvqi0g","pricing_plan_id":"free"},{"bike_id":"2c34cac5-58a3-4ec6-a51a-0e680d5b2c4e","system_id":"levelo_inurba_marseille","lat":43.328371,"lon":5.366912,"is_reserved":false,"is_disabled":false,"rental_uris":{"android":"levelo://app?vid=2c34cac5-58a3-4ec6-a51a-0e680d5b2c4e","ios":"levelo://app?vid=2c34cac5-58a3-4ec6-a51a-0e680d5b2c4e"},"vehicle_type_id":"4","last_reported":1704226035,"current_range_meters":18400,"station_id":"ce4bhs92rcd13ifvqi0g","pricing_plan_id":"free"},{"bike_id":"e25879d8-1688-47e8-8a17-f3fd5e5877cc","system_id":"levelo_inurba_marseille","lat":43.328371,"lon":5.366912,"is_reserved":false,"is_disabled":false,"rental_uris":{"android":"levelo://app?vid=e25879d8-1688-47e8-8a17-f3fd5e5877cc","ios":"levelo://app?vid=e25879d8-1688-47e8-8a17-f3fd5e5877cc"},"vehicle_type_id":"4","last_reported":1704226035,"current_range_meters":9200,"station_id":"ce4bhs92rcd13ifvqi0g","pricing_plan_id":"free"},{"bike_id":"98fd740c-da1c-45aa-a4bb-91192fa701c6","system_id":"levelo_inurba_marseille","lat":43.328371,"lon":5.366912,"is_reserved":false,"is_disabled":false,"rental_uris":{"android":"levelo://app?vid=98fd740c-da1c-45aa-a4bb-91192fa701c6","ios":"levelo://app?vid=98fd740c-da1c-45aa-a4bb-91192fa701c6"},"vehicle_type_id":"4","last_reported":1704226035,"current_range_meters":10400,"station_id":"ce4bhs92rcd13ifvqi0g","pricing_plan_id":"free"},{"bike_id":"f206342c-38bc-4948-a4e1-517e8437b144","system_id":"levelo_inurba_marseille","lat":43.328371,"lon":5.366912,"is_reserved":false,"is_disabled":false,"rental_uris":{"android":"levelo://app?vid=f206342c-38bc-4948-a4e1-517e8437b144","ios":"levelo://app?vid=f206342c-38bc-4948-a4e1-517e8437b144"},"vehicle_type_id":"4","last_reported":1704226035,"current_range_meters":10800,"station_id":"ce4bhs92rcd13ifvqi0g","pricing_plan_id":"free"},{"bike_id":"370cccf7-c9ba-46c2-819b-c8e8cacc4c21","system_id":"levelo_inurba_marseille","lat":43.3277,"lon":5.37458,"is_reserved":false,"is_disabled":false,"rental_uris":{"android":"levelo://app?vid=370cccf7-c9ba-46c2-819b-c8e8cacc4c21","ios":"levelo://app?vid=370cccf7-c9ba-46c2-819b-c8e8cacc4c21"},"vehicle_type_id":"4","last_reported":1704226035,"current_range_meters":7600,"station_id":"","pricing_plan_id":"free"},{"bike_id":"89373544-1011-429c-a352-0620da4bd70a","system_id":"levelo_inurba_marseille","lat":43.296131,"lon":5.370773,"is_reserved":false,"is_disabled":false,"rental_uris":{"android":"levelo://app?vid=89373544-1011-429c-a352-0620da4bd70a","ios":"levelo://app?vid=89373544-1011-429c-a352-0620da4bd70a"},"vehicle_type_id":"4","last_reported":1704226035,"current_range_meters":23200,"station_id":"ce4bgnh2rcd13ifvqc0g","pricing_plan_id":"free"},{"bike_id":"d30892ed-fff9-452b-8e88-40c42bdd8755","system_id":"levelo_inurba_marseille","lat":43.317557,"lon":5.390173,"is_reserved":false,"is_disabled":false,"rental_uris":{"android":"levelo://app?vid=d30892ed-fff9-452b-8e88-40c42bdd8755","ios":"levelo://app?vid=d30892ed-fff9-452b-8e88-40c42bdd8755"},"vehicle_type_id":"4","last_reported":1704226035,"current_range_meters":11600,"station_id":"ce4bhqp2rcd13ifvqhng","pricing_plan_id":"free"},{"bike_id":"fe29ae51-5813-4858-8260-85c2e36e9613","system_id":"levelo_inurba_marseille","lat":43.317557,"lon":5.390173,"is_reserved":false,"is_disabled":false,"rental_uris":{"android":"levelo://app?vid=fe29ae51-5813-4858-8260-85c2e36e9613","ios":"levelo://app?vid=fe29ae51-5813-4858-8260-85c2e36e9613"},"vehicle_type_id":"4","last_reported":1704226035,"current_range_meters":25600,"station_id":"ce4bhqp2rcd13ifvqhng","pricing_plan_id":"free"},{"bike_id":"0eb73cc6-5f0c-4ec4-a733-5a219c159f57","system_id":"levelo_inurba_marseille","lat":43.317557,"lon":5.390173,"is_reserved":false,"is_disabled":false,"rental_uris":{"android":"levelo://app?vid=0eb73cc6-5f0c-4ec4-a733-5a219c159f57","ios":"levelo://app?vid=0eb73cc6-5f0c-4ec4-a733-5a219c159f57"},"vehicle_type_id":"4","last_reported":1704226035,"current_range_meters":31200,"station_id":"ce4bhqp2rcd13ifvqhng","pricing_plan_id":"free"},{"bike_id":"e9dfd98d-d24d-47aa-9523-919ae7c8a368","system_id":"levelo_inurba_marseille","lat":43.317557,"lon":5.390173,"is_reserved":false,"is_disabled":false,"rental_uris":{"android":"levelo://app?vid=e9dfd98d-d24d-47aa-9523-919ae7c8a368","ios":"levelo://app?vid=e9dfd98d-d24d-47aa-9523-919ae7c8a368"},"vehicle_type_id":"4","last_reported":1704226035,"current_range_meters":2000,"station_id":"ce4bhqp2rcd13ifvqhng","pricing_plan_id":"free"},{"bike_id":"e7ce1b90-7a6e-4b29-86e6-27abccb43c49","system_id":"levelo_inurba_marseille","lat":43.317557,"lon":5.390173,"is_reserved":false,"is_disabled":false,"rental_uris":{"android":"levelo://app?vid=e7ce1b90-7a6e-4b29-86e6-27abccb43c49","ios":"levelo://app?vid=e7ce1b90-7a6e-4b29-86e6-27abccb43c49"},"vehicle_type_id":"4","last_reported":1704226035,"current_range_meters":18400,"station_id":"ce4bhqp2rcd13ifvqhng","pricing_plan_id":"free"},{"bike_id":"36eb7fde-29db-41ad-95c0-c3370deb117c","system_id":"levelo_inurba_marseille","lat":43.317557,"lon":5.390173,"is_reserved":false,"is_disabled":false,"rental_uris":{"android":"levelo://app?vid=36eb7fde-29db-41ad-95c0-c3370deb117c","ios":"levelo://app?vid=36eb7fde-29db-41ad-95c0-c3370deb117c"},"vehicle_type_id":"4","last_reported":1704226035,"current_range_meters":24400,"station_id":"ce4bhqp2rcd13ifvqhng","pricing_plan_id":"free"},{"bike_id":"bc608074-72a5-44d7-a4af-f51d3eb87d86","system_id":"levelo_inurba_marseille","lat":43.317557,"lon":5.390173,"is_reserved":false,"is_disabled":false,"rental_uris":{"android":"levelo://app?vid=bc608074-72a5-44d7-a4af-f51d3eb87d86","ios":"levelo://app?vid=bc608074-72a5-44d7-a4af-f51d3eb87d86"},"vehicle_type_id":"4","last_reported":1704226035,"current_range_meters":22800,"station_id":"ce4bhqp2rcd13ifvqhng","pricing_plan_id":"free"},{"bike_id":"ddb8f620-eee6-447b-9f26-57a6d8a7834a","system_id":"levelo_inurba_marseille","lat":43.317557,"lon":5.390173,"is_reserved":false,"is_disabled":false,"rental_uris":{"android":"levelo://app?vid=ddb8f620-eee6-447b-9f26-57a6d8a7834a","ios":"levelo://app?vid=ddb8f620-eee6-447b-9f26-57a6d8a7834a"},"vehicle_type_id":"4","last_reported":1704226035,"current_range_meters":5600,"station_id":"ce4bhqp2rcd13ifvqhng","pricing_plan_id":"free"},{"bike_id":"6fba061a-51d3-4b1c-a1c5-403d3b01ed37","system_id":"levelo_inurba_marseille","lat":43.298037,"lon":5.381066,"is_reserved":false,"is_disabled":false,"rental_uris":{"android":"levelo://app?vid=6fba061a-51d3-4b1c-a1c5-403d3b01ed37","ios":"levelo://app?vid=6fba061a-51d3-4b1c-a1c5-403d3b01ed37"},"vehicle_type_id":"4","last_reported":1704226035,"current_range_meters":8000,"station_id":"ce4bgip2rcd13ifvqbb0","pricing_plan_id":"free"},{"bike_id":"879df0f3-e028-4682-9421-b8314683ffdd","system_id":"levelo_inurba_marseille","lat":43.304278,"lon":5.388868,"is_reserved":false,"is_disabled":false,"rental_uris":{"android":"levelo://app?vid=879df0f3-e028-4682-9421-b8314683ffdd","ios":"levelo://app?vid=879df0f3-e028-4682-9421-b8314683ffdd"},"vehicle_type_id":"4","last_reported":1704226035,"current_range_meters":16000,"station_id":"ce4bgk12rcd13ifvqbi0","pricing_plan_id":"free"},{"bike_id":"38e0d7f1-ad71-4e5c-9e70-6393bda94641","system_id":"levelo_inurba_marseille","lat":43.304274,"lon":5.388873,"is_reserved":false,"is_disabled":false,"rental_uris":{"android":"levelo://app?vid=38e0d7f1-ad71-4e5c-9e70-6393bda94641","ios":"levelo://app?vid=38e0d7f1-ad71-4e5c-9e70-6393bda94641"},"vehicle_type_id":"4","last_reported":1704226035,"current_range_meters":24000,"station_id":"ce4bgk12rcd13ifvqbi0","pricing_plan_id":"free"},{"bike_id":"05175459-7f4f-4ac1-994f-855a0551182c","system_id":"levelo_inurba_marseille","lat":43.295748,"lon":5.37522,"is_reserved":false,"is_disabled":false,"rental_uris":{"android":"levelo://app?vid=05175459-7f4f-4ac1-994f-855a0551182c","ios":"levelo://app?vid=05175459-7f4f-4ac1-994f-855a0551182c"},"vehicle_type_id":"4","last_reported":1704226035,"current_range_meters":21200,"station_id":"ce4bgh92rcd13ifvqb50","pricing_plan_id":"free"},{"bike_id":"a13771b1-0a29-4d1a-a943-c65e3acf4847","system_id":"levelo_inurba_marseille","lat":43.304278,"lon":5.388868,"is_reserved":false,"is_disabled":false,"rental_uris":{"android":"levelo://app?vid=a13771b1-0a29-4d1a-a943-c65e3acf4847","ios":"levelo://app?vid=a13771b1-0a29-4d1a-a943-c65e3acf4847"},"vehicle_type_id":"4","last_reported":1704226035,"current_range_meters":28800,"station_id":"ce4bgk12rcd13ifvqbi0","pricing_plan_id":"free"},{"bike_id":"d60802d6-4f47-444a-b234-883690eec05b","system_id":"levelo_inurba_marseille","lat":43.33062,"lon":5.3627,"is_reserved":false,"is_disabled":false,"rental_uris":{"android":"levelo://app?vid=d60802d6-4f47-444a-b234-883690eec05b","ios":"levelo://app?vid=d60802d6-4f47-444a-b234-883690eec05b"},"vehicle_type_id":"4","last_reported":1704226035,"current_range_meters":14400,"station_id":"","pricing_plan_id":"free"},{"bike_id":"f67b4ce4-0c9c-4cd2-b119-b472dfee5204","system_id":"levelo_inurba_marseille","lat":43.29538,"lon":5.375,"is_reserved":false,"is_disabled":false,"rental_uris":{"android":"levelo://app?vid=f67b4ce4-0c9c-4cd2-b119-b472dfee5204","ios":"levelo://app?vid=f67b4ce4-0c9c-4cd2-b119-b472dfee5204"},"vehicle_type_id":"4","last_reported":1704226035,"current_range_meters":20800,"station_id":"ce4bgi92rcd13ifvqb90","pricing_plan_id":"free"},{"bike_id":"7119845d-00aa-4d9f-be8c-fc97d41f1380","system_id":"levelo_inurba_marseille","lat":43.297594,"lon":5.381134,"is_reserved":false,"is_disabled":false,"rental_uris":{"android":"levelo://app?vid=7119845d-00aa-4d9f-be8c-fc97d41f1380","ios":"levelo://app?vid=7119845d-00aa-4d9f-be8c-fc97d41f1380"},"vehicle_type_id":"4","last_reported":1704226035,"current_range_meters":3200,"station_id":"ce4bgip2rcd13ifvqbb0","pricing_plan_id":"free"},{"bike_id":"987ca84c-6fce-4006-8e31-bc6a1d0dc183","system_id":"levelo_inurba_marseille","lat":43.299707,"lon":5.384859,"is_reserved":false,"is_disabled":false,"rental_uris":{"android":"levelo://app?vid=987ca84c-6fce-4006-8e31-bc6a1d0dc183","ios":"levelo://app?vid=987ca84c-6fce-4006-8e31-bc6a1d0dc183"},"vehicle_type_id":"4","last_reported":1704226035,"current_range_meters":3200,"station_id":"ce4bgj92rcd13ifvqbd0","pricing_plan_id":"free"},{"bike_id":"36416331-4b15-4ece-aa8f-33d9f9e80d61","system_id":"levelo_inurba_marseille","lat":43.299724,"lon":5.384848,"is_reserved":false,"is_disabled":false,"rental_uris":{"android":"levelo://app?vid=36416331-4b15-4ece-aa8f-33d9f9e80d61","ios":"levelo://app?vid=36416331-4b15-4ece-aa8f-33d9f9e80d61"},"vehicle_type_id":"4","last_reported":1704226035,"current_range_meters":1200,"station_id":"ce4bgj92rcd13ifvqbd0","pricing_plan_id":"free"},{"bike_id":"74a229bc-114b-4c48-b891-39a55deb7a18","system_id":"levelo_inurba_marseille","lat":43.32367,"lon":5.388836,"is_reserved":false,"is_disabled":false,"rental_uris":{"android":"levelo://app?vid=74a229bc-114b-4c48-b891-39a55deb7a18","ios":"levelo://app?vid=74a229bc-114b-4c48-b891-39a55deb7a18"},"vehicle_type_id":"4","last_reported":1704226035,"current_range_meters":24400,"station_id":"ce4bhqp2rcd13ifvqhog","pricing_plan_id":"free"},{"bike_id":"6e1cfaf3-c919-4223-a34d-ab2a56b53bd4","system_id":"levelo_inurba_marseille","lat":43.32367,"lon":5.38878,"is_reserved":false,"is_disabled":false,"rental_uris":{"android":"levelo://app?vid=6e1cfaf3-c919-4223-a34d-ab2a56b53bd4","ios":"levelo://app?vid=6e1cfaf3-c919-4223-a34d-ab2a56b53bd4"},"vehicle_type_id":"4","last_reported":1704226035,"current_range_meters":0,"station_id":"ce4bhqp2rcd13ifvqhog","pricing_plan_id":"free"},{"bike_id":"2826100b-e30d-4c47-bda3-9b8cbf3e5cf7","system_id":"levelo_inurba_marseille","lat":43.32367,"lon":5.388836,"is_reserved":false,"is_disabled":false,"rental_uris":{"android":"levelo://app?vid=2826100b-e30d-4c47-bda3-9b8cbf3e5cf7","ios":"levelo://app?vid=2826100b-e30d-4c47-bda3-9b8cbf3e5cf7"},"vehicle_type_id":"4","last_reported":1704226035,"current_range_meters":2000,"station_id":"ce4bhqp2rcd13ifvqhog","pricing_plan_id":"free"},{"bike_id":"6708a5b5-13c0-4d12-80c0-d3dd5e200e56","system_id":"levelo_inurba_marseille","lat":43.32367,"lon":5.388836,"is_reserved":false,"is_disabled":false,"rental_uris":{"android":"levelo://app?vid=6708a5b5-13c0-4d12-80c0-d3dd5e200e56","ios":"levelo://app?vid=6708a5b5-13c0-4d12-80c0-d3dd5e200e56"},"vehicle_type_id":"4","last_reported":1704226035,"current_range_meters":3600,"station_id":"ce4bhqp2rcd13ifvqhog","pricing_plan_id":"free"},{"bike_id":"2698bcfb-5314-4bbe-9831-92d2b0c2215d","system_id":"levelo_inurba_marseille","lat":43.29601,"lon":5.381084,"is_reserved":false,"is_disabled":false,"rental_uris":{"android":"levelo://app?vid=2698bcfb-5314-4bbe-9831-92d2b0c2215d","ios":"levelo://app?vid=2698bcfb-5314-4bbe-9831-92d2b0c2215d"},"vehicle_type_id":"4","last_reported":1704226035,"current_range_meters":30400,"station_id":"ce4bgl12rcd13ifvqbo0","pricing_plan_id":"free"},{"bike_id":"751437c9-51b7-493a-8bde-aef315bb98f1","system_id":"levelo_inurba_marseille","lat":43.292749,"lon":5.368402,"is_reserved":false,"is_disabled":false,"rental_uris":{"android":"levelo://app?vid=751437c9-51b7-493a-8bde-aef315bb98f1","ios":"levelo://app?vid=751437c9-51b7-493a-8bde-aef315bb98f1"},"vehicle_type_id":"4","last_reported":1704226035,"current_range_meters":3200,"station_id":"ce4bhbp2rcd13ifvqesg","pricing_plan_id":"free"},{"bike_id":"4ea7292a-e5ca-4ea4-a95e-639c5aca2b2c","system_id":"levelo_inurba_marseille","lat":43.293009,"lon":5.374584,"is_reserved":false,"is_disabled":false,"rental_uris":{"android":"levelo://app?vid=4ea7292a-e5ca-4ea4-a95e-639c5aca2b2c","ios":"levelo://app?vid=4ea7292a-e5ca-4ea4-a95e-639c5aca2b2c"},"vehicle_type_id":"4","last_reported":1704226035,"current_range_meters":27200,"station_id":"ce4bgi12rcd13ifvqb70","pricing_plan_id":"free"},{"bike_id":"098ecaf5-b95f-4039-9fc1-eea04c76efd2","system_id":"levelo_inurba_marseille","lat":43.293009,"lon":5.374584,"is_reserved":false,"is_disabled":false,"rental_uris":{"android":"levelo://app?vid=098ecaf5-b95f-4039-9fc1-eea04c76efd2","ios":"levelo://app?vid=098ecaf5-b95f-4039-9fc1-eea04c76efd2"},"vehicle_type_id":"4","last_reported":1704226035,"current_range_meters":19200,"station_id":"ce4bgi12rcd13ifvqb70","pricing_plan_id":"free"},{"bike_id":"3ffd65ad-5a01-4322-9fc4-3e05fbed3d81","system_id":"levelo_inurba_marseille","lat":43.29305,"lon":5.37476,"is_reserved":false,"is_disabled":false,"rental_uris":{"android":"levelo://app?vid=3ffd65ad-5a01-4322-9fc4-3e05fbed3d81","ios":"levelo://app?vid=3ffd65ad-5a01-4322-9fc4-3e05fbed3d81"},"vehicle_type_id":"4","last_reported":1704226035,"current_range_meters":24400,"station_id":"ce4bgi12rcd13ifvqb70","pricing_plan_id":"free"},{"bike_id":"3ef06fd7-c654-4261-a16e-9c0d440f6584","system_id":"levelo_inurba_marseille","lat":43.293009,"lon":5.374584,"is_reserved":false,"is_disabled":false,"rental_uris":{"android":"levelo://app?vid=3ef06fd7-c654-4261-a16e-9c0d440f6584","ios":"levelo://app?vid=3ef06fd7-c654-4261-a16e-9c0d440f6584"},"vehicle_type_id":"4","last_reported":1704226035,"current_range_meters":29600,"station_id":"ce4bgi12rcd13ifvqb70","pricing_plan_id":"free"},{"bike_id":"231369d1-34cb-4c81-859c-f67ace830cef","system_id":"levelo_inurba_marseille","lat":43.293009,"lon":5.374584,"is_reserved":false,"is_disabled":false,"rental_uris":{"android":"levelo://app?vid=231369d1-34cb-4c81-859c-f67ace830cef","ios":"levelo://app?vid=231369d1-34cb-4c81-859c-f67ace830cef"},"vehicle_type_id":"4","last_reported":1704226035,"current_range_meters":13600,"station_id":"ce4bgi12rcd13ifvqb70","pricing_plan_id":"free"},{"bike_id":"0c4deffb-cf46-49b5-a08e-dd2e1b6ece8a","system_id":"levelo_inurba_marseille","lat":43.293009,"lon":5.374584,"is_reserved":false,"is_disabled":false,"rental_uris":{"android":"levelo://app?vid=0c4deffb-cf46-49b5-a08e-dd2e1b6ece8a","ios":"levelo://app?vid=0c4deffb-cf46-49b5-a08e-dd2e1b6ece8a"},"vehicle_type_id":"4","last_reported":1704226035,"current_range_meters":14800,"station_id":"ce4bgi12rcd13ifvqb70","pricing_plan_id":"free"},{"bike_id":"80a51fc0-e5c8-4e35-b6dc-7224a5ef98e0","system_id":"levelo_inurba_marseille","lat":43.2936,"lon":5.37835,"is_reserved":false,"is_disabled":false,"rental_uris":{"android":"levelo://app?vid=80a51fc0-e5c8-4e35-b6dc-7224a5ef98e0","ios":"levelo://app?vid=80a51fc0-e5c8-4e35-b6dc-7224a5ef98e0"},"vehicle_type_id":"4","last_reported":1704226035,"current_range_meters":24000,"station_id":"ce4bgjh2rcd13ifvqbf0","pricing_plan_id":"free"},{"bike_id":"429d8474-1034-4820-812c-0358e6d2a2cb","system_id":"levelo_inurba_marseille","lat":43.292311,"lon":5.360731,"is_reserved":false,"is_disabled":false,"rental_uris":{"android":"levelo://app?vid=429d8474-1034-4820-812c-0358e6d2a2cb","ios":"levelo://app?vid=429d8474-1034-4820-812c-0358e6d2a2cb"},"vehicle_type_id":"4","last_reported":1704226035,"current_range_meters":29600,"station_id":"ce4bhbh2rcd13ifvqeqg","pricing_plan_id":"free"},{"bike_id":"d3ac7e85-0b7e-480d-bf21-30087ba865a2","system_id":"levelo_inurba_marseille","lat":43.300852,"lon":5.390859,"is_reserved":false,"is_disabled":false,"rental_uris":{"android":"levelo://app?vid=d3ac7e85-0b7e-480d-bf21-30087ba865a2","ios":"levelo://app?vid=d3ac7e85-0b7e-480d-bf21-30087ba865a2"},"vehicle_type_id":"4","last_reported":1704226035,"current_range_meters":24000,"station_id":"ce4bh192rcd13ifvqdb0","pricing_plan_id":"free"},{"bike_id":"d0dbeb73-3b0a-4499-b1c4-d96a0f72659e","system_id":"levelo_inurba_marseille","lat":43.300997,"lon":5.390843,"is_reserved":false,"is_disabled":false,"rental_uris":{"android":"levelo://app?vid=d0dbeb73-3b0a-4499-b1c4-d96a0f72659e","ios":"levelo://app?vid=d0dbeb73-3b0a-4499-b1c4-d96a0f72659e"},"vehicle_type_id":"4","last_reported":1704226035,"current_range_meters":400,"station_id":"ce4bh192rcd13ifvqdb0","pricing_plan_id":"free"},{"bike_id":"e15d50e5-3c3c-4ad9-bc9d-5fb9ec51a680","system_id":"levelo_inurba_marseille","lat":43.30098,"lon":5.39085,"is_reserved":false,"is_disabled":false,"rental_uris":{"android":"levelo://app?vid=e15d50e5-3c3c-4ad9-bc9d-5fb9ec51a680","ios":"levelo://app?vid=e15d50e5-3c3c-4ad9-bc9d-5fb9ec51a680"},"vehicle_type_id":"4","last_reported":1704226035,"current_range_meters":9600,"station_id":"ce4bh192rcd13ifvqdb0","pricing_plan_id":"free"},{"bike_id":"4932aa55-a2b8-46b8-bc5d-39e32db54276","system_id":"levelo_inurba_marseille","lat":43.30085,"lon":5.390856,"is_reserved":false,"is_disabled":false,"rental_uris":{"android":"levelo://app?vid=4932aa55-a2b8-46b8-bc5d-39e32db54276","ios":"levelo://app?vid=4932aa55-a2b8-46b8-bc5d-39e32db54276"},"vehicle_type_id":"4","last_reported":1704226035,"current_range_meters":20400,"station_id":"ce4bh192rcd13ifvqdb0","pricing_plan_id":"free"},{"bike_id":"52f3e613-64d4-42d6-b698-9e71563a5f03","system_id":"levelo_inurba_marseille","lat":43.298767,"lon":5.389293,"is_reserved":false,"is_disabled":false,"rental_uris":{"android":"levelo://app?vid=52f3e613-64d4-42d6-b698-9e71563a5f03","ios":"levelo://app?vid=52f3e613-64d4-42d6-b698-9e71563a5f03"},"vehicle_type_id":"4","last_reported":1704226035,"current_range_meters":0,"station_id":"","pricing_plan_id":"free"},{"bike_id":"00bd6407-7140-4ec6-bfef-57e4cf5b47bc","system_id":"levelo_inurba_marseille","lat":43.291994,"lon":5.357886,"is_reserved":false,"is_disabled":false,"rental_uris":{"android":"levelo://app?vid=00bd6407-7140-4ec6-bfef-57e4cf5b47bc","ios":"levelo://app?vid=00bd6407-7140-4ec6-bfef-57e4cf5b47bc"},"vehicle_type_id":"4","last_reported":1704226035,"current_range_meters":21600,"station_id":"ce4bhb12rcd13ifvqel0","pricing_plan_id":"free"},{"bike_id":"c7858c02-9a1c-45c8-9e2c-54f67d2be13f","system_id":"levelo_inurba_marseille","lat":43.304606,"lon":5.379026,"is_reserved":false,"is_disabled":false,"rental_uris":{"android":"levelo://app?vid=c7858c02-9a1c-45c8-9e2c-54f67d2be13f","ios":"levelo://app?vid=c7858c02-9a1c-45c8-9e2c-54f67d2be13f"},"vehicle_type_id":"4","last_reported":1704226035,"current_range_meters":16800,"station_id":"ce4bgup2rcd13ifvqcn0","pricing_plan_id":"free"},{"bike_id":"6a81b50f-ae4b-4c12-a481-44b003323491","system_id":"levelo_inurba_marseille","lat":43.312928,"lon":5.396783,"is_reserved":false,"is_disabled":false,"rental_uris":{"android":"levelo://app?vid=6a81b50f-ae4b-4c12-a481-44b003323491","ios":"levelo://app?vid=6a81b50f-ae4b-4c12-a481-44b003323491"},"vehicle_type_id":"4","last_reported":1704226035,"current_range_meters":17200,"station_id":"ce4bgvp2rcd13ifvqcu0","pricing_plan_id":"free"},{"bike_id":"20842fd5-a13a-4bf0-8e4e-fbcf56dcf6a4","system_id":"levelo_inurba_marseille","lat":43.291994,"lon":5.357886,"is_reserved":false,"is_disabled":false,"rental_uris":{"android":"levelo://app?vid=20842fd5-a13a-4bf0-8e4e-fbcf56dcf6a4","ios":"levelo://app?vid=20842fd5-a13a-4bf0-8e4e-fbcf56dcf6a4"},"vehicle_type_id":"4","last_reported":1704226035,"current_range_meters":14400,"station_id":"ce4bhb12rcd13ifvqel0","pricing_plan_id":"free"},{"bike_id":"a8ebda3b-af54-4f6d-9de3-3a9ee0f5b286","system_id":"levelo_inurba_marseille","lat":43.291994,"lon":5.357886,"is_reserved":false,"is_disabled":false,"rental_uris":{"android":"levelo://app?vid=a8ebda3b-af54-4f6d-9de3-3a9ee0f5b286","ios":"levelo://app?vid=a8ebda3b-af54-4f6d-9de3-3a9ee0f5b286"},"vehicle_type_id":"4","last_reported":1704226035,"current_range_meters":5600,"station_id":"ce4bhb12rcd13ifvqel0","pricing_plan_id":"free"},{"bike_id":"fa48146b-b929-46bc-87fb-86a43b5b982d","system_id":"levelo_inurba_marseille","lat":43.313291,"lon":5.396838,"is_reserved":false,"is_disabled":false,"rental_uris":{"android":"levelo://app?vid=fa48146b-b929-46bc-87fb-86a43b5b982d","ios":"levelo://app?vid=fa48146b-b929-46bc-87fb-86a43b5b982d"},"vehicle_type_id":"4","last_reported":1704226035,"current_range_meters":25200,"station_id":"ce4bgvp2rcd13ifvqcu0","pricing_plan_id":"free"},{"bike_id":"ce653502-0266-4511-b2b6-55a9b5a10b8a","system_id":"levelo_inurba_marseille","lat":43.291848,"lon":5.358055,"is_reserved":false,"is_disabled":false,"rental_uris":{"android":"levelo://app?vid=ce653502-0266-4511-b2b6-55a9b5a10b8a","ios":"levelo://app?vid=ce653502-0266-4511-b2b6-55a9b5a10b8a"},"vehicle_type_id":"4","last_reported":1704226035,"current_range_meters":800,"station_id":"ce4bhb12rcd13ifvqel0","pricing_plan_id":"free"},{"bike_id":"c923fef6-9ba2-49c2-b893-99aad532f69f","system_id":"levelo_inurba_marseille","lat":43.29542,"lon":5.38539,"is_reserved":false,"is_disabled":false,"rental_uris":{"android":"levelo://app?vid=c923fef6-9ba2-49c2-b893-99aad532f69f","ios":"levelo://app?vid=c923fef6-9ba2-49c2-b893-99aad532f69f"},"vehicle_type_id":"4","last_reported":1704226035,"current_range_meters":16000,"station_id":"ce4bgih2rcd13ifvqba0","pricing_plan_id":"free"},{"bike_id":"24ef9bf6-daf8-4221-a9bf-d803e97d75f0","system_id":"levelo_inurba_marseille","lat":43.29529,"lon":5.385581,"is_reserved":false,"is_disabled":false,"rental_uris":{"android":"levelo://app?vid=24ef9bf6-daf8-4221-a9bf-d803e97d75f0","ios":"levelo://app?vid=24ef9bf6-daf8-4221-a9bf-d803e97d75f0"},"vehicle_type_id":"4","last_reported":1704226035,"current_range_meters":4400,"station_id":"ce4bgih2rcd13ifvqba0","pricing_plan_id":"free"},{"bike_id":"44bde4e4-bf8d-4697-a493-a1fc45f5ccbd","system_id":"levelo_inurba_marseille","lat":43.29529,"lon":5.385581,"is_reserved":false,"is_disabled":false,"rental_uris":{"android":"levelo://app?vid=44bde4e4-bf8d-4697-a493-a1fc45f5ccbd","ios":"levelo://app?vid=44bde4e4-bf8d-4697-a493-a1fc45f5ccbd"},"vehicle_type_id":"4","last_reported":1704226035,"current_range_meters":11600,"station_id":"ce4bgih2rcd13ifvqba0","pricing_plan_id":"free"},{"bike_id":"c9f8f3db-087e-4e33-80d0-6504bfea3264","system_id":"levelo_inurba_marseille","lat":43.295389,"lon":5.385478,"is_reserved":false,"is_disabled":false,"rental_uris":{"android":"levelo://app?vid=c9f8f3db-087e-4e33-80d0-6504bfea3264","ios":"levelo://app?vid=c9f8f3db-087e-4e33-80d0-6504bfea3264"},"vehicle_type_id":"4","last_reported":1704226035,"current_range_meters":18800,"station_id":"","pricing_plan_id":"free"},{"bike_id":"0b01bc60-f07c-44cf-a1f7-704dfc400f18","system_id":"levelo_inurba_marseille","lat":43.29529,"lon":5.385581,"is_reserved":false,"is_disabled":false,"rental_uris":{"android":"levelo://app?vid=0b01bc60-f07c-44cf-a1f7-704dfc400f18","ios":"levelo://app?vid=0b01bc60-f07c-44cf-a1f7-704dfc400f18"},"vehicle_type_id":"4","last_reported":1704226035,"current_range_meters":13200,"station_id":"ce4bgih2rcd13ifvqba0","pricing_plan_id":"free"},{"bike_id":"9f655ae1-4f65-42d6-8612-6ea686351f24","system_id":"levelo_inurba_marseille","lat":43.290779,"lon":5.371482,"is_reserved":false,"is_disabled":false,"rental_uris":{"android":"levelo://app?vid=9f655ae1-4f65-42d6-8612-6ea686351f24","ios":"levelo://app?vid=9f655ae1-4f65-42d6-8612-6ea686351f24"},"vehicle_type_id":"4","last_reported":1704226035,"current_range_meters":28800,"station_id":"ce4bh5p2rcd13ifvqe4g","pricing_plan_id":"free"},{"bike_id":"42f709e7-b965-49ad-a599-239ab8cf0722","system_id":"levelo_inurba_marseille","lat":43.290671,"lon":5.371616,"is_reserved":false,"is_disabled":false,"rental_uris":{"android":"levelo://app?vid=42f709e7-b965-49ad-a599-239ab8cf0722","ios":"levelo://app?vid=42f709e7-b965-49ad-a599-239ab8cf0722"},"vehicle_type_id":"4","last_reported":1704226035,"current_range_meters":0,"station_id":"ce4bh5p2rcd13ifvqe4g","pricing_plan_id":"free"},{"bike_id":"a3f16aa7-937e-4326-be61-94820f1710ca","system_id":"levelo_inurba_marseille","lat":43.302008,"lon":5.394694,"is_reserved":false,"is_disabled":false,"rental_uris":{"android":"levelo://app?vid=a3f16aa7-937e-4326-be61-94820f1710ca","ios":"levelo://app?vid=a3f16aa7-937e-4326-be61-94820f1710ca"},"vehicle_type_id":"4","last_reported":1704226035,"current_range_meters":31600,"station_id":"ce4bh0p2rcd13ifvqd70","pricing_plan_id":"free"},{"bike_id":"4fa2af7e-c7d4-43d5-87d9-328c47c204cc","system_id":"levelo_inurba_marseille","lat":43.302008,"lon":5.394694,"is_reserved":false,"is_disabled":false,"rental_uris":{"android":"levelo://app?vid=4fa2af7e-c7d4-43d5-87d9-328c47c204cc","ios":"levelo://app?vid=4fa2af7e-c7d4-43d5-87d9-328c47c204cc"},"vehicle_type_id":"4","last_reported":1704226035,"current_range_meters":13200,"station_id":"ce4bh0p2rcd13ifvqd70","pricing_plan_id":"free"},{"bike_id":"ba7fc896-8154-4fc2-9c7b-b437db5c8626","system_id":"levelo_inurba_marseille","lat":43.302008,"lon":5.394694,"is_reserved":false,"is_disabled":false,"rental_uris":{"android":"levelo://app?vid=ba7fc896-8154-4fc2-9c7b-b437db5c8626","ios":"levelo://app?vid=ba7fc896-8154-4fc2-9c7b-b437db5c8626"},"vehicle_type_id":"4","last_reported":1704226035,"current_range_meters":13600,"station_id":"ce4bh0p2rcd13ifvqd70","pricing_plan_id":"free"},{"bike_id":"2aa69697-0349-4ebe-8c1c-2cc80e98b834","system_id":"levelo_inurba_marseille","lat":43.290428,"lon":5.359086,"is_reserved":false,"is_disabled":false,"rental_uris":{"android":"levelo://app?vid=2aa69697-0349-4ebe-8c1c-2cc80e98b834","ios":"levelo://app?vid=2aa69697-0349-4ebe-8c1c-2cc80e98b834"},"vehicle_type_id":"4","last_reported":1704226035,"current_range_meters":30800,"station_id":"ce4bha92rcd13ifvqeg0","pricing_plan_id":"free"},{"bike_id":"b7ec4a66-af5f-4e2c-896f-9bf315039847","system_id":"levelo_inurba_marseille","lat":43.290405,"lon":5.359128,"is_reserved":false,"is_disabled":false,"rental_uris":{"android":"levelo://app?vid=b7ec4a66-af5f-4e2c-896f-9bf315039847","ios":"levelo://app?vid=b7ec4a66-af5f-4e2c-896f-9bf315039847"},"vehicle_type_id":"4","last_reported":1704226035,"current_range_meters":25600,"station_id":"ce4bha92rcd13ifvqeg0","pricing_plan_id":"free"},{"bike_id":"a5fe7474-1f83-4a35-ab42-64bd6a23b0b6","system_id":"levelo_inurba_marseille","lat":43.290349,"lon":5.359183,"is_reserved":false,"is_disabled":false,"rental_uris":{"android":"levelo://app?vid=a5fe7474-1f83-4a35-ab42-64bd6a23b0b6","ios":"levelo://app?vid=a5fe7474-1f83-4a35-ab42-64bd6a23b0b6"},"vehicle_type_id":"4","last_reported":1704226035,"current_range_meters":8400,"station_id":"ce4bha92rcd13ifvqeg0","pricing_plan_id":"free"},{"bike_id":"ef30cb1e-5d42-4bb7-a979-ad36f59b521d","system_id":"levelo_inurba_marseille","lat":43.294153,"lon":5.386305,"is_reserved":false,"is_disabled":false,"rental_uris":{"android":"levelo://app?vid=ef30cb1e-5d42-4bb7-a979-ad36f59b521d","ios":"levelo://app?vid=ef30cb1e-5d42-4bb7-a979-ad36f59b521d"},"vehicle_type_id":"4","last_reported":1704226035,"current_range_meters":5600,"station_id":"ce4bh2h2rcd13ifvqdh0","pricing_plan_id":"free"},{"bike_id":"6341fddc-2d1f-4267-911e-8c134c80ba99","system_id":"levelo_inurba_marseille","lat":43.294153,"lon":5.386305,"is_reserved":false,"is_disabled":false,"rental_uris":{"android":"levelo://app?vid=6341fddc-2d1f-4267-911e-8c134c80ba99","ios":"levelo://app?vid=6341fddc-2d1f-4267-911e-8c134c80ba99"},"vehicle_type_id":"4","last_reported":1704226035,"current_range_meters":16800,"station_id":"ce4bh2h2rcd13ifvqdh0","pricing_plan_id":"free"},{"bike_id":"4d7b6f0b-3467-40cf-91a2-086dba4efef4","system_id":"levelo_inurba_marseille","lat":43.294162,"lon":5.386292,"is_reserved":false,"is_disabled":false,"rental_uris":{"android":"levelo://app?vid=4d7b6f0b-3467-40cf-91a2-086dba4efef4","ios":"levelo://app?vid=4d7b6f0b-3467-40cf-91a2-086dba4efef4"},"vehicle_type_id":"4","last_reported":1704226035,"current_range_meters":28000,"station_id":"ce4bh2h2rcd13ifvqdh0","pricing_plan_id":"free"},{"bike_id":"387e637e-72d9-423b-9e74-918d726ecd98","system_id":"levelo_inurba_marseille","lat":43.289184,"lon":5.366408,"is_reserved":false,"is_disabled":false,"rental_uris":{"android":"levelo://app?vid=387e637e-72d9-423b-9e74-918d726ecd98","ios":"levelo://app?vid=387e637e-72d9-423b-9e74-918d726ecd98"},"vehicle_type_id":"4","last_reported":1704226035,"current_range_meters":16400,"station_id":"ce4bhap2rcd13ifvqek0","pricing_plan_id":"free"},{"bike_id":"d78991fd-007f-4294-8b4a-2a1925b9f088","system_id":"levelo_inurba_marseille","lat":43.290327,"lon":5.375711,"is_reserved":false,"is_disabled":false,"rental_uris":{"android":"levelo://app?vid=d78991fd-007f-4294-8b4a-2a1925b9f088","ios":"levelo://app?vid=d78991fd-007f-4294-8b4a-2a1925b9f088"},"vehicle_type_id":"4","last_reported":1704226035,"current_range_meters":21600,"station_id":"ce4bh692rcd13ifvqe90","pricing_plan_id":"free"},{"bike_id":"89280f7a-1fa3-4d92-adb1-b4befac10837","system_id":"levelo_inurba_marseille","lat":43.304296,"lon":5.397513,"is_reserved":false,"is_disabled":false,"rental_uris":{"android":"levelo://app?vid=89280f7a-1fa3-4d92-adb1-b4befac10837","ios":"levelo://app?vid=89280f7a-1fa3-4d92-adb1-b4befac10837"},"vehicle_type_id":"4","last_reported":1704226035,"current_range_meters":14000,"station_id":"ce4bh092rcd13ifvqd20","pricing_plan_id":"free"},{"bike_id":"00c8c147-3c08-4012-8adb-468874e58349","system_id":"levelo_inurba_marseille","lat":43.292642,"lon":5.384254,"is_reserved":false,"is_disabled":false,"rental_uris":{"android":"levelo://app?vid=00c8c147-3c08-4012-8adb-468874e58349","ios":"levelo://app?vid=00c8c147-3c08-4012-8adb-468874e58349"},"vehicle_type_id":"4","last_reported":1704226035,"current_range_meters":18000,"station_id":"ce4bh692rcd13ifvqea0","pricing_plan_id":"free"},{"bike_id":"51617e5e-0c29-4616-ac46-b8d222d6bc85","system_id":"levelo_inurba_marseille","lat":43.304274,"lon":5.397513,"is_reserved":false,"is_disabled":false,"rental_uris":{"android":"levelo://app?vid=51617e5e-0c29-4616-ac46-b8d222d6bc85","ios":"levelo://app?vid=51617e5e-0c29-4616-ac46-b8d222d6bc85"},"vehicle_type_id":"4","last_reported":1704226035,"current_range_meters":18000,"station_id":"ce4bh092rcd13ifvqd20","pricing_plan_id":"free"},{"bike_id":"681aad2e-6d77-4b7d-952f-caa51c61155b","system_id":"levelo_inurba_marseille","lat":43.292642,"lon":5.384254,"is_reserved":false,"is_disabled":false,"rental_uris":{"android":"levelo://app?vid=681aad2e-6d77-4b7d-952f-caa51c61155b","ios":"levelo://app?vid=681aad2e-6d77-4b7d-952f-caa51c61155b"},"vehicle_type_id":"4","last_reported":1704226035,"current_range_meters":24000,"station_id":"ce4bh692rcd13ifvqea0","pricing_plan_id":"free"},{"bike_id":"41ee84d8-3660-48ec-bd66-7fa1bb8205cb","system_id":"levelo_inurba_marseille","lat":43.292642,"lon":5.384254,"is_reserved":false,"is_disabled":false,"rental_uris":{"android":"levelo://app?vid=41ee84d8-3660-48ec-bd66-7fa1bb8205cb","ios":"levelo://app?vid=41ee84d8-3660-48ec-bd66-7fa1bb8205cb"},"vehicle_type_id":"4","last_reported":1704226035,"current_range_meters":10400,"station_id":"ce4bh692rcd13ifvqea0","pricing_plan_id":"free"},{"bike_id":"7468694b-970d-4df3-8e80-96a6ddc05fda","system_id":"levelo_inurba_marseille","lat":43.292644,"lon":5.384257,"is_reserved":false,"is_disabled":false,"rental_uris":{"android":"levelo://app?vid=7468694b-970d-4df3-8e80-96a6ddc05fda","ios":"levelo://app?vid=7468694b-970d-4df3-8e80-96a6ddc05fda"},"vehicle_type_id":"4","last_reported":1704226035,"current_range_meters":20800,"station_id":"ce4bh692rcd13ifvqea0","pricing_plan_id":"free"},{"bike_id":"db85b329-f81f-41b8-8a7a-a88e06de116c","system_id":"levelo_inurba_marseille","lat":43.292642,"lon":5.384254,"is_reserved":false,"is_disabled":false,"rental_uris":{"android":"levelo://app?vid=db85b329-f81f-41b8-8a7a-a88e06de116c","ios":"levelo://app?vid=db85b329-f81f-41b8-8a7a-a88e06de116c"},"vehicle_type_id":"4","last_reported":1704226035,"current_range_meters":29600,"station_id":"ce4bh692rcd13ifvqea0","pricing_plan_id":"free"},{"bike_id":"9b02c67e-c9dc-4822-a5b6-9a7bf5be8039","system_id":"levelo_inurba_marseille","lat":43.304296,"lon":5.397513,"is_reserved":false,"is_disabled":false,"rental_uris":{"android":"levelo://app?vid=9b02c67e-c9dc-4822-a5b6-9a7bf5be8039","ios":"levelo://app?vid=9b02c67e-c9dc-4822-a5b6-9a7bf5be8039"},"vehicle_type_id":"4","last_reported":1704226035,"current_range_meters":4000,"station_id":"ce4bh092rcd13ifvqd20","pricing_plan_id":"free"},{"bike_id":"84994d20-1296-4b26-b3fd-1a916682f86f","system_id":"levelo_inurba_marseille","lat":43.292642,"lon":5.384254,"is_reserved":false,"is_disabled":false,"rental_uris":{"android":"levelo://app?vid=84994d20-1296-4b26-b3fd-1a916682f86f","ios":"levelo://app?vid=84994d20-1296-4b26-b3fd-1a916682f86f"},"vehicle_type_id":"4","last_reported":1704226035,"current_range_meters":20400,"station_id":"ce4bh692rcd13ifvqea0","pricing_plan_id":"free"},{"bike_id":"61283d63-4755-40fb-b286-2701fe6c0b43","system_id":"levelo_inurba_marseille","lat":43.292644,"lon":5.384257,"is_reserved":false,"is_disabled":false,"rental_uris":{"android":"levelo://app?vid=61283d63-4755-40fb-b286-2701fe6c0b43","ios":"levelo://app?vid=61283d63-4755-40fb-b286-2701fe6c0b43"},"vehicle_type_id":"4","last_reported":1704226035,"current_range_meters":14400,"station_id":"ce4bh692rcd13ifvqea0","pricing_plan_id":"free"},{"bike_id":"d71eac39-edae-4719-8085-420f1308ff3a","system_id":"levelo_inurba_marseille","lat":43.292644,"lon":5.384257,"is_reserved":false,"is_disabled":false,"rental_uris":{"android":"levelo://app?vid=d71eac39-edae-4719-8085-420f1308ff3a","ios":"levelo://app?vid=d71eac39-edae-4719-8085-420f1308ff3a"},"vehicle_type_id":"4","last_reported":1704226035,"current_range_meters":29600,"station_id":"ce4bh692rcd13ifvqea0","pricing_plan_id":"free"},{"bike_id":"6af8edee-07bf-420e-8364-a18386aa61fb","system_id":"levelo_inurba_marseille","lat":43.292644,"lon":5.384257,"is_reserved":false,"is_disabled":false,"rental_uris":{"android":"levelo://app?vid=6af8edee-07bf-420e-8364-a18386aa61fb","ios":"levelo://app?vid=6af8edee-07bf-420e-8364-a18386aa61fb"},"vehicle_type_id":"4","last_reported":1704226035,"current_range_meters":22000,"station_id":"ce4bh692rcd13ifvqea0","pricing_plan_id":"free"},{"bike_id":"e8bce316-0ba7-4a8d-be1a-6471e5169a71","system_id":"levelo_inurba_marseille","lat":43.292644,"lon":5.384257,"is_reserved":false,"is_disabled":false,"rental_uris":{"android":"levelo://app?vid=e8bce316-0ba7-4a8d-be1a-6471e5169a71","ios":"levelo://app?vid=e8bce316-0ba7-4a8d-be1a-6471e5169a71"},"vehicle_type_id":"4","last_reported":1704226035,"current_range_meters":2000,"station_id":"ce4bh692rcd13ifvqea0","pricing_plan_id":"free"},{"bike_id":"2c442d99-ff9b-41a2-af46-fd5d2f20bd47","system_id":"levelo_inurba_marseille","lat":43.292644,"lon":5.384257,"is_reserved":false,"is_disabled":false,"rental_uris":{"android":"levelo://app?vid=2c442d99-ff9b-41a2-af46-fd5d2f20bd47","ios":"levelo://app?vid=2c442d99-ff9b-41a2-af46-fd5d2f20bd47"},"vehicle_type_id":"4","last_reported":1704226035,"current_range_meters":0,"station_id":"ce4bh692rcd13ifvqea0","pricing_plan_id":"free"},{"bike_id":"15c13b40-3ff4-4e77-bc88-9c081f09028d","system_id":"levelo_inurba_marseille","lat":43.292644,"lon":5.384257,"is_reserved":false,"is_disabled":false,"rental_uris":{"android":"levelo://app?vid=15c13b40-3ff4-4e77-bc88-9c081f09028d","ios":"levelo://app?vid=15c13b40-3ff4-4e77-bc88-9c081f09028d"},"vehicle_type_id":"4","last_reported":1704226035,"current_range_meters":26800,"station_id":"ce4bh692rcd13ifvqea0","pricing_plan_id":"free"},{"bike_id":"bfe744ba-34dc-45db-b41f-b12620d10c83","system_id":"levelo_inurba_marseille","lat":43.292642,"lon":5.384254,"is_reserved":false,"is_disabled":false,"rental_uris":{"android":"levelo://app?vid=bfe744ba-34dc-45db-b41f-b12620d10c83","ios":"levelo://app?vid=bfe744ba-34dc-45db-b41f-b12620d10c83"},"vehicle_type_id":"4","last_reported":1704226035,"current_range_meters":17600,"station_id":"ce4bh692rcd13ifvqea0","pricing_plan_id":"free"},{"bike_id":"11889e0d-8983-45b6-808f-9249a1b05295","system_id":"levelo_inurba_marseille","lat":43.296131,"lon":5.370773,"is_reserved":false,"is_disabled":false,"rental_uris":{"android":"levelo://app?vid=11889e0d-8983-45b6-808f-9249a1b05295","ios":"levelo://app?vid=11889e0d-8983-45b6-808f-9249a1b05295"},"vehicle_type_id":"4","last_reported":1704226035,"current_range_meters":24400,"station_id":"ce4bgnh2rcd13ifvqc0g","pricing_plan_id":"free"},{"bike_id":"8e9169d1-9597-48c6-aab9-61b2290c7f7b","system_id":"levelo_inurba_marseille","lat":43.29794,"lon":5.39346,"is_reserved":false,"is_disabled":false,"rental_uris":{"android":"levelo://app?vid=8e9169d1-9597-48c6-aab9-61b2290c7f7b","ios":"levelo://app?vid=8e9169d1-9597-48c6-aab9-61b2290c7f7b"},"vehicle_type_id":"4","last_reported":1704226035,"current_range_meters":23200,"station_id":"chh1huq6cuj3fo74tm60","pricing_plan_id":"free"},{"bike_id":"1b661565-d788-4b59-a09f-ab587564e4a4","system_id":"levelo_inurba_marseille","lat":43.297866,"lon":5.393403,"is_reserved":false,"is_disabled":false,"rental_uris":{"android":"levelo://app?vid=1b661565-d788-4b59-a09f-ab587564e4a4","ios":"levelo://app?vid=1b661565-d788-4b59-a09f-ab587564e4a4"},"vehicle_type_id":"4","last_reported":1704226035,"current_range_meters":0,"station_id":"chh1huq6cuj3fo74tm60","pricing_plan_id":"free"},{"bike_id":"1f1c9e0b-697c-4060-8e0f-34e48a3be76b","system_id":"levelo_inurba_marseille","lat":43.297815,"lon":5.393548,"is_reserved":false,"is_disabled":false,"rental_uris":{"android":"levelo://app?vid=1f1c9e0b-697c-4060-8e0f-34e48a3be76b","ios":"levelo://app?vid=1f1c9e0b-697c-4060-8e0f-34e48a3be76b"},"vehicle_type_id":"4","last_reported":1704226035,"current_range_meters":19200,"station_id":"chh1huq6cuj3fo74tm60","pricing_plan_id":"free"},{"bike_id":"2509a9d0-d601-47f2-b046-cd0df469dae3","system_id":"levelo_inurba_marseille","lat":43.289743,"lon":5.378304,"is_reserved":false,"is_disabled":false,"rental_uris":{"android":"levelo://app?vid=2509a9d0-d601-47f2-b046-cd0df469dae3","ios":"levelo://app?vid=2509a9d0-d601-47f2-b046-cd0df469dae3"},"vehicle_type_id":"4","last_reported":1704226035,"current_range_meters":8800,"station_id":"ce4bh9p2rcd13ifvqed0","pricing_plan_id":"free"},{"bike_id":"d5b3348e-74a7-48e7-aba4-2a6b148f40ea","system_id":"levelo_inurba_marseille","lat":43.29531,"lon":5.39037,"is_reserved":false,"is_disabled":false,"rental_uris":{"android":"levelo://app?vid=d5b3348e-74a7-48e7-aba4-2a6b148f40ea","ios":"levelo://app?vid=d5b3348e-74a7-48e7-aba4-2a6b148f40ea"},"vehicle_type_id":"4","last_reported":1704226035,"current_range_meters":7200,"station_id":"ce4bh3p2rcd13ifvqdp0","pricing_plan_id":"free"},{"bike_id":"2d8d0329-5088-4db7-9d01-230e553e802d","system_id":"levelo_inurba_marseille","lat":43.29776,"lon":5.39338,"is_reserved":false,"is_disabled":false,"rental_uris":{"android":"levelo://app?vid=2d8d0329-5088-4db7-9d01-230e553e802d","ios":"levelo://app?vid=2d8d0329-5088-4db7-9d01-230e553e802d"},"vehicle_type_id":"4","last_reported":1704226035,"current_range_meters":26400,"station_id":"chh1huq6cuj3fo74tm60","pricing_plan_id":"free"},{"bike_id":"e142d404-bb97-49d3-86c3-0e7c43759a80","system_id":"levelo_inurba_marseille","lat":43.29534,"lon":5.39046,"is_reserved":false,"is_disabled":false,"rental_uris":{"android":"levelo://app?vid=e142d404-bb97-49d3-86c3-0e7c43759a80","ios":"levelo://app?vid=e142d404-bb97-49d3-86c3-0e7c43759a80"},"vehicle_type_id":"4","last_reported":1704226035,"current_range_meters":23200,"station_id":"ce4bh3p2rcd13ifvqdp0","pricing_plan_id":"free"},{"bike_id":"cab3d12c-73c9-441a-bb3a-ffffd3bbc995","system_id":"levelo_inurba_marseille","lat":43.289743,"lon":5.378304,"is_reserved":false,"is_disabled":false,"rental_uris":{"android":"levelo://app?vid=cab3d12c-73c9-441a-bb3a-ffffd3bbc995","ios":"levelo://app?vid=cab3d12c-73c9-441a-bb3a-ffffd3bbc995"},"vehicle_type_id":"4","last_reported":1704226035,"current_range_meters":26400,"station_id":"ce4bh9p2rcd13ifvqed0","pricing_plan_id":"free"},{"bike_id":"a1ee3364-28ae-4153-943e-13e8db98a605","system_id":"levelo_inurba_marseille","lat":43.330442,"lon":5.389148,"is_reserved":false,"is_disabled":false,"rental_uris":{"android":"levelo://app?vid=a1ee3364-28ae-4153-943e-13e8db98a605","ios":"levelo://app?vid=a1ee3364-28ae-4153-943e-13e8db98a605"},"vehicle_type_id":"4","last_reported":1704226035,"current_range_meters":6800,"station_id":"ce4bhr92rcd13ifvqhrg","pricing_plan_id":"free"},{"bike_id":"a45508dc-3e20-4dc2-a3f2-c48092cac22d","system_id":"levelo_inurba_marseille","lat":43.330442,"lon":5.389148,"is_reserved":false,"is_disabled":false,"rental_uris":{"android":"levelo://app?vid=a45508dc-3e20-4dc2-a3f2-c48092cac22d","ios":"levelo://app?vid=a45508dc-3e20-4dc2-a3f2-c48092cac22d"},"vehicle_type_id":"4","last_reported":1704226035,"current_range_meters":10800,"station_id":"ce4bhr92rcd13ifvqhrg","pricing_plan_id":"free"},{"bike_id":"73f44958-05b1-468f-8e9e-42072d175718","system_id":"levelo_inurba_marseille","lat":43.289741,"lon":5.378306,"is_reserved":false,"is_disabled":false,"rental_uris":{"android":"levelo://app?vid=73f44958-05b1-468f-8e9e-42072d175718","ios":"levelo://app?vid=73f44958-05b1-468f-8e9e-42072d175718"},"vehicle_type_id":"4","last_reported":1704226035,"current_range_meters":8400,"station_id":"ce4bh9p2rcd13ifvqed0","pricing_plan_id":"free"},{"bike_id":"7d8e9057-3545-4e15-878a-777ce721e66b","system_id":"levelo_inurba_marseille","lat":43.289741,"lon":5.378306,"is_reserved":false,"is_disabled":false,"rental_uris":{"android":"levelo://app?vid=7d8e9057-3545-4e15-878a-777ce721e66b","ios":"levelo://app?vid=7d8e9057-3545-4e15-878a-777ce721e66b"},"vehicle_type_id":"4","last_reported":1704226035,"current_range_meters":20400,"station_id":"ce4bh9p2rcd13ifvqed0","pricing_plan_id":"free"},{"bike_id":"e9f786d5-0dcd-4312-9033-0f229ef0f9d2","system_id":"levelo_inurba_marseille","lat":43.28856,"lon":5.358371,"is_reserved":false,"is_disabled":false,"rental_uris":{"android":"levelo://app?vid=e9f786d5-0dcd-4312-9033-0f229ef0f9d2","ios":"levelo://app?vid=e9f786d5-0dcd-4312-9033-0f229ef0f9d2"},"vehicle_type_id":"4","last_reported":1704226035,"current_range_meters":26400,"station_id":"ce4bhb12rcd13ifvqem0","pricing_plan_id":"free"},{"bike_id":"d8979d5e-4391-4e17-a4f6-aef830d2ef3b","system_id":"levelo_inurba_marseille","lat":43.30642,"lon":5.401031,"is_reserved":false,"is_disabled":false,"rental_uris":{"android":"levelo://app?vid=d8979d5e-4391-4e17-a4f6-aef830d2ef3b","ios":"levelo://app?vid=d8979d5e-4391-4e17-a4f6-aef830d2ef3b"},"vehicle_type_id":"4","last_reported":1704226035,"current_range_meters":27600,"station_id":"ce4bh112rcd13ifvqda0","pricing_plan_id":"free"},{"bike_id":"1b55c50c-04c6-490e-ba7b-7b95b41dd60f","system_id":"levelo_inurba_marseille","lat":43.33754,"lon":5.37453,"is_reserved":false,"is_disabled":false,"rental_uris":{"android":"levelo://app?vid=1b55c50c-04c6-490e-ba7b-7b95b41dd60f","ios":"levelo://app?vid=1b55c50c-04c6-490e-ba7b-7b95b41dd60f"},"vehicle_type_id":"4","last_reported":1704226035,"current_range_meters":29600,"station_id":"","pricing_plan_id":"free"},{"bike_id":"1c86c5a0-cffc-4faa-94a1-6cf5f93206ea","system_id":"levelo_inurba_marseille","lat":43.337605,"lon":5.374572,"is_reserved":false,"is_disabled":false,"rental_uris":{"android":"levelo://app?vid=1c86c5a0-cffc-4faa-94a1-6cf5f93206ea","ios":"levelo://app?vid=1c86c5a0-cffc-4faa-94a1-6cf5f93206ea"},"vehicle_type_id":"4","last_reported":1704226035,"current_range_meters":5200,"station_id":"","pricing_plan_id":"free"},{"bike_id":"7bff5d96-c9da-413f-9076-7fbeec946e12","system_id":"levelo_inurba_marseille","lat":43.337607,"lon":5.37469,"is_reserved":false,"is_disabled":false,"rental_uris":{"android":"levelo://app?vid=7bff5d96-c9da-413f-9076-7fbeec946e12","ios":"levelo://app?vid=7bff5d96-c9da-413f-9076-7fbeec946e12"},"vehicle_type_id":"4","last_reported":1704226035,"current_range_meters":24800,"station_id":"","pricing_plan_id":"free"},{"bike_id":"46bcbd8a-0b5f-4b89-aac9-34812a85cd49","system_id":"levelo_inurba_marseille","lat":43.337681,"lon":5.374847,"is_reserved":false,"is_disabled":false,"rental_uris":{"android":"levelo://app?vid=46bcbd8a-0b5f-4b89-aac9-34812a85cd49","ios":"levelo://app?vid=46bcbd8a-0b5f-4b89-aac9-34812a85cd49"},"vehicle_type_id":"4","last_reported":1704226035,"current_range_meters":14000,"station_id":"","pricing_plan_id":"free"},{"bike_id":"2698b1cc-9d8f-4af1-9d41-a07e93bd5755","system_id":"levelo_inurba_marseille","lat":43.33767,"lon":5.37497,"is_reserved":false,"is_disabled":false,"rental_uris":{"android":"levelo://app?vid=2698b1cc-9d8f-4af1-9d41-a07e93bd5755","ios":"levelo://app?vid=2698b1cc-9d8f-4af1-9d41-a07e93bd5755"},"vehicle_type_id":"4","last_reported":1704226035,"current_range_meters":28000,"station_id":"","pricing_plan_id":"free"},{"bike_id":"44686d34-841e-48dd-bae7-6a754dacffb1","system_id":"levelo_inurba_marseille","lat":43.301117,"lon":5.398795,"is_reserved":false,"is_disabled":false,"rental_uris":{"android":"levelo://app?vid=44686d34-841e-48dd-bae7-6a754dacffb1","ios":"levelo://app?vid=44686d34-841e-48dd-bae7-6a754dacffb1"},"vehicle_type_id":"4","last_reported":1704226035,"current_range_meters":26000,"station_id":"ce4bh0h2rcd13ifvqd40","pricing_plan_id":"free"},{"bike_id":"4751109d-a6f3-4860-8d42-9570b249dc2a","system_id":"levelo_inurba_marseille","lat":43.301117,"lon":5.398795,"is_reserved":false,"is_disabled":false,"rental_uris":{"android":"levelo://app?vid=4751109d-a6f3-4860-8d42-9570b249dc2a","ios":"levelo://app?vid=4751109d-a6f3-4860-8d42-9570b249dc2a"},"vehicle_type_id":"4","last_reported":1704226035,"current_range_meters":8400,"station_id":"ce4bh0h2rcd13ifvqd40","pricing_plan_id":"free"},{"bike_id":"43b50400-bf73-455a-a63e-2224febf021d","system_id":"levelo_inurba_marseille","lat":43.28727,"lon":5.36078,"is_reserved":false,"is_disabled":false,"rental_uris":{"android":"levelo://app?vid=43b50400-bf73-455a-a63e-2224febf021d","ios":"levelo://app?vid=43b50400-bf73-455a-a63e-2224febf021d"},"vehicle_type_id":"4","last_reported":1704226035,"current_range_meters":28000,"station_id":"cki0cbj6b192h4jlfktg","pricing_plan_id":"free"},{"bike_id":"51fbb03a-a0f7-4fa5-96da-84e1789a163c","system_id":"levelo_inurba_marseille","lat":43.304677,"lon":5.400677,"is_reserved":false,"is_disabled":false,"rental_uris":{"android":"levelo://app?vid=51fbb03a-a0f7-4fa5-96da-84e1789a163c","ios":"levelo://app?vid=51fbb03a-a0f7-4fa5-96da-84e1789a163c"},"vehicle_type_id":"4","last_reported":1704226035,"current_range_meters":0,"station_id":"","pricing_plan_id":"free"},{"bike_id":"25143700-3da5-46c3-8329-221bb4a7bc16","system_id":"levelo_inurba_marseille","lat":43.28727,"lon":5.36078,"is_reserved":false,"is_disabled":false,"rental_uris":{"android":"levelo://app?vid=25143700-3da5-46c3-8329-221bb4a7bc16","ios":"levelo://app?vid=25143700-3da5-46c3-8329-221bb4a7bc16"},"vehicle_type_id":"4","last_reported":1704226035,"current_range_meters":27600,"station_id":"cki0cbj6b192h4jlfktg","pricing_plan_id":"free"},{"bike_id":"425c15da-286b-489a-9794-1c8fdbb6efb1","system_id":"levelo_inurba_marseille","lat":43.298681,"lon":5.397225,"is_reserved":false,"is_disabled":false,"rental_uris":{"android":"levelo://app?vid=425c15da-286b-489a-9794-1c8fdbb6efb1","ios":"levelo://app?vid=425c15da-286b-489a-9794-1c8fdbb6efb1"},"vehicle_type_id":"4","last_reported":1704226035,"current_range_meters":2000,"station_id":"ce4bh0h2rcd13ifvqd50","pricing_plan_id":"free"},{"bike_id":"4c9bee6e-7f67-4e33-9bdf-2ad46096a165","system_id":"levelo_inurba_marseille","lat":43.290345,"lon":5.38646,"is_reserved":false,"is_disabled":false,"rental_uris":{"android":"levelo://app?vid=4c9bee6e-7f67-4e33-9bdf-2ad46096a165","ios":"levelo://app?vid=4c9bee6e-7f67-4e33-9bdf-2ad46096a165"},"vehicle_type_id":"4","last_reported":1704226035,"current_range_meters":22400,"station_id":"ce4bh4p2rcd13ifvqe0g","pricing_plan_id":"free"},{"bike_id":"816562be-f5a0-4340-a936-bf1a41cb1df9","system_id":"levelo_inurba_marseille","lat":43.290345,"lon":5.38646,"is_reserved":false,"is_disabled":false,"rental_uris":{"android":"levelo://app?vid=816562be-f5a0-4340-a936-bf1a41cb1df9","ios":"levelo://app?vid=816562be-f5a0-4340-a936-bf1a41cb1df9"},"vehicle_type_id":"4","last_reported":1704226035,"current_range_meters":18000,"station_id":"ce4bh4p2rcd13ifvqe0g","pricing_plan_id":"free"},{"bike_id":"814ff3c4-64ad-4534-bcf2-d593e0ba5264","system_id":"levelo_inurba_marseille","lat":43.290345,"lon":5.38646,"is_reserved":false,"is_disabled":false,"rental_uris":{"android":"levelo://app?vid=814ff3c4-64ad-4534-bcf2-d593e0ba5264","ios":"levelo://app?vid=814ff3c4-64ad-4534-bcf2-d593e0ba5264"},"vehicle_type_id":"4","last_reported":1704226035,"current_range_meters":17600,"station_id":"ce4bh4p2rcd13ifvqe0g","pricing_plan_id":"free"},{"bike_id":"ad00fead-263d-43d9-8a54-c7ebb41f72e7","system_id":"levelo_inurba_marseille","lat":43.290345,"lon":5.38646,"is_reserved":false,"is_disabled":false,"rental_uris":{"android":"levelo://app?vid=ad00fead-263d-43d9-8a54-c7ebb41f72e7","ios":"levelo://app?vid=ad00fead-263d-43d9-8a54-c7ebb41f72e7"},"vehicle_type_id":"4","last_reported":1704226035,"current_range_meters":0,"station_id":"ce4bh4p2rcd13ifvqe0g","pricing_plan_id":"free"},{"bike_id":"8f66e985-9a14-4b48-8fcf-201a63f85673","system_id":"levelo_inurba_marseille","lat":43.302759,"lon":5.400793,"is_reserved":false,"is_disabled":false,"rental_uris":{"android":"levelo://app?vid=8f66e985-9a14-4b48-8fcf-201a63f85673","ios":"levelo://app?vid=8f66e985-9a14-4b48-8fcf-201a63f85673"},"vehicle_type_id":"4","last_reported":1704226035,"current_range_meters":2000,"station_id":"ce4bgvh2rcd13ifvqcs0","pricing_plan_id":"free"},{"bike_id":"52db4aed-a300-4668-a5f6-58c70a7a006e","system_id":"levelo_inurba_marseille","lat":43.302759,"lon":5.400793,"is_reserved":false,"is_disabled":false,"rental_uris":{"android":"levelo://app?vid=52db4aed-a300-4668-a5f6-58c70a7a006e","ios":"levelo://app?vid=52db4aed-a300-4668-a5f6-58c70a7a006e"},"vehicle_type_id":"4","last_reported":1704226035,"current_range_meters":6800,"station_id":"ce4bgvh2rcd13ifvqcs0","pricing_plan_id":"free"},{"bike_id":"b3aad45f-2141-449e-8182-bf760bf41673","system_id":"levelo_inurba_marseille","lat":43.302759,"lon":5.400793,"is_reserved":false,"is_disabled":false,"rental_uris":{"android":"levelo://app?vid=b3aad45f-2141-449e-8182-bf760bf41673","ios":"levelo://app?vid=b3aad45f-2141-449e-8182-bf760bf41673"},"vehicle_type_id":"4","last_reported":1704226035,"current_range_meters":12000,"station_id":"ce4bgvh2rcd13ifvqcs0","pricing_plan_id":"free"},{"bike_id":"fd234b9b-afed-4d2a-a7b8-8eb5465d2c37","system_id":"levelo_inurba_marseille","lat":43.302759,"lon":5.400793,"is_reserved":false,"is_disabled":false,"rental_uris":{"android":"levelo://app?vid=fd234b9b-afed-4d2a-a7b8-8eb5465d2c37","ios":"levelo://app?vid=fd234b9b-afed-4d2a-a7b8-8eb5465d2c37"},"vehicle_type_id":"4","last_reported":1704226035,"current_range_meters":18000,"station_id":"ce4bgvh2rcd13ifvqcs0","pricing_plan_id":"free"},{"bike_id":"1693088a-2f6f-4e82-b76c-ba677724ea18","system_id":"levelo_inurba_marseille","lat":43.286039,"lon":5.370679,"is_reserved":false,"is_disabled":false,"rental_uris":{"android":"levelo://app?vid=1693088a-2f6f-4e82-b76c-ba677724ea18","ios":"levelo://app?vid=1693088a-2f6f-4e82-b76c-ba677724ea18"},"vehicle_type_id":"4","last_reported":1704226035,"current_range_meters":30800,"station_id":"ce4bht12rcd13ifvqi60","pricing_plan_id":"free"},{"bike_id":"0cb09e53-fa5b-419d-9103-4038a21910ca","system_id":"levelo_inurba_marseille","lat":43.316828,"lon":5.404723,"is_reserved":false,"is_disabled":false,"rental_uris":{"android":"levelo://app?vid=0cb09e53-fa5b-419d-9103-4038a21910ca","ios":"levelo://app?vid=0cb09e53-fa5b-419d-9103-4038a21910ca"},"vehicle_type_id":"4","last_reported":1704226035,"current_range_meters":0,"station_id":"ce4bh012rcd13ifvqd00","pricing_plan_id":"free"},{"bike_id":"b0b6a8f3-0b17-4de6-91a3-2dbdb8222327","system_id":"levelo_inurba_marseille","lat":43.316821,"lon":5.404737,"is_reserved":false,"is_disabled":false,"rental_uris":{"android":"levelo://app?vid=b0b6a8f3-0b17-4de6-91a3-2dbdb8222327","ios":"levelo://app?vid=b0b6a8f3-0b17-4de6-91a3-2dbdb8222327"},"vehicle_type_id":"4","last_reported":1704226035,"current_range_meters":17600,"station_id":"ce4bh012rcd13ifvqd00","pricing_plan_id":"free"},{"bike_id":"4b0c18fd-1547-4f9e-9d73-a9d057735b7e","system_id":"levelo_inurba_marseille","lat":43.291994,"lon":5.392907,"is_reserved":false,"is_disabled":false,"rental_uris":{"android":"levelo://app?vid=4b0c18fd-1547-4f9e-9d73-a9d057735b7e","ios":"levelo://app?vid=4b0c18fd-1547-4f9e-9d73-a9d057735b7e"},"vehicle_type_id":"4","last_reported":1704226035,"current_range_meters":27200,"station_id":"ce4bh192rcd13ifvqdd0","pricing_plan_id":"free"},{"bike_id":"2538e493-5564-4c26-8e5d-8e70dfa83cd0","system_id":"levelo_inurba_marseille","lat":43.284538,"lon":5.358657,"is_reserved":false,"is_disabled":false,"rental_uris":{"android":"levelo://app?vid=2538e493-5564-4c26-8e5d-8e70dfa83cd0","ios":"levelo://app?vid=2538e493-5564-4c26-8e5d-8e70dfa83cd0"},"vehicle_type_id":"4","last_reported":1704226035,"current_range_meters":14000,"station_id":"ce4bhah2rcd13ifvqei0","pricing_plan_id":"free"},{"bike_id":"255e0c8c-2565-495d-971a-46b321b7e4ab","system_id":"levelo_inurba_marseille","lat":43.294314,"lon":5.397498,"is_reserved":false,"is_disabled":false,"rental_uris":{"android":"levelo://app?vid=255e0c8c-2565-495d-971a-46b321b7e4ab","ios":"levelo://app?vid=255e0c8c-2565-495d-971a-46b321b7e4ab"},"vehicle_type_id":"4","last_reported":1704226035,"current_range_meters":4000,"station_id":"ce4bh3h2rcd13ifvqdo0","pricing_plan_id":"free"},{"bike_id":"dc3cde15-e15f-4189-82ce-191679f1e53b","system_id":"levelo_inurba_marseille","lat":43.294314,"lon":5.397498,"is_reserved":false,"is_disabled":false,"rental_uris":{"android":"levelo://app?vid=dc3cde15-e15f-4189-82ce-191679f1e53b","ios":"levelo://app?vid=dc3cde15-e15f-4189-82ce-191679f1e53b"},"vehicle_type_id":"4","last_reported":1704226035,"current_range_meters":800,"station_id":"ce4bh3h2rcd13ifvqdo0","pricing_plan_id":"free"},{"bike_id":"198b03a6-0350-47db-b014-8668c58cf8b6","system_id":"levelo_inurba_marseille","lat":43.285856,"lon":5.350771,"is_reserved":false,"is_disabled":false,"rental_uris":{"android":"levelo://app?vid=198b03a6-0350-47db-b014-8668c58cf8b6","ios":"levelo://app?vid=198b03a6-0350-47db-b014-8668c58cf8b6"},"vehicle_type_id":"4","last_reported":1704226035,"current_range_meters":16400,"station_id":"ce4bhch2rcd13ifvqeug","pricing_plan_id":"free"},{"bike_id":"e0964926-5ee6-497d-b9ca-56de80166d78","system_id":"levelo_inurba_marseille","lat":43.285856,"lon":5.350771,"is_reserved":false,"is_disabled":false,"rental_uris":{"android":"levelo://app?vid=e0964926-5ee6-497d-b9ca-56de80166d78","ios":"levelo://app?vid=e0964926-5ee6-497d-b9ca-56de80166d78"},"vehicle_type_id":"4","last_reported":1704226035,"current_range_meters":13600,"station_id":"ce4bhch2rcd13ifvqeug","pricing_plan_id":"free"},{"bike_id":"da83c696-1560-46ef-849a-744338060e2d","system_id":"levelo_inurba_marseille","lat":43.285856,"lon":5.350771,"is_reserved":false,"is_disabled":false,"rental_uris":{"android":"levelo://app?vid=da83c696-1560-46ef-849a-744338060e2d","ios":"levelo://app?vid=da83c696-1560-46ef-849a-744338060e2d"},"vehicle_type_id":"4","last_reported":1704226035,"current_range_meters":24000,"station_id":"ce4bhch2rcd13ifvqeug","pricing_plan_id":"free"},{"bike_id":"54183fa3-b505-40cc-b2ff-0532389c7565","system_id":"levelo_inurba_marseille","lat":43.285856,"lon":5.350771,"is_reserved":false,"is_disabled":false,"rental_uris":{"android":"levelo://app?vid=54183fa3-b505-40cc-b2ff-0532389c7565","ios":"levelo://app?vid=54183fa3-b505-40cc-b2ff-0532389c7565"},"vehicle_type_id":"4","last_reported":1704226035,"current_range_meters":17200,"station_id":"ce4bhch2rcd13ifvqeug","pricing_plan_id":"free"},{"bike_id":"48e908df-9ca7-4c39-be98-5f1da33c5b54","system_id":"levelo_inurba_marseille","lat":43.285856,"lon":5.350771,"is_reserved":false,"is_disabled":false,"rental_uris":{"android":"levelo://app?vid=48e908df-9ca7-4c39-be98-5f1da33c5b54","ios":"levelo://app?vid=48e908df-9ca7-4c39-be98-5f1da33c5b54"},"vehicle_type_id":"4","last_reported":1704226035,"current_range_meters":28400,"station_id":"ce4bhch2rcd13ifvqeug","pricing_plan_id":"free"},{"bike_id":"1b3079d0-9be2-4262-8fe2-ff996a2e9bc6","system_id":"levelo_inurba_marseille","lat":43.285856,"lon":5.350771,"is_reserved":false,"is_disabled":false,"rental_uris":{"android":"levelo://app?vid=1b3079d0-9be2-4262-8fe2-ff996a2e9bc6","ios":"levelo://app?vid=1b3079d0-9be2-4262-8fe2-ff996a2e9bc6"},"vehicle_type_id":"4","last_reported":1704226035,"current_range_meters":0,"station_id":"ce4bhch2rcd13ifvqeug","pricing_plan_id":"free"},{"bike_id":"5afbb1ee-e22d-4f31-b82b-1ac8b52de796","system_id":"levelo_inurba_marseille","lat":43.2841,"lon":5.37531,"is_reserved":false,"is_disabled":false,"rental_uris":{"android":"levelo://app?vid=5afbb1ee-e22d-4f31-b82b-1ac8b52de796","ios":"levelo://app?vid=5afbb1ee-e22d-4f31-b82b-1ac8b52de796"},"vehicle_type_id":"4","last_reported":1704226035,"current_range_meters":8400,"station_id":"ce4bh412rcd13ifvqds0","pricing_plan_id":"free"},{"bike_id":"168e5b13-134c-4c8a-b42a-40c79b77b1f2","system_id":"levelo_inurba_marseille","lat":43.283998,"lon":5.375062,"is_reserved":false,"is_disabled":false,"rental_uris":{"android":"levelo://app?vid=168e5b13-134c-4c8a-b42a-40c79b77b1f2","ios":"levelo://app?vid=168e5b13-134c-4c8a-b42a-40c79b77b1f2"},"vehicle_type_id":"4","last_reported":1704226035,"current_range_meters":23200,"station_id":"ce4bh412rcd13ifvqds0","pricing_plan_id":"free"},{"bike_id":"106bdef0-cb9d-49d9-9a2b-2bdd69928932","system_id":"levelo_inurba_marseille","lat":43.283998,"lon":5.375062,"is_reserved":false,"is_disabled":false,"rental_uris":{"android":"levelo://app?vid=106bdef0-cb9d-49d9-9a2b-2bdd69928932","ios":"levelo://app?vid=106bdef0-cb9d-49d9-9a2b-2bdd69928932"},"vehicle_type_id":"4","last_reported":1704226035,"current_range_meters":14000,"station_id":"ce4bh412rcd13ifvqds0","pricing_plan_id":"free"},{"bike_id":"5ef1db74-a534-4539-add5-aa693326575a","system_id":"levelo_inurba_marseille","lat":43.286595,"lon":5.386795,"is_reserved":false,"is_disabled":false,"rental_uris":{"android":"levelo://app?vid=5ef1db74-a534-4539-add5-aa693326575a","ios":"levelo://app?vid=5ef1db74-a534-4539-add5-aa693326575a"},"vehicle_type_id":"4","last_reported":1704226035,"current_range_meters":24800,"station_id":"ce4bh492rcd13ifvqdug","pricing_plan_id":"free"},{"bike_id":"cceb7d57-b024-4cf4-a504-5b77f5db55c4","system_id":"levelo_inurba_marseille","lat":43.33717,"lon":5.391857,"is_reserved":false,"is_disabled":false,"rental_uris":{"android":"levelo://app?vid=cceb7d57-b024-4cf4-a504-5b77f5db55c4","ios":"levelo://app?vid=cceb7d57-b024-4cf4-a504-5b77f5db55c4"},"vehicle_type_id":"4","last_reported":1704226035,"current_range_meters":30000,"station_id":"ce4bhr92rcd13ifvqhsg","pricing_plan_id":"free"},{"bike_id":"cb22166f-f745-45c7-ba04-12949ca802b8","system_id":"levelo_inurba_marseille","lat":43.32339,"lon":5.40617,"is_reserved":false,"is_disabled":false,"rental_uris":{"android":"levelo://app?vid=cb22166f-f745-45c7-ba04-12949ca802b8","ios":"levelo://app?vid=cb22166f-f745-45c7-ba04-12949ca802b8"},"vehicle_type_id":"4","last_reported":1704226035,"current_range_meters":17600,"station_id":"ce4bhq92rcd13ifvqhjg","pricing_plan_id":"free"},{"bike_id":"d874ded1-9f85-4b8a-b89d-d4ea2783f4d8","system_id":"levelo_inurba_marseille","lat":43.284787,"lon":5.384116,"is_reserved":false,"is_disabled":false,"rental_uris":{"android":"levelo://app?vid=d874ded1-9f85-4b8a-b89d-d4ea2783f4d8","ios":"levelo://app?vid=d874ded1-9f85-4b8a-b89d-d4ea2783f4d8"},"vehicle_type_id":"4","last_reported":1704226035,"current_range_meters":24800,"station_id":"ce4bh512rcd13ifvqe3g","pricing_plan_id":"free"},{"bike_id":"a4e0ac97-33ec-41b4-b3a3-66e2c1116404","system_id":"levelo_inurba_marseille","lat":43.28476,"lon":5.3841,"is_reserved":false,"is_disabled":false,"rental_uris":{"android":"levelo://app?vid=a4e0ac97-33ec-41b4-b3a3-66e2c1116404","ios":"levelo://app?vid=a4e0ac97-33ec-41b4-b3a3-66e2c1116404"},"vehicle_type_id":"4","last_reported":1704226035,"current_range_meters":22400,"station_id":"ce4bh512rcd13ifvqe3g","pricing_plan_id":"free"},{"bike_id":"1e755e27-5bec-44f5-9bc5-07d1b1956aa6","system_id":"levelo_inurba_marseille","lat":43.297946,"lon":5.404063,"is_reserved":false,"is_disabled":false,"rental_uris":{"android":"levelo://app?vid=1e755e27-5bec-44f5-9bc5-07d1b1956aa6","ios":"levelo://app?vid=1e755e27-5bec-44f5-9bc5-07d1b1956aa6"},"vehicle_type_id":"4","last_reported":1704226035,"current_range_meters":24800,"station_id":"ce4bh112rcd13ifvqd90","pricing_plan_id":"free"},{"bike_id":"d8016319-a09f-4d9a-bf25-363e6270d7b1","system_id":"levelo_inurba_marseille","lat":43.288501,"lon":5.393087,"is_reserved":false,"is_disabled":false,"rental_uris":{"android":"levelo://app?vid=d8016319-a09f-4d9a-bf25-363e6270d7b1","ios":"levelo://app?vid=d8016319-a09f-4d9a-bf25-363e6270d7b1"},"vehicle_type_id":"4","last_reported":1704226035,"current_range_meters":13600,"station_id":"ce4bh2p2rcd13ifvqdi0","pricing_plan_id":"free"},{"bike_id":"48fd469d-7f46-41b7-a8eb-36bb7bd48a06","system_id":"levelo_inurba_marseille","lat":43.283494,"lon":5.380945,"is_reserved":false,"is_disabled":false,"rental_uris":{"android":"levelo://app?vid=48fd469d-7f46-41b7-a8eb-36bb7bd48a06","ios":"levelo://app?vid=48fd469d-7f46-41b7-a8eb-36bb7bd48a06"},"vehicle_type_id":"4","last_reported":1704226035,"current_range_meters":8800,"station_id":"ce4bh412rcd13ifvqdr0","pricing_plan_id":"free"},{"bike_id":"8a64bd4f-be44-4fbf-8ff0-ffbc837321ff","system_id":"levelo_inurba_marseille","lat":43.283494,"lon":5.380945,"is_reserved":false,"is_disabled":false,"rental_uris":{"android":"levelo://app?vid=8a64bd4f-be44-4fbf-8ff0-ffbc837321ff","ios":"levelo://app?vid=8a64bd4f-be44-4fbf-8ff0-ffbc837321ff"},"vehicle_type_id":"4","last_reported":1704226035,"current_range_meters":26400,"station_id":"ce4bh412rcd13ifvqdr0","pricing_plan_id":"free"},{"bike_id":"8d816e56-64b1-4b38-b925-516d97cbd28a","system_id":"levelo_inurba_marseille","lat":43.284217,"lon":5.349697,"is_reserved":false,"is_disabled":false,"rental_uris":{"android":"levelo://app?vid=8d816e56-64b1-4b38-b925-516d97cbd28a","ios":"levelo://app?vid=8d816e56-64b1-4b38-b925-516d97cbd28a"},"vehicle_type_id":"4","last_reported":1704226035,"current_range_meters":29600,"station_id":"ce4bhbh2rcd13ifvqepg","pricing_plan_id":"free"},{"bike_id":"b3d5b2ae-5bd7-4f38-b681-9ea9aac8372c","system_id":"levelo_inurba_marseille","lat":43.284219,"lon":5.3497,"is_reserved":false,"is_disabled":false,"rental_uris":{"android":"levelo://app?vid=b3d5b2ae-5bd7-4f38-b681-9ea9aac8372c","ios":"levelo://app?vid=b3d5b2ae-5bd7-4f38-b681-9ea9aac8372c"},"vehicle_type_id":"4","last_reported":1704226035,"current_range_meters":29200,"station_id":"ce4bhbh2rcd13ifvqepg","pricing_plan_id":"free"},{"bike_id":"f87f89de-b725-4843-a07f-63d221adf6db","system_id":"levelo_inurba_marseille","lat":43.284219,"lon":5.3497,"is_reserved":false,"is_disabled":false,"rental_uris":{"android":"levelo://app?vid=f87f89de-b725-4843-a07f-63d221adf6db","ios":"levelo://app?vid=f87f89de-b725-4843-a07f-63d221adf6db"},"vehicle_type_id":"4","last_reported":1704226035,"current_range_meters":5200,"station_id":"ce4bhbh2rcd13ifvqepg","pricing_plan_id":"free"},{"bike_id":"5c7491dd-fcaa-430e-9c56-b01b25f88f2a","system_id":"levelo_inurba_marseille","lat":43.289363,"lon":5.396322,"is_reserved":false,"is_disabled":false,"rental_uris":{"android":"levelo://app?vid=5c7491dd-fcaa-430e-9c56-b01b25f88f2a","ios":"levelo://app?vid=5c7491dd-fcaa-430e-9c56-b01b25f88f2a"},"vehicle_type_id":"4","last_reported":1704226035,"current_range_meters":2800,"station_id":"ce4bh3h2rcd13ifvqdn0","pricing_plan_id":"free"},{"bike_id":"605ba1c0-94c4-4fcf-8858-0f3db60d5b6c","system_id":"levelo_inurba_marseille","lat":43.283502,"lon":5.386471,"is_reserved":false,"is_disabled":false,"rental_uris":{"android":"levelo://app?vid=605ba1c0-94c4-4fcf-8858-0f3db60d5b6c","ios":"levelo://app?vid=605ba1c0-94c4-4fcf-8858-0f3db60d5b6c"},"vehicle_type_id":"4","last_reported":1704226035,"current_range_meters":4000,"station_id":"ce4bh492rcd13ifvqdvg","pricing_plan_id":"free"},{"bike_id":"8d66e175-2e21-47b2-b261-e78c9ec054ca","system_id":"levelo_inurba_marseille","lat":43.282687,"lon":5.350701,"is_reserved":false,"is_disabled":false,"rental_uris":{"android":"levelo://app?vid=8d66e175-2e21-47b2-b261-e78c9ec054ca","ios":"levelo://app?vid=8d66e175-2e21-47b2-b261-e78c9ec054ca"},"vehicle_type_id":"4","last_reported":1704226035,"current_range_meters":14400,"station_id":"ce4bhbp2rcd13ifvqerg","pricing_plan_id":"free"},{"bike_id":"be99d362-777a-4d7e-9970-5c84dd312f19","system_id":"levelo_inurba_marseille","lat":43.280382,"lon":5.369291,"is_reserved":false,"is_disabled":false,"rental_uris":{"android":"levelo://app?vid=be99d362-777a-4d7e-9970-5c84dd312f19","ios":"levelo://app?vid=be99d362-777a-4d7e-9970-5c84dd312f19"},"vehicle_type_id":"4","last_reported":1704226035,"current_range_meters":7200,"station_id":"ce4bha12rcd13ifvqef0","pricing_plan_id":"free"},{"bike_id":"040fa358-1831-4cad-bbb2-981603c63acb","system_id":"levelo_inurba_marseille","lat":43.280382,"lon":5.369291,"is_reserved":false,"is_disabled":false,"rental_uris":{"android":"levelo://app?vid=040fa358-1831-4cad-bbb2-981603c63acb","ios":"levelo://app?vid=040fa358-1831-4cad-bbb2-981603c63acb"},"vehicle_type_id":"4","last_reported":1704226035,"current_range_meters":21200,"station_id":"ce4bha12rcd13ifvqef0","pricing_plan_id":"free"},{"bike_id":"b8a76d86-4f70-4c1c-9f54-2bfd1c947bea","system_id":"levelo_inurba_marseille","lat":43.296263,"lon":5.40601,"is_reserved":false,"is_disabled":false,"rental_uris":{"android":"levelo://app?vid=b8a76d86-4f70-4c1c-9f54-2bfd1c947bea","ios":"levelo://app?vid=b8a76d86-4f70-4c1c-9f54-2bfd1c947bea"},"vehicle_type_id":"4","last_reported":1704226035,"current_range_meters":27200,"station_id":"ce4bh0h2rcd13ifvqd60","pricing_plan_id":"free"},{"bike_id":"82c45edc-bfc3-4c0b-a828-00a66c7b296c","system_id":"levelo_inurba_marseille","lat":43.296263,"lon":5.40601,"is_reserved":false,"is_disabled":false,"rental_uris":{"android":"levelo://app?vid=82c45edc-bfc3-4c0b-a828-00a66c7b296c","ios":"levelo://app?vid=82c45edc-bfc3-4c0b-a828-00a66c7b296c"},"vehicle_type_id":"4","last_reported":1704226035,"current_range_meters":12000,"station_id":"ce4bh0h2rcd13ifvqd60","pricing_plan_id":"free"},{"bike_id":"269584ef-8665-422a-af24-206e6d301e26","system_id":"levelo_inurba_marseille","lat":43.296289,"lon":5.405927,"is_reserved":false,"is_disabled":false,"rental_uris":{"android":"levelo://app?vid=269584ef-8665-422a-af24-206e6d301e26","ios":"levelo://app?vid=269584ef-8665-422a-af24-206e6d301e26"},"vehicle_type_id":"4","last_reported":1704226035,"current_range_meters":18400,"station_id":"","pricing_plan_id":"free"},{"bike_id":"49424275-37d9-44a6-a5ad-5c024e052048","system_id":"levelo_inurba_marseille","lat":43.284462,"lon":5.392121,"is_reserved":false,"is_disabled":false,"rental_uris":{"android":"levelo://app?vid=49424275-37d9-44a6-a5ad-5c024e052048","ios":"levelo://app?vid=49424275-37d9-44a6-a5ad-5c024e052048"},"vehicle_type_id":"4","last_reported":1704226035,"current_range_meters":22000,"station_id":"ce4bhoh2rcd13ifvqh5g","pricing_plan_id":"free"},{"bike_id":"2f19c8ee-abba-4206-86d5-a796fd16787f","system_id":"levelo_inurba_marseille","lat":43.284462,"lon":5.392121,"is_reserved":false,"is_disabled":false,"rental_uris":{"android":"levelo://app?vid=2f19c8ee-abba-4206-86d5-a796fd16787f","ios":"levelo://app?vid=2f19c8ee-abba-4206-86d5-a796fd16787f"},"vehicle_type_id":"4","last_reported":1704226035,"current_range_meters":22000,"station_id":"ce4bhoh2rcd13ifvqh5g","pricing_plan_id":"free"},{"bike_id":"c6e02fb7-b4da-4f16-93f0-f5ad1203684c","system_id":"levelo_inurba_marseille","lat":43.284462,"lon":5.392121,"is_reserved":false,"is_disabled":false,"rental_uris":{"android":"levelo://app?vid=c6e02fb7-b4da-4f16-93f0-f5ad1203684c","ios":"levelo://app?vid=c6e02fb7-b4da-4f16-93f0-f5ad1203684c"},"vehicle_type_id":"4","last_reported":1704226035,"current_range_meters":23600,"station_id":"ce4bhoh2rcd13ifvqh5g","pricing_plan_id":"free"},{"bike_id":"8d6a1088-326d-4d13-855d-59558595c6fe","system_id":"levelo_inurba_marseille","lat":43.28573,"lon":5.394992,"is_reserved":false,"is_disabled":false,"rental_uris":{"android":"levelo://app?vid=8d6a1088-326d-4d13-855d-59558595c6fe","ios":"levelo://app?vid=8d6a1088-326d-4d13-855d-59558595c6fe"},"vehicle_type_id":"4","last_reported":1704226035,"current_range_meters":24400,"station_id":"ce4bh292rcd13ifvqdg0","pricing_plan_id":"free"},{"bike_id":"ce388a99-2ab1-41b7-ae86-b40c471c3cbf","system_id":"levelo_inurba_marseille","lat":43.30416,"lon":5.41283,"is_reserved":false,"is_disabled":false,"rental_uris":{"android":"levelo://app?vid=ce388a99-2ab1-41b7-ae86-b40c471c3cbf","ios":"levelo://app?vid=ce388a99-2ab1-41b7-ae86-b40c471c3cbf"},"vehicle_type_id":"4","last_reported":1704226035,"current_range_meters":4000,"station_id":"ce4bhop2rcd13ifvqh8g","pricing_plan_id":"free"},{"bike_id":"b862911d-5c92-4d21-8e78-73053e0b2e9b","system_id":"levelo_inurba_marseille","lat":43.30423,"lon":5.41289,"is_reserved":false,"is_disabled":false,"rental_uris":{"android":"levelo://app?vid=b862911d-5c92-4d21-8e78-73053e0b2e9b","ios":"levelo://app?vid=b862911d-5c92-4d21-8e78-73053e0b2e9b"},"vehicle_type_id":"4","last_reported":1704226035,"current_range_meters":6800,"station_id":"ce4bhop2rcd13ifvqh8g","pricing_plan_id":"free"},{"bike_id":"ae2fe156-14e7-4f02-91c3-358e52758f3d","system_id":"levelo_inurba_marseille","lat":43.304188,"lon":5.412904,"is_reserved":false,"is_disabled":false,"rental_uris":{"android":"levelo://app?vid=ae2fe156-14e7-4f02-91c3-358e52758f3d","ios":"levelo://app?vid=ae2fe156-14e7-4f02-91c3-358e52758f3d"},"vehicle_type_id":"4","last_reported":1704226035,"current_range_meters":22400,"station_id":"ce4bhop2rcd13ifvqh8g","pricing_plan_id":"free"},{"bike_id":"c935cc26-978c-4b7b-84bc-089b603c6282","system_id":"levelo_inurba_marseille","lat":43.279087,"lon":5.380114,"is_reserved":false,"is_disabled":false,"rental_uris":{"android":"levelo://app?vid=c935cc26-978c-4b7b-84bc-089b603c6282","ios":"levelo://app?vid=c935cc26-978c-4b7b-84bc-089b603c6282"},"vehicle_type_id":"4","last_reported":1704226035,"current_range_meters":26000,"station_id":"ce4bhf92rcd13ifvqf50","pricing_plan_id":"free"},{"bike_id":"264aed10-74f0-49fc-8476-5bd4afa824db","system_id":"levelo_inurba_marseille","lat":43.279087,"lon":5.380114,"is_reserved":false,"is_disabled":false,"rental_uris":{"android":"levelo://app?vid=264aed10-74f0-49fc-8476-5bd4afa824db","ios":"levelo://app?vid=264aed10-74f0-49fc-8476-5bd4afa824db"},"vehicle_type_id":"4","last_reported":1704226035,"current_range_meters":15600,"station_id":"ce4bhf92rcd13ifvqf50","pricing_plan_id":"free"},{"bike_id":"70f28cf4-a670-419d-b1a9-f5c36413e84c","system_id":"levelo_inurba_marseille","lat":43.287154,"lon":5.399979,"is_reserved":false,"is_disabled":false,"rental_uris":{"android":"levelo://app?vid=70f28cf4-a670-419d-b1a9-f5c36413e84c","ios":"levelo://app?vid=70f28cf4-a670-419d-b1a9-f5c36413e84c"},"vehicle_type_id":"4","last_reported":1704226035,"current_range_meters":13600,"station_id":"ce4bho92rcd13ifvqh3g","pricing_plan_id":"free"},{"bike_id":"f0d70c60-5f1e-4529-8664-3cbd80432697","system_id":"levelo_inurba_marseille","lat":43.287154,"lon":5.399979,"is_reserved":false,"is_disabled":false,"rental_uris":{"android":"levelo://app?vid=f0d70c60-5f1e-4529-8664-3cbd80432697","ios":"levelo://app?vid=f0d70c60-5f1e-4529-8664-3cbd80432697"},"vehicle_type_id":"4","last_reported":1704226035,"current_range_meters":8400,"station_id":"ce4bho92rcd13ifvqh3g","pricing_plan_id":"free"},{"bike_id":"dfe44e7e-d566-40f6-a546-768dfe0e78a7","system_id":"levelo_inurba_marseille","lat":43.287154,"lon":5.399979,"is_reserved":false,"is_disabled":false,"rental_uris":{"android":"levelo://app?vid=dfe44e7e-d566-40f6-a546-768dfe0e78a7","ios":"levelo://app?vid=dfe44e7e-d566-40f6-a546-768dfe0e78a7"},"vehicle_type_id":"4","last_reported":1704226035,"current_range_meters":20800,"station_id":"ce4bho92rcd13ifvqh3g","pricing_plan_id":"free"},{"bike_id":"beb73fc7-5e83-4c41-840c-78cfcd030cc6","system_id":"levelo_inurba_marseille","lat":43.287154,"lon":5.399979,"is_reserved":false,"is_disabled":false,"rental_uris":{"android":"levelo://app?vid=beb73fc7-5e83-4c41-840c-78cfcd030cc6","ios":"levelo://app?vid=beb73fc7-5e83-4c41-840c-78cfcd030cc6"},"vehicle_type_id":"4","last_reported":1704226035,"current_range_meters":6400,"station_id":"ce4bho92rcd13ifvqh3g","pricing_plan_id":"free"},{"bike_id":"faeea320-e47f-419e-a711-73a0e3db0fec","system_id":"levelo_inurba_marseille","lat":43.320045,"lon":5.415048,"is_reserved":false,"is_disabled":false,"rental_uris":{"android":"levelo://app?vid=faeea320-e47f-419e-a711-73a0e3db0fec","ios":"levelo://app?vid=faeea320-e47f-419e-a711-73a0e3db0fec"},"vehicle_type_id":"4","last_reported":1704226035,"current_range_meters":24400,"station_id":"ce4bhq92rcd13ifvqhkg","pricing_plan_id":"free"},{"bike_id":"6e6658d0-c148-4e77-885a-818b2a313fca","system_id":"levelo_inurba_marseille","lat":43.320485,"lon":5.415505,"is_reserved":false,"is_disabled":false,"rental_uris":{"android":"levelo://app?vid=6e6658d0-c148-4e77-885a-818b2a313fca","ios":"levelo://app?vid=6e6658d0-c148-4e77-885a-818b2a313fca"},"vehicle_type_id":"4","last_reported":1704226035,"current_range_meters":28800,"station_id":"ce4bhq92rcd13ifvqhkg","pricing_plan_id":"free"},{"bike_id":"e960937d-0713-45cd-9bfd-346a6cf5c996","system_id":"levelo_inurba_marseille","lat":43.292571,"lon":5.409107,"is_reserved":false,"is_disabled":false,"rental_uris":{"android":"levelo://app?vid=e960937d-0713-45cd-9bfd-346a6cf5c996","ios":"levelo://app?vid=e960937d-0713-45cd-9bfd-346a6cf5c996"},"vehicle_type_id":"4","last_reported":1704226035,"current_range_meters":29200,"station_id":"ce4bh192rcd13ifvqdc0","pricing_plan_id":"free"},{"bike_id":"b7df07bc-c3bd-45e7-a82f-6ea9797ffbf0","system_id":"levelo_inurba_marseille","lat":43.292571,"lon":5.409107,"is_reserved":false,"is_disabled":false,"rental_uris":{"android":"levelo://app?vid=b7df07bc-c3bd-45e7-a82f-6ea9797ffbf0","ios":"levelo://app?vid=b7df07bc-c3bd-45e7-a82f-6ea9797ffbf0"},"vehicle_type_id":"4","last_reported":1704226035,"current_range_meters":2800,"station_id":"ce4bh192rcd13ifvqdc0","pricing_plan_id":"free"},{"bike_id":"ed420f1b-7d98-48b1-aa16-56195c71017c","system_id":"levelo_inurba_marseille","lat":43.303837,"lon":5.418724,"is_reserved":false,"is_disabled":false,"rental_uris":{"android":"levelo://app?vid=ed420f1b-7d98-48b1-aa16-56195c71017c","ios":"levelo://app?vid=ed420f1b-7d98-48b1-aa16-56195c71017c"},"vehicle_type_id":"4","last_reported":1704226035,"current_range_meters":20000,"station_id":"ce4bhop2rcd13ifvqh7g","pricing_plan_id":"free"},{"bike_id":"024eb4f9-bc93-495e-9194-e6d67a1e04ce","system_id":"levelo_inurba_marseille","lat":43.280784,"lon":5.396622,"is_reserved":false,"is_disabled":false,"rental_uris":{"android":"levelo://app?vid=024eb4f9-bc93-495e-9194-e6d67a1e04ce","ios":"levelo://app?vid=024eb4f9-bc93-495e-9194-e6d67a1e04ce"},"vehicle_type_id":"4","last_reported":1704226035,"current_range_meters":30400,"station_id":"ce4bho12rcd13ifvqh2g","pricing_plan_id":"free"},{"bike_id":"cf259e9d-e91d-4494-bf38-9c2294f724dc","system_id":"levelo_inurba_marseille","lat":43.280784,"lon":5.396622,"is_reserved":false,"is_disabled":false,"rental_uris":{"android":"levelo://app?vid=cf259e9d-e91d-4494-bf38-9c2294f724dc","ios":"levelo://app?vid=cf259e9d-e91d-4494-bf38-9c2294f724dc"},"vehicle_type_id":"4","last_reported":1704226035,"current_range_meters":28800,"station_id":"ce4bho12rcd13ifvqh2g","pricing_plan_id":"free"},{"bike_id":"2f07b6ec-cb19-4393-848e-201add03b747","system_id":"levelo_inurba_marseille","lat":43.280784,"lon":5.396622,"is_reserved":false,"is_disabled":false,"rental_uris":{"android":"levelo://app?vid=2f07b6ec-cb19-4393-848e-201add03b747","ios":"levelo://app?vid=2f07b6ec-cb19-4393-848e-201add03b747"},"vehicle_type_id":"4","last_reported":1704226035,"current_range_meters":31200,"station_id":"ce4bho12rcd13ifvqh2g","pricing_plan_id":"free"},{"bike_id":"b948bfe6-60b1-4058-9c45-7a4f9f901e57","system_id":"levelo_inurba_marseille","lat":43.278401,"lon":5.392152,"is_reserved":false,"is_disabled":false,"rental_uris":{"android":"levelo://app?vid=b948bfe6-60b1-4058-9c45-7a4f9f901e57","ios":"levelo://app?vid=b948bfe6-60b1-4058-9c45-7a4f9f901e57"},"vehicle_type_id":"4","last_reported":1704226035,"current_range_meters":8400,"station_id":"ce4bhjp2rcd13ifvqga0","pricing_plan_id":"free"},{"bike_id":"c9b265f3-3d7a-4da9-a365-3897bf5319b9","system_id":"levelo_inurba_marseille","lat":43.273613,"lon":5.362705,"is_reserved":false,"is_disabled":false,"rental_uris":{"android":"levelo://app?vid=c9b265f3-3d7a-4da9-a365-3897bf5319b9","ios":"levelo://app?vid=c9b265f3-3d7a-4da9-a365-3897bf5319b9"},"vehicle_type_id":"4","last_reported":1704226035,"current_range_meters":24000,"station_id":"ce4bhbh2rcd13ifvqeo0","pricing_plan_id":"free"},{"bike_id":"2e21ede0-198c-4be4-bfa4-3f304253ad71","system_id":"levelo_inurba_marseille","lat":43.275625,"lon":5.384392,"is_reserved":false,"is_disabled":false,"rental_uris":{"android":"levelo://app?vid=2e21ede0-198c-4be4-bfa4-3f304253ad71","ios":"levelo://app?vid=2e21ede0-198c-4be4-bfa4-3f304253ad71"},"vehicle_type_id":"4","last_reported":1704226035,"current_range_meters":12400,"station_id":"ce4bhh92rcd13ifvqfi0","pricing_plan_id":"free"},{"bike_id":"c40295f0-e224-44bf-bf3c-646881759496","system_id":"levelo_inurba_marseille","lat":43.273613,"lon":5.362705,"is_reserved":false,"is_disabled":false,"rental_uris":{"android":"levelo://app?vid=c40295f0-e224-44bf-bf3c-646881759496","ios":"levelo://app?vid=c40295f0-e224-44bf-bf3c-646881759496"},"vehicle_type_id":"4","last_reported":1704226035,"current_range_meters":21200,"station_id":"ce4bhbh2rcd13ifvqeo0","pricing_plan_id":"free"},{"bike_id":"2b97a69a-2a53-4dfc-8a48-f3945e31f483","system_id":"levelo_inurba_marseille","lat":43.336134,"lon":5.410341,"is_reserved":false,"is_disabled":false,"rental_uris":{"android":"levelo://app?vid=2b97a69a-2a53-4dfc-8a48-f3945e31f483","ios":"levelo://app?vid=2b97a69a-2a53-4dfc-8a48-f3945e31f483"},"vehicle_type_id":"4","last_reported":1704226035,"current_range_meters":24400,"station_id":"ce4bhqh2rcd13ifvqhmg","pricing_plan_id":"free"},{"bike_id":"fbf53502-4604-4ae7-9411-28015770cd7b","system_id":"levelo_inurba_marseille","lat":43.279952,"lon":5.400085,"is_reserved":false,"is_disabled":false,"rental_uris":{"android":"levelo://app?vid=fbf53502-4604-4ae7-9411-28015770cd7b","ios":"levelo://app?vid=fbf53502-4604-4ae7-9411-28015770cd7b"},"vehicle_type_id":"4","last_reported":1704226035,"current_range_meters":29600,"station_id":"ce4bho92rcd13ifvqh4g","pricing_plan_id":"free"},{"bike_id":"2774f0d0-ce20-4035-bcbf-3fc04f618288","system_id":"levelo_inurba_marseille","lat":43.279975,"lon":5.40009,"is_reserved":false,"is_disabled":false,"rental_uris":{"android":"levelo://app?vid=2774f0d0-ce20-4035-bcbf-3fc04f618288","ios":"levelo://app?vid=2774f0d0-ce20-4035-bcbf-3fc04f618288"},"vehicle_type_id":"4","last_reported":1704226035,"current_range_meters":30400,"station_id":"ce4bho92rcd13ifvqh4g","pricing_plan_id":"free"},{"bike_id":"1e900dff-6021-4492-b3ea-4bfe12e3cc94","system_id":"levelo_inurba_marseille","lat":43.279975,"lon":5.40009,"is_reserved":false,"is_disabled":false,"rental_uris":{"android":"levelo://app?vid=1e900dff-6021-4492-b3ea-4bfe12e3cc94","ios":"levelo://app?vid=1e900dff-6021-4492-b3ea-4bfe12e3cc94"},"vehicle_type_id":"4","last_reported":1704226035,"current_range_meters":22000,"station_id":"ce4bho92rcd13ifvqh4g","pricing_plan_id":"free"},{"bike_id":"575dab36-6090-4ba0-b893-e3f7e28cfb60","system_id":"levelo_inurba_marseille","lat":43.317121,"lon":5.423936,"is_reserved":false,"is_disabled":false,"rental_uris":{"android":"levelo://app?vid=575dab36-6090-4ba0-b893-e3f7e28cfb60","ios":"levelo://app?vid=575dab36-6090-4ba0-b893-e3f7e28cfb60"},"vehicle_type_id":"4","last_reported":1704226035,"current_range_meters":15200,"station_id":"ce4bhp92rcd13ifvqhbg","pricing_plan_id":"free"},{"bike_id":"5e3452d0-bbc8-463b-8852-ec98e809d5a0","system_id":"levelo_inurba_marseille","lat":43.317121,"lon":5.423936,"is_reserved":false,"is_disabled":false,"rental_uris":{"android":"levelo://app?vid=5e3452d0-bbc8-463b-8852-ec98e809d5a0","ios":"levelo://app?vid=5e3452d0-bbc8-463b-8852-ec98e809d5a0"},"vehicle_type_id":"4","last_reported":1704226035,"current_range_meters":31200,"station_id":"ce4bhp92rcd13ifvqhbg","pricing_plan_id":"free"},{"bike_id":"f3e351f0-7ca3-497e-a450-69da3118abd7","system_id":"levelo_inurba_marseille","lat":43.317121,"lon":5.423936,"is_reserved":false,"is_disabled":false,"rental_uris":{"android":"levelo://app?vid=f3e351f0-7ca3-497e-a450-69da3118abd7","ios":"levelo://app?vid=f3e351f0-7ca3-497e-a450-69da3118abd7"},"vehicle_type_id":"4","last_reported":1704226035,"current_range_meters":31600,"station_id":"ce4bhp92rcd13ifvqhbg","pricing_plan_id":"free"},{"bike_id":"c2f050c8-5829-4d0e-9d3b-560f9daeb30d","system_id":"levelo_inurba_marseille","lat":43.310785,"lon":5.424305,"is_reserved":false,"is_disabled":false,"rental_uris":{"android":"levelo://app?vid=c2f050c8-5829-4d0e-9d3b-560f9daeb30d","ios":"levelo://app?vid=c2f050c8-5829-4d0e-9d3b-560f9daeb30d"},"vehicle_type_id":"4","last_reported":1704226035,"current_range_meters":31200,"station_id":"ce4bhp92rcd13ifvqhag","pricing_plan_id":"free"},{"bike_id":"537de52f-fbf7-4ccb-979b-67cc22a43136","system_id":"levelo_inurba_marseille","lat":43.310785,"lon":5.424305,"is_reserved":false,"is_disabled":false,"rental_uris":{"android":"levelo://app?vid=537de52f-fbf7-4ccb-979b-67cc22a43136","ios":"levelo://app?vid=537de52f-fbf7-4ccb-979b-67cc22a43136"},"vehicle_type_id":"4","last_reported":1704226035,"current_range_meters":7200,"station_id":"ce4bhp92rcd13ifvqhag","pricing_plan_id":"free"},{"bike_id":"c4bbe924-5b34-4209-ab03-712ec7caab12","system_id":"levelo_inurba_marseille","lat":43.273125,"lon":5.390731,"is_reserved":false,"is_disabled":false,"rental_uris":{"android":"levelo://app?vid=c4bbe924-5b34-4209-ab03-712ec7caab12","ios":"levelo://app?vid=c4bbe924-5b34-4209-ab03-712ec7caab12"},"vehicle_type_id":"4","last_reported":1704226035,"current_range_meters":26000,"station_id":"ce4bhgp2rcd13ifvqfe0","pricing_plan_id":"free"},{"bike_id":"1c7fc254-513e-4e48-b328-96597f351885","system_id":"levelo_inurba_marseille","lat":43.295511,"lon":5.422926,"is_reserved":false,"is_disabled":false,"rental_uris":{"android":"levelo://app?vid=1c7fc254-513e-4e48-b328-96597f351885","ios":"levelo://app?vid=1c7fc254-513e-4e48-b328-96597f351885"},"vehicle_type_id":"4","last_reported":1704226035,"current_range_meters":24400,"station_id":"ce4bhph2rcd13ifvqhdg","pricing_plan_id":"free"},{"bike_id":"5739d156-7dd4-484d-97ed-16fcdd68d703","system_id":"levelo_inurba_marseille","lat":43.29559,"lon":5.42284,"is_reserved":false,"is_disabled":false,"rental_uris":{"android":"levelo://app?vid=5739d156-7dd4-484d-97ed-16fcdd68d703","ios":"levelo://app?vid=5739d156-7dd4-484d-97ed-16fcdd68d703"},"vehicle_type_id":"4","last_reported":1704226035,"current_range_meters":24000,"station_id":"ce4bhph2rcd13ifvqhdg","pricing_plan_id":"free"},{"bike_id":"33a5c0ea-a0f8-4596-b1f4-72f6ae800317","system_id":"levelo_inurba_marseille","lat":43.29556,"lon":5.42285,"is_reserved":false,"is_disabled":false,"rental_uris":{"android":"levelo://app?vid=33a5c0ea-a0f8-4596-b1f4-72f6ae800317","ios":"levelo://app?vid=33a5c0ea-a0f8-4596-b1f4-72f6ae800317"},"vehicle_type_id":"4","last_reported":1704226035,"current_range_meters":18000,"station_id":"ce4bhph2rcd13ifvqhdg","pricing_plan_id":"free"},