{"last_updated":1747678471,"ttl":60,"version":"2.2","data":{"bikes":[{"bike_id":"c0b9fd4f-e181-46ce-b0bf-f5119973334f","system_id":"levelo_inurba_marseille","lat":43.33771,"lon":5.37424,"is_reserved":false,"is_disabled":true,"rental_uris":{"android":"levelo://app?vid=c0b9fd4f-e181-46ce-b0bf-f5119973334f","ios":"levelo://app?vid=c0b9fd4f-e181-46ce-b0bf-f5119973334f"},"vehicle_type_id":"4","last_reported":1747678471,"current_range_meters":0,"station_id":"","pricing_plan_id":"cebpf4jnsgd1na2vs0mg"},{"bike_id":"25b4f69a-1726-4c58-a89d-ca45327456b0","system_id":"levelo_inurba_marseille","lat":43.272756,"lon":5.362819,"is_reserved":false,"is_disabled":true,"rental_uris":{"android":"levelo://app?vid=25b4f69a-1726-4c58-a89d-ca45327456b0","ios":"levelo://app?vid=25b4f69a-1726-4c58-a89d-ca45327456b0"},"vehicle_type_id":"4","last_reported":1747678471,"current_range_meters":0,"station_id":"","pricing_plan_id":"cebpf4jnsgd1na2vs0mg"},{"bike_id":"6985b769-f9ff-46c0-94cb-903602d08ef6","system_id":"levelo_inurba_marseille","lat":43.29037,"lon":5.38149,"is_reserved":false,"is_disabled":true,"rental_uris":{"android":"levelo://app?vid=6985b769-f9ff-46c0-94cb-903602d08ef6","ios":"levelo://app?vid=6985b769-f9ff-46c0-94cb-903602d08ef6"},"vehicle_type_id":"4","last_reported":1747678471,"current_range_meters":0,"station_id":"","pricing_plan_id":"cebpf4jnsgd1na2vs0mg"},{"bike_id":"fc2577e7-1497-425b-9d4f-ab8d7dc843c6","system_id":"levelo_inurba_marseille","lat":43.33771,"lon":5.37485,"is_reserved":false,"is_disabled":true,"rental_uris":{"android":"levelo://app?vid=fc2577e7-1497-425b-9d4f-ab8d7dc843c6","ios":"levelo://app?vid=fc2577e7-1497-425b-9d4f-ab8d7dc843c6"},"vehicle_type_id":"4","last_reported":1747678471,"current_range_meters":0,"station_id":"","pricing_plan_id":"cebpf4jnsgd1na2vs0mg"},{"bike_id":"522a6fa9-3b0f-41ae-92d4-659155b9e6e8","system_id":"levelo_inurba_marseille","lat":43.239272,"lon":5.36185,"is_reserved":false,"is_disabled":true,"rental_uris":{"android":"levelo://app?vid=522a6fa9-3b0f-41ae-92d4-659155b9e6e8","ios":"levelo://app?vid=522a6fa9-3b0f-41ae-92d4-659155b9e6e8"},"vehicle_type_id":"4","last_reported":1747678471,"current_range_meters":0,"station_id":"","pricing_plan_id":"cebpf4jnsgd1na2vs0mg"},{"bike_id":"8f3685e3-183d-4c98-9513-bfeeb8fbc041","system_id":"levelo_inurba_marseille","lat":43.27947,"lon":5.41227,"is_reserved":false,"is_disabled":true,"rental_uris":{"android":"levelo://app?vid=8f3685e3-183d-4c98-9513-bfeeb8fbc041","ios":"levelo://app?vid=8f3685e3-183d-4c98-9513-bfeeb8fbc041"},"vehicle_type_id":"4","last_reported":1747678471,"current_range_meters":0,"station_id":"","pricing_plan_id":"cebpf4jnsgd1na2vs0mg"},{"bike_id":"38d43936-3f25-44b1-bc40-f0748f1c81bb","system_id":"levelo_inurba_marseille","lat":43.233148,"lon":5.361549,"is_reserved":false,"is_disabled":true,"rental_uris":{"android":"levelo://app?vid=38d43936-3f25-44b1-bc40-f0748f1c81bb","ios":"levelo://app?vid=38d43936-3f25-44b1-bc40-f0748f1c81bb"},"vehicle_type_id":"4","last_reported":1747678471,"current_range_meters":0,"station_id":"","pricing_plan_id":"cebpf4jnsgd1na2vs0mg"},{"bike_id":"54255574-d73a-48d1-85ed-ee6fbfc41d57","system_id":"levelo_inurba_marseille","lat":43.264108,"lon":5.373424,"is_reserved":false,"is_disabled":true,"rental_uris":{"android":"levelo://app?vid=54255574-d73a-48d1-85ed-ee6fbfc41d57","ios":"levelo://app?vid=54255574-d73a-48d1-85ed-ee6fbfc41d57"},"vehicle_type_id":"4","last_reported":1747678471,"current_range_meters":0,"station_id":"","pricing_plan_id":"cebpf4jnsgd1na2vs0mg"},{"bike_id":"80b49949-2015-46f6-95ad-3d3616eb898e","system_id":"levelo_inurba_marseille","lat":43.33815,"lon":5.37437,"is_reserved":false,"is_disabled":true,"rental_uris":{"android":"levelo://app?vid=80b49949-2015-46f6-95ad-3d3616eb898e","ios":"levelo://app?vid=80b49949-2015-46f6-95ad-3d3616eb898e"},"vehicle_type_id":"4","last_reported":1747678471,"current_range_meters":0,"station_id":"","pricing_plan_id":"cebpf4jnsgd1na2vs0mg"},{"bike_id":"e9dd3aa4-b5e7-4480-926d-d7f537719bfa","system_id":"levelo_inurba_marseille","lat":43.23032,"lon":5.40195,"is_reserved":false,"is_disabled":true,"rental_uris":{"android":"levelo://app?vid=e9dd3aa4-b5e7-4480-926d-d7f537719bfa","ios":"levelo://app?vid=e9dd3aa4-b5e7-4480-926d-d7f537719bfa"},"vehicle_type_id":"4","last_reported":1747678471,"current_range_meters":0,"station_id":"","pricing_plan_id":"cebpf4jnsgd1na2vs0mg"},{"bike_id":"49625ea1-c55f-4883-8183-23c0e1d682f8","system_id":"levelo_inurba_marseille","lat":43.292723,"lon":5.376431,"is_reserved":false,"is_disabled":true,"rental_uris":{"android":"levelo://app?vid=49625ea1-c55f-4883-8183-23c0e1d682f8","ios":"levelo://app?vid=49625ea1-c55f-4883-8183-23c0e1d682f8"},"vehicle_type_id":"4","last_reported":1747678471,"current_range_meters":0,"station_id":"ce4bgi12rcd13ifvqb80","pricing_plan_id":"cebpf4jnsgd1na2vs0mg"},{"bike_id":"c9bdafc4-cf10-46d5-86f6-591fcf02fe04","system_id":"levelo_inurba_marseille","lat":43.30809,"lon":5.38148,"is_reserved":false,"is_disabled":true,"rental_uris":{"android":"levelo://app?vid=c9bdafc4-cf10-46d5-86f6-591fcf02fe04","ios":"levelo://app?vid=c9bdafc4-cf10-46d5-86f6-591fcf02fe04"},"vehicle_type_id":"4","last_reported":1747678471,"current_range_meters":0,"station_id":"ce4bgt12rcd13ifvqce0","pricing_plan_id":"cebpf4jnsgd1na2vs0mg"},{"bike_id":"3c7dd739-7489-4ee4-acaa-3e72b8b4f4aa","system_id":"levelo_inurba_marseille","lat":43.30652,"lon":5.40108,"is_reserved":false,"is_disabled":false,"rental_uris":{"android":"levelo://app?vid=3c7dd739-7489-4ee4-acaa-3e72b8b4f4aa","ios":"levelo://app?vid=3c7dd739-7489-4ee4-acaa-3e72b8b4f4aa"},"vehicle_type_id":"4","last_reported":1747678471,"current_range_meters":0,"station_id":"ce4bh112rcd13ifvqda0","pricing_plan_id":"cebpf4jnsgd1na2vs0mg"},{"bike_id":"f158b94d-b82c-4894-97e8-9c5322c004b9","system_id":"levelo_inurba_marseille","lat":43.28464,"lon":5.38429,"is_reserved":false,"is_disabled":true,"rental_uris":{"android":"levelo://app?vid=f158b94d-b82c-4894-97e8-9c5322c004b9","ios":"levelo://app?vid=f158b94d-b82c-4894-97e8-9c5322c004b9"},"vehicle_type_id":"4","last_reported":1747678471,"current_range_meters":0,"station_id":"ce4bh512rcd13ifvqe3g","pricing_plan_id":"cebpf4jnsgd1na2vs0mg"},{"bike_id":"d308410e-c9fc-45ce-858b-c8aa376c4f5e","system_id":"levelo_inurba_marseille","lat":43.290628,"lon":5.37109,"is_reserved":false,"is_disabled":true,"rental_uris":{"android":"levelo://app?vid=d308410e-c9fc-45ce-858b-c8aa376c4f5e","ios":"levelo://app?vid=d308410e-c9fc-45ce-858b-c8aa376c4f5e"},"vehicle_type_id":"4","last_reported":1747678471,"current_range_meters":0,"station_id":"ce4bha92rcd13ifvqeh0","pricing_plan_id":"cebpf4jnsgd1na2vs0mg"},{"bike_id":"fe39cef5-1a64-464f-8977-0b90739b1a05","system_id":"levelo_inurba_marseille","lat":43.279022,"lon":5.380152,"is_reserved":false,"is_disabled":true,"rental_uris":{"android":"levelo://app?vid=fe39cef5-1a64-464f-8977-0b90739b1a05","ios":"levelo://app?vid=fe39cef5-1a64-464f-8977-0b90739b1a05"},"vehicle_type_id":"4","last_reported":1747678471,"current_range_meters":0,"station_id":"ce4bhf92rcd13ifvqf50","pricing_plan_id":"cebpf4jnsgd1na2vs0mg"},{"bike_id":"c07e098a-e23f-451c-bdb6-cf222c319980","system_id":"levelo_inurba_marseille","lat":43.26215,"lon":5.37426,"is_reserved":false,"is_disabled":true,"rental_uris":{"android":"levelo://app?vid=c07e098a-e23f-451c-bdb6-cf222c319980","ios":"levelo://app?vid=c07e098a-e23f-451c-bdb6-cf222c319980"},"vehicle_type_id":"4","last_reported":1747678471,"current_range_meters":0,"station_id":"ce4bhgp2rcd13ifvqfc0","pricing_plan_id":"cebpf4jnsgd1na2vs0mg"},{"bike_id":"8eb28c23-fd91-4020-bb37-61086c044ad0","system_id":"levelo_inurba_marseille","lat":43.26212,"lon":5.37441,"is_reserved":false,"is_disabled":true,"rental_uris":{"android":"levelo://app?vid=8eb28c23-fd91-4020-bb37-61086c044ad0","ios":"levelo://app?vid=8eb28c23-fd91-4020-bb37-61086c044ad0"},"vehicle_type_id":"4","last_reported":1747678471,"current_range_meters":0,"station_id":"ce4bhgp2rcd13ifvqfc0","pricing_plan_id":"cebpf4jnsgd1na2vs0mg"},{"bike_id":"b4cc126e-9040-4d3b-b566-08f060bd6e4d","system_id":"levelo_inurba_marseille","lat":43.25118,"lon":5.40313,"is_reserved":false,"is_disabled":true,"rental_uris":{"android":"levelo://app?vid=b4cc126e-9040-4d3b-b566-08f060bd6e4d","ios":"levelo://app?vid=b4cc126e-9040-4d3b-b566-08f060bd6e4d"},"vehicle_type_id":"4","last_reported":1747678471,"current_range_meters":0,"station_id":"ce4bhlh2rcd13ifvqgig","pricing_plan_id":"cebpf4jnsgd1na2vs0mg"},{"bike_id":"cabc3ba3-d79c-44f0-b71f-3932a2db2e48","system_id":"levelo_inurba_marseille","lat":43.2314,"lon":5.43709,"is_reserved":false,"is_disabled":true,"rental_uris":{"android":"levelo://app?vid=cabc3ba3-d79c-44f0-b71f-3932a2db2e48","ios":"levelo://app?vid=cabc3ba3-d79c-44f0-b71f-3932a2db2e48"},"vehicle_type_id":"4","last_reported":1747678471,"current_range_meters":0,"station_id":"ce4bhmp2rcd13ifvqgog","pricing_plan_id":"cebpf4jnsgd1na2vs0mg"},{"bike_id":"e0837187-854c-400e-88b5-a3905958ed02","system_id":"levelo_inurba_marseille","lat":43.290285,"lon":5.399675,"is_reserved":false,"is_disabled":true,"rental_uris":{"android":"levelo://app?vid=e0837187-854c-400e-88b5-a3905958ed02","ios":"levelo://app?vid=e0837187-854c-400e-88b5-a3905958ed02"},"vehicle_type_id":"4","last_reported":1747678471,"current_range_meters":400,"station_id":"ce4bh392rcd13ifvqdm0","pricing_plan_id":"cebpf4jnsgd1na2vs0mg"},{"bike_id":"3345b4e8-59ed-4a41-8e4a-9c6f2d74c5e9","system_id":"levelo_inurba_marseille","lat":43.29037,"lon":5.37558,"is_reserved":false,"is_disabled":true,"rental_uris":{"android":"levelo://app?vid=3345b4e8-59ed-4a41-8e4a-9c6f2d74c5e9","ios":"levelo://app?vid=3345b4e8-59ed-4a41-8e4a-9c6f2d74c5e9"},"vehicle_type_id":"4","last_reported":1747678471,"current_range_meters":800,"station_id":"ce4bh692rcd13ifvqe90","pricing_plan_id":"cebpf4jnsgd1na2vs0mg"},{"bike_id":"adb25087-a06a-44ea-b85c-84972834e280","system_id":"levelo_inurba_marseille","lat":43.24088,"lon":5.37715,"is_reserved":false,"is_disabled":true,"rental_uris":{"android":"levelo://app?vid=adb25087-a06a-44ea-b85c-84972834e280","ios":"levelo://app?vid=adb25087-a06a-44ea-b85c-84972834e280"},"vehicle_type_id":"4","last_reported":1747678471,"current_range_meters":800,"station_id":"ce4bhnp2rcd13ifvqgvg","pricing_plan_id":"cebpf4jnsgd1na2vs0mg"},{"bike_id":"252dba7f-9bbd-48d2-a90d-e1c85b5e3d0c","system_id":"levelo_inurba_marseille","lat":43.265658,"lon":5.403244,"is_reserved":false,"is_disabled":true,"rental_uris":{"android":"levelo://app?vid=252dba7f-9bbd-48d2-a90d-e1c85b5e3d0c","ios":"levelo://app?vid=252dba7f-9bbd-48d2-a90d-e1c85b5e3d0c"},"vehicle_type_id":"4","last_reported":1747678471,"current_range_meters":1200,"station_id":"","pricing_plan_id":"cebpf4jnsgd1na2vs0mg"},{"bike_id":"342007ab-9b19-423a-96ba-90ebfd2719c8","system_id":"levelo_inurba_marseille","lat":43.28229,"lon":5.3908,"is_reserved":false,"is_disabled":true,"rental_uris":{"android":"levelo://app?vid=342007ab-9b19-423a-96ba-90ebfd2719c8","ios":"levelo://app?vid=342007ab-9b19-423a-96ba-90ebfd2719c8"},"vehicle_type_id":"4","last_reported":1747678471,"current_range_meters":1200,"station_id":"","pricing_plan_id":"cebpf4jnsgd1na2vs0mg"},{"bike_id":"d61537ca-8240-4d0e-8dbd-f27da56eefd8","system_id":"levelo_inurba_marseille","lat":43.31326,"lon":5.39696,"is_reserved":false,"is_disabled":true,"rental_uris":{"android":"levelo://app?vid=d61537ca-8240-4d0e-8dbd-f27da56eefd8","ios":"levelo://app?vid=d61537ca-8240-4d0e-8dbd-f27da56eefd8"},"vehicle_type_id":"4","last_reported":1747678471,"current_range_meters":1200,"station_id":"ce4bgvp2rcd13ifvqcu0","pricing_plan_id":"cebpf4jnsgd1na2vs0mg"},{"bike_id":"3a9ab681-1afe-4e99-8436-625ffccae69a","system_id":"levelo_inurba_marseille","lat":43.28615,"lon":5.35109,"is_reserved":false,"is_disabled":true,"rental_uris":{"android":"levelo://app?vid=3a9ab681-1afe-4e99-8436-625ffccae69a","ios":"levelo://app?vid=3a9ab681-1afe-4e99-8436-625ffccae69a"},"vehicle_type_id":"4","last_reported":1747678471,"current_range_meters":1200,"station_id":"ce4bhch2rcd13ifvqeug","pricing_plan_id":"cebpf4jnsgd1na2vs0mg"},{"bike_id":"555db435-65d2-4604-965a-b1f7f2798515","system_id":"levelo_inurba_marseille","lat":43.23966,"lon":5.36629,"is_reserved":false,"is_disabled":true,"rental_uris":{"android":"levelo://app?vid=555db435-65d2-4604-965a-b1f7f2798515","ios":"levelo://app?vid=555db435-65d2-4604-965a-b1f7f2798515"},"vehicle_type_id":"4","last_reported":1747678471,"current_range_meters":1200,"station_id":"ce4bhi12rcd13ifvqfp0","pricing_plan_id":"cebpf4jnsgd1na2vs0mg"},{"bike_id":"8e8a326a-dac2-426c-972c-2c02e998d4c9","system_id":"levelo_inurba_marseille","lat":43.29911,"lon":5.38138,"is_reserved":false,"is_disabled":true,"rental_uris":{"android":"levelo://app?vid=8e8a326a-dac2-426c-972c-2c02e998d4c9","ios":"levelo://app?vid=8e8a326a-dac2-426c-972c-2c02e998d4c9"},"vehicle_type_id":"4","last_reported":1747678471,"current_range_meters":2000,"station_id":"ce4bgj12rcd13ifvqbc0","pricing_plan_id":"cebpf4jnsgd1na2vs0mg"},{"bike_id":"ca785ff9-c81e-4609-96f8-e61be929d1ba","system_id":"levelo_inurba_marseille","lat":43.29603,"lon":5.38103,"is_reserved":false,"is_disabled":true,"rental_uris":{"android":"levelo://app?vid=ca785ff9-c81e-4609-96f8-e61be929d1ba","ios":"levelo://app?vid=ca785ff9-c81e-4609-96f8-e61be929d1ba"},"vehicle_type_id":"4","last_reported":1747678471,"current_range_meters":2000,"station_id":"ce4bgl12rcd13ifvqbo0","pricing_plan_id":"cebpf4jnsgd1na2vs0mg"},{"bike_id":"85dfae1b-64c4-41d9-aeae-cb5d23409f7d","system_id":"levelo_inurba_marseille","lat":43.30169,"lon":5.3662,"is_reserved":false,"is_disabled":true,"rental_uris":{"android":"levelo://app?vid=85dfae1b-64c4-41d9-aeae-cb5d23409f7d","ios":"levelo://app?vid=85dfae1b-64c4-41d9-aeae-cb5d23409f7d"},"vehicle_type_id":"4","last_reported":1747678471,"current_range_meters":2000,"station_id":"ce4bgrh2rcd13ifvqc8g","pricing_plan_id":"cebpf4jnsgd1na2vs0mg"},{"bike_id":"b8bf5d2e-2fb3-4137-9955-45c4287c5f2b","system_id":"levelo_inurba_marseille","lat":43.29507,"lon":5.39423,"is_reserved":false,"is_disabled":false,"rental_uris":{"android":"levelo://app?vid=b8bf5d2e-2fb3-4137-9955-45c4287c5f2b","ios":"levelo://app?vid=b8bf5d2e-2fb3-4137-9955-45c4287c5f2b"},"vehicle_type_id":"4","last_reported":1747678471,"current_range_meters":2000,"station_id":"ce4bh292rcd13ifvqdf0","pricing_plan_id":"cebpf4jnsgd1na2vs0mg"},{"bike_id":"a9543786-ef62-43ba-b9d8-a252b8bc5ffc","system_id":"levelo_inurba_marseille","lat":43.29281,"lon":5.40119,"is_reserved":false,"is_disabled":true,"rental_uris":{"android":"levelo://app?vid=a9543786-ef62-43ba-b9d8-a252b8bc5ffc","ios":"levelo://app?vid=a9543786-ef62-43ba-b9d8-a252b8bc5ffc"},"vehicle_type_id":"4","last_reported":1747678471,"current_range_meters":2000,"station_id":"ce4bh312rcd13ifvqdk0","pricing_plan_id":"cebpf4jnsgd1na2vs0mg"},{"bike_id":"2e18f24e-68bd-400f-8b7d-6b80a86f7f37","system_id":"levelo_inurba_marseille","lat":43.290372,"lon":5.376012,"is_reserved":false,"is_disabled":true,"rental_uris":{"android":"levelo://app?vid=2e18f24e-68bd-400f-8b7d-6b80a86f7f37","ios":"levelo://app?vid=2e18f24e-68bd-400f-8b7d-6b80a86f7f37"},"vehicle_type_id":"4","last_reported":1747678471,"current_range_meters":2000,"station_id":"ce4bh692rcd13ifvqe90","pricing_plan_id":"cebpf4jnsgd1na2vs0mg"},{"bike_id":"ff68380c-6d7d-4500-9bbf-0016bf89143f","system_id":"levelo_inurba_marseille","lat":43.2619,"lon":5.3745,"is_reserved":false,"is_disabled":true,"rental_uris":{"android":"levelo://app?vid=ff68380c-6d7d-4500-9bbf-0016bf89143f","ios":"levelo://app?vid=ff68380c-6d7d-4500-9bbf-0016bf89143f"},"vehicle_type_id":"4","last_reported":1747678471,"current_range_meters":2000,"station_id":"ce4bhgp2rcd13ifvqfc0","pricing_plan_id":"cebpf4jnsgd1na2vs0mg"},{"bike_id":"60b30663-16eb-47ad-a341-3e067882446a","system_id":"levelo_inurba_marseille","lat":43.2978,"lon":5.39321,"is_reserved":false,"is_disabled":true,"rental_uris":{"android":"levelo://app?vid=60b30663-16eb-47ad-a341-3e067882446a","ios":"levelo://app?vid=60b30663-16eb-47ad-a341-3e067882446a"},"vehicle_type_id":"4","last_reported":1747678471,"current_range_meters":2000,"station_id":"chh1huq6cuj3fo74tm60","pricing_plan_id":"cebpf4jnsgd1na2vs0mg"},{"bike_id":"df8563c8-411c-4ef3-838a-584e21e5ceb4","system_id":"levelo_inurba_marseille","lat":43.26551,"lon":5.37285,"is_reserved":false,"is_disabled":false,"rental_uris":{"android":"levelo://app?vid=df8563c8-411c-4ef3-838a-584e21e5ceb4","ios":"levelo://app?vid=df8563c8-411c-4ef3-838a-584e21e5ceb4"},"vehicle_type_id":"4","last_reported":1747678471,"current_range_meters":2800,"station_id":"ce4bhg12rcd13ifvqf70","pricing_plan_id":"cebpf4jnsgd1na2vs0mg"},{"bike_id":"fe3186e2-9fe5-4228-a6f6-0d97100efe96","system_id":"levelo_inurba_marseille","lat":43.21749,"lon":5.34599,"is_reserved":false,"is_disabled":false,"rental_uris":{"android":"levelo://app?vid=fe3186e2-9fe5-4228-a6f6-0d97100efe96","ios":"levelo://app?vid=fe3186e2-9fe5-4228-a6f6-0d97100efe96"},"vehicle_type_id":"4","last_reported":1747678471,"current_range_meters":2800,"station_id":"st_cvj6r9ubvosntc0bgbag","pricing_plan_id":"cebpf4jnsgd1na2vs0mg"},{"bike_id":"54f092b8-cedd-4199-a79a-5d67b6a6e719","system_id":"levelo_inurba_marseille","lat":43.31122,"lon":5.37827,"is_reserved":false,"is_disabled":false,"rental_uris":{"android":"levelo://app?vid=54f092b8-cedd-4199-a79a-5d67b6a6e719","ios":"levelo://app?vid=54f092b8-cedd-4199-a79a-5d67b6a6e719"},"vehicle_type_id":"4","last_reported":1747678471,"current_range_meters":3200,"station_id":"","pricing_plan_id":"cebpf4jnsgd1na2vs0mg"},{"bike_id":"87dddb43-e14d-4211-a2c5-e788c5296776","system_id":"levelo_inurba_marseille","lat":43.21764,"lon":5.34595,"is_reserved":false,"is_disabled":false,"rental_uris":{"android":"levelo://app?vid=87dddb43-e14d-4211-a2c5-e788c5296776","ios":"levelo://app?vid=87dddb43-e14d-4211-a2c5-e788c5296776"},"vehicle_type_id":"4","last_reported":1747678471,"current_range_meters":3200,"station_id":"st_cvj6r9ubvosntc0bgbag","pricing_plan_id":"cebpf4jnsgd1na2vs0mg"},{"bike_id":"25efd7d8-fd8b-4c49-b03c-fe55321b94d4","system_id":"levelo_inurba_marseille","lat":43.309103,"lon":5.372795,"is_reserved":false,"is_disabled":false,"rental_uris":{"android":"levelo://app?vid=25efd7d8-fd8b-4c49-b03c-fe55321b94d4","ios":"levelo://app?vid=25efd7d8-fd8b-4c49-b03c-fe55321b94d4"},"vehicle_type_id":"4","last_reported":1747678471,"current_range_meters":3600,"station_id":"","pricing_plan_id":"cebpf4jnsgd1na2vs0mg"},{"bike_id":"f5a875f3-523b-4b7a-a24d-7fe619e40c2b","system_id":"levelo_inurba_marseille","lat":43.31572,"lon":5.38397,"is_reserved":false,"is_disabled":false,"rental_uris":{"android":"levelo://app?vid=f5a875f3-523b-4b7a-a24d-7fe619e40c2b","ios":"levelo://app?vid=f5a875f3-523b-4b7a-a24d-7fe619e40c2b"},"vehicle_type_id":"4","last_reported":1747678471,"current_range_meters":3600,"station_id":"","pricing_plan_id":"cebpf4jnsgd1na2vs0mg"},{"bike_id":"fded4721-5fb7-4998-ba86-f25db785d99a","system_id":"levelo_inurba_marseille","lat":43.27499,"lon":5.42449,"is_reserved":false,"is_disabled":false,"rental_uris":{"android":"levelo://app?vid=fded4721-5fb7-4998-ba86-f25db785d99a","ios":"levelo://app?vid=fded4721-5fb7-4998-ba86-f25db785d99a"},"vehicle_type_id":"4","last_reported":1747678471,"current_range_meters":3600,"station_id":"ce4bhn92rcd13ifvqgrg","pricing_plan_id":"cebpf4jnsgd1na2vs0mg"},{"bike_id":"14603e41-b2dd-4757-a53c-2e366aa4f983","system_id":"levelo_inurba_marseille","lat":43.269935,"lon":5.42829,"is_reserved":false,"is_disabled":false,"rental_uris":{"android":"levelo://app?vid=14603e41-b2dd-4757-a53c-2e366aa4f983","ios":"levelo://app?vid=14603e41-b2dd-4757-a53c-2e366aa4f983"},"vehicle_type_id":"4","last_reported":1747678471,"current_range_meters":4000,"station_id":"","pricing_plan_id":"cebpf4jnsgd1na2vs0mg"},{"bike_id":"1bc6ec85-57fc-4562-9fc6-017231c7e5be","system_id":"levelo_inurba_marseille","lat":43.27948,"lon":5.4104,"is_reserved":false,"is_disabled":false,"rental_uris":{"android":"levelo://app?vid=1bc6ec85-57fc-4562-9fc6-017231c7e5be","ios":"levelo://app?vid=1bc6ec85-57fc-4562-9fc6-017231c7e5be"},"vehicle_type_id":"4","last_reported":1747678471,"current_range_meters":4000,"station_id":"ce4bhnp2rcd13ifvqh0g","pricing_plan_id":"cebpf4jnsgd1na2vs0mg"},{"bike_id":"e4b229b1-baeb-417d-8d7c-d73d23627c79","system_id":"levelo_inurba_marseille","lat":43.29029,"lon":5.39968,"is_reserved":false,"is_disabled":false,"rental_uris":{"android":"levelo://app?vid=e4b229b1-baeb-417d-8d7c-d73d23627c79","ios":"levelo://app?vid=e4b229b1-baeb-417d-8d7c-d73d23627c79"},"vehicle_type_id":"4","last_reported":1747678471,"current_range_meters":4400,"station_id":"ce4bh392rcd13ifvqdm0","pricing_plan_id":"cebpf4jnsgd1na2vs0mg"},{"bike_id":"dbe196b2-a99a-4c21-b463-96088ce8ea5a","system_id":"levelo_inurba_marseille","lat":43.31325,"lon":5.39687,"is_reserved":false,"is_disabled":false,"rental_uris":{"android":"levelo://app?vid=dbe196b2-a99a-4c21-b463-96088ce8ea5a","ios":"levelo://app?vid=dbe196b2-a99a-4c21-b463-96088ce8ea5a"},"vehicle_type_id":"4","last_reported":1747678471,"current_range_meters":4800,"station_id":"ce4bgvp2rcd13ifvqcu0","pricing_plan_id":"cebpf4jnsgd1na2vs0mg"},{"bike_id":"2b27667f-523b-4d45-9c56-36e1c51f0f85","system_id":"levelo_inurba_marseille","lat":43.28843,"lon":5.35852,"is_reserved":false,"is_disabled":false,"rental_uris":{"android":"levelo://app?vid=2b27667f-523b-4d45-9c56-36e1c51f0f85","ios":"levelo://app?vid=2b27667f-523b-4d45-9c56-36e1c51f0f85"},"vehicle_type_id":"4","last_reported":1747678471,"current_range_meters":4800,"station_id":"ce4bhb12rcd13ifvqem0","pricing_plan_id":"cebpf4jnsgd1na2vs0mg"},{"bike_id":"e7ba16be-4b98-49d7-8605-00ac0dfc7ffb","system_id":"levelo_inurba_marseille","lat":43.28154,"lon":5.42637,"is_reserved":false,"is_disabled":false,"rental_uris":{"android":"levelo://app?vid=e7ba16be-4b98-49d7-8605-00ac0dfc7ffb","ios":"levelo://app?vid=e7ba16be-4b98-49d7-8605-00ac0dfc7ffb"},"vehicle_type_id":"4","last_reported":1747678471,"current_range_meters":4800,"station_id":"ce4bhnh2rcd13ifvqgug","pricing_plan_id":"cebpf4jnsgd1na2vs0mg"},{"bike_id":"08ac8a29-9d3a-452f-b75e-acc90e812170","system_id":"levelo_inurba_marseille","lat":43.30243,"lon":5.40057,"is_reserved":false,"is_disabled":false,"rental_uris":{"android":"levelo://app?vid=08ac8a29-9d3a-452f-b75e-acc90e812170","ios":"levelo://app?vid=08ac8a29-9d3a-452f-b75e-acc90e812170"},"vehicle_type_id":"4","last_reported":1747678471,"current_range_meters":5600,"station_id":"ce4bgvh2rcd13ifvqcs0","pricing_plan_id":"cebpf4jnsgd1na2vs0mg"},{"bike_id":"40b38e56-fac7-421f-8c58-97dbbb102c41","system_id":"levelo_inurba_marseille","lat":43.30881,"lon":5.39638,"is_reserved":false,"is_disabled":false,"rental_uris":{"android":"levelo://app?vid=40b38e56-fac7-421f-8c58-97dbbb102c41","ios":"levelo://app?vid=40b38e56-fac7-421f-8c58-97dbbb102c41"},"vehicle_type_id":"4","last_reported":1747678471,"current_range_meters":5600,"station_id":"ce4bh012rcd13ifvqcv0","pricing_plan_id":"cebpf4jnsgd1na2vs0mg"},{"bike_id":"9eff51d2-941e-43a0-a251-88df6306a705","system_id":"levelo_inurba_marseille","lat":43.30145,"lon":5.39847,"is_reserved":false,"is_disabled":false,"rental_uris":{"android":"levelo://app?vid=9eff51d2-941e-43a0-a251-88df6306a705","ios":"levelo://app?vid=9eff51d2-941e-43a0-a251-88df6306a705"},"vehicle_type_id":"4","last_reported":1747678471,"current_range_meters":5600,"station_id":"ce4bh0h2rcd13ifvqd40","pricing_plan_id":"cebpf4jnsgd1na2vs0mg"},{"bike_id":"9715b229-2f5c-4978-9744-9a6cf3d95de5","system_id":"levelo_inurba_marseille","lat":43.29258,"lon":5.38438,"is_reserved":false,"is_disabled":false,"rental_uris":{"android":"levelo://app?vid=9715b229-2f5c-4978-9744-9a6cf3d95de5","ios":"levelo://app?vid=9715b229-2f5c-4978-9744-9a6cf3d95de5"},"vehicle_type_id":"4","last_reported":1747678471,"current_range_meters":5600,"station_id":"ce4bh692rcd13ifvqea0","pricing_plan_id":"cebpf4jnsgd1na2vs0mg"},{"bike_id":"db1748d3-f373-44b4-9bba-8fb12d9584f5","system_id":"levelo_inurba_marseille","lat":43.28951,"lon":5.36412,"is_reserved":false,"is_disabled":false,"rental_uris":{"android":"levelo://app?vid=db1748d3-f373-44b4-9bba-8fb12d9584f5","ios":"levelo://app?vid=db1748d3-f373-44b4-9bba-8fb12d9584f5"},"vehicle_type_id":"4","last_reported":1747678471,"current_range_meters":5600,"station_id":"ce4bhc92rcd13ifvqetg","pricing_plan_id":"cebpf4jnsgd1na2vs0mg"},{"bike_id":"9affa9e9-3779-4c4b-9240-f913cb7744bb","system_id":"levelo_inurba_marseille","lat":43.26568,"lon":5.39006,"is_reserved":false,"is_disabled":false,"rental_uris":{"android":"levelo://app?vid=9affa9e9-3779-4c4b-9240-f913cb7744bb","ios":"levelo://app?vid=9affa9e9-3779-4c4b-9240-f913cb7744bb"},"vehicle_type_id":"4","last_reported":1747678471,"current_range_meters":5600,"station_id":"ce4bhe12rcd13ifvqf30","pricing_plan_id":"cebpf4jnsgd1na2vs0mg"},{"bike_id":"a293b151-dfcc-4378-bce5-acf2ebbc444d","system_id":"levelo_inurba_marseille","lat":43.27616,"lon":5.36099,"is_reserved":false,"is_disabled":false,"rental_uris":{"android":"levelo://app?vid=a293b151-dfcc-4378-bce5-acf2ebbc444d","ios":"levelo://app?vid=a293b151-dfcc-4378-bce5-acf2ebbc444d"},"vehicle_type_id":"4","last_reported":1747678471,"current_range_meters":6000,"station_id":"ce4bgj92rcd13ifvqbe0","pricing_plan_id":"cebpf4jnsgd1na2vs0mg"},{"bike_id":"d2da43a0-a67c-4a66-bdf4-85cf8bf918dc","system_id":"levelo_inurba_marseille","lat":43.2997,"lon":5.37183,"is_reserved":false,"is_disabled":false,"rental_uris":{"android":"levelo://app?vid=d2da43a0-a67c-4a66-bdf4-85cf8bf918dc","ios":"levelo://app?vid=d2da43a0-a67c-4a66-bdf4-85cf8bf918dc"},"vehicle_type_id":"4","last_reported":1747678471,"current_range_meters":6000,"station_id":"ce4bgr92rcd13ifvqc7g","pricing_plan_id":"cebpf4jnsgd1na2vs0mg"},{"bike_id":"4001a3c7-1dfa-4ddc-9f81-9381692e5201","system_id":"levelo_inurba_marseille","lat":43.31373,"lon":5.38493,"is_reserved":false,"is_disabled":false,"rental_uris":{"android":"levelo://app?vid=4001a3c7-1dfa-4ddc-9f81-9381692e5201","ios":"levelo://app?vid=4001a3c7-1dfa-4ddc-9f81-9381692e5201"},"vehicle_type_id":"4","last_reported":1747678471,"current_range_meters":6000,"station_id":"ce4bgt92rcd13ifvqcf0","pricing_plan_id":"cebpf4jnsgd1na2vs0mg"},{"bike_id":"4d4d050d-116a-4924-b698-5e2b6f9a6583","system_id":"levelo_inurba_marseille","lat":43.2917,"lon":5.37173,"is_reserved":false,"is_disabled":false,"rental_uris":{"android":"levelo://app?vid=4d4d050d-116a-4924-b698-5e2b6f9a6583","ios":"levelo://app?vid=4d4d050d-116a-4924-b698-5e2b6f9a6583"},"vehicle_type_id":"4","last_reported":1747678471,"current_range_meters":6000,"station_id":"ce4bha92rcd13ifvqeh0","pricing_plan_id":"cebpf4jnsgd1na2vs0mg"},{"bike_id":"f00e4c85-4b74-4b78-914c-e4ecaf8cbdf9","system_id":"levelo_inurba_marseille","lat":43.2749,"lon":5.424478,"is_reserved":false,"is_disabled":false,"rental_uris":{"android":"levelo://app?vid=f00e4c85-4b74-4b78-914c-e4ecaf8cbdf9","ios":"levelo://app?vid=f00e4c85-4b74-4b78-914c-e4ecaf8cbdf9"},"vehicle_type_id":"4","last_reported":1747678471,"current_range_meters":6000,"station_id":"ce4bhn92rcd13ifvqgrg","pricing_plan_id":"cebpf4jnsgd1na2vs0mg"},{"bike_id":"787d7d9a-590d-4f02-a0b4-e85d2f7f6d12","system_id":"levelo_inurba_marseille","lat":43.24081,"lon":5.37754,"is_reserved":false,"is_disabled":false,"rental_uris":{"android":"levelo://app?vid=787d7d9a-590d-4f02-a0b4-e85d2f7f6d12","ios":"levelo://app?vid=787d7d9a-590d-4f02-a0b4-e85d2f7f6d12"},"vehicle_type_id":"4","last_reported":1747678471,"current_range_meters":6000,"station_id":"ce4bhnp2rcd13ifvqgvg","pricing_plan_id":"cebpf4jnsgd1na2vs0mg"},{"bike_id":"96b53876-fc86-40a6-87ef-961909bb8e4f","system_id":"levelo_inurba_marseille","lat":43.29415,"lon":5.38621,"is_reserved":false,"is_disabled":false,"rental_uris":{"android":"levelo://app?vid=96b53876-fc86-40a6-87ef-961909bb8e4f","ios":"levelo://app?vid=96b53876-fc86-40a6-87ef-961909bb8e4f"},"vehicle_type_id":"4","last_reported":1747678471,"current_range_meters":6400,"station_id":"ce4bh2h2rcd13ifvqdh0","pricing_plan_id":"cebpf4jnsgd1na2vs0mg"},{"bike_id":"bfcab3d5-67dd-4d5a-aefa-429eaf459571","system_id":"levelo_inurba_marseille","lat":43.28703,"lon":5.3741,"is_reserved":false,"is_disabled":false,"rental_uris":{"android":"levelo://app?vid=bfcab3d5-67dd-4d5a-aefa-429eaf459571","ios":"levelo://app?vid=bfcab3d5-67dd-4d5a-aefa-429eaf459571"},"vehicle_type_id":"4","last_reported":1747678471,"current_range_meters":6400,"station_id":"ce4bh3p2rcd13ifvqdq0","pricing_plan_id":"cebpf4jnsgd1na2vs0mg"},{"bike_id":"0eb7f958-813c-4599-a947-cc188a070eb3","system_id":"levelo_inurba_marseille","lat":43.251035,"lon":5.403233,"is_reserved":false,"is_disabled":false,"rental_uris":{"android":"levelo://app?vid=0eb7f958-813c-4599-a947-cc188a070eb3","ios":"levelo://app?vid=0eb7f958-813c-4599-a947-cc188a070eb3"},"vehicle_type_id":"4","last_reported":1747678471,"current_range_meters":6400,"station_id":"ce4bhlh2rcd13ifvqgig","pricing_plan_id":"cebpf4jnsgd1na2vs0mg"},{"bike_id":"a5069c23-eea7-40f4-9d9a-11b963aa48ad","system_id":"levelo_inurba_marseille","lat":43.23186,"lon":5.39984,"is_reserved":false,"is_disabled":false,"rental_uris":{"android":"levelo://app?vid=a5069c23-eea7-40f4-9d9a-11b963aa48ad","ios":"levelo://app?vid=a5069c23-eea7-40f4-9d9a-11b963aa48ad"},"vehicle_type_id":"4","last_reported":1747678471,"current_range_meters":6400,"station_id":"ce4bhn12rcd13ifvqgqg","pricing_plan_id":"cebpf4jnsgd1na2vs0mg"},{"bike_id":"8b512e9e-66be-4581-b94d-c71faba3d16c","system_id":"levelo_inurba_marseille","lat":43.28415,"lon":5.37521,"is_reserved":false,"is_disabled":false,"rental_uris":{"android":"levelo://app?vid=8b512e9e-66be-4581-b94d-c71faba3d16c","ios":"levelo://app?vid=8b512e9e-66be-4581-b94d-c71faba3d16c"},"vehicle_type_id":"4","last_reported":1747678471,"current_range_meters":6800,"station_id":"ce4bh412rcd13ifvqds0","pricing_plan_id":"cebpf4jnsgd1na2vs0mg"},{"bike_id":"5dc12272-c022-4597-a5e3-9255d349e01f","system_id":"levelo_inurba_marseille","lat":43.24365,"lon":5.370477,"is_reserved":false,"is_disabled":false,"rental_uris":{"android":"levelo://app?vid=5dc12272-c022-4597-a5e3-9255d349e01f","ios":"levelo://app?vid=5dc12272-c022-4597-a5e3-9255d349e01f"},"vehicle_type_id":"4","last_reported":1747678471,"current_range_meters":6800,"station_id":"ce4bhhh2rcd13ifvqfk0","pricing_plan_id":"cebpf4jnsgd1na2vs0mg"},{"bike_id":"d03cf0f7-3897-4bb6-8d3e-077b5c7b8f0b","system_id":"levelo_inurba_marseille","lat":43.23966,"lon":5.36623,"is_reserved":false,"is_disabled":false,"rental_uris":{"android":"levelo://app?vid=d03cf0f7-3897-4bb6-8d3e-077b5c7b8f0b","ios":"levelo://app?vid=d03cf0f7-3897-4bb6-8d3e-077b5c7b8f0b"},"vehicle_type_id":"4","last_reported":1747678471,"current_range_meters":6800,"station_id":"ce4bhi12rcd13ifvqfp0","pricing_plan_id":"cebpf4jnsgd1na2vs0mg"},{"bike_id":"fefa3ad1-29a6-4d50-af49-b905b6a48898","system_id":"levelo_inurba_marseille","lat":43.28162,"lon":5.42642,"is_reserved":false,"is_disabled":false,"rental_uris":{"android":"levelo://app?vid=fefa3ad1-29a6-4d50-af49-b905b6a48898","ios":"levelo://app?vid=fefa3ad1-29a6-4d50-af49-b905b6a48898"},"vehicle_type_id":"4","last_reported":1747678471,"current_range_meters":6800,"station_id":"ce4bhnh2rcd13ifvqgug","pricing_plan_id":"cebpf4jnsgd1na2vs0mg"},{"bike_id":"27708d29-3c32-43cc-a19c-39e879aef3c5","system_id":"levelo_inurba_marseille","lat":43.309291,"lon":5.382281,"is_reserved":false,"is_disabled":false,"rental_uris":{"android":"levelo://app?vid=27708d29-3c32-43cc-a19c-39e879aef3c5","ios":"levelo://app?vid=27708d29-3c32-43cc-a19c-39e879aef3c5"},"vehicle_type_id":"4","last_reported":1747678471,"current_range_meters":6800,"station_id":"ce4bhsp2rcd13ifvqi50","pricing_plan_id":"cebpf4jnsgd1na2vs0mg"},{"bike_id":"7b617a5c-06ed-4e77-8f62-868c0c87d947","system_id":"levelo_inurba_marseille","lat":43.286102,"lon":5.370601,"is_reserved":false,"is_disabled":false,"rental_uris":{"android":"levelo://app?vid=7b617a5c-06ed-4e77-8f62-868c0c87d947","ios":"levelo://app?vid=7b617a5c-06ed-4e77-8f62-868c0c87d947"},"vehicle_type_id":"4","last_reported":1747678471,"current_range_meters":6800,"station_id":"ce4bht12rcd13ifvqi60","pricing_plan_id":"cebpf4jnsgd1na2vs0mg"},{"bike_id":"9098acce-4a9e-40d8-ba71-76f7509c9d2b","system_id":"levelo_inurba_marseille","lat":43.2655,"lon":5.37286,"is_reserved":false,"is_disabled":false,"rental_uris":{"android":"levelo://app?vid=9098acce-4a9e-40d8-ba71-76f7509c9d2b","ios":"levelo://app?vid=9098acce-4a9e-40d8-ba71-76f7509c9d2b"},"vehicle_type_id":"4","last_reported":1747678471,"current_range_meters":7200,"station_id":"ce4bhg12rcd13ifvqf70","pricing_plan_id":"cebpf4jnsgd1na2vs0mg"},{"bike_id":"df1b9771-630d-4e56-a171-3c12f3b7d143","system_id":"levelo_inurba_marseille","lat":43.27814,"lon":5.40719,"is_reserved":false,"is_disabled":false,"rental_uris":{"android":"levelo://app?vid=df1b9771-630d-4e56-a171-3c12f3b7d143","ios":"levelo://app?vid=df1b9771-630d-4e56-a171-3c12f3b7d143"},"vehicle_type_id":"4","last_reported":1747678471,"current_range_meters":7200,"station_id":"ce4bhnh2rcd13ifvqgtg","pricing_plan_id":"cebpf4jnsgd1na2vs0mg"},{"bike_id":"6b07083b-5866-4a09-8394-7ec5442cd408","system_id":"levelo_inurba_marseille","lat":43.26795,"lon":5.40273,"is_reserved":false,"is_disabled":false,"rental_uris":{"android":"levelo://app?vid=6b07083b-5866-4a09-8394-7ec5442cd408","ios":"levelo://app?vid=6b07083b-5866-4a09-8394-7ec5442cd408"},"vehicle_type_id":"4","last_reported":1747678471,"current_range_meters":7200,"station_id":"ce501612rcd8frsf0b60","pricing_plan_id":"cebpf4jnsgd1na2vs0mg"},{"bike_id":"a5893543-9471-468d-976c-951e313d09e5","system_id":"levelo_inurba_marseille","lat":43.26564,"lon":5.40326,"is_reserved":false,"is_disabled":false,"rental_uris":{"android":"levelo://app?vid=a5893543-9471-468d-976c-951e313d09e5","ios":"levelo://app?vid=a5893543-9471-468d-976c-951e313d09e5"},"vehicle_type_id":"4","last_reported":1747678471,"current_range_meters":8000,"station_id":"","pricing_plan_id":"cebpf4jnsgd1na2vs0mg"},{"bike_id":"d6420b29-d184-471a-aae7-7ca1993e890a","system_id":"levelo_inurba_marseille","lat":43.292877,"lon":5.374921,"is_reserved":false,"is_disabled":false,"rental_uris":{"android":"levelo://app?vid=d6420b29-d184-471a-aae7-7ca1993e890a","ios":"levelo://app?vid=d6420b29-d184-471a-aae7-7ca1993e890a"},"vehicle_type_id":"4","last_reported":1747678471,"current_range_meters":8000,"station_id":"ce4bgi12rcd13ifvqb70","pricing_plan_id":"cebpf4jnsgd1na2vs0mg"},{"bike_id":"de0f82eb-e372-4c37-a9b2-1a89d93dd054","system_id":"levelo_inurba_marseille","lat":43.29432,"lon":5.39767,"is_reserved":false,"is_disabled":false,"rental_uris":{"android":"levelo://app?vid=de0f82eb-e372-4c37-a9b2-1a89d93dd054","ios":"levelo://app?vid=de0f82eb-e372-4c37-a9b2-1a89d93dd054"},"vehicle_type_id":"4","last_reported":1747678471,"current_range_meters":8000,"station_id":"ce4bh3h2rcd13ifvqdo0","pricing_plan_id":"cebpf4jnsgd1na2vs0mg"},{"bike_id":"1a391a2e-9dc6-4154-b08c-5008af76bb22","system_id":"levelo_inurba_marseille","lat":43.265592,"lon":5.372848,"is_reserved":false,"is_disabled":false,"rental_uris":{"android":"levelo://app?vid=1a391a2e-9dc6-4154-b08c-5008af76bb22","ios":"levelo://app?vid=1a391a2e-9dc6-4154-b08c-5008af76bb22"},"vehicle_type_id":"4","last_reported":1747678471,"current_range_meters":8000,"station_id":"ce4bhg12rcd13ifvqf70","pricing_plan_id":"cebpf4jnsgd1na2vs0mg"},{"bike_id":"0814fc28-7c82-4444-bf57-b7589c01a901","system_id":"levelo_inurba_marseille","lat":43.24998,"lon":5.38936,"is_reserved":false,"is_disabled":false,"rental_uris":{"android":"levelo://app?vid=0814fc28-7c82-4444-bf57-b7589c01a901","ios":"levelo://app?vid=0814fc28-7c82-4444-bf57-b7589c01a901"},"vehicle_type_id":"4","last_reported":1747678471,"current_range_meters":8000,"station_id":"ce4bhgp2rcd13ifvqfd0","pricing_plan_id":"cebpf4jnsgd1na2vs0mg"},{"bike_id":"53afd5dc-fc41-4334-92f0-b5cd0278242a","system_id":"levelo_inurba_marseille","lat":43.25499,"lon":5.37653,"is_reserved":false,"is_disabled":false,"rental_uris":{"android":"levelo://app?vid=53afd5dc-fc41-4334-92f0-b5cd0278242a","ios":"levelo://app?vid=53afd5dc-fc41-4334-92f0-b5cd0278242a"},"vehicle_type_id":"4","last_reported":1747678471,"current_range_meters":8000,"station_id":"ce4bhh12rcd13ifvqff0","pricing_plan_id":"cebpf4jnsgd1na2vs0mg"},{"bike_id":"1f7dea22-24a3-45e9-b0c2-bb2b4d863d65","system_id":"levelo_inurba_marseille","lat":43.23186,"lon":5.39973,"is_reserved":false,"is_disabled":false,"rental_uris":{"android":"levelo://app?vid=1f7dea22-24a3-45e9-b0c2-bb2b4d863d65","ios":"levelo://app?vid=1f7dea22-24a3-45e9-b0c2-bb2b4d863d65"},"vehicle_type_id":"4","last_reported":1747678471,"current_range_meters":8000,"station_id":"ce4bhn12rcd13ifvqgqg","pricing_plan_id":"cebpf4jnsgd1na2vs0mg"},{"bike_id":"92a6af25-c13e-41f1-9234-7144ec89b7a9","system_id":"levelo_inurba_marseille","lat":43.23198,"lon":5.39959,"is_reserved":false,"is_disabled":false,"rental_uris":{"android":"levelo://app?vid=92a6af25-c13e-41f1-9234-7144ec89b7a9","ios":"levelo://app?vid=92a6af25-c13e-41f1-9234-7144ec89b7a9"},"vehicle_type_id":"4","last_reported":1747678471,"current_range_meters":8000,"station_id":"ce4bhn12rcd13ifvqgqg","pricing_plan_id":"cebpf4jnsgd1na2vs0mg"},{"bike_id":"b16d00ef-9246-4df4-8b70-60f9f27e8eb3","system_id":"levelo_inurba_marseille","lat":43.28002,"lon":5.40019,"is_reserved":false,"is_disabled":false,"rental_uris":{"android":"levelo://app?vid=b16d00ef-9246-4df4-8b70-60f9f27e8eb3","ios":"levelo://app?vid=b16d00ef-9246-4df4-8b70-60f9f27e8eb3"},"vehicle_type_id":"4","last_reported":1747678471,"current_range_meters":8000,"station_id":"ce4bho92rcd13ifvqh4g","pricing_plan_id":"cebpf4jnsgd1na2vs0mg"},{"bike_id":"c3185ea7-a79e-4a05-9f4e-aec6682e1cf3","system_id":"levelo_inurba_marseille","lat":43.29971,"lon":5.37174,"is_reserved":false,"is_disabled":false,"rental_uris":{"android":"levelo://app?vid=c3185ea7-a79e-4a05-9f4e-aec6682e1cf3","ios":"levelo://app?vid=c3185ea7-a79e-4a05-9f4e-aec6682e1cf3"},"vehicle_type_id":"4","last_reported":1747678471,"current_range_meters":8400,"station_id":"ce4bgr92rcd13ifvqc7g","pricing_plan_id":"cebpf4jnsgd1na2vs0mg"},{"bike_id":"42c161be-f412-4931-9c0e-dd2890d336e9","system_id":"levelo_inurba_marseille","lat":43.30247,"lon":5.40058,"is_reserved":false,"is_disabled":false,"rental_uris":{"android":"levelo://app?vid=42c161be-f412-4931-9c0e-dd2890d336e9","ios":"levelo://app?vid=42c161be-f412-4931-9c0e-dd2890d336e9"},"vehicle_type_id":"4","last_reported":1747678471,"current_range_meters":8400,"station_id":"ce4bgvh2rcd13ifvqcs0","pricing_plan_id":"cebpf4jnsgd1na2vs0mg"},{"bike_id":"d58894d7-0839-4402-827f-71fc925bf23a","system_id":"levelo_inurba_marseille","lat":43.25915,"lon":5.40866,"is_reserved":false,"is_disabled":false,"rental_uris":{"android":"levelo://app?vid=d58894d7-0839-4402-827f-71fc925bf23a","ios":"levelo://app?vid=d58894d7-0839-4402-827f-71fc925bf23a"},"vehicle_type_id":"4","last_reported":1747678471,"current_range_meters":8400,"station_id":"ce4bhm92rcd13ifvqglg","pricing_plan_id":"cebpf4jnsgd1na2vs0mg"},{"bike_id":"fdbcb080-de86-408c-b4a8-7300b93393a6","system_id":"levelo_inurba_marseille","lat":43.23182,"lon":5.39993,"is_reserved":false,"is_disabled":false,"rental_uris":{"android":"levelo://app?vid=fdbcb080-de86-408c-b4a8-7300b93393a6","ios":"levelo://app?vid=fdbcb080-de86-408c-b4a8-7300b93393a6"},"vehicle_type_id":"4","last_reported":1747678471,"current_range_meters":8400,"station_id":"ce4bhn12rcd13ifvqgqg","pricing_plan_id":"cebpf4jnsgd1na2vs0mg"},{"bike_id":"f61eb94e-1e62-4ef6-ad8b-232d3e5c7942","system_id":"levelo_inurba_marseille","lat":43.27803,"lon":5.40711,"is_reserved":false,"is_disabled":false,"rental_uris":{"android":"levelo://app?vid=f61eb94e-1e62-4ef6-ad8b-232d3e5c7942","ios":"levelo://app?vid=f61eb94e-1e62-4ef6-ad8b-232d3e5c7942"},"vehicle_type_id":"4","last_reported":1747678471,"current_range_meters":8400,"station_id":"ce4bhnh2rcd13ifvqgtg","pricing_plan_id":"cebpf4jnsgd1na2vs0mg"},{"bike_id":"e6fa5cfc-9e2a-4166-9cc1-a428d636b66d","system_id":"levelo_inurba_marseille","lat":43.30192,"lon":5.36611,"is_reserved":false,"is_disabled":false,"rental_uris":{"android":"levelo://app?vid=e6fa5cfc-9e2a-4166-9cc1-a428d636b66d","ios":"levelo://app?vid=e6fa5cfc-9e2a-4166-9cc1-a428d636b66d"},"vehicle_type_id":"4","last_reported":1747678471,"current_range_meters":8800,"station_id":"ce4bgrh2rcd13ifvqc8g","pricing_plan_id":"cebpf4jnsgd1na2vs0mg"},{"bike_id":"1838c239-e579-46e2-a850-1a7fee8c7c66","system_id":"levelo_inurba_marseille","lat":43.31491,"lon":5.37307,"is_reserved":false,"is_disabled":false,"rental_uris":{"android":"levelo://app?vid=1838c239-e579-46e2-a850-1a7fee8c7c66","ios":"levelo://app?vid=1838c239-e579-46e2-a850-1a7fee8c7c66"},"vehicle_type_id":"4","last_reported":1747678471,"current_range_meters":8800,"station_id":"ce4bgt12rcd13ifvqcd0","pricing_plan_id":"cebpf4jnsgd1na2vs0mg"},{"bike_id":"b4de7f17-5f00-485b-8103-6a45798fc40e","system_id":"levelo_inurba_marseille","lat":43.30318,"lon":5.40442,"is_reserved":false,"is_disabled":false,"rental_uris":{"android":"levelo://app?vid=b4de7f17-5f00-485b-8103-6a45798fc40e","ios":"levelo://app?vid=b4de7f17-5f00-485b-8103-6a45798fc40e"},"vehicle_type_id":"4","last_reported":1747678471,"current_range_meters":8800,"station_id":"ce4bh012rcd13ifvqd10","pricing_plan_id":"cebpf4jnsgd1na2vs0mg"},{"bike_id":"3e37a688-0de3-4669-8649-072fa08e9720","system_id":"levelo_inurba_marseille","lat":43.3021,"lon":5.39468,"is_reserved":false,"is_disabled":false,"rental_uris":{"android":"levelo://app?vid=3e37a688-0de3-4669-8649-072fa08e9720","ios":"levelo://app?vid=3e37a688-0de3-4669-8649-072fa08e9720"},"vehicle_type_id":"4","last_reported":1747678471,"current_range_meters":8800,"station_id":"ce4bh0p2rcd13ifvqd70","pricing_plan_id":"cebpf4jnsgd1na2vs0mg"},{"bike_id":"cd5f1fc3-b2dc-46a0-a2e9-9bb0b3f50448","system_id":"levelo_inurba_marseille","lat":43.29878,"lon":5.389172,"is_reserved":false,"is_disabled":false,"rental_uris":{"android":"levelo://app?vid=cd5f1fc3-b2dc-46a0-a2e9-9bb0b3f50448","ios":"levelo://app?vid=cd5f1fc3-b2dc-46a0-a2e9-9bb0b3f50448"},"vehicle_type_id":"4","last_reported":1747678471,"current_range_meters":8800,"station_id":"ce4bh392rcd13ifvqdl0","pricing_plan_id":"cebpf4jnsgd1na2vs0mg"},{"bike_id":"7934c004-91e1-4cad-8800-2ae76602e17f","system_id":"levelo_inurba_marseille","lat":43.24825,"lon":5.37431,"is_reserved":false,"is_disabled":false,"rental_uris":{"android":"levelo://app?vid=7934c004-91e1-4cad-8800-2ae76602e17f","ios":"levelo://app?vid=7934c004-91e1-4cad-8800-2ae76602e17f"},"vehicle_type_id":"4","last_reported":1747678471,"current_range_meters":8800,"station_id":"ce4bhgh2rcd13ifvqfb0","pricing_plan_id":"cebpf4jnsgd1na2vs0mg"},{"bike_id":"b7ce7f8b-ba36-4e4d-a12a-d89ce35110f0","system_id":"levelo_inurba_marseille","lat":43.24388,"lon":5.3706,"is_reserved":false,"is_disabled":false,"rental_uris":{"android":"levelo://app?vid=b7ce7f8b-ba36-4e4d-a12a-d89ce35110f0","ios":"levelo://app?vid=b7ce7f8b-ba36-4e4d-a12a-d89ce35110f0"},"vehicle_type_id":"4","last_reported":1747678471,"current_range_meters":8800,"station_id":"ce4bhhh2rcd13ifvqfk0","pricing_plan_id":"cebpf4jnsgd1na2vs0mg"},{"bike_id":"c40b2fd9-f981-40cf-89f2-80a57a8a7189","system_id":"levelo_inurba_marseille","lat":43.28,"lon":5.41658,"is_reserved":false,"is_disabled":false,"rental_uris":{"android":"levelo://app?vid=c40b2fd9-f981-40cf-89f2-80a57a8a7189","ios":"levelo://app?vid=c40b2fd9-f981-40cf-89f2-80a57a8a7189"},"vehicle_type_id":"4","last_reported":1747678471,"current_range_meters":8800,"station_id":"ce4bho12rcd13ifvqh1g","pricing_plan_id":"cebpf4jnsgd1na2vs0mg"},{"bike_id":"cef5e2fe-5eba-4842-b40f-36d5fc7736ad","system_id":"levelo_inurba_marseille","lat":43.31166,"lon":5.38729,"is_reserved":false,"is_disabled":false,"rental_uris":{"android":"levelo://app?vid=cef5e2fe-5eba-4842-b40f-36d5fc7736ad","ios":"levelo://app?vid=cef5e2fe-5eba-4842-b40f-36d5fc7736ad"},"vehicle_type_id":"4","last_reported":1747678471,"current_range_meters":9200,"station_id":"ce4bgv12rcd13ifvqcp0","pricing_plan_id":"cebpf4jnsgd1na2vs0mg"},{"bike_id":"1246aca2-7cd3-42d1-b3f9-393e7e4602b7","system_id":"levelo_inurba_marseille","lat":43.29868,"lon":5.39737,"is_reserved":false,"is_disabled":false,"rental_uris":{"android":"levelo://app?vid=1246aca2-7cd3-42d1-b3f9-393e7e4602b7","ios":"levelo://app?vid=1246aca2-7cd3-42d1-b3f9-393e7e4602b7"},"vehicle_type_id":"4","last_reported":1747678471,"current_range_meters":9200,"station_id":"ce4bh0h2rcd13ifvqd50","pricing_plan_id":"cebpf4jnsgd1na2vs0mg"},{"bike_id":"46395423-24a7-45b7-922e-be2a4beddbc8","system_id":"levelo_inurba_marseille","lat":43.29515,"lon":5.39393,"is_reserved":false,"is_disabled":false,"rental_uris":{"android":"levelo://app?vid=46395423-24a7-45b7-922e-be2a4beddbc8","ios":"levelo://app?vid=46395423-24a7-45b7-922e-be2a4beddbc8"},"vehicle_type_id":"4","last_reported":1747678471,"current_range_meters":9200,"station_id":"ce4bh292rcd13ifvqdf0","pricing_plan_id":"cebpf4jnsgd1na2vs0mg"},{"bike_id":"06e452b4-00bd-4194-8cf0-97e51cbae02e","system_id":"levelo_inurba_marseille","lat":43.231903,"lon":5.399876,"is_reserved":false,"is_disabled":false,"rental_uris":{"android":"levelo://app?vid=06e452b4-00bd-4194-8cf0-97e51cbae02e","ios":"levelo://app?vid=06e452b4-00bd-4194-8cf0-97e51cbae02e"},"vehicle_type_id":"4","last_reported":1747678471,"current_range_meters":9200,"station_id":"ce4bhn12rcd13ifvqgqg","pricing_plan_id":"cebpf4jnsgd1na2vs0mg"},{"bike_id":"825d34ea-e501-474b-bac9-4cf909a93a37","system_id":"levelo_inurba_marseille","lat":43.2942,"lon":5.38622,"is_reserved":false,"is_disabled":false,"rental_uris":{"android":"levelo://app?vid=825d34ea-e501-474b-bac9-4cf909a93a37","ios":"levelo://app?vid=825d34ea-e501-474b-bac9-4cf909a93a37"},"vehicle_type_id":"4","last_reported":1747678471,"current_range_meters":9600,"station_id":"ce4bh2h2rcd13ifvqdh0","pricing_plan_id":"cebpf4jnsgd1na2vs0mg"},{"bike_id":"df226044-ae71-4884-8afb-ce7cb2751862","system_id":"levelo_inurba_marseille","lat":43.291683,"lon":5.371467,"is_reserved":false,"is_disabled":false,"rental_uris":{"android":"levelo://app?vid=df226044-ae71-4884-8afb-ce7cb2751862","ios":"levelo://app?vid=df226044-ae71-4884-8afb-ce7cb2751862"},"vehicle_type_id":"4","last_reported":1747678471,"current_range_meters":9600,"station_id":"ce4bha92rcd13ifvqeh0","pricing_plan_id":"cebpf4jnsgd1na2vs0mg"},{"bike_id":"cc2506a1-ca01-4a5c-8e53-73ad1ae574ed","system_id":"levelo_inurba_marseille","lat":43.28615,"lon":5.35105,"is_reserved":false,"is_disabled":false,"rental_uris":{"android":"levelo://app?vid=cc2506a1-ca01-4a5c-8e53-73ad1ae574ed","ios":"levelo://app?vid=cc2506a1-ca01-4a5c-8e53-73ad1ae574ed"},"vehicle_type_id":"4","last_reported":1747678471,"current_range_meters":9600,"station_id":"ce4bhch2rcd13ifvqeug","pricing_plan_id":"cebpf4jnsgd1na2vs0mg"},{"bike_id":"dbf8222a-eea0-42f0-80c2-a4791ac4ed58","system_id":"levelo_inurba_marseille","lat":43.2502,"lon":5.38996,"is_reserved":false,"is_disabled":false,"rental_uris":{"android":"levelo://app?vid=dbf8222a-eea0-42f0-80c2-a4791ac4ed58","ios":"levelo://app?vid=dbf8222a-eea0-42f0-80c2-a4791ac4ed58"},"vehicle_type_id":"4","last_reported":1747678471,"current_range_meters":9600,"station_id":"ce4bhgp2rcd13ifvqfd0","pricing_plan_id":"cebpf4jnsgd1na2vs0mg"},{"bike_id":"ffe6d238-6026-4e0e-a599-949c46ef6d5a","system_id":"levelo_inurba_marseille","lat":43.251092,"lon":5.403225,"is_reserved":false,"is_disabled":false,"rental_uris":{"android":"levelo://app?vid=ffe6d238-6026-4e0e-a599-949c46ef6d5a","ios":"levelo://app?vid=ffe6d238-6026-4e0e-a599-949c46ef6d5a"},"vehicle_type_id":"4","last_reported":1747678471,"current_range_meters":9600,"station_id":"ce4bhlh2rcd13ifvqgig","pricing_plan_id":"cebpf4jnsgd1na2vs0mg"},{"bike_id":"a283b2fd-ff3f-48d1-abab-7a3c52921152","system_id":"levelo_inurba_marseille","lat":43.28154,"lon":5.42643,"is_reserved":false,"is_disabled":false,"rental_uris":{"android":"levelo://app?vid=a283b2fd-ff3f-48d1-abab-7a3c52921152","ios":"levelo://app?vid=a283b2fd-ff3f-48d1-abab-7a3c52921152"},"vehicle_type_id":"4","last_reported":1747678471,"current_range_meters":9600,"station_id":"ce4bhnh2rcd13ifvqgug","pricing_plan_id":"cebpf4jnsgd1na2vs0mg"},{"bike_id":"bf0f734e-7db4-4909-bee4-1c076f1b6d92","system_id":"levelo_inurba_marseille","lat":43.28159,"lon":5.42645,"is_reserved":false,"is_disabled":false,"rental_uris":{"android":"levelo://app?vid=bf0f734e-7db4-4909-bee4-1c076f1b6d92","ios":"levelo://app?vid=bf0f734e-7db4-4909-bee4-1c076f1b6d92"},"vehicle_type_id":"4","last_reported":1747678471,"current_range_meters":9600,"station_id":"ce4bhnh2rcd13ifvqgug","pricing_plan_id":"cebpf4jnsgd1na2vs0mg"},{"bike_id":"b2a8a085-4afe-4995-b62f-39dc8b761b89","system_id":"levelo_inurba_marseille","lat":43.21185,"lon":5.35068,"is_reserved":false,"is_disabled":false,"rental_uris":{"android":"levelo://app?vid=b2a8a085-4afe-4995-b62f-39dc8b761b89","ios":"levelo://app?vid=b2a8a085-4afe-4995-b62f-39dc8b761b89"},"vehicle_type_id":"4","last_reported":1747678471,"current_range_meters":9600,"station_id":"st_cvj6sg6p6f1abm77japg","pricing_plan_id":"cebpf4jnsgd1na2vs0mg"},{"bike_id":"bcbdbd69-7be8-42f8-a855-a4358565de8f","system_id":"levelo_inurba_marseille","lat":43.2772,"lon":5.41411,"is_reserved":false,"is_disabled":false,"rental_uris":{"android":"levelo://app?vid=bcbdbd69-7be8-42f8-a855-a4358565de8f","ios":"levelo://app?vid=bcbdbd69-7be8-42f8-a855-a4358565de8f"},"vehicle_type_id":"4","last_reported":1747678471,"current_range_meters":10000,"station_id":"","pricing_plan_id":"cebpf4jnsgd1na2vs0mg"},{"bike_id":"a871e624-6f76-4685-bed9-9c5e7a540287","system_id":"levelo_inurba_marseille","lat":43.28625,"lon":5.35098,"is_reserved":false,"is_disabled":false,"rental_uris":{"android":"levelo://app?vid=a871e624-6f76-4685-bed9-9c5e7a540287","ios":"levelo://app?vid=a871e624-6f76-4685-bed9-9c5e7a540287"},"vehicle_type_id":"4","last_reported":1747678471,"current_range_meters":10000,"station_id":"ce4bhch2rcd13ifvqeug","pricing_plan_id":"cebpf4jnsgd1na2vs0mg"},{"bike_id":"9c854ff7-316a-457c-9b29-685f5b0010b8","system_id":"levelo_inurba_marseille","lat":43.24808,"lon":5.3746,"is_reserved":false,"is_disabled":false,"rental_uris":{"android":"levelo://app?vid=9c854ff7-316a-457c-9b29-685f5b0010b8","ios":"levelo://app?vid=9c854ff7-316a-457c-9b29-685f5b0010b8"},"vehicle_type_id":"4","last_reported":1747678471,"current_range_meters":10000,"station_id":"ce4bhgh2rcd13ifvqfb0","pricing_plan_id":"cebpf4jnsgd1na2vs0mg"},{"bike_id":"7093cf45-1d7e-4c4a-90cd-0a0eb9cfb12d","system_id":"levelo_inurba_marseille","lat":43.23963,"lon":5.36633,"is_reserved":false,"is_disabled":false,"rental_uris":{"android":"levelo://app?vid=7093cf45-1d7e-4c4a-90cd-0a0eb9cfb12d","ios":"levelo://app?vid=7093cf45-1d7e-4c4a-90cd-0a0eb9cfb12d"},"vehicle_type_id":"4","last_reported":1747678471,"current_range_meters":10000,"station_id":"ce4bhi12rcd13ifvqfp0","pricing_plan_id":"cebpf4jnsgd1na2vs0mg"},{"bike_id":"0ed934a5-f846-4226-a605-82f12f967b47","system_id":"levelo_inurba_marseille","lat":43.251237,"lon":5.403234,"is_reserved":false,"is_disabled":false,"rental_uris":{"android":"levelo://app?vid=0ed934a5-f846-4226-a605-82f12f967b47","ios":"levelo://app?vid=0ed934a5-f846-4226-a605-82f12f967b47"},"vehicle_type_id":"4","last_reported":1747678471,"current_range_meters":10000,"station_id":"ce4bhlh2rcd13ifvqgig","pricing_plan_id":"cebpf4jnsgd1na2vs0mg"},{"bike_id":"41d6d43b-cdd6-43a9-a37f-11682e05448d","system_id":"levelo_inurba_marseille","lat":43.268042,"lon":5.402586,"is_reserved":false,"is_disabled":false,"rental_uris":{"android":"levelo://app?vid=41d6d43b-cdd6-43a9-a37f-11682e05448d","ios":"levelo://app?vid=41d6d43b-cdd6-43a9-a37f-11682e05448d"},"vehicle_type_id":"4","last_reported":1747678471,"current_range_meters":10000,"station_id":"ce501612rcd8frsf0b60","pricing_plan_id":"cebpf4jnsgd1na2vs0mg"},{"bike_id":"829f9f17-8e4d-4675-8105-3ee910c5e2cb","system_id":"levelo_inurba_marseille","lat":43.30676,"lon":5.38321,"is_reserved":false,"is_disabled":false,"rental_uris":{"android":"levelo://app?vid=829f9f17-8e4d-4675-8105-3ee910c5e2cb","ios":"levelo://app?vid=829f9f17-8e4d-4675-8105-3ee910c5e2cb"},"vehicle_type_id":"4","last_reported":1747678471,"current_range_meters":10800,"station_id":"","pricing_plan_id":"cebpf4jnsgd1na2vs0mg"},{"bike_id":"feceb32c-1a66-4f40-8574-08dc6eea81bc","system_id":"levelo_inurba_marseille","lat":43.298,"lon":5.40399,"is_reserved":false,"is_disabled":false,"rental_uris":{"android":"levelo://app?vid=feceb32c-1a66-4f40-8574-08dc6eea81bc","ios":"levelo://app?vid=feceb32c-1a66-4f40-8574-08dc6eea81bc"},"vehicle_type_id":"4","last_reported":1747678471,"current_range_meters":10800,"station_id":"ce4bh112rcd13ifvqd90","pricing_plan_id":"cebpf4jnsgd1na2vs0mg"},{"bike_id":"b4b15575-a401-4b8c-b577-39a250ba6f7f","system_id":"levelo_inurba_marseille","lat":43.28711,"lon":5.37386,"is_reserved":false,"is_disabled":false,"rental_uris":{"android":"levelo://app?vid=b4b15575-a401-4b8c-b577-39a250ba6f7f","ios":"levelo://app?vid=b4b15575-a401-4b8c-b577-39a250ba6f7f"},"vehicle_type_id":"4","last_reported":1747678471,"current_range_meters":10800,"station_id":"ce4bh3p2rcd13ifvqdq0","pricing_plan_id":"cebpf4jnsgd1na2vs0mg"},{"bike_id":"d3b4bab6-0c00-4d91-b17f-c928b4b07b3a","system_id":"levelo_inurba_marseille","lat":43.29223,"lon":5.38456,"is_reserved":false,"is_disabled":false,"rental_uris":{"android":"levelo://app?vid=d3b4bab6-0c00-4d91-b17f-c928b4b07b3a","ios":"levelo://app?vid=d3b4bab6-0c00-4d91-b17f-c928b4b07b3a"},"vehicle_type_id":"4","last_reported":1747678471,"current_range_meters":10800,"station_id":"ce4bh692rcd13ifvqea0","pricing_plan_id":"cebpf4jnsgd1na2vs0mg"},{"bike_id":"19d18007-3762-4f89-ae22-78f001ecc4ed","system_id":"levelo_inurba_marseille","lat":43.28155,"lon":5.42648,"is_reserved":false,"is_disabled":false,"rental_uris":{"android":"levelo://app?vid=19d18007-3762-4f89-ae22-78f001ecc4ed","ios":"levelo://app?vid=19d18007-3762-4f89-ae22-78f001ecc4ed"},"vehicle_type_id":"4","last_reported":1747678471,"current_range_meters":10800,"station_id":"ce4bhnh2rcd13ifvqgug","pricing_plan_id":"cebpf4jnsgd1na2vs0mg"},{"bike_id":"0bee8310-e3c6-4566-aecb-00d86829bb71","system_id":"levelo_inurba_marseille","lat":43.28138,"lon":5.4264,"is_reserved":false,"is_disabled":false,"rental_uris":{"android":"levelo://app?vid=0bee8310-e3c6-4566-aecb-00d86829bb71","ios":"levelo://app?vid=0bee8310-e3c6-4566-aecb-00d86829bb71"},"vehicle_type_id":"4","last_reported":1747678471,"current_range_meters":10800,"station_id":"ce4bhnh2rcd13ifvqgug","pricing_plan_id":"cebpf4jnsgd1na2vs0mg"},{"bike_id":"5fbc1e7a-a641-41a8-8487-50b908e3b4db","system_id":"levelo_inurba_marseille","lat":43.27944,"lon":5.41049,"is_reserved":false,"is_disabled":false,"rental_uris":{"android":"levelo://app?vid=5fbc1e7a-a641-41a8-8487-50b908e3b4db","ios":"levelo://app?vid=5fbc1e7a-a641-41a8-8487-50b908e3b4db"},"vehicle_type_id":"4","last_reported":1747678471,"current_range_meters":10800,"station_id":"ce4bhnp2rcd13ifvqh0g","pricing_plan_id":"cebpf4jnsgd1na2vs0mg"},{"bike_id":"60393716-8180-42eb-a367-cc5098e8bc92","system_id":"levelo_inurba_marseille","lat":43.27995,"lon":5.40009,"is_reserved":false,"is_disabled":false,"rental_uris":{"android":"levelo://app?vid=60393716-8180-42eb-a367-cc5098e8bc92","ios":"levelo://app?vid=60393716-8180-42eb-a367-cc5098e8bc92"},"vehicle_type_id":"4","last_reported":1747678471,"current_range_meters":10800,"station_id":"ce4bho92rcd13ifvqh4g","pricing_plan_id":"cebpf4jnsgd1na2vs0mg"},{"bike_id":"c076ad54-d589-4eeb-ac51-e1376a33ec39","system_id":"levelo_inurba_marseille","lat":43.29548,"lon":5.42292,"is_reserved":false,"is_disabled":false,"rental_uris":{"android":"levelo://app?vid=c076ad54-d589-4eeb-ac51-e1376a33ec39","ios":"levelo://app?vid=c076ad54-d589-4eeb-ac51-e1376a33ec39"},"vehicle_type_id":"4","last_reported":1747678471,"current_range_meters":10800,"station_id":"ce4bhph2rcd13ifvqhdg","pricing_plan_id":"cebpf4jnsgd1na2vs0mg"},{"bike_id":"01f253e5-d779-4222-aea2-c2e014906b39","system_id":"levelo_inurba_marseille","lat":43.29253,"lon":5.40907,"is_reserved":false,"is_disabled":false,"rental_uris":{"android":"levelo://app?vid=01f253e5-d779-4222-aea2-c2e014906b39","ios":"levelo://app?vid=01f253e5-d779-4222-aea2-c2e014906b39"},"vehicle_type_id":"4","last_reported":1747678471,"current_range_meters":11200,"station_id":"ce4bh192rcd13ifvqdc0","pricing_plan_id":"cebpf4jnsgd1na2vs0mg"},{"bike_id":"e44b2364-bdd5-45e5-b19b-a02d862190e3","system_id":"levelo_inurba_marseille","lat":43.29516,"lon":5.39059,"is_reserved":false,"is_disabled":false,"rental_uris":{"android":"levelo://app?vid=e44b2364-bdd5-45e5-b19b-a02d862190e3","ios":"levelo://app?vid=e44b2364-bdd5-45e5-b19b-a02d862190e3"},"vehicle_type_id":"4","last_reported":1747678471,"current_range_meters":11200,"station_id":"ce4bh3p2rcd13ifvqdp0","pricing_plan_id":"cebpf4jnsgd1na2vs0mg"},{"bike_id":"47c3287c-18b8-4d43-9aa0-630253610a95","system_id":"levelo_inurba_marseille","lat":43.2923,"lon":5.3606,"is_reserved":false,"is_disabled":false,"rental_uris":{"android":"levelo://app?vid=47c3287c-18b8-4d43-9aa0-630253610a95","ios":"levelo://app?vid=47c3287c-18b8-4d43-9aa0-630253610a95"},"vehicle_type_id":"4","last_reported":1747678471,"current_range_meters":11200,"station_id":"ce4bhbh2rcd13ifvqeqg","pricing_plan_id":"cebpf4jnsgd1na2vs0mg"},{"bike_id":"21cee9db-20c3-4d69-a453-bfb413715ef9","system_id":"levelo_inurba_marseille","lat":43.25821,"lon":5.39439,"is_reserved":false,"is_disabled":false,"rental_uris":{"android":"levelo://app?vid=21cee9db-20c3-4d69-a453-bfb413715ef9","ios":"levelo://app?vid=21cee9db-20c3-4d69-a453-bfb413715ef9"},"vehicle_type_id":"4","last_reported":1747678471,"current_range_meters":11200,"station_id":"ce4bhip2rcd13ifvqft0","pricing_plan_id":"cebpf4jnsgd1na2vs0mg"},{"bike_id":"20ebb8fd-c1d5-4b07-bf0e-d42865bb5490","system_id":"levelo_inurba_marseille","lat":43.28442,"lon":5.39211,"is_reserved":false,"is_disabled":false,"rental_uris":{"android":"levelo://app?vid=20ebb8fd-c1d5-4b07-bf0e-d42865bb5490","ios":"levelo://app?vid=20ebb8fd-c1d5-4b07-bf0e-d42865bb5490"},"vehicle_type_id":"4","last_reported":1747678471,"current_range_meters":11200,"station_id":"ce4bhoh2rcd13ifvqh5g","pricing_plan_id":"cebpf4jnsgd1na2vs0mg"},{"bike_id":"38b5c13c-ecfe-476a-abb0-33b1528de2bb","system_id":"levelo_inurba_marseille","lat":43.299614,"lon":5.413226,"is_reserved":false,"is_disabled":false,"rental_uris":{"android":"levelo://app?vid=38b5c13c-ecfe-476a-abb0-33b1528de2bb","ios":"levelo://app?vid=38b5c13c-ecfe-476a-abb0-33b1528de2bb"},"vehicle_type_id":"4","last_reported":1747678471,"current_range_meters":11200,"station_id":"ce4bhp12rcd13ifvqh9g","pricing_plan_id":"cebpf4jnsgd1na2vs0mg"},{"bike_id":"b69e9525-f9fe-475a-a8d8-418ab1b45f8d","system_id":"levelo_inurba_marseille","lat":43.28723,"lon":5.36087,"is_reserved":false,"is_disabled":false,"rental_uris":{"android":"levelo://app?vid=b69e9525-f9fe-475a-a8d8-418ab1b45f8d","ios":"levelo://app?vid=b69e9525-f9fe-475a-a8d8-418ab1b45f8d"},"vehicle_type_id":"4","last_reported":1747678471,"current_range_meters":11200,"station_id":"cki0cbj6b192h4jlfktg","pricing_plan_id":"cebpf4jnsgd1na2vs0mg"},{"bike_id":"40d5f946-42f0-423c-82a6-7cd8e3c0679d","system_id":"levelo_inurba_marseille","lat":43.2842,"lon":5.3752,"is_reserved":false,"is_disabled":false,"rental_uris":{"android":"levelo://app?vid=40d5f946-42f0-423c-82a6-7cd8e3c0679d","ios":"levelo://app?vid=40d5f946-42f0-423c-82a6-7cd8e3c0679d"},"vehicle_type_id":"4","last_reported":1747678471,"current_range_meters":11600,"station_id":"ce4bh412rcd13ifvqds0","pricing_plan_id":"cebpf4jnsgd1na2vs0mg"},{"bike_id":"89e75d22-2829-4276-bd50-349663c80965","system_id":"levelo_inurba_marseille","lat":43.25111,"lon":5.40325,"is_reserved":false,"is_disabled":false,"rental_uris":{"android":"levelo://app?vid=89e75d22-2829-4276-bd50-349663c80965","ios":"levelo://app?vid=89e75d22-2829-4276-bd50-349663c80965"},"vehicle_type_id":"4","last_reported":1747678471,"current_range_meters":11600,"station_id":"ce4bhlh2rcd13ifvqgig","pricing_plan_id":"cebpf4jnsgd1na2vs0mg"},{"bike_id":"404f6565-570e-41bf-89c4-f19bb30d9a03","system_id":"levelo_inurba_marseille","lat":43.32482,"lon":5.36572,"is_reserved":false,"is_disabled":false,"rental_uris":{"android":"levelo://app?vid=404f6565-570e-41bf-89c4-f19bb30d9a03","ios":"levelo://app?vid=404f6565-570e-41bf-89c4-f19bb30d9a03"},"vehicle_type_id":"4","last_reported":1747678471,"current_range_meters":11600,"station_id":"ce4bhs12rcd13ifvqhvg","pricing_plan_id":"cebpf4jnsgd1na2vs0mg"},{"bike_id":"14911648-7c34-405d-a6e1-e03038fdc5b5","system_id":"levelo_inurba_marseille","lat":43.28703,"lon":5.37384,"is_reserved":false,"is_disabled":false,"rental_uris":{"android":"levelo://app?vid=14911648-7c34-405d-a6e1-e03038fdc5b5","ios":"levelo://app?vid=14911648-7c34-405d-a6e1-e03038fdc5b5"},"vehicle_type_id":"4","last_reported":1747678471,"current_range_meters":12000,"station_id":"ce4bh3p2rcd13ifvqdq0","pricing_plan_id":"cebpf4jnsgd1na2vs0mg"},{"bike_id":"ea8b1961-52cf-4852-afd0-ebca3050e000","system_id":"levelo_inurba_marseille","lat":43.28938,"lon":5.36644,"is_reserved":false,"is_disabled":false,"rental_uris":{"android":"levelo://app?vid=ea8b1961-52cf-4852-afd0-ebca3050e000","ios":"levelo://app?vid=ea8b1961-52cf-4852-afd0-ebca3050e000"},"vehicle_type_id":"4","last_reported":1747678471,"current_range_meters":12000,"station_id":"ce4bhap2rcd13ifvqek0","pricing_plan_id":"cebpf4jnsgd1na2vs0mg"},{"bike_id":"811e797c-dcb6-4e9b-89fd-be9eaafa0681","system_id":"levelo_inurba_marseille","lat":43.28622,"lon":5.35101,"is_reserved":false,"is_disabled":false,"rental_uris":{"android":"levelo://app?vid=811e797c-dcb6-4e9b-89fd-be9eaafa0681","ios":"levelo://app?vid=811e797c-dcb6-4e9b-89fd-be9eaafa0681"},"vehicle_type_id":"4","last_reported":1747678471,"current_range_meters":12000,"station_id":"ce4bhch2rcd13ifvqeug","pricing_plan_id":"cebpf4jnsgd1na2vs0mg"},{"bike_id":"bffbaf88-357a-4e87-a68c-a9a27a6e01e6","system_id":"levelo_inurba_marseille","lat":43.26221,"lon":5.42121,"is_reserved":false,"is_disabled":false,"rental_uris":{"android":"levelo://app?vid=bffbaf88-357a-4e87-a68c-a9a27a6e01e6","ios":"levelo://app?vid=bffbaf88-357a-4e87-a68c-a9a27a6e01e6"},"vehicle_type_id":"4","last_reported":1747678471,"current_range_meters":12400,"station_id":"","pricing_plan_id":"cebpf4jnsgd1na2vs0mg"},{"bike_id":"c1f94602-1972-4c39-8250-501cfecc2cfb","system_id":"levelo_inurba_marseille","lat":43.30255,"lon":5.40074,"is_reserved":false,"is_disabled":false,"rental_uris":{"android":"levelo://app?vid=c1f94602-1972-4c39-8250-501cfecc2cfb","ios":"levelo://app?vid=c1f94602-1972-4c39-8250-501cfecc2cfb"},"vehicle_type_id":"4","last_reported":1747678471,"current_range_meters":12400,"station_id":"ce4bgvh2rcd13ifvqcs0","pricing_plan_id":"cebpf4jnsgd1na2vs0mg"},{"bike_id":"b4a5d7c3-d7f1-4341-86bc-17ea1095a9c6","system_id":"levelo_inurba_marseille","lat":43.289784,"lon":5.383613,"is_reserved":false,"is_disabled":false,"rental_uris":{"android":"levelo://app?vid=b4a5d7c3-d7f1-4341-86bc-17ea1095a9c6","ios":"levelo://app?vid=b4a5d7c3-d7f1-4341-86bc-17ea1095a9c6"},"vehicle_type_id":"4","last_reported":1747678471,"current_range_meters":12400,"station_id":"ce4bh612rcd13ifvqe6g","pricing_plan_id":"cebpf4jnsgd1na2vs0mg"},{"bike_id":"9cec0e7a-9020-4df1-bf8d-10595b46bd1f","system_id":"levelo_inurba_marseille","lat":43.29044,"lon":5.35932,"is_reserved":false,"is_disabled":false,"rental_uris":{"android":"levelo://app?vid=9cec0e7a-9020-4df1-bf8d-10595b46bd1f","ios":"levelo://app?vid=9cec0e7a-9020-4df1-bf8d-10595b46bd1f"},"vehicle_type_id":"4","last_reported":1747678471,"current_range_meters":12400,"station_id":"ce4bha92rcd13ifvqeg0","pricing_plan_id":"cebpf4jnsgd1na2vs0mg"},{"bike_id":"66b3cdea-f3ea-45ae-b230-db03ac49bfcc","system_id":"levelo_inurba_marseille","lat":43.24808,"lon":5.37458,"is_reserved":false,"is_disabled":false,"rental_uris":{"android":"levelo://app?vid=66b3cdea-f3ea-45ae-b230-db03ac49bfcc","ios":"levelo://app?vid=66b3cdea-f3ea-45ae-b230-db03ac49bfcc"},"vehicle_type_id":"4","last_reported":1747678471,"current_range_meters":12400,"station_id":"ce4bhgh2rcd13ifvqfb0","pricing_plan_id":"cebpf4jnsgd1na2vs0mg"},{"bike_id":"0d48e835-4b26-458e-8d5d-5460f06ea70f","system_id":"levelo_inurba_marseille","lat":43.27842,"lon":5.39209,"is_reserved":false,"is_disabled":false,"rental_uris":{"android":"levelo://app?vid=0d48e835-4b26-458e-8d5d-5460f06ea70f","ios":"levelo://app?vid=0d48e835-4b26-458e-8d5d-5460f06ea70f"},"vehicle_type_id":"4","last_reported":1747678471,"current_range_meters":12400,"station_id":"ce4bhjp2rcd13ifvqga0","pricing_plan_id":"cebpf4jnsgd1na2vs0mg"},{"bike_id":"8888e192-8eba-4ff4-bcb4-a2e79438368b","system_id":"levelo_inurba_marseille","lat":43.27809,"lon":5.40715,"is_reserved":false,"is_disabled":false,"rental_uris":{"android":"levelo://app?vid=8888e192-8eba-4ff4-bcb4-a2e79438368b","ios":"levelo://app?vid=8888e192-8eba-4ff4-bcb4-a2e79438368b"},"vehicle_type_id":"4","last_reported":1747678471,"current_range_meters":12400,"station_id":"ce4bhnh2rcd13ifvqgtg","pricing_plan_id":"cebpf4jnsgd1na2vs0mg"},{"bike_id":"9764d64f-0f5a-4e28-855f-fb9774594893","system_id":"levelo_inurba_marseille","lat":43.27996,"lon":5.400084,"is_reserved":false,"is_disabled":false,"rental_uris":{"android":"levelo://app?vid=9764d64f-0f5a-4e28-855f-fb9774594893","ios":"levelo://app?vid=9764d64f-0f5a-4e28-855f-fb9774594893"},"vehicle_type_id":"4","last_reported":1747678471,"current_range_meters":12400,"station_id":"ce4bho92rcd13ifvqh4g","pricing_plan_id":"cebpf4jnsgd1na2vs0mg"},{"bike_id":"e58b1b8d-e063-4c4e-8514-80ba8763c424","system_id":"levelo_inurba_marseille","lat":43.279987,"lon":5.400083,"is_reserved":false,"is_disabled":false,"rental_uris":{"android":"levelo://app?vid=e58b1b8d-e063-4c4e-8514-80ba8763c424","ios":"levelo://app?vid=e58b1b8d-e063-4c4e-8514-80ba8763c424"},"vehicle_type_id":"4","last_reported":1747678471,"current_range_meters":12400,"station_id":"ce4bho92rcd13ifvqh4g","pricing_plan_id":"cebpf4jnsgd1na2vs0mg"},{"bike_id":"027e1fb9-8ab2-4245-a791-27e9dcd17185","system_id":"levelo_inurba_marseille","lat":43.29556,"lon":5.42285,"is_reserved":false,"is_disabled":false,"rental_uris":{"android":"levelo://app?vid=027e1fb9-8ab2-4245-a791-27e9dcd17185","ios":"levelo://app?vid=027e1fb9-8ab2-4245-a791-27e9dcd17185"},"vehicle_type_id":"4","last_reported":1747678471,"current_range_meters":12400,"station_id":"ce4bhph2rcd13ifvqhdg","pricing_plan_id":"cebpf4jnsgd1na2vs0mg"},{"bike_id":"b4143e4d-5a23-439d-b4e8-c769dda0b357","system_id":"levelo_inurba_marseille","lat":43.28608,"lon":5.37067,"is_reserved":false,"is_disabled":false,"rental_uris":{"android":"levelo://app?vid=b4143e4d-5a23-439d-b4e8-c769dda0b357","ios":"levelo://app?vid=b4143e4d-5a23-439d-b4e8-c769dda0b357"},"vehicle_type_id":"4","last_reported":1747678471,"current_range_meters":12400,"station_id":"ce4bht12rcd13ifvqi60","pricing_plan_id":"cebpf4jnsgd1na2vs0mg"},{"bike_id":"7b4ebcee-a823-442f-a8fb-bd9eabc7a6ed","system_id":"levelo_inurba_marseille","lat":43.25096,"lon":5.38818,"is_reserved":false,"is_disabled":false,"rental_uris":{"android":"levelo://app?vid=7b4ebcee-a823-442f-a8fb-bd9eabc7a6ed","ios":"levelo://app?vid=7b4ebcee-a823-442f-a8fb-bd9eabc7a6ed"},"vehicle_type_id":"4","last_reported":1747678471,"current_range_meters":12800,"station_id":"","pricing_plan_id":"cebpf4jnsgd1na2vs0mg"},{"bike_id":"52a39732-f389-4238-8320-12a8ecb43bc9","system_id":"levelo_inurba_marseille","lat":43.33756,"lon":5.37476,"is_reserved":false,"is_disabled":false,"rental_uris":{"android":"levelo://app?vid=52a39732-f389-4238-8320-12a8ecb43bc9","ios":"levelo://app?vid=52a39732-f389-4238-8320-12a8ecb43bc9"},"vehicle_type_id":"4","last_reported":1747678471,"current_range_meters":12800,"station_id":"","pricing_plan_id":"cebpf4jnsgd1na2vs0mg"},{"bike_id":"e2be6377-f6a3-413c-a099-7e4b1039b0c8","system_id":"levelo_inurba_marseille","lat":43.29447,"lon":5.39754,"is_reserved":false,"is_disabled":false,"rental_uris":{"android":"levelo://app?vid=e2be6377-f6a3-413c-a099-7e4b1039b0c8","ios":"levelo://app?vid=e2be6377-f6a3-413c-a099-7e4b1039b0c8"},"vehicle_type_id":"4","last_reported":1747678471,"current_range_meters":12800,"station_id":"ce4bh3h2rcd13ifvqdo0","pricing_plan_id":"cebpf4jnsgd1na2vs0mg"},{"bike_id":"aedef120-6d02-4fdc-9f7a-44a46968aa42","system_id":"levelo_inurba_marseille","lat":43.28348,"lon":5.38112,"is_reserved":false,"is_disabled":false,"rental_uris":{"android":"levelo://app?vid=aedef120-6d02-4fdc-9f7a-44a46968aa42","ios":"levelo://app?vid=aedef120-6d02-4fdc-9f7a-44a46968aa42"},"vehicle_type_id":"4","last_reported":1747678471,"current_range_meters":12800,"station_id":"ce4bh412rcd13ifvqdr0","pricing_plan_id":"cebpf4jnsgd1na2vs0mg"},{"bike_id":"cd3ddaf2-4c0e-4d4a-9304-872103694cba","system_id":"levelo_inurba_marseille","lat":43.28857,"lon":5.35851,"is_reserved":false,"is_disabled":false,"rental_uris":{"android":"levelo://app?vid=cd3ddaf2-4c0e-4d4a-9304-872103694cba","ios":"levelo://app?vid=cd3ddaf2-4c0e-4d4a-9304-872103694cba"},"vehicle_type_id":"4","last_reported":1747678471,"current_range_meters":12800,"station_id":"ce4bhb12rcd13ifvqem0","pricing_plan_id":"cebpf4jnsgd1na2vs0mg"},{"bike_id":"a6cd4b91-b441-464d-99a5-e83c94997037","system_id":"levelo_inurba_marseille","lat":43.23965,"lon":5.36633,"is_reserved":false,"is_disabled":false,"rental_uris":{"android":"levelo://app?vid=a6cd4b91-b441-464d-99a5-e83c94997037","ios":"levelo://app?vid=a6cd4b91-b441-464d-99a5-e83c94997037"},"vehicle_type_id":"4","last_reported":1747678471,"current_range_meters":12800,"station_id":"ce4bhi12rcd13ifvqfp0","pricing_plan_id":"cebpf4jnsgd1na2vs0mg"},{"bike_id":"ca51947a-d1b7-4f5e-b01b-015df89c772e","system_id":"levelo_inurba_marseille","lat":43.27826,"lon":5.4073,"is_reserved":false,"is_disabled":false,"rental_uris":{"android":"levelo://app?vid=ca51947a-d1b7-4f5e-b01b-015df89c772e","ios":"levelo://app?vid=ca51947a-d1b7-4f5e-b01b-015df89c772e"},"vehicle_type_id":"4","last_reported":1747678471,"current_range_meters":12800,"station_id":"ce4bhnh2rcd13ifvqgtg","pricing_plan_id":"cebpf4jnsgd1na2vs0mg"},{"bike_id":"7ddabab5-fb9d-431e-bb65-ee4d4e122759","system_id":"levelo_inurba_marseille","lat":43.2816,"lon":5.42645,"is_reserved":false,"is_disabled":false,"rental_uris":{"android":"levelo://app?vid=7ddabab5-fb9d-431e-bb65-ee4d4e122759","ios":"levelo://app?vid=7ddabab5-fb9d-431e-bb65-ee4d4e122759"},"vehicle_type_id":"4","last_reported":1747678471,"current_range_meters":12800,"station_id":"ce4bhnh2rcd13ifvqgug","pricing_plan_id":"cebpf4jnsgd1na2vs0mg"},{"bike_id":"da0dc2cd-fa50-4512-a75c-3fcd60ad9240","system_id":"levelo_inurba_marseille","lat":43.27371,"lon":5.36251,"is_reserved":false,"is_disabled":false,"rental_uris":{"android":"levelo://app?vid=da0dc2cd-fa50-4512-a75c-3fcd60ad9240","ios":"levelo://app?vid=da0dc2cd-fa50-4512-a75c-3fcd60ad9240"},"vehicle_type_id":"4","last_reported":1747678471,"current_range_meters":13600,"station_id":"ce4bhbh2rcd13ifvqeo0","pricing_plan_id":"cebpf4jnsgd1na2vs0mg"},{"bike_id":"cba5ee50-87f1-49b7-b373-54abb830d812","system_id":"levelo_inurba_marseille","lat":43.24621,"lon":5.38892,"is_reserved":false,"is_disabled":false,"rental_uris":{"android":"levelo://app?vid=cba5ee50-87f1-49b7-b373-54abb830d812","ios":"levelo://app?vid=cba5ee50-87f1-49b7-b373-54abb830d812"},"vehicle_type_id":"4","last_reported":1747678471,"current_range_meters":13600,"station_id":"ce4bhg12rcd13ifvqf60","pricing_plan_id":"cebpf4jnsgd1na2vs0mg"},{"bike_id":"598900bc-cc96-46f3-b8f9-32958f862dd5","system_id":"levelo_inurba_marseille","lat":43.30418,"lon":5.36781,"is_reserved":false,"is_disabled":false,"rental_uris":{"android":"levelo://app?vid=598900bc-cc96-46f3-b8f9-32958f862dd5","ios":"levelo://app?vid=598900bc-cc96-46f3-b8f9-32958f862dd5"},"vehicle_type_id":"4","last_reported":1747678471,"current_range_meters":14000,"station_id":"","pricing_plan_id":"cebpf4jnsgd1na2vs0mg"},{"bike_id":"08129706-0840-4cc7-a7e9-4dbc2d7407ba","system_id":"levelo_inurba_marseille","lat":43.23191,"lon":5.39986,"is_reserved":false,"is_disabled":false,"rental_uris":{"android":"levelo://app?vid=08129706-0840-4cc7-a7e9-4dbc2d7407ba","ios":"levelo://app?vid=08129706-0840-4cc7-a7e9-4dbc2d7407ba"},"vehicle_type_id":"4","last_reported":1747678471,"current_range_meters":14000,"station_id":"ce4bhn12rcd13ifvqgqg","pricing_plan_id":"cebpf4jnsgd1na2vs0mg"},{"bike_id":"2e360916-7ce5-402e-87af-c4ca7b6b1b94","system_id":"levelo_inurba_marseille","lat":43.28155,"lon":5.4264,"is_reserved":false,"is_disabled":false,"rental_uris":{"android":"levelo://app?vid=2e360916-7ce5-402e-87af-c4ca7b6b1b94","ios":"levelo://app?vid=2e360916-7ce5-402e-87af-c4ca7b6b1b94"},"vehicle_type_id":"4","last_reported":1747678471,"current_range_meters":14000,"station_id":"ce4bhnh2rcd13ifvqgug","pricing_plan_id":"cebpf4jnsgd1na2vs0mg"},{"bike_id":"42873080-f9e3-47ba-b353-a90896a97271","system_id":"levelo_inurba_marseille","lat":43.301252,"lon":5.398625,"is_reserved":false,"is_disabled":false,"rental_uris":{"android":"levelo://app?vid=42873080-f9e3-47ba-b353-a90896a97271","ios":"levelo://app?vid=42873080-f9e3-47ba-b353-a90896a97271"},"vehicle_type_id":"4","last_reported":1747678471,"current_range_meters":14400,"station_id":"","pricing_plan_id":"cebpf4jnsgd1na2vs0mg"},{"bike_id":"97478a0c-7e4b-401d-91dd-659b6303a52a","system_id":"levelo_inurba_marseille","lat":43.29518,"lon":5.390337,"is_reserved":false,"is_disabled":false,"rental_uris":{"android":"levelo://app?vid=97478a0c-7e4b-401d-91dd-659b6303a52a","ios":"levelo://app?vid=97478a0c-7e4b-401d-91dd-659b6303a52a"},"vehicle_type_id":"4","last_reported":1747678471,"current_range_meters":14400,"station_id":"ce4bh3p2rcd13ifvqdp0","pricing_plan_id":"cebpf4jnsgd1na2vs0mg"},{"bike_id":"49e3e4e0-3d49-4d07-929a-4d909cb98903","system_id":"levelo_inurba_marseille","lat":43.29182,"lon":5.37139,"is_reserved":false,"is_disabled":false,"rental_uris":{"android":"levelo://app?vid=49e3e4e0-3d49-4d07-929a-4d909cb98903","ios":"levelo://app?vid=49e3e4e0-3d49-4d07-929a-4d909cb98903"},"vehicle_type_id":"4","last_reported":1747678471,"current_range_meters":14400,"station_id":"ce4bha92rcd13ifvqeh0","pricing_plan_id":"cebpf4jnsgd1na2vs0mg"},{"bike_id":"493fef86-dd4d-4a0b-bbbc-f0ef8e344899","system_id":"levelo_inurba_marseille","lat":43.25508,"lon":5.37651,"is_reserved":false,"is_disabled":false,"rental_uris":{"android":"levelo://app?vid=493fef86-dd4d-4a0b-bbbc-f0ef8e344899","ios":"levelo://app?vid=493fef86-dd4d-4a0b-bbbc-f0ef8e344899"},"vehicle_type_id":"4","last_reported":1747678471,"current_range_meters":14400,"station_id":"ce4bhh12rcd13ifvqff0","pricing_plan_id":"cebpf4jnsgd1na2vs0mg"},{"bike_id":"d7a58103-908e-4316-8691-eeb0a1399bc6","system_id":"levelo_inurba_marseille","lat":43.24182,"lon":5.39725,"is_reserved":false,"is_disabled":false,"rental_uris":{"android":"levelo://app?vid=d7a58103-908e-4316-8691-eeb0a1399bc6","ios":"levelo://app?vid=d7a58103-908e-4316-8691-eeb0a1399bc6"},"vehicle_type_id":"4","last_reported":1747678471,"current_range_meters":14400,"station_id":"ce4bhn12rcd13ifvqgpg","pricing_plan_id":"cebpf4jnsgd1na2vs0mg"},{"bike_id":"ab52fe06-3581-4798-94d6-4ba1a01906d0","system_id":"levelo_inurba_marseille","lat":43.29532,"lon":5.3854,"is_reserved":false,"is_disabled":false,"rental_uris":{"android":"levelo://app?vid=ab52fe06-3581-4798-94d6-4ba1a01906d0","ios":"levelo://app?vid=ab52fe06-3581-4798-94d6-4ba1a01906d0"},"vehicle_type_id":"4","last_reported":1747678471,"current_range_meters":14800,"station_id":"ce4bgih2rcd13ifvqba0","pricing_plan_id":"cebpf4jnsgd1na2vs0mg"},{"bike_id":"b0e99725-cae7-4188-9f95-2add04a7b4f0","system_id":"levelo_inurba_marseille","lat":43.299086,"lon":5.381487,"is_reserved":false,"is_disabled":false,"rental_uris":{"android":"levelo://app?vid=b0e99725-cae7-4188-9f95-2add04a7b4f0","ios":"levelo://app?vid=b0e99725-cae7-4188-9f95-2add04a7b4f0"},"vehicle_type_id":"4","last_reported":1747678471,"current_range_meters":14800,"station_id":"ce4bgj12rcd13ifvqbc0","pricing_plan_id":"cebpf4jnsgd1na2vs0mg"},{"bike_id":"ae02875b-e754-46d0-9a26-7aad8679d0ba","system_id":"levelo_inurba_marseille","lat":43.30325,"lon":5.40433,"is_reserved":false,"is_disabled":false,"rental_uris":{"android":"levelo://app?vid=ae02875b-e754-46d0-9a26-7aad8679d0ba","ios":"levelo://app?vid=ae02875b-e754-46d0-9a26-7aad8679d0ba"},"vehicle_type_id":"4","last_reported":1747678471,"current_range_meters":14800,"station_id":"ce4bh012rcd13ifvqd10","pricing_plan_id":"cebpf4jnsgd1na2vs0mg"},{"bike_id":"00f4fafd-b91e-4643-be3d-5d2f715443e7","system_id":"levelo_inurba_marseille","lat":43.29803,"lon":5.40405,"is_reserved":false,"is_disabled":false,"rental_uris":{"android":"levelo://app?vid=00f4fafd-b91e-4643-be3d-5d2f715443e7","ios":"levelo://app?vid=00f4fafd-b91e-4643-be3d-5d2f715443e7"},"vehicle_type_id":"4","last_reported":1747678471,"current_range_meters":14800,"station_id":"ce4bh112rcd13ifvqd90","pricing_plan_id":"cebpf4jnsgd1na2vs0mg"},{"bike_id":"47674173-1469-4239-b40e-572d37b406ef","system_id":"levelo_inurba_marseille","lat":43.28158,"lon":5.42644,"is_reserved":false,"is_disabled":false,"rental_uris":{"android":"levelo://app?vid=47674173-1469-4239-b40e-572d37b406ef","ios":"levelo://app?vid=47674173-1469-4239-b40e-572d37b406ef"},"vehicle_type_id":"4","last_reported":1747678471,"current_range_meters":14800,"station_id":"ce4bhnh2rcd13ifvqgug","pricing_plan_id":"cebpf4jnsgd1na2vs0mg"},{"bike_id":"58edc354-c183-4da4-b527-1ba0f2d395e0","system_id":"levelo_inurba_marseille","lat":43.27653,"lon":5.35741,"is_reserved":false,"is_disabled":false,"rental_uris":{"android":"levelo://app?vid=58edc354-c183-4da4-b527-1ba0f2d395e0","ios":"levelo://app?vid=58edc354-c183-4da4-b527-1ba0f2d395e0"},"vehicle_type_id":"4","last_reported":1747678471,"current_range_meters":15200,"station_id":"","pricing_plan_id":"cebpf4jnsgd1na2vs0mg"},{"bike_id":"e8162579-a5ad-485f-ad83-fec8a2ebe7e1","system_id":"levelo_inurba_marseille","lat":43.26826,"lon":5.39099,"is_reserved":false,"is_disabled":false,"rental_uris":{"android":"levelo://app?vid=e8162579-a5ad-485f-ad83-fec8a2ebe7e1","ios":"levelo://app?vid=e8162579-a5ad-485f-ad83-fec8a2ebe7e1"},"vehicle_type_id":"4","last_reported":1747678471,"current_range_meters":15200,"station_id":"","pricing_plan_id":"cebpf4jnsgd1na2vs0mg"},{"bike_id":"e9a87ea3-0d04-4f90-a580-ead5d5b00ce7","system_id":"levelo_inurba_marseille","lat":43.29923,"lon":5.374753,"is_reserved":false,"is_disabled":false,"rental_uris":{"android":"levelo://app?vid=e9a87ea3-0d04-4f90-a580-ead5d5b00ce7","ios":"levelo://app?vid=e9a87ea3-0d04-4f90-a580-ead5d5b00ce7"},"vehicle_type_id":"4","last_reported":1747678471,"current_range_meters":15200,"station_id":"ce4bgjh2rcd13ifvqbg0","pricing_plan_id":"cebpf4jnsgd1na2vs0mg"},{"bike_id":"7ddd82f2-75df-464b-8c03-766d7fbb61de","system_id":"levelo_inurba_marseille","lat":43.29263,"lon":5.4091,"is_reserved":false,"is_disabled":false,"rental_uris":{"android":"levelo://app?vid=7ddd82f2-75df-464b-8c03-766d7fbb61de","ios":"levelo://app?vid=7ddd82f2-75df-464b-8c03-766d7fbb61de"},"vehicle_type_id":"4","last_reported":1747678471,"current_range_meters":15200,"station_id":"ce4bh192rcd13ifvqdc0","pricing_plan_id":"cebpf4jnsgd1na2vs0mg"},{"bike_id":"eb50d7ba-bc17-4c3b-b391-7940c445d75f","system_id":"levelo_inurba_marseille","lat":43.29415,"lon":5.38622,"is_reserved":false,"is_disabled":false,"rental_uris":{"android":"levelo://app?vid=eb50d7ba-bc17-4c3b-b391-7940c445d75f","ios":"levelo://app?vid=eb50d7ba-bc17-4c3b-b391-7940c445d75f"},"vehicle_type_id":"4","last_reported":1747678471,"current_range_meters":15200,"station_id":"ce4bh2h2rcd13ifvqdh0","pricing_plan_id":"cebpf4jnsgd1na2vs0mg"},{"bike_id":"9933473f-5d3d-4395-89b0-46529379ee7d","system_id":"levelo_inurba_marseille","lat":43.28844,"lon":5.393,"is_reserved":false,"is_disabled":false,"rental_uris":{"android":"levelo://app?vid=9933473f-5d3d-4395-89b0-46529379ee7d","ios":"levelo://app?vid=9933473f-5d3d-4395-89b0-46529379ee7d"},"vehicle_type_id":"4","last_reported":1747678471,"current_range_meters":15200,"station_id":"ce4bh2p2rcd13ifvqdi0","pricing_plan_id":"cebpf4jnsgd1na2vs0mg"},{"bike_id":"3532affc-a16c-4c55-aef2-438c57750ba1","system_id":"levelo_inurba_marseille","lat":43.28934,"lon":5.36402,"is_reserved":false,"is_disabled":false,"rental_uris":{"android":"levelo://app?vid=3532affc-a16c-4c55-aef2-438c57750ba1","ios":"levelo://app?vid=3532affc-a16c-4c55-aef2-438c57750ba1"},"vehicle_type_id":"4","last_reported":1747678471,"current_range_meters":15200,"station_id":"ce4bhc92rcd13ifvqetg","pricing_plan_id":"cebpf4jnsgd1na2vs0mg"},{"bike_id":"f9bd452a-300d-4454-890a-c716cf8ab1c5","system_id":"levelo_inurba_marseille","lat":43.25001,"lon":5.389293,"is_reserved":false,"is_disabled":false,"rental_uris":{"android":"levelo://app?vid=f9bd452a-300d-4454-890a-c716cf8ab1c5","ios":"levelo://app?vid=f9bd452a-300d-4454-890a-c716cf8ab1c5"},"vehicle_type_id":"4","last_reported":1747678471,"current_range_meters":15200,"station_id":"ce4bhgp2rcd13ifvqfd0","pricing_plan_id":"cebpf4jnsgd1na2vs0mg"},{"bike_id":"08ea18f2-dc53-4ee0-8fd1-93801ba6e874","system_id":"levelo_inurba_marseille","lat":43.31015,"lon":5.38366,"is_reserved":false,"is_disabled":false,"rental_uris":{"android":"levelo://app?vid=08ea18f2-dc53-4ee0-8fd1-93801ba6e874","ios":"levelo://app?vid=08ea18f2-dc53-4ee0-8fd1-93801ba6e874"},"vehicle_type_id":"4","last_reported":1747678471,"current_range_meters":16000,"station_id":"ce4bgv92rcd13ifvqcr0","pricing_plan_id":"cebpf4jnsgd1na2vs0mg"},{"bike_id":"bd1ff5ac-22e7-42c5-b525-6d646c7e7a12","system_id":"levelo_inurba_marseille","lat":43.295286,"lon":5.39036,"is_reserved":false,"is_disabled":false,"rental_uris":{"android":"levelo://app?vid=bd1ff5ac-22e7-42c5-b525-6d646c7e7a12","ios":"levelo://app?vid=bd1ff5ac-22e7-42c5-b525-6d646c7e7a12"},"vehicle_type_id":"4","last_reported":1747678471,"current_range_meters":16000,"station_id":"ce4bh3p2rcd13ifvqdp0","pricing_plan_id":"cebpf4jnsgd1na2vs0mg"},{"bike_id":"5c5a00b5-fb99-4e85-8127-37a584ab780b","system_id":"levelo_inurba_marseille","lat":43.28403,"lon":5.37532,"is_reserved":false,"is_disabled":false,"rental_uris":{"android":"levelo://app?vid=5c5a00b5-fb99-4e85-8127-37a584ab780b","ios":"levelo://app?vid=5c5a00b5-fb99-4e85-8127-37a584ab780b"},"vehicle_type_id":"4","last_reported":1747678471,"current_range_meters":16000,"station_id":"ce4bh412rcd13ifvqds0","pricing_plan_id":"cebpf4jnsgd1na2vs0mg"},{"bike_id":"0f9d6bdf-1d4f-466e-aa63-557c75d3adc2","system_id":"levelo_inurba_marseille","lat":43.28034,"lon":5.36922,"is_reserved":false,"is_disabled":false,"rental_uris":{"android":"levelo://app?vid=0f9d6bdf-1d4f-466e-aa63-557c75d3adc2","ios":"levelo://app?vid=0f9d6bdf-1d4f-466e-aa63-557c75d3adc2"},"vehicle_type_id":"4","last_reported":1747678471,"current_range_meters":16000,"station_id":"ce4bha12rcd13ifvqef0","pricing_plan_id":"cebpf4jnsgd1na2vs0mg"},{"bike_id":"ebb71769-d4bb-46be-9336-ab460ce818ed","system_id":"levelo_inurba_marseille","lat":43.28033,"lon":5.36949,"is_reserved":false,"is_disabled":false,"rental_uris":{"android":"levelo://app?vid=ebb71769-d4bb-46be-9336-ab460ce818ed","ios":"levelo://app?vid=ebb71769-d4bb-46be-9336-ab460ce818ed"},"vehicle_type_id":"4","last_reported":1747678471,"current_range_meters":16000,"station_id":"ce4bha12rcd13ifvqef0","pricing_plan_id":"cebpf4jnsgd1na2vs0mg"},{"bike_id":"3552fbf2-b43a-446f-93f5-d695fc251b73","system_id":"levelo_inurba_marseille","lat":43.25165,"lon":5.37528,"is_reserved":false,"is_disabled":false,"rental_uris":{"android":"levelo://app?vid=3552fbf2-b43a-446f-93f5-d695fc251b73","ios":"levelo://app?vid=3552fbf2-b43a-446f-93f5-d695fc251b73"},"vehicle_type_id":"4","last_reported":1747678471,"current_range_meters":16400,"station_id":"","pricing_plan_id":"cebpf4jnsgd1na2vs0mg"},{"bike_id":"d8cdda65-0c59-4fa2-85b3-7f05f7a1decc","system_id":"levelo_inurba_marseille","lat":43.27054,"lon":5.4026,"is_reserved":false,"is_disabled":false,"rental_uris":{"android":"levelo://app?vid=d8cdda65-0c59-4fa2-85b3-7f05f7a1decc","ios":"levelo://app?vid=d8cdda65-0c59-4fa2-85b3-7f05f7a1decc"},"vehicle_type_id":"4","last_reported":1747678471,"current_range_meters":16400,"station_id":"ce4bhk92rcd13ifvqgc0","pricing_plan_id":"cebpf4jnsgd1na2vs0mg"},{"bike_id":"b4092363-ce05-481e-b8a5-74f257327df5","system_id":"levelo_inurba_marseille","lat":43.250869,"lon":5.395242,"is_reserved":false,"is_disabled":false,"rental_uris":{"android":"levelo://app?vid=b4092363-ce05-481e-b8a5-74f257327df5","ios":"levelo://app?vid=b4092363-ce05-481e-b8a5-74f257327df5"},"vehicle_type_id":"4","last_reported":1747678471,"current_range_meters":16400,"station_id":"ce4bhm12rcd13ifvqgkg","pricing_plan_id":"cebpf4jnsgd1na2vs0mg"},{"bike_id":"c3c11b11-8507-45b4-bd48-1e3bdd46fbbe","system_id":"levelo_inurba_marseille","lat":43.231843,"lon":5.399811,"is_reserved":false,"is_disabled":false,"rental_uris":{"android":"levelo://app?vid=c3c11b11-8507-45b4-bd48-1e3bdd46fbbe","ios":"levelo://app?vid=c3c11b11-8507-45b4-bd48-1e3bdd46fbbe"},"vehicle_type_id":"4","last_reported":1747678471,"current_range_meters":16400,"station_id":"ce4bhn12rcd13ifvqgqg","pricing_plan_id":"cebpf4jnsgd1na2vs0mg"},{"bike_id":"8cdd073a-e8df-449a-afb9-12ee118845c7","system_id":"levelo_inurba_marseille","lat":43.29785,"lon":5.3934,"is_reserved":false,"is_disabled":false,"rental_uris":{"android":"levelo://app?vid=8cdd073a-e8df-449a-afb9-12ee118845c7","ios":"levelo://app?vid=8cdd073a-e8df-449a-afb9-12ee118845c7"},"vehicle_type_id":"4","last_reported":1747678471,"current_range_meters":16400,"station_id":"chh1huq6cuj3fo74tm60","pricing_plan_id":"cebpf4jnsgd1na2vs0mg"},{"bike_id":"e18d3035-0dc2-48a1-ac0f-728d58ae1da8","system_id":"levelo_inurba_marseille","lat":43.2295,"lon":5.35351,"is_reserved":false,"is_disabled":false,"rental_uris":{"android":"levelo://app?vid=e18d3035-0dc2-48a1-ac0f-728d58ae1da8","ios":"levelo://app?vid=e18d3035-0dc2-48a1-ac0f-728d58ae1da8"},"vehicle_type_id":"4","last_reported":1747678471,"current_range_meters":16400,"station_id":"cpo3532slgdg3j2ikp40","pricing_plan_id":"cebpf4jnsgd1na2vs0mg"},{"bike_id":"e2e3a6f6-0f08-4185-b27b-75bc9500a96d","system_id":"levelo_inurba_marseille","lat":43.211918,"lon":5.350765,"is_reserved":false,"is_disabled":false,"rental_uris":{"android":"levelo://app?vid=e2e3a6f6-0f08-4185-b27b-75bc9500a96d","ios":"levelo://app?vid=e2e3a6f6-0f08-4185-b27b-75bc9500a96d"},"vehicle_type_id":"4","last_reported":1747678471,"current_range_meters":16400,"station_id":"st_cvj6sg6p6f1abm77japg","pricing_plan_id":"cebpf4jnsgd1na2vs0mg"},{"bike_id":"a77299a9-0afc-4000-817b-f97ca1eaadca","system_id":"levelo_inurba_marseille","lat":43.28812,"lon":5.4596,"is_reserved":false,"is_disabled":false,"rental_uris":{"android":"levelo://app?vid=a77299a9-0afc-4000-817b-f97ca1eaadca","ios":"levelo://app?vid=a77299a9-0afc-4000-817b-f97ca1eaadca"},"vehicle_type_id":"4","last_reported":1747678471,"current_range_meters":16800,"station_id":"","pricing_plan_id":"cebpf4jnsgd1na2vs0mg"},{"bike_id":"6386b301-5c5b-41dc-9be6-064d845d26a2","system_id":"levelo_inurba_marseille","lat":43.28634,"lon":5.4066,"is_reserved":false,"is_disabled":false,"rental_uris":{"android":"levelo://app?vid=6386b301-5c5b-41dc-9be6-064d845d26a2","ios":"levelo://app?vid=6386b301-5c5b-41dc-9be6-064d845d26a2"},"vehicle_type_id":"4","last_reported":1747678471,"current_range_meters":16800,"station_id":"","pricing_plan_id":"cebpf4jnsgd1na2vs0mg"},{"bike_id":"3ac32315-f5d8-4a9a-be15-2acdf8690c8f","system_id":"levelo_inurba_marseille","lat":43.295979,"lon":5.381009,"is_reserved":false,"is_disabled":false,"rental_uris":{"android":"levelo://app?vid=3ac32315-f5d8-4a9a-be15-2acdf8690c8f","ios":"levelo://app?vid=3ac32315-f5d8-4a9a-be15-2acdf8690c8f"},"vehicle_type_id":"4","last_reported":1747678471,"current_range_meters":16800,"station_id":"ce4bgl12rcd13ifvqbo0","pricing_plan_id":"cebpf4jnsgd1na2vs0mg"},{"bike_id":"8f9ad8e5-2995-4373-82e2-2e6740189ba1","system_id":"levelo_inurba_marseille","lat":43.30181,"lon":5.36631,"is_reserved":false,"is_disabled":false,"rental_uris":{"android":"levelo://app?vid=8f9ad8e5-2995-4373-82e2-2e6740189ba1","ios":"levelo://app?vid=8f9ad8e5-2995-4373-82e2-2e6740189ba1"},"vehicle_type_id":"4","last_reported":1747678471,"current_range_meters":16800,"station_id":"ce4bgrh2rcd13ifvqc8g","pricing_plan_id":"cebpf4jnsgd1na2vs0mg"},{"bike_id":"fdde453c-d335-4a47-aece-30a2dc2727f1","system_id":"levelo_inurba_marseille","lat":43.31071,"lon":5.38352,"is_reserved":false,"is_disabled":false,"rental_uris":{"android":"levelo://app?vid=fdde453c-d335-4a47-aece-30a2dc2727f1","ios":"levelo://app?vid=fdde453c-d335-4a47-aece-30a2dc2727f1"},"vehicle_type_id":"4","last_reported":1747678471,"current_range_meters":16800,"station_id":"ce4bgv92rcd13ifvqcr0","pricing_plan_id":"cebpf4jnsgd1na2vs0mg"},{"bike_id":"43a218d3-a1f4-4b75-a512-2e00bc7ceb3f","system_id":"levelo_inurba_marseille","lat":43.294182,"lon":5.38619,"is_reserved":false,"is_disabled":false,"rental_uris":{"android":"levelo://app?vid=43a218d3-a1f4-4b75-a512-2e00bc7ceb3f","ios":"levelo://app?vid=43a218d3-a1f4-4b75-a512-2e00bc7ceb3f"},"vehicle_type_id":"4","last_reported":1747678471,"current_range_meters":16800,"station_id":"ce4bh2h2rcd13ifvqdh0","pricing_plan_id":"cebpf4jnsgd1na2vs0mg"},{"bike_id":"73f67a29-6969-456a-95f0-801f5fe8de9f","system_id":"levelo_inurba_marseille","lat":43.29879,"lon":5.38909,"is_reserved":false,"is_disabled":false,"rental_uris":{"android":"levelo://app?vid=73f67a29-6969-456a-95f0-801f5fe8de9f","ios":"levelo://app?vid=73f67a29-6969-456a-95f0-801f5fe8de9f"},"vehicle_type_id":"4","last_reported":1747678471,"current_range_meters":16800,"station_id":"ce4bh392rcd13ifvqdl0","pricing_plan_id":"cebpf4jnsgd1na2vs0mg"},{"bike_id":"2995f5cf-ced2-4f74-a517-d5914e26322d","system_id":"levelo_inurba_marseille","lat":43.28709,"lon":5.37394,"is_reserved":false,"is_disabled":false,"rental_uris":{"android":"levelo://app?vid=2995f5cf-ced2-4f74-a517-d5914e26322d","ios":"levelo://app?vid=2995f5cf-ced2-4f74-a517-d5914e26322d"},"vehicle_type_id":"4","last_reported":1747678471,"current_range_meters":16800,"station_id":"ce4bh3p2rcd13ifvqdq0","pricing_plan_id":"cebpf4jnsgd1na2vs0mg"},{"bike_id":"b2dd231e-f539-4fc9-a318-33f5da31040b","system_id":"levelo_inurba_marseille","lat":43.25085,"lon":5.39525,"is_reserved":false,"is_disabled":false,"rental_uris":{"android":"levelo://app?vid=b2dd231e-f539-4fc9-a318-33f5da31040b","ios":"levelo://app?vid=b2dd231e-f539-4fc9-a318-33f5da31040b"},"vehicle_type_id":"4","last_reported":1747678471,"current_range_meters":16800,"station_id":"ce4bhm12rcd13ifvqgkg","pricing_plan_id":"cebpf4jnsgd1na2vs0mg"},{"bike_id":"c7d2e4ff-5699-4ee3-b0d8-9a9d873ed69b","system_id":"levelo_inurba_marseille","lat":43.27941,"lon":5.41058,"is_reserved":false,"is_disabled":false,"rental_uris":{"android":"levelo://app?vid=c7d2e4ff-5699-4ee3-b0d8-9a9d873ed69b","ios":"levelo://app?vid=c7d2e4ff-5699-4ee3-b0d8-9a9d873ed69b"},"vehicle_type_id":"4","last_reported":1747678471,"current_range_meters":16800,"station_id":"ce4bhnp2rcd13ifvqh0g","pricing_plan_id":"cebpf4jnsgd1na2vs0mg"},{"bike_id":"544fc8a4-7049-4e32-81dc-dc34a9133d95","system_id":"levelo_inurba_marseille","lat":43.28723,"lon":5.36094,"is_reserved":false,"is_disabled":false,"rental_uris":{"android":"levelo://app?vid=544fc8a4-7049-4e32-81dc-dc34a9133d95","ios":"levelo://app?vid=544fc8a4-7049-4e32-81dc-dc34a9133d95"},"vehicle_type_id":"4","last_reported":1747678471,"current_range_meters":16800,"station_id":"cki0cbj6b192h4jlfktg","pricing_plan_id":"cebpf4jnsgd1na2vs0mg"},{"bike_id":"ecfaa2cb-5b11-4142-972e-434894fefb5b","system_id":"levelo_inurba_marseille","lat":43.30661,"lon":5.40065,"is_reserved":false,"is_disabled":false,"rental_uris":{"android":"levelo://app?vid=ecfaa2cb-5b11-4142-972e-434894fefb5b","ios":"levelo://app?vid=ecfaa2cb-5b11-4142-972e-434894fefb5b"},"vehicle_type_id":"4","last_reported":1747678471,"current_range_meters":17200,"station_id":"ce4bh112rcd13ifvqda0","pricing_plan_id":"cebpf4jnsgd1na2vs0mg"},{"bike_id":"826b1122-4bc0-42b2-8aab-3e6a6e50db06","system_id":"levelo_inurba_marseille","lat":43.26062,"lon":5.39398,"is_reserved":false,"is_disabled":false,"rental_uris":{"android":"levelo://app?vid=826b1122-4bc0-42b2-8aab-3e6a6e50db06","ios":"levelo://app?vid=826b1122-4bc0-42b2-8aab-3e6a6e50db06"},"vehicle_type_id":"4","last_reported":1747678471,"current_range_meters":17200,"station_id":"ce4bhh92rcd13ifvqfj0","pricing_plan_id":"cebpf4jnsgd1na2vs0mg"},{"bike_id":"0c75e290-2f49-4428-9202-02a35670787a","system_id":"levelo_inurba_marseille","lat":43.23192,"lon":5.39978,"is_reserved":false,"is_disabled":false,"rental_uris":{"android":"levelo://app?vid=0c75e290-2f49-4428-9202-02a35670787a","ios":"levelo://app?vid=0c75e290-2f49-4428-9202-02a35670787a"},"vehicle_type_id":"4","last_reported":1747678471,"current_range_meters":17200,"station_id":"ce4bhn12rcd13ifvqgqg","pricing_plan_id":"cebpf4jnsgd1na2vs0mg"},{"bike_id":"fb89dfc4-e35f-4587-9e64-101e9b9bc28f","system_id":"levelo_inurba_marseille","lat":43.27943,"lon":5.41037,"is_reserved":false,"is_disabled":false,"rental_uris":{"android":"levelo://app?vid=fb89dfc4-e35f-4587-9e64-101e9b9bc28f","ios":"levelo://app?vid=fb89dfc4-e35f-4587-9e64-101e9b9bc28f"},"vehicle_type_id":"4","last_reported":1747678471,"current_range_meters":17200,"station_id":"ce4bhnp2rcd13ifvqh0g","pricing_plan_id":"cebpf4jnsgd1na2vs0mg"},{"bike_id":"75dee7d2-0f48-4cd8-b326-0e219910beed","system_id":"levelo_inurba_marseille","lat":43.308051,"lon":5.4352,"is_reserved":false,"is_disabled":false,"rental_uris":{"android":"levelo://app?vid=75dee7d2-0f48-4cd8-b326-0e219910beed","ios":"levelo://app?vid=75dee7d2-0f48-4cd8-b326-0e219910beed"},"vehicle_type_id":"4","last_reported":1747678471,"current_range_meters":17200,"station_id":"ce4bhph2rcd13ifvqheg","pricing_plan_id":"cebpf4jnsgd1na2vs0mg"},{"bike_id":"8ff711be-34e2-447c-a26d-b1c462e4acb9","system_id":"levelo_inurba_marseille","lat":43.29548,"lon":5.38533,"is_reserved":false,"is_disabled":false,"rental_uris":{"android":"levelo://app?vid=8ff711be-34e2-447c-a26d-b1c462e4acb9","ios":"levelo://app?vid=8ff711be-34e2-447c-a26d-b1c462e4acb9"},"vehicle_type_id":"4","last_reported":1747678471,"current_range_meters":17600,"station_id":"ce4bgih2rcd13ifvqba0","pricing_plan_id":"cebpf4jnsgd1na2vs0mg"},{"bike_id":"a83d1901-94db-498d-bf2b-686c26f57456","system_id":"levelo_inurba_marseille","lat":43.29038,"lon":5.37578,"is_reserved":false,"is_disabled":false,"rental_uris":{"android":"levelo://app?vid=a83d1901-94db-498d-bf2b-686c26f57456","ios":"levelo://app?vid=a83d1901-94db-498d-bf2b-686c26f57456"},"vehicle_type_id":"4","last_reported":1747678471,"current_range_meters":17600,"station_id":"ce4bh692rcd13ifvqe90","pricing_plan_id":"cebpf4jnsgd1na2vs0mg"},{"bike_id":"52e5a0fd-9a82-4a4a-8f0b-b92665327644","system_id":"levelo_inurba_marseille","lat":43.30792,"lon":5.43537,"is_reserved":false,"is_disabled":false,"rental_uris":{"android":"levelo://app?vid=52e5a0fd-9a82-4a4a-8f0b-b92665327644","ios":"levelo://app?vid=52e5a0fd-9a82-4a4a-8f0b-b92665327644"},"vehicle_type_id":"4","last_reported":1747678471,"current_range_meters":17600,"station_id":"ce4bhph2rcd13ifvqheg","pricing_plan_id":"cebpf4jnsgd1na2vs0mg"},{"bike_id":"bfecf0b2-ef04-4f8e-b56e-b1b418ca8fbe","system_id":"levelo_inurba_marseille","lat":43.29709,"lon":5.36606,"is_reserved":false,"is_disabled":false,"rental_uris":{"android":"levelo://app?vid=bfecf0b2-ef04-4f8e-b56e-b1b418ca8fbe","ios":"levelo://app?vid=bfecf0b2-ef04-4f8e-b56e-b1b418ca8fbe"},"vehicle_type_id":"4","last_reported":1747678471,"current_range_meters":18000,"station_id":"ce4bgn12rcd13ifvqbt0","pricing_plan_id":"cebpf4jnsgd1na2vs0mg"},{"bike_id":"598fa787-381f-4019-a3ad-dc5bc0154a4f","system_id":"levelo_inurba_marseille","lat":43.28736,"lon":5.37943,"is_reserved":false,"is_disabled":false,"rental_uris":{"android":"levelo://app?vid=598fa787-381f-4019-a3ad-dc5bc0154a4f","ios":"levelo://app?vid=598fa787-381f-4019-a3ad-dc5bc0154a4f"},"vehicle_type_id":"4","last_reported":1747678471,"current_range_meters":18000,"station_id":"ce4bh9p2rcd13ifvqec0","pricing_plan_id":"cebpf4jnsgd1na2vs0mg"},{"bike_id":"355fa922-9f86-4264-9051-ad322d8753e8","system_id":"levelo_inurba_marseille","lat":43.2893,"lon":5.36638,"is_reserved":false,"is_disabled":false,"rental_uris":{"android":"levelo://app?vid=355fa922-9f86-4264-9051-ad322d8753e8","ios":"levelo://app?vid=355fa922-9f86-4264-9051-ad322d8753e8"},"vehicle_type_id":"4","last_reported":1747678471,"current_range_meters":18000,"station_id":"ce4bhap2rcd13ifvqek0","pricing_plan_id":"cebpf4jnsgd1na2vs0mg"},{"bike_id":"d641aa80-fea9-4677-9451-bfebbbc671ae","system_id":"levelo_inurba_marseille","lat":43.29197,"lon":5.35802,"is_reserved":false,"is_disabled":false,"rental_uris":{"android":"levelo://app?vid=d641aa80-fea9-4677-9451-bfebbbc671ae","ios":"levelo://app?vid=d641aa80-fea9-4677-9451-bfebbbc671ae"},"vehicle_type_id":"4","last_reported":1747678471,"current_range_meters":18000,"station_id":"ce4bhb12rcd13ifvqel0","pricing_plan_id":"cebpf4jnsgd1na2vs0mg"},{"bike_id":"3e3493b3-2ea5-41da-a011-32630cf1bcc1","system_id":"levelo_inurba_marseille","lat":43.24545,"lon":5.3952,"is_reserved":false,"is_disabled":false,"rental_uris":{"android":"levelo://app?vid=3e3493b3-2ea5-41da-a011-32630cf1bcc1","ios":"levelo://app?vid=3e3493b3-2ea5-41da-a011-32630cf1bcc1"},"vehicle_type_id":"4","last_reported":1747678471,"current_range_meters":18000,"station_id":"ce4bhlp2rcd13ifvqgjg","pricing_plan_id":"cebpf4jnsgd1na2vs0mg"},{"bike_id":"71817c77-e9f1-483d-89c1-16ca77de3122","system_id":"levelo_inurba_marseille","lat":43.25091,"lon":5.39515,"is_reserved":false,"is_disabled":false,"rental_uris":{"android":"levelo://app?vid=71817c77-e9f1-483d-89c1-16ca77de3122","ios":"levelo://app?vid=71817c77-e9f1-483d-89c1-16ca77de3122"},"vehicle_type_id":"4","last_reported":1747678471,"current_range_meters":18000,"station_id":"ce4bhm12rcd13ifvqgkg","pricing_plan_id":"cebpf4jnsgd1na2vs0mg"},{"bike_id":"dc80936a-51b4-4ef9-b71e-e259b58f2ac3","system_id":"levelo_inurba_marseille","lat":43.23189,"lon":5.39981,"is_reserved":false,"is_disabled":false,"rental_uris":{"android":"levelo://app?vid=dc80936a-51b4-4ef9-b71e-e259b58f2ac3","ios":"levelo://app?vid=dc80936a-51b4-4ef9-b71e-e259b58f2ac3"},"vehicle_type_id":"4","last_reported":1747678471,"current_range_meters":18000,"station_id":"ce4bhn12rcd13ifvqgqg","pricing_plan_id":"cebpf4jnsgd1na2vs0mg"},{"bike_id":"dfb2470b-629c-47b8-b6f7-461c0e3eb94b","system_id":"levelo_inurba_marseille","lat":43.278063,"lon":5.407288,"is_reserved":false,"is_disabled":false,"rental_uris":{"android":"levelo://app?vid=dfb2470b-629c-47b8-b6f7-461c0e3eb94b","ios":"levelo://app?vid=dfb2470b-629c-47b8-b6f7-461c0e3eb94b"},"vehicle_type_id":"4","last_reported":1747678471,"current_range_meters":18000,"station_id":"ce4bhnh2rcd13ifvqgtg","pricing_plan_id":"cebpf4jnsgd1na2vs0mg"},{"bike_id":"bfadeaec-216b-47d1-99b4-74d81f9ee763","system_id":"levelo_inurba_marseille","lat":43.3211,"lon":5.36784,"is_reserved":false,"is_disabled":false,"rental_uris":{"android":"levelo://app?vid=bfadeaec-216b-47d1-99b4-74d81f9ee763","ios":"levelo://app?vid=bfadeaec-216b-47d1-99b4-74d81f9ee763"},"vehicle_type_id":"4","last_reported":1747678471,"current_range_meters":18000,"station_id":"ce4bhrh2rcd13ifvqhug","pricing_plan_id":"cebpf4jnsgd1na2vs0mg"},{"bike_id":"ec2e7cdc-5a49-4257-b205-f17da4cbfbe8","system_id":"levelo_inurba_marseille","lat":43.28725,"lon":5.36082,"is_reserved":false,"is_disabled":false,"rental_uris":{"android":"levelo://app?vid=ec2e7cdc-5a49-4257-b205-f17da4cbfbe8","ios":"levelo://app?vid=ec2e7cdc-5a49-4257-b205-f17da4cbfbe8"},"vehicle_type_id":"4","last_reported":1747678471,"current_range_meters":18000,"station_id":"cki0cbj6b192h4jlfktg","pricing_plan_id":"cebpf4jnsgd1na2vs0mg"},{"bike_id":"68ca9ac2-122a-4890-8f9a-808c715ae4ba","system_id":"levelo_inurba_marseille","lat":43.29785,"lon":5.3711,"is_reserved":false,"is_disabled":false,"rental_uris":{"android":"levelo://app?vid=68ca9ac2-122a-4890-8f9a-808c715ae4ba","ios":"levelo://app?vid=68ca9ac2-122a-4890-8f9a-808c715ae4ba"},"vehicle_type_id":"4","last_reported":1747678471,"current_range_meters":18800,"station_id":"ce4bgop2rcd13ifvqc1g","pricing_plan_id":"cebpf4jnsgd1na2vs0mg"},