{"last_updated":1724695876,"ttl":30,"version":"2.2","data":{"bikes":[{"bike_id":"aca49acd-0f91-448c-bbe3-2c34760e410b","system_id":"levelo_inurba_marseille","lat":43.31341,"lon":5.367098,"is_reserved":false,"is_disabled":false,"rental_uris":{"android":"levelo://app?vid=aca49acd-0f91-448c-bbe3-2c34760e410b","ios":"levelo://app?vid=aca49acd-0f91-448c-bbe3-2c34760e410b"},"vehicle_type_id":"4","last_reported":1724695876,"current_range_meters":0,"station_id":"ce4bgr92rcd13ifvqc6g","pricing_plan_id":"cebpf4jnsgd1na2vs0mg"},{"bike_id":"0a73b391-62d1-45df-abaa-29c9db7dfe4e","system_id":"levelo_inurba_marseille","lat":43.312239,"lon":5.368562,"is_reserved":false,"is_disabled":false,"rental_uris":{"android":"levelo://app?vid=0a73b391-62d1-45df-abaa-29c9db7dfe4e","ios":"levelo://app?vid=0a73b391-62d1-45df-abaa-29c9db7dfe4e"},"vehicle_type_id":"4","last_reported":1724695876,"current_range_meters":9200,"station_id":"ce4bgl92rcd13ifvqbq0","pricing_plan_id":"cebpf4jnsgd1na2vs0mg"},{"bike_id":"e246d1d6-4dcb-4456-95f3-8b605c2d9456","system_id":"levelo_inurba_marseille","lat":43.312239,"lon":5.368562,"is_reserved":false,"is_disabled":false,"rental_uris":{"android":"levelo://app?vid=e246d1d6-4dcb-4456-95f3-8b605c2d9456","ios":"levelo://app?vid=e246d1d6-4dcb-4456-95f3-8b605c2d9456"},"vehicle_type_id":"4","last_reported":1724695876,"current_range_meters":3200,"station_id":"ce4bgl92rcd13ifvqbq0","pricing_plan_id":"cebpf4jnsgd1na2vs0mg"},{"bike_id":"998ec73a-2207-4a49-838b-528b7361404a","system_id":"levelo_inurba_marseille","lat":43.31222,"lon":5.36847,"is_reserved":false,"is_disabled":false,"rental_uris":{"android":"levelo://app?vid=998ec73a-2207-4a49-838b-528b7361404a","ios":"levelo://app?vid=998ec73a-2207-4a49-838b-528b7361404a"},"vehicle_type_id":"4","last_reported":1724695876,"current_range_meters":9200,"station_id":"ce4bgl92rcd13ifvqbq0","pricing_plan_id":"cebpf4jnsgd1na2vs0mg"},{"bike_id":"3021ca2d-8a6a-44e9-b41d-99f1691dc552","system_id":"levelo_inurba_marseille","lat":43.309076,"lon":5.368465,"is_reserved":false,"is_disabled":false,"rental_uris":{"android":"levelo://app?vid=3021ca2d-8a6a-44e9-b41d-99f1691dc552","ios":"levelo://app?vid=3021ca2d-8a6a-44e9-b41d-99f1691dc552"},"vehicle_type_id":"4","last_reported":1724695876,"current_range_meters":26400,"station_id":"ce4bgn92rcd13ifvqbvg","pricing_plan_id":"cebpf4jnsgd1na2vs0mg"},{"bike_id":"7cb66327-82e3-406e-a665-d83aa624d8dd","system_id":"levelo_inurba_marseille","lat":43.309076,"lon":5.368465,"is_reserved":false,"is_disabled":false,"rental_uris":{"android":"levelo://app?vid=7cb66327-82e3-406e-a665-d83aa624d8dd","ios":"levelo://app?vid=7cb66327-82e3-406e-a665-d83aa624d8dd"},"vehicle_type_id":"4","last_reported":1724695876,"current_range_meters":400,"station_id":"ce4bgn92rcd13ifvqbvg","pricing_plan_id":"cebpf4jnsgd1na2vs0mg"},{"bike_id":"1b533b8c-2e02-45b2-879f-ef44d6bbee03","system_id":"levelo_inurba_marseille","lat":43.314811,"lon":5.373103,"is_reserved":false,"is_disabled":false,"rental_uris":{"android":"levelo://app?vid=1b533b8c-2e02-45b2-879f-ef44d6bbee03","ios":"levelo://app?vid=1b533b8c-2e02-45b2-879f-ef44d6bbee03"},"vehicle_type_id":"4","last_reported":1724695876,"current_range_meters":0,"station_id":"ce4bgt12rcd13ifvqcd0","pricing_plan_id":"cebpf4jnsgd1na2vs0mg"},{"bike_id":"bb493553-6ee4-40be-8562-5503eca70d20","system_id":"levelo_inurba_marseille","lat":43.30905,"lon":5.37497,"is_reserved":false,"is_disabled":false,"rental_uris":{"android":"levelo://app?vid=bb493553-6ee4-40be-8562-5503eca70d20","ios":"levelo://app?vid=bb493553-6ee4-40be-8562-5503eca70d20"},"vehicle_type_id":"4","last_reported":1724695876,"current_range_meters":3200,"station_id":"","pricing_plan_id":"cebpf4jnsgd1na2vs0mg"},{"bike_id":"131cb926-0393-45cc-a59e-a53c2ef83038","system_id":"levelo_inurba_marseille","lat":43.305368,"lon":5.367343,"is_reserved":false,"is_disabled":false,"rental_uris":{"android":"levelo://app?vid=131cb926-0393-45cc-a59e-a53c2ef83038","ios":"levelo://app?vid=131cb926-0393-45cc-a59e-a53c2ef83038"},"vehicle_type_id":"4","last_reported":1724695876,"current_range_meters":0,"station_id":"ce4bgrp2rcd13ifvqc9g","pricing_plan_id":"cebpf4jnsgd1na2vs0mg"},{"bike_id":"9eb3ec75-4848-49dd-ae64-15fffacf30b3","system_id":"levelo_inurba_marseille","lat":43.311125,"lon":5.377624,"is_reserved":false,"is_disabled":false,"rental_uris":{"android":"levelo://app?vid=9eb3ec75-4848-49dd-ae64-15fffacf30b3","ios":"levelo://app?vid=9eb3ec75-4848-49dd-ae64-15fffacf30b3"},"vehicle_type_id":"4","last_reported":1724695876,"current_range_meters":1600,"station_id":"ce4bgt92rcd13ifvqcg0","pricing_plan_id":"cebpf4jnsgd1na2vs0mg"},{"bike_id":"9757e5bf-8876-4db3-b767-4157149c0126","system_id":"levelo_inurba_marseille","lat":43.311131,"lon":5.377651,"is_reserved":false,"is_disabled":false,"rental_uris":{"android":"levelo://app?vid=9757e5bf-8876-4db3-b767-4157149c0126","ios":"levelo://app?vid=9757e5bf-8876-4db3-b767-4157149c0126"},"vehicle_type_id":"4","last_reported":1724695876,"current_range_meters":2000,"station_id":"ce4bgt92rcd13ifvqcg0","pricing_plan_id":"cebpf4jnsgd1na2vs0mg"},{"bike_id":"a317ce07-bd13-4a13-ae26-07e690c65a2c","system_id":"levelo_inurba_marseille","lat":43.31183,"lon":5.37884,"is_reserved":false,"is_disabled":false,"rental_uris":{"android":"levelo://app?vid=a317ce07-bd13-4a13-ae26-07e690c65a2c","ios":"levelo://app?vid=a317ce07-bd13-4a13-ae26-07e690c65a2c"},"vehicle_type_id":"4","last_reported":1724695876,"current_range_meters":800,"station_id":"","pricing_plan_id":"cebpf4jnsgd1na2vs0mg"},{"bike_id":"96d4f294-416c-4af6-bbec-d417057e7ba3","system_id":"levelo_inurba_marseille","lat":43.317075,"lon":5.377367,"is_reserved":false,"is_disabled":false,"rental_uris":{"android":"levelo://app?vid=96d4f294-416c-4af6-bbec-d417057e7ba3","ios":"levelo://app?vid=96d4f294-416c-4af6-bbec-d417057e7ba3"},"vehicle_type_id":"4","last_reported":1724695876,"current_range_meters":4800,"station_id":"ce4bgth2rcd13ifvqch0","pricing_plan_id":"cebpf4jnsgd1na2vs0mg"},{"bike_id":"f34646e3-6c74-40a3-a245-d42a91d784de","system_id":"levelo_inurba_marseille","lat":43.317075,"lon":5.377367,"is_reserved":false,"is_disabled":false,"rental_uris":{"android":"levelo://app?vid=f34646e3-6c74-40a3-a245-d42a91d784de","ios":"levelo://app?vid=f34646e3-6c74-40a3-a245-d42a91d784de"},"vehicle_type_id":"4","last_reported":1724695876,"current_range_meters":10400,"station_id":"ce4bgth2rcd13ifvqch0","pricing_plan_id":"cebpf4jnsgd1na2vs0mg"},{"bike_id":"76396786-201d-4f53-9bb5-aab4100bf121","system_id":"levelo_inurba_marseille","lat":43.279742,"lon":5.38744,"is_reserved":false,"is_disabled":false,"rental_uris":{"android":"levelo://app?vid=76396786-201d-4f53-9bb5-aab4100bf121","ios":"levelo://app?vid=76396786-201d-4f53-9bb5-aab4100bf121"},"vehicle_type_id":"4","last_reported":1724695876,"current_range_meters":18800,"station_id":"ce4bhg12rcd13ifvqf80","pricing_plan_id":"cebpf4jnsgd1na2vs0mg"},{"bike_id":"6a832923-ec80-4c95-9d83-08f498a1876b","system_id":"levelo_inurba_marseille","lat":43.30265,"lon":5.36887,"is_reserved":false,"is_disabled":false,"rental_uris":{"android":"levelo://app?vid=6a832923-ec80-4c95-9d83-08f498a1876b","ios":"levelo://app?vid=6a832923-ec80-4c95-9d83-08f498a1876b"},"vehicle_type_id":"4","last_reported":1724695876,"current_range_meters":22000,"station_id":"ce4bgqh2rcd13ifvqc5g","pricing_plan_id":"cebpf4jnsgd1na2vs0mg"},{"bike_id":"1fab1f5f-7204-45c3-aa0b-a4dab0fae312","system_id":"levelo_inurba_marseille","lat":43.308012,"lon":5.381511,"is_reserved":false,"is_disabled":false,"rental_uris":{"android":"levelo://app?vid=1fab1f5f-7204-45c3-aa0b-a4dab0fae312","ios":"levelo://app?vid=1fab1f5f-7204-45c3-aa0b-a4dab0fae312"},"vehicle_type_id":"4","last_reported":1724695876,"current_range_meters":18400,"station_id":"ce4bgt12rcd13ifvqce0","pricing_plan_id":"cebpf4jnsgd1na2vs0mg"},{"bike_id":"565f7b7f-ac55-441d-aca5-414690aa0f16","system_id":"levelo_inurba_marseille","lat":43.308012,"lon":5.381511,"is_reserved":false,"is_disabled":false,"rental_uris":{"android":"levelo://app?vid=565f7b7f-ac55-441d-aca5-414690aa0f16","ios":"levelo://app?vid=565f7b7f-ac55-441d-aca5-414690aa0f16"},"vehicle_type_id":"4","last_reported":1724695876,"current_range_meters":2800,"station_id":"ce4bgt12rcd13ifvqce0","pricing_plan_id":"cebpf4jnsgd1na2vs0mg"},{"bike_id":"aecdee18-123a-467b-9a97-45f4e7349733","system_id":"levelo_inurba_marseille","lat":43.308012,"lon":5.381511,"is_reserved":false,"is_disabled":false,"rental_uris":{"android":"levelo://app?vid=aecdee18-123a-467b-9a97-45f4e7349733","ios":"levelo://app?vid=aecdee18-123a-467b-9a97-45f4e7349733"},"vehicle_type_id":"4","last_reported":1724695876,"current_range_meters":6800,"station_id":"ce4bgt12rcd13ifvqce0","pricing_plan_id":"cebpf4jnsgd1na2vs0mg"},{"bike_id":"a625792b-dc95-41a8-b803-eb9cd8b3952c","system_id":"levelo_inurba_marseille","lat":43.308012,"lon":5.381511,"is_reserved":false,"is_disabled":false,"rental_uris":{"android":"levelo://app?vid=a625792b-dc95-41a8-b803-eb9cd8b3952c","ios":"levelo://app?vid=a625792b-dc95-41a8-b803-eb9cd8b3952c"},"vehicle_type_id":"4","last_reported":1724695876,"current_range_meters":2000,"station_id":"ce4bgt12rcd13ifvqce0","pricing_plan_id":"cebpf4jnsgd1na2vs0mg"},{"bike_id":"e1aa9e81-0e97-4864-8a0d-9da9418e8a74","system_id":"levelo_inurba_marseille","lat":43.304606,"lon":5.379026,"is_reserved":false,"is_disabled":false,"rental_uris":{"android":"levelo://app?vid=e1aa9e81-0e97-4864-8a0d-9da9418e8a74","ios":"levelo://app?vid=e1aa9e81-0e97-4864-8a0d-9da9418e8a74"},"vehicle_type_id":"4","last_reported":1724695876,"current_range_meters":24400,"station_id":"ce4bgup2rcd13ifvqcn0","pricing_plan_id":"cebpf4jnsgd1na2vs0mg"},{"bike_id":"1f696eed-d40e-4222-ad75-5b4849426cba","system_id":"levelo_inurba_marseille","lat":43.324771,"lon":5.36557,"is_reserved":false,"is_disabled":false,"rental_uris":{"android":"levelo://app?vid=1f696eed-d40e-4222-ad75-5b4849426cba","ios":"levelo://app?vid=1f696eed-d40e-4222-ad75-5b4849426cba"},"vehicle_type_id":"4","last_reported":1724695876,"current_range_meters":14000,"station_id":"ce4bhs12rcd13ifvqhvg","pricing_plan_id":"cebpf4jnsgd1na2vs0mg"},{"bike_id":"00aaa01b-3e40-4e8a-b9a9-b5e9709c183b","system_id":"levelo_inurba_marseille","lat":43.32479,"lon":5.36564,"is_reserved":false,"is_disabled":false,"rental_uris":{"android":"levelo://app?vid=00aaa01b-3e40-4e8a-b9a9-b5e9709c183b","ios":"levelo://app?vid=00aaa01b-3e40-4e8a-b9a9-b5e9709c183b"},"vehicle_type_id":"4","last_reported":1724695876,"current_range_meters":0,"station_id":"ce4bhs12rcd13ifvqhvg","pricing_plan_id":"cebpf4jnsgd1na2vs0mg"},{"bike_id":"2a6510b5-ad44-47ed-bdf7-f61afb5528f0","system_id":"levelo_inurba_marseille","lat":43.324816,"lon":5.365558,"is_reserved":false,"is_disabled":false,"rental_uris":{"android":"levelo://app?vid=2a6510b5-ad44-47ed-bdf7-f61afb5528f0","ios":"levelo://app?vid=2a6510b5-ad44-47ed-bdf7-f61afb5528f0"},"vehicle_type_id":"4","last_reported":1724695876,"current_range_meters":22800,"station_id":"ce4bhs12rcd13ifvqhvg","pricing_plan_id":"cebpf4jnsgd1na2vs0mg"},{"bike_id":"287696e1-0a77-48f3-8991-83ad0e1308d9","system_id":"levelo_inurba_marseille","lat":43.31059,"lon":5.38364,"is_reserved":false,"is_disabled":false,"rental_uris":{"android":"levelo://app?vid=287696e1-0a77-48f3-8991-83ad0e1308d9","ios":"levelo://app?vid=287696e1-0a77-48f3-8991-83ad0e1308d9"},"vehicle_type_id":"4","last_reported":1724695876,"current_range_meters":22400,"station_id":"ce4bgv92rcd13ifvqcr0","pricing_plan_id":"cebpf4jnsgd1na2vs0mg"},{"bike_id":"068f7f94-c763-4938-bfec-5f886626b30d","system_id":"levelo_inurba_marseille","lat":43.30143,"lon":5.37415,"is_reserved":false,"is_disabled":false,"rental_uris":{"android":"levelo://app?vid=068f7f94-c763-4938-bfec-5f886626b30d","ios":"levelo://app?vid=068f7f94-c763-4938-bfec-5f886626b30d"},"vehicle_type_id":"4","last_reported":1724695876,"current_range_meters":0,"station_id":"ce4bgs92rcd13ifvqcc0","pricing_plan_id":"cebpf4jnsgd1na2vs0mg"},{"bike_id":"ff2e2f17-e53a-4360-9800-37c28492171b","system_id":"levelo_inurba_marseille","lat":43.31966,"lon":5.38148,"is_reserved":false,"is_disabled":false,"rental_uris":{"android":"levelo://app?vid=ff2e2f17-e53a-4360-9800-37c28492171b","ios":"levelo://app?vid=ff2e2f17-e53a-4360-9800-37c28492171b"},"vehicle_type_id":"4","last_reported":1724695876,"current_range_meters":6000,"station_id":"ce4bhr12rcd13ifvqhpg","pricing_plan_id":"cebpf4jnsgd1na2vs0mg"},{"bike_id":"117cda6a-1261-45f1-aa8c-f5aabee24375","system_id":"levelo_inurba_marseille","lat":43.32551,"lon":5.364,"is_reserved":false,"is_disabled":false,"rental_uris":{"android":"levelo://app?vid=117cda6a-1261-45f1-aa8c-f5aabee24375","ios":"levelo://app?vid=117cda6a-1261-45f1-aa8c-f5aabee24375"},"vehicle_type_id":"4","last_reported":1724695876,"current_range_meters":10400,"station_id":"","pricing_plan_id":"cebpf4jnsgd1na2vs0mg"},{"bike_id":"367c975c-ec20-4fdf-8e5b-5450dfd049a5","system_id":"levelo_inurba_marseille","lat":43.319935,"lon":5.381699,"is_reserved":false,"is_disabled":false,"rental_uris":{"android":"levelo://app?vid=367c975c-ec20-4fdf-8e5b-5450dfd049a5","ios":"levelo://app?vid=367c975c-ec20-4fdf-8e5b-5450dfd049a5"},"vehicle_type_id":"4","last_reported":1724695876,"current_range_meters":7600,"station_id":"ce4bhr12rcd13ifvqhpg","pricing_plan_id":"cebpf4jnsgd1na2vs0mg"},{"bike_id":"32d688a7-26bd-47f5-90ff-bd4f50d50d85","system_id":"levelo_inurba_marseille","lat":43.313571,"lon":5.384829,"is_reserved":false,"is_disabled":false,"rental_uris":{"android":"levelo://app?vid=32d688a7-26bd-47f5-90ff-bd4f50d50d85","ios":"levelo://app?vid=32d688a7-26bd-47f5-90ff-bd4f50d50d85"},"vehicle_type_id":"4","last_reported":1724695876,"current_range_meters":0,"station_id":"ce4bgt92rcd13ifvqcf0","pricing_plan_id":"cebpf4jnsgd1na2vs0mg"},{"bike_id":"fddf7890-f17e-40c8-9471-f14799c7eb02","system_id":"levelo_inurba_marseille","lat":43.299724,"lon":5.371829,"is_reserved":false,"is_disabled":false,"rental_uris":{"android":"levelo://app?vid=fddf7890-f17e-40c8-9471-f14799c7eb02","ios":"levelo://app?vid=fddf7890-f17e-40c8-9471-f14799c7eb02"},"vehicle_type_id":"4","last_reported":1724695876,"current_range_meters":12000,"station_id":"ce4bgr92rcd13ifvqc7g","pricing_plan_id":"cebpf4jnsgd1na2vs0mg"},{"bike_id":"a01a0b1b-f7ec-4e91-a275-294458d54a33","system_id":"levelo_inurba_marseille","lat":43.29969,"lon":5.37181,"is_reserved":false,"is_disabled":false,"rental_uris":{"android":"levelo://app?vid=a01a0b1b-f7ec-4e91-a275-294458d54a33","ios":"levelo://app?vid=a01a0b1b-f7ec-4e91-a275-294458d54a33"},"vehicle_type_id":"4","last_reported":1724695876,"current_range_meters":0,"station_id":"ce4bgr92rcd13ifvqc7g","pricing_plan_id":"cebpf4jnsgd1na2vs0mg"},{"bike_id":"c095c9cf-98a0-44a0-b9da-b8d727a62f4b","system_id":"levelo_inurba_marseille","lat":43.299243,"lon":5.37481,"is_reserved":false,"is_disabled":false,"rental_uris":{"android":"levelo://app?vid=c095c9cf-98a0-44a0-b9da-b8d727a62f4b","ios":"levelo://app?vid=c095c9cf-98a0-44a0-b9da-b8d727a62f4b"},"vehicle_type_id":"4","last_reported":1724695876,"current_range_meters":5600,"station_id":"ce4bgjh2rcd13ifvqbg0","pricing_plan_id":"cebpf4jnsgd1na2vs0mg"},{"bike_id":"63b4349d-27fe-4c08-bbb7-444c15b86337","system_id":"levelo_inurba_marseille","lat":43.299243,"lon":5.37481,"is_reserved":false,"is_disabled":false,"rental_uris":{"android":"levelo://app?vid=63b4349d-27fe-4c08-bbb7-444c15b86337","ios":"levelo://app?vid=63b4349d-27fe-4c08-bbb7-444c15b86337"},"vehicle_type_id":"4","last_reported":1724695876,"current_range_meters":10400,"station_id":"ce4bgjh2rcd13ifvqbg0","pricing_plan_id":"cebpf4jnsgd1na2vs0mg"},{"bike_id":"e63afc17-1a27-4bac-b85a-7ef059b1a324","system_id":"levelo_inurba_marseille","lat":43.311722,"lon":5.387247,"is_reserved":false,"is_disabled":false,"rental_uris":{"android":"levelo://app?vid=e63afc17-1a27-4bac-b85a-7ef059b1a324","ios":"levelo://app?vid=e63afc17-1a27-4bac-b85a-7ef059b1a324"},"vehicle_type_id":"4","last_reported":1724695876,"current_range_meters":6000,"station_id":"ce4bgv12rcd13ifvqcp0","pricing_plan_id":"cebpf4jnsgd1na2vs0mg"},{"bike_id":"0f7f2b22-bc5e-4742-9438-72548c71b15d","system_id":"levelo_inurba_marseille","lat":43.301417,"lon":5.3809,"is_reserved":false,"is_disabled":false,"rental_uris":{"android":"levelo://app?vid=0f7f2b22-bc5e-4742-9438-72548c71b15d","ios":"levelo://app?vid=0f7f2b22-bc5e-4742-9438-72548c71b15d"},"vehicle_type_id":"4","last_reported":1724695876,"current_range_meters":400,"station_id":"ce4bgjp2rcd13ifvqbh0","pricing_plan_id":"cebpf4jnsgd1na2vs0mg"},{"bike_id":"4525792a-52b8-41de-8376-6f65542aece7","system_id":"levelo_inurba_marseille","lat":43.301417,"lon":5.3809,"is_reserved":false,"is_disabled":false,"rental_uris":{"android":"levelo://app?vid=4525792a-52b8-41de-8376-6f65542aece7","ios":"levelo://app?vid=4525792a-52b8-41de-8376-6f65542aece7"},"vehicle_type_id":"4","last_reported":1724695876,"current_range_meters":17200,"station_id":"ce4bgjp2rcd13ifvqbh0","pricing_plan_id":"cebpf4jnsgd1na2vs0mg"},{"bike_id":"6620c18c-e539-494a-b633-92cac3f2bd47","system_id":"levelo_inurba_marseille","lat":43.32292,"lon":5.38249,"is_reserved":false,"is_disabled":false,"rental_uris":{"android":"levelo://app?vid=6620c18c-e539-494a-b633-92cac3f2bd47","ios":"levelo://app?vid=6620c18c-e539-494a-b633-92cac3f2bd47"},"vehicle_type_id":"4","last_reported":1724695876,"current_range_meters":20000,"station_id":"ce4bhr12rcd13ifvqhqg","pricing_plan_id":"cebpf4jnsgd1na2vs0mg"},{"bike_id":"90d37695-c612-4384-92d0-977df80ac5dd","system_id":"levelo_inurba_marseille","lat":43.32289,"lon":5.38254,"is_reserved":false,"is_disabled":false,"rental_uris":{"android":"levelo://app?vid=90d37695-c612-4384-92d0-977df80ac5dd","ios":"levelo://app?vid=90d37695-c612-4384-92d0-977df80ac5dd"},"vehicle_type_id":"4","last_reported":1724695876,"current_range_meters":13200,"station_id":"ce4bhr12rcd13ifvqhqg","pricing_plan_id":"cebpf4jnsgd1na2vs0mg"},{"bike_id":"31242d14-e0ec-473a-af8f-10155cf18cf0","system_id":"levelo_inurba_marseille","lat":43.301417,"lon":5.3809,"is_reserved":false,"is_disabled":false,"rental_uris":{"android":"levelo://app?vid=31242d14-e0ec-473a-af8f-10155cf18cf0","ios":"levelo://app?vid=31242d14-e0ec-473a-af8f-10155cf18cf0"},"vehicle_type_id":"4","last_reported":1724695876,"current_range_meters":19200,"station_id":"ce4bgjp2rcd13ifvqbh0","pricing_plan_id":"cebpf4jnsgd1na2vs0mg"},{"bike_id":"1f46cdb1-c5b0-4041-b087-3ba88a6910ab","system_id":"levelo_inurba_marseille","lat":43.322872,"lon":5.382756,"is_reserved":false,"is_disabled":false,"rental_uris":{"android":"levelo://app?vid=1f46cdb1-c5b0-4041-b087-3ba88a6910ab","ios":"levelo://app?vid=1f46cdb1-c5b0-4041-b087-3ba88a6910ab"},"vehicle_type_id":"4","last_reported":1724695876,"current_range_meters":10000,"station_id":"ce4bhr12rcd13ifvqhqg","pricing_plan_id":"cebpf4jnsgd1na2vs0mg"},{"bike_id":"a6ff20e9-809a-415f-bff6-19463b328390","system_id":"levelo_inurba_marseille","lat":43.297774,"lon":5.370875,"is_reserved":false,"is_disabled":false,"rental_uris":{"android":"levelo://app?vid=a6ff20e9-809a-415f-bff6-19463b328390","ios":"levelo://app?vid=a6ff20e9-809a-415f-bff6-19463b328390"},"vehicle_type_id":"4","last_reported":1724695876,"current_range_meters":10800,"station_id":"ce4bgop2rcd13ifvqc1g","pricing_plan_id":"cebpf4jnsgd1na2vs0mg"},{"bike_id":"f977bea0-a1f7-4860-9558-47c59044446b","system_id":"levelo_inurba_marseille","lat":43.2968,"lon":5.37291,"is_reserved":false,"is_disabled":false,"rental_uris":{"android":"levelo://app?vid=f977bea0-a1f7-4860-9558-47c59044446b","ios":"levelo://app?vid=f977bea0-a1f7-4860-9558-47c59044446b"},"vehicle_type_id":"4","last_reported":1724695876,"current_range_meters":26800,"station_id":"ce4bgk12rcd13ifvqbj0","pricing_plan_id":"cebpf4jnsgd1na2vs0mg"},{"bike_id":"58efcb58-737a-4f96-b1d9-95badfce991e","system_id":"levelo_inurba_marseille","lat":43.2968,"lon":5.37291,"is_reserved":false,"is_disabled":false,"rental_uris":{"android":"levelo://app?vid=58efcb58-737a-4f96-b1d9-95badfce991e","ios":"levelo://app?vid=58efcb58-737a-4f96-b1d9-95badfce991e"},"vehicle_type_id":"4","last_reported":1724695876,"current_range_meters":0,"station_id":"ce4bgk12rcd13ifvqbj0","pricing_plan_id":"cebpf4jnsgd1na2vs0mg"},{"bike_id":"4063ed99-0ace-4ee9-b2a5-2d72930028b3","system_id":"levelo_inurba_marseille","lat":43.296935,"lon":5.376544,"is_reserved":false,"is_disabled":false,"rental_uris":{"android":"levelo://app?vid=4063ed99-0ace-4ee9-b2a5-2d72930028b3","ios":"levelo://app?vid=4063ed99-0ace-4ee9-b2a5-2d72930028b3"},"vehicle_type_id":"4","last_reported":1724695876,"current_range_meters":0,"station_id":"ce4bgkh2rcd13ifvqbl0","pricing_plan_id":"cebpf4jnsgd1na2vs0mg"},{"bike_id":"d849ae8f-dd3d-4ade-8fca-bcf5b8d56d4d","system_id":"levelo_inurba_marseille","lat":43.31758,"lon":5.39008,"is_reserved":false,"is_disabled":false,"rental_uris":{"android":"levelo://app?vid=d849ae8f-dd3d-4ade-8fca-bcf5b8d56d4d","ios":"levelo://app?vid=d849ae8f-dd3d-4ade-8fca-bcf5b8d56d4d"},"vehicle_type_id":"4","last_reported":1724695876,"current_range_meters":4400,"station_id":"ce4bhqp2rcd13ifvqhng","pricing_plan_id":"cebpf4jnsgd1na2vs0mg"},{"bike_id":"ee619dfd-a035-4fc7-90e5-839e85b60482","system_id":"levelo_inurba_marseille","lat":43.317557,"lon":5.390173,"is_reserved":false,"is_disabled":false,"rental_uris":{"android":"levelo://app?vid=ee619dfd-a035-4fc7-90e5-839e85b60482","ios":"levelo://app?vid=ee619dfd-a035-4fc7-90e5-839e85b60482"},"vehicle_type_id":"4","last_reported":1724695876,"current_range_meters":27600,"station_id":"ce4bhqp2rcd13ifvqhng","pricing_plan_id":"cebpf4jnsgd1na2vs0mg"},{"bike_id":"6d0e4692-7878-4871-b851-a3df2353279f","system_id":"levelo_inurba_marseille","lat":43.31763,"lon":5.39014,"is_reserved":false,"is_disabled":false,"rental_uris":{"android":"levelo://app?vid=6d0e4692-7878-4871-b851-a3df2353279f","ios":"levelo://app?vid=6d0e4692-7878-4871-b851-a3df2353279f"},"vehicle_type_id":"4","last_reported":1724695876,"current_range_meters":0,"station_id":"ce4bhqp2rcd13ifvqhng","pricing_plan_id":"cebpf4jnsgd1na2vs0mg"},{"bike_id":"f3ae1b46-4237-470a-8bb6-c7a4f16f6d3d","system_id":"levelo_inurba_marseille","lat":43.295279,"lon":5.375048,"is_reserved":false,"is_disabled":false,"rental_uris":{"android":"levelo://app?vid=f3ae1b46-4237-470a-8bb6-c7a4f16f6d3d","ios":"levelo://app?vid=f3ae1b46-4237-470a-8bb6-c7a4f16f6d3d"},"vehicle_type_id":"4","last_reported":1724695876,"current_range_meters":10400,"station_id":"ce4bgkp2rcd13ifvqbmg","pricing_plan_id":"cebpf4jnsgd1na2vs0mg"},{"bike_id":"169f4f3c-7117-4057-be5a-cb3dfe8dfa08","system_id":"levelo_inurba_marseille","lat":43.30427,"lon":5.38888,"is_reserved":false,"is_disabled":false,"rental_uris":{"android":"levelo://app?vid=169f4f3c-7117-4057-be5a-cb3dfe8dfa08","ios":"levelo://app?vid=169f4f3c-7117-4057-be5a-cb3dfe8dfa08"},"vehicle_type_id":"4","last_reported":1724695876,"current_range_meters":0,"station_id":"ce4bgk12rcd13ifvqbi0","pricing_plan_id":"cebpf4jnsgd1na2vs0mg"},{"bike_id":"10dc6ad1-f180-402a-9351-a782bbf496d5","system_id":"levelo_inurba_marseille","lat":43.304274,"lon":5.388873,"is_reserved":false,"is_disabled":false,"rental_uris":{"android":"levelo://app?vid=10dc6ad1-f180-402a-9351-a782bbf496d5","ios":"levelo://app?vid=10dc6ad1-f180-402a-9351-a782bbf496d5"},"vehicle_type_id":"4","last_reported":1724695876,"current_range_meters":0,"station_id":"ce4bgk12rcd13ifvqbi0","pricing_plan_id":"cebpf4jnsgd1na2vs0mg"},{"bike_id":"092f9de0-93e3-4792-bea2-fc0f34a9aaee","system_id":"levelo_inurba_marseille","lat":43.304274,"lon":5.388873,"is_reserved":false,"is_disabled":false,"rental_uris":{"android":"levelo://app?vid=092f9de0-93e3-4792-bea2-fc0f34a9aaee","ios":"levelo://app?vid=092f9de0-93e3-4792-bea2-fc0f34a9aaee"},"vehicle_type_id":"4","last_reported":1724695876,"current_range_meters":0,"station_id":"ce4bgk12rcd13ifvqbi0","pricing_plan_id":"cebpf4jnsgd1na2vs0mg"},{"bike_id":"cc2f7875-a1c6-4f36-ada5-8f7eb2795206","system_id":"levelo_inurba_marseille","lat":43.295279,"lon":5.375048,"is_reserved":false,"is_disabled":false,"rental_uris":{"android":"levelo://app?vid=cc2f7875-a1c6-4f36-ada5-8f7eb2795206","ios":"levelo://app?vid=cc2f7875-a1c6-4f36-ada5-8f7eb2795206"},"vehicle_type_id":"4","last_reported":1724695876,"current_range_meters":5200,"station_id":"ce4bgkp2rcd13ifvqbmg","pricing_plan_id":"cebpf4jnsgd1na2vs0mg"},{"bike_id":"6310adb0-7727-4faf-bdad-c9de70fb4d30","system_id":"levelo_inurba_marseille","lat":43.295279,"lon":5.375048,"is_reserved":false,"is_disabled":false,"rental_uris":{"android":"levelo://app?vid=6310adb0-7727-4faf-bdad-c9de70fb4d30","ios":"levelo://app?vid=6310adb0-7727-4faf-bdad-c9de70fb4d30"},"vehicle_type_id":"4","last_reported":1724695876,"current_range_meters":14800,"station_id":"ce4bgkp2rcd13ifvqbmg","pricing_plan_id":"cebpf4jnsgd1na2vs0mg"},{"bike_id":"b17be166-a936-4d80-8c9c-a387babc18c7","system_id":"levelo_inurba_marseille","lat":43.29969,"lon":5.38505,"is_reserved":false,"is_disabled":false,"rental_uris":{"android":"levelo://app?vid=b17be166-a936-4d80-8c9c-a387babc18c7","ios":"levelo://app?vid=b17be166-a936-4d80-8c9c-a387babc18c7"},"vehicle_type_id":"4","last_reported":1724695876,"current_range_meters":29200,"station_id":"","pricing_plan_id":"cebpf4jnsgd1na2vs0mg"},{"bike_id":"4912e384-93bd-4fcf-9cc0-d67e6fbfb955","system_id":"levelo_inurba_marseille","lat":43.29965,"lon":5.385,"is_reserved":false,"is_disabled":false,"rental_uris":{"android":"levelo://app?vid=4912e384-93bd-4fcf-9cc0-d67e6fbfb955","ios":"levelo://app?vid=4912e384-93bd-4fcf-9cc0-d67e6fbfb955"},"vehicle_type_id":"4","last_reported":1724695876,"current_range_meters":0,"station_id":"ce4bgj92rcd13ifvqbd0","pricing_plan_id":"cebpf4jnsgd1na2vs0mg"},{"bike_id":"a0b29fdb-80b4-412b-bb89-c6e7e5fe3070","system_id":"levelo_inurba_marseille","lat":43.29963,"lon":5.38508,"is_reserved":false,"is_disabled":false,"rental_uris":{"android":"levelo://app?vid=a0b29fdb-80b4-412b-bb89-c6e7e5fe3070","ios":"levelo://app?vid=a0b29fdb-80b4-412b-bb89-c6e7e5fe3070"},"vehicle_type_id":"4","last_reported":1724695876,"current_range_meters":0,"station_id":"","pricing_plan_id":"cebpf4jnsgd1na2vs0mg"},{"bike_id":"232e2cf4-dcee-4d4b-aef0-fc12e79cfd6b","system_id":"levelo_inurba_marseille","lat":43.299724,"lon":5.384848,"is_reserved":false,"is_disabled":false,"rental_uris":{"android":"levelo://app?vid=232e2cf4-dcee-4d4b-aef0-fc12e79cfd6b","ios":"levelo://app?vid=232e2cf4-dcee-4d4b-aef0-fc12e79cfd6b"},"vehicle_type_id":"4","last_reported":1724695876,"current_range_meters":6000,"station_id":"ce4bgj92rcd13ifvqbd0","pricing_plan_id":"cebpf4jnsgd1na2vs0mg"},{"bike_id":"c5e3df76-1a18-467c-9918-d4b979ce6898","system_id":"levelo_inurba_marseille","lat":43.301396,"lon":5.387812,"is_reserved":false,"is_disabled":false,"rental_uris":{"android":"levelo://app?vid=c5e3df76-1a18-467c-9918-d4b979ce6898","ios":"levelo://app?vid=c5e3df76-1a18-467c-9918-d4b979ce6898"},"vehicle_type_id":"4","last_reported":1724695876,"current_range_meters":3600,"station_id":"ce4bghh2rcd13ifvqb60","pricing_plan_id":"cebpf4jnsgd1na2vs0mg"},{"bike_id":"57dcd7a5-71dc-4b84-86bd-8c61437fe2bc","system_id":"levelo_inurba_marseille","lat":43.32365,"lon":5.38881,"is_reserved":false,"is_disabled":false,"rental_uris":{"android":"levelo://app?vid=57dcd7a5-71dc-4b84-86bd-8c61437fe2bc","ios":"levelo://app?vid=57dcd7a5-71dc-4b84-86bd-8c61437fe2bc"},"vehicle_type_id":"4","last_reported":1724695876,"current_range_meters":14000,"station_id":"ce4bhqp2rcd13ifvqhog","pricing_plan_id":"cebpf4jnsgd1na2vs0mg"},{"bike_id":"6b7c35c0-eea5-4ff8-95b3-8bc2e336ff4d","system_id":"levelo_inurba_marseille","lat":43.323657,"lon":5.38881,"is_reserved":false,"is_disabled":false,"rental_uris":{"android":"levelo://app?vid=6b7c35c0-eea5-4ff8-95b3-8bc2e336ff4d","ios":"levelo://app?vid=6b7c35c0-eea5-4ff8-95b3-8bc2e336ff4d"},"vehicle_type_id":"4","last_reported":1724695876,"current_range_meters":18800,"station_id":"ce4bhqp2rcd13ifvqhog","pricing_plan_id":"cebpf4jnsgd1na2vs0mg"},{"bike_id":"cd7dd8a2-6455-4233-bdc5-d86443ef00d2","system_id":"levelo_inurba_marseille","lat":43.32368,"lon":5.38879,"is_reserved":false,"is_disabled":false,"rental_uris":{"android":"levelo://app?vid=cd7dd8a2-6455-4233-bdc5-d86443ef00d2","ios":"levelo://app?vid=cd7dd8a2-6455-4233-bdc5-d86443ef00d2"},"vehicle_type_id":"4","last_reported":1724695876,"current_range_meters":0,"station_id":"ce4bhqp2rcd13ifvqhog","pricing_plan_id":"cebpf4jnsgd1na2vs0mg"},{"bike_id":"19836227-e4c5-4e81-a79e-c79ae77773fc","system_id":"levelo_inurba_marseille","lat":43.323637,"lon":5.388867,"is_reserved":false,"is_disabled":false,"rental_uris":{"android":"levelo://app?vid=19836227-e4c5-4e81-a79e-c79ae77773fc","ios":"levelo://app?vid=19836227-e4c5-4e81-a79e-c79ae77773fc"},"vehicle_type_id":"4","last_reported":1724695876,"current_range_meters":11600,"station_id":"ce4bhqp2rcd13ifvqhog","pricing_plan_id":"cebpf4jnsgd1na2vs0mg"},{"bike_id":"f34e9ff8-5944-40ad-ade0-f55b513d3797","system_id":"levelo_inurba_marseille","lat":43.32366,"lon":5.38886,"is_reserved":false,"is_disabled":false,"rental_uris":{"android":"levelo://app?vid=f34e9ff8-5944-40ad-ade0-f55b513d3797","ios":"levelo://app?vid=f34e9ff8-5944-40ad-ade0-f55b513d3797"},"vehicle_type_id":"4","last_reported":1724695876,"current_range_meters":800,"station_id":"ce4bhqp2rcd13ifvqhog","pricing_plan_id":"cebpf4jnsgd1na2vs0mg"},{"bike_id":"b60f3181-43da-48ce-b737-0460b525c1d1","system_id":"levelo_inurba_marseille","lat":43.32367,"lon":5.388836,"is_reserved":false,"is_disabled":false,"rental_uris":{"android":"levelo://app?vid=b60f3181-43da-48ce-b737-0460b525c1d1","ios":"levelo://app?vid=b60f3181-43da-48ce-b737-0460b525c1d1"},"vehicle_type_id":"4","last_reported":1724695876,"current_range_meters":28800,"station_id":"ce4bhqp2rcd13ifvqhog","pricing_plan_id":"cebpf4jnsgd1na2vs0mg"},{"bike_id":"d545ce2c-9eb9-4b44-89d5-46ed36e81c85","system_id":"levelo_inurba_marseille","lat":43.32367,"lon":5.388836,"is_reserved":false,"is_disabled":false,"rental_uris":{"android":"levelo://app?vid=d545ce2c-9eb9-4b44-89d5-46ed36e81c85","ios":"levelo://app?vid=d545ce2c-9eb9-4b44-89d5-46ed36e81c85"},"vehicle_type_id":"4","last_reported":1724695876,"current_range_meters":2000,"station_id":"ce4bhqp2rcd13ifvqhog","pricing_plan_id":"cebpf4jnsgd1na2vs0mg"},{"bike_id":"0ebef8b6-7384-42a3-a644-836f41e116fd","system_id":"levelo_inurba_marseille","lat":43.30151,"lon":5.3889,"is_reserved":false,"is_disabled":false,"rental_uris":{"android":"levelo://app?vid=0ebef8b6-7384-42a3-a644-836f41e116fd","ios":"levelo://app?vid=0ebef8b6-7384-42a3-a644-836f41e116fd"},"vehicle_type_id":"4","last_reported":1724695876,"current_range_meters":0,"station_id":"","pricing_plan_id":"cebpf4jnsgd1na2vs0mg"},{"bike_id":"c3e91b35-a617-4110-9cd1-7d3b1c4dcf3e","system_id":"levelo_inurba_marseille","lat":43.29602,"lon":5.381084,"is_reserved":false,"is_disabled":false,"rental_uris":{"android":"levelo://app?vid=c3e91b35-a617-4110-9cd1-7d3b1c4dcf3e","ios":"levelo://app?vid=c3e91b35-a617-4110-9cd1-7d3b1c4dcf3e"},"vehicle_type_id":"4","last_reported":1724695876,"current_range_meters":23600,"station_id":"ce4bgl12rcd13ifvqbo0","pricing_plan_id":"cebpf4jnsgd1na2vs0mg"},{"bike_id":"771605a4-f3a8-4e03-b378-224d6f08eb34","system_id":"levelo_inurba_marseille","lat":43.29602,"lon":5.381084,"is_reserved":false,"is_disabled":false,"rental_uris":{"android":"levelo://app?vid=771605a4-f3a8-4e03-b378-224d6f08eb34","ios":"levelo://app?vid=771605a4-f3a8-4e03-b378-224d6f08eb34"},"vehicle_type_id":"4","last_reported":1724695876,"current_range_meters":26000,"station_id":"ce4bgl12rcd13ifvqbo0","pricing_plan_id":"cebpf4jnsgd1na2vs0mg"},{"bike_id":"acd9fbe4-505b-4022-91b0-746e77608bcf","system_id":"levelo_inurba_marseille","lat":43.293259,"lon":5.371586,"is_reserved":false,"is_disabled":false,"rental_uris":{"android":"levelo://app?vid=acd9fbe4-505b-4022-91b0-746e77608bcf","ios":"levelo://app?vid=acd9fbe4-505b-4022-91b0-746e77608bcf"},"vehicle_type_id":"4","last_reported":1724695876,"current_range_meters":0,"station_id":"ce4bgh92rcd13ifvqb40","pricing_plan_id":"cebpf4jnsgd1na2vs0mg"},{"bike_id":"f8fc270a-aff9-4611-8d98-1c0ffc5663b3","system_id":"levelo_inurba_marseille","lat":43.292749,"lon":5.368402,"is_reserved":false,"is_disabled":false,"rental_uris":{"android":"levelo://app?vid=f8fc270a-aff9-4611-8d98-1c0ffc5663b3","ios":"levelo://app?vid=f8fc270a-aff9-4611-8d98-1c0ffc5663b3"},"vehicle_type_id":"4","last_reported":1724695876,"current_range_meters":11200,"station_id":"ce4bhbp2rcd13ifvqesg","pricing_plan_id":"cebpf4jnsgd1na2vs0mg"},{"bike_id":"32dc726f-ba17-4f1b-a309-6edd7a31fc4a","system_id":"levelo_inurba_marseille","lat":43.292749,"lon":5.368402,"is_reserved":false,"is_disabled":false,"rental_uris":{"android":"levelo://app?vid=32dc726f-ba17-4f1b-a309-6edd7a31fc4a","ios":"levelo://app?vid=32dc726f-ba17-4f1b-a309-6edd7a31fc4a"},"vehicle_type_id":"4","last_reported":1724695876,"current_range_meters":3600,"station_id":"ce4bhbp2rcd13ifvqesg","pricing_plan_id":"cebpf4jnsgd1na2vs0mg"},{"bike_id":"493f4d0d-b0e7-43b4-819f-257fd234c8b6","system_id":"levelo_inurba_marseille","lat":43.292749,"lon":5.368398,"is_reserved":false,"is_disabled":false,"rental_uris":{"android":"levelo://app?vid=493f4d0d-b0e7-43b4-819f-257fd234c8b6","ios":"levelo://app?vid=493f4d0d-b0e7-43b4-819f-257fd234c8b6"},"vehicle_type_id":"4","last_reported":1724695876,"current_range_meters":0,"station_id":"ce4bhbp2rcd13ifvqesg","pricing_plan_id":"cebpf4jnsgd1na2vs0mg"},{"bike_id":"d4ffa010-1480-46a9-8ebe-30ee1b821c18","system_id":"levelo_inurba_marseille","lat":43.29272,"lon":5.36845,"is_reserved":false,"is_disabled":false,"rental_uris":{"android":"levelo://app?vid=d4ffa010-1480-46a9-8ebe-30ee1b821c18","ios":"levelo://app?vid=d4ffa010-1480-46a9-8ebe-30ee1b821c18"},"vehicle_type_id":"4","last_reported":1724695876,"current_range_meters":0,"station_id":"ce4bhbp2rcd13ifvqesg","pricing_plan_id":"cebpf4jnsgd1na2vs0mg"},{"bike_id":"d67a4492-04bc-4553-836a-fad44eb38713","system_id":"levelo_inurba_marseille","lat":43.292749,"lon":5.368398,"is_reserved":false,"is_disabled":false,"rental_uris":{"android":"levelo://app?vid=d67a4492-04bc-4553-836a-fad44eb38713","ios":"levelo://app?vid=d67a4492-04bc-4553-836a-fad44eb38713"},"vehicle_type_id":"4","last_reported":1724695876,"current_range_meters":0,"station_id":"ce4bhbp2rcd13ifvqesg","pricing_plan_id":"cebpf4jnsgd1na2vs0mg"},{"bike_id":"7c0a8c66-eff4-4ee1-934e-798a148ca209","system_id":"levelo_inurba_marseille","lat":43.305994,"lon":5.393687,"is_reserved":false,"is_disabled":false,"rental_uris":{"android":"levelo://app?vid=7c0a8c66-eff4-4ee1-934e-798a148ca209","ios":"levelo://app?vid=7c0a8c66-eff4-4ee1-934e-798a148ca209"},"vehicle_type_id":"4","last_reported":1724695876,"current_range_meters":0,"station_id":"ce4bh0p2rcd13ifvqd80","pricing_plan_id":"cebpf4jnsgd1na2vs0mg"},{"bike_id":"22d7b75a-0d61-4b98-9821-0211d57757c8","system_id":"levelo_inurba_marseille","lat":43.293009,"lon":5.374584,"is_reserved":false,"is_disabled":false,"rental_uris":{"android":"levelo://app?vid=22d7b75a-0d61-4b98-9821-0211d57757c8","ios":"levelo://app?vid=22d7b75a-0d61-4b98-9821-0211d57757c8"},"vehicle_type_id":"4","last_reported":1724695876,"current_range_meters":1200,"station_id":"ce4bgi12rcd13ifvqb70","pricing_plan_id":"cebpf4jnsgd1na2vs0mg"},{"bike_id":"79d38373-81c6-4f20-aa03-17c5549151d6","system_id":"levelo_inurba_marseille","lat":43.305994,"lon":5.393687,"is_reserved":false,"is_disabled":false,"rental_uris":{"android":"levelo://app?vid=79d38373-81c6-4f20-aa03-17c5549151d6","ios":"levelo://app?vid=79d38373-81c6-4f20-aa03-17c5549151d6"},"vehicle_type_id":"4","last_reported":1724695876,"current_range_meters":15200,"station_id":"ce4bh0p2rcd13ifvqd80","pricing_plan_id":"cebpf4jnsgd1na2vs0mg"},{"bike_id":"36493a75-5693-4a75-a829-3fd982019812","system_id":"levelo_inurba_marseille","lat":43.293009,"lon":5.374584,"is_reserved":false,"is_disabled":false,"rental_uris":{"android":"levelo://app?vid=36493a75-5693-4a75-a829-3fd982019812","ios":"levelo://app?vid=36493a75-5693-4a75-a829-3fd982019812"},"vehicle_type_id":"4","last_reported":1724695876,"current_range_meters":14400,"station_id":"ce4bgi12rcd13ifvqb70","pricing_plan_id":"cebpf4jnsgd1na2vs0mg"},{"bike_id":"50bcf22e-dbf8-42b5-a324-1cc39835fca6","system_id":"levelo_inurba_marseille","lat":43.2936,"lon":5.37835,"is_reserved":false,"is_disabled":false,"rental_uris":{"android":"levelo://app?vid=50bcf22e-dbf8-42b5-a324-1cc39835fca6","ios":"levelo://app?vid=50bcf22e-dbf8-42b5-a324-1cc39835fca6"},"vehicle_type_id":"4","last_reported":1724695876,"current_range_meters":10000,"station_id":"ce4bgjh2rcd13ifvqbf0","pricing_plan_id":"cebpf4jnsgd1na2vs0mg"},{"bike_id":"72a27b0a-7571-47e5-95cc-38189a2c1061","system_id":"levelo_inurba_marseille","lat":43.29232,"lon":5.3605,"is_reserved":false,"is_disabled":false,"rental_uris":{"android":"levelo://app?vid=72a27b0a-7571-47e5-95cc-38189a2c1061","ios":"levelo://app?vid=72a27b0a-7571-47e5-95cc-38189a2c1061"},"vehicle_type_id":"4","last_reported":1724695876,"current_range_meters":31200,"station_id":"ce4bhbh2rcd13ifvqeqg","pricing_plan_id":"cebpf4jnsgd1na2vs0mg"},{"bike_id":"8deb2de9-65d7-460c-b57c-cb6bc94e99f3","system_id":"levelo_inurba_marseille","lat":43.29906,"lon":5.38874,"is_reserved":false,"is_disabled":false,"rental_uris":{"android":"levelo://app?vid=8deb2de9-65d7-460c-b57c-cb6bc94e99f3","ios":"levelo://app?vid=8deb2de9-65d7-460c-b57c-cb6bc94e99f3"},"vehicle_type_id":"4","last_reported":1724695876,"current_range_meters":14400,"station_id":"ce4bh392rcd13ifvqdl0","pricing_plan_id":"cebpf4jnsgd1na2vs0mg"},{"bike_id":"1e3faa76-b216-4f8a-8551-cf848b3566bb","system_id":"levelo_inurba_marseille","lat":43.29228,"lon":5.36053,"is_reserved":false,"is_disabled":false,"rental_uris":{"android":"levelo://app?vid=1e3faa76-b216-4f8a-8551-cf848b3566bb","ios":"levelo://app?vid=1e3faa76-b216-4f8a-8551-cf848b3566bb"},"vehicle_type_id":"4","last_reported":1724695876,"current_range_meters":16000,"station_id":"ce4bhbh2rcd13ifvqeqg","pricing_plan_id":"cebpf4jnsgd1na2vs0mg"},{"bike_id":"760ad5c1-a875-4dd8-ba03-8d9ba4778634","system_id":"levelo_inurba_marseille","lat":43.29224,"lon":5.36053,"is_reserved":false,"is_disabled":false,"rental_uris":{"android":"levelo://app?vid=760ad5c1-a875-4dd8-ba03-8d9ba4778634","ios":"levelo://app?vid=760ad5c1-a875-4dd8-ba03-8d9ba4778634"},"vehicle_type_id":"4","last_reported":1724695876,"current_range_meters":4000,"station_id":"ce4bhbh2rcd13ifvqeqg","pricing_plan_id":"cebpf4jnsgd1na2vs0mg"},{"bike_id":"0feacfa6-7a66-4661-9ea8-943f190a7d24","system_id":"levelo_inurba_marseille","lat":43.29224,"lon":5.36045,"is_reserved":false,"is_disabled":false,"rental_uris":{"android":"levelo://app?vid=0feacfa6-7a66-4661-9ea8-943f190a7d24","ios":"levelo://app?vid=0feacfa6-7a66-4661-9ea8-943f190a7d24"},"vehicle_type_id":"4","last_reported":1724695876,"current_range_meters":7600,"station_id":"ce4bhbh2rcd13ifvqeqg","pricing_plan_id":"cebpf4jnsgd1na2vs0mg"},{"bike_id":"7a4b5f5c-1777-476e-9d68-2ab12c23462f","system_id":"levelo_inurba_marseille","lat":43.29219,"lon":5.36073,"is_reserved":false,"is_disabled":false,"rental_uris":{"android":"levelo://app?vid=7a4b5f5c-1777-476e-9d68-2ab12c23462f","ios":"levelo://app?vid=7a4b5f5c-1777-476e-9d68-2ab12c23462f"},"vehicle_type_id":"4","last_reported":1724695876,"current_range_meters":14800,"station_id":"ce4bhbh2rcd13ifvqeqg","pricing_plan_id":"cebpf4jnsgd1na2vs0mg"},{"bike_id":"3fb97110-72a5-41d5-91a2-9836a31b57b6","system_id":"levelo_inurba_marseille","lat":43.292221,"lon":5.360473,"is_reserved":false,"is_disabled":false,"rental_uris":{"android":"levelo://app?vid=3fb97110-72a5-41d5-91a2-9836a31b57b6","ios":"levelo://app?vid=3fb97110-72a5-41d5-91a2-9836a31b57b6"},"vehicle_type_id":"4","last_reported":1724695876,"current_range_meters":31200,"station_id":"ce4bhbh2rcd13ifvqeqg","pricing_plan_id":"cebpf4jnsgd1na2vs0mg"},{"bike_id":"f7ed73cf-fc38-45bf-b19d-66c02d276f59","system_id":"levelo_inurba_marseille","lat":43.29221,"lon":5.36045,"is_reserved":false,"is_disabled":false,"rental_uris":{"android":"levelo://app?vid=f7ed73cf-fc38-45bf-b19d-66c02d276f59","ios":"levelo://app?vid=f7ed73cf-fc38-45bf-b19d-66c02d276f59"},"vehicle_type_id":"4","last_reported":1724695876,"current_range_meters":0,"station_id":"ce4bhbh2rcd13ifvqeqg","pricing_plan_id":"cebpf4jnsgd1na2vs0mg"},{"bike_id":"ab8582bc-a651-4348-a940-0a8d5ec27f3c","system_id":"levelo_inurba_marseille","lat":43.292212,"lon":5.360434,"is_reserved":false,"is_disabled":false,"rental_uris":{"android":"levelo://app?vid=ab8582bc-a651-4348-a940-0a8d5ec27f3c","ios":"levelo://app?vid=ab8582bc-a651-4348-a940-0a8d5ec27f3c"},"vehicle_type_id":"4","last_reported":1724695876,"current_range_meters":30400,"station_id":"ce4bhbh2rcd13ifvqeqg","pricing_plan_id":"cebpf4jnsgd1na2vs0mg"},{"bike_id":"e872ac3d-b154-4a9f-8403-78d8dc819ac3","system_id":"levelo_inurba_marseille","lat":43.29219,"lon":5.36056,"is_reserved":false,"is_disabled":false,"rental_uris":{"android":"levelo://app?vid=e872ac3d-b154-4a9f-8403-78d8dc819ac3","ios":"levelo://app?vid=e872ac3d-b154-4a9f-8403-78d8dc819ac3"},"vehicle_type_id":"4","last_reported":1724695876,"current_range_meters":16400,"station_id":"ce4bhbh2rcd13ifvqeqg","pricing_plan_id":"cebpf4jnsgd1na2vs0mg"},{"bike_id":"f84eed02-69d4-4670-a35c-3c0220e3ed7f","system_id":"levelo_inurba_marseille","lat":43.292188,"lon":5.360435,"is_reserved":false,"is_disabled":false,"rental_uris":{"android":"levelo://app?vid=f84eed02-69d4-4670-a35c-3c0220e3ed7f","ios":"levelo://app?vid=f84eed02-69d4-4670-a35c-3c0220e3ed7f"},"vehicle_type_id":"4","last_reported":1724695876,"current_range_meters":31200,"station_id":"ce4bhbh2rcd13ifvqeqg","pricing_plan_id":"cebpf4jnsgd1na2vs0mg"},{"bike_id":"c0a15128-5f6a-4d73-9780-459e6d875660","system_id":"levelo_inurba_marseille","lat":43.298764,"lon":5.388973,"is_reserved":false,"is_disabled":false,"rental_uris":{"android":"levelo://app?vid=c0a15128-5f6a-4d73-9780-459e6d875660","ios":"levelo://app?vid=c0a15128-5f6a-4d73-9780-459e6d875660"},"vehicle_type_id":"4","last_reported":1724695876,"current_range_meters":22800,"station_id":"ce4bh392rcd13ifvqdl0","pricing_plan_id":"cebpf4jnsgd1na2vs0mg"},{"bike_id":"73afa0b6-3e7f-41ff-a910-6739cd5349c7","system_id":"levelo_inurba_marseille","lat":43.29877,"lon":5.38897,"is_reserved":false,"is_disabled":false,"rental_uris":{"android":"levelo://app?vid=73afa0b6-3e7f-41ff-a910-6739cd5349c7","ios":"levelo://app?vid=73afa0b6-3e7f-41ff-a910-6739cd5349c7"},"vehicle_type_id":"4","last_reported":1724695876,"current_range_meters":26400,"station_id":"ce4bh392rcd13ifvqdl0","pricing_plan_id":"cebpf4jnsgd1na2vs0mg"},{"bike_id":"fc81d494-b43e-4f41-a7b4-f81ae4b707e8","system_id":"levelo_inurba_marseille","lat":43.298764,"lon":5.388973,"is_reserved":false,"is_disabled":false,"rental_uris":{"android":"levelo://app?vid=fc81d494-b43e-4f41-a7b4-f81ae4b707e8","ios":"levelo://app?vid=fc81d494-b43e-4f41-a7b4-f81ae4b707e8"},"vehicle_type_id":"4","last_reported":1724695876,"current_range_meters":6400,"station_id":"ce4bh392rcd13ifvqdl0","pricing_plan_id":"cebpf4jnsgd1na2vs0mg"},{"bike_id":"7c3840b6-e598-406f-8559-c7d09d245d17","system_id":"levelo_inurba_marseille","lat":43.291674,"lon":5.371396,"is_reserved":false,"is_disabled":false,"rental_uris":{"android":"levelo://app?vid=7c3840b6-e598-406f-8559-c7d09d245d17","ios":"levelo://app?vid=7c3840b6-e598-406f-8559-c7d09d245d17"},"vehicle_type_id":"4","last_reported":1724695876,"current_range_meters":0,"station_id":"ce4bha92rcd13ifvqeh0","pricing_plan_id":"cebpf4jnsgd1na2vs0mg"},{"bike_id":"5aedf39d-f19b-4f27-8fea-d2f0e1397161","system_id":"levelo_inurba_marseille","lat":43.298764,"lon":5.388973,"is_reserved":false,"is_disabled":false,"rental_uris":{"android":"levelo://app?vid=5aedf39d-f19b-4f27-8fea-d2f0e1397161","ios":"levelo://app?vid=5aedf39d-f19b-4f27-8fea-d2f0e1397161"},"vehicle_type_id":"4","last_reported":1724695876,"current_range_meters":15200,"station_id":"ce4bh392rcd13ifvqdl0","pricing_plan_id":"cebpf4jnsgd1na2vs0mg"},{"bike_id":"95f7f207-50ca-4fd5-9658-2436f983a386","system_id":"levelo_inurba_marseille","lat":43.313291,"lon":5.396838,"is_reserved":false,"is_disabled":false,"rental_uris":{"android":"levelo://app?vid=95f7f207-50ca-4fd5-9658-2436f983a386","ios":"levelo://app?vid=95f7f207-50ca-4fd5-9658-2436f983a386"},"vehicle_type_id":"4","last_reported":1724695876,"current_range_meters":18000,"station_id":"ce4bgvp2rcd13ifvqcu0","pricing_plan_id":"cebpf4jnsgd1na2vs0mg"},{"bike_id":"992cd85f-5346-469c-b2b1-470bf3d08bae","system_id":"levelo_inurba_marseille","lat":43.313291,"lon":5.396838,"is_reserved":false,"is_disabled":false,"rental_uris":{"android":"levelo://app?vid=992cd85f-5346-469c-b2b1-470bf3d08bae","ios":"levelo://app?vid=992cd85f-5346-469c-b2b1-470bf3d08bae"},"vehicle_type_id":"4","last_reported":1724695876,"current_range_meters":14800,"station_id":"ce4bgvp2rcd13ifvqcu0","pricing_plan_id":"cebpf4jnsgd1na2vs0mg"},{"bike_id":"997a9b9f-253f-46d2-8013-56bbd11d3d22","system_id":"levelo_inurba_marseille","lat":43.2919,"lon":5.3579,"is_reserved":false,"is_disabled":false,"rental_uris":{"android":"levelo://app?vid=997a9b9f-253f-46d2-8013-56bbd11d3d22","ios":"levelo://app?vid=997a9b9f-253f-46d2-8013-56bbd11d3d22"},"vehicle_type_id":"4","last_reported":1724695876,"current_range_meters":0,"station_id":"ce4bhb12rcd13ifvqel0","pricing_plan_id":"cebpf4jnsgd1na2vs0mg"},{"bike_id":"f50f0348-1997-4f98-af34-8536a1f167e3","system_id":"levelo_inurba_marseille","lat":43.33422,"lon":5.3613,"is_reserved":false,"is_disabled":false,"rental_uris":{"android":"levelo://app?vid=f50f0348-1997-4f98-af34-8536a1f167e3","ios":"levelo://app?vid=f50f0348-1997-4f98-af34-8536a1f167e3"},"vehicle_type_id":"4","last_reported":1724695876,"current_range_meters":10000,"station_id":"","pricing_plan_id":"cebpf4jnsgd1na2vs0mg"},{"bike_id":"af86fc0b-ba16-4649-a218-61b79bfde7b3","system_id":"levelo_inurba_marseille","lat":43.29186,"lon":5.35792,"is_reserved":false,"is_disabled":false,"rental_uris":{"android":"levelo://app?vid=af86fc0b-ba16-4649-a218-61b79bfde7b3","ios":"levelo://app?vid=af86fc0b-ba16-4649-a218-61b79bfde7b3"},"vehicle_type_id":"4","last_reported":1724695876,"current_range_meters":0,"station_id":"ce4bhb12rcd13ifvqel0","pricing_plan_id":"cebpf4jnsgd1na2vs0mg"},{"bike_id":"899853eb-a10f-4679-af7f-9deddfb29a2b","system_id":"levelo_inurba_marseille","lat":43.309038,"lon":5.396546,"is_reserved":false,"is_disabled":false,"rental_uris":{"android":"levelo://app?vid=899853eb-a10f-4679-af7f-9deddfb29a2b","ios":"levelo://app?vid=899853eb-a10f-4679-af7f-9deddfb29a2b"},"vehicle_type_id":"4","last_reported":1724695876,"current_range_meters":9200,"station_id":"ce4bh012rcd13ifvqcv0","pricing_plan_id":"cebpf4jnsgd1na2vs0mg"},{"bike_id":"e750ecb6-cddc-4386-a267-f7fde807cc7a","system_id":"levelo_inurba_marseille","lat":43.29529,"lon":5.385581,"is_reserved":false,"is_disabled":false,"rental_uris":{"android":"levelo://app?vid=e750ecb6-cddc-4386-a267-f7fde807cc7a","ios":"levelo://app?vid=e750ecb6-cddc-4386-a267-f7fde807cc7a"},"vehicle_type_id":"4","last_reported":1724695876,"current_range_meters":400,"station_id":"ce4bgih2rcd13ifvqba0","pricing_plan_id":"cebpf4jnsgd1na2vs0mg"},{"bike_id":"7637f959-99f3-4bbc-ae05-0352e225912f","system_id":"levelo_inurba_marseille","lat":43.29523,"lon":5.3854,"is_reserved":false,"is_disabled":false,"rental_uris":{"android":"levelo://app?vid=7637f959-99f3-4bbc-ae05-0352e225912f","ios":"levelo://app?vid=7637f959-99f3-4bbc-ae05-0352e225912f"},"vehicle_type_id":"4","last_reported":1724695876,"current_range_meters":0,"station_id":"ce4bgih2rcd13ifvqba0","pricing_plan_id":"cebpf4jnsgd1na2vs0mg"},{"bike_id":"07dab774-3711-46e4-a98a-4cbfd02b836a","system_id":"levelo_inurba_marseille","lat":43.29529,"lon":5.385581,"is_reserved":false,"is_disabled":false,"rental_uris":{"android":"levelo://app?vid=07dab774-3711-46e4-a98a-4cbfd02b836a","ios":"levelo://app?vid=07dab774-3711-46e4-a98a-4cbfd02b836a"},"vehicle_type_id":"4","last_reported":1724695876,"current_range_meters":15200,"station_id":"ce4bgih2rcd13ifvqba0","pricing_plan_id":"cebpf4jnsgd1na2vs0mg"},{"bike_id":"bb3d52e5-57e2-4662-ad8d-faedaa073fd5","system_id":"levelo_inurba_marseille","lat":43.29071,"lon":5.37171,"is_reserved":false,"is_disabled":false,"rental_uris":{"android":"levelo://app?vid=bb3d52e5-57e2-4662-ad8d-faedaa073fd5","ios":"levelo://app?vid=bb3d52e5-57e2-4662-ad8d-faedaa073fd5"},"vehicle_type_id":"4","last_reported":1724695876,"current_range_meters":0,"station_id":"ce4bh5p2rcd13ifvqe4g","pricing_plan_id":"cebpf4jnsgd1na2vs0mg"},{"bike_id":"10711a41-418e-4edb-a10e-801523cdf3df","system_id":"levelo_inurba_marseille","lat":43.290779,"lon":5.371482,"is_reserved":false,"is_disabled":false,"rental_uris":{"android":"levelo://app?vid=10711a41-418e-4edb-a10e-801523cdf3df","ios":"levelo://app?vid=10711a41-418e-4edb-a10e-801523cdf3df"},"vehicle_type_id":"4","last_reported":1724695876,"current_range_meters":21600,"station_id":"ce4bh5p2rcd13ifvqe4g","pricing_plan_id":"cebpf4jnsgd1na2vs0mg"},{"bike_id":"9a83bc11-590e-43d6-af9d-e3d84295d148","system_id":"levelo_inurba_marseille","lat":43.290779,"lon":5.371482,"is_reserved":false,"is_disabled":false,"rental_uris":{"android":"levelo://app?vid=9a83bc11-590e-43d6-af9d-e3d84295d148","ios":"levelo://app?vid=9a83bc11-590e-43d6-af9d-e3d84295d148"},"vehicle_type_id":"4","last_reported":1724695876,"current_range_meters":14000,"station_id":"ce4bh5p2rcd13ifvqe4g","pricing_plan_id":"cebpf4jnsgd1na2vs0mg"},{"bike_id":"cfd4a534-0247-49ed-b903-0398f4de4037","system_id":"levelo_inurba_marseille","lat":43.302008,"lon":5.394694,"is_reserved":false,"is_disabled":false,"rental_uris":{"android":"levelo://app?vid=cfd4a534-0247-49ed-b903-0398f4de4037","ios":"levelo://app?vid=cfd4a534-0247-49ed-b903-0398f4de4037"},"vehicle_type_id":"4","last_reported":1724695876,"current_range_meters":8000,"station_id":"ce4bh0p2rcd13ifvqd70","pricing_plan_id":"cebpf4jnsgd1na2vs0mg"},{"bike_id":"e2a41058-5471-4b5a-bf7a-7cee07b33035","system_id":"levelo_inurba_marseille","lat":43.30213,"lon":5.39474,"is_reserved":false,"is_disabled":false,"rental_uris":{"android":"levelo://app?vid=e2a41058-5471-4b5a-bf7a-7cee07b33035","ios":"levelo://app?vid=e2a41058-5471-4b5a-bf7a-7cee07b33035"},"vehicle_type_id":"4","last_reported":1724695876,"current_range_meters":11200,"station_id":"ce4bh0p2rcd13ifvqd70","pricing_plan_id":"cebpf4jnsgd1na2vs0mg"},{"bike_id":"3e0b5e10-53bc-425d-b0be-37c4d1a94565","system_id":"levelo_inurba_marseille","lat":43.32464,"lon":5.39383,"is_reserved":false,"is_disabled":false,"rental_uris":{"android":"levelo://app?vid=3e0b5e10-53bc-425d-b0be-37c4d1a94565","ios":"levelo://app?vid=3e0b5e10-53bc-425d-b0be-37c4d1a94565"},"vehicle_type_id":"4","last_reported":1724695876,"current_range_meters":6000,"station_id":"","pricing_plan_id":"cebpf4jnsgd1na2vs0mg"},{"bike_id":"32c6aa5b-d0e8-4e43-99e1-9d01128a2ca5","system_id":"levelo_inurba_marseille","lat":43.29418,"lon":5.38614,"is_reserved":false,"is_disabled":false,"rental_uris":{"android":"levelo://app?vid=32c6aa5b-d0e8-4e43-99e1-9d01128a2ca5","ios":"levelo://app?vid=32c6aa5b-d0e8-4e43-99e1-9d01128a2ca5"},"vehicle_type_id":"4","last_reported":1724695876,"current_range_meters":0,"station_id":"ce4bh2h2rcd13ifvqdh0","pricing_plan_id":"cebpf4jnsgd1na2vs0mg"},{"bike_id":"fde19a29-cafd-4b9f-8a45-62936c4ef635","system_id":"levelo_inurba_marseille","lat":43.294153,"lon":5.386305,"is_reserved":false,"is_disabled":false,"rental_uris":{"android":"levelo://app?vid=fde19a29-cafd-4b9f-8a45-62936c4ef635","ios":"levelo://app?vid=fde19a29-cafd-4b9f-8a45-62936c4ef635"},"vehicle_type_id":"4","last_reported":1724695876,"current_range_meters":13200,"station_id":"ce4bh2h2rcd13ifvqdh0","pricing_plan_id":"cebpf4jnsgd1na2vs0mg"},{"bike_id":"75e2d81b-daf6-44f6-9968-cba9f9ea2fc5","system_id":"levelo_inurba_marseille","lat":43.29418,"lon":5.38623,"is_reserved":false,"is_disabled":false,"rental_uris":{"android":"levelo://app?vid=75e2d81b-daf6-44f6-9968-cba9f9ea2fc5","ios":"levelo://app?vid=75e2d81b-daf6-44f6-9968-cba9f9ea2fc5"},"vehicle_type_id":"4","last_reported":1724695876,"current_range_meters":400,"station_id":"ce4bh2h2rcd13ifvqdh0","pricing_plan_id":"cebpf4jnsgd1na2vs0mg"},{"bike_id":"bab539e5-b1ea-4dc1-a55b-4eb0ea14d5c2","system_id":"levelo_inurba_marseille","lat":43.289184,"lon":5.366408,"is_reserved":false,"is_disabled":false,"rental_uris":{"android":"levelo://app?vid=bab539e5-b1ea-4dc1-a55b-4eb0ea14d5c2","ios":"levelo://app?vid=bab539e5-b1ea-4dc1-a55b-4eb0ea14d5c2"},"vehicle_type_id":"4","last_reported":1724695876,"current_range_meters":2400,"station_id":"ce4bhap2rcd13ifvqek0","pricing_plan_id":"cebpf4jnsgd1na2vs0mg"},{"bike_id":"d8d985c9-7ae2-4a99-8257-e81f3127ae0a","system_id":"levelo_inurba_marseille","lat":43.289184,"lon":5.366408,"is_reserved":false,"is_disabled":false,"rental_uris":{"android":"levelo://app?vid=d8d985c9-7ae2-4a99-8257-e81f3127ae0a","ios":"levelo://app?vid=d8d985c9-7ae2-4a99-8257-e81f3127ae0a"},"vehicle_type_id":"4","last_reported":1724695876,"current_range_meters":20400,"station_id":"ce4bhap2rcd13ifvqek0","pricing_plan_id":"cebpf4jnsgd1na2vs0mg"},{"bike_id":"3c778544-86fc-42d4-9d51-f3b69f20c663","system_id":"levelo_inurba_marseille","lat":43.294153,"lon":5.386305,"is_reserved":false,"is_disabled":false,"rental_uris":{"android":"levelo://app?vid=3c778544-86fc-42d4-9d51-f3b69f20c663","ios":"levelo://app?vid=3c778544-86fc-42d4-9d51-f3b69f20c663"},"vehicle_type_id":"4","last_reported":1724695876,"current_range_meters":16400,"station_id":"ce4bh2h2rcd13ifvqdh0","pricing_plan_id":"cebpf4jnsgd1na2vs0mg"},{"bike_id":"7c8609ba-f14e-4846-9f0b-66cdfa4d4ea0","system_id":"levelo_inurba_marseille","lat":43.29417,"lon":5.38623,"is_reserved":false,"is_disabled":false,"rental_uris":{"android":"levelo://app?vid=7c8609ba-f14e-4846-9f0b-66cdfa4d4ea0","ios":"levelo://app?vid=7c8609ba-f14e-4846-9f0b-66cdfa4d4ea0"},"vehicle_type_id":"4","last_reported":1724695876,"current_range_meters":0,"station_id":"ce4bh2h2rcd13ifvqdh0","pricing_plan_id":"cebpf4jnsgd1na2vs0mg"},{"bike_id":"d2b14293-b0ca-49b9-a7a5-099e6c6a4a8f","system_id":"levelo_inurba_marseille","lat":43.29418,"lon":5.38627,"is_reserved":false,"is_disabled":false,"rental_uris":{"android":"levelo://app?vid=d2b14293-b0ca-49b9-a7a5-099e6c6a4a8f","ios":"levelo://app?vid=d2b14293-b0ca-49b9-a7a5-099e6c6a4a8f"},"vehicle_type_id":"4","last_reported":1724695876,"current_range_meters":0,"station_id":"ce4bh2h2rcd13ifvqdh0","pricing_plan_id":"cebpf4jnsgd1na2vs0mg"},{"bike_id":"f215c349-8bcd-467d-abbe-1b1c7be5cddb","system_id":"levelo_inurba_marseille","lat":43.29418,"lon":5.38629,"is_reserved":false,"is_disabled":false,"rental_uris":{"android":"levelo://app?vid=f215c349-8bcd-467d-abbe-1b1c7be5cddb","ios":"levelo://app?vid=f215c349-8bcd-467d-abbe-1b1c7be5cddb"},"vehicle_type_id":"4","last_reported":1724695876,"current_range_meters":0,"station_id":"ce4bh2h2rcd13ifvqdh0","pricing_plan_id":"cebpf4jnsgd1na2vs0mg"},{"bike_id":"48ac7d20-3d1b-44e4-95c1-57fe157f1180","system_id":"levelo_inurba_marseille","lat":43.29416,"lon":5.38627,"is_reserved":false,"is_disabled":false,"rental_uris":{"android":"levelo://app?vid=48ac7d20-3d1b-44e4-95c1-57fe157f1180","ios":"levelo://app?vid=48ac7d20-3d1b-44e4-95c1-57fe157f1180"},"vehicle_type_id":"4","last_reported":1724695876,"current_range_meters":0,"station_id":"ce4bh2h2rcd13ifvqdh0","pricing_plan_id":"cebpf4jnsgd1na2vs0mg"},{"bike_id":"336b8d04-a549-4a2e-9cff-fbab977a1069","system_id":"levelo_inurba_marseille","lat":43.294153,"lon":5.386305,"is_reserved":false,"is_disabled":false,"rental_uris":{"android":"levelo://app?vid=336b8d04-a549-4a2e-9cff-fbab977a1069","ios":"levelo://app?vid=336b8d04-a549-4a2e-9cff-fbab977a1069"},"vehicle_type_id":"4","last_reported":1724695876,"current_range_meters":0,"station_id":"ce4bh2h2rcd13ifvqdh0","pricing_plan_id":"cebpf4jnsgd1na2vs0mg"},{"bike_id":"4aa6605a-b514-49a7-9ce6-cb8df17d91a7","system_id":"levelo_inurba_marseille","lat":43.29415,"lon":5.3863,"is_reserved":false,"is_disabled":false,"rental_uris":{"android":"levelo://app?vid=4aa6605a-b514-49a7-9ce6-cb8df17d91a7","ios":"levelo://app?vid=4aa6605a-b514-49a7-9ce6-cb8df17d91a7"},"vehicle_type_id":"4","last_reported":1724695876,"current_range_meters":0,"station_id":"ce4bh2h2rcd13ifvqdh0","pricing_plan_id":"cebpf4jnsgd1na2vs0mg"},{"bike_id":"35576db2-8a86-413d-8046-a8cc1003ff68","system_id":"levelo_inurba_marseille","lat":43.2894,"lon":5.36637,"is_reserved":false,"is_disabled":false,"rental_uris":{"android":"levelo://app?vid=35576db2-8a86-413d-8046-a8cc1003ff68","ios":"levelo://app?vid=35576db2-8a86-413d-8046-a8cc1003ff68"},"vehicle_type_id":"4","last_reported":1724695876,"current_range_meters":0,"station_id":"ce4bhap2rcd13ifvqek0","pricing_plan_id":"cebpf4jnsgd1na2vs0mg"},{"bike_id":"b1454a5d-b961-4ed1-9421-410b46338a8d","system_id":"levelo_inurba_marseille","lat":43.289184,"lon":5.366408,"is_reserved":false,"is_disabled":false,"rental_uris":{"android":"levelo://app?vid=b1454a5d-b961-4ed1-9421-410b46338a8d","ios":"levelo://app?vid=b1454a5d-b961-4ed1-9421-410b46338a8d"},"vehicle_type_id":"4","last_reported":1724695876,"current_range_meters":9600,"station_id":"ce4bhap2rcd13ifvqek0","pricing_plan_id":"cebpf4jnsgd1na2vs0mg"},{"bike_id":"653d2731-b89f-4319-926c-7e57bd4329f8","system_id":"levelo_inurba_marseille","lat":43.289377,"lon":5.3639,"is_reserved":false,"is_disabled":false,"rental_uris":{"android":"levelo://app?vid=653d2731-b89f-4319-926c-7e57bd4329f8","ios":"levelo://app?vid=653d2731-b89f-4319-926c-7e57bd4329f8"},"vehicle_type_id":"4","last_reported":1724695876,"current_range_meters":0,"station_id":"ce4bhc92rcd13ifvqetg","pricing_plan_id":"cebpf4jnsgd1na2vs0mg"},{"bike_id":"0c597a14-9b25-4760-b546-31724ff18c06","system_id":"levelo_inurba_marseille","lat":43.28936,"lon":5.36387,"is_reserved":false,"is_disabled":false,"rental_uris":{"android":"levelo://app?vid=0c597a14-9b25-4760-b546-31724ff18c06","ios":"levelo://app?vid=0c597a14-9b25-4760-b546-31724ff18c06"},"vehicle_type_id":"4","last_reported":1724695876,"current_range_meters":0,"station_id":"ce4bhc92rcd13ifvqetg","pricing_plan_id":"cebpf4jnsgd1na2vs0mg"},{"bike_id":"35bf6bad-198a-4f9c-8825-fa23b8808090","system_id":"levelo_inurba_marseille","lat":43.289468,"lon":5.363719,"is_reserved":false,"is_disabled":false,"rental_uris":{"android":"levelo://app?vid=35bf6bad-198a-4f9c-8825-fa23b8808090","ios":"levelo://app?vid=35bf6bad-198a-4f9c-8825-fa23b8808090"},"vehicle_type_id":"4","last_reported":1724695876,"current_range_meters":27200,"station_id":"ce4bhc92rcd13ifvqetg","pricing_plan_id":"cebpf4jnsgd1na2vs0mg"},{"bike_id":"fd283270-f17d-4656-b186-6c29b08957e5","system_id":"levelo_inurba_marseille","lat":43.304296,"lon":5.397513,"is_reserved":false,"is_disabled":false,"rental_uris":{"android":"levelo://app?vid=fd283270-f17d-4656-b186-6c29b08957e5","ios":"levelo://app?vid=fd283270-f17d-4656-b186-6c29b08957e5"},"vehicle_type_id":"4","last_reported":1724695876,"current_range_meters":4000,"station_id":"ce4bh092rcd13ifvqd20","pricing_plan_id":"cebpf4jnsgd1na2vs0mg"},{"bike_id":"fd9d9ab3-2d2c-4dad-9a5f-081d422c3823","system_id":"levelo_inurba_marseille","lat":43.2926,"lon":5.38437,"is_reserved":false,"is_disabled":false,"rental_uris":{"android":"levelo://app?vid=fd9d9ab3-2d2c-4dad-9a5f-081d422c3823","ios":"levelo://app?vid=fd9d9ab3-2d2c-4dad-9a5f-081d422c3823"},"vehicle_type_id":"4","last_reported":1724695876,"current_range_meters":0,"station_id":"ce4bh692rcd13ifvqea0","pricing_plan_id":"cebpf4jnsgd1na2vs0mg"},{"bike_id":"6731c1b6-1cef-4888-9cd3-fcb1f14bcbfd","system_id":"levelo_inurba_marseille","lat":43.29263,"lon":5.38451,"is_reserved":false,"is_disabled":false,"rental_uris":{"android":"levelo://app?vid=6731c1b6-1cef-4888-9cd3-fcb1f14bcbfd","ios":"levelo://app?vid=6731c1b6-1cef-4888-9cd3-fcb1f14bcbfd"},"vehicle_type_id":"4","last_reported":1724695876,"current_range_meters":31200,"station_id":"ce4bh692rcd13ifvqea0","pricing_plan_id":"cebpf4jnsgd1na2vs0mg"},{"bike_id":"63399ddf-ffda-444a-aead-918b7c47b002","system_id":"levelo_inurba_marseille","lat":43.292644,"lon":5.384257,"is_reserved":false,"is_disabled":false,"rental_uris":{"android":"levelo://app?vid=63399ddf-ffda-444a-aead-918b7c47b002","ios":"levelo://app?vid=63399ddf-ffda-444a-aead-918b7c47b002"},"vehicle_type_id":"4","last_reported":1724695876,"current_range_meters":21200,"station_id":"ce4bh692rcd13ifvqea0","pricing_plan_id":"cebpf4jnsgd1na2vs0mg"},{"bike_id":"5723081e-3694-4c9c-9d8d-3979592e2564","system_id":"levelo_inurba_marseille","lat":43.292642,"lon":5.384254,"is_reserved":false,"is_disabled":false,"rental_uris":{"android":"levelo://app?vid=5723081e-3694-4c9c-9d8d-3979592e2564","ios":"levelo://app?vid=5723081e-3694-4c9c-9d8d-3979592e2564"},"vehicle_type_id":"4","last_reported":1724695876,"current_range_meters":20800,"station_id":"ce4bh692rcd13ifvqea0","pricing_plan_id":"cebpf4jnsgd1na2vs0mg"},{"bike_id":"52ce78b0-a566-4392-a464-35d8f30c9492","system_id":"levelo_inurba_marseille","lat":43.290104,"lon":5.356111,"is_reserved":false,"is_disabled":false,"rental_uris":{"android":"levelo://app?vid=52ce78b0-a566-4392-a464-35d8f30c9492","ios":"levelo://app?vid=52ce78b0-a566-4392-a464-35d8f30c9492"},"vehicle_type_id":"4","last_reported":1724695876,"current_range_meters":31600,"station_id":"ce4bhb92rcd13ifvqen0","pricing_plan_id":"cebpf4jnsgd1na2vs0mg"},{"bike_id":"37c5ac94-5167-44d3-a9ec-90832cec960b","system_id":"levelo_inurba_marseille","lat":43.29011,"lon":5.35607,"is_reserved":false,"is_disabled":false,"rental_uris":{"android":"levelo://app?vid=37c5ac94-5167-44d3-a9ec-90832cec960b","ios":"levelo://app?vid=37c5ac94-5167-44d3-a9ec-90832cec960b"},"vehicle_type_id":"4","last_reported":1724695876,"current_range_meters":30800,"station_id":"ce4bhb92rcd13ifvqen0","pricing_plan_id":"cebpf4jnsgd1na2vs0mg"},{"bike_id":"640c2804-3b8d-4b27-a195-d9265698e62a","system_id":"levelo_inurba_marseille","lat":43.29008,"lon":5.3561,"is_reserved":false,"is_disabled":false,"rental_uris":{"android":"levelo://app?vid=640c2804-3b8d-4b27-a195-d9265698e62a","ios":"levelo://app?vid=640c2804-3b8d-4b27-a195-d9265698e62a"},"vehicle_type_id":"4","last_reported":1724695876,"current_range_meters":6400,"station_id":"ce4bhb92rcd13ifvqen0","pricing_plan_id":"cebpf4jnsgd1na2vs0mg"},{"bike_id":"535cd834-53df-4498-a9d9-cb8e10b7d8a2","system_id":"levelo_inurba_marseille","lat":43.29008,"lon":5.3561,"is_reserved":false,"is_disabled":false,"rental_uris":{"android":"levelo://app?vid=535cd834-53df-4498-a9d9-cb8e10b7d8a2","ios":"levelo://app?vid=535cd834-53df-4498-a9d9-cb8e10b7d8a2"},"vehicle_type_id":"4","last_reported":1724695876,"current_range_meters":31200,"station_id":"ce4bhb92rcd13ifvqen0","pricing_plan_id":"cebpf4jnsgd1na2vs0mg"},{"bike_id":"1314bfca-b65c-48fe-905f-f81eea03722b","system_id":"levelo_inurba_marseille","lat":43.29007,"lon":5.3561,"is_reserved":false,"is_disabled":false,"rental_uris":{"android":"levelo://app?vid=1314bfca-b65c-48fe-905f-f81eea03722b","ios":"levelo://app?vid=1314bfca-b65c-48fe-905f-f81eea03722b"},"vehicle_type_id":"4","last_reported":1724695876,"current_range_meters":0,"station_id":"ce4bhb92rcd13ifvqen0","pricing_plan_id":"cebpf4jnsgd1na2vs0mg"},{"bike_id":"ed5ea65d-2149-450a-ade8-0908dba54f31","system_id":"levelo_inurba_marseille","lat":43.29006,"lon":5.35609,"is_reserved":false,"is_disabled":false,"rental_uris":{"android":"levelo://app?vid=ed5ea65d-2149-450a-ade8-0908dba54f31","ios":"levelo://app?vid=ed5ea65d-2149-450a-ade8-0908dba54f31"},"vehicle_type_id":"4","last_reported":1724695876,"current_range_meters":30400,"station_id":"ce4bhb92rcd13ifvqen0","pricing_plan_id":"cebpf4jnsgd1na2vs0mg"},{"bike_id":"109b5872-0a4f-47a0-991e-6dd5334a65db","system_id":"levelo_inurba_marseille","lat":43.290103,"lon":5.356114,"is_reserved":false,"is_disabled":false,"rental_uris":{"android":"levelo://app?vid=109b5872-0a4f-47a0-991e-6dd5334a65db","ios":"levelo://app?vid=109b5872-0a4f-47a0-991e-6dd5334a65db"},"vehicle_type_id":"4","last_reported":1724695876,"current_range_meters":0,"station_id":"ce4bhb92rcd13ifvqen0","pricing_plan_id":"cebpf4jnsgd1na2vs0mg"},{"bike_id":"72202570-b852-44f7-86d0-a93ffc1a16e2","system_id":"levelo_inurba_marseille","lat":43.290104,"lon":5.356111,"is_reserved":false,"is_disabled":false,"rental_uris":{"android":"levelo://app?vid=72202570-b852-44f7-86d0-a93ffc1a16e2","ios":"levelo://app?vid=72202570-b852-44f7-86d0-a93ffc1a16e2"},"vehicle_type_id":"4","last_reported":1724695876,"current_range_meters":0,"station_id":"ce4bhb92rcd13ifvqen0","pricing_plan_id":"cebpf4jnsgd1na2vs0mg"},{"bike_id":"a7103edf-0969-42f4-ba83-2667577759b9","system_id":"levelo_inurba_marseille","lat":43.29003,"lon":5.35614,"is_reserved":false,"is_disabled":false,"rental_uris":{"android":"levelo://app?vid=a7103edf-0969-42f4-ba83-2667577759b9","ios":"levelo://app?vid=a7103edf-0969-42f4-ba83-2667577759b9"},"vehicle_type_id":"4","last_reported":1724695876,"current_range_meters":6000,"station_id":"ce4bhb92rcd13ifvqen0","pricing_plan_id":"cebpf4jnsgd1na2vs0mg"},{"bike_id":"adf8aa61-9c80-4d4f-8a3c-4b3c7d6677af","system_id":"levelo_inurba_marseille","lat":43.290104,"lon":5.356111,"is_reserved":false,"is_disabled":false,"rental_uris":{"android":"levelo://app?vid=adf8aa61-9c80-4d4f-8a3c-4b3c7d6677af","ios":"levelo://app?vid=adf8aa61-9c80-4d4f-8a3c-4b3c7d6677af"},"vehicle_type_id":"4","last_reported":1724695876,"current_range_meters":31200,"station_id":"ce4bhb92rcd13ifvqen0","pricing_plan_id":"cebpf4jnsgd1na2vs0mg"},{"bike_id":"1fe122e1-dca3-442b-a658-e83f587b3536","system_id":"levelo_inurba_marseille","lat":43.29004,"lon":5.35604,"is_reserved":false,"is_disabled":false,"rental_uris":{"android":"levelo://app?vid=1fe122e1-dca3-442b-a658-e83f587b3536","ios":"levelo://app?vid=1fe122e1-dca3-442b-a658-e83f587b3536"},"vehicle_type_id":"4","last_reported":1724695876,"current_range_meters":0,"station_id":"ce4bhb92rcd13ifvqen0","pricing_plan_id":"cebpf4jnsgd1na2vs0mg"},{"bike_id":"0cb2e2f7-b519-4ba9-b97a-9ffdf60bce1b","system_id":"levelo_inurba_marseille","lat":43.290995,"lon":5.381361,"is_reserved":false,"is_disabled":false,"rental_uris":{"android":"levelo://app?vid=0cb2e2f7-b519-4ba9-b97a-9ffdf60bce1b","ios":"levelo://app?vid=0cb2e2f7-b519-4ba9-b97a-9ffdf60bce1b"},"vehicle_type_id":"4","last_reported":1724695876,"current_range_meters":26400,"station_id":"ce4bh512rcd13ifvqe2g","pricing_plan_id":"cebpf4jnsgd1na2vs0mg"},{"bike_id":"872ade7d-464e-4b45-afcc-d39ffaef07e0","system_id":"levelo_inurba_marseille","lat":43.290995,"lon":5.381361,"is_reserved":false,"is_disabled":false,"rental_uris":{"android":"levelo://app?vid=872ade7d-464e-4b45-afcc-d39ffaef07e0","ios":"levelo://app?vid=872ade7d-464e-4b45-afcc-d39ffaef07e0"},"vehicle_type_id":"4","last_reported":1724695876,"current_range_meters":3600,"station_id":"ce4bh512rcd13ifvqe2g","pricing_plan_id":"cebpf4jnsgd1na2vs0mg"},{"bike_id":"cd1800a9-90a8-4976-9a2e-7340a968463d","system_id":"levelo_inurba_marseille","lat":43.290995,"lon":5.381361,"is_reserved":false,"is_disabled":false,"rental_uris":{"android":"levelo://app?vid=cd1800a9-90a8-4976-9a2e-7340a968463d","ios":"levelo://app?vid=cd1800a9-90a8-4976-9a2e-7340a968463d"},"vehicle_type_id":"4","last_reported":1724695876,"current_range_meters":22000,"station_id":"ce4bh512rcd13ifvqe2g","pricing_plan_id":"cebpf4jnsgd1na2vs0mg"},{"bike_id":"9b4c46cb-4580-4724-b5be-e2d9198bb0fe","system_id":"levelo_inurba_marseille","lat":43.28727,"lon":5.36078,"is_reserved":false,"is_disabled":false,"rental_uris":{"android":"levelo://app?vid=9b4c46cb-4580-4724-b5be-e2d9198bb0fe","ios":"levelo://app?vid=9b4c46cb-4580-4724-b5be-e2d9198bb0fe"},"vehicle_type_id":"4","last_reported":1724695876,"current_range_meters":17200,"station_id":"cki0cbj6b192h4jlfktg","pricing_plan_id":"cebpf4jnsgd1na2vs0mg"},{"bike_id":"a2ddf14f-c9b3-4c48-88e0-723aa580d03e","system_id":"levelo_inurba_marseille","lat":43.297807,"lon":5.393533,"is_reserved":false,"is_disabled":false,"rental_uris":{"android":"levelo://app?vid=a2ddf14f-c9b3-4c48-88e0-723aa580d03e","ios":"levelo://app?vid=a2ddf14f-c9b3-4c48-88e0-723aa580d03e"},"vehicle_type_id":"4","last_reported":1724695876,"current_range_meters":0,"station_id":"chh1huq6cuj3fo74tm60","pricing_plan_id":"cebpf4jnsgd1na2vs0mg"},{"bike_id":"d47ada5d-3d79-44b7-bac1-2e7187ededa7","system_id":"levelo_inurba_marseille","lat":43.297807,"lon":5.393533,"is_reserved":false,"is_disabled":false,"rental_uris":{"android":"levelo://app?vid=d47ada5d-3d79-44b7-bac1-2e7187ededa7","ios":"levelo://app?vid=d47ada5d-3d79-44b7-bac1-2e7187ededa7"},"vehicle_type_id":"4","last_reported":1724695876,"current_range_meters":12000,"station_id":"chh1huq6cuj3fo74tm60","pricing_plan_id":"cebpf4jnsgd1na2vs0mg"},{"bike_id":"a1fe2a49-2ecb-4aeb-b581-6e348d6aad4d","system_id":"levelo_inurba_marseille","lat":43.297807,"lon":5.393533,"is_reserved":false,"is_disabled":false,"rental_uris":{"android":"levelo://app?vid=a1fe2a49-2ecb-4aeb-b581-6e348d6aad4d","ios":"levelo://app?vid=a1fe2a49-2ecb-4aeb-b581-6e348d6aad4d"},"vehicle_type_id":"4","last_reported":1724695876,"current_range_meters":31200,"station_id":"chh1huq6cuj3fo74tm60","pricing_plan_id":"cebpf4jnsgd1na2vs0mg"},{"bike_id":"cebf9821-0f82-4717-a37b-c371c16d869f","system_id":"levelo_inurba_marseille","lat":43.297815,"lon":5.393548,"is_reserved":false,"is_disabled":false,"rental_uris":{"android":"levelo://app?vid=cebf9821-0f82-4717-a37b-c371c16d869f","ios":"levelo://app?vid=cebf9821-0f82-4717-a37b-c371c16d869f"},"vehicle_type_id":"4","last_reported":1724695876,"current_range_meters":4800,"station_id":"chh1huq6cuj3fo74tm60","pricing_plan_id":"cebpf4jnsgd1na2vs0mg"},{"bike_id":"29672dc5-54c8-4824-b72c-2d918f5d88c7","system_id":"levelo_inurba_marseille","lat":43.297815,"lon":5.393548,"is_reserved":false,"is_disabled":false,"rental_uris":{"android":"levelo://app?vid=29672dc5-54c8-4824-b72c-2d918f5d88c7","ios":"levelo://app?vid=29672dc5-54c8-4824-b72c-2d918f5d88c7"},"vehicle_type_id":"4","last_reported":1724695876,"current_range_meters":8000,"station_id":"chh1huq6cuj3fo74tm60","pricing_plan_id":"cebpf4jnsgd1na2vs0mg"},{"bike_id":"ff5a67e8-7448-47ea-969a-7ee519525fa1","system_id":"levelo_inurba_marseille","lat":43.33024,"lon":5.39035,"is_reserved":false,"is_disabled":false,"rental_uris":{"android":"levelo://app?vid=ff5a67e8-7448-47ea-969a-7ee519525fa1","ios":"levelo://app?vid=ff5a67e8-7448-47ea-969a-7ee519525fa1"},"vehicle_type_id":"4","last_reported":1724695876,"current_range_meters":5600,"station_id":"ce4bhr92rcd13ifvqhrg","pricing_plan_id":"cebpf4jnsgd1na2vs0mg"},{"bike_id":"1493b722-7cbb-418e-b8a3-ce66407e232a","system_id":"levelo_inurba_marseille","lat":43.33024,"lon":5.39035,"is_reserved":false,"is_disabled":false,"rental_uris":{"android":"levelo://app?vid=1493b722-7cbb-418e-b8a3-ce66407e232a","ios":"levelo://app?vid=1493b722-7cbb-418e-b8a3-ce66407e232a"},"vehicle_type_id":"4","last_reported":1724695876,"current_range_meters":18000,"station_id":"ce4bhr92rcd13ifvqhrg","pricing_plan_id":"cebpf4jnsgd1na2vs0mg"},{"bike_id":"0c6aa4c4-aa64-4f7c-bc59-9a58750f8af4","system_id":"levelo_inurba_marseille","lat":43.330442,"lon":5.389148,"is_reserved":false,"is_disabled":false,"rental_uris":{"android":"levelo://app?vid=0c6aa4c4-aa64-4f7c-bc59-9a58750f8af4","ios":"levelo://app?vid=0c6aa4c4-aa64-4f7c-bc59-9a58750f8af4"},"vehicle_type_id":"4","last_reported":1724695876,"current_range_meters":20800,"station_id":"ce4bhr92rcd13ifvqhrg","pricing_plan_id":"cebpf4jnsgd1na2vs0mg"},{"bike_id":"d74f8e03-6953-4ea3-bafd-ccae5b05d505","system_id":"levelo_inurba_marseille","lat":43.33026,"lon":5.39033,"is_reserved":false,"is_disabled":false,"rental_uris":{"android":"levelo://app?vid=d74f8e03-6953-4ea3-bafd-ccae5b05d505","ios":"levelo://app?vid=d74f8e03-6953-4ea3-bafd-ccae5b05d505"},"vehicle_type_id":"4","last_reported":1724695876,"current_range_meters":0,"station_id":"ce4bhr92rcd13ifvqhrg","pricing_plan_id":"cebpf4jnsgd1na2vs0mg"},{"bike_id":"d0983350-b54b-45b4-9b64-77d38941eeab","system_id":"levelo_inurba_marseille","lat":43.33025,"lon":5.39035,"is_reserved":false,"is_disabled":false,"rental_uris":{"android":"levelo://app?vid=d0983350-b54b-45b4-9b64-77d38941eeab","ios":"levelo://app?vid=d0983350-b54b-45b4-9b64-77d38941eeab"},"vehicle_type_id":"4","last_reported":1724695876,"current_range_meters":5600,"station_id":"ce4bhr92rcd13ifvqhrg","pricing_plan_id":"cebpf4jnsgd1na2vs0mg"},{"bike_id":"bd414313-f9e3-44fe-afa3-4e335d292e64","system_id":"levelo_inurba_marseille","lat":43.33025,"lon":5.39035,"is_reserved":false,"is_disabled":false,"rental_uris":{"android":"levelo://app?vid=bd414313-f9e3-44fe-afa3-4e335d292e64","ios":"levelo://app?vid=bd414313-f9e3-44fe-afa3-4e335d292e64"},"vehicle_type_id":"4","last_reported":1724695876,"current_range_meters":30800,"station_id":"ce4bhr92rcd13ifvqhrg","pricing_plan_id":"cebpf4jnsgd1na2vs0mg"},{"bike_id":"a6c629cf-4703-4e79-ad47-53eed6b30de6","system_id":"levelo_inurba_marseille","lat":43.330442,"lon":5.389148,"is_reserved":false,"is_disabled":false,"rental_uris":{"android":"levelo://app?vid=a6c629cf-4703-4e79-ad47-53eed6b30de6","ios":"levelo://app?vid=a6c629cf-4703-4e79-ad47-53eed6b30de6"},"vehicle_type_id":"4","last_reported":1724695876,"current_range_meters":5200,"station_id":"ce4bhr92rcd13ifvqhrg","pricing_plan_id":"cebpf4jnsgd1na2vs0mg"},{"bike_id":"7961e13e-2fff-4d3b-bc59-51d94f695760","system_id":"levelo_inurba_marseille","lat":43.330442,"lon":5.389148,"is_reserved":false,"is_disabled":false,"rental_uris":{"android":"levelo://app?vid=7961e13e-2fff-4d3b-bc59-51d94f695760","ios":"levelo://app?vid=7961e13e-2fff-4d3b-bc59-51d94f695760"},"vehicle_type_id":"4","last_reported":1724695876,"current_range_meters":5200,"station_id":"ce4bhr92rcd13ifvqhrg","pricing_plan_id":"cebpf4jnsgd1na2vs0mg"},{"bike_id":"df82d867-d35e-45fb-a81e-c355f8e68cdc","system_id":"levelo_inurba_marseille","lat":43.330442,"lon":5.389148,"is_reserved":false,"is_disabled":false,"rental_uris":{"android":"levelo://app?vid=df82d867-d35e-45fb-a81e-c355f8e68cdc","ios":"levelo://app?vid=df82d867-d35e-45fb-a81e-c355f8e68cdc"},"vehicle_type_id":"4","last_reported":1724695876,"current_range_meters":12400,"station_id":"ce4bhr92rcd13ifvqhrg","pricing_plan_id":"cebpf4jnsgd1na2vs0mg"},{"bike_id":"d5781c5b-4e9a-4e2d-a839-5cc42c7bcb98","system_id":"levelo_inurba_marseille","lat":43.33026,"lon":5.39042,"is_reserved":false,"is_disabled":false,"rental_uris":{"android":"levelo://app?vid=d5781c5b-4e9a-4e2d-a839-5cc42c7bcb98","ios":"levelo://app?vid=d5781c5b-4e9a-4e2d-a839-5cc42c7bcb98"},"vehicle_type_id":"4","last_reported":1724695876,"current_range_meters":2000,"station_id":"ce4bhr92rcd13ifvqhrg","pricing_plan_id":"cebpf4jnsgd1na2vs0mg"},{"bike_id":"2e550883-0764-4aed-b62e-fc72f88d6c05","system_id":"levelo_inurba_marseille","lat":43.33028,"lon":5.3904,"is_reserved":false,"is_disabled":false,"rental_uris":{"android":"levelo://app?vid=2e550883-0764-4aed-b62e-fc72f88d6c05","ios":"levelo://app?vid=2e550883-0764-4aed-b62e-fc72f88d6c05"},"vehicle_type_id":"4","last_reported":1724695876,"current_range_meters":14400,"station_id":"ce4bhr92rcd13ifvqhrg","pricing_plan_id":"cebpf4jnsgd1na2vs0mg"},{"bike_id":"23d464ef-a6c0-4cec-a514-3ecbf738b4de","system_id":"levelo_inurba_marseille","lat":43.33025,"lon":5.39045,"is_reserved":false,"is_disabled":false,"rental_uris":{"android":"levelo://app?vid=23d464ef-a6c0-4cec-a514-3ecbf738b4de","ios":"levelo://app?vid=23d464ef-a6c0-4cec-a514-3ecbf738b4de"},"vehicle_type_id":"4","last_reported":1724695876,"current_range_meters":8800,"station_id":"ce4bhr92rcd13ifvqhrg","pricing_plan_id":"cebpf4jnsgd1na2vs0mg"},{"bike_id":"72a25ebe-8e03-4f61-a844-412886f70f18","system_id":"levelo_inurba_marseille","lat":43.33027,"lon":5.39043,"is_reserved":false,"is_disabled":false,"rental_uris":{"android":"levelo://app?vid=72a25ebe-8e03-4f61-a844-412886f70f18","ios":"levelo://app?vid=72a25ebe-8e03-4f61-a844-412886f70f18"},"vehicle_type_id":"4","last_reported":1724695876,"current_range_meters":24800,"station_id":"ce4bhr92rcd13ifvqhrg","pricing_plan_id":"cebpf4jnsgd1na2vs0mg"},{"bike_id":"95d86e3a-a5bf-4a7e-b780-e8d22ec1adcf","system_id":"levelo_inurba_marseille","lat":43.295169,"lon":5.390426,"is_reserved":false,"is_disabled":false,"rental_uris":{"android":"levelo://app?vid=95d86e3a-a5bf-4a7e-b780-e8d22ec1adcf","ios":"levelo://app?vid=95d86e3a-a5bf-4a7e-b780-e8d22ec1adcf"},"vehicle_type_id":"4","last_reported":1724695876,"current_range_meters":24800,"station_id":"ce4bh3p2rcd13ifvqdp0","pricing_plan_id":"cebpf4jnsgd1na2vs0mg"},{"bike_id":"9dca6815-85bc-4f47-b6cc-aae7c6b35aba","system_id":"levelo_inurba_marseille","lat":43.28968,"lon":5.37847,"is_reserved":false,"is_disabled":false,"rental_uris":{"android":"levelo://app?vid=9dca6815-85bc-4f47-b6cc-aae7c6b35aba","ios":"levelo://app?vid=9dca6815-85bc-4f47-b6cc-aae7c6b35aba"},"vehicle_type_id":"4","last_reported":1724695876,"current_range_meters":0,"station_id":"ce4bh9p2rcd13ifvqed0","pricing_plan_id":"cebpf4jnsgd1na2vs0mg"},{"bike_id":"45bf414f-f664-45de-9e14-e8894779bdff","system_id":"levelo_inurba_marseille","lat":43.28856,"lon":5.358371,"is_reserved":false,"is_disabled":false,"rental_uris":{"android":"levelo://app?vid=45bf414f-f664-45de-9e14-e8894779bdff","ios":"levelo://app?vid=45bf414f-f664-45de-9e14-e8894779bdff"},"vehicle_type_id":"4","last_reported":1724695876,"current_range_meters":0,"station_id":"ce4bhb12rcd13ifvqem0","pricing_plan_id":"cebpf4jnsgd1na2vs0mg"},{"bike_id":"3a956822-ec5d-42b7-aec9-7288bfd2cfaf","system_id":"levelo_inurba_marseille","lat":43.28856,"lon":5.358371,"is_reserved":false,"is_disabled":false,"rental_uris":{"android":"levelo://app?vid=3a956822-ec5d-42b7-aec9-7288bfd2cfaf","ios":"levelo://app?vid=3a956822-ec5d-42b7-aec9-7288bfd2cfaf"},"vehicle_type_id":"4","last_reported":1724695876,"current_range_meters":21200,"station_id":"ce4bhb12rcd13ifvqem0","pricing_plan_id":"cebpf4jnsgd1na2vs0mg"},{"bike_id":"49a61a97-31ab-42cb-ad91-61adb3088cda","system_id":"levelo_inurba_marseille","lat":43.28856,"lon":5.358371,"is_reserved":false,"is_disabled":false,"rental_uris":{"android":"levelo://app?vid=49a61a97-31ab-42cb-ad91-61adb3088cda","ios":"levelo://app?vid=49a61a97-31ab-42cb-ad91-61adb3088cda"},"vehicle_type_id":"4","last_reported":1724695876,"current_range_meters":31600,"station_id":"ce4bhb12rcd13ifvqem0","pricing_plan_id":"cebpf4jnsgd1na2vs0mg"},{"bike_id":"4be343d7-eaf6-4f8f-ade7-55110b679bb1","system_id":"levelo_inurba_marseille","lat":43.290094,"lon":5.381264,"is_reserved":false,"is_disabled":false,"rental_uris":{"android":"levelo://app?vid=4be343d7-eaf6-4f8f-ade7-55110b679bb1","ios":"levelo://app?vid=4be343d7-eaf6-4f8f-ade7-55110b679bb1"},"vehicle_type_id":"4","last_reported":1724695876,"current_range_meters":400,"station_id":"ce4bh4p2rcd13ifvqe1g","pricing_plan_id":"cebpf4jnsgd1na2vs0mg"},{"bike_id":"57403d4f-fc44-48d6-bc97-0dfc38a65fa2","system_id":"levelo_inurba_marseille","lat":43.337406,"lon":5.374528,"is_reserved":false,"is_disabled":false,"rental_uris":{"android":"levelo://app?vid=57403d4f-fc44-48d6-bc97-0dfc38a65fa2","ios":"levelo://app?vid=57403d4f-fc44-48d6-bc97-0dfc38a65fa2"},"vehicle_type_id":"4","last_reported":1724695876,"current_range_meters":27200,"station_id":"","pricing_plan_id":"cebpf4jnsgd1na2vs0mg"},{"bike_id":"84d07369-db2d-4711-b49e-fdbc9c7c5464","system_id":"levelo_inurba_marseille","lat":43.309371,"lon":5.401449,"is_reserved":false,"is_disabled":false,"rental_uris":{"android":"levelo://app?vid=84d07369-db2d-4711-b49e-fdbc9c7c5464","ios":"levelo://app?vid=84d07369-db2d-4711-b49e-fdbc9c7c5464"},"vehicle_type_id":"4","last_reported":1724695876,"current_range_meters":0,"station_id":"ce4bgvp2rcd13ifvqct0","pricing_plan_id":"cebpf4jnsgd1na2vs0mg"},{"bike_id":"d6417237-38ee-42e1-a78c-c0581fa70570","system_id":"levelo_inurba_marseille","lat":43.33751,"lon":5.37452,"is_reserved":false,"is_disabled":false,"rental_uris":{"android":"levelo://app?vid=d6417237-38ee-42e1-a78c-c0581fa70570","ios":"levelo://app?vid=d6417237-38ee-42e1-a78c-c0581fa70570"},"vehicle_type_id":"4","last_reported":1724695876,"current_range_meters":11600,"station_id":"","pricing_plan_id":"cebpf4jnsgd1na2vs0mg"},{"bike_id":"08244d3d-a54a-4233-98e0-a178376cf0d9","system_id":"levelo_inurba_marseille","lat":43.33756,"lon":5.37451,"is_reserved":false,"is_disabled":false,"rental_uris":{"android":"levelo://app?vid=08244d3d-a54a-4233-98e0-a178376cf0d9","ios":"levelo://app?vid=08244d3d-a54a-4233-98e0-a178376cf0d9"},"vehicle_type_id":"4","last_reported":1724695876,"current_range_meters":24800,"station_id":"","pricing_plan_id":"cebpf4jnsgd1na2vs0mg"},{"bike_id":"79534ec3-f6eb-48fc-b341-236b6bc30650","system_id":"levelo_inurba_marseille","lat":43.30932,"lon":5.40157,"is_reserved":false,"is_disabled":false,"rental_uris":{"android":"levelo://app?vid=79534ec3-f6eb-48fc-b341-236b6bc30650","ios":"levelo://app?vid=79534ec3-f6eb-48fc-b341-236b6bc30650"},"vehicle_type_id":"4","last_reported":1724695876,"current_range_meters":0,"station_id":"ce4bgvp2rcd13ifvqct0","pricing_plan_id":"cebpf4jnsgd1na2vs0mg"},{"bike_id":"f8345c82-b9ac-4f5d-b249-1d2ee246e06a","system_id":"levelo_inurba_marseille","lat":43.337565,"lon":5.374577,"is_reserved":false,"is_disabled":false,"rental_uris":{"android":"levelo://app?vid=f8345c82-b9ac-4f5d-b249-1d2ee246e06a","ios":"levelo://app?vid=f8345c82-b9ac-4f5d-b249-1d2ee246e06a"},"vehicle_type_id":"4","last_reported":1724695876,"current_range_meters":30000,"station_id":"","pricing_plan_id":"cebpf4jnsgd1na2vs0mg"},{"bike_id":"b0750243-bc0f-4661-b8a5-1f41972a3d36","system_id":"levelo_inurba_marseille","lat":43.30918,"lon":5.40156,"is_reserved":false,"is_disabled":false,"rental_uris":{"android":"levelo://app?vid=b0750243-bc0f-4661-b8a5-1f41972a3d36","ios":"levelo://app?vid=b0750243-bc0f-4661-b8a5-1f41972a3d36"},"vehicle_type_id":"4","last_reported":1724695876,"current_range_meters":0,"station_id":"ce4bgvp2rcd13ifvqct0","pricing_plan_id":"cebpf4jnsgd1na2vs0mg"},{"bike_id":"dbfb9240-0d6c-46e4-9f3d-dd25b5cacce4","system_id":"levelo_inurba_marseille","lat":43.33768,"lon":5.37436,"is_reserved":false,"is_disabled":false,"rental_uris":{"android":"levelo://app?vid=dbfb9240-0d6c-46e4-9f3d-dd25b5cacce4","ios":"levelo://app?vid=dbfb9240-0d6c-46e4-9f3d-dd25b5cacce4"},"vehicle_type_id":"4","last_reported":1724695876,"current_range_meters":6000,"station_id":"","pricing_plan_id":"cebpf4jnsgd1na2vs0mg"},{"bike_id":"73fbe73f-0186-4227-959b-533984585cef","system_id":"levelo_inurba_marseille","lat":43.33764,"lon":5.37487,"is_reserved":false,"is_disabled":false,"rental_uris":{"android":"levelo://app?vid=73fbe73f-0186-4227-959b-533984585cef","ios":"levelo://app?vid=73fbe73f-0186-4227-959b-533984585cef"},"vehicle_type_id":"4","last_reported":1724695876,"current_range_meters":26400,"station_id":"","pricing_plan_id":"cebpf4jnsgd1na2vs0mg"},{"bike_id":"dc23e91c-5e31-4315-b2c2-c08f6ab9ef5a","system_id":"levelo_inurba_marseille","lat":43.2874,"lon":5.371755,"is_reserved":false,"is_disabled":false,"rental_uris":{"android":"levelo://app?vid=dc23e91c-5e31-4315-b2c2-c08f6ab9ef5a","ios":"levelo://app?vid=dc23e91c-5e31-4315-b2c2-c08f6ab9ef5a"},"vehicle_type_id":"4","last_reported":1724695876,"current_range_meters":8800,"station_id":"ce4bhbh2rcd13ifvqeqg","pricing_plan_id":"cebpf4jnsgd1na2vs0mg"},{"bike_id":"d6acace2-3c6e-4b72-8c1a-644448e884a2","system_id":"levelo_inurba_marseille","lat":43.306412,"lon":5.401035,"is_reserved":false,"is_disabled":false,"rental_uris":{"android":"levelo://app?vid=d6acace2-3c6e-4b72-8c1a-644448e884a2","ios":"levelo://app?vid=d6acace2-3c6e-4b72-8c1a-644448e884a2"},"vehicle_type_id":"4","last_reported":1724695876,"current_range_meters":0,"station_id":"ce4bh112rcd13ifvqda0","pricing_plan_id":"cebpf4jnsgd1na2vs0mg"},{"bike_id":"af4cd739-c2e7-4f5b-9928-954f1ebbaf67","system_id":"levelo_inurba_marseille","lat":43.301117,"lon":5.398795,"is_reserved":false,"is_disabled":false,"rental_uris":{"android":"levelo://app?vid=af4cd739-c2e7-4f5b-9928-954f1ebbaf67","ios":"levelo://app?vid=af4cd739-c2e7-4f5b-9928-954f1ebbaf67"},"vehicle_type_id":"4","last_reported":1724695876,"current_range_meters":0,"station_id":"ce4bh0h2rcd13ifvqd40","pricing_plan_id":"cebpf4jnsgd1na2vs0mg"},{"bike_id":"b5896c68-0d46-4504-9030-298cf296e3ee","system_id":"levelo_inurba_marseille","lat":43.28727,"lon":5.36078,"is_reserved":false,"is_disabled":false,"rental_uris":{"android":"levelo://app?vid=b5896c68-0d46-4504-9030-298cf296e3ee","ios":"levelo://app?vid=b5896c68-0d46-4504-9030-298cf296e3ee"},"vehicle_type_id":"4","last_reported":1724695876,"current_range_meters":11200,"station_id":"cki0cbj6b192h4jlfktg","pricing_plan_id":"cebpf4jnsgd1na2vs0mg"},{"bike_id":"cdd81b1c-5b41-4a64-a791-45cfcff030d2","system_id":"levelo_inurba_marseille","lat":43.298681,"lon":5.397225,"is_reserved":false,"is_disabled":false,"rental_uris":{"android":"levelo://app?vid=cdd81b1c-5b41-4a64-a791-45cfcff030d2","ios":"levelo://app?vid=cdd81b1c-5b41-4a64-a791-45cfcff030d2"},"vehicle_type_id":"4","last_reported":1724695876,"current_range_meters":31200,"station_id":"ce4bh0h2rcd13ifvqd50","pricing_plan_id":"cebpf4jnsgd1na2vs0mg"},{"bike_id":"3b1c7145-7675-48a5-bed8-e2df5111e449","system_id":"levelo_inurba_marseille","lat":43.298681,"lon":5.397225,"is_reserved":false,"is_disabled":false,"rental_uris":{"android":"levelo://app?vid=3b1c7145-7675-48a5-bed8-e2df5111e449","ios":"levelo://app?vid=3b1c7145-7675-48a5-bed8-e2df5111e449"},"vehicle_type_id":"4","last_reported":1724695876,"current_range_meters":31200,"station_id":"ce4bh0h2rcd13ifvqd50","pricing_plan_id":"cebpf4jnsgd1na2vs0mg"},{"bike_id":"18651c29-fd96-4f64-85ef-3de05be1a28e","system_id":"levelo_inurba_marseille","lat":43.298681,"lon":5.397225,"is_reserved":false,"is_disabled":false,"rental_uris":{"android":"levelo://app?vid=18651c29-fd96-4f64-85ef-3de05be1a28e","ios":"levelo://app?vid=18651c29-fd96-4f64-85ef-3de05be1a28e"},"vehicle_type_id":"4","last_reported":1724695876,"current_range_meters":31200,"station_id":"ce4bh0h2rcd13ifvqd50","pricing_plan_id":"cebpf4jnsgd1na2vs0mg"},{"bike_id":"0f6b1426-42ce-4502-ae24-2fa06164e0ed","system_id":"levelo_inurba_marseille","lat":43.286961,"lon":5.373785,"is_reserved":false,"is_disabled":false,"rental_uris":{"android":"levelo://app?vid=0f6b1426-42ce-4502-ae24-2fa06164e0ed","ios":"levelo://app?vid=0f6b1426-42ce-4502-ae24-2fa06164e0ed"},"vehicle_type_id":"4","last_reported":1724695876,"current_range_meters":7600,"station_id":"ce4bh3p2rcd13ifvqdq0","pricing_plan_id":"cebpf4jnsgd1na2vs0mg"},{"bike_id":"dc3da9ae-b6cc-479b-9592-af1b6d809903","system_id":"levelo_inurba_marseille","lat":43.298681,"lon":5.397225,"is_reserved":false,"is_disabled":false,"rental_uris":{"android":"levelo://app?vid=dc3da9ae-b6cc-479b-9592-af1b6d809903","ios":"levelo://app?vid=dc3da9ae-b6cc-479b-9592-af1b6d809903"},"vehicle_type_id":"4","last_reported":1724695876,"current_range_meters":12000,"station_id":"ce4bh0h2rcd13ifvqd50","pricing_plan_id":"cebpf4jnsgd1na2vs0mg"},{"bike_id":"4fdfe5e9-7e47-4327-9584-c2425f060745","system_id":"levelo_inurba_marseille","lat":43.298681,"lon":5.397225,"is_reserved":false,"is_disabled":false,"rental_uris":{"android":"levelo://app?vid=4fdfe5e9-7e47-4327-9584-c2425f060745","ios":"levelo://app?vid=4fdfe5e9-7e47-4327-9584-c2425f060745"},"vehicle_type_id":"4","last_reported":1724695876,"current_range_meters":0,"station_id":"ce4bh0h2rcd13ifvqd50","pricing_plan_id":"cebpf4jnsgd1na2vs0mg"},{"bike_id":"366b3592-0912-445b-8bd5-efcecaff10db","system_id":"levelo_inurba_marseille","lat":43.286986,"lon":5.373704,"is_reserved":false,"is_disabled":false,"rental_uris":{"android":"levelo://app?vid=366b3592-0912-445b-8bd5-efcecaff10db","ios":"levelo://app?vid=366b3592-0912-445b-8bd5-efcecaff10db"},"vehicle_type_id":"4","last_reported":1724695876,"current_range_meters":0,"station_id":"ce4bh3p2rcd13ifvqdq0","pricing_plan_id":"cebpf4jnsgd1na2vs0mg"},{"bike_id":"b3aa4d61-a8df-4152-8b71-8cd84eb67583","system_id":"levelo_inurba_marseille","lat":43.298681,"lon":5.397225,"is_reserved":false,"is_disabled":false,"rental_uris":{"android":"levelo://app?vid=b3aa4d61-a8df-4152-8b71-8cd84eb67583","ios":"levelo://app?vid=b3aa4d61-a8df-4152-8b71-8cd84eb67583"},"vehicle_type_id":"4","last_reported":1724695876,"current_range_meters":1600,"station_id":"ce4bh0h2rcd13ifvqd50","pricing_plan_id":"cebpf4jnsgd1na2vs0mg"},{"bike_id":"66589531-f571-4bf7-b5a7-7a1f19a604f9","system_id":"levelo_inurba_marseille","lat":43.28661,"lon":5.36357,"is_reserved":false,"is_disabled":false,"rental_uris":{"android":"levelo://app?vid=66589531-f571-4bf7-b5a7-7a1f19a604f9","ios":"levelo://app?vid=66589531-f571-4bf7-b5a7-7a1f19a604f9"},"vehicle_type_id":"4","last_reported":1724695876,"current_range_meters":0,"station_id":"ce4bhah2rcd13ifvqej0","pricing_plan_id":"cebpf4jnsgd1na2vs0mg"},{"bike_id":"91241846-118d-4831-a2ed-106d528c5f5c","system_id":"levelo_inurba_marseille","lat":43.286961,"lon":5.373785,"is_reserved":false,"is_disabled":false,"rental_uris":{"android":"levelo://app?vid=91241846-118d-4831-a2ed-106d528c5f5c","ios":"levelo://app?vid=91241846-118d-4831-a2ed-106d528c5f5c"},"vehicle_type_id":"4","last_reported":1724695876,"current_range_meters":0,"station_id":"ce4bh3p2rcd13ifvqdq0","pricing_plan_id":"cebpf4jnsgd1na2vs0mg"},{"bike_id":"3fe295a6-b8b7-472b-bcfa-0007f564bc08","system_id":"levelo_inurba_marseille","lat":43.286961,"lon":5.373785,"is_reserved":false,"is_disabled":false,"rental_uris":{"android":"levelo://app?vid=3fe295a6-b8b7-472b-bcfa-0007f564bc08","ios":"levelo://app?vid=3fe295a6-b8b7-472b-bcfa-0007f564bc08"},"vehicle_type_id":"4","last_reported":1724695876,"current_range_meters":20000,"station_id":"ce4bh3p2rcd13ifvqdq0","pricing_plan_id":"cebpf4jnsgd1na2vs0mg"},{"bike_id":"11a97154-b996-4f80-9ffb-22f2f03cac20","system_id":"levelo_inurba_marseille","lat":43.286961,"lon":5.373785,"is_reserved":false,"is_disabled":false,"rental_uris":{"android":"levelo://app?vid=11a97154-b996-4f80-9ffb-22f2f03cac20","ios":"levelo://app?vid=11a97154-b996-4f80-9ffb-22f2f03cac20"},"vehicle_type_id":"4","last_reported":1724695876,"current_range_meters":21200,"station_id":"ce4bh3p2rcd13ifvqdq0","pricing_plan_id":"cebpf4jnsgd1na2vs0mg"},{"bike_id":"5ae4c157-da6e-4fea-87e5-d8356122127c","system_id":"levelo_inurba_marseille","lat":43.298681,"lon":5.397225,"is_reserved":false,"is_disabled":false,"rental_uris":{"android":"levelo://app?vid=5ae4c157-da6e-4fea-87e5-d8356122127c","ios":"levelo://app?vid=5ae4c157-da6e-4fea-87e5-d8356122127c"},"vehicle_type_id":"4","last_reported":1724695876,"current_range_meters":21600,"station_id":"ce4bh0h2rcd13ifvqd50","pricing_plan_id":"cebpf4jnsgd1na2vs0mg"},{"bike_id":"3d66fe93-3147-49b9-85bf-7eec85b8b988","system_id":"levelo_inurba_marseille","lat":43.286961,"lon":5.373785,"is_reserved":false,"is_disabled":false,"rental_uris":{"android":"levelo://app?vid=3d66fe93-3147-49b9-85bf-7eec85b8b988","ios":"levelo://app?vid=3d66fe93-3147-49b9-85bf-7eec85b8b988"},"vehicle_type_id":"4","last_reported":1724695876,"current_range_meters":27600,"station_id":"ce4bh3p2rcd13ifvqdq0","pricing_plan_id":"cebpf4jnsgd1na2vs0mg"},{"bike_id":"c5dfcdfd-5c6a-4c20-b132-0907700832da","system_id":"levelo_inurba_marseille","lat":43.289307,"lon":5.38406,"is_reserved":false,"is_disabled":false,"rental_uris":{"android":"levelo://app?vid=c5dfcdfd-5c6a-4c20-b132-0907700832da","ios":"levelo://app?vid=c5dfcdfd-5c6a-4c20-b132-0907700832da"},"vehicle_type_id":"4","last_reported":1724695876,"current_range_meters":1200,"station_id":"ce4bh612rcd13ifvqe6g","pricing_plan_id":"cebpf4jnsgd1na2vs0mg"},{"bike_id":"300cdf72-a792-4a12-a9b6-0a9e09a58fe2","system_id":"levelo_inurba_marseille","lat":43.289307,"lon":5.38406,"is_reserved":false,"is_disabled":false,"rental_uris":{"android":"levelo://app?vid=300cdf72-a792-4a12-a9b6-0a9e09a58fe2","ios":"levelo://app?vid=300cdf72-a792-4a12-a9b6-0a9e09a58fe2"},"vehicle_type_id":"4","last_reported":1724695876,"current_range_meters":0,"station_id":"ce4bh612rcd13ifvqe6g","pricing_plan_id":"cebpf4jnsgd1na2vs0mg"},{"bike_id":"cc0ee69e-af21-43e6-bb32-19e4f277b7e7","system_id":"levelo_inurba_marseille","lat":43.2903,"lon":5.38638,"is_reserved":false,"is_disabled":false,"rental_uris":{"android":"levelo://app?vid=cc0ee69e-af21-43e6-bb32-19e4f277b7e7","ios":"levelo://app?vid=cc0ee69e-af21-43e6-bb32-19e4f277b7e7"},"vehicle_type_id":"4","last_reported":1724695876,"current_range_meters":0,"station_id":"ce4bh4p2rcd13ifvqe0g","pricing_plan_id":"cebpf4jnsgd1na2vs0mg"},{"bike_id":"d90e3bf4-5ee3-46e8-b426-8f3c691e00f5","system_id":"levelo_inurba_marseille","lat":43.29025,"lon":5.38629,"is_reserved":false,"is_disabled":false,"rental_uris":{"android":"levelo://app?vid=d90e3bf4-5ee3-46e8-b426-8f3c691e00f5","ios":"levelo://app?vid=d90e3bf4-5ee3-46e8-b426-8f3c691e00f5"},"vehicle_type_id":"4","last_reported":1724695876,"current_range_meters":0,"station_id":"ce4bh4p2rcd13ifvqe0g","pricing_plan_id":"cebpf4jnsgd1na2vs0mg"},{"bike_id":"a9f30f20-b4b7-4b35-821b-db0075c8462b","system_id":"levelo_inurba_marseille","lat":43.290336,"lon":5.386425,"is_reserved":false,"is_disabled":false,"rental_uris":{"android":"levelo://app?vid=a9f30f20-b4b7-4b35-821b-db0075c8462b","ios":"levelo://app?vid=a9f30f20-b4b7-4b35-821b-db0075c8462b"},"vehicle_type_id":"4","last_reported":1724695876,"current_range_meters":11600,"station_id":"ce4bh4p2rcd13ifvqe0g","pricing_plan_id":"cebpf4jnsgd1na2vs0mg"},{"bike_id":"417da8ab-4bd9-430a-841c-345734839808","system_id":"levelo_inurba_marseille","lat":43.290336,"lon":5.386425,"is_reserved":false,"is_disabled":false,"rental_uris":{"android":"levelo://app?vid=417da8ab-4bd9-430a-841c-345734839808","ios":"levelo://app?vid=417da8ab-4bd9-430a-841c-345734839808"},"vehicle_type_id":"4","last_reported":1724695876,"current_range_meters":12000,"station_id":"ce4bh4p2rcd13ifvqe0g","pricing_plan_id":"cebpf4jnsgd1na2vs0mg"},{"bike_id":"3cfa968f-e1f1-414a-8d2b-05b6af6eb25d","system_id":"levelo_inurba_marseille","lat":43.289184,"lon":5.366408,"is_reserved":false,"is_disabled":false,"rental_uris":{"android":"levelo://app?vid=3cfa968f-e1f1-414a-8d2b-05b6af6eb25d","ios":"levelo://app?vid=3cfa968f-e1f1-414a-8d2b-05b6af6eb25d"},"vehicle_type_id":"4","last_reported":1724695876,"current_range_meters":25600,"station_id":"ce4bhap2rcd13ifvqek0","pricing_plan_id":"cebpf4jnsgd1na2vs0mg"},{"bike_id":"25818126-9071-4c5d-972e-54d79e8a69a2","system_id":"levelo_inurba_marseille","lat":43.289307,"lon":5.38406,"is_reserved":false,"is_disabled":false,"rental_uris":{"android":"levelo://app?vid=25818126-9071-4c5d-972e-54d79e8a69a2","ios":"levelo://app?vid=25818126-9071-4c5d-972e-54d79e8a69a2"},"vehicle_type_id":"4","last_reported":1724695876,"current_range_meters":3600,"station_id":"ce4bh612rcd13ifvqe6g","pricing_plan_id":"cebpf4jnsgd1na2vs0mg"},{"bike_id":"bbf25543-cea5-4423-a212-0f38be3352a2","system_id":"levelo_inurba_marseille","lat":43.290217,"lon":5.386317,"is_reserved":false,"is_disabled":false,"rental_uris":{"android":"levelo://app?vid=bbf25543-cea5-4423-a212-0f38be3352a2","ios":"levelo://app?vid=bbf25543-cea5-4423-a212-0f38be3352a2"},"vehicle_type_id":"4","last_reported":1724695876,"current_range_meters":0,"station_id":"ce4bh4p2rcd13ifvqe0g","pricing_plan_id":"cebpf4jnsgd1na2vs0mg"},{"bike_id":"3f8904cb-3795-4698-9094-4e1159e75973","system_id":"levelo_inurba_marseille","lat":43.30239,"lon":5.40063,"is_reserved":false,"is_disabled":false,"rental_uris":{"android":"levelo://app?vid=3f8904cb-3795-4698-9094-4e1159e75973","ios":"levelo://app?vid=3f8904cb-3795-4698-9094-4e1159e75973"},"vehicle_type_id":"4","last_reported":1724695876,"current_range_meters":31200,"station_id":"","pricing_plan_id":"cebpf4jnsgd1na2vs0mg"},{"bike_id":"ce654e21-d59e-4b50-990b-573e66839504","system_id":"levelo_inurba_marseille","lat":43.302759,"lon":5.400793,"is_reserved":false,"is_disabled":false,"rental_uris":{"android":"levelo://app?vid=ce654e21-d59e-4b50-990b-573e66839504","ios":"levelo://app?vid=ce654e21-d59e-4b50-990b-573e66839504"},"vehicle_type_id":"4","last_reported":1724695876,"current_range_meters":24000,"station_id":"ce4bgvh2rcd13ifvqcs0","pricing_plan_id":"cebpf4jnsgd1na2vs0mg"},{"bike_id":"649425bb-53dc-426b-86e6-876d80d93745","system_id":"levelo_inurba_marseille","lat":43.28719,"lon":5.37934,"is_reserved":false,"is_disabled":false,"rental_uris":{"android":"levelo://app?vid=649425bb-53dc-426b-86e6-876d80d93745","ios":"levelo://app?vid=649425bb-53dc-426b-86e6-876d80d93745"},"vehicle_type_id":"4","last_reported":1724695876,"current_range_meters":0,"station_id":"ce4bh9p2rcd13ifvqec0","pricing_plan_id":"cebpf4jnsgd1na2vs0mg"},{"bike_id":"2b24c65e-9061-4991-95fa-eb0229df1c11","system_id":"levelo_inurba_marseille","lat":43.287184,"lon":5.37937,"is_reserved":false,"is_disabled":false,"rental_uris":{"android":"levelo://app?vid=2b24c65e-9061-4991-95fa-eb0229df1c11","ios":"levelo://app?vid=2b24c65e-9061-4991-95fa-eb0229df1c11"},"vehicle_type_id":"4","last_reported":1724695876,"current_range_meters":3200,"station_id":"ce4bh9p2rcd13ifvqec0","pricing_plan_id":"cebpf4jnsgd1na2vs0mg"},{"bike_id":"9d74e784-b1ef-4461-aead-880dcc9134ab","system_id":"levelo_inurba_marseille","lat":43.287185,"lon":5.379373,"is_reserved":false,"is_disabled":false,"rental_uris":{"android":"levelo://app?vid=9d74e784-b1ef-4461-aead-880dcc9134ab","ios":"levelo://app?vid=9d74e784-b1ef-4461-aead-880dcc9134ab"},"vehicle_type_id":"4","last_reported":1724695876,"current_range_meters":4000,"station_id":"ce4bh9p2rcd13ifvqec0","pricing_plan_id":"cebpf4jnsgd1na2vs0mg"},{"bike_id":"ef435465-42d7-46aa-9f83-42b9859a038a","system_id":"levelo_inurba_marseille","lat":43.291994,"lon":5.392907,"is_reserved":false,"is_disabled":false,"rental_uris":{"android":"levelo://app?vid=ef435465-42d7-46aa-9f83-42b9859a038a","ios":"levelo://app?vid=ef435465-42d7-46aa-9f83-42b9859a038a"},"vehicle_type_id":"4","last_reported":1724695876,"current_range_meters":18400,"station_id":"ce4bh192rcd13ifvqdd0","pricing_plan_id":"cebpf4jnsgd1na2vs0mg"},{"bike_id":"f7eb9c1e-8710-421b-986f-d2aa6989bcde","system_id":"levelo_inurba_marseille","lat":43.29195,"lon":5.39322,"is_reserved":false,"is_disabled":false,"rental_uris":{"android":"levelo://app?vid=f7eb9c1e-8710-421b-986f-d2aa6989bcde","ios":"levelo://app?vid=f7eb9c1e-8710-421b-986f-d2aa6989bcde"},"vehicle_type_id":"4","last_reported":1724695876,"current_range_meters":0,"station_id":"ce4bh192rcd13ifvqdd0","pricing_plan_id":"cebpf4jnsgd1na2vs0mg"},{"bike_id":"4d9278b1-9961-4f8c-a39b-a3509fe63043","system_id":"levelo_inurba_marseille","lat":43.291994,"lon":5.392907,"is_reserved":false,"is_disabled":false,"rental_uris":{"android":"levelo://app?vid=4d9278b1-9961-4f8c-a39b-a3509fe63043","ios":"levelo://app?vid=4d9278b1-9961-4f8c-a39b-a3509fe63043"},"vehicle_type_id":"4","last_reported":1724695876,"current_range_meters":10000,"station_id":"ce4bh192rcd13ifvqdd0","pricing_plan_id":"cebpf4jnsgd1na2vs0mg"},{"bike_id":"3e9a6a2d-1fe2-454a-ab81-ca065b5e9fc5","system_id":"levelo_inurba_marseille","lat":43.291994,"lon":5.392907,"is_reserved":false,"is_disabled":false,"rental_uris":{"android":"levelo://app?vid=3e9a6a2d-1fe2-454a-ab81-ca065b5e9fc5","ios":"levelo://app?vid=3e9a6a2d-1fe2-454a-ab81-ca065b5e9fc5"},"vehicle_type_id":"4","last_reported":1724695876,"current_range_meters":25600,"station_id":"ce4bh192rcd13ifvqdd0","pricing_plan_id":"cebpf4jnsgd1na2vs0mg"},{"bike_id":"610d188d-6aff-4ebe-b31b-91391a995de1","system_id":"levelo_inurba_marseille","lat":43.284534,"lon":5.358662,"is_reserved":false,"is_disabled":false,"rental_uris":{"android":"levelo://app?vid=610d188d-6aff-4ebe-b31b-91391a995de1","ios":"levelo://app?vid=610d188d-6aff-4ebe-b31b-91391a995de1"},"vehicle_type_id":"4","last_reported":1724695876,"current_range_meters":5600,"station_id":"ce4bhah2rcd13ifvqei0","pricing_plan_id":"cebpf4jnsgd1na2vs0mg"},{"bike_id":"c82898e6-0056-45e0-9cd1-48458527411a","system_id":"levelo_inurba_marseille","lat":43.284534,"lon":5.358662,"is_reserved":false,"is_disabled":false,"rental_uris":{"android":"levelo://app?vid=c82898e6-0056-45e0-9cd1-48458527411a","ios":"levelo://app?vid=c82898e6-0056-45e0-9cd1-48458527411a"},"vehicle_type_id":"4","last_reported":1724695876,"current_range_meters":0,"station_id":"ce4bhah2rcd13ifvqei0","pricing_plan_id":"cebpf4jnsgd1na2vs0mg"},