{"last_updated":1729807740,"ttl":60,"version":"2.2","data":{"bikes":[{"bike_id":"38e93332-d7ca-4607-a597-8ea4f6db744e","system_id":"levelo_inurba_marseille","lat":43.28615,"lon":5.37063,"is_reserved":false,"is_disabled":false,"rental_uris":{"android":"levelo://app?vid=38e93332-d7ca-4607-a597-8ea4f6db744e","ios":"levelo://app?vid=38e93332-d7ca-4607-a597-8ea4f6db744e"},"vehicle_type_id":"4","last_reported":1729807740,"current_range_meters":29600,"station_id":"ce4bht12rcd13ifvqi60","pricing_plan_id":"cebpf4jnsgd1na2vs0mg"},{"bike_id":"1568e98d-3e80-4d3a-913a-84af01bba11e","system_id":"levelo_inurba_marseille","lat":43.28155,"lon":5.42639,"is_reserved":false,"is_disabled":false,"rental_uris":{"android":"levelo://app?vid=1568e98d-3e80-4d3a-913a-84af01bba11e","ios":"levelo://app?vid=1568e98d-3e80-4d3a-913a-84af01bba11e"},"vehicle_type_id":"4","last_reported":1729807740,"current_range_meters":36800,"station_id":"ce4bhnh2rcd13ifvqgug","pricing_plan_id":"cebpf4jnsgd1na2vs0mg"},{"bike_id":"d23bbd4b-7066-40e8-b2c7-f39cfac6ae26","system_id":"levelo_inurba_marseille","lat":43.28443,"lon":5.39189,"is_reserved":false,"is_disabled":false,"rental_uris":{"android":"levelo://app?vid=d23bbd4b-7066-40e8-b2c7-f39cfac6ae26","ios":"levelo://app?vid=d23bbd4b-7066-40e8-b2c7-f39cfac6ae26"},"vehicle_type_id":"4","last_reported":1729807740,"current_range_meters":3600,"station_id":"ce4bhoh2rcd13ifvqh5g","pricing_plan_id":"cebpf4jnsgd1na2vs0mg"},{"bike_id":"02b88303-f07a-410b-8e09-9fbc37dda972","system_id":"levelo_inurba_marseille","lat":43.31068,"lon":5.38345,"is_reserved":false,"is_disabled":false,"rental_uris":{"android":"levelo://app?vid=02b88303-f07a-410b-8e09-9fbc37dda972","ios":"levelo://app?vid=02b88303-f07a-410b-8e09-9fbc37dda972"},"vehicle_type_id":"4","last_reported":1729807740,"current_range_meters":38800,"station_id":"ce4bgv92rcd13ifvqcr0","pricing_plan_id":"cebpf4jnsgd1na2vs0mg"},{"bike_id":"0305f07b-3d86-40ef-b6b1-15fef9ab5479","system_id":"levelo_inurba_marseille","lat":43.23962,"lon":5.36628,"is_reserved":false,"is_disabled":false,"rental_uris":{"android":"levelo://app?vid=0305f07b-3d86-40ef-b6b1-15fef9ab5479","ios":"levelo://app?vid=0305f07b-3d86-40ef-b6b1-15fef9ab5479"},"vehicle_type_id":"4","last_reported":1729807740,"current_range_meters":20800,"station_id":"ce4bhi12rcd13ifvqfp0","pricing_plan_id":"cebpf4jnsgd1na2vs0mg"},{"bike_id":"5134f3b1-3ef2-40bd-bb7b-0664f2444bbd","system_id":"levelo_inurba_marseille","lat":43.32049,"lon":5.41563,"is_reserved":false,"is_disabled":false,"rental_uris":{"android":"levelo://app?vid=5134f3b1-3ef2-40bd-bb7b-0664f2444bbd","ios":"levelo://app?vid=5134f3b1-3ef2-40bd-bb7b-0664f2444bbd"},"vehicle_type_id":"4","last_reported":1729807740,"current_range_meters":38800,"station_id":"ce4bhq92rcd13ifvqhkg","pricing_plan_id":"cebpf4jnsgd1na2vs0mg"},{"bike_id":"b127b2b4-729c-4a0b-820c-f99fb01ed4db","system_id":"levelo_inurba_marseille","lat":43.24181,"lon":5.39733,"is_reserved":false,"is_disabled":false,"rental_uris":{"android":"levelo://app?vid=b127b2b4-729c-4a0b-820c-f99fb01ed4db","ios":"levelo://app?vid=b127b2b4-729c-4a0b-820c-f99fb01ed4db"},"vehicle_type_id":"4","last_reported":1729807740,"current_range_meters":7200,"station_id":"ce4bhn12rcd13ifvqgpg","pricing_plan_id":"cebpf4jnsgd1na2vs0mg"},{"bike_id":"408d48c7-1ac8-43cc-829a-0b00e4e3a502","system_id":"levelo_inurba_marseille","lat":43.30793,"lon":5.38164,"is_reserved":false,"is_disabled":false,"rental_uris":{"android":"levelo://app?vid=408d48c7-1ac8-43cc-829a-0b00e4e3a502","ios":"levelo://app?vid=408d48c7-1ac8-43cc-829a-0b00e4e3a502"},"vehicle_type_id":"4","last_reported":1729807740,"current_range_meters":8800,"station_id":"ce4bgt12rcd13ifvqce0","pricing_plan_id":"cebpf4jnsgd1na2vs0mg"},{"bike_id":"2935a762-c10b-49ed-8ef8-e08fa8b0b521","system_id":"levelo_inurba_marseille","lat":43.2438,"lon":5.37057,"is_reserved":false,"is_disabled":false,"rental_uris":{"android":"levelo://app?vid=2935a762-c10b-49ed-8ef8-e08fa8b0b521","ios":"levelo://app?vid=2935a762-c10b-49ed-8ef8-e08fa8b0b521"},"vehicle_type_id":"4","last_reported":1729807740,"current_range_meters":38800,"station_id":"ce4bhhh2rcd13ifvqfk0","pricing_plan_id":"cebpf4jnsgd1na2vs0mg"},{"bike_id":"15a72434-6c63-4059-a6c9-0dd3a19b7eb4","system_id":"levelo_inurba_marseille","lat":43.24663,"lon":5.38162,"is_reserved":false,"is_disabled":false,"rental_uris":{"android":"levelo://app?vid=15a72434-6c63-4059-a6c9-0dd3a19b7eb4","ios":"levelo://app?vid=15a72434-6c63-4059-a6c9-0dd3a19b7eb4"},"vehicle_type_id":"4","last_reported":1729807740,"current_range_meters":18000,"station_id":"ce4bhih2rcd13ifvqfr0","pricing_plan_id":"cebpf4jnsgd1na2vs0mg"},{"bike_id":"6d175cf7-9949-4c28-9d53-46df11fd0dbf","system_id":"levelo_inurba_marseille","lat":43.30326,"lon":5.40434,"is_reserved":false,"is_disabled":false,"rental_uris":{"android":"levelo://app?vid=6d175cf7-9949-4c28-9d53-46df11fd0dbf","ios":"levelo://app?vid=6d175cf7-9949-4c28-9d53-46df11fd0dbf"},"vehicle_type_id":"4","last_reported":1729807740,"current_range_meters":38800,"station_id":"ce4bh012rcd13ifvqd10","pricing_plan_id":"cebpf4jnsgd1na2vs0mg"},{"bike_id":"378a3403-d96c-4cc5-97b0-67102ea47686","system_id":"levelo_inurba_marseille","lat":43.31115,"lon":5.37757,"is_reserved":false,"is_disabled":false,"rental_uris":{"android":"levelo://app?vid=378a3403-d96c-4cc5-97b0-67102ea47686","ios":"levelo://app?vid=378a3403-d96c-4cc5-97b0-67102ea47686"},"vehicle_type_id":"4","last_reported":1729807740,"current_range_meters":32800,"station_id":"ce4bgt92rcd13ifvqcg0","pricing_plan_id":"cebpf4jnsgd1na2vs0mg"},{"bike_id":"d8baf404-58b3-4cf8-bcf7-a6dbe086a9d9","system_id":"levelo_inurba_marseille","lat":43.29048,"lon":5.35916,"is_reserved":false,"is_disabled":false,"rental_uris":{"android":"levelo://app?vid=d8baf404-58b3-4cf8-bcf7-a6dbe086a9d9","ios":"levelo://app?vid=d8baf404-58b3-4cf8-bcf7-a6dbe086a9d9"},"vehicle_type_id":"4","last_reported":1729807740,"current_range_meters":21600,"station_id":"ce4bha92rcd13ifvqeg0","pricing_plan_id":"cebpf4jnsgd1na2vs0mg"},{"bike_id":"7a39ac62-f73e-405f-baad-436efacf2521","system_id":"levelo_inurba_marseille","lat":43.27078,"lon":5.42276,"is_reserved":false,"is_disabled":false,"rental_uris":{"android":"levelo://app?vid=7a39ac62-f73e-405f-baad-436efacf2521","ios":"levelo://app?vid=7a39ac62-f73e-405f-baad-436efacf2521"},"vehicle_type_id":"4","last_reported":1729807740,"current_range_meters":28800,"station_id":"ce4bhk92rcd13ifvqgb0","pricing_plan_id":"cebpf4jnsgd1na2vs0mg"},{"bike_id":"168ce59f-7232-4a4c-8b60-f377b80b4cfd","system_id":"levelo_inurba_marseille","lat":43.29719,"lon":5.36618,"is_reserved":false,"is_disabled":false,"rental_uris":{"android":"levelo://app?vid=168ce59f-7232-4a4c-8b60-f377b80b4cfd","ios":"levelo://app?vid=168ce59f-7232-4a4c-8b60-f377b80b4cfd"},"vehicle_type_id":"4","last_reported":1729807740,"current_range_meters":33600,"station_id":"ce4bgn12rcd13ifvqbt0","pricing_plan_id":"cebpf4jnsgd1na2vs0mg"},{"bike_id":"e130cf78-8420-42ef-935c-589ad91611cf","system_id":"levelo_inurba_marseille","lat":43.32658,"lon":5.40995,"is_reserved":false,"is_disabled":false,"rental_uris":{"android":"levelo://app?vid=e130cf78-8420-42ef-935c-589ad91611cf","ios":"levelo://app?vid=e130cf78-8420-42ef-935c-589ad91611cf"},"vehicle_type_id":"4","last_reported":1729807740,"current_range_meters":35600,"station_id":"ce4bhpp2rcd13ifvqhgg","pricing_plan_id":"cebpf4jnsgd1na2vs0mg"},{"bike_id":"83b93c0d-fd1e-413e-9772-9048be31d163","system_id":"levelo_inurba_marseille","lat":43.31706,"lon":5.37661,"is_reserved":false,"is_disabled":false,"rental_uris":{"android":"levelo://app?vid=83b93c0d-fd1e-413e-9772-9048be31d163","ios":"levelo://app?vid=83b93c0d-fd1e-413e-9772-9048be31d163"},"vehicle_type_id":"4","last_reported":1729807740,"current_range_meters":3200,"station_id":"","pricing_plan_id":"cebpf4jnsgd1na2vs0mg"},{"bike_id":"199178e9-cff7-44d0-aa78-edab9c52e715","system_id":"levelo_inurba_marseille","lat":43.26683,"lon":5.38271,"is_reserved":false,"is_disabled":false,"rental_uris":{"android":"levelo://app?vid=199178e9-cff7-44d0-aa78-edab9c52e715","ios":"levelo://app?vid=199178e9-cff7-44d0-aa78-edab9c52e715"},"vehicle_type_id":"4","last_reported":1729807740,"current_range_meters":37600,"station_id":"ce4bhg92rcd13ifvqf90","pricing_plan_id":"cebpf4jnsgd1na2vs0mg"},{"bike_id":"784dd773-f509-4455-843a-8e8b8177e5e1","system_id":"levelo_inurba_marseille","lat":43.31699,"lon":5.37766,"is_reserved":false,"is_disabled":false,"rental_uris":{"android":"levelo://app?vid=784dd773-f509-4455-843a-8e8b8177e5e1","ios":"levelo://app?vid=784dd773-f509-4455-843a-8e8b8177e5e1"},"vehicle_type_id":"4","last_reported":1729807740,"current_range_meters":8000,"station_id":"ce4bgth2rcd13ifvqch0","pricing_plan_id":"cebpf4jnsgd1na2vs0mg"},{"bike_id":"123bba5e-f5a9-4d52-bf87-981f8dbc6f9b","system_id":"levelo_inurba_marseille","lat":43.28697,"lon":5.39978,"is_reserved":false,"is_disabled":false,"rental_uris":{"android":"levelo://app?vid=123bba5e-f5a9-4d52-bf87-981f8dbc6f9b","ios":"levelo://app?vid=123bba5e-f5a9-4d52-bf87-981f8dbc6f9b"},"vehicle_type_id":"4","last_reported":1729807740,"current_range_meters":16800,"station_id":"ce4bho92rcd13ifvqh3g","pricing_plan_id":"cebpf4jnsgd1na2vs0mg"},{"bike_id":"3c877646-9bd0-4b26-8907-0eb1cd28dfd3","system_id":"levelo_inurba_marseille","lat":43.25119,"lon":5.40316,"is_reserved":false,"is_disabled":false,"rental_uris":{"android":"levelo://app?vid=3c877646-9bd0-4b26-8907-0eb1cd28dfd3","ios":"levelo://app?vid=3c877646-9bd0-4b26-8907-0eb1cd28dfd3"},"vehicle_type_id":"4","last_reported":1729807740,"current_range_meters":26000,"station_id":"ce4bhlh2rcd13ifvqgig","pricing_plan_id":"cebpf4jnsgd1na2vs0mg"},{"bike_id":"13c003de-e52a-4df0-ad66-2577baee70d6","system_id":"levelo_inurba_marseille","lat":43.26547,"lon":5.37289,"is_reserved":false,"is_disabled":false,"rental_uris":{"android":"levelo://app?vid=13c003de-e52a-4df0-ad66-2577baee70d6","ios":"levelo://app?vid=13c003de-e52a-4df0-ad66-2577baee70d6"},"vehicle_type_id":"4","last_reported":1729807740,"current_range_meters":36400,"station_id":"ce4bhg12rcd13ifvqf70","pricing_plan_id":"cebpf4jnsgd1na2vs0mg"},{"bike_id":"4ff35d29-41bb-4249-a10c-ef4088f09d44","system_id":"levelo_inurba_marseille","lat":43.28266,"lon":5.35063,"is_reserved":false,"is_disabled":false,"rental_uris":{"android":"levelo://app?vid=4ff35d29-41bb-4249-a10c-ef4088f09d44","ios":"levelo://app?vid=4ff35d29-41bb-4249-a10c-ef4088f09d44"},"vehicle_type_id":"4","last_reported":1729807740,"current_range_meters":27200,"station_id":"ce4bhbp2rcd13ifvqerg","pricing_plan_id":"cebpf4jnsgd1na2vs0mg"},{"bike_id":"b14469e7-14d7-470d-b35b-6eeab8810b5f","system_id":"levelo_inurba_marseille","lat":43.27058,"lon":5.40265,"is_reserved":false,"is_disabled":false,"rental_uris":{"android":"levelo://app?vid=b14469e7-14d7-470d-b35b-6eeab8810b5f","ios":"levelo://app?vid=b14469e7-14d7-470d-b35b-6eeab8810b5f"},"vehicle_type_id":"4","last_reported":1729807740,"current_range_meters":17600,"station_id":"ce4bhk92rcd13ifvqgc0","pricing_plan_id":"cebpf4jnsgd1na2vs0mg"},{"bike_id":"58ddb80b-166e-4e4e-83db-b9284e31a595","system_id":"levelo_inurba_marseille","lat":43.24185,"lon":5.39732,"is_reserved":false,"is_disabled":false,"rental_uris":{"android":"levelo://app?vid=58ddb80b-166e-4e4e-83db-b9284e31a595","ios":"levelo://app?vid=58ddb80b-166e-4e4e-83db-b9284e31a595"},"vehicle_type_id":"4","last_reported":1729807740,"current_range_meters":38800,"station_id":"ce4bhn12rcd13ifvqgpg","pricing_plan_id":"cebpf4jnsgd1na2vs0mg"},{"bike_id":"bf97eae4-8695-45a6-8087-7f8c48b0b7a5","system_id":"levelo_inurba_marseille","lat":43.28717,"lon":5.37388,"is_reserved":false,"is_disabled":false,"rental_uris":{"android":"levelo://app?vid=bf97eae4-8695-45a6-8087-7f8c48b0b7a5","ios":"levelo://app?vid=bf97eae4-8695-45a6-8087-7f8c48b0b7a5"},"vehicle_type_id":"4","last_reported":1729807740,"current_range_meters":33600,"station_id":"ce4bh3p2rcd13ifvqdq0","pricing_plan_id":"cebpf4jnsgd1na2vs0mg"},{"bike_id":"c699bfea-a87d-4871-997b-6c02b39db11e","system_id":"levelo_inurba_marseille","lat":43.292084,"lon":5.372796,"is_reserved":false,"is_disabled":false,"rental_uris":{"android":"levelo://app?vid=c699bfea-a87d-4871-997b-6c02b39db11e","ios":"levelo://app?vid=c699bfea-a87d-4871-997b-6c02b39db11e"},"vehicle_type_id":"4","last_reported":1729807740,"current_range_meters":16400,"station_id":"","pricing_plan_id":"cebpf4jnsgd1na2vs0mg"},{"bike_id":"46e85f9c-1bad-4940-8580-20c0eeba5600","system_id":"levelo_inurba_marseille","lat":43.32348,"lon":5.40617,"is_reserved":false,"is_disabled":false,"rental_uris":{"android":"levelo://app?vid=46e85f9c-1bad-4940-8580-20c0eeba5600","ios":"levelo://app?vid=46e85f9c-1bad-4940-8580-20c0eeba5600"},"vehicle_type_id":"4","last_reported":1729807740,"current_range_meters":38800,"station_id":"ce4bhq92rcd13ifvqhjg","pricing_plan_id":"cebpf4jnsgd1na2vs0mg"},{"bike_id":"ce3eef46-b9e3-41dc-9130-106cb5f09144","system_id":"levelo_inurba_marseille","lat":43.24661,"lon":5.389,"is_reserved":false,"is_disabled":false,"rental_uris":{"android":"levelo://app?vid=ce3eef46-b9e3-41dc-9130-106cb5f09144","ios":"levelo://app?vid=ce3eef46-b9e3-41dc-9130-106cb5f09144"},"vehicle_type_id":"4","last_reported":1729807740,"current_range_meters":40000,"station_id":"ce4bhg12rcd13ifvqf60","pricing_plan_id":"cebpf4jnsgd1na2vs0mg"},{"bike_id":"c52d12be-84a7-4a5c-b424-7828dfe263f6","system_id":"levelo_inurba_marseille","lat":43.28658,"lon":5.3636,"is_reserved":false,"is_disabled":false,"rental_uris":{"android":"levelo://app?vid=c52d12be-84a7-4a5c-b424-7828dfe263f6","ios":"levelo://app?vid=c52d12be-84a7-4a5c-b424-7828dfe263f6"},"vehicle_type_id":"4","last_reported":1729807740,"current_range_meters":35600,"station_id":"ce4bhah2rcd13ifvqej0","pricing_plan_id":"cebpf4jnsgd1na2vs0mg"},{"bike_id":"db4563b7-60a1-4569-b885-83129a5856ac","system_id":"levelo_inurba_marseille","lat":43.28978,"lon":5.37834,"is_reserved":false,"is_disabled":false,"rental_uris":{"android":"levelo://app?vid=db4563b7-60a1-4569-b885-83129a5856ac","ios":"levelo://app?vid=db4563b7-60a1-4569-b885-83129a5856ac"},"vehicle_type_id":"4","last_reported":1729807740,"current_range_meters":16000,"station_id":"ce4bh9p2rcd13ifvqed0","pricing_plan_id":"cebpf4jnsgd1na2vs0mg"},{"bike_id":"5dc9995f-64d3-479c-9285-1b773f60e54b","system_id":"levelo_inurba_marseille","lat":43.27829,"lon":5.39211,"is_reserved":false,"is_disabled":false,"rental_uris":{"android":"levelo://app?vid=5dc9995f-64d3-479c-9285-1b773f60e54b","ios":"levelo://app?vid=5dc9995f-64d3-479c-9285-1b773f60e54b"},"vehicle_type_id":"4","last_reported":1729807740,"current_range_meters":37600,"station_id":"ce4bhjp2rcd13ifvqga0","pricing_plan_id":"cebpf4jnsgd1na2vs0mg"},{"bike_id":"97ce6431-cdfe-4c86-8575-534875aed7f5","system_id":"levelo_inurba_marseille","lat":43.3053,"lon":5.36659,"is_reserved":false,"is_disabled":false,"rental_uris":{"android":"levelo://app?vid=97ce6431-cdfe-4c86-8575-534875aed7f5","ios":"levelo://app?vid=97ce6431-cdfe-4c86-8575-534875aed7f5"},"vehicle_type_id":"4","last_reported":1729807740,"current_range_meters":5600,"station_id":"","pricing_plan_id":"cebpf4jnsgd1na2vs0mg"},{"bike_id":"4d217311-81f7-41c2-94f3-1a941de93f8e","system_id":"levelo_inurba_marseille","lat":43.28282,"lon":5.35073,"is_reserved":false,"is_disabled":false,"rental_uris":{"android":"levelo://app?vid=4d217311-81f7-41c2-94f3-1a941de93f8e","ios":"levelo://app?vid=4d217311-81f7-41c2-94f3-1a941de93f8e"},"vehicle_type_id":"4","last_reported":1729807740,"current_range_meters":38800,"station_id":"ce4bhbp2rcd13ifvqerg","pricing_plan_id":"cebpf4jnsgd1na2vs0mg"},{"bike_id":"584ba155-fd9b-4340-8649-f5090abaa5db","system_id":"levelo_inurba_marseille","lat":43.29079,"lon":5.37153,"is_reserved":false,"is_disabled":false,"rental_uris":{"android":"levelo://app?vid=584ba155-fd9b-4340-8649-f5090abaa5db","ios":"levelo://app?vid=584ba155-fd9b-4340-8649-f5090abaa5db"},"vehicle_type_id":"4","last_reported":1729807740,"current_range_meters":38400,"station_id":"ce4bh5p2rcd13ifvqe4g","pricing_plan_id":"cebpf4jnsgd1na2vs0mg"},{"bike_id":"ae543776-75ee-42a8-a677-3e246bf772ec","system_id":"levelo_inurba_marseille","lat":43.31717,"lon":5.43705,"is_reserved":false,"is_disabled":false,"rental_uris":{"android":"levelo://app?vid=ae543776-75ee-42a8-a677-3e246bf772ec","ios":"levelo://app?vid=ae543776-75ee-42a8-a677-3e246bf772ec"},"vehicle_type_id":"4","last_reported":1729807740,"current_range_meters":6800,"station_id":"ce4bhp92rcd13ifvqhcg","pricing_plan_id":"cebpf4jnsgd1na2vs0mg"},{"bike_id":"ab70e7fa-07d0-4cae-9176-ecad8d5f33d9","system_id":"levelo_inurba_marseille","lat":43.28708,"lon":5.37391,"is_reserved":false,"is_disabled":false,"rental_uris":{"android":"levelo://app?vid=ab70e7fa-07d0-4cae-9176-ecad8d5f33d9","ios":"levelo://app?vid=ab70e7fa-07d0-4cae-9176-ecad8d5f33d9"},"vehicle_type_id":"4","last_reported":1729807740,"current_range_meters":30400,"station_id":"ce4bh3p2rcd13ifvqdq0","pricing_plan_id":"cebpf4jnsgd1na2vs0mg"},{"bike_id":"334e9050-29c3-43a0-b2bb-4fc7f06bf291","system_id":"levelo_inurba_marseille","lat":43.2465,"lon":5.38894,"is_reserved":false,"is_disabled":false,"rental_uris":{"android":"levelo://app?vid=334e9050-29c3-43a0-b2bb-4fc7f06bf291","ios":"levelo://app?vid=334e9050-29c3-43a0-b2bb-4fc7f06bf291"},"vehicle_type_id":"4","last_reported":1729807740,"current_range_meters":39200,"station_id":"ce4bhg12rcd13ifvqf60","pricing_plan_id":"cebpf4jnsgd1na2vs0mg"},{"bike_id":"3416557b-1536-448a-ac57-bb27af24b942","system_id":"levelo_inurba_marseille","lat":43.33727,"lon":5.39182,"is_reserved":false,"is_disabled":false,"rental_uris":{"android":"levelo://app?vid=3416557b-1536-448a-ac57-bb27af24b942","ios":"levelo://app?vid=3416557b-1536-448a-ac57-bb27af24b942"},"vehicle_type_id":"4","last_reported":1729807740,"current_range_meters":18000,"station_id":"ce4bhr92rcd13ifvqhsg","pricing_plan_id":"cebpf4jnsgd1na2vs0mg"},{"bike_id":"2d1b63b8-5b7d-4d13-afca-995f86ce45eb","system_id":"levelo_inurba_marseille","lat":43.28665,"lon":5.36349,"is_reserved":false,"is_disabled":false,"rental_uris":{"android":"levelo://app?vid=2d1b63b8-5b7d-4d13-afca-995f86ce45eb","ios":"levelo://app?vid=2d1b63b8-5b7d-4d13-afca-995f86ce45eb"},"vehicle_type_id":"4","last_reported":1729807740,"current_range_meters":38800,"station_id":"ce4bhah2rcd13ifvqej0","pricing_plan_id":"cebpf4jnsgd1na2vs0mg"},{"bike_id":"70e1a8a7-658b-4362-8767-c157d871f93b","system_id":"levelo_inurba_marseille","lat":43.2293,"lon":5.35372,"is_reserved":false,"is_disabled":false,"rental_uris":{"android":"levelo://app?vid=70e1a8a7-658b-4362-8767-c157d871f93b","ios":"levelo://app?vid=70e1a8a7-658b-4362-8767-c157d871f93b"},"vehicle_type_id":"4","last_reported":1729807740,"current_range_meters":37600,"station_id":"cpo3532slgdg3j2ikp40","pricing_plan_id":"cebpf4jnsgd1na2vs0mg"},{"bike_id":"c47ee947-2909-41a5-bbe0-603cbb5c8694","system_id":"levelo_inurba_marseille","lat":43.27958,"lon":5.41048,"is_reserved":false,"is_disabled":false,"rental_uris":{"android":"levelo://app?vid=c47ee947-2909-41a5-bbe0-603cbb5c8694","ios":"levelo://app?vid=c47ee947-2909-41a5-bbe0-603cbb5c8694"},"vehicle_type_id":"4","last_reported":1729807740,"current_range_meters":16000,"station_id":"ce4bhnp2rcd13ifvqh0g","pricing_plan_id":"cebpf4jnsgd1na2vs0mg"},{"bike_id":"8486fe9d-9ef0-4e60-ba73-6eb6a17c52a8","system_id":"levelo_inurba_marseille","lat":43.31565,"lon":5.40561,"is_reserved":false,"is_disabled":false,"rental_uris":{"android":"levelo://app?vid=8486fe9d-9ef0-4e60-ba73-6eb6a17c52a8","ios":"levelo://app?vid=8486fe9d-9ef0-4e60-ba73-6eb6a17c52a8"},"vehicle_type_id":"4","last_reported":1729807740,"current_range_meters":11600,"station_id":"","pricing_plan_id":"cebpf4jnsgd1na2vs0mg"},{"bike_id":"172208e9-70cd-4b52-b8b5-db9312e32f6a","system_id":"levelo_inurba_marseille","lat":43.2454,"lon":5.39521,"is_reserved":false,"is_disabled":false,"rental_uris":{"android":"levelo://app?vid=172208e9-70cd-4b52-b8b5-db9312e32f6a","ios":"levelo://app?vid=172208e9-70cd-4b52-b8b5-db9312e32f6a"},"vehicle_type_id":"4","last_reported":1729807740,"current_range_meters":28000,"station_id":"ce4bhlp2rcd13ifvqgjg","pricing_plan_id":"cebpf4jnsgd1na2vs0mg"},{"bike_id":"dda4a36c-79b5-42cc-bd67-2abe044c6bd4","system_id":"levelo_inurba_marseille","lat":43.28612,"lon":5.35131,"is_reserved":false,"is_disabled":false,"rental_uris":{"android":"levelo://app?vid=dda4a36c-79b5-42cc-bd67-2abe044c6bd4","ios":"levelo://app?vid=dda4a36c-79b5-42cc-bd67-2abe044c6bd4"},"vehicle_type_id":"4","last_reported":1729807740,"current_range_meters":38400,"station_id":"ce4bhch2rcd13ifvqeug","pricing_plan_id":"cebpf4jnsgd1na2vs0mg"},{"bike_id":"06304668-8979-4129-9846-96409a09318b","system_id":"levelo_inurba_marseille","lat":43.285567,"lon":5.380833,"is_reserved":false,"is_disabled":false,"rental_uris":{"android":"levelo://app?vid=06304668-8979-4129-9846-96409a09318b","ios":"levelo://app?vid=06304668-8979-4129-9846-96409a09318b"},"vehicle_type_id":"4","last_reported":1729807740,"current_range_meters":15200,"station_id":"ce4bh9p2rcd13ifvqec0","pricing_plan_id":"cebpf4jnsgd1na2vs0mg"},{"bike_id":"5c9ca1bc-bff1-43d6-a60c-0d21fe59a63d","system_id":"levelo_inurba_marseille","lat":43.31076,"lon":5.38356,"is_reserved":false,"is_disabled":false,"rental_uris":{"android":"levelo://app?vid=5c9ca1bc-bff1-43d6-a60c-0d21fe59a63d","ios":"levelo://app?vid=5c9ca1bc-bff1-43d6-a60c-0d21fe59a63d"},"vehicle_type_id":"4","last_reported":1729807740,"current_range_meters":33600,"station_id":"ce4bgv92rcd13ifvqcr0","pricing_plan_id":"cebpf4jnsgd1na2vs0mg"},{"bike_id":"19ce95ff-4cb9-489d-88e8-f0dd6c1bac5d","system_id":"levelo_inurba_marseille","lat":43.24187,"lon":5.39734,"is_reserved":false,"is_disabled":false,"rental_uris":{"android":"levelo://app?vid=19ce95ff-4cb9-489d-88e8-f0dd6c1bac5d","ios":"levelo://app?vid=19ce95ff-4cb9-489d-88e8-f0dd6c1bac5d"},"vehicle_type_id":"4","last_reported":1729807740,"current_range_meters":16400,"station_id":"ce4bhn12rcd13ifvqgpg","pricing_plan_id":"cebpf4jnsgd1na2vs0mg"},{"bike_id":"d6b07a2e-2780-4a49-b6a3-18f516cc0458","system_id":"levelo_inurba_marseille","lat":43.28445,"lon":5.39195,"is_reserved":false,"is_disabled":false,"rental_uris":{"android":"levelo://app?vid=d6b07a2e-2780-4a49-b6a3-18f516cc0458","ios":"levelo://app?vid=d6b07a2e-2780-4a49-b6a3-18f516cc0458"},"vehicle_type_id":"4","last_reported":1729807740,"current_range_meters":40000,"station_id":"ce4bhoh2rcd13ifvqh5g","pricing_plan_id":"cebpf4jnsgd1na2vs0mg"},{"bike_id":"759075f6-19f5-44e8-83e7-108ff66d3ab5","system_id":"levelo_inurba_marseille","lat":43.31325,"lon":5.39709,"is_reserved":false,"is_disabled":false,"rental_uris":{"android":"levelo://app?vid=759075f6-19f5-44e8-83e7-108ff66d3ab5","ios":"levelo://app?vid=759075f6-19f5-44e8-83e7-108ff66d3ab5"},"vehicle_type_id":"4","last_reported":1729807740,"current_range_meters":30000,"station_id":"ce4bgvp2rcd13ifvqcu0","pricing_plan_id":"cebpf4jnsgd1na2vs0mg"},{"bike_id":"8a81d8aa-b8e8-4d59-8aec-731c562b08c0","system_id":"levelo_inurba_marseille","lat":43.24546,"lon":5.39525,"is_reserved":false,"is_disabled":false,"rental_uris":{"android":"levelo://app?vid=8a81d8aa-b8e8-4d59-8aec-731c562b08c0","ios":"levelo://app?vid=8a81d8aa-b8e8-4d59-8aec-731c562b08c0"},"vehicle_type_id":"4","last_reported":1729807740,"current_range_meters":39200,"station_id":"ce4bhlp2rcd13ifvqgjg","pricing_plan_id":"cebpf4jnsgd1na2vs0mg"},{"bike_id":"67449323-dba1-4f5f-94ad-8d67c84bea65","system_id":"levelo_inurba_marseille","lat":43.26939,"lon":5.40251,"is_reserved":false,"is_disabled":false,"rental_uris":{"android":"levelo://app?vid=67449323-dba1-4f5f-94ad-8d67c84bea65","ios":"levelo://app?vid=67449323-dba1-4f5f-94ad-8d67c84bea65"},"vehicle_type_id":"4","last_reported":1729807740,"current_range_meters":8800,"station_id":"cjm6bp8fraef2m0cb0m0","pricing_plan_id":"cebpf4jnsgd1na2vs0mg"},{"bike_id":"75ee64f1-76d9-4853-8e44-c4621da65cda","system_id":"levelo_inurba_marseille","lat":43.28618,"lon":5.35104,"is_reserved":false,"is_disabled":false,"rental_uris":{"android":"levelo://app?vid=75ee64f1-76d9-4853-8e44-c4621da65cda","ios":"levelo://app?vid=75ee64f1-76d9-4853-8e44-c4621da65cda"},"vehicle_type_id":"4","last_reported":1729807740,"current_range_meters":27200,"station_id":"ce4bhch2rcd13ifvqeug","pricing_plan_id":"cebpf4jnsgd1na2vs0mg"},{"bike_id":"b5db9d88-0699-44c3-b53c-11af6517e201","system_id":"levelo_inurba_marseille","lat":43.29874,"lon":5.39738,"is_reserved":false,"is_disabled":false,"rental_uris":{"android":"levelo://app?vid=b5db9d88-0699-44c3-b53c-11af6517e201","ios":"levelo://app?vid=b5db9d88-0699-44c3-b53c-11af6517e201"},"vehicle_type_id":"4","last_reported":1729807740,"current_range_meters":16400,"station_id":"ce4bh0h2rcd13ifvqd50","pricing_plan_id":"cebpf4jnsgd1na2vs0mg"},{"bike_id":"e99b668b-6834-4832-8aab-9b650a016312","system_id":"levelo_inurba_marseille","lat":43.26951,"lon":5.4025,"is_reserved":false,"is_disabled":false,"rental_uris":{"android":"levelo://app?vid=e99b668b-6834-4832-8aab-9b650a016312","ios":"levelo://app?vid=e99b668b-6834-4832-8aab-9b650a016312"},"vehicle_type_id":"4","last_reported":1729807740,"current_range_meters":18800,"station_id":"cjm6bp8fraef2m0cb0m0","pricing_plan_id":"cebpf4jnsgd1na2vs0mg"},{"bike_id":"933557ef-e951-4c8f-adab-063805190575","system_id":"levelo_inurba_marseille","lat":43.27496,"lon":5.42449,"is_reserved":false,"is_disabled":false,"rental_uris":{"android":"levelo://app?vid=933557ef-e951-4c8f-adab-063805190575","ios":"levelo://app?vid=933557ef-e951-4c8f-adab-063805190575"},"vehicle_type_id":"4","last_reported":1729807740,"current_range_meters":25200,"station_id":"ce4bhn92rcd13ifvqgrg","pricing_plan_id":"cebpf4jnsgd1na2vs0mg"},{"bike_id":"b5092dab-0958-4b93-8d9d-8a9df626b28c","system_id":"levelo_inurba_marseille","lat":43.25736,"lon":5.41108,"is_reserved":false,"is_disabled":false,"rental_uris":{"android":"levelo://app?vid=b5092dab-0958-4b93-8d9d-8a9df626b28c","ios":"levelo://app?vid=b5092dab-0958-4b93-8d9d-8a9df626b28c"},"vehicle_type_id":"4","last_reported":1729807740,"current_range_meters":28400,"station_id":"ce4bhkp2rcd13ifvqgd0","pricing_plan_id":"cebpf4jnsgd1na2vs0mg"},{"bike_id":"588d9fda-2b5f-423c-a040-b5ef24351dea","system_id":"levelo_inurba_marseille","lat":43.26037,"lon":5.3755,"is_reserved":false,"is_disabled":false,"rental_uris":{"android":"levelo://app?vid=588d9fda-2b5f-423c-a040-b5ef24351dea","ios":"levelo://app?vid=588d9fda-2b5f-423c-a040-b5ef24351dea"},"vehicle_type_id":"4","last_reported":1729807740,"current_range_meters":30400,"station_id":"ce4bhgh2rcd13ifvqfa0","pricing_plan_id":"cebpf4jnsgd1na2vs0mg"},{"bike_id":"797c7c2f-8e5b-4da8-a3dc-43bae184c07f","system_id":"levelo_inurba_marseille","lat":43.29004,"lon":5.35608,"is_reserved":false,"is_disabled":false,"rental_uris":{"android":"levelo://app?vid=797c7c2f-8e5b-4da8-a3dc-43bae184c07f","ios":"levelo://app?vid=797c7c2f-8e5b-4da8-a3dc-43bae184c07f"},"vehicle_type_id":"4","last_reported":1729807740,"current_range_meters":8400,"station_id":"ce4bhb92rcd13ifvqen0","pricing_plan_id":"cebpf4jnsgd1na2vs0mg"},{"bike_id":"be8fbca4-3dcd-4e0e-96d2-8c570f59713c","system_id":"levelo_inurba_marseille","lat":43.32491,"lon":5.36557,"is_reserved":false,"is_disabled":false,"rental_uris":{"android":"levelo://app?vid=be8fbca4-3dcd-4e0e-96d2-8c570f59713c","ios":"levelo://app?vid=be8fbca4-3dcd-4e0e-96d2-8c570f59713c"},"vehicle_type_id":"4","last_reported":1729807740,"current_range_meters":22800,"station_id":"ce4bhs12rcd13ifvqhvg","pricing_plan_id":"cebpf4jnsgd1na2vs0mg"},{"bike_id":"6680e907-05f3-4514-8cfd-b6faae300838","system_id":"levelo_inurba_marseille","lat":43.29977,"lon":5.38501,"is_reserved":false,"is_disabled":false,"rental_uris":{"android":"levelo://app?vid=6680e907-05f3-4514-8cfd-b6faae300838","ios":"levelo://app?vid=6680e907-05f3-4514-8cfd-b6faae300838"},"vehicle_type_id":"4","last_reported":1729807740,"current_range_meters":38800,"station_id":"ce4bgj92rcd13ifvqbd0","pricing_plan_id":"cebpf4jnsgd1na2vs0mg"},{"bike_id":"2c83906e-34b2-4de1-a842-6d257980343c","system_id":"levelo_inurba_marseille","lat":43.32318,"lon":5.38874,"is_reserved":false,"is_disabled":false,"rental_uris":{"android":"levelo://app?vid=2c83906e-34b2-4de1-a842-6d257980343c","ios":"levelo://app?vid=2c83906e-34b2-4de1-a842-6d257980343c"},"vehicle_type_id":"4","last_reported":1729807740,"current_range_meters":16400,"station_id":"ce4bhqp2rcd13ifvqhog","pricing_plan_id":"cebpf4jnsgd1na2vs0mg"},{"bike_id":"f6a0b76a-a003-4830-9be9-66274ad91ac1","system_id":"levelo_inurba_marseille","lat":43.28031,"lon":5.36949,"is_reserved":false,"is_disabled":false,"rental_uris":{"android":"levelo://app?vid=f6a0b76a-a003-4830-9be9-66274ad91ac1","ios":"levelo://app?vid=f6a0b76a-a003-4830-9be9-66274ad91ac1"},"vehicle_type_id":"4","last_reported":1729807740,"current_range_meters":33600,"station_id":"ce4bha12rcd13ifvqef0","pricing_plan_id":"cebpf4jnsgd1na2vs0mg"},{"bike_id":"0598bd07-3bee-4d92-93d6-6c1fccfbde94","system_id":"levelo_inurba_marseille","lat":43.28708,"lon":5.37393,"is_reserved":false,"is_disabled":false,"rental_uris":{"android":"levelo://app?vid=0598bd07-3bee-4d92-93d6-6c1fccfbde94","ios":"levelo://app?vid=0598bd07-3bee-4d92-93d6-6c1fccfbde94"},"vehicle_type_id":"4","last_reported":1729807740,"current_range_meters":33200,"station_id":"ce4bh3p2rcd13ifvqdq0","pricing_plan_id":"cebpf4jnsgd1na2vs0mg"},{"bike_id":"a41d3bb8-558d-4841-8839-04a68cf59693","system_id":"levelo_inurba_marseille","lat":43.2926,"lon":5.40908,"is_reserved":false,"is_disabled":false,"rental_uris":{"android":"levelo://app?vid=a41d3bb8-558d-4841-8839-04a68cf59693","ios":"levelo://app?vid=a41d3bb8-558d-4841-8839-04a68cf59693"},"vehicle_type_id":"4","last_reported":1729807740,"current_range_meters":22800,"station_id":"ce4bh192rcd13ifvqdc0","pricing_plan_id":"cebpf4jnsgd1na2vs0mg"},{"bike_id":"1b95b40c-622e-4262-aedf-502366ac096f","system_id":"levelo_inurba_marseille","lat":43.28407,"lon":5.3751,"is_reserved":false,"is_disabled":false,"rental_uris":{"android":"levelo://app?vid=1b95b40c-622e-4262-aedf-502366ac096f","ios":"levelo://app?vid=1b95b40c-622e-4262-aedf-502366ac096f"},"vehicle_type_id":"4","last_reported":1729807740,"current_range_meters":36000,"station_id":"ce4bh412rcd13ifvqds0","pricing_plan_id":"cebpf4jnsgd1na2vs0mg"},{"bike_id":"87ebe34b-a6a0-4a0e-8406-5523611e8f5f","system_id":"levelo_inurba_marseille","lat":43.28441,"lon":5.39193,"is_reserved":false,"is_disabled":false,"rental_uris":{"android":"levelo://app?vid=87ebe34b-a6a0-4a0e-8406-5523611e8f5f","ios":"levelo://app?vid=87ebe34b-a6a0-4a0e-8406-5523611e8f5f"},"vehicle_type_id":"4","last_reported":1729807740,"current_range_meters":38800,"station_id":"ce4bhoh2rcd13ifvqh5g","pricing_plan_id":"cebpf4jnsgd1na2vs0mg"},{"bike_id":"c3e18176-e81d-4aa1-8a56-868d9d37a194","system_id":"levelo_inurba_marseille","lat":43.31721,"lon":5.37753,"is_reserved":false,"is_disabled":false,"rental_uris":{"android":"levelo://app?vid=c3e18176-e81d-4aa1-8a56-868d9d37a194","ios":"levelo://app?vid=c3e18176-e81d-4aa1-8a56-868d9d37a194"},"vehicle_type_id":"4","last_reported":1729807740,"current_range_meters":38400,"station_id":"ce4bgth2rcd13ifvqch0","pricing_plan_id":"cebpf4jnsgd1na2vs0mg"},{"bike_id":"b61cefd2-fed3-4f97-84e8-7ef8927a4308","system_id":"levelo_inurba_marseille","lat":43.30322,"lon":5.40438,"is_reserved":false,"is_disabled":false,"rental_uris":{"android":"levelo://app?vid=b61cefd2-fed3-4f97-84e8-7ef8927a4308","ios":"levelo://app?vid=b61cefd2-fed3-4f97-84e8-7ef8927a4308"},"vehicle_type_id":"4","last_reported":1729807740,"current_range_meters":38000,"station_id":"ce4bh012rcd13ifvqd10","pricing_plan_id":"cebpf4jnsgd1na2vs0mg"},{"bike_id":"70d78abf-97dd-4b84-9d48-1abe981bdd92","system_id":"levelo_inurba_marseille","lat":43.29881,"lon":5.39727,"is_reserved":false,"is_disabled":false,"rental_uris":{"android":"levelo://app?vid=70d78abf-97dd-4b84-9d48-1abe981bdd92","ios":"levelo://app?vid=70d78abf-97dd-4b84-9d48-1abe981bdd92"},"vehicle_type_id":"4","last_reported":1729807740,"current_range_meters":21600,"station_id":"ce4bh0h2rcd13ifvqd50","pricing_plan_id":"cebpf4jnsgd1na2vs0mg"},{"bike_id":"405ff4c5-9944-404b-b6ae-6ae137886c6a","system_id":"levelo_inurba_marseille","lat":43.3133,"lon":5.39692,"is_reserved":false,"is_disabled":false,"rental_uris":{"android":"levelo://app?vid=405ff4c5-9944-404b-b6ae-6ae137886c6a","ios":"levelo://app?vid=405ff4c5-9944-404b-b6ae-6ae137886c6a"},"vehicle_type_id":"4","last_reported":1729807740,"current_range_meters":34000,"station_id":"ce4bgvp2rcd13ifvqcu0","pricing_plan_id":"cebpf4jnsgd1na2vs0mg"},{"bike_id":"7b609f7d-3ffe-42df-9f54-70980890d97e","system_id":"levelo_inurba_marseille","lat":43.286224,"lon":5.383231,"is_reserved":false,"is_disabled":false,"rental_uris":{"android":"levelo://app?vid=7b609f7d-3ffe-42df-9f54-70980890d97e","ios":"levelo://app?vid=7b609f7d-3ffe-42df-9f54-70980890d97e"},"vehicle_type_id":"4","last_reported":1729807740,"current_range_meters":17600,"station_id":"ce4bh512rcd13ifvqe3g","pricing_plan_id":"cebpf4jnsgd1na2vs0mg"},{"bike_id":"a678a84f-0550-4240-b17d-5b7a54ed58a5","system_id":"levelo_inurba_marseille","lat":43.27826,"lon":5.40712,"is_reserved":false,"is_disabled":false,"rental_uris":{"android":"levelo://app?vid=a678a84f-0550-4240-b17d-5b7a54ed58a5","ios":"levelo://app?vid=a678a84f-0550-4240-b17d-5b7a54ed58a5"},"vehicle_type_id":"4","last_reported":1729807740,"current_range_meters":38000,"station_id":"ce4bhnh2rcd13ifvqgtg","pricing_plan_id":"cebpf4jnsgd1na2vs0mg"},{"bike_id":"e0b5d96e-a9a7-4858-aac7-c793dbfb134c","system_id":"levelo_inurba_marseille","lat":43.29797,"lon":5.38099,"is_reserved":false,"is_disabled":false,"rental_uris":{"android":"levelo://app?vid=e0b5d96e-a9a7-4858-aac7-c793dbfb134c","ios":"levelo://app?vid=e0b5d96e-a9a7-4858-aac7-c793dbfb134c"},"vehicle_type_id":"4","last_reported":1729807740,"current_range_meters":38000,"station_id":"ce4bgip2rcd13ifvqbb0","pricing_plan_id":"cebpf4jnsgd1na2vs0mg"},{"bike_id":"1e5ebc58-345c-4df7-a882-f10636133dc0","system_id":"levelo_inurba_marseille","lat":43.28702,"lon":5.37384,"is_reserved":false,"is_disabled":false,"rental_uris":{"android":"levelo://app?vid=1e5ebc58-345c-4df7-a882-f10636133dc0","ios":"levelo://app?vid=1e5ebc58-345c-4df7-a882-f10636133dc0"},"vehicle_type_id":"4","last_reported":1729807740,"current_range_meters":30000,"station_id":"ce4bh3p2rcd13ifvqdq0","pricing_plan_id":"cebpf4jnsgd1na2vs0mg"},{"bike_id":"08008794-bb04-48f0-9908-2654e5a03c29","system_id":"levelo_inurba_marseille","lat":43.28441,"lon":5.3919,"is_reserved":false,"is_disabled":false,"rental_uris":{"android":"levelo://app?vid=08008794-bb04-48f0-9908-2654e5a03c29","ios":"levelo://app?vid=08008794-bb04-48f0-9908-2654e5a03c29"},"vehicle_type_id":"4","last_reported":1729807740,"current_range_meters":9600,"station_id":"ce4bhoh2rcd13ifvqh5g","pricing_plan_id":"cebpf4jnsgd1na2vs0mg"},{"bike_id":"99de67a5-21b2-46bc-9c8e-59e22dacab68","system_id":"levelo_inurba_marseille","lat":43.28845,"lon":5.35846,"is_reserved":false,"is_disabled":false,"rental_uris":{"android":"levelo://app?vid=99de67a5-21b2-46bc-9c8e-59e22dacab68","ios":"levelo://app?vid=99de67a5-21b2-46bc-9c8e-59e22dacab68"},"vehicle_type_id":"4","last_reported":1729807740,"current_range_meters":35200,"station_id":"ce4bhb12rcd13ifvqem0","pricing_plan_id":"cebpf4jnsgd1na2vs0mg"},{"bike_id":"f8c6f1bc-ea44-4ab8-b33c-f75f82cb071b","system_id":"levelo_inurba_marseille","lat":43.23185,"lon":5.39986,"is_reserved":false,"is_disabled":false,"rental_uris":{"android":"levelo://app?vid=f8c6f1bc-ea44-4ab8-b33c-f75f82cb071b","ios":"levelo://app?vid=f8c6f1bc-ea44-4ab8-b33c-f75f82cb071b"},"vehicle_type_id":"4","last_reported":1729807740,"current_range_meters":4400,"station_id":"ce4bhn12rcd13ifvqgqg","pricing_plan_id":"cebpf4jnsgd1na2vs0mg"},{"bike_id":"279f7cce-e044-4b6f-9069-0f35e7cc48aa","system_id":"levelo_inurba_marseille","lat":43.29566,"lon":5.39976,"is_reserved":false,"is_disabled":false,"rental_uris":{"android":"levelo://app?vid=279f7cce-e044-4b6f-9069-0f35e7cc48aa","ios":"levelo://app?vid=279f7cce-e044-4b6f-9069-0f35e7cc48aa"},"vehicle_type_id":"4","last_reported":1729807740,"current_range_meters":28000,"station_id":"ce4bh312rcd13ifvqdj0","pricing_plan_id":"cebpf4jnsgd1na2vs0mg"},{"bike_id":"408d3e3e-a8df-4498-ab98-e0fb48f6a4d9","system_id":"levelo_inurba_marseille","lat":43.28859,"lon":5.39325,"is_reserved":false,"is_disabled":false,"rental_uris":{"android":"levelo://app?vid=408d3e3e-a8df-4498-ab98-e0fb48f6a4d9","ios":"levelo://app?vid=408d3e3e-a8df-4498-ab98-e0fb48f6a4d9"},"vehicle_type_id":"4","last_reported":1729807740,"current_range_meters":36000,"station_id":"ce4bh2p2rcd13ifvqdi0","pricing_plan_id":"cebpf4jnsgd1na2vs0mg"},{"bike_id":"35fb7e58-dcce-45e7-9860-5ca2757de52a","system_id":"levelo_inurba_marseille","lat":43.28001,"lon":5.40015,"is_reserved":false,"is_disabled":false,"rental_uris":{"android":"levelo://app?vid=35fb7e58-dcce-45e7-9860-5ca2757de52a","ios":"levelo://app?vid=35fb7e58-dcce-45e7-9860-5ca2757de52a"},"vehicle_type_id":"4","last_reported":1729807740,"current_range_meters":16800,"station_id":"ce4bho92rcd13ifvqh4g","pricing_plan_id":"cebpf4jnsgd1na2vs0mg"},{"bike_id":"c0980280-6ae3-4491-a0ae-8a60f645c403","system_id":"levelo_inurba_marseille","lat":43.26932,"lon":5.38921,"is_reserved":false,"is_disabled":false,"rental_uris":{"android":"levelo://app?vid=c0980280-6ae3-4491-a0ae-8a60f645c403","ios":"levelo://app?vid=c0980280-6ae3-4491-a0ae-8a60f645c403"},"vehicle_type_id":"4","last_reported":1729807740,"current_range_meters":37600,"station_id":"ce4bhhh2rcd13ifvqfl0","pricing_plan_id":"cebpf4jnsgd1na2vs0mg"},{"bike_id":"d2b1bdf2-4357-4fe1-9310-b780934b2159","system_id":"levelo_inurba_marseille","lat":43.32027,"lon":5.41566,"is_reserved":false,"is_disabled":false,"rental_uris":{"android":"levelo://app?vid=d2b1bdf2-4357-4fe1-9310-b780934b2159","ios":"levelo://app?vid=d2b1bdf2-4357-4fe1-9310-b780934b2159"},"vehicle_type_id":"4","last_reported":1729807740,"current_range_meters":38800,"station_id":"ce4bhq92rcd13ifvqhkg","pricing_plan_id":"cebpf4jnsgd1na2vs0mg"},{"bike_id":"d9d46ca5-b2b3-4214-a08d-f30101d778e5","system_id":"levelo_inurba_marseille","lat":43.28461,"lon":5.35873,"is_reserved":false,"is_disabled":false,"rental_uris":{"android":"levelo://app?vid=d9d46ca5-b2b3-4214-a08d-f30101d778e5","ios":"levelo://app?vid=d9d46ca5-b2b3-4214-a08d-f30101d778e5"},"vehicle_type_id":"4","last_reported":1729807740,"current_range_meters":37600,"station_id":"ce4bhah2rcd13ifvqei0","pricing_plan_id":"cebpf4jnsgd1na2vs0mg"},{"bike_id":"86b01cae-e8a8-4061-a15e-f28daeed7cfc","system_id":"levelo_inurba_marseille","lat":43.2792,"lon":5.39585,"is_reserved":false,"is_disabled":false,"rental_uris":{"android":"levelo://app?vid=86b01cae-e8a8-4061-a15e-f28daeed7cfc","ios":"levelo://app?vid=86b01cae-e8a8-4061-a15e-f28daeed7cfc"},"vehicle_type_id":"4","last_reported":1729807740,"current_range_meters":9600,"station_id":"ce4bhf92rcd13ifvqf40","pricing_plan_id":"cebpf4jnsgd1na2vs0mg"},{"bike_id":"b521627f-27f2-45de-b72b-147169e4522a","system_id":"levelo_inurba_marseille","lat":43.2439,"lon":5.37063,"is_reserved":false,"is_disabled":false,"rental_uris":{"android":"levelo://app?vid=b521627f-27f2-45de-b72b-147169e4522a","ios":"levelo://app?vid=b521627f-27f2-45de-b72b-147169e4522a"},"vehicle_type_id":"4","last_reported":1729807740,"current_range_meters":16400,"station_id":"ce4bhhh2rcd13ifvqfk0","pricing_plan_id":"cebpf4jnsgd1na2vs0mg"},{"bike_id":"4468208d-a0a9-4302-976f-4b7d3cc8f418","system_id":"levelo_inurba_marseille","lat":43.262066,"lon":5.379243,"is_reserved":false,"is_disabled":false,"rental_uris":{"android":"levelo://app?vid=4468208d-a0a9-4302-976f-4b7d3cc8f418","ios":"levelo://app?vid=4468208d-a0a9-4302-976f-4b7d3cc8f418"},"vehicle_type_id":"4","last_reported":1729807740,"current_range_meters":38800,"station_id":"ce4bhjp2rcd13ifvqg90","pricing_plan_id":"cebpf4jnsgd1na2vs0mg"},{"bike_id":"c25a6afb-084b-4ca5-9e46-023b0837e2ed","system_id":"levelo_inurba_marseille","lat":43.29191,"lon":5.3581,"is_reserved":false,"is_disabled":false,"rental_uris":{"android":"levelo://app?vid=c25a6afb-084b-4ca5-9e46-023b0837e2ed","ios":"levelo://app?vid=c25a6afb-084b-4ca5-9e46-023b0837e2ed"},"vehicle_type_id":"4","last_reported":1729807740,"current_range_meters":24400,"station_id":"ce4bhb12rcd13ifvqel0","pricing_plan_id":"cebpf4jnsgd1na2vs0mg"},{"bike_id":"0dc6c991-de4d-4979-b1b5-5633677338e1","system_id":"levelo_inurba_marseille","lat":43.30907,"lon":5.36851,"is_reserved":false,"is_disabled":false,"rental_uris":{"android":"levelo://app?vid=0dc6c991-de4d-4979-b1b5-5633677338e1","ios":"levelo://app?vid=0dc6c991-de4d-4979-b1b5-5633677338e1"},"vehicle_type_id":"4","last_reported":1729807740,"current_range_meters":39200,"station_id":"ce4bgn92rcd13ifvqbvg","pricing_plan_id":"cebpf4jnsgd1na2vs0mg"},{"bike_id":"59bc3c1c-bd6d-4477-ab03-860cd0e6bc5b","system_id":"levelo_inurba_marseille","lat":43.30459,"lon":5.37905,"is_reserved":false,"is_disabled":false,"rental_uris":{"android":"levelo://app?vid=59bc3c1c-bd6d-4477-ab03-860cd0e6bc5b","ios":"levelo://app?vid=59bc3c1c-bd6d-4477-ab03-860cd0e6bc5b"},"vehicle_type_id":"4","last_reported":1729807740,"current_range_meters":30000,"station_id":"ce4bgup2rcd13ifvqcn0","pricing_plan_id":"cebpf4jnsgd1na2vs0mg"},{"bike_id":"7a954890-7c08-4b24-9544-a93ea50374ab","system_id":"levelo_inurba_marseille","lat":43.28438,"lon":5.39179,"is_reserved":false,"is_disabled":false,"rental_uris":{"android":"levelo://app?vid=7a954890-7c08-4b24-9544-a93ea50374ab","ios":"levelo://app?vid=7a954890-7c08-4b24-9544-a93ea50374ab"},"vehicle_type_id":"4","last_reported":1729807740,"current_range_meters":30400,"station_id":"ce4bhoh2rcd13ifvqh5g","pricing_plan_id":"cebpf4jnsgd1na2vs0mg"},{"bike_id":"532c4b6c-0ae8-49b8-92c5-b66ec2575810","system_id":"levelo_inurba_marseille","lat":43.25583,"lon":5.38232,"is_reserved":false,"is_disabled":false,"rental_uris":{"android":"levelo://app?vid=532c4b6c-0ae8-49b8-92c5-b66ec2575810","ios":"levelo://app?vid=532c4b6c-0ae8-49b8-92c5-b66ec2575810"},"vehicle_type_id":"4","last_reported":1729807740,"current_range_meters":6400,"station_id":"ce4bhih2rcd13ifvqfs0","pricing_plan_id":"cebpf4jnsgd1na2vs0mg"},{"bike_id":"0f3449bb-3bd0-4cfd-88af-5d53ec3e0714","system_id":"levelo_inurba_marseille","lat":43.31321,"lon":5.39698,"is_reserved":false,"is_disabled":false,"rental_uris":{"android":"levelo://app?vid=0f3449bb-3bd0-4cfd-88af-5d53ec3e0714","ios":"levelo://app?vid=0f3449bb-3bd0-4cfd-88af-5d53ec3e0714"},"vehicle_type_id":"4","last_reported":1729807740,"current_range_meters":33600,"station_id":"ce4bgvp2rcd13ifvqcu0","pricing_plan_id":"cebpf4jnsgd1na2vs0mg"},{"bike_id":"4d4a7de4-b295-4ae6-a548-4081541b3c73","system_id":"levelo_inurba_marseille","lat":43.28491,"lon":5.38581,"is_reserved":false,"is_disabled":false,"rental_uris":{"android":"levelo://app?vid=4d4a7de4-b295-4ae6-a548-4081541b3c73","ios":"levelo://app?vid=4d4a7de4-b295-4ae6-a548-4081541b3c73"},"vehicle_type_id":"4","last_reported":1729807740,"current_range_meters":38800,"station_id":"ce4bh8p2rcd13ifvqeb0","pricing_plan_id":"cebpf4jnsgd1na2vs0mg"},{"bike_id":"272e819b-db19-4571-879f-b4d908cbfc64","system_id":"levelo_inurba_marseille","lat":43.28906,"lon":5.36104,"is_reserved":false,"is_disabled":false,"rental_uris":{"android":"levelo://app?vid=272e819b-db19-4571-879f-b4d908cbfc64","ios":"levelo://app?vid=272e819b-db19-4571-879f-b4d908cbfc64"},"vehicle_type_id":"4","last_reported":1729807740,"current_range_meters":21600,"station_id":"","pricing_plan_id":"cebpf4jnsgd1na2vs0mg"},{"bike_id":"dda10266-8510-44af-990b-393e41f71b13","system_id":"levelo_inurba_marseille","lat":43.28489,"lon":5.38555,"is_reserved":false,"is_disabled":false,"rental_uris":{"android":"levelo://app?vid=dda10266-8510-44af-990b-393e41f71b13","ios":"levelo://app?vid=dda10266-8510-44af-990b-393e41f71b13"},"vehicle_type_id":"4","last_reported":1729807740,"current_range_meters":36000,"station_id":"ce4bh8p2rcd13ifvqeb0","pricing_plan_id":"cebpf4jnsgd1na2vs0mg"},{"bike_id":"d2964dcf-2ca0-4e8f-ad12-68f06243f6c8","system_id":"levelo_inurba_marseille","lat":43.29006,"lon":5.35607,"is_reserved":false,"is_disabled":false,"rental_uris":{"android":"levelo://app?vid=d2964dcf-2ca0-4e8f-ad12-68f06243f6c8","ios":"levelo://app?vid=d2964dcf-2ca0-4e8f-ad12-68f06243f6c8"},"vehicle_type_id":"4","last_reported":1729807740,"current_range_meters":3200,"station_id":"ce4bhb92rcd13ifvqen0","pricing_plan_id":"cebpf4jnsgd1na2vs0mg"},{"bike_id":"856d115a-8f1b-4d78-a4f5-e6563030d0a3","system_id":"levelo_inurba_marseille","lat":43.23965,"lon":5.36625,"is_reserved":false,"is_disabled":false,"rental_uris":{"android":"levelo://app?vid=856d115a-8f1b-4d78-a4f5-e6563030d0a3","ios":"levelo://app?vid=856d115a-8f1b-4d78-a4f5-e6563030d0a3"},"vehicle_type_id":"4","last_reported":1729807740,"current_range_meters":36800,"station_id":"ce4bhi12rcd13ifvqfp0","pricing_plan_id":"cebpf4jnsgd1na2vs0mg"},{"bike_id":"f5320a39-d764-4ea2-b92f-2e33b9a08e50","system_id":"levelo_inurba_marseille","lat":43.30351,"lon":5.4187,"is_reserved":false,"is_disabled":false,"rental_uris":{"android":"levelo://app?vid=f5320a39-d764-4ea2-b92f-2e33b9a08e50","ios":"levelo://app?vid=f5320a39-d764-4ea2-b92f-2e33b9a08e50"},"vehicle_type_id":"4","last_reported":1729807740,"current_range_meters":38000,"station_id":"ce4bhop2rcd13ifvqh7g","pricing_plan_id":"cebpf4jnsgd1na2vs0mg"},{"bike_id":"97ec9672-eea4-4d9a-8a25-013f09b65b94","system_id":"levelo_inurba_marseille","lat":43.255813,"lon":5.382293,"is_reserved":false,"is_disabled":false,"rental_uris":{"android":"levelo://app?vid=97ec9672-eea4-4d9a-8a25-013f09b65b94","ios":"levelo://app?vid=97ec9672-eea4-4d9a-8a25-013f09b65b94"},"vehicle_type_id":"4","last_reported":1729807740,"current_range_meters":5600,"station_id":"ce4bhih2rcd13ifvqfs0","pricing_plan_id":"cebpf4jnsgd1na2vs0mg"},{"bike_id":"1c94711f-6e8d-4080-84e2-4aabc2656ca2","system_id":"levelo_inurba_marseille","lat":43.31339,"lon":5.39698,"is_reserved":false,"is_disabled":false,"rental_uris":{"android":"levelo://app?vid=1c94711f-6e8d-4080-84e2-4aabc2656ca2","ios":"levelo://app?vid=1c94711f-6e8d-4080-84e2-4aabc2656ca2"},"vehicle_type_id":"4","last_reported":1729807740,"current_range_meters":38800,"station_id":"ce4bgvp2rcd13ifvqcu0","pricing_plan_id":"cebpf4jnsgd1na2vs0mg"},{"bike_id":"bebd8251-2a0e-424a-a2c9-94c8dedde414","system_id":"levelo_inurba_marseille","lat":43.28442,"lon":5.39193,"is_reserved":false,"is_disabled":false,"rental_uris":{"android":"levelo://app?vid=bebd8251-2a0e-424a-a2c9-94c8dedde414","ios":"levelo://app?vid=bebd8251-2a0e-424a-a2c9-94c8dedde414"},"vehicle_type_id":"4","last_reported":1729807740,"current_range_meters":20000,"station_id":"ce4bhoh2rcd13ifvqh5g","pricing_plan_id":"cebpf4jnsgd1na2vs0mg"},{"bike_id":"945febbc-a04e-4982-9383-430e55848664","system_id":"levelo_inurba_marseille","lat":43.2871,"lon":5.3999,"is_reserved":false,"is_disabled":false,"rental_uris":{"android":"levelo://app?vid=945febbc-a04e-4982-9383-430e55848664","ios":"levelo://app?vid=945febbc-a04e-4982-9383-430e55848664"},"vehicle_type_id":"4","last_reported":1729807740,"current_range_meters":36400,"station_id":"ce4bho92rcd13ifvqh3g","pricing_plan_id":"cebpf4jnsgd1na2vs0mg"},{"bike_id":"07a4dd6a-7a9b-4c2e-af37-7bc6a487b496","system_id":"levelo_inurba_marseille","lat":43.31119,"lon":5.37774,"is_reserved":false,"is_disabled":false,"rental_uris":{"android":"levelo://app?vid=07a4dd6a-7a9b-4c2e-af37-7bc6a487b496","ios":"levelo://app?vid=07a4dd6a-7a9b-4c2e-af37-7bc6a487b496"},"vehicle_type_id":"4","last_reported":1729807740,"current_range_meters":25200,"station_id":"ce4bgt92rcd13ifvqcg0","pricing_plan_id":"cebpf4jnsgd1na2vs0mg"},{"bike_id":"397fb9e0-78ab-4fde-a1a7-6af36a9812e2","system_id":"levelo_inurba_marseille","lat":43.24806,"lon":5.37456,"is_reserved":false,"is_disabled":false,"rental_uris":{"android":"levelo://app?vid=397fb9e0-78ab-4fde-a1a7-6af36a9812e2","ios":"levelo://app?vid=397fb9e0-78ab-4fde-a1a7-6af36a9812e2"},"vehicle_type_id":"4","last_reported":1729807740,"current_range_meters":32400,"station_id":"ce4bhgh2rcd13ifvqfb0","pricing_plan_id":"cebpf4jnsgd1na2vs0mg"},{"bike_id":"b9351473-5066-4cf3-b0f2-ed32d5beba7b","system_id":"levelo_inurba_marseille","lat":43.2926,"lon":5.40891,"is_reserved":false,"is_disabled":false,"rental_uris":{"android":"levelo://app?vid=b9351473-5066-4cf3-b0f2-ed32d5beba7b","ios":"levelo://app?vid=b9351473-5066-4cf3-b0f2-ed32d5beba7b"},"vehicle_type_id":"4","last_reported":1729807740,"current_range_meters":31200,"station_id":"ce4bh2p2rcd13ifvqdi0","pricing_plan_id":"cebpf4jnsgd1na2vs0mg"},{"bike_id":"aab848b2-16c1-47f2-96ca-991a72d8d00c","system_id":"levelo_inurba_marseille","lat":43.292,"lon":5.39324,"is_reserved":false,"is_disabled":false,"rental_uris":{"android":"levelo://app?vid=aab848b2-16c1-47f2-96ca-991a72d8d00c","ios":"levelo://app?vid=aab848b2-16c1-47f2-96ca-991a72d8d00c"},"vehicle_type_id":"4","last_reported":1729807740,"current_range_meters":20000,"station_id":"ce4bh192rcd13ifvqdd0","pricing_plan_id":"cebpf4jnsgd1na2vs0mg"},{"bike_id":"9c980766-3696-42be-8e1a-d22fb6edb5c5","system_id":"levelo_inurba_marseille","lat":43.306544,"lon":5.381732,"is_reserved":false,"is_disabled":false,"rental_uris":{"android":"levelo://app?vid=9c980766-3696-42be-8e1a-d22fb6edb5c5","ios":"levelo://app?vid=9c980766-3696-42be-8e1a-d22fb6edb5c5"},"vehicle_type_id":"4","last_reported":1729807740,"current_range_meters":27200,"station_id":"","pricing_plan_id":"cebpf4jnsgd1na2vs0mg"},{"bike_id":"e5a6b6ba-4a79-43e1-828f-538a3750340e","system_id":"levelo_inurba_marseille","lat":43.29258,"lon":5.40909,"is_reserved":false,"is_disabled":false,"rental_uris":{"android":"levelo://app?vid=e5a6b6ba-4a79-43e1-828f-538a3750340e","ios":"levelo://app?vid=e5a6b6ba-4a79-43e1-828f-538a3750340e"},"vehicle_type_id":"4","last_reported":1729807740,"current_range_meters":24000,"station_id":"ce4bh192rcd13ifvqdc0","pricing_plan_id":"cebpf4jnsgd1na2vs0mg"},{"bike_id":"6fd4971a-db3f-4826-9ddf-71b29c3b9231","system_id":"levelo_inurba_marseille","lat":43.27818,"lon":5.4071,"is_reserved":false,"is_disabled":false,"rental_uris":{"android":"levelo://app?vid=6fd4971a-db3f-4826-9ddf-71b29c3b9231","ios":"levelo://app?vid=6fd4971a-db3f-4826-9ddf-71b29c3b9231"},"vehicle_type_id":"4","last_reported":1729807740,"current_range_meters":18000,"station_id":"ce4bhnh2rcd13ifvqgtg","pricing_plan_id":"cebpf4jnsgd1na2vs0mg"},{"bike_id":"f9ec36ed-f1e8-4d39-a330-d53d339322cc","system_id":"levelo_inurba_marseille","lat":43.24942,"lon":5.39724,"is_reserved":false,"is_disabled":false,"rental_uris":{"android":"levelo://app?vid=f9ec36ed-f1e8-4d39-a330-d53d339322cc","ios":"levelo://app?vid=f9ec36ed-f1e8-4d39-a330-d53d339322cc"},"vehicle_type_id":"4","last_reported":1729807740,"current_range_meters":19600,"station_id":"","pricing_plan_id":"cebpf4jnsgd1na2vs0mg"},{"bike_id":"52f0e4a5-d535-4f96-b297-18be6815ac33","system_id":"levelo_inurba_marseille","lat":43.33727,"lon":5.39181,"is_reserved":false,"is_disabled":false,"rental_uris":{"android":"levelo://app?vid=52f0e4a5-d535-4f96-b297-18be6815ac33","ios":"levelo://app?vid=52f0e4a5-d535-4f96-b297-18be6815ac33"},"vehicle_type_id":"4","last_reported":1729807740,"current_range_meters":40000,"station_id":"ce4bhr92rcd13ifvqhsg","pricing_plan_id":"cebpf4jnsgd1na2vs0mg"},{"bike_id":"754334dc-7c77-42cd-ae7c-2bd7ea4eeedc","system_id":"levelo_inurba_marseille","lat":43.25097,"lon":5.39511,"is_reserved":false,"is_disabled":false,"rental_uris":{"android":"levelo://app?vid=754334dc-7c77-42cd-ae7c-2bd7ea4eeedc","ios":"levelo://app?vid=754334dc-7c77-42cd-ae7c-2bd7ea4eeedc"},"vehicle_type_id":"4","last_reported":1729807740,"current_range_meters":32000,"station_id":"ce4bhm12rcd13ifvqgkg","pricing_plan_id":"cebpf4jnsgd1na2vs0mg"},{"bike_id":"ddc9d34a-3a18-4656-afac-2c40e00335c6","system_id":"levelo_inurba_marseille","lat":43.26503,"lon":5.39556,"is_reserved":false,"is_disabled":false,"rental_uris":{"android":"levelo://app?vid=ddc9d34a-3a18-4656-afac-2c40e00335c6","ios":"levelo://app?vid=ddc9d34a-3a18-4656-afac-2c40e00335c6"},"vehicle_type_id":"4","last_reported":1729807740,"current_range_meters":10000,"station_id":"ce4bhi12rcd13ifvqfq0","pricing_plan_id":"cebpf4jnsgd1na2vs0mg"},{"bike_id":"8f53577c-340c-4421-9829-2267c1a5eb1b","system_id":"levelo_inurba_marseille","lat":43.2439,"lon":5.3706,"is_reserved":false,"is_disabled":false,"rental_uris":{"android":"levelo://app?vid=8f53577c-340c-4421-9829-2267c1a5eb1b","ios":"levelo://app?vid=8f53577c-340c-4421-9829-2267c1a5eb1b"},"vehicle_type_id":"4","last_reported":1729807740,"current_range_meters":27200,"station_id":"ce4bhhh2rcd13ifvqfk0","pricing_plan_id":"cebpf4jnsgd1na2vs0mg"},{"bike_id":"36e763ca-6edc-4e4f-84a0-57df9689e7a9","system_id":"levelo_inurba_marseille","lat":43.28711,"lon":5.39987,"is_reserved":false,"is_disabled":false,"rental_uris":{"android":"levelo://app?vid=36e763ca-6edc-4e4f-84a0-57df9689e7a9","ios":"levelo://app?vid=36e763ca-6edc-4e4f-84a0-57df9689e7a9"},"vehicle_type_id":"4","last_reported":1729807740,"current_range_meters":7200,"station_id":"ce4bho92rcd13ifvqh3g","pricing_plan_id":"cebpf4jnsgd1na2vs0mg"},{"bike_id":"9547fe9f-7da9-478b-9033-f446ea71bb69","system_id":"levelo_inurba_marseille","lat":43.31078,"lon":5.42432,"is_reserved":false,"is_disabled":false,"rental_uris":{"android":"levelo://app?vid=9547fe9f-7da9-478b-9033-f446ea71bb69","ios":"levelo://app?vid=9547fe9f-7da9-478b-9033-f446ea71bb69"},"vehicle_type_id":"4","last_reported":1729807740,"current_range_meters":38800,"station_id":"ce4bhp92rcd13ifvqhag","pricing_plan_id":"cebpf4jnsgd1na2vs0mg"},{"bike_id":"99bb2094-88fa-42cc-a5cf-b8426df07a9f","system_id":"levelo_inurba_marseille","lat":43.28468,"lon":5.35875,"is_reserved":false,"is_disabled":false,"rental_uris":{"android":"levelo://app?vid=99bb2094-88fa-42cc-a5cf-b8426df07a9f","ios":"levelo://app?vid=99bb2094-88fa-42cc-a5cf-b8426df07a9f"},"vehicle_type_id":"4","last_reported":1729807740,"current_range_meters":10800,"station_id":"ce4bhah2rcd13ifvqei0","pricing_plan_id":"cebpf4jnsgd1na2vs0mg"},{"bike_id":"0de09ea7-d428-4e7c-8971-f54aa3edc19b","system_id":"levelo_inurba_marseille","lat":43.29876,"lon":5.39725,"is_reserved":false,"is_disabled":false,"rental_uris":{"android":"levelo://app?vid=0de09ea7-d428-4e7c-8971-f54aa3edc19b","ios":"levelo://app?vid=0de09ea7-d428-4e7c-8971-f54aa3edc19b"},"vehicle_type_id":"4","last_reported":1729807740,"current_range_meters":38800,"station_id":"ce4bh0h2rcd13ifvqd50","pricing_plan_id":"cebpf4jnsgd1na2vs0mg"},{"bike_id":"221e5552-19db-448a-a918-2b8bb19e6034","system_id":"levelo_inurba_marseille","lat":43.27175,"lon":5.40996,"is_reserved":false,"is_disabled":false,"rental_uris":{"android":"levelo://app?vid=221e5552-19db-448a-a918-2b8bb19e6034","ios":"levelo://app?vid=221e5552-19db-448a-a918-2b8bb19e6034"},"vehicle_type_id":"4","last_reported":1729807740,"current_range_meters":24000,"station_id":"ce4bhl12rcd13ifvqgf0","pricing_plan_id":"cebpf4jnsgd1na2vs0mg"},{"bike_id":"1e6f4379-de3c-4e10-b4fc-b1d57ee9804d","system_id":"levelo_inurba_marseille","lat":43.26213,"lon":5.37445,"is_reserved":false,"is_disabled":false,"rental_uris":{"android":"levelo://app?vid=1e6f4379-de3c-4e10-b4fc-b1d57ee9804d","ios":"levelo://app?vid=1e6f4379-de3c-4e10-b4fc-b1d57ee9804d"},"vehicle_type_id":"4","last_reported":1729807740,"current_range_meters":37600,"station_id":"ce4bhgp2rcd13ifvqfc0","pricing_plan_id":"cebpf4jnsgd1na2vs0mg"},{"bike_id":"feda9bc1-b886-4640-ad92-201ddc16513e","system_id":"levelo_inurba_marseille","lat":43.32292,"lon":5.38263,"is_reserved":false,"is_disabled":false,"rental_uris":{"android":"levelo://app?vid=feda9bc1-b886-4640-ad92-201ddc16513e","ios":"levelo://app?vid=feda9bc1-b886-4640-ad92-201ddc16513e"},"vehicle_type_id":"4","last_reported":1729807740,"current_range_meters":38800,"station_id":"ce4bhr12rcd13ifvqhqg","pricing_plan_id":"cebpf4jnsgd1na2vs0mg"},{"bike_id":"c17f316e-b212-4bda-ba6e-75c3cb4ff49c","system_id":"levelo_inurba_marseille","lat":43.29272,"lon":5.36843,"is_reserved":false,"is_disabled":false,"rental_uris":{"android":"levelo://app?vid=c17f316e-b212-4bda-ba6e-75c3cb4ff49c","ios":"levelo://app?vid=c17f316e-b212-4bda-ba6e-75c3cb4ff49c"},"vehicle_type_id":"4","last_reported":1729807740,"current_range_meters":38800,"station_id":"ce4bhbp2rcd13ifvqesg","pricing_plan_id":"cebpf4jnsgd1na2vs0mg"},{"bike_id":"519cb06f-1ed5-4586-8a5c-744c25fd3fc6","system_id":"levelo_inurba_marseille","lat":43.26564,"lon":5.39011,"is_reserved":false,"is_disabled":false,"rental_uris":{"android":"levelo://app?vid=519cb06f-1ed5-4586-8a5c-744c25fd3fc6","ios":"levelo://app?vid=519cb06f-1ed5-4586-8a5c-744c25fd3fc6"},"vehicle_type_id":"4","last_reported":1729807740,"current_range_meters":8000,"station_id":"ce4bhe12rcd13ifvqf30","pricing_plan_id":"cebpf4jnsgd1na2vs0mg"},{"bike_id":"efe0b02e-9dcd-4192-8f41-25a0bf494636","system_id":"levelo_inurba_marseille","lat":43.32485,"lon":5.36544,"is_reserved":false,"is_disabled":false,"rental_uris":{"android":"levelo://app?vid=efe0b02e-9dcd-4192-8f41-25a0bf494636","ios":"levelo://app?vid=efe0b02e-9dcd-4192-8f41-25a0bf494636"},"vehicle_type_id":"4","last_reported":1729807740,"current_range_meters":6800,"station_id":"ce4bhs12rcd13ifvqhvg","pricing_plan_id":"cebpf4jnsgd1na2vs0mg"},{"bike_id":"23fb4691-645c-46c3-83cf-1c54445797c5","system_id":"levelo_inurba_marseille","lat":43.27175,"lon":5.40995,"is_reserved":false,"is_disabled":false,"rental_uris":{"android":"levelo://app?vid=23fb4691-645c-46c3-83cf-1c54445797c5","ios":"levelo://app?vid=23fb4691-645c-46c3-83cf-1c54445797c5"},"vehicle_type_id":"4","last_reported":1729807740,"current_range_meters":31200,"station_id":"ce4bhl12rcd13ifvqgf0","pricing_plan_id":"cebpf4jnsgd1na2vs0mg"},{"bike_id":"212337c5-c27c-4ce8-a37e-735a2e6c27ae","system_id":"levelo_inurba_marseille","lat":43.315792,"lon":5.376246,"is_reserved":false,"is_disabled":false,"rental_uris":{"android":"levelo://app?vid=212337c5-c27c-4ce8-a37e-735a2e6c27ae","ios":"levelo://app?vid=212337c5-c27c-4ce8-a37e-735a2e6c27ae"},"vehicle_type_id":"4","last_reported":1729807740,"current_range_meters":36800,"station_id":"ce4bgth2rcd13ifvqch0","pricing_plan_id":"cebpf4jnsgd1na2vs0mg"},{"bike_id":"69b9109b-cc32-41c9-b636-a90207b81c95","system_id":"levelo_inurba_marseille","lat":43.25117,"lon":5.40321,"is_reserved":false,"is_disabled":false,"rental_uris":{"android":"levelo://app?vid=69b9109b-cc32-41c9-b636-a90207b81c95","ios":"levelo://app?vid=69b9109b-cc32-41c9-b636-a90207b81c95"},"vehicle_type_id":"4","last_reported":1729807740,"current_range_meters":30000,"station_id":"ce4bhlh2rcd13ifvqgig","pricing_plan_id":"cebpf4jnsgd1na2vs0mg"},{"bike_id":"195b529d-957f-4326-9d21-4f98ccd8c21a","system_id":"levelo_inurba_marseille","lat":43.29533,"lon":5.38553,"is_reserved":false,"is_disabled":false,"rental_uris":{"android":"levelo://app?vid=195b529d-957f-4326-9d21-4f98ccd8c21a","ios":"levelo://app?vid=195b529d-957f-4326-9d21-4f98ccd8c21a"},"vehicle_type_id":"4","last_reported":1729807740,"current_range_meters":38800,"station_id":"ce4bgih2rcd13ifvqba0","pricing_plan_id":"cebpf4jnsgd1na2vs0mg"},{"bike_id":"7a86b841-3807-4574-ba92-5397b4d1c9ad","system_id":"levelo_inurba_marseille","lat":43.30796,"lon":5.38151,"is_reserved":false,"is_disabled":false,"rental_uris":{"android":"levelo://app?vid=7a86b841-3807-4574-ba92-5397b4d1c9ad","ios":"levelo://app?vid=7a86b841-3807-4574-ba92-5397b4d1c9ad"},"vehicle_type_id":"4","last_reported":1729807740,"current_range_meters":26000,"station_id":"ce4bgt12rcd13ifvqce0","pricing_plan_id":"cebpf4jnsgd1na2vs0mg"},{"bike_id":"8868fcb3-96df-4263-9338-577d1c0797d2","system_id":"levelo_inurba_marseille","lat":43.29628,"lon":5.40596,"is_reserved":false,"is_disabled":false,"rental_uris":{"android":"levelo://app?vid=8868fcb3-96df-4263-9338-577d1c0797d2","ios":"levelo://app?vid=8868fcb3-96df-4263-9338-577d1c0797d2"},"vehicle_type_id":"4","last_reported":1729807740,"current_range_meters":38000,"station_id":"ce4bh0h2rcd13ifvqd60","pricing_plan_id":"cebpf4jnsgd1na2vs0mg"},{"bike_id":"ea2726c6-5b31-4984-a9f4-a0fa939a1e8d","system_id":"levelo_inurba_marseille","lat":43.29191,"lon":5.39319,"is_reserved":false,"is_disabled":false,"rental_uris":{"android":"levelo://app?vid=ea2726c6-5b31-4984-a9f4-a0fa939a1e8d","ios":"levelo://app?vid=ea2726c6-5b31-4984-a9f4-a0fa939a1e8d"},"vehicle_type_id":"4","last_reported":1729807740,"current_range_meters":35600,"station_id":"ce4bh192rcd13ifvqdd0","pricing_plan_id":"cebpf4jnsgd1na2vs0mg"},{"bike_id":"924fcd39-f493-460f-8a6d-fe5ac0eb02ca","system_id":"levelo_inurba_marseille","lat":43.28118,"lon":5.37856,"is_reserved":false,"is_disabled":false,"rental_uris":{"android":"levelo://app?vid=924fcd39-f493-460f-8a6d-fe5ac0eb02ca","ios":"levelo://app?vid=924fcd39-f493-460f-8a6d-fe5ac0eb02ca"},"vehicle_type_id":"4","last_reported":1729807740,"current_range_meters":40000,"station_id":"ce4bha12rcd13ifvqee0","pricing_plan_id":"cebpf4jnsgd1na2vs0mg"},{"bike_id":"81404ece-e1af-40c0-996c-dfeda4408051","system_id":"levelo_inurba_marseille","lat":43.30317,"lon":5.40441,"is_reserved":false,"is_disabled":false,"rental_uris":{"android":"levelo://app?vid=81404ece-e1af-40c0-996c-dfeda4408051","ios":"levelo://app?vid=81404ece-e1af-40c0-996c-dfeda4408051"},"vehicle_type_id":"4","last_reported":1729807740,"current_range_meters":38800,"station_id":"ce4bh012rcd13ifvqd10","pricing_plan_id":"cebpf4jnsgd1na2vs0mg"},{"bike_id":"48bed118-566f-4c07-968d-30c75a1ad978","system_id":"levelo_inurba_marseille","lat":43.25125,"lon":5.40315,"is_reserved":false,"is_disabled":false,"rental_uris":{"android":"levelo://app?vid=48bed118-566f-4c07-968d-30c75a1ad978","ios":"levelo://app?vid=48bed118-566f-4c07-968d-30c75a1ad978"},"vehicle_type_id":"4","last_reported":1729807740,"current_range_meters":12800,"station_id":"ce4bhlh2rcd13ifvqgig","pricing_plan_id":"cebpf4jnsgd1na2vs0mg"},{"bike_id":"7691659f-eea1-4b4d-8db5-2728fcde3a23","system_id":"levelo_inurba_marseille","lat":43.2981,"lon":5.37186,"is_reserved":false,"is_disabled":false,"rental_uris":{"android":"levelo://app?vid=7691659f-eea1-4b4d-8db5-2728fcde3a23","ios":"levelo://app?vid=7691659f-eea1-4b4d-8db5-2728fcde3a23"},"vehicle_type_id":"4","last_reported":1729807740,"current_range_meters":27200,"station_id":"ce4bhr12rcd13ifvqhqg","pricing_plan_id":"cebpf4jnsgd1na2vs0mg"},{"bike_id":"e3e5bfd4-aa3a-4dde-ae09-1bddb4754208","system_id":"levelo_inurba_marseille","lat":43.28571,"lon":5.395,"is_reserved":false,"is_disabled":false,"rental_uris":{"android":"levelo://app?vid=e3e5bfd4-aa3a-4dde-ae09-1bddb4754208","ios":"levelo://app?vid=e3e5bfd4-aa3a-4dde-ae09-1bddb4754208"},"vehicle_type_id":"4","last_reported":1729807740,"current_range_meters":9600,"station_id":"ce4bh292rcd13ifvqdg0","pricing_plan_id":"cebpf4jnsgd1na2vs0mg"},{"bike_id":"91479232-2ac0-4400-bb25-e592d9faa594","system_id":"levelo_inurba_marseille","lat":43.28081,"lon":5.39648,"is_reserved":false,"is_disabled":false,"rental_uris":{"android":"levelo://app?vid=91479232-2ac0-4400-bb25-e592d9faa594","ios":"levelo://app?vid=91479232-2ac0-4400-bb25-e592d9faa594"},"vehicle_type_id":"4","last_reported":1729807740,"current_range_meters":30400,"station_id":"ce4bho12rcd13ifvqh2g","pricing_plan_id":"cebpf4jnsgd1na2vs0mg"},{"bike_id":"b3c5c80d-fb10-447a-a7ae-9e83cf2e8853","system_id":"levelo_inurba_marseille","lat":43.27952,"lon":5.4104,"is_reserved":false,"is_disabled":false,"rental_uris":{"android":"levelo://app?vid=b3c5c80d-fb10-447a-a7ae-9e83cf2e8853","ios":"levelo://app?vid=b3c5c80d-fb10-447a-a7ae-9e83cf2e8853"},"vehicle_type_id":"4","last_reported":1729807740,"current_range_meters":27600,"station_id":"ce4bhnp2rcd13ifvqh0g","pricing_plan_id":"cebpf4jnsgd1na2vs0mg"},{"bike_id":"02578664-e44d-44a9-8726-802680ea0dbf","system_id":"levelo_inurba_marseille","lat":43.25086,"lon":5.3952,"is_reserved":false,"is_disabled":false,"rental_uris":{"android":"levelo://app?vid=02578664-e44d-44a9-8726-802680ea0dbf","ios":"levelo://app?vid=02578664-e44d-44a9-8726-802680ea0dbf"},"vehicle_type_id":"4","last_reported":1729807740,"current_range_meters":39200,"station_id":"ce4bhm12rcd13ifvqgkg","pricing_plan_id":"cebpf4jnsgd1na2vs0mg"},{"bike_id":"d9bd67b1-0c85-4cf7-bec8-f00414e9e126","system_id":"levelo_inurba_marseille","lat":43.25871,"lon":5.39895,"is_reserved":false,"is_disabled":false,"rental_uris":{"android":"levelo://app?vid=d9bd67b1-0c85-4cf7-bec8-f00414e9e126","ios":"levelo://app?vid=d9bd67b1-0c85-4cf7-bec8-f00414e9e126"},"vehicle_type_id":"4","last_reported":1729807740,"current_range_meters":38800,"station_id":"ce4bhl92rcd13ifvqghg","pricing_plan_id":"cebpf4jnsgd1na2vs0mg"},{"bike_id":"c5fdd51e-bd68-4e04-98c1-0ab5b1dc801f","system_id":"levelo_inurba_marseille","lat":43.24815,"lon":5.37455,"is_reserved":false,"is_disabled":false,"rental_uris":{"android":"levelo://app?vid=c5fdd51e-bd68-4e04-98c1-0ab5b1dc801f","ios":"levelo://app?vid=c5fdd51e-bd68-4e04-98c1-0ab5b1dc801f"},"vehicle_type_id":"4","last_reported":1729807740,"current_range_meters":24800,"station_id":"ce4bhgh2rcd13ifvqfb0","pricing_plan_id":"cebpf4jnsgd1na2vs0mg"},{"bike_id":"d1696340-be25-430a-b893-7bddd9c12a13","system_id":"levelo_inurba_marseille","lat":43.30539,"lon":5.38438,"is_reserved":false,"is_disabled":false,"rental_uris":{"android":"levelo://app?vid=d1696340-be25-430a-b893-7bddd9c12a13","ios":"levelo://app?vid=d1696340-be25-430a-b893-7bddd9c12a13"},"vehicle_type_id":"4","last_reported":1729807740,"current_range_meters":23200,"station_id":"ce4bgg92rcd13ifvqb30","pricing_plan_id":"cebpf4jnsgd1na2vs0mg"},{"bike_id":"59519303-478b-4b2d-a90c-6f27e032214e","system_id":"levelo_inurba_marseille","lat":43.31275,"lon":5.40164,"is_reserved":false,"is_disabled":false,"rental_uris":{"android":"levelo://app?vid=59519303-478b-4b2d-a90c-6f27e032214e","ios":"levelo://app?vid=59519303-478b-4b2d-a90c-6f27e032214e"},"vehicle_type_id":"4","last_reported":1729807740,"current_range_meters":38800,"station_id":"ce4bh092rcd13ifvqd30","pricing_plan_id":"cebpf4jnsgd1na2vs0mg"},{"bike_id":"a14e75a1-f033-4cac-b136-015428ad7325","system_id":"levelo_inurba_marseille","lat":43.301317,"lon":5.387953,"is_reserved":false,"is_disabled":false,"rental_uris":{"android":"levelo://app?vid=a14e75a1-f033-4cac-b136-015428ad7325","ios":"levelo://app?vid=a14e75a1-f033-4cac-b136-015428ad7325"},"vehicle_type_id":"4","last_reported":1729807740,"current_range_meters":16000,"station_id":"ce4bghh2rcd13ifvqb60","pricing_plan_id":"cebpf4jnsgd1na2vs0mg"},{"bike_id":"3e168155-cea6-43bf-b01c-81821ed7401c","system_id":"levelo_inurba_marseille","lat":43.25119,"lon":5.40313,"is_reserved":false,"is_disabled":false,"rental_uris":{"android":"levelo://app?vid=3e168155-cea6-43bf-b01c-81821ed7401c","ios":"levelo://app?vid=3e168155-cea6-43bf-b01c-81821ed7401c"},"vehicle_type_id":"4","last_reported":1729807740,"current_range_meters":32800,"station_id":"ce4bhlh2rcd13ifvqgig","pricing_plan_id":"cebpf4jnsgd1na2vs0mg"},{"bike_id":"b56c093a-a965-434f-8da6-8b20384b18fe","system_id":"levelo_inurba_marseille","lat":43.28856,"lon":5.39303,"is_reserved":false,"is_disabled":false,"rental_uris":{"android":"levelo://app?vid=b56c093a-a965-434f-8da6-8b20384b18fe","ios":"levelo://app?vid=b56c093a-a965-434f-8da6-8b20384b18fe"},"vehicle_type_id":"4","last_reported":1729807740,"current_range_meters":28800,"station_id":"ce4bh2p2rcd13ifvqdi0","pricing_plan_id":"cebpf4jnsgd1na2vs0mg"},{"bike_id":"e77864e5-aded-4cac-9cc9-79b8a55f0417","system_id":"levelo_inurba_marseille","lat":43.2842,"lon":5.37508,"is_reserved":false,"is_disabled":false,"rental_uris":{"android":"levelo://app?vid=e77864e5-aded-4cac-9cc9-79b8a55f0417","ios":"levelo://app?vid=e77864e5-aded-4cac-9cc9-79b8a55f0417"},"vehicle_type_id":"4","last_reported":1729807740,"current_range_meters":4000,"station_id":"ce4bh412rcd13ifvqds0","pricing_plan_id":"cebpf4jnsgd1na2vs0mg"},{"bike_id":"3e8fc805-2db5-4f99-829d-6f9d84dcaf72","system_id":"levelo_inurba_marseille","lat":43.25503,"lon":5.37651,"is_reserved":false,"is_disabled":false,"rental_uris":{"android":"levelo://app?vid=3e8fc805-2db5-4f99-829d-6f9d84dcaf72","ios":"levelo://app?vid=3e8fc805-2db5-4f99-829d-6f9d84dcaf72"},"vehicle_type_id":"4","last_reported":1729807740,"current_range_meters":38000,"station_id":"ce4bhh12rcd13ifvqff0","pricing_plan_id":"cebpf4jnsgd1na2vs0mg"},{"bike_id":"adb6c389-ce43-47b4-807d-369c494bed23","system_id":"levelo_inurba_marseille","lat":43.30802,"lon":5.38155,"is_reserved":false,"is_disabled":false,"rental_uris":{"android":"levelo://app?vid=adb6c389-ce43-47b4-807d-369c494bed23","ios":"levelo://app?vid=adb6c389-ce43-47b4-807d-369c494bed23"},"vehicle_type_id":"4","last_reported":1729807740,"current_range_meters":31200,"station_id":"ce4bgt12rcd13ifvqce0","pricing_plan_id":"cebpf4jnsgd1na2vs0mg"},{"bike_id":"050117c7-60de-4af1-b7d9-0a099c8f8aba","system_id":"levelo_inurba_marseille","lat":43.25506,"lon":5.37651,"is_reserved":false,"is_disabled":false,"rental_uris":{"android":"levelo://app?vid=050117c7-60de-4af1-b7d9-0a099c8f8aba","ios":"levelo://app?vid=050117c7-60de-4af1-b7d9-0a099c8f8aba"},"vehicle_type_id":"4","last_reported":1729807740,"current_range_meters":9600,"station_id":"ce4bhh12rcd13ifvqff0","pricing_plan_id":"cebpf4jnsgd1na2vs0mg"},{"bike_id":"66f020ae-5526-4ad0-8af9-6a968240ac52","system_id":"levelo_inurba_marseille","lat":43.32486,"lon":5.36567,"is_reserved":false,"is_disabled":false,"rental_uris":{"android":"levelo://app?vid=66f020ae-5526-4ad0-8af9-6a968240ac52","ios":"levelo://app?vid=66f020ae-5526-4ad0-8af9-6a968240ac52"},"vehicle_type_id":"4","last_reported":1729807740,"current_range_meters":38800,"station_id":"ce4bhs12rcd13ifvqhvg","pricing_plan_id":"cebpf4jnsgd1na2vs0mg"},{"bike_id":"6e490ada-941f-4a47-b70c-faae73b36f3c","system_id":"levelo_inurba_marseille","lat":43.2407,"lon":5.37764,"is_reserved":false,"is_disabled":false,"rental_uris":{"android":"levelo://app?vid=6e490ada-941f-4a47-b70c-faae73b36f3c","ios":"levelo://app?vid=6e490ada-941f-4a47-b70c-faae73b36f3c"},"vehicle_type_id":"4","last_reported":1729807740,"current_range_meters":36400,"station_id":"ce4bhnp2rcd13ifvqgvg","pricing_plan_id":"cebpf4jnsgd1na2vs0mg"},{"bike_id":"2ae23244-d39d-44c3-84d6-e47c45252a78","system_id":"levelo_inurba_marseille","lat":43.305405,"lon":5.384295,"is_reserved":false,"is_disabled":false,"rental_uris":{"android":"levelo://app?vid=2ae23244-d39d-44c3-84d6-e47c45252a78","ios":"levelo://app?vid=2ae23244-d39d-44c3-84d6-e47c45252a78"},"vehicle_type_id":"4","last_reported":1729807740,"current_range_meters":28800,"station_id":"ce4bgg92rcd13ifvqb30","pricing_plan_id":"cebpf4jnsgd1na2vs0mg"},{"bike_id":"97ec344c-b798-43c2-b569-284527c7dc58","system_id":"levelo_inurba_marseille","lat":43.32488,"lon":5.36499,"is_reserved":false,"is_disabled":false,"rental_uris":{"android":"levelo://app?vid=97ec344c-b798-43c2-b569-284527c7dc58","ios":"levelo://app?vid=97ec344c-b798-43c2-b569-284527c7dc58"},"vehicle_type_id":"4","last_reported":1729807740,"current_range_meters":6000,"station_id":"ce4bhs12rcd13ifvqhvg","pricing_plan_id":"cebpf4jnsgd1na2vs0mg"},{"bike_id":"dc39f38c-0f7c-43a6-8d93-8ffbc15e2bac","system_id":"levelo_inurba_marseille","lat":43.29866,"lon":5.39739,"is_reserved":false,"is_disabled":false,"rental_uris":{"android":"levelo://app?vid=dc39f38c-0f7c-43a6-8d93-8ffbc15e2bac","ios":"levelo://app?vid=dc39f38c-0f7c-43a6-8d93-8ffbc15e2bac"},"vehicle_type_id":"4","last_reported":1729807740,"current_range_meters":32000,"station_id":"ce4bh0h2rcd13ifvqd50","pricing_plan_id":"cebpf4jnsgd1na2vs0mg"},{"bike_id":"a0673444-95da-4325-b335-f89e4b1c6f29","system_id":"levelo_inurba_marseille","lat":43.31714,"lon":5.43704,"is_reserved":false,"is_disabled":false,"rental_uris":{"android":"levelo://app?vid=a0673444-95da-4325-b335-f89e4b1c6f29","ios":"levelo://app?vid=a0673444-95da-4325-b335-f89e4b1c6f29"},"vehicle_type_id":"4","last_reported":1729807740,"current_range_meters":28400,"station_id":"ce4bhp92rcd13ifvqhcg","pricing_plan_id":"cebpf4jnsgd1na2vs0mg"},{"bike_id":"fe80c4c5-b946-4e64-8970-ebe5ece9df34","system_id":"levelo_inurba_marseille","lat":43.23966,"lon":5.36632,"is_reserved":false,"is_disabled":false,"rental_uris":{"android":"levelo://app?vid=fe80c4c5-b946-4e64-8970-ebe5ece9df34","ios":"levelo://app?vid=fe80c4c5-b946-4e64-8970-ebe5ece9df34"},"vehicle_type_id":"4","last_reported":1729807740,"current_range_meters":33200,"station_id":"ce4bhi12rcd13ifvqfp0","pricing_plan_id":"cebpf4jnsgd1na2vs0mg"},{"bike_id":"d74ccb13-0f36-4419-b053-0c58f03d263c","system_id":"levelo_inurba_marseille","lat":43.28503,"lon":5.38575,"is_reserved":false,"is_disabled":false,"rental_uris":{"android":"levelo://app?vid=d74ccb13-0f36-4419-b053-0c58f03d263c","ios":"levelo://app?vid=d74ccb13-0f36-4419-b053-0c58f03d263c"},"vehicle_type_id":"4","last_reported":1729807740,"current_range_meters":36800,"station_id":"ce4bh8p2rcd13ifvqeb0","pricing_plan_id":"cebpf4jnsgd1na2vs0mg"},{"bike_id":"66c56533-ec0c-42a0-90ba-957ddfa22782","system_id":"levelo_inurba_marseille","lat":43.27058,"lon":5.4026,"is_reserved":false,"is_disabled":false,"rental_uris":{"android":"levelo://app?vid=66c56533-ec0c-42a0-90ba-957ddfa22782","ios":"levelo://app?vid=66c56533-ec0c-42a0-90ba-957ddfa22782"},"vehicle_type_id":"4","last_reported":1729807740,"current_range_meters":27200,"station_id":"ce4bhk92rcd13ifvqgc0","pricing_plan_id":"cebpf4jnsgd1na2vs0mg"},{"bike_id":"0bc90dc2-cf8c-457e-a6aa-9b91de95f992","system_id":"levelo_inurba_marseille","lat":43.22766,"lon":5.41577,"is_reserved":false,"is_disabled":false,"rental_uris":{"android":"levelo://app?vid=0bc90dc2-cf8c-457e-a6aa-9b91de95f992","ios":"levelo://app?vid=0bc90dc2-cf8c-457e-a6aa-9b91de95f992"},"vehicle_type_id":"4","last_reported":1729807740,"current_range_meters":30400,"station_id":"","pricing_plan_id":"cebpf4jnsgd1na2vs0mg"},{"bike_id":"082e2a0f-744d-4193-aa51-84d41e9426e8","system_id":"levelo_inurba_marseille","lat":43.31377,"lon":5.38496,"is_reserved":false,"is_disabled":false,"rental_uris":{"android":"levelo://app?vid=082e2a0f-744d-4193-aa51-84d41e9426e8","ios":"levelo://app?vid=082e2a0f-744d-4193-aa51-84d41e9426e8"},"vehicle_type_id":"4","last_reported":1729807740,"current_range_meters":21600,"station_id":"ce4bgt92rcd13ifvqcf0","pricing_plan_id":"cebpf4jnsgd1na2vs0mg"},{"bike_id":"28709b84-b83d-46ed-8adb-237970d4384b","system_id":"levelo_inurba_marseille","lat":43.32369,"lon":5.38887,"is_reserved":false,"is_disabled":false,"rental_uris":{"android":"levelo://app?vid=28709b84-b83d-46ed-8adb-237970d4384b","ios":"levelo://app?vid=28709b84-b83d-46ed-8adb-237970d4384b"},"vehicle_type_id":"4","last_reported":1729807740,"current_range_meters":29600,"station_id":"ce4bhqp2rcd13ifvqhog","pricing_plan_id":"cebpf4jnsgd1na2vs0mg"},{"bike_id":"72c14bab-2c59-48fd-b732-db0d56deca3c","system_id":"levelo_inurba_marseille","lat":43.28491,"lon":5.39479,"is_reserved":false,"is_disabled":false,"rental_uris":{"android":"levelo://app?vid=72c14bab-2c59-48fd-b732-db0d56deca3c","ios":"levelo://app?vid=72c14bab-2c59-48fd-b732-db0d56deca3c"},"vehicle_type_id":"4","last_reported":1729807740,"current_range_meters":32400,"station_id":"ce4bh5p2rcd13ifvqe4g","pricing_plan_id":"cebpf4jnsgd1na2vs0mg"},{"bike_id":"a2473142-94f8-49f6-a40b-21cfc06b5795","system_id":"levelo_inurba_marseille","lat":43.26213,"lon":5.37924,"is_reserved":false,"is_disabled":false,"rental_uris":{"android":"levelo://app?vid=a2473142-94f8-49f6-a40b-21cfc06b5795","ios":"levelo://app?vid=a2473142-94f8-49f6-a40b-21cfc06b5795"},"vehicle_type_id":"4","last_reported":1729807740,"current_range_meters":38400,"station_id":"ce4bhjp2rcd13ifvqg90","pricing_plan_id":"cebpf4jnsgd1na2vs0mg"},{"bike_id":"3d814bc8-7cde-42dc-be31-b3ae59f20bd8","system_id":"levelo_inurba_marseille","lat":43.30822,"lon":5.3965,"is_reserved":false,"is_disabled":false,"rental_uris":{"android":"levelo://app?vid=3d814bc8-7cde-42dc-be31-b3ae59f20bd8","ios":"levelo://app?vid=3d814bc8-7cde-42dc-be31-b3ae59f20bd8"},"vehicle_type_id":"4","last_reported":1729807740,"current_range_meters":31200,"station_id":"","pricing_plan_id":"cebpf4jnsgd1na2vs0mg"},{"bike_id":"2e45e5a2-d5d1-49cc-8793-cc67bff118cc","system_id":"levelo_inurba_marseille","lat":43.31085,"lon":5.42429,"is_reserved":false,"is_disabled":false,"rental_uris":{"android":"levelo://app?vid=2e45e5a2-d5d1-49cc-8793-cc67bff118cc","ios":"levelo://app?vid=2e45e5a2-d5d1-49cc-8793-cc67bff118cc"},"vehicle_type_id":"4","last_reported":1729807740,"current_range_meters":38800,"station_id":"ce4bhp92rcd13ifvqhag","pricing_plan_id":"cebpf4jnsgd1na2vs0mg"},{"bike_id":"ce42fb7a-0448-4758-8a74-e9e6ef4991ec","system_id":"levelo_inurba_marseille","lat":43.30352,"lon":5.41878,"is_reserved":false,"is_disabled":false,"rental_uris":{"android":"levelo://app?vid=ce42fb7a-0448-4758-8a74-e9e6ef4991ec","ios":"levelo://app?vid=ce42fb7a-0448-4758-8a74-e9e6ef4991ec"},"vehicle_type_id":"4","last_reported":1729807740,"current_range_meters":38400,"station_id":"ce4bhop2rcd13ifvqh7g","pricing_plan_id":"cebpf4jnsgd1na2vs0mg"},{"bike_id":"24f2bad0-f192-4524-b5fb-0acbffa55024","system_id":"levelo_inurba_marseille","lat":43.30424,"lon":5.38891,"is_reserved":false,"is_disabled":false,"rental_uris":{"android":"levelo://app?vid=24f2bad0-f192-4524-b5fb-0acbffa55024","ios":"levelo://app?vid=24f2bad0-f192-4524-b5fb-0acbffa55024"},"vehicle_type_id":"4","last_reported":1729807740,"current_range_meters":36800,"station_id":"ce4bgk12rcd13ifvqbi0","pricing_plan_id":"cebpf4jnsgd1na2vs0mg"},{"bike_id":"e8190fa1-a56a-429a-bf90-dc783abfa114","system_id":"levelo_inurba_marseille","lat":43.28714,"lon":5.37938,"is_reserved":false,"is_disabled":false,"rental_uris":{"android":"levelo://app?vid=e8190fa1-a56a-429a-bf90-dc783abfa114","ios":"levelo://app?vid=e8190fa1-a56a-429a-bf90-dc783abfa114"},"vehicle_type_id":"4","last_reported":1729807740,"current_range_meters":4000,"station_id":"ce4bh9p2rcd13ifvqec0","pricing_plan_id":"cebpf4jnsgd1na2vs0mg"},{"bike_id":"ba329445-b52f-4104-803e-5006327ae862","system_id":"levelo_inurba_marseille","lat":43.29786,"lon":5.37098,"is_reserved":false,"is_disabled":false,"rental_uris":{"android":"levelo://app?vid=ba329445-b52f-4104-803e-5006327ae862","ios":"levelo://app?vid=ba329445-b52f-4104-803e-5006327ae862"},"vehicle_type_id":"4","last_reported":1729807740,"current_range_meters":28800,"station_id":"ce4bgop2rcd13ifvqc1g","pricing_plan_id":"cebpf4jnsgd1na2vs0mg"},{"bike_id":"92e247c8-d1f0-4daf-9793-aa4479a54088","system_id":"levelo_inurba_marseille","lat":43.31073,"lon":5.38348,"is_reserved":false,"is_disabled":false,"rental_uris":{"android":"levelo://app?vid=92e247c8-d1f0-4daf-9793-aa4479a54088","ios":"levelo://app?vid=92e247c8-d1f0-4daf-9793-aa4479a54088"},"vehicle_type_id":"4","last_reported":1729807740,"current_range_meters":38800,"station_id":"ce4bgv92rcd13ifvqcr0","pricing_plan_id":"cebpf4jnsgd1na2vs0mg"},{"bike_id":"97ec5764-5d01-4c7c-ae7a-e42ca86312a5","system_id":"levelo_inurba_marseille","lat":43.27907,"lon":5.3959,"is_reserved":false,"is_disabled":false,"rental_uris":{"android":"levelo://app?vid=97ec5764-5d01-4c7c-ae7a-e42ca86312a5","ios":"levelo://app?vid=97ec5764-5d01-4c7c-ae7a-e42ca86312a5"},"vehicle_type_id":"4","last_reported":1729807740,"current_range_meters":28800,"station_id":"ce4bhf92rcd13ifvqf40","pricing_plan_id":"cebpf4jnsgd1na2vs0mg"},{"bike_id":"7feaf490-af7e-499b-85b5-5873320243c5","system_id":"levelo_inurba_marseille","lat":43.28853,"lon":5.39314,"is_reserved":false,"is_disabled":false,"rental_uris":{"android":"levelo://app?vid=7feaf490-af7e-499b-85b5-5873320243c5","ios":"levelo://app?vid=7feaf490-af7e-499b-85b5-5873320243c5"},"vehicle_type_id":"4","last_reported":1729807740,"current_range_meters":25200,"station_id":"ce4bh2p2rcd13ifvqdi0","pricing_plan_id":"cebpf4jnsgd1na2vs0mg"},{"bike_id":"86b85f9f-69e5-436e-849b-2d27de126d48","system_id":"levelo_inurba_marseille","lat":43.27997,"lon":5.40008,"is_reserved":false,"is_disabled":false,"rental_uris":{"android":"levelo://app?vid=86b85f9f-69e5-436e-849b-2d27de126d48","ios":"levelo://app?vid=86b85f9f-69e5-436e-849b-2d27de126d48"},"vehicle_type_id":"4","last_reported":1729807740,"current_range_meters":38000,"station_id":"ce4bhnh2rcd13ifvqgug","pricing_plan_id":"cebpf4jnsgd1na2vs0mg"},{"bike_id":"36856ec2-b80b-4ae8-abff-10088c18f7e8","system_id":"levelo_inurba_marseille","lat":43.24167,"lon":5.36398,"is_reserved":false,"is_disabled":false,"rental_uris":{"android":"levelo://app?vid=36856ec2-b80b-4ae8-abff-10088c18f7e8","ios":"levelo://app?vid=36856ec2-b80b-4ae8-abff-10088c18f7e8"},"vehicle_type_id":"4","last_reported":1729807740,"current_range_meters":38800,"station_id":"cpo36qri1sfpv3e86is0","pricing_plan_id":"cebpf4jnsgd1na2vs0mg"},{"bike_id":"91c201c9-c2dc-4300-a123-03b2b099ca54","system_id":"levelo_inurba_marseille","lat":43.28439,"lon":5.39188,"is_reserved":false,"is_disabled":false,"rental_uris":{"android":"levelo://app?vid=91c201c9-c2dc-4300-a123-03b2b099ca54","ios":"levelo://app?vid=91c201c9-c2dc-4300-a123-03b2b099ca54"},"vehicle_type_id":"4","last_reported":1729807740,"current_range_meters":27600,"station_id":"ce4bhoh2rcd13ifvqh5g","pricing_plan_id":"cebpf4jnsgd1na2vs0mg"},{"bike_id":"ce024c82-e6ae-459c-bfa6-0cc621f3cbcc","system_id":"levelo_inurba_marseille","lat":43.28266,"lon":5.35063,"is_reserved":false,"is_disabled":false,"rental_uris":{"android":"levelo://app?vid=ce024c82-e6ae-459c-bfa6-0cc621f3cbcc","ios":"levelo://app?vid=ce024c82-e6ae-459c-bfa6-0cc621f3cbcc"},"vehicle_type_id":"4","last_reported":1729807740,"current_range_meters":12800,"station_id":"ce4bhbp2rcd13ifvqerg","pricing_plan_id":"cebpf4jnsgd1na2vs0mg"},{"bike_id":"08057314-a0da-45fd-86db-0ff346f45f9c","system_id":"levelo_inurba_marseille","lat":43.28268,"lon":5.35063,"is_reserved":false,"is_disabled":false,"rental_uris":{"android":"levelo://app?vid=08057314-a0da-45fd-86db-0ff346f45f9c","ios":"levelo://app?vid=08057314-a0da-45fd-86db-0ff346f45f9c"},"vehicle_type_id":"4","last_reported":1729807740,"current_range_meters":12000,"station_id":"ce4bhbp2rcd13ifvqerg","pricing_plan_id":"cebpf4jnsgd1na2vs0mg"},{"bike_id":"d9ebfa44-9372-4017-a5c5-721a24441e7f","system_id":"levelo_inurba_marseille","lat":43.28344,"lon":5.38104,"is_reserved":false,"is_disabled":false,"rental_uris":{"android":"levelo://app?vid=d9ebfa44-9372-4017-a5c5-721a24441e7f","ios":"levelo://app?vid=d9ebfa44-9372-4017-a5c5-721a24441e7f"},"vehicle_type_id":"4","last_reported":1729807740,"current_range_meters":34000,"station_id":"ce4bh412rcd13ifvqdr0","pricing_plan_id":"cebpf4jnsgd1na2vs0mg"},{"bike_id":"97fd9a62-963c-450c-b76b-36e48aba6ce1","system_id":"levelo_inurba_marseille","lat":43.30885,"lon":5.3965,"is_reserved":false,"is_disabled":false,"rental_uris":{"android":"levelo://app?vid=97fd9a62-963c-450c-b76b-36e48aba6ce1","ios":"levelo://app?vid=97fd9a62-963c-450c-b76b-36e48aba6ce1"},"vehicle_type_id":"4","last_reported":1729807740,"current_range_meters":38400,"station_id":"ce4bh012rcd13ifvqcv0","pricing_plan_id":"cebpf4jnsgd1na2vs0mg"},{"bike_id":"b3bdd056-bfea-46fe-b113-3460c5612cb7","system_id":"levelo_inurba_marseille","lat":43.28707,"lon":5.37389,"is_reserved":false,"is_disabled":false,"rental_uris":{"android":"levelo://app?vid=b3bdd056-bfea-46fe-b113-3460c5612cb7","ios":"levelo://app?vid=b3bdd056-bfea-46fe-b113-3460c5612cb7"},"vehicle_type_id":"4","last_reported":1729807740,"current_range_meters":36000,"station_id":"ce4bh3p2rcd13ifvqdq0","pricing_plan_id":"cebpf4jnsgd1na2vs0mg"},{"bike_id":"031c5151-6166-4e35-88c9-9b4ea040f799","system_id":"levelo_inurba_marseille","lat":43.30802,"lon":5.38141,"is_reserved":false,"is_disabled":false,"rental_uris":{"android":"levelo://app?vid=031c5151-6166-4e35-88c9-9b4ea040f799","ios":"levelo://app?vid=031c5151-6166-4e35-88c9-9b4ea040f799"},"vehicle_type_id":"4","last_reported":1729807740,"current_range_meters":30800,"station_id":"ce4bgt12rcd13ifvqce0","pricing_plan_id":"cebpf4jnsgd1na2vs0mg"},{"bike_id":"d9755953-5b80-4b77-b2f2-d2f29be7f761","system_id":"levelo_inurba_marseille","lat":43.258633,"lon":5.398964,"is_reserved":false,"is_disabled":false,"rental_uris":{"android":"levelo://app?vid=d9755953-5b80-4b77-b2f2-d2f29be7f761","ios":"levelo://app?vid=d9755953-5b80-4b77-b2f2-d2f29be7f761"},"vehicle_type_id":"4","last_reported":1729807740,"current_range_meters":30800,"station_id":"ce4bhl92rcd13ifvqghg","pricing_plan_id":"cebpf4jnsgd1na2vs0mg"},{"bike_id":"365a5e76-e012-4983-b8a9-1a07480bde83","system_id":"levelo_inurba_marseille","lat":43.2319,"lon":5.35554,"is_reserved":false,"is_disabled":false,"rental_uris":{"android":"levelo://app?vid=365a5e76-e012-4983-b8a9-1a07480bde83","ios":"levelo://app?vid=365a5e76-e012-4983-b8a9-1a07480bde83"},"vehicle_type_id":"4","last_reported":1729807740,"current_range_meters":40000,"station_id":"ce4bhu92rcd13ifvqi70","pricing_plan_id":"cebpf4jnsgd1na2vs0mg"},{"bike_id":"a15fa6e1-ee1c-47a6-9f7a-2d840a2c7955","system_id":"levelo_inurba_marseille","lat":43.28566,"lon":5.39502,"is_reserved":false,"is_disabled":false,"rental_uris":{"android":"levelo://app?vid=a15fa6e1-ee1c-47a6-9f7a-2d840a2c7955","ios":"levelo://app?vid=a15fa6e1-ee1c-47a6-9f7a-2d840a2c7955"},"vehicle_type_id":"4","last_reported":1729807740,"current_range_meters":28800,"station_id":"ce4bh292rcd13ifvqdg0","pricing_plan_id":"cebpf4jnsgd1na2vs0mg"},{"bike_id":"caa255cb-8ab7-44f8-88c3-d2fd85f6f815","system_id":"levelo_inurba_marseille","lat":43.28493,"lon":5.38561,"is_reserved":false,"is_disabled":false,"rental_uris":{"android":"levelo://app?vid=caa255cb-8ab7-44f8-88c3-d2fd85f6f815","ios":"levelo://app?vid=caa255cb-8ab7-44f8-88c3-d2fd85f6f815"},"vehicle_type_id":"4","last_reported":1729807740,"current_range_meters":13600,"station_id":"ce4bh8p2rcd13ifvqeb0","pricing_plan_id":"cebpf4jnsgd1na2vs0mg"},{"bike_id":"25d5348b-c886-48ec-a914-9e34d0a55290","system_id":"levelo_inurba_marseille","lat":43.2738,"lon":5.36243,"is_reserved":false,"is_disabled":false,"rental_uris":{"android":"levelo://app?vid=25d5348b-c886-48ec-a914-9e34d0a55290","ios":"levelo://app?vid=25d5348b-c886-48ec-a914-9e34d0a55290"},"vehicle_type_id":"4","last_reported":1729807740,"current_range_meters":36800,"station_id":"ce4bhbh2rcd13ifvqeo0","pricing_plan_id":"cebpf4jnsgd1na2vs0mg"},{"bike_id":"6a79141b-22c2-4f73-9d7a-ee7148ee1bbf","system_id":"levelo_inurba_marseille","lat":43.2455,"lon":5.39521,"is_reserved":false,"is_disabled":false,"rental_uris":{"android":"levelo://app?vid=6a79141b-22c2-4f73-9d7a-ee7148ee1bbf","ios":"levelo://app?vid=6a79141b-22c2-4f73-9d7a-ee7148ee1bbf"},"vehicle_type_id":"4","last_reported":1729807740,"current_range_meters":38400,"station_id":"ce4bhlp2rcd13ifvqgjg","pricing_plan_id":"cebpf4jnsgd1na2vs0mg"},{"bike_id":"f417ea0d-341b-4a25-83f2-2b2d63ff817d","system_id":"levelo_inurba_marseille","lat":43.28412,"lon":5.3752,"is_reserved":false,"is_disabled":false,"rental_uris":{"android":"levelo://app?vid=f417ea0d-341b-4a25-83f2-2b2d63ff817d","ios":"levelo://app?vid=f417ea0d-341b-4a25-83f2-2b2d63ff817d"},"vehicle_type_id":"4","last_reported":1729807740,"current_range_meters":33600,"station_id":"ce4bh412rcd13ifvqds0","pricing_plan_id":"cebpf4jnsgd1na2vs0mg"},{"bike_id":"92e68c29-5065-4f0d-85be-f01c074079b5","system_id":"levelo_inurba_marseille","lat":43.27207,"lon":5.39186,"is_reserved":false,"is_disabled":false,"rental_uris":{"android":"levelo://app?vid=92e68c29-5065-4f0d-85be-f01c074079b5","ios":"levelo://app?vid=92e68c29-5065-4f0d-85be-f01c074079b5"},"vehicle_type_id":"4","last_reported":1729807740,"current_range_meters":24000,"station_id":"ce4bhhp2rcd13ifvqfm0","pricing_plan_id":"cebpf4jnsgd1na2vs0mg"},{"bike_id":"d4c3f55d-fd45-4f78-9f7c-d19fe141e9b6","system_id":"levelo_inurba_marseille","lat":43.31058,"lon":5.40088,"is_reserved":false,"is_disabled":false,"rental_uris":{"android":"levelo://app?vid=d4c3f55d-fd45-4f78-9f7c-d19fe141e9b6","ios":"levelo://app?vid=d4c3f55d-fd45-4f78-9f7c-d19fe141e9b6"},"vehicle_type_id":"4","last_reported":1729807740,"current_range_meters":33600,"station_id":"ce4bhpp2rcd13ifvqhfg","pricing_plan_id":"cebpf4jnsgd1na2vs0mg"},{"bike_id":"62ae50a7-cff4-47ff-8401-e110f2bc4992","system_id":"levelo_inurba_marseille","lat":43.31889,"lon":5.40726,"is_reserved":false,"is_disabled":false,"rental_uris":{"android":"levelo://app?vid=62ae50a7-cff4-47ff-8401-e110f2bc4992","ios":"levelo://app?vid=62ae50a7-cff4-47ff-8401-e110f2bc4992"},"vehicle_type_id":"4","last_reported":1729807740,"current_range_meters":25600,"station_id":"ce4bhq12rcd13ifvqhig","pricing_plan_id":"cebpf4jnsgd1na2vs0mg"},{"bike_id":"e329f342-bebb-46cf-802e-487eede4ef5e","system_id":"levelo_inurba_marseille","lat":43.27554,"lon":5.38427,"is_reserved":false,"is_disabled":false,"rental_uris":{"android":"levelo://app?vid=e329f342-bebb-46cf-802e-487eede4ef5e","ios":"levelo://app?vid=e329f342-bebb-46cf-802e-487eede4ef5e"},"vehicle_type_id":"4","last_reported":1729807740,"current_range_meters":38400,"station_id":"ce4bhh92rcd13ifvqfi0","pricing_plan_id":"cebpf4jnsgd1na2vs0mg"},{"bike_id":"3ec8f797-b457-4b3e-8189-7d11d80a06b2","system_id":"levelo_inurba_marseille","lat":43.27617,"lon":5.36108,"is_reserved":false,"is_disabled":false,"rental_uris":{"android":"levelo://app?vid=3ec8f797-b457-4b3e-8189-7d11d80a06b2","ios":"levelo://app?vid=3ec8f797-b457-4b3e-8189-7d11d80a06b2"},"vehicle_type_id":"4","last_reported":1729807740,"current_range_meters":17600,"station_id":"ce4bgj92rcd13ifvqbe0","pricing_plan_id":"cebpf4jnsgd1na2vs0mg"},{"bike_id":"bd0fb11c-81e7-45db-a3bb-7471afbb37a6","system_id":"levelo_inurba_marseille","lat":43.30537,"lon":5.3843,"is_reserved":false,"is_disabled":false,"rental_uris":{"android":"levelo://app?vid=bd0fb11c-81e7-45db-a3bb-7471afbb37a6","ios":"levelo://app?vid=bd0fb11c-81e7-45db-a3bb-7471afbb37a6"},"vehicle_type_id":"4","last_reported":1729807740,"current_range_meters":36800,"station_id":"ce4bgg92rcd13ifvqb30","pricing_plan_id":"cebpf4jnsgd1na2vs0mg"},{"bike_id":"70893557-cc44-4001-9b68-e4f04b3694ad","system_id":"levelo_inurba_marseille","lat":43.28659,"lon":5.36355,"is_reserved":false,"is_disabled":false,"rental_uris":{"android":"levelo://app?vid=70893557-cc44-4001-9b68-e4f04b3694ad","ios":"levelo://app?vid=70893557-cc44-4001-9b68-e4f04b3694ad"},"vehicle_type_id":"4","last_reported":1729807740,"current_range_meters":35200,"station_id":"ce4bhah2rcd13ifvqej0","pricing_plan_id":"cebpf4jnsgd1na2vs0mg"},{"bike_id":"9aa99984-3aab-4a38-a014-145c49eab468","system_id":"levelo_inurba_marseille","lat":43.24656,"lon":5.38899,"is_reserved":false,"is_disabled":false,"rental_uris":{"android":"levelo://app?vid=9aa99984-3aab-4a38-a014-145c49eab468","ios":"levelo://app?vid=9aa99984-3aab-4a38-a014-145c49eab468"},"vehicle_type_id":"4","last_reported":1729807740,"current_range_meters":20800,"station_id":"ce4bhg12rcd13ifvqf60","pricing_plan_id":"cebpf4jnsgd1na2vs0mg"},{"bike_id":"40ddc5b2-9f50-4dc0-93f3-8a7717761f5c","system_id":"levelo_inurba_marseille","lat":43.29329,"lon":5.45474,"is_reserved":false,"is_disabled":false,"rental_uris":{"android":"levelo://app?vid=40ddc5b2-9f50-4dc0-93f3-8a7717761f5c","ios":"levelo://app?vid=40ddc5b2-9f50-4dc0-93f3-8a7717761f5c"},"vehicle_type_id":"4","last_reported":1729807740,"current_range_meters":28400,"station_id":"","pricing_plan_id":"cebpf4jnsgd1na2vs0mg"},{"bike_id":"15a2e371-395c-448c-9530-38c5a0a141a6","system_id":"levelo_inurba_marseille","lat":43.29195,"lon":5.39319,"is_reserved":false,"is_disabled":false,"rental_uris":{"android":"levelo://app?vid=15a2e371-395c-448c-9530-38c5a0a141a6","ios":"levelo://app?vid=15a2e371-395c-448c-9530-38c5a0a141a6"},"vehicle_type_id":"4","last_reported":1729807740,"current_range_meters":34000,"station_id":"ce4bh192rcd13ifvqdd0","pricing_plan_id":"cebpf4jnsgd1na2vs0mg"},{"bike_id":"7c1e729b-7c6a-4f7f-87cd-db2dd498acc3","system_id":"levelo_inurba_marseille","lat":43.25933,"lon":5.40899,"is_reserved":false,"is_disabled":false,"rental_uris":{"android":"levelo://app?vid=7c1e729b-7c6a-4f7f-87cd-db2dd498acc3","ios":"levelo://app?vid=7c1e729b-7c6a-4f7f-87cd-db2dd498acc3"},"vehicle_type_id":"4","last_reported":1729807740,"current_range_meters":24800,"station_id":"ce4bhm92rcd13ifvqglg","pricing_plan_id":"cebpf4jnsgd1na2vs0mg"},{"bike_id":"bb99c686-b07c-4af0-8837-e709a8664290","system_id":"levelo_inurba_marseille","lat":43.31076,"lon":5.3835,"is_reserved":false,"is_disabled":false,"rental_uris":{"android":"levelo://app?vid=bb99c686-b07c-4af0-8837-e709a8664290","ios":"levelo://app?vid=bb99c686-b07c-4af0-8837-e709a8664290"},"vehicle_type_id":"4","last_reported":1729807740,"current_range_meters":34000,"station_id":"ce4bgv92rcd13ifvqcr0","pricing_plan_id":"cebpf4jnsgd1na2vs0mg"},{"bike_id":"534c4532-53f4-4e3a-b75c-ff40e4b469a9","system_id":"levelo_inurba_marseille","lat":43.25826,"lon":5.39428,"is_reserved":false,"is_disabled":false,"rental_uris":{"android":"levelo://app?vid=534c4532-53f4-4e3a-b75c-ff40e4b469a9","ios":"levelo://app?vid=534c4532-53f4-4e3a-b75c-ff40e4b469a9"},"vehicle_type_id":"4","last_reported":1729807740,"current_range_meters":11200,"station_id":"ce4bhip2rcd13ifvqft0","pricing_plan_id":"cebpf4jnsgd1na2vs0mg"},{"bike_id":"2834db33-ea3b-41ba-9098-458388a2bc25","system_id":"levelo_inurba_marseille","lat":43.240688,"lon":5.377493,"is_reserved":false,"is_disabled":false,"rental_uris":{"android":"levelo://app?vid=2834db33-ea3b-41ba-9098-458388a2bc25","ios":"levelo://app?vid=2834db33-ea3b-41ba-9098-458388a2bc25"},"vehicle_type_id":"4","last_reported":1729807740,"current_range_meters":35200,"station_id":"ce4bhnp2rcd13ifvqgvg","pricing_plan_id":"cebpf4jnsgd1na2vs0mg"},{"bike_id":"f79e61b3-2466-4684-8b40-d66eead92754","system_id":"levelo_inurba_marseille","lat":43.29042,"lon":5.35917,"is_reserved":false,"is_disabled":false,"rental_uris":{"android":"levelo://app?vid=f79e61b3-2466-4684-8b40-d66eead92754","ios":"levelo://app?vid=f79e61b3-2466-4684-8b40-d66eead92754"},"vehicle_type_id":"4","last_reported":1729807740,"current_range_meters":12400,"station_id":"ce4bha92rcd13ifvqeg0","pricing_plan_id":"cebpf4jnsgd1na2vs0mg"},{"bike_id":"1bd954cd-f8e9-4b5c-86a1-229b675d4c5d","system_id":"levelo_inurba_marseille","lat":43.30888,"lon":5.37192,"is_reserved":false,"is_disabled":false,"rental_uris":{"android":"levelo://app?vid=1bd954cd-f8e9-4b5c-86a1-229b675d4c5d","ios":"levelo://app?vid=1bd954cd-f8e9-4b5c-86a1-229b675d4c5d"},"vehicle_type_id":"4","last_reported":1729807740,"current_range_meters":13600,"station_id":"ce4bguh2rcd13ifvqckg","pricing_plan_id":"cebpf4jnsgd1na2vs0mg"},{"bike_id":"a2d00919-a14f-4fa6-88e8-550081f59844","system_id":"levelo_inurba_marseille","lat":43.31078,"lon":5.38352,"is_reserved":false,"is_disabled":false,"rental_uris":{"android":"levelo://app?vid=a2d00919-a14f-4fa6-88e8-550081f59844","ios":"levelo://app?vid=a2d00919-a14f-4fa6-88e8-550081f59844"},"vehicle_type_id":"4","last_reported":1729807740,"current_range_meters":36000,"station_id":"ce4bgv92rcd13ifvqcr0","pricing_plan_id":"cebpf4jnsgd1na2vs0mg"},{"bike_id":"6787cd29-a3eb-4712-94aa-19427ce6ab9f","system_id":"levelo_inurba_marseille","lat":43.28108,"lon":5.37834,"is_reserved":false,"is_disabled":false,"rental_uris":{"android":"levelo://app?vid=6787cd29-a3eb-4712-94aa-19427ce6ab9f","ios":"levelo://app?vid=6787cd29-a3eb-4712-94aa-19427ce6ab9f"},"vehicle_type_id":"4","last_reported":1729807740,"current_range_meters":28000,"station_id":"ce4bha12rcd13ifvqee0","pricing_plan_id":"cebpf4jnsgd1na2vs0mg"},{"bike_id":"64b170f8-2500-48ef-96a3-25f7c0707542","system_id":"levelo_inurba_marseille","lat":43.337444,"lon":5.374475,"is_reserved":false,"is_disabled":false,"rental_uris":{"android":"levelo://app?vid=64b170f8-2500-48ef-96a3-25f7c0707542","ios":"levelo://app?vid=64b170f8-2500-48ef-96a3-25f7c0707542"},"vehicle_type_id":"4","last_reported":1729807740,"current_range_meters":4800,"station_id":"","pricing_plan_id":"cebpf4jnsgd1na2vs0mg"},{"bike_id":"189bfb6f-3f8d-400e-87f5-4190ce531a5b","system_id":"levelo_inurba_marseille","lat":43.25121,"lon":5.40313,"is_reserved":false,"is_disabled":false,"rental_uris":{"android":"levelo://app?vid=189bfb6f-3f8d-400e-87f5-4190ce531a5b","ios":"levelo://app?vid=189bfb6f-3f8d-400e-87f5-4190ce531a5b"},"vehicle_type_id":"4","last_reported":1729807740,"current_range_meters":17200,"station_id":"ce4bhlh2rcd13ifvqgig","pricing_plan_id":"cebpf4jnsgd1na2vs0mg"},{"bike_id":"4f409860-e0f7-4877-99ee-a24fed7f0e97","system_id":"levelo_inurba_marseille","lat":43.2781,"lon":5.40718,"is_reserved":false,"is_disabled":false,"rental_uris":{"android":"levelo://app?vid=4f409860-e0f7-4877-99ee-a24fed7f0e97","ios":"levelo://app?vid=4f409860-e0f7-4877-99ee-a24fed7f0e97"},"vehicle_type_id":"4","last_reported":1729807740,"current_range_meters":35200,"station_id":"ce4bhnh2rcd13ifvqgtg","pricing_plan_id":"cebpf4jnsgd1na2vs0mg"},{"bike_id":"8629bbd2-c025-4a07-8726-3ba170e6f41e","system_id":"levelo_inurba_marseille","lat":43.29254,"lon":5.40913,"is_reserved":false,"is_disabled":false,"rental_uris":{"android":"levelo://app?vid=8629bbd2-c025-4a07-8726-3ba170e6f41e","ios":"levelo://app?vid=8629bbd2-c025-4a07-8726-3ba170e6f41e"},"vehicle_type_id":"4","last_reported":1729807740,"current_range_meters":32000,"station_id":"ce4bh192rcd13ifvqdc0","pricing_plan_id":"cebpf4jnsgd1na2vs0mg"},{"bike_id":"853c5fd8-2c69-41c0-8133-06575a606565","system_id":"levelo_inurba_marseille","lat":43.29635,"lon":5.40603,"is_reserved":false,"is_disabled":false,"rental_uris":{"android":"levelo://app?vid=853c5fd8-2c69-41c0-8133-06575a606565","ios":"levelo://app?vid=853c5fd8-2c69-41c0-8133-06575a606565"},"vehicle_type_id":"4","last_reported":1729807740,"current_range_meters":27600,"station_id":"ce4bh0h2rcd13ifvqd60","pricing_plan_id":"cebpf4jnsgd1na2vs0mg"},{"bike_id":"c31166d3-dc22-4dc2-af12-b22d3f80aedb","system_id":"levelo_inurba_marseille","lat":43.28074,"lon":5.39656,"is_reserved":false,"is_disabled":false,"rental_uris":{"android":"levelo://app?vid=c31166d3-dc22-4dc2-af12-b22d3f80aedb","ios":"levelo://app?vid=c31166d3-dc22-4dc2-af12-b22d3f80aedb"},"vehicle_type_id":"4","last_reported":1729807740,"current_range_meters":19600,"station_id":"ce4bho12rcd13ifvqh2g","pricing_plan_id":"cebpf4jnsgd1na2vs0mg"},{"bike_id":"2b51b7bd-446d-4776-a439-fffcad3cea47","system_id":"levelo_inurba_marseille","lat":43.25825,"lon":5.39432,"is_reserved":false,"is_disabled":false,"rental_uris":{"android":"levelo://app?vid=2b51b7bd-446d-4776-a439-fffcad3cea47","ios":"levelo://app?vid=2b51b7bd-446d-4776-a439-fffcad3cea47"},"vehicle_type_id":"4","last_reported":1729807740,"current_range_meters":27600,"station_id":"ce4bhip2rcd13ifvqft0","pricing_plan_id":"cebpf4jnsgd1na2vs0mg"},{"bike_id":"b37a0ae1-907f-412d-8e1a-06a9de441401","system_id":"levelo_inurba_marseille","lat":43.25084,"lon":5.39522,"is_reserved":false,"is_disabled":false,"rental_uris":{"android":"levelo://app?vid=b37a0ae1-907f-412d-8e1a-06a9de441401","ios":"levelo://app?vid=b37a0ae1-907f-412d-8e1a-06a9de441401"},"vehicle_type_id":"4","last_reported":1729807740,"current_range_meters":38800,"station_id":"ce4bhm12rcd13ifvqgkg","pricing_plan_id":"cebpf4jnsgd1na2vs0mg"},{"bike_id":"21250524-0adc-45ee-b780-72cd46b05974","system_id":"levelo_inurba_marseille","lat":43.3043,"lon":5.38884,"is_reserved":false,"is_disabled":false,"rental_uris":{"android":"levelo://app?vid=21250524-0adc-45ee-b780-72cd46b05974","ios":"levelo://app?vid=21250524-0adc-45ee-b780-72cd46b05974"},"vehicle_type_id":"4","last_reported":1729807740,"current_range_meters":24000,"station_id":"ce4bgk12rcd13ifvqbi0","pricing_plan_id":"cebpf4jnsgd1na2vs0mg"},{"bike_id":"a5623f03-5a79-42ab-814c-4232167456b1","system_id":"levelo_inurba_marseille","lat":43.30296,"lon":5.38478,"is_reserved":false,"is_disabled":false,"rental_uris":{"android":"levelo://app?vid=a5623f03-5a79-42ab-814c-4232167456b1","ios":"levelo://app?vid=a5623f03-5a79-42ab-814c-4232167456b1"},"vehicle_type_id":"4","last_reported":1729807740,"current_range_meters":28400,"station_id":"","pricing_plan_id":"cebpf4jnsgd1na2vs0mg"},{"bike_id":"afcebe5d-45a3-43a4-95c9-1c63bd19e250","system_id":"levelo_inurba_marseille","lat":43.32049,"lon":5.41553,"is_reserved":false,"is_disabled":false,"rental_uris":{"android":"levelo://app?vid=afcebe5d-45a3-43a4-95c9-1c63bd19e250","ios":"levelo://app?vid=afcebe5d-45a3-43a4-95c9-1c63bd19e250"},"vehicle_type_id":"4","last_reported":1729807740,"current_range_meters":17200,"station_id":"ce4bhq92rcd13ifvqhkg","pricing_plan_id":"cebpf4jnsgd1na2vs0mg"},