{"last_updated":1701598020,"ttl":30,"version":"2.2","data":{"bikes":[{"bike_id":"a79c895f-dfd8-4233-9881-24d019f38123","system_id":"levelo_inurba_marseille","lat":43.31341,"lon":5.367098,"is_reserved":false,"is_disabled":false,"rental_uris":{"android":"levelo://app?vid=a79c895f-dfd8-4233-9881-24d019f38123","ios":"levelo://app?vid=a79c895f-dfd8-4233-9881-24d019f38123"},"vehicle_type_id":"4","last_reported":1701598020,"current_range_meters":25200,"station_id":"ce4bgr92rcd13ifvqc6g","pricing_plan_id":"free"},{"bike_id":"3f1d5815-73a7-4839-a170-d5d2532d9a79","system_id":"levelo_inurba_marseille","lat":43.309076,"lon":5.368465,"is_reserved":false,"is_disabled":false,"rental_uris":{"android":"levelo://app?vid=3f1d5815-73a7-4839-a170-d5d2532d9a79","ios":"levelo://app?vid=3f1d5815-73a7-4839-a170-d5d2532d9a79"},"vehicle_type_id":"4","last_reported":1701598020,"current_range_meters":21200,"station_id":"ce4bgn92rcd13ifvqbvg","pricing_plan_id":"free"},{"bike_id":"19337c19-12ca-4f3b-a568-40a561779510","system_id":"levelo_inurba_marseille","lat":43.308889,"lon":5.368044,"is_reserved":false,"is_disabled":false,"rental_uris":{"android":"levelo://app?vid=19337c19-12ca-4f3b-a568-40a561779510","ios":"levelo://app?vid=19337c19-12ca-4f3b-a568-40a561779510"},"vehicle_type_id":"4","last_reported":1701598020,"current_range_meters":24800,"station_id":"ce4bgn92rcd13ifvqbvg","pricing_plan_id":"free"},{"bike_id":"5ec25835-dd81-4a6f-b1a4-99b59591f081","system_id":"levelo_inurba_marseille","lat":43.305706,"lon":5.365654,"is_reserved":false,"is_disabled":false,"rental_uris":{"android":"levelo://app?vid=5ec25835-dd81-4a6f-b1a4-99b59591f081","ios":"levelo://app?vid=5ec25835-dd81-4a6f-b1a4-99b59591f081"},"vehicle_type_id":"4","last_reported":1701598020,"current_range_meters":27600,"station_id":"ce4bgs12rcd13ifvqcag","pricing_plan_id":"free"},{"bike_id":"803be7f2-81e4-4baf-a3df-d3b0ba9662a4","system_id":"levelo_inurba_marseille","lat":43.305714,"lon":5.365633,"is_reserved":false,"is_disabled":false,"rental_uris":{"android":"levelo://app?vid=803be7f2-81e4-4baf-a3df-d3b0ba9662a4","ios":"levelo://app?vid=803be7f2-81e4-4baf-a3df-d3b0ba9662a4"},"vehicle_type_id":"4","last_reported":1701598020,"current_range_meters":19600,"station_id":"ce4bgs12rcd13ifvqcag","pricing_plan_id":"free"},{"bike_id":"0d3403ac-a3f2-46e2-ad0d-638934986db2","system_id":"levelo_inurba_marseille","lat":43.305714,"lon":5.365633,"is_reserved":false,"is_disabled":false,"rental_uris":{"android":"levelo://app?vid=0d3403ac-a3f2-46e2-ad0d-638934986db2","ios":"levelo://app?vid=0d3403ac-a3f2-46e2-ad0d-638934986db2"},"vehicle_type_id":"4","last_reported":1701598020,"current_range_meters":20800,"station_id":"ce4bgs12rcd13ifvqcag","pricing_plan_id":"free"},{"bike_id":"b204b830-61ca-433c-b6b6-a6d7af24feda","system_id":"levelo_inurba_marseille","lat":43.305989,"lon":5.37225,"is_reserved":false,"is_disabled":false,"rental_uris":{"android":"levelo://app?vid=b204b830-61ca-433c-b6b6-a6d7af24feda","ios":"levelo://app?vid=b204b830-61ca-433c-b6b6-a6d7af24feda"},"vehicle_type_id":"4","last_reported":1701598020,"current_range_meters":19200,"station_id":"ce4bgqh2rcd13ifvqc4g","pricing_plan_id":"free"},{"bike_id":"f427a2c3-6e4a-446b-ae2f-9be8aa7f4122","system_id":"levelo_inurba_marseille","lat":43.31719,"lon":5.376813,"is_reserved":false,"is_disabled":false,"rental_uris":{"android":"levelo://app?vid=f427a2c3-6e4a-446b-ae2f-9be8aa7f4122","ios":"levelo://app?vid=f427a2c3-6e4a-446b-ae2f-9be8aa7f4122"},"vehicle_type_id":"4","last_reported":1701598020,"current_range_meters":0,"station_id":"","pricing_plan_id":"free"},{"bike_id":"e913f328-1e31-4c22-bd87-f809ea246de4","system_id":"levelo_inurba_marseille","lat":43.317168,"lon":5.376883,"is_reserved":false,"is_disabled":false,"rental_uris":{"android":"levelo://app?vid=e913f328-1e31-4c22-bd87-f809ea246de4","ios":"levelo://app?vid=e913f328-1e31-4c22-bd87-f809ea246de4"},"vehicle_type_id":"4","last_reported":1701598020,"current_range_meters":0,"station_id":"","pricing_plan_id":"free"},{"bike_id":"fb6fd937-527b-4585-9058-0dfdc6436ac8","system_id":"levelo_inurba_marseille","lat":43.31351,"lon":5.37909,"is_reserved":false,"is_disabled":false,"rental_uris":{"android":"levelo://app?vid=fb6fd937-527b-4585-9058-0dfdc6436ac8","ios":"levelo://app?vid=fb6fd937-527b-4585-9058-0dfdc6436ac8"},"vehicle_type_id":"4","last_reported":1701598020,"current_range_meters":18400,"station_id":"","pricing_plan_id":"free"},{"bike_id":"1c5be127-a170-451f-a718-647108f14db1","system_id":"levelo_inurba_marseille","lat":43.317075,"lon":5.377367,"is_reserved":false,"is_disabled":false,"rental_uris":{"android":"levelo://app?vid=1c5be127-a170-451f-a718-647108f14db1","ios":"levelo://app?vid=1c5be127-a170-451f-a718-647108f14db1"},"vehicle_type_id":"4","last_reported":1701598020,"current_range_meters":17600,"station_id":"ce4bgth2rcd13ifvqch0","pricing_plan_id":"free"},{"bike_id":"8c6725c5-5ff6-4a6a-9768-66e32939cf43","system_id":"levelo_inurba_marseille","lat":43.324771,"lon":5.36557,"is_reserved":false,"is_disabled":false,"rental_uris":{"android":"levelo://app?vid=8c6725c5-5ff6-4a6a-9768-66e32939cf43","ios":"levelo://app?vid=8c6725c5-5ff6-4a6a-9768-66e32939cf43"},"vehicle_type_id":"4","last_reported":1701598020,"current_range_meters":22400,"station_id":"ce4bhs12rcd13ifvqhvg","pricing_plan_id":"free"},{"bike_id":"bc8eac31-4b5b-48b3-aa99-5c3fdd18d82e","system_id":"levelo_inurba_marseille","lat":43.324771,"lon":5.36557,"is_reserved":false,"is_disabled":false,"rental_uris":{"android":"levelo://app?vid=bc8eac31-4b5b-48b3-aa99-5c3fdd18d82e","ios":"levelo://app?vid=bc8eac31-4b5b-48b3-aa99-5c3fdd18d82e"},"vehicle_type_id":"4","last_reported":1701598020,"current_range_meters":13600,"station_id":"ce4bhs12rcd13ifvqhvg","pricing_plan_id":"free"},{"bike_id":"663eb6ac-e195-4ceb-89e5-94a4340d49ba","system_id":"levelo_inurba_marseille","lat":43.301429,"lon":5.37413,"is_reserved":false,"is_disabled":false,"rental_uris":{"android":"levelo://app?vid=663eb6ac-e195-4ceb-89e5-94a4340d49ba","ios":"levelo://app?vid=663eb6ac-e195-4ceb-89e5-94a4340d49ba"},"vehicle_type_id":"4","last_reported":1701598020,"current_range_meters":19600,"station_id":"ce4bgs92rcd13ifvqcc0","pricing_plan_id":"free"},{"bike_id":"2275aca5-3158-4c2c-8022-ca5d2714bc86","system_id":"levelo_inurba_marseille","lat":43.319997,"lon":5.381594,"is_reserved":false,"is_disabled":false,"rental_uris":{"android":"levelo://app?vid=2275aca5-3158-4c2c-8022-ca5d2714bc86","ios":"levelo://app?vid=2275aca5-3158-4c2c-8022-ca5d2714bc86"},"vehicle_type_id":"4","last_reported":1701598020,"current_range_meters":12000,"station_id":"ce4bhr12rcd13ifvqhpg","pricing_plan_id":"free"},{"bike_id":"9fdb7f97-586d-42d2-befd-15216ba2e422","system_id":"levelo_inurba_marseille","lat":43.31183,"lon":5.38523,"is_reserved":false,"is_disabled":false,"rental_uris":{"android":"levelo://app?vid=9fdb7f97-586d-42d2-befd-15216ba2e422","ios":"levelo://app?vid=9fdb7f97-586d-42d2-befd-15216ba2e422"},"vehicle_type_id":"4","last_reported":1701598020,"current_range_meters":0,"station_id":"","pricing_plan_id":"free"},{"bike_id":"0fff9762-2957-4285-af98-7d06efb0717a","system_id":"levelo_inurba_marseille","lat":43.299724,"lon":5.371829,"is_reserved":false,"is_disabled":false,"rental_uris":{"android":"levelo://app?vid=0fff9762-2957-4285-af98-7d06efb0717a","ios":"levelo://app?vid=0fff9762-2957-4285-af98-7d06efb0717a"},"vehicle_type_id":"4","last_reported":1701598020,"current_range_meters":28400,"station_id":"ce4bgr92rcd13ifvqc7g","pricing_plan_id":"free"},{"bike_id":"748d12ab-8e09-4ecd-b2d2-cbe0ea9624f6","system_id":"levelo_inurba_marseille","lat":43.29897,"lon":5.367279,"is_reserved":false,"is_disabled":false,"rental_uris":{"android":"levelo://app?vid=748d12ab-8e09-4ecd-b2d2-cbe0ea9624f6","ios":"levelo://app?vid=748d12ab-8e09-4ecd-b2d2-cbe0ea9624f6"},"vehicle_type_id":"4","last_reported":1701598020,"current_range_meters":2400,"station_id":"","pricing_plan_id":"free"},{"bike_id":"00e67ff7-871b-409c-b0ba-d233ae404f26","system_id":"levelo_inurba_marseille","lat":43.298433,"lon":5.362774,"is_reserved":false,"is_disabled":false,"rental_uris":{"android":"levelo://app?vid=00e67ff7-871b-409c-b0ba-d233ae404f26","ios":"levelo://app?vid=00e67ff7-871b-409c-b0ba-d233ae404f26"},"vehicle_type_id":"4","last_reported":1701598020,"current_range_meters":28000,"station_id":"ce4bgpp2rcd13ifvqc3g","pricing_plan_id":"free"},{"bike_id":"bdfd353d-3f0d-4587-ae92-9241fbc7f201","system_id":"levelo_inurba_marseille","lat":43.29846,"lon":5.36278,"is_reserved":false,"is_disabled":false,"rental_uris":{"android":"levelo://app?vid=bdfd353d-3f0d-4587-ae92-9241fbc7f201","ios":"levelo://app?vid=bdfd353d-3f0d-4587-ae92-9241fbc7f201"},"vehicle_type_id":"4","last_reported":1701598020,"current_range_meters":29600,"station_id":"ce4bgpp2rcd13ifvqc3g","pricing_plan_id":"free"},{"bike_id":"14aa6f0e-730b-45b2-aaa7-f935cdbea959","system_id":"levelo_inurba_marseille","lat":43.29843,"lon":5.36276,"is_reserved":false,"is_disabled":false,"rental_uris":{"android":"levelo://app?vid=14aa6f0e-730b-45b2-aaa7-f935cdbea959","ios":"levelo://app?vid=14aa6f0e-730b-45b2-aaa7-f935cdbea959"},"vehicle_type_id":"4","last_reported":1701598020,"current_range_meters":27600,"station_id":"ce4bgpp2rcd13ifvqc3g","pricing_plan_id":"free"},{"bike_id":"5ebcee0e-dce0-4d02-915a-7129853be43b","system_id":"levelo_inurba_marseille","lat":43.297794,"lon":5.370888,"is_reserved":false,"is_disabled":false,"rental_uris":{"android":"levelo://app?vid=5ebcee0e-dce0-4d02-915a-7129853be43b","ios":"levelo://app?vid=5ebcee0e-dce0-4d02-915a-7129853be43b"},"vehicle_type_id":"4","last_reported":1701598020,"current_range_meters":29200,"station_id":"ce4bgop2rcd13ifvqc1g","pricing_plan_id":"free"},{"bike_id":"653e6925-138c-4f73-9095-878f246c3361","system_id":"levelo_inurba_marseille","lat":43.297163,"lon":5.365866,"is_reserved":false,"is_disabled":false,"rental_uris":{"android":"levelo://app?vid=653e6925-138c-4f73-9095-878f246c3361","ios":"levelo://app?vid=653e6925-138c-4f73-9095-878f246c3361"},"vehicle_type_id":"4","last_reported":1701598020,"current_range_meters":25200,"station_id":"ce4bgn12rcd13ifvqbt0","pricing_plan_id":"free"},{"bike_id":"50451858-4fd4-406d-badc-776a2e8a63c3","system_id":"levelo_inurba_marseille","lat":43.3283,"lon":5.36677,"is_reserved":false,"is_disabled":false,"rental_uris":{"android":"levelo://app?vid=50451858-4fd4-406d-badc-776a2e8a63c3","ios":"levelo://app?vid=50451858-4fd4-406d-badc-776a2e8a63c3"},"vehicle_type_id":"4","last_reported":1701598020,"current_range_meters":17600,"station_id":"ce4bhs92rcd13ifvqi0g","pricing_plan_id":"free"},{"bike_id":"5c26bdfb-7b7c-43fb-8a01-250128a1a6f8","system_id":"levelo_inurba_marseille","lat":43.32833,"lon":5.36681,"is_reserved":false,"is_disabled":false,"rental_uris":{"android":"levelo://app?vid=5c26bdfb-7b7c-43fb-8a01-250128a1a6f8","ios":"levelo://app?vid=5c26bdfb-7b7c-43fb-8a01-250128a1a6f8"},"vehicle_type_id":"4","last_reported":1701598020,"current_range_meters":19600,"station_id":"ce4bhs92rcd13ifvqi0g","pricing_plan_id":"free"},{"bike_id":"c3aadce8-05e1-4a84-8b3d-e5e4e7be89e8","system_id":"levelo_inurba_marseille","lat":43.297163,"lon":5.365866,"is_reserved":false,"is_disabled":false,"rental_uris":{"android":"levelo://app?vid=c3aadce8-05e1-4a84-8b3d-e5e4e7be89e8","ios":"levelo://app?vid=c3aadce8-05e1-4a84-8b3d-e5e4e7be89e8"},"vehicle_type_id":"4","last_reported":1701598020,"current_range_meters":28000,"station_id":"ce4bgn12rcd13ifvqbt0","pricing_plan_id":"free"},{"bike_id":"56c27ac6-d3be-4b1b-a869-2d0f1759ad4a","system_id":"levelo_inurba_marseille","lat":43.29815,"lon":5.37652,"is_reserved":false,"is_disabled":false,"rental_uris":{"android":"levelo://app?vid=56c27ac6-d3be-4b1b-a869-2d0f1759ad4a","ios":"levelo://app?vid=56c27ac6-d3be-4b1b-a869-2d0f1759ad4a"},"vehicle_type_id":"4","last_reported":1701598020,"current_range_meters":1200,"station_id":"","pricing_plan_id":"free"},{"bike_id":"eaa0e7e7-2390-47fa-909b-7b240952cbef","system_id":"levelo_inurba_marseille","lat":43.316511,"lon":5.3896,"is_reserved":false,"is_disabled":false,"rental_uris":{"android":"levelo://app?vid=eaa0e7e7-2390-47fa-909b-7b240952cbef","ios":"levelo://app?vid=eaa0e7e7-2390-47fa-909b-7b240952cbef"},"vehicle_type_id":"4","last_reported":1701598020,"current_range_meters":18800,"station_id":"","pricing_plan_id":"free"},{"bike_id":"4c5c75e3-5362-4e54-9bb5-b52aef62bd3f","system_id":"levelo_inurba_marseille","lat":43.29573,"lon":5.367355,"is_reserved":false,"is_disabled":false,"rental_uris":{"android":"levelo://app?vid=4c5c75e3-5362-4e54-9bb5-b52aef62bd3f","ios":"levelo://app?vid=4c5c75e3-5362-4e54-9bb5-b52aef62bd3f"},"vehicle_type_id":"4","last_reported":1701598020,"current_range_meters":23600,"station_id":"ce4bgph2rcd13ifvqc2g","pricing_plan_id":"free"},{"bike_id":"5071fbab-fa11-49f7-83fe-fb67a5c6c55e","system_id":"levelo_inurba_marseille","lat":43.299028,"lon":5.381509,"is_reserved":false,"is_disabled":false,"rental_uris":{"android":"levelo://app?vid=5071fbab-fa11-49f7-83fe-fb67a5c6c55e","ios":"levelo://app?vid=5071fbab-fa11-49f7-83fe-fb67a5c6c55e"},"vehicle_type_id":"4","last_reported":1701598020,"current_range_meters":25600,"station_id":"ce4bgj12rcd13ifvqbc0","pricing_plan_id":"free"},{"bike_id":"c2751da0-e60d-4a28-87d1-cf2d5e9fb05a","system_id":"levelo_inurba_marseille","lat":43.295725,"lon":5.374685,"is_reserved":false,"is_disabled":false,"rental_uris":{"android":"levelo://app?vid=c2751da0-e60d-4a28-87d1-cf2d5e9fb05a","ios":"levelo://app?vid=c2751da0-e60d-4a28-87d1-cf2d5e9fb05a"},"vehicle_type_id":"4","last_reported":1701598020,"current_range_meters":27200,"station_id":"ce4bgh92rcd13ifvqb50","pricing_plan_id":"free"},{"bike_id":"05ce5afc-d364-4ae1-b366-01e0b210856f","system_id":"levelo_inurba_marseille","lat":43.298037,"lon":5.381066,"is_reserved":false,"is_disabled":false,"rental_uris":{"android":"levelo://app?vid=05ce5afc-d364-4ae1-b366-01e0b210856f","ios":"levelo://app?vid=05ce5afc-d364-4ae1-b366-01e0b210856f"},"vehicle_type_id":"4","last_reported":1701598020,"current_range_meters":10800,"station_id":"ce4bgip2rcd13ifvqbb0","pricing_plan_id":"free"},{"bike_id":"e135b319-17c5-4c79-b92e-448da50888ec","system_id":"levelo_inurba_marseille","lat":43.298037,"lon":5.381066,"is_reserved":false,"is_disabled":false,"rental_uris":{"android":"levelo://app?vid=e135b319-17c5-4c79-b92e-448da50888ec","ios":"levelo://app?vid=e135b319-17c5-4c79-b92e-448da50888ec"},"vehicle_type_id":"4","last_reported":1701598020,"current_range_meters":26800,"station_id":"ce4bgip2rcd13ifvqbb0","pricing_plan_id":"free"},{"bike_id":"82b58159-7d01-46a0-8e93-26a6004f55aa","system_id":"levelo_inurba_marseille","lat":43.295748,"lon":5.37522,"is_reserved":false,"is_disabled":false,"rental_uris":{"android":"levelo://app?vid=82b58159-7d01-46a0-8e93-26a6004f55aa","ios":"levelo://app?vid=82b58159-7d01-46a0-8e93-26a6004f55aa"},"vehicle_type_id":"4","last_reported":1701598020,"current_range_meters":23200,"station_id":"ce4bgh92rcd13ifvqb50","pricing_plan_id":"free"},{"bike_id":"46348c83-0839-43f0-9bb5-2c6351e1c4b6","system_id":"levelo_inurba_marseille","lat":43.296263,"lon":5.377094,"is_reserved":false,"is_disabled":false,"rental_uris":{"android":"levelo://app?vid=46348c83-0839-43f0-9bb5-2c6351e1c4b6","ios":"levelo://app?vid=46348c83-0839-43f0-9bb5-2c6351e1c4b6"},"vehicle_type_id":"4","last_reported":1701598020,"current_range_meters":24800,"station_id":"ce4bgi92rcd13ifvqb90","pricing_plan_id":"free"},{"bike_id":"449e0d8e-e872-4f88-8ed9-c917405fd27d","system_id":"levelo_inurba_marseille","lat":43.299707,"lon":5.384859,"is_reserved":false,"is_disabled":false,"rental_uris":{"android":"levelo://app?vid=449e0d8e-e872-4f88-8ed9-c917405fd27d","ios":"levelo://app?vid=449e0d8e-e872-4f88-8ed9-c917405fd27d"},"vehicle_type_id":"4","last_reported":1701598020,"current_range_meters":22800,"station_id":"ce4bgj92rcd13ifvqbd0","pricing_plan_id":"free"},{"bike_id":"3995d177-7765-4348-bdc5-73d742dd6a22","system_id":"levelo_inurba_marseille","lat":43.295279,"lon":5.375048,"is_reserved":false,"is_disabled":false,"rental_uris":{"android":"levelo://app?vid=3995d177-7765-4348-bdc5-73d742dd6a22","ios":"levelo://app?vid=3995d177-7765-4348-bdc5-73d742dd6a22"},"vehicle_type_id":"4","last_reported":1701598020,"current_range_meters":26800,"station_id":"ce4bgkp2rcd13ifvqbmg","pricing_plan_id":"free"},{"bike_id":"22ea043e-5957-47ea-84af-551ca5aedd75","system_id":"levelo_inurba_marseille","lat":43.29601,"lon":5.381084,"is_reserved":false,"is_disabled":false,"rental_uris":{"android":"levelo://app?vid=22ea043e-5957-47ea-84af-551ca5aedd75","ios":"levelo://app?vid=22ea043e-5957-47ea-84af-551ca5aedd75"},"vehicle_type_id":"4","last_reported":1701598020,"current_range_meters":14000,"station_id":"ce4bgl12rcd13ifvqbo0","pricing_plan_id":"free"},{"bike_id":"44cef3da-b4ab-4fc3-846c-e215e0def0b2","system_id":"levelo_inurba_marseille","lat":43.29602,"lon":5.381084,"is_reserved":false,"is_disabled":false,"rental_uris":{"android":"levelo://app?vid=44cef3da-b4ab-4fc3-846c-e215e0def0b2","ios":"levelo://app?vid=44cef3da-b4ab-4fc3-846c-e215e0def0b2"},"vehicle_type_id":"4","last_reported":1701598020,"current_range_meters":23600,"station_id":"ce4bgl12rcd13ifvqbo0","pricing_plan_id":"free"},{"bike_id":"596e950b-4a96-45c8-8bc2-548dbaa9a3c6","system_id":"levelo_inurba_marseille","lat":43.29531,"lon":5.38157,"is_reserved":false,"is_disabled":false,"rental_uris":{"android":"levelo://app?vid=596e950b-4a96-45c8-8bc2-548dbaa9a3c6","ios":"levelo://app?vid=596e950b-4a96-45c8-8bc2-548dbaa9a3c6"},"vehicle_type_id":"4","last_reported":1701598020,"current_range_meters":16400,"station_id":"","pricing_plan_id":"free"},{"bike_id":"e39f99a0-b424-403e-a708-eecbbc87b700","system_id":"levelo_inurba_marseille","lat":43.293009,"lon":5.374584,"is_reserved":false,"is_disabled":false,"rental_uris":{"android":"levelo://app?vid=e39f99a0-b424-403e-a708-eecbbc87b700","ios":"levelo://app?vid=e39f99a0-b424-403e-a708-eecbbc87b700"},"vehicle_type_id":"4","last_reported":1701598020,"current_range_meters":12800,"station_id":"ce4bgi12rcd13ifvqb70","pricing_plan_id":"free"},{"bike_id":"5630f3e5-b7b5-44ec-b4a2-7922145224a9","system_id":"levelo_inurba_marseille","lat":43.29299,"lon":5.37462,"is_reserved":false,"is_disabled":false,"rental_uris":{"android":"levelo://app?vid=5630f3e5-b7b5-44ec-b4a2-7922145224a9","ios":"levelo://app?vid=5630f3e5-b7b5-44ec-b4a2-7922145224a9"},"vehicle_type_id":"4","last_reported":1701598020,"current_range_meters":22400,"station_id":"ce4bgi12rcd13ifvqb70","pricing_plan_id":"free"},{"bike_id":"cf361753-269b-4494-a6dd-fda11a898059","system_id":"levelo_inurba_marseille","lat":43.2936,"lon":5.37835,"is_reserved":false,"is_disabled":false,"rental_uris":{"android":"levelo://app?vid=cf361753-269b-4494-a6dd-fda11a898059","ios":"levelo://app?vid=cf361753-269b-4494-a6dd-fda11a898059"},"vehicle_type_id":"4","last_reported":1701598020,"current_range_meters":22400,"station_id":"ce4bgjh2rcd13ifvqbf0","pricing_plan_id":"free"},{"bike_id":"88f8139e-0325-423a-a133-801a0589024a","system_id":"levelo_inurba_marseille","lat":43.292663,"lon":5.376394,"is_reserved":false,"is_disabled":false,"rental_uris":{"android":"levelo://app?vid=88f8139e-0325-423a-a133-801a0589024a","ios":"levelo://app?vid=88f8139e-0325-423a-a133-801a0589024a"},"vehicle_type_id":"4","last_reported":1701598020,"current_range_meters":25200,"station_id":"ce4bgi12rcd13ifvqb80","pricing_plan_id":"free"},{"bike_id":"56066808-5871-4041-a860-af6903b94999","system_id":"levelo_inurba_marseille","lat":43.29195,"lon":5.3581,"is_reserved":false,"is_disabled":false,"rental_uris":{"android":"levelo://app?vid=56066808-5871-4041-a860-af6903b94999","ios":"levelo://app?vid=56066808-5871-4041-a860-af6903b94999"},"vehicle_type_id":"4","last_reported":1701598020,"current_range_meters":12800,"station_id":"ce4bhb12rcd13ifvqel0","pricing_plan_id":"free"},{"bike_id":"4cb26fea-7b19-4cbf-8d37-61fb0b1da5d9","system_id":"levelo_inurba_marseille","lat":43.291994,"lon":5.357886,"is_reserved":false,"is_disabled":false,"rental_uris":{"android":"levelo://app?vid=4cb26fea-7b19-4cbf-8d37-61fb0b1da5d9","ios":"levelo://app?vid=4cb26fea-7b19-4cbf-8d37-61fb0b1da5d9"},"vehicle_type_id":"4","last_reported":1701598020,"current_range_meters":20800,"station_id":"ce4bhb12rcd13ifvqel0","pricing_plan_id":"free"},{"bike_id":"de2ea5f5-67ed-4c4c-bc8c-9a48e3912b5b","system_id":"levelo_inurba_marseille","lat":43.291892,"lon":5.358097,"is_reserved":false,"is_disabled":false,"rental_uris":{"android":"levelo://app?vid=de2ea5f5-67ed-4c4c-bc8c-9a48e3912b5b","ios":"levelo://app?vid=de2ea5f5-67ed-4c4c-bc8c-9a48e3912b5b"},"vehicle_type_id":"4","last_reported":1701598020,"current_range_meters":22800,"station_id":"ce4bhb12rcd13ifvqel0","pricing_plan_id":"free"},{"bike_id":"3c6d2dfb-7ede-4b9a-b9cc-ae6d3a1236bc","system_id":"levelo_inurba_marseille","lat":43.2919,"lon":5.35805,"is_reserved":false,"is_disabled":false,"rental_uris":{"android":"levelo://app?vid=3c6d2dfb-7ede-4b9a-b9cc-ae6d3a1236bc","ios":"levelo://app?vid=3c6d2dfb-7ede-4b9a-b9cc-ae6d3a1236bc"},"vehicle_type_id":"4","last_reported":1701598020,"current_range_meters":24400,"station_id":"ce4bhb12rcd13ifvqel0","pricing_plan_id":"free"},{"bike_id":"c6c05eb0-8659-4d9f-b875-a86fd8f9a5c1","system_id":"levelo_inurba_marseille","lat":43.29188,"lon":5.3581,"is_reserved":false,"is_disabled":false,"rental_uris":{"android":"levelo://app?vid=c6c05eb0-8659-4d9f-b875-a86fd8f9a5c1","ios":"levelo://app?vid=c6c05eb0-8659-4d9f-b875-a86fd8f9a5c1"},"vehicle_type_id":"4","last_reported":1701598020,"current_range_meters":22800,"station_id":"ce4bhb12rcd13ifvqel0","pricing_plan_id":"free"},{"bike_id":"76745232-19e0-406f-a9c6-e47741064ad5","system_id":"levelo_inurba_marseille","lat":43.289184,"lon":5.366408,"is_reserved":false,"is_disabled":false,"rental_uris":{"android":"levelo://app?vid=76745232-19e0-406f-a9c6-e47741064ad5","ios":"levelo://app?vid=76745232-19e0-406f-a9c6-e47741064ad5"},"vehicle_type_id":"4","last_reported":1701598020,"current_range_meters":14000,"station_id":"ce4bhap2rcd13ifvqek0","pricing_plan_id":"free"},{"bike_id":"bd54ad70-410f-4af7-8b44-15a2f1b914ae","system_id":"levelo_inurba_marseille","lat":43.289184,"lon":5.366408,"is_reserved":false,"is_disabled":false,"rental_uris":{"android":"levelo://app?vid=bd54ad70-410f-4af7-8b44-15a2f1b914ae","ios":"levelo://app?vid=bd54ad70-410f-4af7-8b44-15a2f1b914ae"},"vehicle_type_id":"4","last_reported":1701598020,"current_range_meters":25200,"station_id":"ce4bhap2rcd13ifvqek0","pricing_plan_id":"free"},{"bike_id":"8dd1be8b-027e-4939-9f58-03f3e760bcfe","system_id":"levelo_inurba_marseille","lat":43.289184,"lon":5.366408,"is_reserved":false,"is_disabled":false,"rental_uris":{"android":"levelo://app?vid=8dd1be8b-027e-4939-9f58-03f3e760bcfe","ios":"levelo://app?vid=8dd1be8b-027e-4939-9f58-03f3e760bcfe"},"vehicle_type_id":"4","last_reported":1701598020,"current_range_meters":31200,"station_id":"ce4bhap2rcd13ifvqek0","pricing_plan_id":"free"},{"bike_id":"48515b03-c41d-4923-a48d-ecbac8315d0a","system_id":"levelo_inurba_marseille","lat":43.291034,"lon":5.380386,"is_reserved":false,"is_disabled":false,"rental_uris":{"android":"levelo://app?vid=48515b03-c41d-4923-a48d-ecbac8315d0a","ios":"levelo://app?vid=48515b03-c41d-4923-a48d-ecbac8315d0a"},"vehicle_type_id":"4","last_reported":1701598020,"current_range_meters":16800,"station_id":"","pricing_plan_id":"free"},{"bike_id":"80f15921-9d11-40c5-80f6-47a0d3ed9900","system_id":"levelo_inurba_marseille","lat":43.330442,"lon":5.389148,"is_reserved":false,"is_disabled":false,"rental_uris":{"android":"levelo://app?vid=80f15921-9d11-40c5-80f6-47a0d3ed9900","ios":"levelo://app?vid=80f15921-9d11-40c5-80f6-47a0d3ed9900"},"vehicle_type_id":"4","last_reported":1701598020,"current_range_meters":28400,"station_id":"ce4bhr92rcd13ifvqhrg","pricing_plan_id":"free"},{"bike_id":"562a134a-9a2e-4549-8e2c-b2eb7794e2cb","system_id":"levelo_inurba_marseille","lat":43.290103,"lon":5.356114,"is_reserved":false,"is_disabled":false,"rental_uris":{"android":"levelo://app?vid=562a134a-9a2e-4549-8e2c-b2eb7794e2cb","ios":"levelo://app?vid=562a134a-9a2e-4549-8e2c-b2eb7794e2cb"},"vehicle_type_id":"4","last_reported":1701598020,"current_range_meters":28400,"station_id":"ce4bhb92rcd13ifvqen0","pricing_plan_id":"free"},{"bike_id":"08ee35b1-46d8-487c-83f5-e45bc41505a5","system_id":"levelo_inurba_marseille","lat":43.290104,"lon":5.356111,"is_reserved":false,"is_disabled":false,"rental_uris":{"android":"levelo://app?vid=08ee35b1-46d8-487c-83f5-e45bc41505a5","ios":"levelo://app?vid=08ee35b1-46d8-487c-83f5-e45bc41505a5"},"vehicle_type_id":"4","last_reported":1701598020,"current_range_meters":28400,"station_id":"ce4bhb92rcd13ifvqen0","pricing_plan_id":"free"},{"bike_id":"cc1e4a4f-abfc-4cd6-b477-d52624893d2d","system_id":"levelo_inurba_marseille","lat":43.2978,"lon":5.39331,"is_reserved":false,"is_disabled":false,"rental_uris":{"android":"levelo://app?vid=cc1e4a4f-abfc-4cd6-b477-d52624893d2d","ios":"levelo://app?vid=cc1e4a4f-abfc-4cd6-b477-d52624893d2d"},"vehicle_type_id":"4","last_reported":1701598020,"current_range_meters":17200,"station_id":"chh1huq6cuj3fo74tm60","pricing_plan_id":"free"},{"bike_id":"82f38bbf-bd9e-4810-9032-be3866afd106","system_id":"levelo_inurba_marseille","lat":43.295169,"lon":5.390426,"is_reserved":false,"is_disabled":false,"rental_uris":{"android":"levelo://app?vid=82f38bbf-bd9e-4810-9032-be3866afd106","ios":"levelo://app?vid=82f38bbf-bd9e-4810-9032-be3866afd106"},"vehicle_type_id":"4","last_reported":1701598020,"current_range_meters":26000,"station_id":"ce4bh3p2rcd13ifvqdp0","pricing_plan_id":"free"},{"bike_id":"d21cef2e-015e-4abd-ba7e-8164b18bab17","system_id":"levelo_inurba_marseille","lat":43.309371,"lon":5.401449,"is_reserved":false,"is_disabled":false,"rental_uris":{"android":"levelo://app?vid=d21cef2e-015e-4abd-ba7e-8164b18bab17","ios":"levelo://app?vid=d21cef2e-015e-4abd-ba7e-8164b18bab17"},"vehicle_type_id":"4","last_reported":1701598020,"current_range_meters":15200,"station_id":"ce4bgvp2rcd13ifvqct0","pricing_plan_id":"free"},{"bike_id":"2b0510fb-295c-40ba-8891-c0b7a18c180c","system_id":"levelo_inurba_marseille","lat":43.33753,"lon":5.37456,"is_reserved":false,"is_disabled":false,"rental_uris":{"android":"levelo://app?vid=2b0510fb-295c-40ba-8891-c0b7a18c180c","ios":"levelo://app?vid=2b0510fb-295c-40ba-8891-c0b7a18c180c"},"vehicle_type_id":"4","last_reported":1701598020,"current_range_meters":21600,"station_id":"","pricing_plan_id":"free"},{"bike_id":"e5f8ed81-4726-4ee9-ba4e-af1310e8d80e","system_id":"levelo_inurba_marseille","lat":43.33759,"lon":5.37427,"is_reserved":false,"is_disabled":false,"rental_uris":{"android":"levelo://app?vid=e5f8ed81-4726-4ee9-ba4e-af1310e8d80e","ios":"levelo://app?vid=e5f8ed81-4726-4ee9-ba4e-af1310e8d80e"},"vehicle_type_id":"4","last_reported":1701598020,"current_range_meters":30400,"station_id":"","pricing_plan_id":"free"},{"bike_id":"d48c1dc0-b0ff-423a-a53d-a8ff819985b4","system_id":"levelo_inurba_marseille","lat":43.301117,"lon":5.398795,"is_reserved":false,"is_disabled":false,"rental_uris":{"android":"levelo://app?vid=d48c1dc0-b0ff-423a-a53d-a8ff819985b4","ios":"levelo://app?vid=d48c1dc0-b0ff-423a-a53d-a8ff819985b4"},"vehicle_type_id":"4","last_reported":1701598020,"current_range_meters":19600,"station_id":"ce4bh0h2rcd13ifvqd40","pricing_plan_id":"free"},{"bike_id":"75807800-1735-4e82-be9e-91bc4b188191","system_id":"levelo_inurba_marseille","lat":43.301117,"lon":5.398795,"is_reserved":false,"is_disabled":false,"rental_uris":{"android":"levelo://app?vid=75807800-1735-4e82-be9e-91bc4b188191","ios":"levelo://app?vid=75807800-1735-4e82-be9e-91bc4b188191"},"vehicle_type_id":"4","last_reported":1701598020,"current_range_meters":31200,"station_id":"ce4bh0h2rcd13ifvqd40","pricing_plan_id":"free"},{"bike_id":"98b767f2-fb01-44ee-b32b-0049daf326a3","system_id":"levelo_inurba_marseille","lat":43.301117,"lon":5.398795,"is_reserved":false,"is_disabled":false,"rental_uris":{"android":"levelo://app?vid=98b767f2-fb01-44ee-b32b-0049daf326a3","ios":"levelo://app?vid=98b767f2-fb01-44ee-b32b-0049daf326a3"},"vehicle_type_id":"4","last_reported":1701598020,"current_range_meters":31200,"station_id":"ce4bh0h2rcd13ifvqd40","pricing_plan_id":"free"},{"bike_id":"171075fa-7cf5-4ed1-86b4-122dd3c7869f","system_id":"levelo_inurba_marseille","lat":43.30131,"lon":5.398575,"is_reserved":false,"is_disabled":false,"rental_uris":{"android":"levelo://app?vid=171075fa-7cf5-4ed1-86b4-122dd3c7869f","ios":"levelo://app?vid=171075fa-7cf5-4ed1-86b4-122dd3c7869f"},"vehicle_type_id":"4","last_reported":1701598020,"current_range_meters":24400,"station_id":"","pricing_plan_id":"free"},{"bike_id":"0d766057-769a-4ded-9ebc-551c2327aa42","system_id":"levelo_inurba_marseille","lat":43.301117,"lon":5.398795,"is_reserved":false,"is_disabled":false,"rental_uris":{"android":"levelo://app?vid=0d766057-769a-4ded-9ebc-551c2327aa42","ios":"levelo://app?vid=0d766057-769a-4ded-9ebc-551c2327aa42"},"vehicle_type_id":"4","last_reported":1701598020,"current_range_meters":30000,"station_id":"ce4bh0h2rcd13ifvqd40","pricing_plan_id":"free"},{"bike_id":"c20d7301-3d30-4e9d-85b9-a5cfc00bfd61","system_id":"levelo_inurba_marseille","lat":43.301117,"lon":5.398795,"is_reserved":false,"is_disabled":false,"rental_uris":{"android":"levelo://app?vid=c20d7301-3d30-4e9d-85b9-a5cfc00bfd61","ios":"levelo://app?vid=c20d7301-3d30-4e9d-85b9-a5cfc00bfd61"},"vehicle_type_id":"4","last_reported":1701598020,"current_range_meters":16800,"station_id":"ce4bh0h2rcd13ifvqd40","pricing_plan_id":"free"},{"bike_id":"2294528d-6006-4c48-b75a-bc2d70c4938e","system_id":"levelo_inurba_marseille","lat":43.28727,"lon":5.36078,"is_reserved":false,"is_disabled":false,"rental_uris":{"android":"levelo://app?vid=2294528d-6006-4c48-b75a-bc2d70c4938e","ios":"levelo://app?vid=2294528d-6006-4c48-b75a-bc2d70c4938e"},"vehicle_type_id":"4","last_reported":1701598020,"current_range_meters":26400,"station_id":"cki0cbj6b192h4jlfktg","pricing_plan_id":"free"},{"bike_id":"a4d36c8c-ee04-4b09-92a4-dde95fd5dedd","system_id":"levelo_inurba_marseille","lat":43.298681,"lon":5.397225,"is_reserved":false,"is_disabled":false,"rental_uris":{"android":"levelo://app?vid=a4d36c8c-ee04-4b09-92a4-dde95fd5dedd","ios":"levelo://app?vid=a4d36c8c-ee04-4b09-92a4-dde95fd5dedd"},"vehicle_type_id":"4","last_reported":1701598020,"current_range_meters":11600,"station_id":"ce4bh0h2rcd13ifvqd50","pricing_plan_id":"free"},{"bike_id":"c8b80e1e-f89f-45e9-b588-c59c3d2a9f1e","system_id":"levelo_inurba_marseille","lat":43.302759,"lon":5.400793,"is_reserved":false,"is_disabled":false,"rental_uris":{"android":"levelo://app?vid=c8b80e1e-f89f-45e9-b588-c59c3d2a9f1e","ios":"levelo://app?vid=c8b80e1e-f89f-45e9-b588-c59c3d2a9f1e"},"vehicle_type_id":"4","last_reported":1701598020,"current_range_meters":18400,"station_id":"ce4bgvh2rcd13ifvqcs0","pricing_plan_id":"free"},{"bike_id":"52934685-4211-48b0-94ff-be15a593756a","system_id":"levelo_inurba_marseille","lat":43.289307,"lon":5.38406,"is_reserved":false,"is_disabled":false,"rental_uris":{"android":"levelo://app?vid=52934685-4211-48b0-94ff-be15a593756a","ios":"levelo://app?vid=52934685-4211-48b0-94ff-be15a593756a"},"vehicle_type_id":"4","last_reported":1701598020,"current_range_meters":30400,"station_id":"ce4bh612rcd13ifvqe6g","pricing_plan_id":"free"},{"bike_id":"52626842-c71a-41e6-8851-1af7cd717940","system_id":"levelo_inurba_marseille","lat":43.302759,"lon":5.400793,"is_reserved":false,"is_disabled":false,"rental_uris":{"android":"levelo://app?vid=52626842-c71a-41e6-8851-1af7cd717940","ios":"levelo://app?vid=52626842-c71a-41e6-8851-1af7cd717940"},"vehicle_type_id":"4","last_reported":1701598020,"current_range_meters":30000,"station_id":"ce4bgvh2rcd13ifvqcs0","pricing_plan_id":"free"},{"bike_id":"dc231def-da48-4e2b-b3f2-269667570e7a","system_id":"levelo_inurba_marseille","lat":43.31638,"lon":5.40436,"is_reserved":false,"is_disabled":false,"rental_uris":{"android":"levelo://app?vid=dc231def-da48-4e2b-b3f2-269667570e7a","ios":"levelo://app?vid=dc231def-da48-4e2b-b3f2-269667570e7a"},"vehicle_type_id":"4","last_reported":1701598020,"current_range_meters":14000,"station_id":"ce4bh012rcd13ifvqd00","pricing_plan_id":"free"},{"bike_id":"d18484f4-6df1-42b3-9838-356a5262f0f1","system_id":"levelo_inurba_marseille","lat":43.28618,"lon":5.35108,"is_reserved":false,"is_disabled":false,"rental_uris":{"android":"levelo://app?vid=d18484f4-6df1-42b3-9838-356a5262f0f1","ios":"levelo://app?vid=d18484f4-6df1-42b3-9838-356a5262f0f1"},"vehicle_type_id":"4","last_reported":1701598020,"current_range_meters":23600,"station_id":"ce4bhch2rcd13ifvqeug","pricing_plan_id":"free"},{"bike_id":"e1f4b235-1d5d-4c68-a235-f5390da6eeea","system_id":"levelo_inurba_marseille","lat":43.294314,"lon":5.397498,"is_reserved":false,"is_disabled":false,"rental_uris":{"android":"levelo://app?vid=e1f4b235-1d5d-4c68-a235-f5390da6eeea","ios":"levelo://app?vid=e1f4b235-1d5d-4c68-a235-f5390da6eeea"},"vehicle_type_id":"4","last_reported":1701598020,"current_range_meters":29600,"station_id":"ce4bh3h2rcd13ifvqdo0","pricing_plan_id":"free"},{"bike_id":"62a12227-09fe-4e67-80f5-720dc6f6971e","system_id":"levelo_inurba_marseille","lat":43.285856,"lon":5.350771,"is_reserved":false,"is_disabled":false,"rental_uris":{"android":"levelo://app?vid=62a12227-09fe-4e67-80f5-720dc6f6971e","ios":"levelo://app?vid=62a12227-09fe-4e67-80f5-720dc6f6971e"},"vehicle_type_id":"4","last_reported":1701598020,"current_range_meters":26000,"station_id":"ce4bhch2rcd13ifvqeug","pricing_plan_id":"free"},{"bike_id":"c473edd9-5de8-4efa-83af-63743183060e","system_id":"levelo_inurba_marseille","lat":43.28616,"lon":5.35099,"is_reserved":false,"is_disabled":false,"rental_uris":{"android":"levelo://app?vid=c473edd9-5de8-4efa-83af-63743183060e","ios":"levelo://app?vid=c473edd9-5de8-4efa-83af-63743183060e"},"vehicle_type_id":"4","last_reported":1701598020,"current_range_meters":18000,"station_id":"ce4bhch2rcd13ifvqeug","pricing_plan_id":"free"},{"bike_id":"75ee5a35-25e5-4210-a426-2d92cbb1b782","system_id":"levelo_inurba_marseille","lat":43.333167,"lon":5.395989,"is_reserved":false,"is_disabled":false,"rental_uris":{"android":"levelo://app?vid=75ee5a35-25e5-4210-a426-2d92cbb1b782","ios":"levelo://app?vid=75ee5a35-25e5-4210-a426-2d92cbb1b782"},"vehicle_type_id":"4","last_reported":1701598020,"current_range_meters":0,"station_id":"","pricing_plan_id":"free"},{"bike_id":"3876d17f-5ee3-4c18-ab73-637ce5f04ae3","system_id":"levelo_inurba_marseille","lat":43.286595,"lon":5.386795,"is_reserved":false,"is_disabled":false,"rental_uris":{"android":"levelo://app?vid=3876d17f-5ee3-4c18-ab73-637ce5f04ae3","ios":"levelo://app?vid=3876d17f-5ee3-4c18-ab73-637ce5f04ae3"},"vehicle_type_id":"4","last_reported":1701598020,"current_range_meters":27600,"station_id":"ce4bh492rcd13ifvqdug","pricing_plan_id":"free"},{"bike_id":"bc29c412-9d07-4a62-9f33-948ed97e95a3","system_id":"levelo_inurba_marseille","lat":43.319179,"lon":5.407725,"is_reserved":false,"is_disabled":false,"rental_uris":{"android":"levelo://app?vid=bc29c412-9d07-4a62-9f33-948ed97e95a3","ios":"levelo://app?vid=bc29c412-9d07-4a62-9f33-948ed97e95a3"},"vehicle_type_id":"4","last_reported":1701598020,"current_range_meters":26800,"station_id":"ce4bhq12rcd13ifvqhig","pricing_plan_id":"free"},{"bike_id":"f99fc4d8-709b-4cee-a32c-2cdd6f1e8b1e","system_id":"levelo_inurba_marseille","lat":43.33742,"lon":5.39112,"is_reserved":false,"is_disabled":false,"rental_uris":{"android":"levelo://app?vid=f99fc4d8-709b-4cee-a32c-2cdd6f1e8b1e","ios":"levelo://app?vid=f99fc4d8-709b-4cee-a32c-2cdd6f1e8b1e"},"vehicle_type_id":"4","last_reported":1701598020,"current_range_meters":20800,"station_id":"","pricing_plan_id":"free"},{"bike_id":"23a6e18e-5ad6-40cf-b6fb-7a4b1a6034c9","system_id":"levelo_inurba_marseille","lat":43.33717,"lon":5.391857,"is_reserved":false,"is_disabled":false,"rental_uris":{"android":"levelo://app?vid=23a6e18e-5ad6-40cf-b6fb-7a4b1a6034c9","ios":"levelo://app?vid=23a6e18e-5ad6-40cf-b6fb-7a4b1a6034c9"},"vehicle_type_id":"4","last_reported":1701598020,"current_range_meters":28400,"station_id":"ce4bhr92rcd13ifvqhsg","pricing_plan_id":"free"},{"bike_id":"ef8b2cf2-0711-4227-b7af-f411b85a8354","system_id":"levelo_inurba_marseille","lat":43.323464,"lon":5.406297,"is_reserved":false,"is_disabled":false,"rental_uris":{"android":"levelo://app?vid=ef8b2cf2-0711-4227-b7af-f411b85a8354","ios":"levelo://app?vid=ef8b2cf2-0711-4227-b7af-f411b85a8354"},"vehicle_type_id":"4","last_reported":1701598020,"current_range_meters":30400,"station_id":"ce4bhq92rcd13ifvqhjg","pricing_plan_id":"free"},{"bike_id":"8d2efbe8-65fe-4cdc-b487-7e3212b2a6db","system_id":"levelo_inurba_marseille","lat":43.284793,"lon":5.384113,"is_reserved":false,"is_disabled":false,"rental_uris":{"android":"levelo://app?vid=8d2efbe8-65fe-4cdc-b487-7e3212b2a6db","ios":"levelo://app?vid=8d2efbe8-65fe-4cdc-b487-7e3212b2a6db"},"vehicle_type_id":"4","last_reported":1701598020,"current_range_meters":28400,"station_id":"ce4bh512rcd13ifvqe3g","pricing_plan_id":"free"},{"bike_id":"37242453-2444-4e17-b8f0-2d427a00ba4a","system_id":"levelo_inurba_marseille","lat":43.284219,"lon":5.3497,"is_reserved":false,"is_disabled":false,"rental_uris":{"android":"levelo://app?vid=37242453-2444-4e17-b8f0-2d427a00ba4a","ios":"levelo://app?vid=37242453-2444-4e17-b8f0-2d427a00ba4a"},"vehicle_type_id":"4","last_reported":1701598020,"current_range_meters":18400,"station_id":"ce4bhbh2rcd13ifvqepg","pricing_plan_id":"free"},{"bike_id":"4b0b95d1-487f-413b-9f5e-2276e29d331f","system_id":"levelo_inurba_marseille","lat":43.283502,"lon":5.386471,"is_reserved":false,"is_disabled":false,"rental_uris":{"android":"levelo://app?vid=4b0b95d1-487f-413b-9f5e-2276e29d331f","ios":"levelo://app?vid=4b0b95d1-487f-413b-9f5e-2276e29d331f"},"vehicle_type_id":"4","last_reported":1701598020,"current_range_meters":18400,"station_id":"ce4bh492rcd13ifvqdvg","pricing_plan_id":"free"},{"bike_id":"4af29cf6-ebf4-487e-a848-685bcb29aa01","system_id":"levelo_inurba_marseille","lat":43.29035,"lon":5.399452,"is_reserved":false,"is_disabled":false,"rental_uris":{"android":"levelo://app?vid=4af29cf6-ebf4-487e-a848-685bcb29aa01","ios":"levelo://app?vid=4af29cf6-ebf4-487e-a848-685bcb29aa01"},"vehicle_type_id":"4","last_reported":1701598020,"current_range_meters":28800,"station_id":"ce4bh392rcd13ifvqdm0","pricing_plan_id":"free"},{"bike_id":"f795940e-0362-42b6-b69c-32d7f7ce6696","system_id":"levelo_inurba_marseille","lat":43.290425,"lon":5.399608,"is_reserved":false,"is_disabled":false,"rental_uris":{"android":"levelo://app?vid=f795940e-0362-42b6-b69c-32d7f7ce6696","ios":"levelo://app?vid=f795940e-0362-42b6-b69c-32d7f7ce6696"},"vehicle_type_id":"4","last_reported":1701598020,"current_range_meters":28800,"station_id":"","pricing_plan_id":"free"},{"bike_id":"c0d741be-e218-41e5-8d2b-dfc0c56485dd","system_id":"levelo_inurba_marseille","lat":43.29041,"lon":5.399634,"is_reserved":false,"is_disabled":false,"rental_uris":{"android":"levelo://app?vid=c0d741be-e218-41e5-8d2b-dfc0c56485dd","ios":"levelo://app?vid=c0d741be-e218-41e5-8d2b-dfc0c56485dd"},"vehicle_type_id":"4","last_reported":1701598020,"current_range_meters":30800,"station_id":"ce4bh392rcd13ifvqdm0","pricing_plan_id":"free"},{"bike_id":"716b6582-6203-4cc7-af99-d342ac6fcf6b","system_id":"levelo_inurba_marseille","lat":43.29041,"lon":5.399634,"is_reserved":false,"is_disabled":false,"rental_uris":{"android":"levelo://app?vid=716b6582-6203-4cc7-af99-d342ac6fcf6b","ios":"levelo://app?vid=716b6582-6203-4cc7-af99-d342ac6fcf6b"},"vehicle_type_id":"4","last_reported":1701598020,"current_range_meters":28400,"station_id":"ce4bh392rcd13ifvqdm0","pricing_plan_id":"free"},{"bike_id":"0971df54-5f7d-46bb-8b57-bc33d8952a14","system_id":"levelo_inurba_marseille","lat":43.290412,"lon":5.399633,"is_reserved":false,"is_disabled":false,"rental_uris":{"android":"levelo://app?vid=0971df54-5f7d-46bb-8b57-bc33d8952a14","ios":"levelo://app?vid=0971df54-5f7d-46bb-8b57-bc33d8952a14"},"vehicle_type_id":"4","last_reported":1701598020,"current_range_meters":22800,"station_id":"ce4bh392rcd13ifvqdm0","pricing_plan_id":"free"},{"bike_id":"b21af117-871c-4901-957f-0ecb4fff2209","system_id":"levelo_inurba_marseille","lat":43.279087,"lon":5.380114,"is_reserved":false,"is_disabled":false,"rental_uris":{"android":"levelo://app?vid=b21af117-871c-4901-957f-0ecb4fff2209","ios":"levelo://app?vid=b21af117-871c-4901-957f-0ecb4fff2209"},"vehicle_type_id":"4","last_reported":1701598020,"current_range_meters":30000,"station_id":"ce4bhf92rcd13ifvqf50","pricing_plan_id":"free"},{"bike_id":"425676d7-4815-4767-a6b7-f9472f473e42","system_id":"levelo_inurba_marseille","lat":43.320393,"lon":5.41543,"is_reserved":false,"is_disabled":false,"rental_uris":{"android":"levelo://app?vid=425676d7-4815-4767-a6b7-f9472f473e42","ios":"levelo://app?vid=425676d7-4815-4767-a6b7-f9472f473e42"},"vehicle_type_id":"4","last_reported":1701598020,"current_range_meters":29600,"station_id":"ce4bhq92rcd13ifvqhkg","pricing_plan_id":"free"},{"bike_id":"1c343c90-574d-47a4-b54b-e0ed9f0539bb","system_id":"levelo_inurba_marseille","lat":43.320045,"lon":5.415046,"is_reserved":false,"is_disabled":false,"rental_uris":{"android":"levelo://app?vid=1c343c90-574d-47a4-b54b-e0ed9f0539bb","ios":"levelo://app?vid=1c343c90-574d-47a4-b54b-e0ed9f0539bb"},"vehicle_type_id":"4","last_reported":1701598020,"current_range_meters":22000,"station_id":"ce4bhq92rcd13ifvqhkg","pricing_plan_id":"free"},{"bike_id":"bacc721e-8520-4060-af16-91de5dee00f1","system_id":"levelo_inurba_marseille","lat":43.320045,"lon":5.415046,"is_reserved":false,"is_disabled":false,"rental_uris":{"android":"levelo://app?vid=bacc721e-8520-4060-af16-91de5dee00f1","ios":"levelo://app?vid=bacc721e-8520-4060-af16-91de5dee00f1"},"vehicle_type_id":"4","last_reported":1701598020,"current_range_meters":26800,"station_id":"ce4bhq92rcd13ifvqhkg","pricing_plan_id":"free"},{"bike_id":"b43c0748-11a3-4c91-854d-ab9ab625e13b","system_id":"levelo_inurba_marseille","lat":43.320045,"lon":5.415046,"is_reserved":false,"is_disabled":false,"rental_uris":{"android":"levelo://app?vid=b43c0748-11a3-4c91-854d-ab9ab625e13b","ios":"levelo://app?vid=b43c0748-11a3-4c91-854d-ab9ab625e13b"},"vehicle_type_id":"4","last_reported":1701598020,"current_range_meters":20800,"station_id":"ce4bhq92rcd13ifvqhkg","pricing_plan_id":"free"},{"bike_id":"a86b05ec-d6e9-4108-9eb9-985025562aa2","system_id":"levelo_inurba_marseille","lat":43.299579,"lon":5.413255,"is_reserved":false,"is_disabled":false,"rental_uris":{"android":"levelo://app?vid=a86b05ec-d6e9-4108-9eb9-985025562aa2","ios":"levelo://app?vid=a86b05ec-d6e9-4108-9eb9-985025562aa2"},"vehicle_type_id":"4","last_reported":1701598020,"current_range_meters":24400,"station_id":"ce4bhp12rcd13ifvqh9g","pricing_plan_id":"free"},{"bike_id":"32382e28-e31d-4617-84f9-1d6d09c3f25d","system_id":"levelo_inurba_marseille","lat":43.320045,"lon":5.415046,"is_reserved":false,"is_disabled":false,"rental_uris":{"android":"levelo://app?vid=32382e28-e31d-4617-84f9-1d6d09c3f25d","ios":"levelo://app?vid=32382e28-e31d-4617-84f9-1d6d09c3f25d"},"vehicle_type_id":"4","last_reported":1701598020,"current_range_meters":27200,"station_id":"ce4bhq92rcd13ifvqhkg","pricing_plan_id":"free"},{"bike_id":"06c67881-3b7c-40d9-b5f8-99b0ea2eaf64","system_id":"levelo_inurba_marseille","lat":43.320045,"lon":5.415046,"is_reserved":false,"is_disabled":false,"rental_uris":{"android":"levelo://app?vid=06c67881-3b7c-40d9-b5f8-99b0ea2eaf64","ios":"levelo://app?vid=06c67881-3b7c-40d9-b5f8-99b0ea2eaf64"},"vehicle_type_id":"4","last_reported":1701598020,"current_range_meters":29200,"station_id":"ce4bhq92rcd13ifvqhkg","pricing_plan_id":"free"},{"bike_id":"ca9b8bd5-4d26-4763-961a-d71c69cbe292","system_id":"levelo_inurba_marseille","lat":43.320045,"lon":5.415046,"is_reserved":false,"is_disabled":false,"rental_uris":{"android":"levelo://app?vid=ca9b8bd5-4d26-4763-961a-d71c69cbe292","ios":"levelo://app?vid=ca9b8bd5-4d26-4763-961a-d71c69cbe292"},"vehicle_type_id":"4","last_reported":1701598020,"current_range_meters":27200,"station_id":"ce4bhq92rcd13ifvqhkg","pricing_plan_id":"free"},{"bike_id":"94e8a404-f2fa-4fd2-82a6-f864cda2b0a5","system_id":"levelo_inurba_marseille","lat":43.320045,"lon":5.415046,"is_reserved":false,"is_disabled":false,"rental_uris":{"android":"levelo://app?vid=94e8a404-f2fa-4fd2-82a6-f864cda2b0a5","ios":"levelo://app?vid=94e8a404-f2fa-4fd2-82a6-f864cda2b0a5"},"vehicle_type_id":"4","last_reported":1701598020,"current_range_meters":29600,"station_id":"ce4bhq92rcd13ifvqhkg","pricing_plan_id":"free"},{"bike_id":"451e5711-912b-4e6f-ba92-14f20d0093e3","system_id":"levelo_inurba_marseille","lat":43.336933,"lon":5.406513,"is_reserved":false,"is_disabled":false,"rental_uris":{"android":"levelo://app?vid=451e5711-912b-4e6f-ba92-14f20d0093e3","ios":"levelo://app?vid=451e5711-912b-4e6f-ba92-14f20d0093e3"},"vehicle_type_id":"4","last_reported":1701598020,"current_range_meters":16000,"station_id":"","pricing_plan_id":"free"},{"bike_id":"252fad91-3aa1-4309-938a-56e7b6ea4f3f","system_id":"levelo_inurba_marseille","lat":43.27542,"lon":5.35985,"is_reserved":false,"is_disabled":false,"rental_uris":{"android":"levelo://app?vid=252fad91-3aa1-4309-938a-56e7b6ea4f3f","ios":"levelo://app?vid=252fad91-3aa1-4309-938a-56e7b6ea4f3f"},"vehicle_type_id":"4","last_reported":1701598020,"current_range_meters":9200,"station_id":"ce4bgj92rcd13ifvqbe0","pricing_plan_id":"free"},{"bike_id":"bfb8e777-ae51-4b2d-a99c-d5bf47ad6686","system_id":"levelo_inurba_marseille","lat":43.278399,"lon":5.392139,"is_reserved":false,"is_disabled":false,"rental_uris":{"android":"levelo://app?vid=bfb8e777-ae51-4b2d-a99c-d5bf47ad6686","ios":"levelo://app?vid=bfb8e777-ae51-4b2d-a99c-d5bf47ad6686"},"vehicle_type_id":"4","last_reported":1701598020,"current_range_meters":30000,"station_id":"ce4bhjp2rcd13ifvqga0","pricing_plan_id":"free"},{"bike_id":"e78394ea-ec6c-4c41-954f-6a6c224e7ad5","system_id":"levelo_inurba_marseille","lat":43.279952,"lon":5.400085,"is_reserved":false,"is_disabled":false,"rental_uris":{"android":"levelo://app?vid=e78394ea-ec6c-4c41-954f-6a6c224e7ad5","ios":"levelo://app?vid=e78394ea-ec6c-4c41-954f-6a6c224e7ad5"},"vehicle_type_id":"4","last_reported":1701598020,"current_range_meters":18400,"station_id":"ce4bho92rcd13ifvqh4g","pricing_plan_id":"free"},{"bike_id":"75269014-fd84-4a1f-9fa5-95a0080041c8","system_id":"levelo_inurba_marseille","lat":43.310785,"lon":5.424305,"is_reserved":false,"is_disabled":false,"rental_uris":{"android":"levelo://app?vid=75269014-fd84-4a1f-9fa5-95a0080041c8","ios":"levelo://app?vid=75269014-fd84-4a1f-9fa5-95a0080041c8"},"vehicle_type_id":"4","last_reported":1701598020,"current_range_meters":28800,"station_id":"ce4bhp92rcd13ifvqhag","pricing_plan_id":"free"},{"bike_id":"910fd3aa-d2e0-4553-894a-6161d41c7fcd","system_id":"levelo_inurba_marseille","lat":43.27609,"lon":5.39475,"is_reserved":false,"is_disabled":false,"rental_uris":{"android":"levelo://app?vid=910fd3aa-d2e0-4553-894a-6161d41c7fcd","ios":"levelo://app?vid=910fd3aa-d2e0-4553-894a-6161d41c7fcd"},"vehicle_type_id":"4","last_reported":1701598020,"current_range_meters":16400,"station_id":"","pricing_plan_id":"free"},{"bike_id":"292fa025-1fbb-42db-a65f-83a6878745af","system_id":"levelo_inurba_marseille","lat":43.274099,"lon":5.394019,"is_reserved":false,"is_disabled":false,"rental_uris":{"android":"levelo://app?vid=292fa025-1fbb-42db-a65f-83a6878745af","ios":"levelo://app?vid=292fa025-1fbb-42db-a65f-83a6878745af"},"vehicle_type_id":"4","last_reported":1701598020,"current_range_meters":24400,"station_id":"ce4bhdp2rcd13ifvqf20","pricing_plan_id":"free"},{"bike_id":"533faf2d-9bc7-4dcb-8e5a-d77574df3640","system_id":"levelo_inurba_marseille","lat":43.273125,"lon":5.390731,"is_reserved":false,"is_disabled":false,"rental_uris":{"android":"levelo://app?vid=533faf2d-9bc7-4dcb-8e5a-d77574df3640","ios":"levelo://app?vid=533faf2d-9bc7-4dcb-8e5a-d77574df3640"},"vehicle_type_id":"4","last_reported":1701598020,"current_range_meters":30400,"station_id":"ce4bhgp2rcd13ifvqfe0","pricing_plan_id":"free"},{"bike_id":"839c7fb9-1bbf-4f33-bb3c-08850ec621c8","system_id":"levelo_inurba_marseille","lat":43.304096,"lon":5.425385,"is_reserved":false,"is_disabled":false,"rental_uris":{"android":"levelo://app?vid=839c7fb9-1bbf-4f33-bb3c-08850ec621c8","ios":"levelo://app?vid=839c7fb9-1bbf-4f33-bb3c-08850ec621c8"},"vehicle_type_id":"4","last_reported":1701598020,"current_range_meters":13600,"station_id":"ce4bhoh2rcd13ifvqh6g","pricing_plan_id":"free"},{"bike_id":"f093527f-d1e4-45d5-b96a-b9f49f82a8e3","system_id":"levelo_inurba_marseille","lat":43.272118,"lon":5.391758,"is_reserved":false,"is_disabled":false,"rental_uris":{"android":"levelo://app?vid=f093527f-d1e4-45d5-b96a-b9f49f82a8e3","ios":"levelo://app?vid=f093527f-d1e4-45d5-b96a-b9f49f82a8e3"},"vehicle_type_id":"4","last_reported":1701598020,"current_range_meters":19200,"station_id":"ce4bhhp2rcd13ifvqfm0","pricing_plan_id":"free"},{"bike_id":"d0acf138-2e44-4d8f-a9e9-6e4fb1f064dc","system_id":"levelo_inurba_marseille","lat":43.269319,"lon":5.389397,"is_reserved":false,"is_disabled":false,"rental_uris":{"android":"levelo://app?vid=d0acf138-2e44-4d8f-a9e9-6e4fb1f064dc","ios":"levelo://app?vid=d0acf138-2e44-4d8f-a9e9-6e4fb1f064dc"},"vehicle_type_id":"4","last_reported":1701598020,"current_range_meters":31600,"station_id":"ce4bhhh2rcd13ifvqfl0","pricing_plan_id":"free"},{"bike_id":"1101c779-d20e-48cb-aa9c-66906c7a72db","system_id":"levelo_inurba_marseille","lat":43.269319,"lon":5.389397,"is_reserved":false,"is_disabled":false,"rental_uris":{"android":"levelo://app?vid=1101c779-d20e-48cb-aa9c-66906c7a72db","ios":"levelo://app?vid=1101c779-d20e-48cb-aa9c-66906c7a72db"},"vehicle_type_id":"4","last_reported":1701598020,"current_range_meters":14800,"station_id":"ce4bhhh2rcd13ifvqfl0","pricing_plan_id":"free"},{"bike_id":"6405ae5f-b0f7-4894-802f-39b99434791d","system_id":"levelo_inurba_marseille","lat":43.265714,"lon":5.372891,"is_reserved":false,"is_disabled":false,"rental_uris":{"android":"levelo://app?vid=6405ae5f-b0f7-4894-802f-39b99434791d","ios":"levelo://app?vid=6405ae5f-b0f7-4894-802f-39b99434791d"},"vehicle_type_id":"4","last_reported":1701598020,"current_range_meters":22800,"station_id":"ce4bhg12rcd13ifvqf70","pricing_plan_id":"free"},{"bike_id":"14c38b48-3624-4508-8cb2-8cde570f071d","system_id":"levelo_inurba_marseille","lat":43.26681,"lon":5.382694,"is_reserved":false,"is_disabled":false,"rental_uris":{"android":"levelo://app?vid=14c38b48-3624-4508-8cb2-8cde570f071d","ios":"levelo://app?vid=14c38b48-3624-4508-8cb2-8cde570f071d"},"vehicle_type_id":"4","last_reported":1701598020,"current_range_meters":26800,"station_id":"ce4bhg92rcd13ifvqf90","pricing_plan_id":"free"},{"bike_id":"a4ca81aa-b472-4b3f-a631-f725ce4c5516","system_id":"levelo_inurba_marseille","lat":43.264973,"lon":5.38006,"is_reserved":false,"is_disabled":false,"rental_uris":{"android":"levelo://app?vid=a4ca81aa-b472-4b3f-a631-f725ce4c5516","ios":"levelo://app?vid=a4ca81aa-b472-4b3f-a631-f725ce4c5516"},"vehicle_type_id":"4","last_reported":1701598020,"current_range_meters":24000,"station_id":"","pricing_plan_id":"free"},{"bike_id":"5dbbf92f-9b4b-41f2-ac74-84df7cec22a4","system_id":"levelo_inurba_marseille","lat":43.279973,"lon":5.416555,"is_reserved":false,"is_disabled":false,"rental_uris":{"android":"levelo://app?vid=5dbbf92f-9b4b-41f2-ac74-84df7cec22a4","ios":"levelo://app?vid=5dbbf92f-9b4b-41f2-ac74-84df7cec22a4"},"vehicle_type_id":"4","last_reported":1701598020,"current_range_meters":26000,"station_id":"ce4bho12rcd13ifvqh1g","pricing_plan_id":"free"},{"bike_id":"b8211150-7399-46c9-941a-00a4e6b11a26","system_id":"levelo_inurba_marseille","lat":43.27996,"lon":5.416624,"is_reserved":false,"is_disabled":false,"rental_uris":{"android":"levelo://app?vid=b8211150-7399-46c9-941a-00a4e6b11a26","ios":"levelo://app?vid=b8211150-7399-46c9-941a-00a4e6b11a26"},"vehicle_type_id":"4","last_reported":1701598020,"current_range_meters":13600,"station_id":"ce4bho12rcd13ifvqh1g","pricing_plan_id":"free"},{"bike_id":"4030338d-20eb-4e0b-9453-0b31fd5114cb","system_id":"levelo_inurba_marseille","lat":43.265714,"lon":5.372891,"is_reserved":false,"is_disabled":false,"rental_uris":{"android":"levelo://app?vid=4030338d-20eb-4e0b-9453-0b31fd5114cb","ios":"levelo://app?vid=4030338d-20eb-4e0b-9453-0b31fd5114cb"},"vehicle_type_id":"4","last_reported":1701598020,"current_range_meters":30000,"station_id":"ce4bhg12rcd13ifvqf70","pricing_plan_id":"free"},{"bike_id":"cc18a64c-9888-4e49-8dd9-9b3d4c1d071b","system_id":"levelo_inurba_marseille","lat":43.267966,"lon":5.393976,"is_reserved":false,"is_disabled":false,"rental_uris":{"android":"levelo://app?vid=cc18a64c-9888-4e49-8dd9-9b3d4c1d071b","ios":"levelo://app?vid=cc18a64c-9888-4e49-8dd9-9b3d4c1d071b"},"vehicle_type_id":"4","last_reported":1701598020,"current_range_meters":28400,"station_id":"ce4bhh12rcd13ifvqfg0","pricing_plan_id":"free"},{"bike_id":"3dd6c3ee-a031-427f-ade8-fcf61d889f2b","system_id":"levelo_inurba_marseille","lat":43.26777,"lon":5.39424,"is_reserved":false,"is_disabled":false,"rental_uris":{"android":"levelo://app?vid=3dd6c3ee-a031-427f-ade8-fcf61d889f2b","ios":"levelo://app?vid=3dd6c3ee-a031-427f-ade8-fcf61d889f2b"},"vehicle_type_id":"4","last_reported":1701598020,"current_range_meters":27200,"station_id":"ce4bhh12rcd13ifvqfg0","pricing_plan_id":"free"},{"bike_id":"a014e9a2-529c-4266-af4c-af0b066fb673","system_id":"levelo_inurba_marseille","lat":43.308051,"lon":5.43527,"is_reserved":false,"is_disabled":false,"rental_uris":{"android":"levelo://app?vid=a014e9a2-529c-4266-af4c-af0b066fb673","ios":"levelo://app?vid=a014e9a2-529c-4266-af4c-af0b066fb673"},"vehicle_type_id":"4","last_reported":1701598020,"current_range_meters":26800,"station_id":"ce4bhph2rcd13ifvqheg","pricing_plan_id":"free"},{"bike_id":"71126cf7-7a57-427b-adf8-621f529e3221","system_id":"levelo_inurba_marseille","lat":43.308051,"lon":5.43527,"is_reserved":false,"is_disabled":false,"rental_uris":{"android":"levelo://app?vid=71126cf7-7a57-427b-adf8-621f529e3221","ios":"levelo://app?vid=71126cf7-7a57-427b-adf8-621f529e3221"},"vehicle_type_id":"4","last_reported":1701598020,"current_range_meters":28400,"station_id":"ce4bhph2rcd13ifvqheg","pricing_plan_id":"free"},{"bike_id":"89fe773f-7661-479f-a753-e9c97b40d04d","system_id":"levelo_inurba_marseille","lat":43.26949,"lon":5.40262,"is_reserved":false,"is_disabled":false,"rental_uris":{"android":"levelo://app?vid=89fe773f-7661-479f-a753-e9c97b40d04d","ios":"levelo://app?vid=89fe773f-7661-479f-a753-e9c97b40d04d"},"vehicle_type_id":"4","last_reported":1701598020,"current_range_meters":30000,"station_id":"cjm6bp8fraef2m0cb0m0","pricing_plan_id":"free"},{"bike_id":"f600ae2f-60bb-4340-bdab-4173ff5d62b6","system_id":"levelo_inurba_marseille","lat":43.317104,"lon":5.436818,"is_reserved":false,"is_disabled":false,"rental_uris":{"android":"levelo://app?vid=f600ae2f-60bb-4340-bdab-4173ff5d62b6","ios":"levelo://app?vid=f600ae2f-60bb-4340-bdab-4173ff5d62b6"},"vehicle_type_id":"4","last_reported":1701598020,"current_range_meters":28000,"station_id":"ce4bhp92rcd13ifvqhcg","pricing_plan_id":"free"},{"bike_id":"b31d491a-69f6-45e4-b11d-d759cf1393d7","system_id":"levelo_inurba_marseille","lat":43.298768,"lon":5.43643,"is_reserved":false,"is_disabled":false,"rental_uris":{"android":"levelo://app?vid=b31d491a-69f6-45e4-b11d-d759cf1393d7","ios":"levelo://app?vid=b31d491a-69f6-45e4-b11d-d759cf1393d7"},"vehicle_type_id":"4","last_reported":1701598020,"current_range_meters":17600,"station_id":"ce4bhpp2rcd13ifvqhfg","pricing_plan_id":"free"},{"bike_id":"17c18cdf-4e49-4d62-8dce-a709034b3c76","system_id":"levelo_inurba_marseille","lat":43.281548,"lon":5.42643,"is_reserved":false,"is_disabled":false,"rental_uris":{"android":"levelo://app?vid=17c18cdf-4e49-4d62-8dce-a709034b3c76","ios":"levelo://app?vid=17c18cdf-4e49-4d62-8dce-a709034b3c76"},"vehicle_type_id":"4","last_reported":1701598020,"current_range_meters":26400,"station_id":"ce4bhnh2rcd13ifvqgug","pricing_plan_id":"free"},{"bike_id":"7eb229e1-15d0-4934-a381-322d6c2363ef","system_id":"levelo_inurba_marseille","lat":43.281548,"lon":5.42643,"is_reserved":false,"is_disabled":false,"rental_uris":{"android":"levelo://app?vid=7eb229e1-15d0-4934-a381-322d6c2363ef","ios":"levelo://app?vid=7eb229e1-15d0-4934-a381-322d6c2363ef"},"vehicle_type_id":"4","last_reported":1701598020,"current_range_meters":22800,"station_id":"ce4bhnh2rcd13ifvqgug","pricing_plan_id":"free"},{"bike_id":"4bc7791d-be5f-4e52-a276-f29cc9305fdf","system_id":"levelo_inurba_marseille","lat":43.275028,"lon":5.424534,"is_reserved":false,"is_disabled":false,"rental_uris":{"android":"levelo://app?vid=4bc7791d-be5f-4e52-a276-f29cc9305fdf","ios":"levelo://app?vid=4bc7791d-be5f-4e52-a276-f29cc9305fdf"},"vehicle_type_id":"4","last_reported":1701598020,"current_range_meters":30000,"station_id":"ce4bhn92rcd13ifvqgrg","pricing_plan_id":"free"},{"bike_id":"fc497691-edad-42d0-a905-5d7cb5add2bd","system_id":"levelo_inurba_marseille","lat":43.25582,"lon":5.38233,"is_reserved":false,"is_disabled":false,"rental_uris":{"android":"levelo://app?vid=fc497691-edad-42d0-a905-5d7cb5add2bd","ios":"levelo://app?vid=fc497691-edad-42d0-a905-5d7cb5add2bd"},"vehicle_type_id":"4","last_reported":1701598020,"current_range_meters":23200,"station_id":"ce4bhih2rcd13ifvqfs0","pricing_plan_id":"free"},{"bike_id":"7be6238f-db36-4496-9db7-1a4a3f78d544","system_id":"levelo_inurba_marseille","lat":43.25582,"lon":5.38236,"is_reserved":false,"is_disabled":false,"rental_uris":{"android":"levelo://app?vid=7be6238f-db36-4496-9db7-1a4a3f78d544","ios":"levelo://app?vid=7be6238f-db36-4496-9db7-1a4a3f78d544"},"vehicle_type_id":"4","last_reported":1701598020,"current_range_meters":22000,"station_id":"ce4bhih2rcd13ifvqfs0","pricing_plan_id":"free"},{"bike_id":"f7f9dbfe-ae66-4a2c-a129-837f604f00ab","system_id":"levelo_inurba_marseille","lat":43.25579,"lon":5.38228,"is_reserved":false,"is_disabled":false,"rental_uris":{"android":"levelo://app?vid=f7f9dbfe-ae66-4a2c-a129-837f604f00ab","ios":"levelo://app?vid=f7f9dbfe-ae66-4a2c-a129-837f604f00ab"},"vehicle_type_id":"4","last_reported":1701598020,"current_range_meters":20400,"station_id":"ce4bhih2rcd13ifvqfs0","pricing_plan_id":"free"},{"bike_id":"c2ec7257-75a1-422c-8bb5-05956015ce8d","system_id":"levelo_inurba_marseille","lat":43.25577,"lon":5.38235,"is_reserved":false,"is_disabled":false,"rental_uris":{"android":"levelo://app?vid=c2ec7257-75a1-422c-8bb5-05956015ce8d","ios":"levelo://app?vid=c2ec7257-75a1-422c-8bb5-05956015ce8d"},"vehicle_type_id":"4","last_reported":1701598020,"current_range_meters":26800,"station_id":"ce4bhih2rcd13ifvqfs0","pricing_plan_id":"free"},{"bike_id":"0ef700e9-e361-4dc9-a3c8-eabfe1bf8d20","system_id":"levelo_inurba_marseille","lat":43.25576,"lon":5.38235,"is_reserved":false,"is_disabled":false,"rental_uris":{"android":"levelo://app?vid=0ef700e9-e361-4dc9-a3c8-eabfe1bf8d20","ios":"levelo://app?vid=0ef700e9-e361-4dc9-a3c8-eabfe1bf8d20"},"vehicle_type_id":"4","last_reported":1701598020,"current_range_meters":18400,"station_id":"ce4bhih2rcd13ifvqfs0","pricing_plan_id":"free"},{"bike_id":"1351cf23-2758-454c-aeeb-05955c57e0da","system_id":"levelo_inurba_marseille","lat":43.270721,"lon":5.422764,"is_reserved":false,"is_disabled":false,"rental_uris":{"android":"levelo://app?vid=1351cf23-2758-454c-aeeb-05955c57e0da","ios":"levelo://app?vid=1351cf23-2758-454c-aeeb-05955c57e0da"},"vehicle_type_id":"4","last_reported":1701598020,"current_range_meters":29600,"station_id":"ce4bhk92rcd13ifvqgb0","pricing_plan_id":"free"},{"bike_id":"9136fc03-274d-4496-9de0-5a5da06f8b70","system_id":"levelo_inurba_marseille","lat":43.270721,"lon":5.422764,"is_reserved":false,"is_disabled":false,"rental_uris":{"android":"levelo://app?vid=9136fc03-274d-4496-9de0-5a5da06f8b70","ios":"levelo://app?vid=9136fc03-274d-4496-9de0-5a5da06f8b70"},"vehicle_type_id":"4","last_reported":1701598020,"current_range_meters":26400,"station_id":"ce4bhk92rcd13ifvqgb0","pricing_plan_id":"free"},{"bike_id":"f786d350-fa5f-48e1-b667-87555cab09dd","system_id":"levelo_inurba_marseille","lat":43.258658,"lon":5.398935,"is_reserved":false,"is_disabled":false,"rental_uris":{"android":"levelo://app?vid=f786d350-fa5f-48e1-b667-87555cab09dd","ios":"levelo://app?vid=f786d350-fa5f-48e1-b667-87555cab09dd"},"vehicle_type_id":"4","last_reported":1701598020,"current_range_meters":25200,"station_id":"ce4bhl92rcd13ifvqghg","pricing_plan_id":"free"},{"bike_id":"330c9744-e27c-470b-a043-1bc5adb1ef74","system_id":"levelo_inurba_marseille","lat":43.25858,"lon":5.39906,"is_reserved":false,"is_disabled":false,"rental_uris":{"android":"levelo://app?vid=330c9744-e27c-470b-a043-1bc5adb1ef74","ios":"levelo://app?vid=330c9744-e27c-470b-a043-1bc5adb1ef74"},"vehicle_type_id":"4","last_reported":1701598020,"current_range_meters":24400,"station_id":"ce4bhl92rcd13ifvqghg","pricing_plan_id":"free"},{"bike_id":"bdc72d7c-9d46-4016-8a92-851cd50823f9","system_id":"levelo_inurba_marseille","lat":43.259332,"lon":5.40905,"is_reserved":false,"is_disabled":false,"rental_uris":{"android":"levelo://app?vid=bdc72d7c-9d46-4016-8a92-851cd50823f9","ios":"levelo://app?vid=bdc72d7c-9d46-4016-8a92-851cd50823f9"},"vehicle_type_id":"4","last_reported":1701598020,"current_range_meters":24400,"station_id":"ce4bhm92rcd13ifvqglg","pricing_plan_id":"free"},{"bike_id":"05ffcfcb-20c3-4466-b79e-af248191fe78","system_id":"levelo_inurba_marseille","lat":43.257079,"lon":5.411051,"is_reserved":false,"is_disabled":false,"rental_uris":{"android":"levelo://app?vid=05ffcfcb-20c3-4466-b79e-af248191fe78","ios":"levelo://app?vid=05ffcfcb-20c3-4466-b79e-af248191fe78"},"vehicle_type_id":"4","last_reported":1701598020,"current_range_meters":27200,"station_id":"ce4bhkp2rcd13ifvqgd0","pricing_plan_id":"free"},{"bike_id":"d93d8fe3-dded-4b43-ad44-b17a7bd4f009","system_id":"levelo_inurba_marseille","lat":43.25143,"lon":5.39473,"is_reserved":false,"is_disabled":false,"rental_uris":{"android":"levelo://app?vid=d93d8fe3-dded-4b43-ad44-b17a7bd4f009","ios":"levelo://app?vid=d93d8fe3-dded-4b43-ad44-b17a7bd4f009"},"vehicle_type_id":"4","last_reported":1701598020,"current_range_meters":26800,"station_id":"","pricing_plan_id":"free"},{"bike_id":"47fe5043-ab51-4fa6-8cb4-f219e62fede6","system_id":"levelo_inurba_marseille","lat":43.24807,"lon":5.37453,"is_reserved":false,"is_disabled":false,"rental_uris":{"android":"levelo://app?vid=47fe5043-ab51-4fa6-8cb4-f219e62fede6","ios":"levelo://app?vid=47fe5043-ab51-4fa6-8cb4-f219e62fede6"},"vehicle_type_id":"4","last_reported":1701598020,"current_range_meters":14400,"station_id":"ce4bhgh2rcd13ifvqfb0","pricing_plan_id":"free"},{"bike_id":"1fe9f4ed-4401-4dfb-a0b7-fa6c7584af6a","system_id":"levelo_inurba_marseille","lat":43.248067,"lon":5.374533,"is_reserved":false,"is_disabled":false,"rental_uris":{"android":"levelo://app?vid=1fe9f4ed-4401-4dfb-a0b7-fa6c7584af6a","ios":"levelo://app?vid=1fe9f4ed-4401-4dfb-a0b7-fa6c7584af6a"},"vehicle_type_id":"4","last_reported":1701598020,"current_range_meters":21600,"station_id":"ce4bhgh2rcd13ifvqfb0","pricing_plan_id":"free"},{"bike_id":"c724ff24-349d-4ecd-8cd2-4e512caa6e0a","system_id":"levelo_inurba_marseille","lat":43.2479,"lon":5.374457,"is_reserved":false,"is_disabled":false,"rental_uris":{"android":"levelo://app?vid=c724ff24-349d-4ecd-8cd2-4e512caa6e0a","ios":"levelo://app?vid=c724ff24-349d-4ecd-8cd2-4e512caa6e0a"},"vehicle_type_id":"4","last_reported":1701598020,"current_range_meters":16000,"station_id":"ce4bhgh2rcd13ifvqfb0","pricing_plan_id":"free"},{"bike_id":"926693f5-f9bb-465e-817c-7e06628e5a55","system_id":"levelo_inurba_marseille","lat":43.24806,"lon":5.37457,"is_reserved":false,"is_disabled":false,"rental_uris":{"android":"levelo://app?vid=926693f5-f9bb-465e-817c-7e06628e5a55","ios":"levelo://app?vid=926693f5-f9bb-465e-817c-7e06628e5a55"},"vehicle_type_id":"4","last_reported":1701598020,"current_range_meters":18000,"station_id":"ce4bhgh2rcd13ifvqfb0","pricing_plan_id":"free"},{"bike_id":"d0b1c519-3384-4e8f-9757-863e33124fed","system_id":"levelo_inurba_marseille","lat":43.2479,"lon":5.374457,"is_reserved":false,"is_disabled":false,"rental_uris":{"android":"levelo://app?vid=d0b1c519-3384-4e8f-9757-863e33124fed","ios":"levelo://app?vid=d0b1c519-3384-4e8f-9757-863e33124fed"},"vehicle_type_id":"4","last_reported":1701598020,"current_range_meters":18400,"station_id":"ce4bhgh2rcd13ifvqfb0","pricing_plan_id":"free"},{"bike_id":"8d7a849d-d75b-49e8-8a06-ba3e35d09f67","system_id":"levelo_inurba_marseille","lat":43.24804,"lon":5.37456,"is_reserved":false,"is_disabled":false,"rental_uris":{"android":"levelo://app?vid=8d7a849d-d75b-49e8-8a06-ba3e35d09f67","ios":"levelo://app?vid=8d7a849d-d75b-49e8-8a06-ba3e35d09f67"},"vehicle_type_id":"4","last_reported":1701598020,"current_range_meters":31200,"station_id":"ce4bhgh2rcd13ifvqfb0","pricing_plan_id":"free"},{"bike_id":"b026b64b-8c1c-4976-a5d9-21ffac7418ff","system_id":"levelo_inurba_marseille","lat":43.248036,"lon":5.374546,"is_reserved":false,"is_disabled":false,"rental_uris":{"android":"levelo://app?vid=b026b64b-8c1c-4976-a5d9-21ffac7418ff","ios":"levelo://app?vid=b026b64b-8c1c-4976-a5d9-21ffac7418ff"},"vehicle_type_id":"4","last_reported":1701598020,"current_range_meters":0,"station_id":"ce4bhgh2rcd13ifvqfb0","pricing_plan_id":"free"},{"bike_id":"8e19b02e-3ee4-4035-84a7-d382315e4a01","system_id":"levelo_inurba_marseille","lat":43.250966,"lon":5.395186,"is_reserved":false,"is_disabled":false,"rental_uris":{"android":"levelo://app?vid=8e19b02e-3ee4-4035-84a7-d382315e4a01","ios":"levelo://app?vid=8e19b02e-3ee4-4035-84a7-d382315e4a01"},"vehicle_type_id":"4","last_reported":1701598020,"current_range_meters":16000,"station_id":"ce4bhm12rcd13ifvqgkg","pricing_plan_id":"free"},{"bike_id":"317a5e10-b4f0-4b21-84fd-20965563253f","system_id":"levelo_inurba_marseille","lat":43.250966,"lon":5.395186,"is_reserved":false,"is_disabled":false,"rental_uris":{"android":"levelo://app?vid=317a5e10-b4f0-4b21-84fd-20965563253f","ios":"levelo://app?vid=317a5e10-b4f0-4b21-84fd-20965563253f"},"vehicle_type_id":"4","last_reported":1701598020,"current_range_meters":12400,"station_id":"ce4bhm12rcd13ifvqgkg","pricing_plan_id":"free"},{"bike_id":"0bda67d8-a36a-4c56-b062-0051158aa671","system_id":"levelo_inurba_marseille","lat":43.250966,"lon":5.395186,"is_reserved":false,"is_disabled":false,"rental_uris":{"android":"levelo://app?vid=0bda67d8-a36a-4c56-b062-0051158aa671","ios":"levelo://app?vid=0bda67d8-a36a-4c56-b062-0051158aa671"},"vehicle_type_id":"4","last_reported":1701598020,"current_range_meters":25200,"station_id":"ce4bhm12rcd13ifvqgkg","pricing_plan_id":"free"},{"bike_id":"52f91ba8-c72b-4728-9ad4-f4474ab1c204","system_id":"levelo_inurba_marseille","lat":43.246461,"lon":5.389014,"is_reserved":false,"is_disabled":false,"rental_uris":{"android":"levelo://app?vid=52f91ba8-c72b-4728-9ad4-f4474ab1c204","ios":"levelo://app?vid=52f91ba8-c72b-4728-9ad4-f4474ab1c204"},"vehicle_type_id":"4","last_reported":1701598020,"current_range_meters":22800,"station_id":"ce4bhg12rcd13ifvqf60","pricing_plan_id":"free"},{"bike_id":"61a9e6b0-f435-4470-83bd-a67a85c1a979","system_id":"levelo_inurba_marseille","lat":43.243884,"lon":5.370736,"is_reserved":false,"is_disabled":false,"rental_uris":{"android":"levelo://app?vid=61a9e6b0-f435-4470-83bd-a67a85c1a979","ios":"levelo://app?vid=61a9e6b0-f435-4470-83bd-a67a85c1a979"},"vehicle_type_id":"4","last_reported":1701598020,"current_range_meters":28800,"station_id":"ce4bhhh2rcd13ifvqfk0","pricing_plan_id":"free"},{"bike_id":"906eb523-6642-4f1f-bea7-1d9c586e77f4","system_id":"levelo_inurba_marseille","lat":43.243884,"lon":5.370737,"is_reserved":false,"is_disabled":false,"rental_uris":{"android":"levelo://app?vid=906eb523-6642-4f1f-bea7-1d9c586e77f4","ios":"levelo://app?vid=906eb523-6642-4f1f-bea7-1d9c586e77f4"},"vehicle_type_id":"4","last_reported":1701598020,"current_range_meters":31200,"station_id":"ce4bhhh2rcd13ifvqfk0","pricing_plan_id":"free"},{"bike_id":"c29c45d8-3131-422e-ad7a-ae98bfb7040a","system_id":"levelo_inurba_marseille","lat":43.243884,"lon":5.370736,"is_reserved":false,"is_disabled":false,"rental_uris":{"android":"levelo://app?vid=c29c45d8-3131-422e-ad7a-ae98bfb7040a","ios":"levelo://app?vid=c29c45d8-3131-422e-ad7a-ae98bfb7040a"},"vehicle_type_id":"4","last_reported":1701598020,"current_range_meters":27600,"station_id":"ce4bhhh2rcd13ifvqfk0","pricing_plan_id":"free"},{"bike_id":"879fd17b-7a84-4a06-a9a5-edcc18d93760","system_id":"levelo_inurba_marseille","lat":43.243884,"lon":5.370737,"is_reserved":false,"is_disabled":false,"rental_uris":{"android":"levelo://app?vid=879fd17b-7a84-4a06-a9a5-edcc18d93760","ios":"levelo://app?vid=879fd17b-7a84-4a06-a9a5-edcc18d93760"},"vehicle_type_id":"4","last_reported":1701598020,"current_range_meters":17200,"station_id":"ce4bhhh2rcd13ifvqfk0","pricing_plan_id":"free"},{"bike_id":"0a75e451-bfed-406b-8563-036295014b2d","system_id":"levelo_inurba_marseille","lat":43.240623,"lon":5.377642,"is_reserved":false,"is_disabled":false,"rental_uris":{"android":"levelo://app?vid=0a75e451-bfed-406b-8563-036295014b2d","ios":"levelo://app?vid=0a75e451-bfed-406b-8563-036295014b2d"},"vehicle_type_id":"4","last_reported":1701598020,"current_range_meters":10800,"station_id":"ce4bhnp2rcd13ifvqgvg","pricing_plan_id":"free"},{"bike_id":"fc0a55c1-89f8-44ba-84cd-0ed4ce1429bd","system_id":"levelo_inurba_marseille","lat":43.240623,"lon":5.377642,"is_reserved":false,"is_disabled":false,"rental_uris":{"android":"levelo://app?vid=fc0a55c1-89f8-44ba-84cd-0ed4ce1429bd","ios":"levelo://app?vid=fc0a55c1-89f8-44ba-84cd-0ed4ce1429bd"},"vehicle_type_id":"4","last_reported":1701598020,"current_range_meters":2000,"station_id":"ce4bhnp2rcd13ifvqgvg","pricing_plan_id":"free"},{"bike_id":"9616335e-129b-4f75-ae72-69ae36567887","system_id":"levelo_inurba_marseille","lat":43.239588,"lon":5.366238,"is_reserved":false,"is_disabled":false,"rental_uris":{"android":"levelo://app?vid=9616335e-129b-4f75-ae72-69ae36567887","ios":"levelo://app?vid=9616335e-129b-4f75-ae72-69ae36567887"},"vehicle_type_id":"4","last_reported":1701598020,"current_range_meters":10400,"station_id":"ce4bhi12rcd13ifvqfp0","pricing_plan_id":"free"},{"bike_id":"e4533d00-66bc-4fbb-a282-3bf99132968f","system_id":"levelo_inurba_marseille","lat":43.239588,"lon":5.366238,"is_reserved":false,"is_disabled":false,"rental_uris":{"android":"levelo://app?vid=e4533d00-66bc-4fbb-a282-3bf99132968f","ios":"levelo://app?vid=e4533d00-66bc-4fbb-a282-3bf99132968f"},"vehicle_type_id":"4","last_reported":1701598020,"current_range_meters":12000,"station_id":"ce4bhi12rcd13ifvqfp0","pricing_plan_id":"free"},{"bike_id":"66d07158-1c05-469e-a266-b66692f04cb5","system_id":"levelo_inurba_marseille","lat":43.239588,"lon":5.366238,"is_reserved":false,"is_disabled":false,"rental_uris":{"android":"levelo://app?vid=66d07158-1c05-469e-a266-b66692f04cb5","ios":"levelo://app?vid=66d07158-1c05-469e-a266-b66692f04cb5"},"vehicle_type_id":"4","last_reported":1701598020,"current_range_meters":31200,"station_id":"ce4bhi12rcd13ifvqfp0","pricing_plan_id":"free"},{"bike_id":"b101f295-ac85-402a-8afe-c635c176f114","system_id":"levelo_inurba_marseille","lat":43.28531,"lon":5.46056,"is_reserved":false,"is_disabled":false,"rental_uris":{"android":"levelo://app?vid=b101f295-ac85-402a-8afe-c635c176f114","ios":"levelo://app?vid=b101f295-ac85-402a-8afe-c635c176f114"},"vehicle_type_id":"4","last_reported":1701598020,"current_range_meters":20000,"station_id":"","pricing_plan_id":"free"},{"bike_id":"6573cb36-3c40-4042-8b0f-1356381ee019","system_id":"levelo_inurba_marseille","lat":43.231923,"lon":5.355545,"is_reserved":false,"is_disabled":false,"rental_uris":{"android":"levelo://app?vid=6573cb36-3c40-4042-8b0f-1356381ee019","ios":"levelo://app?vid=6573cb36-3c40-4042-8b0f-1356381ee019"},"vehicle_type_id":"4","last_reported":1701598020,"current_range_meters":28800,"station_id":"ce4bhu92rcd13ifvqi70","pricing_plan_id":"free"},{"bike_id":"6041d620-664b-4836-b597-a0e62593a032","system_id":"levelo_inurba_marseille","lat":43.231923,"lon":5.355545,"is_reserved":false,"is_disabled":false,"rental_uris":{"android":"levelo://app?vid=6041d620-664b-4836-b597-a0e62593a032","ios":"levelo://app?vid=6041d620-664b-4836-b597-a0e62593a032"},"vehicle_type_id":"4","last_reported":1701598020,"current_range_meters":29200,"station_id":"ce4bhu92rcd13ifvqi70","pricing_plan_id":"free"},{"bike_id":"4506c45e-2d09-462d-97b5-d051c36d1044","system_id":"levelo_inurba_marseille","lat":43.231919,"lon":5.355532,"is_reserved":false,"is_disabled":false,"rental_uris":{"android":"levelo://app?vid=4506c45e-2d09-462d-97b5-d051c36d1044","ios":"levelo://app?vid=4506c45e-2d09-462d-97b5-d051c36d1044"},"vehicle_type_id":"4","last_reported":1701598020,"current_range_meters":28000,"station_id":"ce4bhu92rcd13ifvqi70","pricing_plan_id":"free"},{"bike_id":"6462fbc5-ceb8-47e3-b56d-fc1e69bef19f","system_id":"levelo_inurba_marseille","lat":43.231919,"lon":5.355532,"is_reserved":false,"is_disabled":false,"rental_uris":{"android":"levelo://app?vid=6462fbc5-ceb8-47e3-b56d-fc1e69bef19f","ios":"levelo://app?vid=6462fbc5-ceb8-47e3-b56d-fc1e69bef19f"},"vehicle_type_id":"4","last_reported":1701598020,"current_range_meters":26000,"station_id":"ce4bhu92rcd13ifvqi70","pricing_plan_id":"free"},{"bike_id":"384a17af-27e8-4164-b8c0-d8b51c5b0eac","system_id":"levelo_inurba_marseille","lat":43.231923,"lon":5.355545,"is_reserved":false,"is_disabled":false,"rental_uris":{"android":"levelo://app?vid=384a17af-27e8-4164-b8c0-d8b51c5b0eac","ios":"levelo://app?vid=384a17af-27e8-4164-b8c0-d8b51c5b0eac"},"vehicle_type_id":"4","last_reported":1701598020,"current_range_meters":8000,"station_id":"ce4bhu92rcd13ifvqi70","pricing_plan_id":"free"},{"bike_id":"2b04708e-eed8-4471-916a-9fdeea01eec7","system_id":"levelo_inurba_marseille","lat":43.231923,"lon":5.355545,"is_reserved":false,"is_disabled":false,"rental_uris":{"android":"levelo://app?vid=2b04708e-eed8-4471-916a-9fdeea01eec7","ios":"levelo://app?vid=2b04708e-eed8-4471-916a-9fdeea01eec7"},"vehicle_type_id":"4","last_reported":1701598020,"current_range_meters":14800,"station_id":"ce4bhu92rcd13ifvqi70","pricing_plan_id":"free"},{"bike_id":"9e01ee59-41e6-425c-ae1f-3e33312fefcd","system_id":"levelo_inurba_marseille","lat":43.231923,"lon":5.355545,"is_reserved":false,"is_disabled":false,"rental_uris":{"android":"levelo://app?vid=9e01ee59-41e6-425c-ae1f-3e33312fefcd","ios":"levelo://app?vid=9e01ee59-41e6-425c-ae1f-3e33312fefcd"},"vehicle_type_id":"4","last_reported":1701598020,"current_range_meters":16800,"station_id":"ce4bhu92rcd13ifvqi70","pricing_plan_id":"free"},{"bike_id":"177a82e2-68da-4975-a68b-b32649f3d1f2","system_id":"levelo_inurba_marseille","lat":43.231923,"lon":5.355545,"is_reserved":false,"is_disabled":false,"rental_uris":{"android":"levelo://app?vid=177a82e2-68da-4975-a68b-b32649f3d1f2","ios":"levelo://app?vid=177a82e2-68da-4975-a68b-b32649f3d1f2"},"vehicle_type_id":"4","last_reported":1701598020,"current_range_meters":9200,"station_id":"ce4bhu92rcd13ifvqi70","pricing_plan_id":"free"},{"bike_id":"cc63aece-497e-49db-86a0-e2c21e8d86af","system_id":"levelo_inurba_marseille","lat":43.231919,"lon":5.355532,"is_reserved":false,"is_disabled":false,"rental_uris":{"android":"levelo://app?vid=cc63aece-497e-49db-86a0-e2c21e8d86af","ios":"levelo://app?vid=cc63aece-497e-49db-86a0-e2c21e8d86af"},"vehicle_type_id":"4","last_reported":1701598020,"current_range_meters":20400,"station_id":"ce4bhu92rcd13ifvqi70","pricing_plan_id":"free"},{"bike_id":"4dae0f2e-3beb-46e8-877b-0143e05c3e8e","system_id":"levelo_inurba_marseille","lat":43.231919,"lon":5.355532,"is_reserved":false,"is_disabled":false,"rental_uris":{"android":"levelo://app?vid=4dae0f2e-3beb-46e8-877b-0143e05c3e8e","ios":"levelo://app?vid=4dae0f2e-3beb-46e8-877b-0143e05c3e8e"},"vehicle_type_id":"4","last_reported":1701598020,"current_range_meters":28800,"station_id":"ce4bhu92rcd13ifvqi70","pricing_plan_id":"free"},{"bike_id":"cf3102c4-88e0-4a41-86b7-69a76932d3e6","system_id":"levelo_inurba_marseille","lat":43.231923,"lon":5.355545,"is_reserved":false,"is_disabled":false,"rental_uris":{"android":"levelo://app?vid=cf3102c4-88e0-4a41-86b7-69a76932d3e6","ios":"levelo://app?vid=cf3102c4-88e0-4a41-86b7-69a76932d3e6"},"vehicle_type_id":"4","last_reported":1701598020,"current_range_meters":31200,"station_id":"ce4bhu92rcd13ifvqi70","pricing_plan_id":"free"},{"bike_id":"b8f295a9-10f8-4746-b4a0-4491480d1fc4","system_id":"levelo_inurba_marseille","lat":43.231919,"lon":5.355532,"is_reserved":false,"is_disabled":false,"rental_uris":{"android":"levelo://app?vid=b8f295a9-10f8-4746-b4a0-4491480d1fc4","ios":"levelo://app?vid=b8f295a9-10f8-4746-b4a0-4491480d1fc4"},"vehicle_type_id":"4","last_reported":1701598020,"current_range_meters":20800,"station_id":"ce4bhu92rcd13ifvqi70","pricing_plan_id":"free"},{"bike_id":"71bf2f34-6f1d-4c95-bf1c-5bb61de13cd3","system_id":"levelo_inurba_marseille","lat":43.231919,"lon":5.355532,"is_reserved":false,"is_disabled":false,"rental_uris":{"android":"levelo://app?vid=71bf2f34-6f1d-4c95-bf1c-5bb61de13cd3","ios":"levelo://app?vid=71bf2f34-6f1d-4c95-bf1c-5bb61de13cd3"},"vehicle_type_id":"4","last_reported":1701598020,"current_range_meters":9200,"station_id":"ce4bhu92rcd13ifvqi70","pricing_plan_id":"free"},{"bike_id":"df76bb33-a4ef-4a36-a72d-84c57504fc7a","system_id":"levelo_inurba_marseille","lat":43.231922,"lon":5.355449,"is_reserved":false,"is_disabled":false,"rental_uris":{"android":"levelo://app?vid=df76bb33-a4ef-4a36-a72d-84c57504fc7a","ios":"levelo://app?vid=df76bb33-a4ef-4a36-a72d-84c57504fc7a"},"vehicle_type_id":"4","last_reported":1701598020,"current_range_meters":29600,"station_id":"ce4bhu92rcd13ifvqi70","pricing_plan_id":"free"},{"bike_id":"cb3c5614-5a37-4ab8-a51e-8b81ebb4f897","system_id":"levelo_inurba_marseille","lat":43.231919,"lon":5.355532,"is_reserved":false,"is_disabled":false,"rental_uris":{"android":"levelo://app?vid=cb3c5614-5a37-4ab8-a51e-8b81ebb4f897","ios":"levelo://app?vid=cb3c5614-5a37-4ab8-a51e-8b81ebb4f897"},"vehicle_type_id":"4","last_reported":1701598020,"current_range_meters":12800,"station_id":"ce4bhu92rcd13ifvqi70","pricing_plan_id":"free"},{"bike_id":"12565142-5d37-46de-861d-0266a3fc1210","system_id":"levelo_inurba_marseille","lat":43.231919,"lon":5.355532,"is_reserved":false,"is_disabled":false,"rental_uris":{"android":"levelo://app?vid=12565142-5d37-46de-861d-0266a3fc1210","ios":"levelo://app?vid=12565142-5d37-46de-861d-0266a3fc1210"},"vehicle_type_id":"4","last_reported":1701598020,"current_range_meters":22400,"station_id":"ce4bhu92rcd13ifvqi70","pricing_plan_id":"free"},{"bike_id":"6382809b-45d0-4ad2-8be7-697249f82077","system_id":"levelo_inurba_marseille","lat":43.231919,"lon":5.355532,"is_reserved":false,"is_disabled":false,"rental_uris":{"android":"levelo://app?vid=6382809b-45d0-4ad2-8be7-697249f82077","ios":"levelo://app?vid=6382809b-45d0-4ad2-8be7-697249f82077"},"vehicle_type_id":"4","last_reported":1701598020,"current_range_meters":31200,"station_id":"ce4bhu92rcd13ifvqi70","pricing_plan_id":"free"},{"bike_id":"90a66033-92d6-4ce5-9800-5d20674c66dd","system_id":"levelo_inurba_marseille","lat":43.231897,"lon":5.355463,"is_reserved":false,"is_disabled":false,"rental_uris":{"android":"levelo://app?vid=90a66033-92d6-4ce5-9800-5d20674c66dd","ios":"levelo://app?vid=90a66033-92d6-4ce5-9800-5d20674c66dd"},"vehicle_type_id":"4","last_reported":1701598020,"current_range_meters":29600,"station_id":"ce4bhu92rcd13ifvqi70","pricing_plan_id":"free"},{"bike_id":"4e176977-ccb9-4a01-b3da-279fd61eadf6","system_id":"levelo_inurba_marseille","lat":43.231919,"lon":5.355532,"is_reserved":false,"is_disabled":false,"rental_uris":{"android":"levelo://app?vid=4e176977-ccb9-4a01-b3da-279fd61eadf6","ios":"levelo://app?vid=4e176977-ccb9-4a01-b3da-279fd61eadf6"},"vehicle_type_id":"4","last_reported":1701598020,"current_range_meters":19200,"station_id":"ce4bhu92rcd13ifvqi70","pricing_plan_id":"free"},{"bike_id":"3ca2546c-f9ed-464d-b941-53a82f5e8048","system_id":"levelo_inurba_marseille","lat":43.231794,"lon":5.400052,"is_reserved":false,"is_disabled":false,"rental_uris":{"android":"levelo://app?vid=3ca2546c-f9ed-464d-b941-53a82f5e8048","ios":"levelo://app?vid=3ca2546c-f9ed-464d-b941-53a82f5e8048"},"vehicle_type_id":"4","last_reported":1701598020,"current_range_meters":10400,"station_id":"ce4bhn12rcd13ifvqgqg","pricing_plan_id":"free"},{"bike_id":"b2dc27fe-d3dd-4dd0-b015-108c88d15d4b","system_id":"levelo_inurba_marseille","lat":43.231881,"lon":5.399859,"is_reserved":false,"is_disabled":false,"rental_uris":{"android":"levelo://app?vid=b2dc27fe-d3dd-4dd0-b015-108c88d15d4b","ios":"levelo://app?vid=b2dc27fe-d3dd-4dd0-b015-108c88d15d4b"},"vehicle_type_id":"4","last_reported":1701598020,"current_range_meters":11600,"station_id":"ce4bhn12rcd13ifvqgqg","pricing_plan_id":"free"},{"bike_id":"d7955d6f-88ae-4e83-97c1-4a0668d076f6","system_id":"levelo_inurba_marseille","lat":43.23188,"lon":5.39986,"is_reserved":false,"is_disabled":false,"rental_uris":{"android":"levelo://app?vid=d7955d6f-88ae-4e83-97c1-4a0668d076f6","ios":"levelo://app?vid=d7955d6f-88ae-4e83-97c1-4a0668d076f6"},"vehicle_type_id":"4","last_reported":1701598020,"current_range_meters":19600,"station_id":"ce4bhn12rcd13ifvqgqg","pricing_plan_id":"free"},{"bike_id":"ddecb7a7-8295-4a56-96b7-ae63ab6d05c4","system_id":"levelo_inurba_marseille","lat":43.231794,"lon":5.400052,"is_reserved":false,"is_disabled":false,"rental_uris":{"android":"levelo://app?vid=ddecb7a7-8295-4a56-96b7-ae63ab6d05c4","ios":"levelo://app?vid=ddecb7a7-8295-4a56-96b7-ae63ab6d05c4"},"vehicle_type_id":"4","last_reported":1701598020,"current_range_meters":20800,"station_id":"ce4bhn12rcd13ifvqgqg","pricing_plan_id":"free"},{"bike_id":"22bd98e3-c33f-4c44-ae2b-f96729d36f4f","system_id":"levelo_inurba_marseille","lat":43.231793,"lon":5.400044,"is_reserved":false,"is_disabled":false,"rental_uris":{"android":"levelo://app?vid=22bd98e3-c33f-4c44-ae2b-f96729d36f4f","ios":"levelo://app?vid=22bd98e3-c33f-4c44-ae2b-f96729d36f4f"},"vehicle_type_id":"4","last_reported":1701598020,"current_range_meters":28400,"station_id":"ce4bhn12rcd13ifvqgqg","pricing_plan_id":"free"},{"bike_id":"77b1a551-da7f-429a-980e-bfc6767a5958","system_id":"levelo_inurba_marseille","lat":43.231794,"lon":5.400052,"is_reserved":false,"is_disabled":false,"rental_uris":{"android":"levelo://app?vid=77b1a551-da7f-429a-980e-bfc6767a5958","ios":"levelo://app?vid=77b1a551-da7f-429a-980e-bfc6767a5958"},"vehicle_type_id":"4","last_reported":1701598020,"current_range_meters":31200,"station_id":"ce4bhn12rcd13ifvqgqg","pricing_plan_id":"free"},{"bike_id":"88cf855f-bb31-40e0-8afc-686df3c193ab","system_id":"levelo_inurba_marseille","lat":43.231794,"lon":5.400052,"is_reserved":false,"is_disabled":false,"rental_uris":{"android":"levelo://app?vid=88cf855f-bb31-40e0-8afc-686df3c193ab","ios":"levelo://app?vid=88cf855f-bb31-40e0-8afc-686df3c193ab"},"vehicle_type_id":"4","last_reported":1701598020,"current_range_meters":27200,"station_id":"ce4bhn12rcd13ifvqgqg","pricing_plan_id":"free"},{"bike_id":"3fdd6789-d52a-4c7f-96f4-f754cbf436d6","system_id":"levelo_inurba_marseille","lat":43.23183,"lon":5.39977,"is_reserved":false,"is_disabled":false,"rental_uris":{"android":"levelo://app?vid=3fdd6789-d52a-4c7f-96f4-f754cbf436d6","ios":"levelo://app?vid=3fdd6789-d52a-4c7f-96f4-f754cbf436d6"},"vehicle_type_id":"4","last_reported":1701598020,"current_range_meters":12400,"station_id":"ce4bhn12rcd13ifvqgqg","pricing_plan_id":"free"},{"bike_id":"d0b35396-6769-42d4-8160-8b44cb829902","system_id":"levelo_inurba_marseille","lat":43.231856,"lon":5.399899,"is_reserved":false,"is_disabled":false,"rental_uris":{"android":"levelo://app?vid=d0b35396-6769-42d4-8160-8b44cb829902","ios":"levelo://app?vid=d0b35396-6769-42d4-8160-8b44cb829902"},"vehicle_type_id":"4","last_reported":1701598020,"current_range_meters":29600,"station_id":"ce4bhn12rcd13ifvqgqg","pricing_plan_id":"free"},{"bike_id":"e47e98e0-4256-4c41-ae86-e531a41b9213","system_id":"levelo_inurba_marseille","lat":43.231794,"lon":5.400052,"is_reserved":false,"is_disabled":false,"rental_uris":{"android":"levelo://app?vid=e47e98e0-4256-4c41-ae86-e531a41b9213","ios":"levelo://app?vid=e47e98e0-4256-4c41-ae86-e531a41b9213"},"vehicle_type_id":"4","last_reported":1701598020,"current_range_meters":31200,"station_id":"ce4bhn12rcd13ifvqgqg","pricing_plan_id":"free"},{"bike_id":"4ee99995-f63f-4ddb-ac4b-88a5ee23324c","system_id":"levelo_inurba_marseille","lat":43.23183,"lon":5.399831,"is_reserved":false,"is_disabled":false,"rental_uris":{"android":"levelo://app?vid=4ee99995-f63f-4ddb-ac4b-88a5ee23324c","ios":"levelo://app?vid=4ee99995-f63f-4ddb-ac4b-88a5ee23324c"},"vehicle_type_id":"4","last_reported":1701598020,"current_range_meters":14000,"station_id":"ce4bhn12rcd13ifvqgqg","pricing_plan_id":"free"},{"bike_id":"6bd9f065-50d9-4657-9ca0-a006f413d305","system_id":"levelo_inurba_marseille","lat":43.231794,"lon":5.400052,"is_reserved":false,"is_disabled":false,"rental_uris":{"android":"levelo://app?vid=6bd9f065-50d9-4657-9ca0-a006f413d305","ios":"levelo://app?vid=6bd9f065-50d9-4657-9ca0-a006f413d305"},"vehicle_type_id":"4","last_reported":1701598020,"current_range_meters":31200,"station_id":"ce4bhn12rcd13ifvqgqg","pricing_plan_id":"free"},{"bike_id":"83862a0a-d647-45eb-9884-693fce6366ab","system_id":"levelo_inurba_marseille","lat":43.231836,"lon":5.399879,"is_reserved":false,"is_disabled":false,"rental_uris":{"android":"levelo://app?vid=83862a0a-d647-45eb-9884-693fce6366ab","ios":"levelo://app?vid=83862a0a-d647-45eb-9884-693fce6366ab"},"vehicle_type_id":"4","last_reported":1701598020,"current_range_meters":14400,"station_id":"ce4bhn12rcd13ifvqgqg","pricing_plan_id":"free"},{"bike_id":"a926f4bb-1e59-4822-80ea-1d5ff6f2a5c5","system_id":"levelo_inurba_marseille","lat":43.231842,"lon":5.399919,"is_reserved":false,"is_disabled":false,"rental_uris":{"android":"levelo://app?vid=a926f4bb-1e59-4822-80ea-1d5ff6f2a5c5","ios":"levelo://app?vid=a926f4bb-1e59-4822-80ea-1d5ff6f2a5c5"},"vehicle_type_id":"4","last_reported":1701598020,"current_range_meters":15200,"station_id":"ce4bhn12rcd13ifvqgqg","pricing_plan_id":"free"},{"bike_id":"d8ad9864-eb6b-4faa-b8e1-e2e245ce7f97","system_id":"levelo_inurba_marseille","lat":43.23184,"lon":5.39992,"is_reserved":false,"is_disabled":false,"rental_uris":{"android":"levelo://app?vid=d8ad9864-eb6b-4faa-b8e1-e2e245ce7f97","ios":"levelo://app?vid=d8ad9864-eb6b-4faa-b8e1-e2e245ce7f97"},"vehicle_type_id":"4","last_reported":1701598020,"current_range_meters":16400,"station_id":"ce4bhn12rcd13ifvqgqg","pricing_plan_id":"free"},{"bike_id":"27852c29-47dc-4826-817e-c88bd3a0386e","system_id":"levelo_inurba_marseille","lat":43.231834,"lon":5.399896,"is_reserved":false,"is_disabled":false,"rental_uris":{"android":"levelo://app?vid=27852c29-47dc-4826-817e-c88bd3a0386e","ios":"levelo://app?vid=27852c29-47dc-4826-817e-c88bd3a0386e"},"vehicle_type_id":"4","last_reported":1701598020,"current_range_meters":18800,"station_id":"ce4bhn12rcd13ifvqgqg","pricing_plan_id":"free"},{"bike_id":"61d9cea0-4913-40f0-88a4-0065de34d858","system_id":"levelo_inurba_marseille","lat":43.23181,"lon":5.39992,"is_reserved":false,"is_disabled":false,"rental_uris":{"android":"levelo://app?vid=61d9cea0-4913-40f0-88a4-0065de34d858","ios":"levelo://app?vid=61d9cea0-4913-40f0-88a4-0065de34d858"},"vehicle_type_id":"4","last_reported":1701598020,"current_range_meters":18400,"station_id":"ce4bhn12rcd13ifvqgqg","pricing_plan_id":"free"},{"bike_id":"b105d208-97c4-48d5-92c0-d47140eb7ea4","system_id":"levelo_inurba_marseille","lat":43.23178,"lon":5.39983,"is_reserved":false,"is_disabled":false,"rental_uris":{"android":"levelo://app?vid=b105d208-97c4-48d5-92c0-d47140eb7ea4","ios":"levelo://app?vid=b105d208-97c4-48d5-92c0-d47140eb7ea4"},"vehicle_type_id":"4","last_reported":1701598020,"current_range_meters":20800,"station_id":"ce4bhn12rcd13ifvqgqg","pricing_plan_id":"free"},{"bike_id":"457c552c-8af5-4b7b-9f6b-8c901265a623","system_id":"levelo_inurba_marseille","lat":43.2318,"lon":5.39993,"is_reserved":false,"is_disabled":false,"rental_uris":{"android":"levelo://app?vid=457c552c-8af5-4b7b-9f6b-8c901265a623","ios":"levelo://app?vid=457c552c-8af5-4b7b-9f6b-8c901265a623"},"vehicle_type_id":"4","last_reported":1701598020,"current_range_meters":29200,"station_id":"ce4bhn12rcd13ifvqgqg","pricing_plan_id":"free"},{"bike_id":"1d24308f-8432-4b71-8a23-8e0a6011ea0d","system_id":"levelo_inurba_marseille","lat":43.231562,"lon":5.436933,"is_reserved":false,"is_disabled":false,"rental_uris":{"android":"levelo://app?vid=1d24308f-8432-4b71-8a23-8e0a6011ea0d","ios":"levelo://app?vid=1d24308f-8432-4b71-8a23-8e0a6011ea0d"},"vehicle_type_id":"4","last_reported":1701598020,"current_range_meters":15200,"station_id":"ce4bhmp2rcd13ifvqgog","pricing_plan_id":"free"},{"bike_id":"e7c7de1e-27d7-433f-a92f-982aadbd641a","system_id":"levelo_inurba_marseille","lat":43.231562,"lon":5.436933,"is_reserved":false,"is_disabled":false,"rental_uris":{"android":"levelo://app?vid=e7c7de1e-27d7-433f-a92f-982aadbd641a","ios":"levelo://app?vid=e7c7de1e-27d7-433f-a92f-982aadbd641a"},"vehicle_type_id":"4","last_reported":1701598020,"current_range_meters":11200,"station_id":"ce4bhmp2rcd13ifvqgog","pricing_plan_id":"free"}]}}