{"last_updated":1760173755,"ttl":60,"version":"2.2","data":{"bikes":[{"bike_id":"5516e87b-8441-4871-bd1c-dcd0126e113d","system_id":"levelo_inurba_marseille","lat":43.337444,"lon":5.374475,"is_reserved":false,"is_disabled":true,"rental_uris":{"android":"levelo://app?vid=5516e87b-8441-4871-bd1c-dcd0126e113d","ios":"levelo://app?vid=5516e87b-8441-4871-bd1c-dcd0126e113d"},"vehicle_type_id":"4","last_reported":1760173755,"current_range_meters":0,"station_id":"","pricing_plan_id":"cebpf4jnsgd1na2vs0mg"},{"bike_id":"f9ef6a8c-cc82-49e4-96c2-f46e0950a0fc","system_id":"levelo_inurba_marseille","lat":43.33771,"lon":5.37424,"is_reserved":false,"is_disabled":true,"rental_uris":{"android":"levelo://app?vid=f9ef6a8c-cc82-49e4-96c2-f46e0950a0fc","ios":"levelo://app?vid=f9ef6a8c-cc82-49e4-96c2-f46e0950a0fc"},"vehicle_type_id":"4","last_reported":1760173755,"current_range_meters":0,"station_id":"","pricing_plan_id":"cebpf4jnsgd1na2vs0mg"},{"bike_id":"f92995dc-d2e7-4f2e-bcaf-27995c98a1de","system_id":"levelo_inurba_marseille","lat":43.33751,"lon":5.37456,"is_reserved":false,"is_disabled":true,"rental_uris":{"android":"levelo://app?vid=f92995dc-d2e7-4f2e-bcaf-27995c98a1de","ios":"levelo://app?vid=f92995dc-d2e7-4f2e-bcaf-27995c98a1de"},"vehicle_type_id":"4","last_reported":1760173755,"current_range_meters":0,"station_id":"","pricing_plan_id":"cebpf4jnsgd1na2vs0mg"},{"bike_id":"092183e8-1e36-4ece-a29a-68743a5820f6","system_id":"levelo_inurba_marseille","lat":43.33747,"lon":5.37463,"is_reserved":false,"is_disabled":true,"rental_uris":{"android":"levelo://app?vid=092183e8-1e36-4ece-a29a-68743a5820f6","ios":"levelo://app?vid=092183e8-1e36-4ece-a29a-68743a5820f6"},"vehicle_type_id":"1","last_reported":1760173755,"current_range_meters":0,"station_id":"","pricing_plan_id":"cebpf4jnsgd1na2vs0mg"},{"bike_id":"268f0f13-c790-4518-9f6a-1fe45b445342","system_id":"levelo_inurba_marseille","lat":43.33737,"lon":5.37465,"is_reserved":false,"is_disabled":true,"rental_uris":{"android":"levelo://app?vid=268f0f13-c790-4518-9f6a-1fe45b445342","ios":"levelo://app?vid=268f0f13-c790-4518-9f6a-1fe45b445342"},"vehicle_type_id":"4","last_reported":1760173755,"current_range_meters":0,"station_id":"","pricing_plan_id":"cebpf4jnsgd1na2vs0mg"},{"bike_id":"844de8fa-b1ed-4b48-bbb0-8ea30f04e6fa","system_id":"levelo_inurba_marseille","lat":43.33755,"lon":5.37468,"is_reserved":false,"is_disabled":false,"rental_uris":{"android":"levelo://app?vid=844de8fa-b1ed-4b48-bbb0-8ea30f04e6fa","ios":"levelo://app?vid=844de8fa-b1ed-4b48-bbb0-8ea30f04e6fa"},"vehicle_type_id":"4","last_reported":1760173755,"current_range_meters":6000,"station_id":"","pricing_plan_id":"cebpf4jnsgd1na2vs0mg"},{"bike_id":"affea08d-2e61-49ad-9018-2db734fe38fb","system_id":"levelo_inurba_marseille","lat":43.337444,"lon":5.374475,"is_reserved":false,"is_disabled":true,"rental_uris":{"android":"levelo://app?vid=affea08d-2e61-49ad-9018-2db734fe38fb","ios":"levelo://app?vid=affea08d-2e61-49ad-9018-2db734fe38fb"},"vehicle_type_id":"4","last_reported":1760173755,"current_range_meters":0,"station_id":"","pricing_plan_id":"cebpf4jnsgd1na2vs0mg"},{"bike_id":"1c560a38-7ef3-4e44-b456-36993b5ca4af","system_id":"levelo_inurba_marseille","lat":43.337444,"lon":5.374475,"is_reserved":false,"is_disabled":true,"rental_uris":{"android":"levelo://app?vid=1c560a38-7ef3-4e44-b456-36993b5ca4af","ios":"levelo://app?vid=1c560a38-7ef3-4e44-b456-36993b5ca4af"},"vehicle_type_id":"4","last_reported":1760173755,"current_range_meters":0,"station_id":"","pricing_plan_id":"cebpf4jnsgd1na2vs0mg"},{"bike_id":"f8726700-64d6-4ff8-acc0-9adfce94dbe9","system_id":"levelo_inurba_marseille","lat":43.27844,"lon":5.38298,"is_reserved":false,"is_disabled":true,"rental_uris":{"android":"levelo://app?vid=f8726700-64d6-4ff8-acc0-9adfce94dbe9","ios":"levelo://app?vid=f8726700-64d6-4ff8-acc0-9adfce94dbe9"},"vehicle_type_id":"4","last_reported":1760173755,"current_range_meters":0,"station_id":"","pricing_plan_id":"cebpf4jnsgd1na2vs0mg"},{"bike_id":"b4e7ef10-af79-4cf8-a207-60ed0a922607","system_id":"levelo_inurba_marseille","lat":43.337444,"lon":5.374475,"is_reserved":false,"is_disabled":true,"rental_uris":{"android":"levelo://app?vid=b4e7ef10-af79-4cf8-a207-60ed0a922607","ios":"levelo://app?vid=b4e7ef10-af79-4cf8-a207-60ed0a922607"},"vehicle_type_id":"4","last_reported":1760173755,"current_range_meters":0,"station_id":"","pricing_plan_id":"cebpf4jnsgd1na2vs0mg"},{"bike_id":"8dbbaba4-cda7-4e80-af6d-98893f27c6f2","system_id":"levelo_inurba_marseille","lat":43.292002,"lon":5.358126,"is_reserved":false,"is_disabled":true,"rental_uris":{"android":"levelo://app?vid=8dbbaba4-cda7-4e80-af6d-98893f27c6f2","ios":"levelo://app?vid=8dbbaba4-cda7-4e80-af6d-98893f27c6f2"},"vehicle_type_id":"4","last_reported":1760173755,"current_range_meters":0,"station_id":"","pricing_plan_id":"cebpf4jnsgd1na2vs0mg"},{"bike_id":"4ccf7a59-029f-457f-b839-dc6f11286326","system_id":"levelo_inurba_marseille","lat":43.317682,"lon":5.42212,"is_reserved":false,"is_disabled":true,"rental_uris":{"android":"levelo://app?vid=4ccf7a59-029f-457f-b839-dc6f11286326","ios":"levelo://app?vid=4ccf7a59-029f-457f-b839-dc6f11286326"},"vehicle_type_id":"4","last_reported":1760173755,"current_range_meters":0,"station_id":"","pricing_plan_id":"cebpf4jnsgd1na2vs0mg"},{"bike_id":"c0b80dd7-db49-40af-bc47-e89c1ef16a1e","system_id":"levelo_inurba_marseille","lat":43.26907,"lon":5.39452,"is_reserved":false,"is_disabled":true,"rental_uris":{"android":"levelo://app?vid=c0b80dd7-db49-40af-bc47-e89c1ef16a1e","ios":"levelo://app?vid=c0b80dd7-db49-40af-bc47-e89c1ef16a1e"},"vehicle_type_id":"4","last_reported":1760173755,"current_range_meters":0,"station_id":"","pricing_plan_id":"cebpf4jnsgd1na2vs0mg"},{"bike_id":"bf0cd1f5-4a2b-4aae-9f11-cde060414574","system_id":"levelo_inurba_marseille","lat":43.2254,"lon":5.34825,"is_reserved":false,"is_disabled":true,"rental_uris":{"android":"levelo://app?vid=bf0cd1f5-4a2b-4aae-9f11-cde060414574","ios":"levelo://app?vid=bf0cd1f5-4a2b-4aae-9f11-cde060414574"},"vehicle_type_id":"4","last_reported":1760173755,"current_range_meters":0,"station_id":"","pricing_plan_id":"cebpf4jnsgd1na2vs0mg"},{"bike_id":"faf21e59-73fe-43ba-965b-23c7230d33c8","system_id":"levelo_inurba_marseille","lat":43.270557,"lon":5.392632,"is_reserved":false,"is_disabled":true,"rental_uris":{"android":"levelo://app?vid=faf21e59-73fe-43ba-965b-23c7230d33c8","ios":"levelo://app?vid=faf21e59-73fe-43ba-965b-23c7230d33c8"},"vehicle_type_id":"4","last_reported":1760173755,"current_range_meters":0,"station_id":"","pricing_plan_id":"cebpf4jnsgd1na2vs0mg"},{"bike_id":"ec39affe-5e48-4259-a225-7a0d248d923e","system_id":"levelo_inurba_marseille","lat":43.29686,"lon":5.38032,"is_reserved":false,"is_disabled":true,"rental_uris":{"android":"levelo://app?vid=ec39affe-5e48-4259-a225-7a0d248d923e","ios":"levelo://app?vid=ec39affe-5e48-4259-a225-7a0d248d923e"},"vehicle_type_id":"4","last_reported":1760173755,"current_range_meters":0,"station_id":"","pricing_plan_id":"cebpf4jnsgd1na2vs0mg"},{"bike_id":"40b7a52f-24ff-4958-af35-14b56fb81544","system_id":"levelo_inurba_marseille","lat":43.30907,"lon":5.36867,"is_reserved":false,"is_disabled":true,"rental_uris":{"android":"levelo://app?vid=40b7a52f-24ff-4958-af35-14b56fb81544","ios":"levelo://app?vid=40b7a52f-24ff-4958-af35-14b56fb81544"},"vehicle_type_id":"4","last_reported":1760173755,"current_range_meters":0,"station_id":"ce4bgn92rcd13ifvqbvg","pricing_plan_id":"cebpf4jnsgd1na2vs0mg"},{"bike_id":"90bee144-32cd-4cdf-922d-2257ff3b894f","system_id":"levelo_inurba_marseille","lat":43.3133,"lon":5.39699,"is_reserved":false,"is_disabled":true,"rental_uris":{"android":"levelo://app?vid=90bee144-32cd-4cdf-922d-2257ff3b894f","ios":"levelo://app?vid=90bee144-32cd-4cdf-922d-2257ff3b894f"},"vehicle_type_id":"4","last_reported":1760173755,"current_range_meters":0,"station_id":"ce4bgvp2rcd13ifvqcu0","pricing_plan_id":"cebpf4jnsgd1na2vs0mg"},{"bike_id":"72c6ca9b-950d-4b9e-a2b1-ea2b07527902","system_id":"levelo_inurba_marseille","lat":43.290214,"lon":5.381251,"is_reserved":false,"is_disabled":true,"rental_uris":{"android":"levelo://app?vid=72c6ca9b-950d-4b9e-a2b1-ea2b07527902","ios":"levelo://app?vid=72c6ca9b-950d-4b9e-a2b1-ea2b07527902"},"vehicle_type_id":"4","last_reported":1760173755,"current_range_meters":0,"station_id":"ce4bh4p2rcd13ifvqe1g","pricing_plan_id":"cebpf4jnsgd1na2vs0mg"},{"bike_id":"1e217379-81fc-498c-ab5f-050b06faee8c","system_id":"levelo_inurba_marseille","lat":43.2804,"lon":5.3694,"is_reserved":false,"is_disabled":true,"rental_uris":{"android":"levelo://app?vid=1e217379-81fc-498c-ab5f-050b06faee8c","ios":"levelo://app?vid=1e217379-81fc-498c-ab5f-050b06faee8c"},"vehicle_type_id":"4","last_reported":1760173755,"current_range_meters":0,"station_id":"ce4bha12rcd13ifvqef0","pricing_plan_id":"cebpf4jnsgd1na2vs0mg"},{"bike_id":"9c6b98af-698b-4037-bc2f-fc885a1612ab","system_id":"levelo_inurba_marseille","lat":43.27363,"lon":5.36266,"is_reserved":false,"is_disabled":true,"rental_uris":{"android":"levelo://app?vid=9c6b98af-698b-4037-bc2f-fc885a1612ab","ios":"levelo://app?vid=9c6b98af-698b-4037-bc2f-fc885a1612ab"},"vehicle_type_id":"4","last_reported":1760173755,"current_range_meters":0,"station_id":"ce4bhbh2rcd13ifvqeo0","pricing_plan_id":"cebpf4jnsgd1na2vs0mg"},{"bike_id":"66685203-e3a5-4541-bc6b-2c5703237e16","system_id":"levelo_inurba_marseille","lat":43.266739,"lon":5.382705,"is_reserved":false,"is_disabled":true,"rental_uris":{"android":"levelo://app?vid=66685203-e3a5-4541-bc6b-2c5703237e16","ios":"levelo://app?vid=66685203-e3a5-4541-bc6b-2c5703237e16"},"vehicle_type_id":"4","last_reported":1760173755,"current_range_meters":0,"station_id":"ce4bhg92rcd13ifvqf90","pricing_plan_id":"cebpf4jnsgd1na2vs0mg"},{"bike_id":"9eca4d54-b002-408c-b56e-2a47404ccf7c","system_id":"levelo_inurba_marseille","lat":43.24805,"lon":5.37457,"is_reserved":false,"is_disabled":true,"rental_uris":{"android":"levelo://app?vid=9eca4d54-b002-408c-b56e-2a47404ccf7c","ios":"levelo://app?vid=9eca4d54-b002-408c-b56e-2a47404ccf7c"},"vehicle_type_id":"4","last_reported":1760173755,"current_range_meters":0,"station_id":"ce4bhgh2rcd13ifvqfb0","pricing_plan_id":"cebpf4jnsgd1na2vs0mg"},{"bike_id":"ef5a316f-55da-4892-aa6a-99fe923c4ff5","system_id":"levelo_inurba_marseille","lat":43.23591,"lon":5.40039,"is_reserved":false,"is_disabled":true,"rental_uris":{"android":"levelo://app?vid=ef5a316f-55da-4892-aa6a-99fe923c4ff5","ios":"levelo://app?vid=ef5a316f-55da-4892-aa6a-99fe923c4ff5"},"vehicle_type_id":"4","last_reported":1760173755,"current_range_meters":0,"station_id":"ce4bhn12rcd13ifvqgpg","pricing_plan_id":"cebpf4jnsgd1na2vs0mg"},{"bike_id":"ae8086aa-5d1f-48e8-86fc-a1ac146adddc","system_id":"levelo_inurba_marseille","lat":43.287378,"lon":5.360802,"is_reserved":false,"is_disabled":true,"rental_uris":{"android":"levelo://app?vid=ae8086aa-5d1f-48e8-86fc-a1ac146adddc","ios":"levelo://app?vid=ae8086aa-5d1f-48e8-86fc-a1ac146adddc"},"vehicle_type_id":"4","last_reported":1760173755,"current_range_meters":0,"station_id":"cki0cbj6b192h4jlfktg","pricing_plan_id":"cebpf4jnsgd1na2vs0mg"},{"bike_id":"86eca012-edfb-4c20-9aef-d37ce3cadbda","system_id":"levelo_inurba_marseille","lat":43.21185,"lon":5.35081,"is_reserved":false,"is_disabled":true,"rental_uris":{"android":"levelo://app?vid=86eca012-edfb-4c20-9aef-d37ce3cadbda","ios":"levelo://app?vid=86eca012-edfb-4c20-9aef-d37ce3cadbda"},"vehicle_type_id":"4","last_reported":1760173755,"current_range_meters":0,"station_id":"st_cvj6sg6p6f1abm77japg","pricing_plan_id":"cebpf4jnsgd1na2vs0mg"},{"bike_id":"5206f34d-5c08-42bd-b24d-21b13734d2e6","system_id":"levelo_inurba_marseille","lat":43.21206,"lon":5.35059,"is_reserved":false,"is_disabled":true,"rental_uris":{"android":"levelo://app?vid=5206f34d-5c08-42bd-b24d-21b13734d2e6","ios":"levelo://app?vid=5206f34d-5c08-42bd-b24d-21b13734d2e6"},"vehicle_type_id":"4","last_reported":1760173755,"current_range_meters":0,"station_id":"st_cvj6sg6p6f1abm77japg","pricing_plan_id":"cebpf4jnsgd1na2vs0mg"},{"bike_id":"4efb65b2-59d2-49c2-bfb7-a38d468bb2dd","system_id":"levelo_inurba_marseille","lat":43.212,"lon":5.35099,"is_reserved":false,"is_disabled":true,"rental_uris":{"android":"levelo://app?vid=4efb65b2-59d2-49c2-bfb7-a38d468bb2dd","ios":"levelo://app?vid=4efb65b2-59d2-49c2-bfb7-a38d468bb2dd"},"vehicle_type_id":"4","last_reported":1760173755,"current_range_meters":0,"station_id":"st_cvj6sg6p6f1abm77japg","pricing_plan_id":"cebpf4jnsgd1na2vs0mg"},{"bike_id":"5a1f50b1-f1f9-4f02-a3c5-363250f2c45b","system_id":"levelo_inurba_marseille","lat":43.211883,"lon":5.350779,"is_reserved":false,"is_disabled":true,"rental_uris":{"android":"levelo://app?vid=5a1f50b1-f1f9-4f02-a3c5-363250f2c45b","ios":"levelo://app?vid=5a1f50b1-f1f9-4f02-a3c5-363250f2c45b"},"vehicle_type_id":"4","last_reported":1760173755,"current_range_meters":0,"station_id":"st_cvj6sg6p6f1abm77japg","pricing_plan_id":"cebpf4jnsgd1na2vs0mg"},{"bike_id":"8bf7b6ca-5f5f-4a60-b776-5c97f3b10231","system_id":"levelo_inurba_marseille","lat":43.29968,"lon":5.38496,"is_reserved":false,"is_disabled":true,"rental_uris":{"android":"levelo://app?vid=8bf7b6ca-5f5f-4a60-b776-5c97f3b10231","ios":"levelo://app?vid=8bf7b6ca-5f5f-4a60-b776-5c97f3b10231"},"vehicle_type_id":"4","last_reported":1760173755,"current_range_meters":400,"station_id":"ce4bgj92rcd13ifvqbd0","pricing_plan_id":"cebpf4jnsgd1na2vs0mg"},{"bike_id":"bc3f26e6-e751-4b6b-963c-dde1fcea9387","system_id":"levelo_inurba_marseille","lat":43.2985,"lon":5.36306,"is_reserved":false,"is_disabled":true,"rental_uris":{"android":"levelo://app?vid=bc3f26e6-e751-4b6b-963c-dde1fcea9387","ios":"levelo://app?vid=bc3f26e6-e751-4b6b-963c-dde1fcea9387"},"vehicle_type_id":"4","last_reported":1760173755,"current_range_meters":400,"station_id":"ce4bgpp2rcd13ifvqc3g","pricing_plan_id":"cebpf4jnsgd1na2vs0mg"},{"bike_id":"0c6fb7ff-9939-4a6c-8c2b-5c631e73c40f","system_id":"levelo_inurba_marseille","lat":43.2668,"lon":5.38269,"is_reserved":false,"is_disabled":true,"rental_uris":{"android":"levelo://app?vid=0c6fb7ff-9939-4a6c-8c2b-5c631e73c40f","ios":"levelo://app?vid=0c6fb7ff-9939-4a6c-8c2b-5c631e73c40f"},"vehicle_type_id":"4","last_reported":1760173755,"current_range_meters":400,"station_id":"ce4bhg92rcd13ifvqf90","pricing_plan_id":"cebpf4jnsgd1na2vs0mg"},{"bike_id":"31e82333-7af8-4792-a0d3-c53974ed6dee","system_id":"levelo_inurba_marseille","lat":43.28043,"lon":5.36936,"is_reserved":false,"is_disabled":true,"rental_uris":{"android":"levelo://app?vid=31e82333-7af8-4792-a0d3-c53974ed6dee","ios":"levelo://app?vid=31e82333-7af8-4792-a0d3-c53974ed6dee"},"vehicle_type_id":"4","last_reported":1760173755,"current_range_meters":800,"station_id":"ce4bha12rcd13ifvqef0","pricing_plan_id":"cebpf4jnsgd1na2vs0mg"},{"bike_id":"b2e2b38d-36f4-4e15-986e-723132819a60","system_id":"levelo_inurba_marseille","lat":43.30822,"lon":5.43543,"is_reserved":false,"is_disabled":true,"rental_uris":{"android":"levelo://app?vid=b2e2b38d-36f4-4e15-986e-723132819a60","ios":"levelo://app?vid=b2e2b38d-36f4-4e15-986e-723132819a60"},"vehicle_type_id":"4","last_reported":1760173755,"current_range_meters":1200,"station_id":"ce4bhph2rcd13ifvqheg","pricing_plan_id":"cebpf4jnsgd1na2vs0mg"},{"bike_id":"4603d2b3-0387-40ff-adec-6330c74af0d1","system_id":"levelo_inurba_marseille","lat":43.283602,"lon":5.381186,"is_reserved":false,"is_disabled":true,"rental_uris":{"android":"levelo://app?vid=4603d2b3-0387-40ff-adec-6330c74af0d1","ios":"levelo://app?vid=4603d2b3-0387-40ff-adec-6330c74af0d1"},"vehicle_type_id":"4","last_reported":1760173755,"current_range_meters":1600,"station_id":"ce4bh412rcd13ifvqdr0","pricing_plan_id":"cebpf4jnsgd1na2vs0mg"},{"bike_id":"8e7efa63-511d-4670-962b-9c8767d0ceca","system_id":"levelo_inurba_marseille","lat":43.27309,"lon":5.39086,"is_reserved":false,"is_disabled":true,"rental_uris":{"android":"levelo://app?vid=8e7efa63-511d-4670-962b-9c8767d0ceca","ios":"levelo://app?vid=8e7efa63-511d-4670-962b-9c8767d0ceca"},"vehicle_type_id":"4","last_reported":1760173755,"current_range_meters":2000,"station_id":"ce4bhgp2rcd13ifvqfe0","pricing_plan_id":"cebpf4jnsgd1na2vs0mg"},{"bike_id":"05863ab6-6bfc-47b4-becf-0e40612e9b80","system_id":"levelo_inurba_marseille","lat":43.28716,"lon":5.3609,"is_reserved":false,"is_disabled":false,"rental_uris":{"android":"levelo://app?vid=05863ab6-6bfc-47b4-becf-0e40612e9b80","ios":"levelo://app?vid=05863ab6-6bfc-47b4-becf-0e40612e9b80"},"vehicle_type_id":"4","last_reported":1760173755,"current_range_meters":2000,"station_id":"cki0cbj6b192h4jlfktg","pricing_plan_id":"cebpf4jnsgd1na2vs0mg"},{"bike_id":"2b602c09-1ed8-47c0-a190-08a0fc86914f","system_id":"levelo_inurba_marseille","lat":43.27627,"lon":5.36104,"is_reserved":false,"is_disabled":false,"rental_uris":{"android":"levelo://app?vid=2b602c09-1ed8-47c0-a190-08a0fc86914f","ios":"levelo://app?vid=2b602c09-1ed8-47c0-a190-08a0fc86914f"},"vehicle_type_id":"4","last_reported":1760173755,"current_range_meters":2800,"station_id":"ce4bgj92rcd13ifvqbe0","pricing_plan_id":"cebpf4jnsgd1na2vs0mg"},{"bike_id":"cb89d6ad-3b47-4702-b32e-077b491a665f","system_id":"levelo_inurba_marseille","lat":43.281528,"lon":5.426558,"is_reserved":false,"is_disabled":false,"rental_uris":{"android":"levelo://app?vid=cb89d6ad-3b47-4702-b32e-077b491a665f","ios":"levelo://app?vid=cb89d6ad-3b47-4702-b32e-077b491a665f"},"vehicle_type_id":"4","last_reported":1760173755,"current_range_meters":2800,"station_id":"ce4bhnh2rcd13ifvqgug","pricing_plan_id":"cebpf4jnsgd1na2vs0mg"},{"bike_id":"7d5ce263-f686-45fa-8db0-4964caa8f28c","system_id":"levelo_inurba_marseille","lat":43.30149,"lon":5.38085,"is_reserved":false,"is_disabled":false,"rental_uris":{"android":"levelo://app?vid=7d5ce263-f686-45fa-8db0-4964caa8f28c","ios":"levelo://app?vid=7d5ce263-f686-45fa-8db0-4964caa8f28c"},"vehicle_type_id":"4","last_reported":1760173755,"current_range_meters":3600,"station_id":"ce4bgjp2rcd13ifvqbh0","pricing_plan_id":"cebpf4jnsgd1na2vs0mg"},{"bike_id":"a708eefc-b092-429d-aeb6-8eace9005f89","system_id":"levelo_inurba_marseille","lat":43.282883,"lon":5.390823,"is_reserved":false,"is_disabled":false,"rental_uris":{"android":"levelo://app?vid=a708eefc-b092-429d-aeb6-8eace9005f89","ios":"levelo://app?vid=a708eefc-b092-429d-aeb6-8eace9005f89"},"vehicle_type_id":"4","last_reported":1760173755,"current_range_meters":3600,"station_id":"ce4bhn92rcd13ifvqgsg","pricing_plan_id":"cebpf4jnsgd1na2vs0mg"},{"bike_id":"c7439326-455e-4b1a-8d25-19b24d9f4647","system_id":"levelo_inurba_marseille","lat":43.2971,"lon":5.37703,"is_reserved":false,"is_disabled":false,"rental_uris":{"android":"levelo://app?vid=c7439326-455e-4b1a-8d25-19b24d9f4647","ios":"levelo://app?vid=c7439326-455e-4b1a-8d25-19b24d9f4647"},"vehicle_type_id":"4","last_reported":1760173755,"current_range_meters":4400,"station_id":"ce4bgkh2rcd13ifvqbl0","pricing_plan_id":"cebpf4jnsgd1na2vs0mg"},{"bike_id":"b93d93b9-029d-462c-acd7-320a511b9516","system_id":"levelo_inurba_marseille","lat":43.29225,"lon":5.36072,"is_reserved":false,"is_disabled":false,"rental_uris":{"android":"levelo://app?vid=b93d93b9-029d-462c-acd7-320a511b9516","ios":"levelo://app?vid=b93d93b9-029d-462c-acd7-320a511b9516"},"vehicle_type_id":"4","last_reported":1760173755,"current_range_meters":4400,"station_id":"ce4bhbh2rcd13ifvqeqg","pricing_plan_id":"cebpf4jnsgd1na2vs0mg"},{"bike_id":"d90b0aa9-e338-49fe-a69d-54560edf65df","system_id":"levelo_inurba_marseille","lat":43.24387,"lon":5.37053,"is_reserved":false,"is_disabled":false,"rental_uris":{"android":"levelo://app?vid=d90b0aa9-e338-49fe-a69d-54560edf65df","ios":"levelo://app?vid=d90b0aa9-e338-49fe-a69d-54560edf65df"},"vehicle_type_id":"4","last_reported":1760173755,"current_range_meters":4400,"station_id":"ce4bhhh2rcd13ifvqfk0","pricing_plan_id":"cebpf4jnsgd1na2vs0mg"},{"bike_id":"1508e37c-ddee-4fca-a836-8777a02263a4","system_id":"levelo_inurba_marseille","lat":43.297229,"lon":5.380115,"is_reserved":false,"is_disabled":false,"rental_uris":{"android":"levelo://app?vid=1508e37c-ddee-4fca-a836-8777a02263a4","ios":"levelo://app?vid=1508e37c-ddee-4fca-a836-8777a02263a4"},"vehicle_type_id":"4","last_reported":1760173755,"current_range_meters":4800,"station_id":"","pricing_plan_id":"cebpf4jnsgd1na2vs0mg"},{"bike_id":"8b05ae4d-1980-4ed7-945b-01e71608c56d","system_id":"levelo_inurba_marseille","lat":43.30894,"lon":5.37203,"is_reserved":false,"is_disabled":false,"rental_uris":{"android":"levelo://app?vid=8b05ae4d-1980-4ed7-945b-01e71608c56d","ios":"levelo://app?vid=8b05ae4d-1980-4ed7-945b-01e71608c56d"},"vehicle_type_id":"4","last_reported":1760173755,"current_range_meters":4800,"station_id":"ce4bguh2rcd13ifvqckg","pricing_plan_id":"cebpf4jnsgd1na2vs0mg"},{"bike_id":"a4ceaffa-8bcf-4138-8a94-4e5f49e0135d","system_id":"levelo_inurba_marseille","lat":43.30956,"lon":5.39028,"is_reserved":false,"is_disabled":false,"rental_uris":{"android":"levelo://app?vid=a4ceaffa-8bcf-4138-8a94-4e5f49e0135d","ios":"levelo://app?vid=a4ceaffa-8bcf-4138-8a94-4e5f49e0135d"},"vehicle_type_id":"4","last_reported":1760173755,"current_range_meters":6000,"station_id":"ce4bgup2rcd13ifvqco0","pricing_plan_id":"cebpf4jnsgd1na2vs0mg"},{"bike_id":"50cd598d-628a-42c2-9d23-726286698347","system_id":"levelo_inurba_marseille","lat":43.26494,"lon":5.39563,"is_reserved":false,"is_disabled":false,"rental_uris":{"android":"levelo://app?vid=50cd598d-628a-42c2-9d23-726286698347","ios":"levelo://app?vid=50cd598d-628a-42c2-9d23-726286698347"},"vehicle_type_id":"4","last_reported":1760173755,"current_range_meters":6000,"station_id":"ce4bhi12rcd13ifvqfq0","pricing_plan_id":"cebpf4jnsgd1na2vs0mg"},{"bike_id":"53fe541b-3c92-46db-8510-3e62120e570c","system_id":"levelo_inurba_marseille","lat":43.23067,"lon":5.35491,"is_reserved":false,"is_disabled":false,"rental_uris":{"android":"levelo://app?vid=53fe541b-3c92-46db-8510-3e62120e570c","ios":"levelo://app?vid=53fe541b-3c92-46db-8510-3e62120e570c"},"vehicle_type_id":"4","last_reported":1760173755,"current_range_meters":6000,"station_id":"cpo3342slgdg3j2ifvpg","pricing_plan_id":"cebpf4jnsgd1na2vs0mg"},{"bike_id":"3d35720d-daa5-45e3-b0a3-6a9cc47cccb3","system_id":"levelo_inurba_marseille","lat":43.30914,"lon":5.36863,"is_reserved":false,"is_disabled":false,"rental_uris":{"android":"levelo://app?vid=3d35720d-daa5-45e3-b0a3-6a9cc47cccb3","ios":"levelo://app?vid=3d35720d-daa5-45e3-b0a3-6a9cc47cccb3"},"vehicle_type_id":"4","last_reported":1760173755,"current_range_meters":6800,"station_id":"ce4bgn92rcd13ifvqbvg","pricing_plan_id":"cebpf4jnsgd1na2vs0mg"},{"bike_id":"0587ff47-1929-4ca8-b71d-cc6552945df3","system_id":"levelo_inurba_marseille","lat":43.27059,"lon":5.40255,"is_reserved":false,"is_disabled":false,"rental_uris":{"android":"levelo://app?vid=0587ff47-1929-4ca8-b71d-cc6552945df3","ios":"levelo://app?vid=0587ff47-1929-4ca8-b71d-cc6552945df3"},"vehicle_type_id":"4","last_reported":1760173755,"current_range_meters":6800,"station_id":"ce4bhk92rcd13ifvqgc0","pricing_plan_id":"cebpf4jnsgd1na2vs0mg"},{"bike_id":"c2400a6f-6255-4902-a2ad-f1b57ecce905","system_id":"levelo_inurba_marseille","lat":43.230632,"lon":5.354906,"is_reserved":false,"is_disabled":false,"rental_uris":{"android":"levelo://app?vid=c2400a6f-6255-4902-a2ad-f1b57ecce905","ios":"levelo://app?vid=c2400a6f-6255-4902-a2ad-f1b57ecce905"},"vehicle_type_id":"4","last_reported":1760173755,"current_range_meters":6800,"station_id":"cpo3342slgdg3j2ifvpg","pricing_plan_id":"cebpf4jnsgd1na2vs0mg"},{"bike_id":"2bc038b1-519b-42b1-9bd4-7d2b97044996","system_id":"levelo_inurba_marseille","lat":43.292886,"lon":5.410525,"is_reserved":false,"is_disabled":false,"rental_uris":{"android":"levelo://app?vid=2bc038b1-519b-42b1-9bd4-7d2b97044996","ios":"levelo://app?vid=2bc038b1-519b-42b1-9bd4-7d2b97044996"},"vehicle_type_id":"4","last_reported":1760173755,"current_range_meters":7200,"station_id":"","pricing_plan_id":"cebpf4jnsgd1na2vs0mg"},{"bike_id":"bd91026c-52c8-44ab-9115-4ae4eb8c5d3d","system_id":"levelo_inurba_marseille","lat":43.27319,"lon":5.39078,"is_reserved":false,"is_disabled":false,"rental_uris":{"android":"levelo://app?vid=bd91026c-52c8-44ab-9115-4ae4eb8c5d3d","ios":"levelo://app?vid=bd91026c-52c8-44ab-9115-4ae4eb8c5d3d"},"vehicle_type_id":"4","last_reported":1760173755,"current_range_meters":7200,"station_id":"ce4bhgp2rcd13ifvqfe0","pricing_plan_id":"cebpf4jnsgd1na2vs0mg"},{"bike_id":"d25facf0-ed6e-4eb6-961f-ea8a9e048864","system_id":"levelo_inurba_marseille","lat":43.25917,"lon":5.4088,"is_reserved":false,"is_disabled":false,"rental_uris":{"android":"levelo://app?vid=d25facf0-ed6e-4eb6-961f-ea8a9e048864","ios":"levelo://app?vid=d25facf0-ed6e-4eb6-961f-ea8a9e048864"},"vehicle_type_id":"4","last_reported":1760173755,"current_range_meters":7200,"station_id":"ce4bhm92rcd13ifvqglg","pricing_plan_id":"cebpf4jnsgd1na2vs0mg"},{"bike_id":"bd97a63f-1e4f-48e0-b6a9-90a6f0cd17ef","system_id":"levelo_inurba_marseille","lat":43.29024,"lon":5.38648,"is_reserved":false,"is_disabled":false,"rental_uris":{"android":"levelo://app?vid=bd97a63f-1e4f-48e0-b6a9-90a6f0cd17ef","ios":"levelo://app?vid=bd97a63f-1e4f-48e0-b6a9-90a6f0cd17ef"},"vehicle_type_id":"4","last_reported":1760173755,"current_range_meters":8000,"station_id":"ce4bh4p2rcd13ifvqe0g","pricing_plan_id":"cebpf4jnsgd1na2vs0mg"},{"bike_id":"1cd7275e-a2dd-4853-866d-7ac274b0d837","system_id":"levelo_inurba_marseille","lat":43.24825,"lon":5.37477,"is_reserved":false,"is_disabled":false,"rental_uris":{"android":"levelo://app?vid=1cd7275e-a2dd-4853-866d-7ac274b0d837","ios":"levelo://app?vid=1cd7275e-a2dd-4853-866d-7ac274b0d837"},"vehicle_type_id":"4","last_reported":1760173755,"current_range_meters":8000,"station_id":"ce4bhgh2rcd13ifvqfb0","pricing_plan_id":"cebpf4jnsgd1na2vs0mg"},{"bike_id":"e9e42d2d-7e53-4efc-b575-031b106766c7","system_id":"levelo_inurba_marseille","lat":43.297386,"lon":5.36875,"is_reserved":false,"is_disabled":false,"rental_uris":{"android":"levelo://app?vid=e9e42d2d-7e53-4efc-b575-031b106766c7","ios":"levelo://app?vid=e9e42d2d-7e53-4efc-b575-031b106766c7"},"vehicle_type_id":"4","last_reported":1760173755,"current_range_meters":8400,"station_id":"","pricing_plan_id":"cebpf4jnsgd1na2vs0mg"},{"bike_id":"3dffbb90-c51e-48f8-a5ef-2afa7e70e7c7","system_id":"levelo_inurba_marseille","lat":43.267872,"lon":5.371368,"is_reserved":false,"is_disabled":false,"rental_uris":{"android":"levelo://app?vid=3dffbb90-c51e-48f8-a5ef-2afa7e70e7c7","ios":"levelo://app?vid=3dffbb90-c51e-48f8-a5ef-2afa7e70e7c7"},"vehicle_type_id":"4","last_reported":1760173755,"current_range_meters":8400,"station_id":"ce4bhgh2rcd13ifvqfa0","pricing_plan_id":"cebpf4jnsgd1na2vs0mg"},{"bike_id":"4feacc75-e56c-4af3-932c-f9948ee43688","system_id":"levelo_inurba_marseille","lat":43.25941,"lon":5.40904,"is_reserved":false,"is_disabled":false,"rental_uris":{"android":"levelo://app?vid=4feacc75-e56c-4af3-932c-f9948ee43688","ios":"levelo://app?vid=4feacc75-e56c-4af3-932c-f9948ee43688"},"vehicle_type_id":"4","last_reported":1760173755,"current_range_meters":8400,"station_id":"ce4bhm92rcd13ifvqglg","pricing_plan_id":"cebpf4jnsgd1na2vs0mg"},{"bike_id":"ab39e7be-c709-417b-8585-a40c41c27372","system_id":"levelo_inurba_marseille","lat":43.22561,"lon":5.41642,"is_reserved":false,"is_disabled":false,"rental_uris":{"android":"levelo://app?vid=ab39e7be-c709-417b-8585-a40c41c27372","ios":"levelo://app?vid=ab39e7be-c709-417b-8585-a40c41c27372"},"vehicle_type_id":"4","last_reported":1760173755,"current_range_meters":8400,"station_id":"st_d2o4gvlbi1j2169b742g","pricing_plan_id":"cebpf4jnsgd1na2vs0mg"},{"bike_id":"daca0046-00af-4c3d-97a3-9a04d8ad7588","system_id":"levelo_inurba_marseille","lat":43.225525,"lon":5.416285,"is_reserved":false,"is_disabled":false,"rental_uris":{"android":"levelo://app?vid=daca0046-00af-4c3d-97a3-9a04d8ad7588","ios":"levelo://app?vid=daca0046-00af-4c3d-97a3-9a04d8ad7588"},"vehicle_type_id":"4","last_reported":1760173755,"current_range_meters":8400,"station_id":"st_d2o4gvlbi1j2169b742g","pricing_plan_id":"cebpf4jnsgd1na2vs0mg"},{"bike_id":"65de34ce-6450-4e56-a6fe-251627e07b88","system_id":"levelo_inurba_marseille","lat":43.21752,"lon":5.34603,"is_reserved":false,"is_disabled":false,"rental_uris":{"android":"levelo://app?vid=65de34ce-6450-4e56-a6fe-251627e07b88","ios":"levelo://app?vid=65de34ce-6450-4e56-a6fe-251627e07b88"},"vehicle_type_id":"4","last_reported":1760173755,"current_range_meters":8800,"station_id":"","pricing_plan_id":"cebpf4jnsgd1na2vs0mg"},{"bike_id":"4669b700-19eb-4757-9d82-d50fcce09486","system_id":"levelo_inurba_marseille","lat":43.25498,"lon":5.37649,"is_reserved":false,"is_disabled":false,"rental_uris":{"android":"levelo://app?vid=4669b700-19eb-4757-9d82-d50fcce09486","ios":"levelo://app?vid=4669b700-19eb-4757-9d82-d50fcce09486"},"vehicle_type_id":"4","last_reported":1760173755,"current_range_meters":8800,"station_id":"ce4bhh12rcd13ifvqff0","pricing_plan_id":"cebpf4jnsgd1na2vs0mg"},{"bike_id":"9b8210ac-13f4-4cc2-b85e-1c3a607cc0ca","system_id":"levelo_inurba_marseille","lat":43.272267,"lon":5.390912,"is_reserved":false,"is_disabled":false,"rental_uris":{"android":"levelo://app?vid=9b8210ac-13f4-4cc2-b85e-1c3a607cc0ca","ios":"levelo://app?vid=9b8210ac-13f4-4cc2-b85e-1c3a607cc0ca"},"vehicle_type_id":"4","last_reported":1760173755,"current_range_meters":8800,"station_id":"ce4bhhp2rcd13ifvqfm0","pricing_plan_id":"cebpf4jnsgd1na2vs0mg"},{"bike_id":"53e64b86-ff11-4cf4-9d58-0b5145342394","system_id":"levelo_inurba_marseille","lat":43.27058,"lon":5.40268,"is_reserved":false,"is_disabled":false,"rental_uris":{"android":"levelo://app?vid=53e64b86-ff11-4cf4-9d58-0b5145342394","ios":"levelo://app?vid=53e64b86-ff11-4cf4-9d58-0b5145342394"},"vehicle_type_id":"4","last_reported":1760173755,"current_range_meters":8800,"station_id":"ce4bhk92rcd13ifvqgc0","pricing_plan_id":"cebpf4jnsgd1na2vs0mg"},{"bike_id":"2eea6181-cc3b-488f-9b46-a56f813c4bae","system_id":"levelo_inurba_marseille","lat":43.25111,"lon":5.4032,"is_reserved":false,"is_disabled":false,"rental_uris":{"android":"levelo://app?vid=2eea6181-cc3b-488f-9b46-a56f813c4bae","ios":"levelo://app?vid=2eea6181-cc3b-488f-9b46-a56f813c4bae"},"vehicle_type_id":"4","last_reported":1760173755,"current_range_meters":8800,"station_id":"ce4bhlh2rcd13ifvqgig","pricing_plan_id":"cebpf4jnsgd1na2vs0mg"},{"bike_id":"75822800-46de-48c0-a506-bb93588648c1","system_id":"levelo_inurba_marseille","lat":43.2306,"lon":5.35494,"is_reserved":false,"is_disabled":false,"rental_uris":{"android":"levelo://app?vid=75822800-46de-48c0-a506-bb93588648c1","ios":"levelo://app?vid=75822800-46de-48c0-a506-bb93588648c1"},"vehicle_type_id":"4","last_reported":1760173755,"current_range_meters":8800,"station_id":"cpo3342slgdg3j2ifvpg","pricing_plan_id":"cebpf4jnsgd1na2vs0mg"},{"bike_id":"e69857b2-722c-4d3e-ba60-818b5ac8a550","system_id":"levelo_inurba_marseille","lat":43.2254,"lon":5.34827,"is_reserved":false,"is_disabled":false,"rental_uris":{"android":"levelo://app?vid=e69857b2-722c-4d3e-ba60-818b5ac8a550","ios":"levelo://app?vid=e69857b2-722c-4d3e-ba60-818b5ac8a550"},"vehicle_type_id":"4","last_reported":1760173755,"current_range_meters":9200,"station_id":"","pricing_plan_id":"cebpf4jnsgd1na2vs0mg"},{"bike_id":"b06aa8fc-fd54-4f80-bbc6-c3a979bb6336","system_id":"levelo_inurba_marseille","lat":43.29234,"lon":5.36061,"is_reserved":false,"is_disabled":false,"rental_uris":{"android":"levelo://app?vid=b06aa8fc-fd54-4f80-bbc6-c3a979bb6336","ios":"levelo://app?vid=b06aa8fc-fd54-4f80-bbc6-c3a979bb6336"},"vehicle_type_id":"4","last_reported":1760173755,"current_range_meters":9200,"station_id":"ce4bhbh2rcd13ifvqeqg","pricing_plan_id":"cebpf4jnsgd1na2vs0mg"},{"bike_id":"7ecce9b3-6d8a-4b46-9e3e-06d9c28c905f","system_id":"levelo_inurba_marseille","lat":43.28908,"lon":5.39105,"is_reserved":false,"is_disabled":false,"rental_uris":{"android":"levelo://app?vid=7ecce9b3-6d8a-4b46-9e3e-06d9c28c905f","ios":"levelo://app?vid=7ecce9b3-6d8a-4b46-9e3e-06d9c28c905f"},"vehicle_type_id":"4","last_reported":1760173755,"current_range_meters":9600,"station_id":"","pricing_plan_id":"cebpf4jnsgd1na2vs0mg"},{"bike_id":"840f5367-4a8b-4bf8-aed3-ddf295d75be0","system_id":"levelo_inurba_marseille","lat":43.30428,"lon":5.371896,"is_reserved":false,"is_disabled":false,"rental_uris":{"android":"levelo://app?vid=840f5367-4a8b-4bf8-aed3-ddf295d75be0","ios":"levelo://app?vid=840f5367-4a8b-4bf8-aed3-ddf295d75be0"},"vehicle_type_id":"4","last_reported":1760173755,"current_range_meters":9600,"station_id":"","pricing_plan_id":"cebpf4jnsgd1na2vs0mg"},{"bike_id":"0458f03b-1910-440f-9167-c00670fba699","system_id":"levelo_inurba_marseille","lat":43.337444,"lon":5.374475,"is_reserved":false,"is_disabled":false,"rental_uris":{"android":"levelo://app?vid=0458f03b-1910-440f-9167-c00670fba699","ios":"levelo://app?vid=0458f03b-1910-440f-9167-c00670fba699"},"vehicle_type_id":"4","last_reported":1760173755,"current_range_meters":10000,"station_id":"","pricing_plan_id":"cebpf4jnsgd1na2vs0mg"},{"bike_id":"e78c2604-e21f-422f-b80a-2add4d62e5bd","system_id":"levelo_inurba_marseille","lat":43.328772,"lon":5.381322,"is_reserved":false,"is_disabled":false,"rental_uris":{"android":"levelo://app?vid=e78c2604-e21f-422f-b80a-2add4d62e5bd","ios":"levelo://app?vid=e78c2604-e21f-422f-b80a-2add4d62e5bd"},"vehicle_type_id":"4","last_reported":1760173755,"current_range_meters":10000,"station_id":"","pricing_plan_id":"cebpf4jnsgd1na2vs0mg"},{"bike_id":"d1bf98ef-f1b6-4472-b394-1a08568f7bb2","system_id":"levelo_inurba_marseille","lat":43.295417,"lon":5.374652,"is_reserved":false,"is_disabled":false,"rental_uris":{"android":"levelo://app?vid=d1bf98ef-f1b6-4472-b394-1a08568f7bb2","ios":"levelo://app?vid=d1bf98ef-f1b6-4472-b394-1a08568f7bb2"},"vehicle_type_id":"4","last_reported":1760173755,"current_range_meters":10000,"station_id":"","pricing_plan_id":"cebpf4jnsgd1na2vs0mg"},{"bike_id":"eb41364e-84de-488e-ab89-6ac9d0bf0030","system_id":"levelo_inurba_marseille","lat":43.30149,"lon":5.38095,"is_reserved":false,"is_disabled":false,"rental_uris":{"android":"levelo://app?vid=eb41364e-84de-488e-ab89-6ac9d0bf0030","ios":"levelo://app?vid=eb41364e-84de-488e-ab89-6ac9d0bf0030"},"vehicle_type_id":"4","last_reported":1760173755,"current_range_meters":10000,"station_id":"ce4bgjp2rcd13ifvqbh0","pricing_plan_id":"cebpf4jnsgd1na2vs0mg"},{"bike_id":"226f9861-d66c-4c69-b23f-48aa5532ae82","system_id":"levelo_inurba_marseille","lat":43.28157,"lon":5.42641,"is_reserved":false,"is_disabled":false,"rental_uris":{"android":"levelo://app?vid=226f9861-d66c-4c69-b23f-48aa5532ae82","ios":"levelo://app?vid=226f9861-d66c-4c69-b23f-48aa5532ae82"},"vehicle_type_id":"4","last_reported":1760173755,"current_range_meters":10000,"station_id":"ce4bhnh2rcd13ifvqgug","pricing_plan_id":"cebpf4jnsgd1na2vs0mg"},{"bike_id":"f84db39b-1588-467c-a7d6-3417c55d68b1","system_id":"levelo_inurba_marseille","lat":43.29366,"lon":5.37532,"is_reserved":false,"is_disabled":false,"rental_uris":{"android":"levelo://app?vid=f84db39b-1588-467c-a7d6-3417c55d68b1","ios":"levelo://app?vid=f84db39b-1588-467c-a7d6-3417c55d68b1"},"vehicle_type_id":"4","last_reported":1760173755,"current_range_meters":10800,"station_id":"","pricing_plan_id":"cebpf4jnsgd1na2vs0mg"},{"bike_id":"431c2e70-433d-4af0-acf4-957ec8670f40","system_id":"levelo_inurba_marseille","lat":43.2954,"lon":5.383068,"is_reserved":false,"is_disabled":false,"rental_uris":{"android":"levelo://app?vid=431c2e70-433d-4af0-acf4-957ec8670f40","ios":"levelo://app?vid=431c2e70-433d-4af0-acf4-957ec8670f40"},"vehicle_type_id":"4","last_reported":1760173755,"current_range_meters":10800,"station_id":"","pricing_plan_id":"cebpf4jnsgd1na2vs0mg"},{"bike_id":"abece7b6-3512-44ba-8901-262be4696c1e","system_id":"levelo_inurba_marseille","lat":43.292246,"lon":5.360661,"is_reserved":false,"is_disabled":false,"rental_uris":{"android":"levelo://app?vid=abece7b6-3512-44ba-8901-262be4696c1e","ios":"levelo://app?vid=abece7b6-3512-44ba-8901-262be4696c1e"},"vehicle_type_id":"4","last_reported":1760173755,"current_range_meters":10800,"station_id":"ce4bhbh2rcd13ifvqeqg","pricing_plan_id":"cebpf4jnsgd1na2vs0mg"},{"bike_id":"121f2d27-48c3-49b0-85f2-131aebe9d6cb","system_id":"levelo_inurba_marseille","lat":43.26214,"lon":5.37445,"is_reserved":false,"is_disabled":false,"rental_uris":{"android":"levelo://app?vid=121f2d27-48c3-49b0-85f2-131aebe9d6cb","ios":"levelo://app?vid=121f2d27-48c3-49b0-85f2-131aebe9d6cb"},"vehicle_type_id":"4","last_reported":1760173755,"current_range_meters":10800,"station_id":"ce4bhgp2rcd13ifvqfc0","pricing_plan_id":"cebpf4jnsgd1na2vs0mg"},{"bike_id":"9f9edaa2-34b7-4837-8925-898705819e49","system_id":"levelo_inurba_marseille","lat":43.323604,"lon":5.367607,"is_reserved":false,"is_disabled":false,"rental_uris":{"android":"levelo://app?vid=9f9edaa2-34b7-4837-8925-898705819e49","ios":"levelo://app?vid=9f9edaa2-34b7-4837-8925-898705819e49"},"vehicle_type_id":"4","last_reported":1760173755,"current_range_meters":10800,"station_id":"ce4bhsh2rcd13ifvqi2g","pricing_plan_id":"cebpf4jnsgd1na2vs0mg"},{"bike_id":"7346af06-666b-4b84-be15-69c7404f7ba0","system_id":"levelo_inurba_marseille","lat":43.21192,"lon":5.35069,"is_reserved":false,"is_disabled":false,"rental_uris":{"android":"levelo://app?vid=7346af06-666b-4b84-be15-69c7404f7ba0","ios":"levelo://app?vid=7346af06-666b-4b84-be15-69c7404f7ba0"},"vehicle_type_id":"4","last_reported":1760173755,"current_range_meters":10800,"station_id":"st_cvj6sg6p6f1abm77japg","pricing_plan_id":"cebpf4jnsgd1na2vs0mg"},{"bike_id":"f058d08f-6668-4239-ac87-ad43c9779c67","system_id":"levelo_inurba_marseille","lat":43.30041,"lon":5.37826,"is_reserved":false,"is_disabled":false,"rental_uris":{"android":"levelo://app?vid=f058d08f-6668-4239-ac87-ad43c9779c67","ios":"levelo://app?vid=f058d08f-6668-4239-ac87-ad43c9779c67"},"vehicle_type_id":"4","last_reported":1760173755,"current_range_meters":11200,"station_id":"","pricing_plan_id":"cebpf4jnsgd1na2vs0mg"},{"bike_id":"f19cf118-c296-4314-98d6-fa453397e7c6","system_id":"levelo_inurba_marseille","lat":43.28891,"lon":5.366365,"is_reserved":false,"is_disabled":false,"rental_uris":{"android":"levelo://app?vid=f19cf118-c296-4314-98d6-fa453397e7c6","ios":"levelo://app?vid=f19cf118-c296-4314-98d6-fa453397e7c6"},"vehicle_type_id":"4","last_reported":1760173755,"current_range_meters":11200,"station_id":"ce4bhap2rcd13ifvqek0","pricing_plan_id":"cebpf4jnsgd1na2vs0mg"},{"bike_id":"e3c4ea60-fc47-4ccd-8e6c-9b469c252929","system_id":"levelo_inurba_marseille","lat":43.29219,"lon":5.36059,"is_reserved":false,"is_disabled":false,"rental_uris":{"android":"levelo://app?vid=e3c4ea60-fc47-4ccd-8e6c-9b469c252929","ios":"levelo://app?vid=e3c4ea60-fc47-4ccd-8e6c-9b469c252929"},"vehicle_type_id":"4","last_reported":1760173755,"current_range_meters":11200,"station_id":"ce4bhbh2rcd13ifvqeqg","pricing_plan_id":"cebpf4jnsgd1na2vs0mg"},{"bike_id":"d0541185-1ae0-4b7a-85f0-f156ffc178f8","system_id":"levelo_inurba_marseille","lat":43.32024,"lon":5.41568,"is_reserved":false,"is_disabled":false,"rental_uris":{"android":"levelo://app?vid=d0541185-1ae0-4b7a-85f0-f156ffc178f8","ios":"levelo://app?vid=d0541185-1ae0-4b7a-85f0-f156ffc178f8"},"vehicle_type_id":"4","last_reported":1760173755,"current_range_meters":11200,"station_id":"ce4bhq92rcd13ifvqhkg","pricing_plan_id":"cebpf4jnsgd1na2vs0mg"},{"bike_id":"93cfcbeb-5d01-4d2a-95d6-78484c847614","system_id":"levelo_inurba_marseille","lat":43.29911,"lon":5.37466,"is_reserved":false,"is_disabled":false,"rental_uris":{"android":"levelo://app?vid=93cfcbeb-5d01-4d2a-95d6-78484c847614","ios":"levelo://app?vid=93cfcbeb-5d01-4d2a-95d6-78484c847614"},"vehicle_type_id":"4","last_reported":1760173755,"current_range_meters":11600,"station_id":"ce4bgjh2rcd13ifvqbg0","pricing_plan_id":"cebpf4jnsgd1na2vs0mg"},{"bike_id":"c0a39507-1fa2-458f-8a19-40b6a369a85f","system_id":"levelo_inurba_marseille","lat":43.253378,"lon":5.421638,"is_reserved":false,"is_disabled":false,"rental_uris":{"android":"levelo://app?vid=c0a39507-1fa2-458f-8a19-40b6a369a85f","ios":"levelo://app?vid=c0a39507-1fa2-458f-8a19-40b6a369a85f"},"vehicle_type_id":"4","last_reported":1760173755,"current_range_meters":11600,"station_id":"st_d2m65c5bi1j21697t3ng","pricing_plan_id":"cebpf4jnsgd1na2vs0mg"},{"bike_id":"96813688-5661-4934-995a-e31dcaab9616","system_id":"levelo_inurba_marseille","lat":43.266,"lon":5.3903,"is_reserved":false,"is_disabled":false,"rental_uris":{"android":"levelo://app?vid=96813688-5661-4934-995a-e31dcaab9616","ios":"levelo://app?vid=96813688-5661-4934-995a-e31dcaab9616"},"vehicle_type_id":"4","last_reported":1760173755,"current_range_meters":12000,"station_id":"","pricing_plan_id":"cebpf4jnsgd1na2vs0mg"},{"bike_id":"0c57efdb-eac8-4a42-bc9e-39fee2fae7b2","system_id":"levelo_inurba_marseille","lat":43.27182,"lon":5.3929,"is_reserved":false,"is_disabled":false,"rental_uris":{"android":"levelo://app?vid=0c57efdb-eac8-4a42-bc9e-39fee2fae7b2","ios":"levelo://app?vid=0c57efdb-eac8-4a42-bc9e-39fee2fae7b2"},"vehicle_type_id":"4","last_reported":1760173755,"current_range_meters":12000,"station_id":"","pricing_plan_id":"cebpf4jnsgd1na2vs0mg"},{"bike_id":"1b145eeb-7934-4a47-8c50-b866cbfdb171","system_id":"levelo_inurba_marseille","lat":43.239695,"lon":5.366255,"is_reserved":false,"is_disabled":false,"rental_uris":{"android":"levelo://app?vid=1b145eeb-7934-4a47-8c50-b866cbfdb171","ios":"levelo://app?vid=1b145eeb-7934-4a47-8c50-b866cbfdb171"},"vehicle_type_id":"4","last_reported":1760173755,"current_range_meters":12000,"station_id":"ce4bhi12rcd13ifvqfp0","pricing_plan_id":"cebpf4jnsgd1na2vs0mg"},{"bike_id":"68c0b6a3-a9d2-47a1-bccd-2b46e24f2696","system_id":"levelo_inurba_marseille","lat":43.22569,"lon":5.41631,"is_reserved":false,"is_disabled":false,"rental_uris":{"android":"levelo://app?vid=68c0b6a3-a9d2-47a1-bccd-2b46e24f2696","ios":"levelo://app?vid=68c0b6a3-a9d2-47a1-bccd-2b46e24f2696"},"vehicle_type_id":"4","last_reported":1760173755,"current_range_meters":12000,"station_id":"st_d2o4gvlbi1j2169b742g","pricing_plan_id":"cebpf4jnsgd1na2vs0mg"},{"bike_id":"80b5fdd6-8044-4280-9733-7a4992e6b8f6","system_id":"levelo_inurba_marseille","lat":43.292676,"lon":5.376168,"is_reserved":false,"is_disabled":false,"rental_uris":{"android":"levelo://app?vid=80b5fdd6-8044-4280-9733-7a4992e6b8f6","ios":"levelo://app?vid=80b5fdd6-8044-4280-9733-7a4992e6b8f6"},"vehicle_type_id":"4","last_reported":1760173755,"current_range_meters":12400,"station_id":"","pricing_plan_id":"cebpf4jnsgd1na2vs0mg"},{"bike_id":"7c36acd1-e7a6-4c1a-be22-0861ba24f67a","system_id":"levelo_inurba_marseille","lat":43.29522,"lon":5.37501,"is_reserved":false,"is_disabled":false,"rental_uris":{"android":"levelo://app?vid=7c36acd1-e7a6-4c1a-be22-0861ba24f67a","ios":"levelo://app?vid=7c36acd1-e7a6-4c1a-be22-0861ba24f67a"},"vehicle_type_id":"4","last_reported":1760173755,"current_range_meters":12400,"station_id":"ce4bgkp2rcd13ifvqbmg","pricing_plan_id":"cebpf4jnsgd1na2vs0mg"},{"bike_id":"ad75eb9e-fabf-42df-8d07-2158f358147e","system_id":"levelo_inurba_marseille","lat":43.3054,"lon":5.36534,"is_reserved":false,"is_disabled":false,"rental_uris":{"android":"levelo://app?vid=ad75eb9e-fabf-42df-8d07-2158f358147e","ios":"levelo://app?vid=ad75eb9e-fabf-42df-8d07-2158f358147e"},"vehicle_type_id":"4","last_reported":1760173755,"current_range_meters":12400,"station_id":"ce4bgs12rcd13ifvqcag","pricing_plan_id":"cebpf4jnsgd1na2vs0mg"},{"bike_id":"f84f0af7-720c-4219-b92e-f8fd78c3388b","system_id":"levelo_inurba_marseille","lat":43.24812,"lon":5.37461,"is_reserved":false,"is_disabled":false,"rental_uris":{"android":"levelo://app?vid=f84f0af7-720c-4219-b92e-f8fd78c3388b","ios":"levelo://app?vid=f84f0af7-720c-4219-b92e-f8fd78c3388b"},"vehicle_type_id":"4","last_reported":1760173755,"current_range_meters":12400,"station_id":"ce4bhgh2rcd13ifvqfb0","pricing_plan_id":"cebpf4jnsgd1na2vs0mg"},{"bike_id":"34cc3d59-4408-49a5-9150-7bf1ac5d787f","system_id":"levelo_inurba_marseille","lat":43.24672,"lon":5.3817,"is_reserved":false,"is_disabled":false,"rental_uris":{"android":"levelo://app?vid=34cc3d59-4408-49a5-9150-7bf1ac5d787f","ios":"levelo://app?vid=34cc3d59-4408-49a5-9150-7bf1ac5d787f"},"vehicle_type_id":"4","last_reported":1760173755,"current_range_meters":12400,"station_id":"ce4bhih2rcd13ifvqfr0","pricing_plan_id":"cebpf4jnsgd1na2vs0mg"},{"bike_id":"78515990-e130-442f-89ff-0a6fd150a9e5","system_id":"levelo_inurba_marseille","lat":43.30731,"lon":5.42435,"is_reserved":false,"is_disabled":false,"rental_uris":{"android":"levelo://app?vid=78515990-e130-442f-89ff-0a6fd150a9e5","ios":"levelo://app?vid=78515990-e130-442f-89ff-0a6fd150a9e5"},"vehicle_type_id":"4","last_reported":1760173755,"current_range_meters":12400,"station_id":"st_cvj6ca6bvosntc0bfgr0","pricing_plan_id":"cebpf4jnsgd1na2vs0mg"},{"bike_id":"9b488569-e6ac-45cf-b28a-5434ed2145ec","system_id":"levelo_inurba_marseille","lat":43.295304,"lon":5.385356,"is_reserved":false,"is_disabled":false,"rental_uris":{"android":"levelo://app?vid=9b488569-e6ac-45cf-b28a-5434ed2145ec","ios":"levelo://app?vid=9b488569-e6ac-45cf-b28a-5434ed2145ec"},"vehicle_type_id":"4","last_reported":1760173755,"current_range_meters":12800,"station_id":"ce4bgih2rcd13ifvqba0","pricing_plan_id":"cebpf4jnsgd1na2vs0mg"},{"bike_id":"74ffdc5a-2864-4636-9649-2ded3342d5ec","system_id":"levelo_inurba_marseille","lat":43.28423,"lon":5.34986,"is_reserved":false,"is_disabled":false,"rental_uris":{"android":"levelo://app?vid=74ffdc5a-2864-4636-9649-2ded3342d5ec","ios":"levelo://app?vid=74ffdc5a-2864-4636-9649-2ded3342d5ec"},"vehicle_type_id":"4","last_reported":1760173755,"current_range_meters":12800,"station_id":"ce4bhbh2rcd13ifvqepg","pricing_plan_id":"cebpf4jnsgd1na2vs0mg"},{"bike_id":"1365a57c-fb08-4fbf-9924-0a16981bf9f5","system_id":"levelo_inurba_marseille","lat":43.272174,"lon":5.391697,"is_reserved":false,"is_disabled":false,"rental_uris":{"android":"levelo://app?vid=1365a57c-fb08-4fbf-9924-0a16981bf9f5","ios":"levelo://app?vid=1365a57c-fb08-4fbf-9924-0a16981bf9f5"},"vehicle_type_id":"4","last_reported":1760173755,"current_range_meters":12800,"station_id":"ce4bhhp2rcd13ifvqfm0","pricing_plan_id":"cebpf4jnsgd1na2vs0mg"},{"bike_id":"ea868bbe-d842-4598-a21a-c803746ce7ee","system_id":"levelo_inurba_marseille","lat":43.211969,"lon":5.350756,"is_reserved":false,"is_disabled":false,"rental_uris":{"android":"levelo://app?vid=ea868bbe-d842-4598-a21a-c803746ce7ee","ios":"levelo://app?vid=ea868bbe-d842-4598-a21a-c803746ce7ee"},"vehicle_type_id":"4","last_reported":1760173755,"current_range_meters":12800,"station_id":"st_cvj6sg6p6f1abm77japg","pricing_plan_id":"cebpf4jnsgd1na2vs0mg"},{"bike_id":"80438aa8-b948-47ca-a4c6-d569534c37de","system_id":"levelo_inurba_marseille","lat":43.25511,"lon":5.37658,"is_reserved":false,"is_disabled":false,"rental_uris":{"android":"levelo://app?vid=80438aa8-b948-47ca-a4c6-d569534c37de","ios":"levelo://app?vid=80438aa8-b948-47ca-a4c6-d569534c37de"},"vehicle_type_id":"4","last_reported":1760173755,"current_range_meters":13600,"station_id":"ce4bhh12rcd13ifvqff0","pricing_plan_id":"cebpf4jnsgd1na2vs0mg"},{"bike_id":"b9db156b-7e1d-4230-a1a4-a0c984b3943b","system_id":"levelo_inurba_marseille","lat":43.26779,"lon":5.39421,"is_reserved":false,"is_disabled":false,"rental_uris":{"android":"levelo://app?vid=b9db156b-7e1d-4230-a1a4-a0c984b3943b","ios":"levelo://app?vid=b9db156b-7e1d-4230-a1a4-a0c984b3943b"},"vehicle_type_id":"4","last_reported":1760173755,"current_range_meters":13600,"station_id":"ce4bhh12rcd13ifvqfg0","pricing_plan_id":"cebpf4jnsgd1na2vs0mg"},{"bike_id":"bcb1ff71-2dac-47c1-b0ee-00a14865620e","system_id":"levelo_inurba_marseille","lat":43.25088,"lon":5.395156,"is_reserved":false,"is_disabled":false,"rental_uris":{"android":"levelo://app?vid=bcb1ff71-2dac-47c1-b0ee-00a14865620e","ios":"levelo://app?vid=bcb1ff71-2dac-47c1-b0ee-00a14865620e"},"vehicle_type_id":"4","last_reported":1760173755,"current_range_meters":13600,"station_id":"ce4bhm12rcd13ifvqgkg","pricing_plan_id":"cebpf4jnsgd1na2vs0mg"},{"bike_id":"4414e4ab-cb74-4e96-a343-27c825d0ec77","system_id":"levelo_inurba_marseille","lat":43.31493,"lon":5.37301,"is_reserved":false,"is_disabled":false,"rental_uris":{"android":"levelo://app?vid=4414e4ab-cb74-4e96-a343-27c825d0ec77","ios":"levelo://app?vid=4414e4ab-cb74-4e96-a343-27c825d0ec77"},"vehicle_type_id":"4","last_reported":1760173755,"current_range_meters":14000,"station_id":"ce4bgt12rcd13ifvqcd0","pricing_plan_id":"cebpf4jnsgd1na2vs0mg"},{"bike_id":"e303ee8e-3053-445f-b5b0-76a3c45c2044","system_id":"levelo_inurba_marseille","lat":43.2693,"lon":5.3891,"is_reserved":false,"is_disabled":false,"rental_uris":{"android":"levelo://app?vid=e303ee8e-3053-445f-b5b0-76a3c45c2044","ios":"levelo://app?vid=e303ee8e-3053-445f-b5b0-76a3c45c2044"},"vehicle_type_id":"4","last_reported":1760173755,"current_range_meters":14000,"station_id":"ce4bhhh2rcd13ifvqfl0","pricing_plan_id":"cebpf4jnsgd1na2vs0mg"},{"bike_id":"9200440f-43aa-4f47-a74f-3c8bad9bb0b7","system_id":"levelo_inurba_marseille","lat":43.30951,"lon":5.39027,"is_reserved":false,"is_disabled":false,"rental_uris":{"android":"levelo://app?vid=9200440f-43aa-4f47-a74f-3c8bad9bb0b7","ios":"levelo://app?vid=9200440f-43aa-4f47-a74f-3c8bad9bb0b7"},"vehicle_type_id":"4","last_reported":1760173755,"current_range_meters":14400,"station_id":"ce4bgup2rcd13ifvqco0","pricing_plan_id":"cebpf4jnsgd1na2vs0mg"},{"bike_id":"a7b203bd-3b17-4969-9170-91c45e8ecbbb","system_id":"levelo_inurba_marseille","lat":43.28735,"lon":5.39988,"is_reserved":false,"is_disabled":false,"rental_uris":{"android":"levelo://app?vid=a7b203bd-3b17-4969-9170-91c45e8ecbbb","ios":"levelo://app?vid=a7b203bd-3b17-4969-9170-91c45e8ecbbb"},"vehicle_type_id":"4","last_reported":1760173755,"current_range_meters":14400,"station_id":"ce4bho92rcd13ifvqh3g","pricing_plan_id":"cebpf4jnsgd1na2vs0mg"},{"bike_id":"96189567-9f56-4467-99e1-85c33efa20b5","system_id":"levelo_inurba_marseille","lat":43.22573,"lon":5.41658,"is_reserved":false,"is_disabled":false,"rental_uris":{"android":"levelo://app?vid=96189567-9f56-4467-99e1-85c33efa20b5","ios":"levelo://app?vid=96189567-9f56-4467-99e1-85c33efa20b5"},"vehicle_type_id":"4","last_reported":1760173755,"current_range_meters":14400,"station_id":"st_d2o4gvlbi1j2169b742g","pricing_plan_id":"cebpf4jnsgd1na2vs0mg"},{"bike_id":"a549e55b-0307-474d-aefd-c4adca2a33f4","system_id":"levelo_inurba_marseille","lat":43.292145,"lon":5.359786,"is_reserved":false,"is_disabled":false,"rental_uris":{"android":"levelo://app?vid=a549e55b-0307-474d-aefd-c4adca2a33f4","ios":"levelo://app?vid=a549e55b-0307-474d-aefd-c4adca2a33f4"},"vehicle_type_id":"4","last_reported":1760173755,"current_range_meters":14800,"station_id":"ce4bhbh2rcd13ifvqeqg","pricing_plan_id":"cebpf4jnsgd1na2vs0mg"},{"bike_id":"5b7b7f64-19dd-4841-85a2-4c1d87dda20a","system_id":"levelo_inurba_marseille","lat":43.32881,"lon":5.4102,"is_reserved":false,"is_disabled":false,"rental_uris":{"android":"levelo://app?vid=5b7b7f64-19dd-4841-85a2-4c1d87dda20a","ios":"levelo://app?vid=5b7b7f64-19dd-4841-85a2-4c1d87dda20a"},"vehicle_type_id":"4","last_reported":1760173755,"current_range_meters":15200,"station_id":"","pricing_plan_id":"cebpf4jnsgd1na2vs0mg"},{"bike_id":"f0b1c221-25d9-45c1-99a8-2bf525680e9a","system_id":"levelo_inurba_marseille","lat":43.27372,"lon":5.36266,"is_reserved":false,"is_disabled":false,"rental_uris":{"android":"levelo://app?vid=f0b1c221-25d9-45c1-99a8-2bf525680e9a","ios":"levelo://app?vid=f0b1c221-25d9-45c1-99a8-2bf525680e9a"},"vehicle_type_id":"4","last_reported":1760173755,"current_range_meters":15200,"station_id":"ce4bhbh2rcd13ifvqeo0","pricing_plan_id":"cebpf4jnsgd1na2vs0mg"},{"bike_id":"9a3f78ca-b0c6-4f72-8a79-592b18fbedf7","system_id":"levelo_inurba_marseille","lat":43.2407,"lon":5.37766,"is_reserved":false,"is_disabled":false,"rental_uris":{"android":"levelo://app?vid=9a3f78ca-b0c6-4f72-8a79-592b18fbedf7","ios":"levelo://app?vid=9a3f78ca-b0c6-4f72-8a79-592b18fbedf7"},"vehicle_type_id":"4","last_reported":1760173755,"current_range_meters":15200,"station_id":"ce4bhnp2rcd13ifvqgvg","pricing_plan_id":"cebpf4jnsgd1na2vs0mg"},{"bike_id":"1274341e-f484-48bd-95e5-e905ccbea7d0","system_id":"levelo_inurba_marseille","lat":43.279924,"lon":5.416633,"is_reserved":false,"is_disabled":false,"rental_uris":{"android":"levelo://app?vid=1274341e-f484-48bd-95e5-e905ccbea7d0","ios":"levelo://app?vid=1274341e-f484-48bd-95e5-e905ccbea7d0"},"vehicle_type_id":"4","last_reported":1760173755,"current_range_meters":15200,"station_id":"ce4bho12rcd13ifvqh1g","pricing_plan_id":"cebpf4jnsgd1na2vs0mg"},{"bike_id":"562bbd76-53e8-4952-b5e4-fca8e70242cb","system_id":"levelo_inurba_marseille","lat":43.308058,"lon":5.435203,"is_reserved":false,"is_disabled":false,"rental_uris":{"android":"levelo://app?vid=562bbd76-53e8-4952-b5e4-fca8e70242cb","ios":"levelo://app?vid=562bbd76-53e8-4952-b5e4-fca8e70242cb"},"vehicle_type_id":"4","last_reported":1760173755,"current_range_meters":15200,"station_id":"ce4bhph2rcd13ifvqheg","pricing_plan_id":"cebpf4jnsgd1na2vs0mg"},{"bike_id":"3e8256bc-276f-4192-b541-e0005cde0618","system_id":"levelo_inurba_marseille","lat":43.23059,"lon":5.35493,"is_reserved":false,"is_disabled":false,"rental_uris":{"android":"levelo://app?vid=3e8256bc-276f-4192-b541-e0005cde0618","ios":"levelo://app?vid=3e8256bc-276f-4192-b541-e0005cde0618"},"vehicle_type_id":"4","last_reported":1760173755,"current_range_meters":15200,"station_id":"cpo3342slgdg3j2ifvpg","pricing_plan_id":"cebpf4jnsgd1na2vs0mg"},{"bike_id":"eb6eacbd-f0fc-4b7f-8ffb-8a556b5b91dc","system_id":"levelo_inurba_marseille","lat":43.24948,"lon":5.40493,"is_reserved":false,"is_disabled":false,"rental_uris":{"android":"levelo://app?vid=eb6eacbd-f0fc-4b7f-8ffb-8a556b5b91dc","ios":"levelo://app?vid=eb6eacbd-f0fc-4b7f-8ffb-8a556b5b91dc"},"vehicle_type_id":"4","last_reported":1760173755,"current_range_meters":15200,"station_id":"st_d2ngiaodas8pm72gd1h0","pricing_plan_id":"cebpf4jnsgd1na2vs0mg"},{"bike_id":"187cf0d8-0607-43fc-8eaa-6af12fda0dee","system_id":"levelo_inurba_marseille","lat":43.22428,"lon":5.34657,"is_reserved":false,"is_disabled":false,"rental_uris":{"android":"levelo://app?vid=187cf0d8-0607-43fc-8eaa-6af12fda0dee","ios":"levelo://app?vid=187cf0d8-0607-43fc-8eaa-6af12fda0dee"},"vehicle_type_id":"4","last_reported":1760173755,"current_range_meters":16000,"station_id":"","pricing_plan_id":"cebpf4jnsgd1na2vs0mg"},{"bike_id":"36852a13-f383-442f-9a01-f153febeeef2","system_id":"levelo_inurba_marseille","lat":43.30202,"lon":5.36894,"is_reserved":false,"is_disabled":false,"rental_uris":{"android":"levelo://app?vid=36852a13-f383-442f-9a01-f153febeeef2","ios":"levelo://app?vid=36852a13-f383-442f-9a01-f153febeeef2"},"vehicle_type_id":"4","last_reported":1760173755,"current_range_meters":16000,"station_id":"","pricing_plan_id":"cebpf4jnsgd1na2vs0mg"},{"bike_id":"cc27ce11-3a3a-4ca8-a4ee-744f712315bb","system_id":"levelo_inurba_marseille","lat":43.31486,"lon":5.37304,"is_reserved":false,"is_disabled":false,"rental_uris":{"android":"levelo://app?vid=cc27ce11-3a3a-4ca8-a4ee-744f712315bb","ios":"levelo://app?vid=cc27ce11-3a3a-4ca8-a4ee-744f712315bb"},"vehicle_type_id":"4","last_reported":1760173755,"current_range_meters":16000,"station_id":"ce4bgt12rcd13ifvqcd0","pricing_plan_id":"cebpf4jnsgd1na2vs0mg"},{"bike_id":"47e27496-b6ba-4df0-a58d-db35a2463025","system_id":"levelo_inurba_marseille","lat":43.26803,"lon":5.39441,"is_reserved":false,"is_disabled":false,"rental_uris":{"android":"levelo://app?vid=47e27496-b6ba-4df0-a58d-db35a2463025","ios":"levelo://app?vid=47e27496-b6ba-4df0-a58d-db35a2463025"},"vehicle_type_id":"4","last_reported":1760173755,"current_range_meters":16000,"station_id":"ce4bhh12rcd13ifvqfg0","pricing_plan_id":"cebpf4jnsgd1na2vs0mg"},{"bike_id":"bcda893d-2685-4b2a-903a-e735eca47a80","system_id":"levelo_inurba_marseille","lat":43.3314,"lon":5.35449,"is_reserved":false,"is_disabled":false,"rental_uris":{"android":"levelo://app?vid=bcda893d-2685-4b2a-903a-e735eca47a80","ios":"levelo://app?vid=bcda893d-2685-4b2a-903a-e735eca47a80"},"vehicle_type_id":"4","last_reported":1760173755,"current_range_meters":16400,"station_id":"","pricing_plan_id":"cebpf4jnsgd1na2vs0mg"},{"bike_id":"f643732a-737c-4023-9ce1-91073dd626a3","system_id":"levelo_inurba_marseille","lat":43.31598,"lon":5.38135,"is_reserved":false,"is_disabled":false,"rental_uris":{"android":"levelo://app?vid=f643732a-737c-4023-9ce1-91073dd626a3","ios":"levelo://app?vid=f643732a-737c-4023-9ce1-91073dd626a3"},"vehicle_type_id":"4","last_reported":1760173755,"current_range_meters":16400,"station_id":"","pricing_plan_id":"cebpf4jnsgd1na2vs0mg"},{"bike_id":"ac126244-2e00-4589-a00e-b9ffa772eb22","system_id":"levelo_inurba_marseille","lat":43.31159,"lon":5.3973,"is_reserved":false,"is_disabled":false,"rental_uris":{"android":"levelo://app?vid=ac126244-2e00-4589-a00e-b9ffa772eb22","ios":"levelo://app?vid=ac126244-2e00-4589-a00e-b9ffa772eb22"},"vehicle_type_id":"4","last_reported":1760173755,"current_range_meters":16400,"station_id":"","pricing_plan_id":"cebpf4jnsgd1na2vs0mg"},{"bike_id":"b78fc6de-8c66-40b1-bc7e-1794eacc6804","system_id":"levelo_inurba_marseille","lat":43.28138,"lon":5.35024,"is_reserved":false,"is_disabled":false,"rental_uris":{"android":"levelo://app?vid=b78fc6de-8c66-40b1-bc7e-1794eacc6804","ios":"levelo://app?vid=b78fc6de-8c66-40b1-bc7e-1794eacc6804"},"vehicle_type_id":"4","last_reported":1760173755,"current_range_meters":16400,"station_id":"","pricing_plan_id":"cebpf4jnsgd1na2vs0mg"},{"bike_id":"bc88cb63-5b3a-4a06-882f-173d6d38a217","system_id":"levelo_inurba_marseille","lat":43.305516,"lon":5.367039,"is_reserved":false,"is_disabled":false,"rental_uris":{"android":"levelo://app?vid=bc88cb63-5b3a-4a06-882f-173d6d38a217","ios":"levelo://app?vid=bc88cb63-5b3a-4a06-882f-173d6d38a217"},"vehicle_type_id":"4","last_reported":1760173755,"current_range_meters":16400,"station_id":"ce4bgrp2rcd13ifvqc9g","pricing_plan_id":"cebpf4jnsgd1na2vs0mg"},{"bike_id":"45e18cef-73e0-4e26-b864-fae8103cebea","system_id":"levelo_inurba_marseille","lat":43.28482,"lon":5.38425,"is_reserved":false,"is_disabled":false,"rental_uris":{"android":"levelo://app?vid=45e18cef-73e0-4e26-b864-fae8103cebea","ios":"levelo://app?vid=45e18cef-73e0-4e26-b864-fae8103cebea"},"vehicle_type_id":"4","last_reported":1760173755,"current_range_meters":16400,"station_id":"ce4bh512rcd13ifvqe3g","pricing_plan_id":"cebpf4jnsgd1na2vs0mg"},{"bike_id":"60cafd66-2df6-4806-9a58-f6839f09019a","system_id":"levelo_inurba_marseille","lat":43.27809,"lon":5.40726,"is_reserved":false,"is_disabled":false,"rental_uris":{"android":"levelo://app?vid=60cafd66-2df6-4806-9a58-f6839f09019a","ios":"levelo://app?vid=60cafd66-2df6-4806-9a58-f6839f09019a"},"vehicle_type_id":"4","last_reported":1760173755,"current_range_meters":16400,"station_id":"ce4bhnh2rcd13ifvqgtg","pricing_plan_id":"cebpf4jnsgd1na2vs0mg"},{"bike_id":"123765e0-7e7e-4436-a63b-18dd8d35a505","system_id":"levelo_inurba_marseille","lat":43.27944,"lon":5.41047,"is_reserved":false,"is_disabled":false,"rental_uris":{"android":"levelo://app?vid=123765e0-7e7e-4436-a63b-18dd8d35a505","ios":"levelo://app?vid=123765e0-7e7e-4436-a63b-18dd8d35a505"},"vehicle_type_id":"4","last_reported":1760173755,"current_range_meters":16400,"station_id":"ce4bhnp2rcd13ifvqh0g","pricing_plan_id":"cebpf4jnsgd1na2vs0mg"},{"bike_id":"2d47de9e-e33d-477c-8917-7d91ac05947a","system_id":"levelo_inurba_marseille","lat":43.29711,"lon":5.39824,"is_reserved":false,"is_disabled":false,"rental_uris":{"android":"levelo://app?vid=2d47de9e-e33d-477c-8917-7d91ac05947a","ios":"levelo://app?vid=2d47de9e-e33d-477c-8917-7d91ac05947a"},"vehicle_type_id":"4","last_reported":1760173755,"current_range_meters":16800,"station_id":"","pricing_plan_id":"cebpf4jnsgd1na2vs0mg"},{"bike_id":"73fa51c5-8614-48a1-a69c-705542c27ea4","system_id":"levelo_inurba_marseille","lat":43.337444,"lon":5.374475,"is_reserved":false,"is_disabled":false,"rental_uris":{"android":"levelo://app?vid=73fa51c5-8614-48a1-a69c-705542c27ea4","ios":"levelo://app?vid=73fa51c5-8614-48a1-a69c-705542c27ea4"},"vehicle_type_id":"4","last_reported":1760173755,"current_range_meters":16800,"station_id":"","pricing_plan_id":"cebpf4jnsgd1na2vs0mg"},{"bike_id":"7edf1593-3c8f-484b-9d79-e2711c580c70","system_id":"levelo_inurba_marseille","lat":43.30141,"lon":5.3808,"is_reserved":false,"is_disabled":false,"rental_uris":{"android":"levelo://app?vid=7edf1593-3c8f-484b-9d79-e2711c580c70","ios":"levelo://app?vid=7edf1593-3c8f-484b-9d79-e2711c580c70"},"vehicle_type_id":"4","last_reported":1760173755,"current_range_meters":16800,"station_id":"ce4bgjp2rcd13ifvqbh0","pricing_plan_id":"cebpf4jnsgd1na2vs0mg"},{"bike_id":"2e0430aa-b679-4b5b-b4fa-503e90a61f70","system_id":"levelo_inurba_marseille","lat":43.2885,"lon":5.3584,"is_reserved":false,"is_disabled":false,"rental_uris":{"android":"levelo://app?vid=2e0430aa-b679-4b5b-b4fa-503e90a61f70","ios":"levelo://app?vid=2e0430aa-b679-4b5b-b4fa-503e90a61f70"},"vehicle_type_id":"4","last_reported":1760173755,"current_range_meters":16800,"station_id":"ce4bhb12rcd13ifvqem0","pricing_plan_id":"cebpf4jnsgd1na2vs0mg"},{"bike_id":"6ed2574f-caa1-4c54-97ee-d905951a0984","system_id":"levelo_inurba_marseille","lat":43.25498,"lon":5.37648,"is_reserved":false,"is_disabled":false,"rental_uris":{"android":"levelo://app?vid=6ed2574f-caa1-4c54-97ee-d905951a0984","ios":"levelo://app?vid=6ed2574f-caa1-4c54-97ee-d905951a0984"},"vehicle_type_id":"4","last_reported":1760173755,"current_range_meters":16800,"station_id":"ce4bhh12rcd13ifvqff0","pricing_plan_id":"cebpf4jnsgd1na2vs0mg"},{"bike_id":"fb2687e4-94c4-467c-ae46-7aff31970215","system_id":"levelo_inurba_marseille","lat":43.25105,"lon":5.39509,"is_reserved":false,"is_disabled":false,"rental_uris":{"android":"levelo://app?vid=fb2687e4-94c4-467c-ae46-7aff31970215","ios":"levelo://app?vid=fb2687e4-94c4-467c-ae46-7aff31970215"},"vehicle_type_id":"4","last_reported":1760173755,"current_range_meters":16800,"station_id":"ce4bhm12rcd13ifvqgkg","pricing_plan_id":"cebpf4jnsgd1na2vs0mg"},{"bike_id":"55f4cdcb-1047-4437-9fef-20cf92f26676","system_id":"levelo_inurba_marseille","lat":43.23184,"lon":5.3999,"is_reserved":false,"is_disabled":false,"rental_uris":{"android":"levelo://app?vid=55f4cdcb-1047-4437-9fef-20cf92f26676","ios":"levelo://app?vid=55f4cdcb-1047-4437-9fef-20cf92f26676"},"vehicle_type_id":"4","last_reported":1760173755,"current_range_meters":16800,"station_id":"ce4bhn12rcd13ifvqgqg","pricing_plan_id":"cebpf4jnsgd1na2vs0mg"},{"bike_id":"036ee69c-aec3-40e7-89aa-d47bdab5f713","system_id":"levelo_inurba_marseille","lat":43.309443,"lon":5.390386,"is_reserved":false,"is_disabled":false,"rental_uris":{"android":"levelo://app?vid=036ee69c-aec3-40e7-89aa-d47bdab5f713","ios":"levelo://app?vid=036ee69c-aec3-40e7-89aa-d47bdab5f713"},"vehicle_type_id":"4","last_reported":1760173755,"current_range_meters":17200,"station_id":"ce4bgup2rcd13ifvqco0","pricing_plan_id":"cebpf4jnsgd1na2vs0mg"},{"bike_id":"f62a6a05-854f-407c-b832-11f5efdce794","system_id":"levelo_inurba_marseille","lat":43.262099,"lon":5.374384,"is_reserved":false,"is_disabled":false,"rental_uris":{"android":"levelo://app?vid=f62a6a05-854f-407c-b832-11f5efdce794","ios":"levelo://app?vid=f62a6a05-854f-407c-b832-11f5efdce794"},"vehicle_type_id":"4","last_reported":1760173755,"current_range_meters":17200,"station_id":"ce4bhgp2rcd13ifvqfc0","pricing_plan_id":"cebpf4jnsgd1na2vs0mg"},{"bike_id":"7f8ff4f8-5eed-48a7-afab-16275a864bce","system_id":"levelo_inurba_marseille","lat":43.27671,"lon":5.38892,"is_reserved":false,"is_disabled":false,"rental_uris":{"android":"levelo://app?vid=7f8ff4f8-5eed-48a7-afab-16275a864bce","ios":"levelo://app?vid=7f8ff4f8-5eed-48a7-afab-16275a864bce"},"vehicle_type_id":"4","last_reported":1760173755,"current_range_meters":17200,"station_id":"ce4bhi12rcd13ifvqfo0","pricing_plan_id":"cebpf4jnsgd1na2vs0mg"},{"bike_id":"924a7785-7fc8-4a66-a456-241403b687d4","system_id":"levelo_inurba_marseille","lat":43.32661,"lon":5.40991,"is_reserved":false,"is_disabled":false,"rental_uris":{"android":"levelo://app?vid=924a7785-7fc8-4a66-a456-241403b687d4","ios":"levelo://app?vid=924a7785-7fc8-4a66-a456-241403b687d4"},"vehicle_type_id":"4","last_reported":1760173755,"current_range_meters":17200,"station_id":"ce4bhpp2rcd13ifvqhgg","pricing_plan_id":"cebpf4jnsgd1na2vs0mg"},{"bike_id":"90a7399f-67eb-4ed6-8265-2126a88abadc","system_id":"levelo_inurba_marseille","lat":43.22563,"lon":5.41629,"is_reserved":false,"is_disabled":false,"rental_uris":{"android":"levelo://app?vid=90a7399f-67eb-4ed6-8265-2126a88abadc","ios":"levelo://app?vid=90a7399f-67eb-4ed6-8265-2126a88abadc"},"vehicle_type_id":"4","last_reported":1760173755,"current_range_meters":17200,"station_id":"st_d2o4gvlbi1j2169b742g","pricing_plan_id":"cebpf4jnsgd1na2vs0mg"},{"bike_id":"d1f450a6-5dea-4515-bf0c-99745a442e6f","system_id":"levelo_inurba_marseille","lat":43.30947,"lon":5.39046,"is_reserved":false,"is_disabled":false,"rental_uris":{"android":"levelo://app?vid=d1f450a6-5dea-4515-bf0c-99745a442e6f","ios":"levelo://app?vid=d1f450a6-5dea-4515-bf0c-99745a442e6f"},"vehicle_type_id":"4","last_reported":1760173755,"current_range_meters":17600,"station_id":"ce4bgup2rcd13ifvqco0","pricing_plan_id":"cebpf4jnsgd1na2vs0mg"},{"bike_id":"602e9ecd-ad82-4d45-89be-929c911d3eb3","system_id":"levelo_inurba_marseille","lat":43.265056,"lon":5.395473,"is_reserved":false,"is_disabled":false,"rental_uris":{"android":"levelo://app?vid=602e9ecd-ad82-4d45-89be-929c911d3eb3","ios":"levelo://app?vid=602e9ecd-ad82-4d45-89be-929c911d3eb3"},"vehicle_type_id":"4","last_reported":1760173755,"current_range_meters":17600,"station_id":"ce4bhi12rcd13ifvqfq0","pricing_plan_id":"cebpf4jnsgd1na2vs0mg"},{"bike_id":"59762692-066d-4df6-a95c-fbe2d86a6950","system_id":"levelo_inurba_marseille","lat":43.231796,"lon":5.399874,"is_reserved":false,"is_disabled":false,"rental_uris":{"android":"levelo://app?vid=59762692-066d-4df6-a95c-fbe2d86a6950","ios":"levelo://app?vid=59762692-066d-4df6-a95c-fbe2d86a6950"},"vehicle_type_id":"4","last_reported":1760173755,"current_range_meters":17600,"station_id":"ce4bhn12rcd13ifvqgqg","pricing_plan_id":"cebpf4jnsgd1na2vs0mg"},{"bike_id":"63438911-9e20-4de0-8959-5d119ced76c6","system_id":"levelo_inurba_marseille","lat":43.280798,"lon":5.396602,"is_reserved":false,"is_disabled":false,"rental_uris":{"android":"levelo://app?vid=63438911-9e20-4de0-8959-5d119ced76c6","ios":"levelo://app?vid=63438911-9e20-4de0-8959-5d119ced76c6"},"vehicle_type_id":"4","last_reported":1760173755,"current_range_meters":17600,"station_id":"ce4bho12rcd13ifvqh2g","pricing_plan_id":"cebpf4jnsgd1na2vs0mg"},{"bike_id":"ae2a7956-a773-4074-b9b8-4d3bf601a9ba","system_id":"levelo_inurba_marseille","lat":43.31168,"lon":5.39343,"is_reserved":false,"is_disabled":false,"rental_uris":{"android":"levelo://app?vid=ae2a7956-a773-4074-b9b8-4d3bf601a9ba","ios":"levelo://app?vid=ae2a7956-a773-4074-b9b8-4d3bf601a9ba"},"vehicle_type_id":"4","last_reported":1760173755,"current_range_meters":18000,"station_id":"","pricing_plan_id":"cebpf4jnsgd1na2vs0mg"},{"bike_id":"0f86103e-7047-48b4-8d09-c473d775d46e","system_id":"levelo_inurba_marseille","lat":43.28187,"lon":5.42689,"is_reserved":false,"is_disabled":false,"rental_uris":{"android":"levelo://app?vid=0f86103e-7047-48b4-8d09-c473d775d46e","ios":"levelo://app?vid=0f86103e-7047-48b4-8d09-c473d775d46e"},"vehicle_type_id":"4","last_reported":1760173755,"current_range_meters":18000,"station_id":"","pricing_plan_id":"cebpf4jnsgd1na2vs0mg"},{"bike_id":"fef6626f-e75f-4a82-b969-2048423ceb54","system_id":"levelo_inurba_marseille","lat":43.30165,"lon":5.38103,"is_reserved":false,"is_disabled":false,"rental_uris":{"android":"levelo://app?vid=fef6626f-e75f-4a82-b969-2048423ceb54","ios":"levelo://app?vid=fef6626f-e75f-4a82-b969-2048423ceb54"},"vehicle_type_id":"4","last_reported":1760173755,"current_range_meters":18000,"station_id":"ce4bgjp2rcd13ifvqbh0","pricing_plan_id":"cebpf4jnsgd1na2vs0mg"},{"bike_id":"4dd08bc7-3257-460c-bb89-edc9b57dc12a","system_id":"levelo_inurba_marseille","lat":43.2317,"lon":5.39988,"is_reserved":false,"is_disabled":false,"rental_uris":{"android":"levelo://app?vid=4dd08bc7-3257-460c-bb89-edc9b57dc12a","ios":"levelo://app?vid=4dd08bc7-3257-460c-bb89-edc9b57dc12a"},"vehicle_type_id":"4","last_reported":1760173755,"current_range_meters":18000,"station_id":"ce4bhn12rcd13ifvqgqg","pricing_plan_id":"cebpf4jnsgd1na2vs0mg"},{"bike_id":"d97f53a4-3245-4a32-8e1a-3e22bd7b308a","system_id":"levelo_inurba_marseille","lat":43.23179,"lon":5.39984,"is_reserved":false,"is_disabled":false,"rental_uris":{"android":"levelo://app?vid=d97f53a4-3245-4a32-8e1a-3e22bd7b308a","ios":"levelo://app?vid=d97f53a4-3245-4a32-8e1a-3e22bd7b308a"},"vehicle_type_id":"4","last_reported":1760173755,"current_range_meters":18800,"station_id":"","pricing_plan_id":"cebpf4jnsgd1na2vs0mg"},{"bike_id":"03009df8-7b3a-4e89-b285-b9f236cd3d74","system_id":"levelo_inurba_marseille","lat":43.31375,"lon":5.36764,"is_reserved":false,"is_disabled":false,"rental_uris":{"android":"levelo://app?vid=03009df8-7b3a-4e89-b285-b9f236cd3d74","ios":"levelo://app?vid=03009df8-7b3a-4e89-b285-b9f236cd3d74"},"vehicle_type_id":"4","last_reported":1760173755,"current_range_meters":18800,"station_id":"","pricing_plan_id":"cebpf4jnsgd1na2vs0mg"},{"bike_id":"b10d96bd-cfc0-4f48-ab6e-c4c72ef0cbc3","system_id":"levelo_inurba_marseille","lat":43.297444,"lon":5.370803,"is_reserved":false,"is_disabled":false,"rental_uris":{"android":"levelo://app?vid=b10d96bd-cfc0-4f48-ab6e-c4c72ef0cbc3","ios":"levelo://app?vid=b10d96bd-cfc0-4f48-ab6e-c4c72ef0cbc3"},"vehicle_type_id":"4","last_reported":1760173755,"current_range_meters":18800,"station_id":"ce4bgop2rcd13ifvqc1g","pricing_plan_id":"cebpf4jnsgd1na2vs0mg"},{"bike_id":"c9114c5c-6b12-47ee-af69-a5595620ae2f","system_id":"levelo_inurba_marseille","lat":43.28266,"lon":5.35067,"is_reserved":false,"is_disabled":false,"rental_uris":{"android":"levelo://app?vid=c9114c5c-6b12-47ee-af69-a5595620ae2f","ios":"levelo://app?vid=c9114c5c-6b12-47ee-af69-a5595620ae2f"},"vehicle_type_id":"4","last_reported":1760173755,"current_range_meters":18800,"station_id":"ce4bhbp2rcd13ifvqerg","pricing_plan_id":"cebpf4jnsgd1na2vs0mg"},{"bike_id":"7623a8e4-1214-4d44-ab03-05342b2232b2","system_id":"levelo_inurba_marseille","lat":43.28261,"lon":5.35062,"is_reserved":false,"is_disabled":false,"rental_uris":{"android":"levelo://app?vid=7623a8e4-1214-4d44-ab03-05342b2232b2","ios":"levelo://app?vid=7623a8e4-1214-4d44-ab03-05342b2232b2"},"vehicle_type_id":"4","last_reported":1760173755,"current_range_meters":18800,"station_id":"ce4bhbp2rcd13ifvqerg","pricing_plan_id":"cebpf4jnsgd1na2vs0mg"},{"bike_id":"87a2afbe-65eb-4f71-b21e-40efbb59899e","system_id":"levelo_inurba_marseille","lat":43.27924,"lon":5.39577,"is_reserved":false,"is_disabled":false,"rental_uris":{"android":"levelo://app?vid=87a2afbe-65eb-4f71-b21e-40efbb59899e","ios":"levelo://app?vid=87a2afbe-65eb-4f71-b21e-40efbb59899e"},"vehicle_type_id":"4","last_reported":1760173755,"current_range_meters":18800,"station_id":"ce4bhf92rcd13ifvqf40","pricing_plan_id":"cebpf4jnsgd1na2vs0mg"},{"bike_id":"2ec19b76-10cd-4c12-bc8a-3e801bea1dc4","system_id":"levelo_inurba_marseille","lat":43.27948,"lon":5.41057,"is_reserved":false,"is_disabled":false,"rental_uris":{"android":"levelo://app?vid=2ec19b76-10cd-4c12-bc8a-3e801bea1dc4","ios":"levelo://app?vid=2ec19b76-10cd-4c12-bc8a-3e801bea1dc4"},"vehicle_type_id":"4","last_reported":1760173755,"current_range_meters":18800,"station_id":"ce4bhnp2rcd13ifvqh0g","pricing_plan_id":"cebpf4jnsgd1na2vs0mg"},{"bike_id":"7fe79bea-5e42-4119-bb05-688b3bf3270d","system_id":"levelo_inurba_marseille","lat":43.22571,"lon":5.4164,"is_reserved":false,"is_disabled":false,"rental_uris":{"android":"levelo://app?vid=7fe79bea-5e42-4119-bb05-688b3bf3270d","ios":"levelo://app?vid=7fe79bea-5e42-4119-bb05-688b3bf3270d"},"vehicle_type_id":"4","last_reported":1760173755,"current_range_meters":18800,"station_id":"st_d2o4gvlbi1j2169b742g","pricing_plan_id":"cebpf4jnsgd1na2vs0mg"},{"bike_id":"fdfd3e92-648a-4e18-90a3-57873823c41b","system_id":"levelo_inurba_marseille","lat":43.337444,"lon":5.374475,"is_reserved":false,"is_disabled":false,"rental_uris":{"android":"levelo://app?vid=fdfd3e92-648a-4e18-90a3-57873823c41b","ios":"levelo://app?vid=fdfd3e92-648a-4e18-90a3-57873823c41b"},"vehicle_type_id":"4","last_reported":1760173755,"current_range_meters":19200,"station_id":"","pricing_plan_id":"cebpf4jnsgd1na2vs0mg"},{"bike_id":"d4728f81-e75e-4f1a-97aa-d73927699dc4","system_id":"levelo_inurba_marseille","lat":43.29213,"lon":5.36073,"is_reserved":false,"is_disabled":false,"rental_uris":{"android":"levelo://app?vid=d4728f81-e75e-4f1a-97aa-d73927699dc4","ios":"levelo://app?vid=d4728f81-e75e-4f1a-97aa-d73927699dc4"},"vehicle_type_id":"4","last_reported":1760173755,"current_range_meters":19200,"station_id":"ce4bhbh2rcd13ifvqeqg","pricing_plan_id":"cebpf4jnsgd1na2vs0mg"},{"bike_id":"889ff6cd-1f4a-444c-8cdd-e5c07000866a","system_id":"levelo_inurba_marseille","lat":43.23952,"lon":5.36633,"is_reserved":false,"is_disabled":false,"rental_uris":{"android":"levelo://app?vid=889ff6cd-1f4a-444c-8cdd-e5c07000866a","ios":"levelo://app?vid=889ff6cd-1f4a-444c-8cdd-e5c07000866a"},"vehicle_type_id":"4","last_reported":1760173755,"current_range_meters":19200,"station_id":"ce4bhi12rcd13ifvqfp0","pricing_plan_id":"cebpf4jnsgd1na2vs0mg"},{"bike_id":"9fd6271a-c667-4d33-b37e-7ff2556f5ef3","system_id":"levelo_inurba_marseille","lat":43.25097,"lon":5.39515,"is_reserved":false,"is_disabled":false,"rental_uris":{"android":"levelo://app?vid=9fd6271a-c667-4d33-b37e-7ff2556f5ef3","ios":"levelo://app?vid=9fd6271a-c667-4d33-b37e-7ff2556f5ef3"},"vehicle_type_id":"4","last_reported":1760173755,"current_range_meters":19200,"station_id":"ce4bhm12rcd13ifvqgkg","pricing_plan_id":"cebpf4jnsgd1na2vs0mg"},{"bike_id":"8ce263e4-194a-4012-96d5-d6eec0f65350","system_id":"levelo_inurba_marseille","lat":43.24181,"lon":5.39731,"is_reserved":false,"is_disabled":false,"rental_uris":{"android":"levelo://app?vid=8ce263e4-194a-4012-96d5-d6eec0f65350","ios":"levelo://app?vid=8ce263e4-194a-4012-96d5-d6eec0f65350"},"vehicle_type_id":"4","last_reported":1760173755,"current_range_meters":19200,"station_id":"ce4bhn12rcd13ifvqgpg","pricing_plan_id":"cebpf4jnsgd1na2vs0mg"},{"bike_id":"1bc064ab-06d7-4109-bc07-a0da0d4defc1","system_id":"levelo_inurba_marseille","lat":43.23192,"lon":5.35566,"is_reserved":false,"is_disabled":false,"rental_uris":{"android":"levelo://app?vid=1bc064ab-06d7-4109-bc07-a0da0d4defc1","ios":"levelo://app?vid=1bc064ab-06d7-4109-bc07-a0da0d4defc1"},"vehicle_type_id":"4","last_reported":1760173755,"current_range_meters":19200,"station_id":"ce4bhu92rcd13ifvqi70","pricing_plan_id":"cebpf4jnsgd1na2vs0mg"},{"bike_id":"c11bc177-c9a1-4a68-b8a3-c88c44f2ffdf","system_id":"levelo_inurba_marseille","lat":43.284155,"lon":5.34995,"is_reserved":false,"is_disabled":false,"rental_uris":{"android":"levelo://app?vid=c11bc177-c9a1-4a68-b8a3-c88c44f2ffdf","ios":"levelo://app?vid=c11bc177-c9a1-4a68-b8a3-c88c44f2ffdf"},"vehicle_type_id":"4","last_reported":1760173755,"current_range_meters":19600,"station_id":"ce4bhbh2rcd13ifvqepg","pricing_plan_id":"cebpf4jnsgd1na2vs0mg"},{"bike_id":"6dd0be9e-3ac0-469e-a7e7-714604e50afc","system_id":"levelo_inurba_marseille","lat":43.292258,"lon":5.360729,"is_reserved":false,"is_disabled":false,"rental_uris":{"android":"levelo://app?vid=6dd0be9e-3ac0-469e-a7e7-714604e50afc","ios":"levelo://app?vid=6dd0be9e-3ac0-469e-a7e7-714604e50afc"},"vehicle_type_id":"4","last_reported":1760173755,"current_range_meters":19600,"station_id":"ce4bhbh2rcd13ifvqeqg","pricing_plan_id":"cebpf4jnsgd1na2vs0mg"},{"bike_id":"58ed66a1-c4e3-4bc2-a4b5-261aa6a834ea","system_id":"levelo_inurba_marseille","lat":43.29225,"lon":5.36077,"is_reserved":false,"is_disabled":false,"rental_uris":{"android":"levelo://app?vid=58ed66a1-c4e3-4bc2-a4b5-261aa6a834ea","ios":"levelo://app?vid=58ed66a1-c4e3-4bc2-a4b5-261aa6a834ea"},"vehicle_type_id":"4","last_reported":1760173755,"current_range_meters":19600,"station_id":"ce4bhbh2rcd13ifvqeqg","pricing_plan_id":"cebpf4jnsgd1na2vs0mg"},{"bike_id":"b10da61f-ff1d-4789-80bd-96b39525099c","system_id":"levelo_inurba_marseille","lat":43.25493,"lon":5.37651,"is_reserved":false,"is_disabled":false,"rental_uris":{"android":"levelo://app?vid=b10da61f-ff1d-4789-80bd-96b39525099c","ios":"levelo://app?vid=b10da61f-ff1d-4789-80bd-96b39525099c"},"vehicle_type_id":"4","last_reported":1760173755,"current_range_meters":19600,"station_id":"ce4bhh12rcd13ifvqff0","pricing_plan_id":"cebpf4jnsgd1na2vs0mg"},{"bike_id":"133c9cd6-f120-43c0-a3a2-955a00bd1271","system_id":"levelo_inurba_marseille","lat":43.23971,"lon":5.36645,"is_reserved":false,"is_disabled":false,"rental_uris":{"android":"levelo://app?vid=133c9cd6-f120-43c0-a3a2-955a00bd1271","ios":"levelo://app?vid=133c9cd6-f120-43c0-a3a2-955a00bd1271"},"vehicle_type_id":"4","last_reported":1760173755,"current_range_meters":19600,"station_id":"ce4bhi12rcd13ifvqfp0","pricing_plan_id":"cebpf4jnsgd1na2vs0mg"},{"bike_id":"afb7ef0a-7745-49d6-a599-08fd2381db7b","system_id":"levelo_inurba_marseille","lat":43.23152,"lon":5.43718,"is_reserved":false,"is_disabled":false,"rental_uris":{"android":"levelo://app?vid=afb7ef0a-7745-49d6-a599-08fd2381db7b","ios":"levelo://app?vid=afb7ef0a-7745-49d6-a599-08fd2381db7b"},"vehicle_type_id":"4","last_reported":1760173755,"current_range_meters":19600,"station_id":"ce4bhmp2rcd13ifvqgog","pricing_plan_id":"cebpf4jnsgd1na2vs0mg"},{"bike_id":"c6307a71-646f-4c5a-9084-fa2f86ef2fb1","system_id":"levelo_inurba_marseille","lat":43.231944,"lon":5.355517,"is_reserved":false,"is_disabled":false,"rental_uris":{"android":"levelo://app?vid=c6307a71-646f-4c5a-9084-fa2f86ef2fb1","ios":"levelo://app?vid=c6307a71-646f-4c5a-9084-fa2f86ef2fb1"},"vehicle_type_id":"4","last_reported":1760173755,"current_range_meters":19600,"station_id":"ce4bhu92rcd13ifvqi70","pricing_plan_id":"cebpf4jnsgd1na2vs0mg"},{"bike_id":"8739e794-27d4-4880-afeb-e0f3bb578034","system_id":"levelo_inurba_marseille","lat":43.2937,"lon":5.37844,"is_reserved":false,"is_disabled":false,"rental_uris":{"android":"levelo://app?vid=8739e794-27d4-4880-afeb-e0f3bb578034","ios":"levelo://app?vid=8739e794-27d4-4880-afeb-e0f3bb578034"},"vehicle_type_id":"4","last_reported":1760173755,"current_range_meters":20000,"station_id":"ce4bgjh2rcd13ifvqbf0","pricing_plan_id":"cebpf4jnsgd1na2vs0mg"},{"bike_id":"d92171e9-1c49-4e2c-a013-b2eab3f1250b","system_id":"levelo_inurba_marseille","lat":43.30149,"lon":5.38083,"is_reserved":false,"is_disabled":false,"rental_uris":{"android":"levelo://app?vid=d92171e9-1c49-4e2c-a013-b2eab3f1250b","ios":"levelo://app?vid=d92171e9-1c49-4e2c-a013-b2eab3f1250b"},"vehicle_type_id":"4","last_reported":1760173755,"current_range_meters":20000,"station_id":"ce4bgjp2rcd13ifvqbh0","pricing_plan_id":"cebpf4jnsgd1na2vs0mg"},{"bike_id":"974d98f2-e3f4-4def-b095-e37c49b9c966","system_id":"levelo_inurba_marseille","lat":43.272043,"lon":5.391871,"is_reserved":false,"is_disabled":false,"rental_uris":{"android":"levelo://app?vid=974d98f2-e3f4-4def-b095-e37c49b9c966","ios":"levelo://app?vid=974d98f2-e3f4-4def-b095-e37c49b9c966"},"vehicle_type_id":"4","last_reported":1760173755,"current_range_meters":20000,"station_id":"ce4bhhp2rcd13ifvqfm0","pricing_plan_id":"cebpf4jnsgd1na2vs0mg"},{"bike_id":"e51d39a5-5015-4e1c-bc42-c4fdbbbf0d4e","system_id":"levelo_inurba_marseille","lat":43.262284,"lon":5.379207,"is_reserved":false,"is_disabled":false,"rental_uris":{"android":"levelo://app?vid=e51d39a5-5015-4e1c-bc42-c4fdbbbf0d4e","ios":"levelo://app?vid=e51d39a5-5015-4e1c-bc42-c4fdbbbf0d4e"},"vehicle_type_id":"4","last_reported":1760173755,"current_range_meters":20000,"station_id":"ce4bhjp2rcd13ifvqg90","pricing_plan_id":"cebpf4jnsgd1na2vs0mg"},{"bike_id":"2bc1cb78-68d3-4473-8618-1ce3075e8431","system_id":"levelo_inurba_marseille","lat":43.270616,"lon":5.402577,"is_reserved":false,"is_disabled":false,"rental_uris":{"android":"levelo://app?vid=2bc1cb78-68d3-4473-8618-1ce3075e8431","ios":"levelo://app?vid=2bc1cb78-68d3-4473-8618-1ce3075e8431"},"vehicle_type_id":"4","last_reported":1760173755,"current_range_meters":20000,"station_id":"ce4bhk92rcd13ifvqgc0","pricing_plan_id":"cebpf4jnsgd1na2vs0mg"},{"bike_id":"6bafde34-d55f-4b6d-93de-2b074f2603be","system_id":"levelo_inurba_marseille","lat":43.3011,"lon":5.40075,"is_reserved":false,"is_disabled":false,"rental_uris":{"android":"levelo://app?vid=6bafde34-d55f-4b6d-93de-2b074f2603be","ios":"levelo://app?vid=6bafde34-d55f-4b6d-93de-2b074f2603be"},"vehicle_type_id":"4","last_reported":1760173755,"current_range_meters":20400,"station_id":"","pricing_plan_id":"cebpf4jnsgd1na2vs0mg"},{"bike_id":"801f1623-a60a-4c10-b1c1-9671df6e3bf7","system_id":"levelo_inurba_marseille","lat":43.30435,"lon":5.36865,"is_reserved":false,"is_disabled":false,"rental_uris":{"android":"levelo://app?vid=801f1623-a60a-4c10-b1c1-9671df6e3bf7","ios":"levelo://app?vid=801f1623-a60a-4c10-b1c1-9671df6e3bf7"},"vehicle_type_id":"4","last_reported":1760173755,"current_range_meters":20400,"station_id":"","pricing_plan_id":"cebpf4jnsgd1na2vs0mg"},{"bike_id":"abeb248f-cf0d-4431-b8c9-45e60b1c7147","system_id":"levelo_inurba_marseille","lat":43.29712,"lon":5.3661,"is_reserved":false,"is_disabled":false,"rental_uris":{"android":"levelo://app?vid=abeb248f-cf0d-4431-b8c9-45e60b1c7147","ios":"levelo://app?vid=abeb248f-cf0d-4431-b8c9-45e60b1c7147"},"vehicle_type_id":"4","last_reported":1760173755,"current_range_meters":20400,"station_id":"ce4bgn12rcd13ifvqbt0","pricing_plan_id":"cebpf4jnsgd1na2vs0mg"},{"bike_id":"f02c7a67-84a1-41e6-b2b7-03d75b67289c","system_id":"levelo_inurba_marseille","lat":43.29229,"lon":5.36093,"is_reserved":false,"is_disabled":false,"rental_uris":{"android":"levelo://app?vid=f02c7a67-84a1-41e6-b2b7-03d75b67289c","ios":"levelo://app?vid=f02c7a67-84a1-41e6-b2b7-03d75b67289c"},"vehicle_type_id":"4","last_reported":1760173755,"current_range_meters":20400,"station_id":"ce4bhbh2rcd13ifvqeqg","pricing_plan_id":"cebpf4jnsgd1na2vs0mg"},{"bike_id":"e052933e-0a56-4522-8eba-d59514f8af40","system_id":"levelo_inurba_marseille","lat":43.28272,"lon":5.35064,"is_reserved":false,"is_disabled":false,"rental_uris":{"android":"levelo://app?vid=e052933e-0a56-4522-8eba-d59514f8af40","ios":"levelo://app?vid=e052933e-0a56-4522-8eba-d59514f8af40"},"vehicle_type_id":"4","last_reported":1760173755,"current_range_meters":20400,"station_id":"ce4bhbp2rcd13ifvqerg","pricing_plan_id":"cebpf4jnsgd1na2vs0mg"},{"bike_id":"19685892-a9d2-4ace-af3c-93b5db6a8459","system_id":"levelo_inurba_marseille","lat":43.26954,"lon":5.38635,"is_reserved":false,"is_disabled":false,"rental_uris":{"android":"levelo://app?vid=19685892-a9d2-4ace-af3c-93b5db6a8459","ios":"levelo://app?vid=19685892-a9d2-4ace-af3c-93b5db6a8459"},"vehicle_type_id":"4","last_reported":1760173755,"current_range_meters":20400,"station_id":"ce4bhh92rcd13ifvqfh0","pricing_plan_id":"cebpf4jnsgd1na2vs0mg"},{"bike_id":"0495b2f7-3fac-4455-9f7c-df01c3d01524","system_id":"levelo_inurba_marseille","lat":43.25571,"lon":5.38239,"is_reserved":false,"is_disabled":false,"rental_uris":{"android":"levelo://app?vid=0495b2f7-3fac-4455-9f7c-df01c3d01524","ios":"levelo://app?vid=0495b2f7-3fac-4455-9f7c-df01c3d01524"},"vehicle_type_id":"4","last_reported":1760173755,"current_range_meters":20400,"station_id":"ce4bhih2rcd13ifvqfs0","pricing_plan_id":"cebpf4jnsgd1na2vs0mg"},{"bike_id":"4efc364f-3b43-4cea-9e05-4577dec8f723","system_id":"levelo_inurba_marseille","lat":43.23212,"lon":5.35544,"is_reserved":false,"is_disabled":false,"rental_uris":{"android":"levelo://app?vid=4efc364f-3b43-4cea-9e05-4577dec8f723","ios":"levelo://app?vid=4efc364f-3b43-4cea-9e05-4577dec8f723"},"vehicle_type_id":"4","last_reported":1760173755,"current_range_meters":20400,"station_id":"ce4bhu92rcd13ifvqi70","pricing_plan_id":"cebpf4jnsgd1na2vs0mg"},{"bike_id":"76164ba7-75d0-4c5e-97c0-ef36374c7614","system_id":"levelo_inurba_marseille","lat":43.24958,"lon":5.40494,"is_reserved":false,"is_disabled":false,"rental_uris":{"android":"levelo://app?vid=76164ba7-75d0-4c5e-97c0-ef36374c7614","ios":"levelo://app?vid=76164ba7-75d0-4c5e-97c0-ef36374c7614"},"vehicle_type_id":"4","last_reported":1760173755,"current_range_meters":20400,"station_id":"st_d2ngiaodas8pm72gd1h0","pricing_plan_id":"cebpf4jnsgd1na2vs0mg"},{"bike_id":"8b54de43-8f67-4531-9e6d-b78e352e4911","system_id":"levelo_inurba_marseille","lat":43.317,"lon":5.40427,"is_reserved":false,"is_disabled":false,"rental_uris":{"android":"levelo://app?vid=8b54de43-8f67-4531-9e6d-b78e352e4911","ios":"levelo://app?vid=8b54de43-8f67-4531-9e6d-b78e352e4911"},"vehicle_type_id":"4","last_reported":1760173755,"current_range_meters":20800,"station_id":"ce4bh012rcd13ifvqd00","pricing_plan_id":"cebpf4jnsgd1na2vs0mg"},{"bike_id":"bfba2005-9a9b-4805-a982-ec2230b1825d","system_id":"levelo_inurba_marseille","lat":43.26215,"lon":5.3744,"is_reserved":false,"is_disabled":false,"rental_uris":{"android":"levelo://app?vid=bfba2005-9a9b-4805-a982-ec2230b1825d","ios":"levelo://app?vid=bfba2005-9a9b-4805-a982-ec2230b1825d"},"vehicle_type_id":"4","last_reported":1760173755,"current_range_meters":20800,"station_id":"ce4bhgp2rcd13ifvqfc0","pricing_plan_id":"cebpf4jnsgd1na2vs0mg"},{"bike_id":"bd716387-d314-4c47-800f-f85c5956b1b6","system_id":"levelo_inurba_marseille","lat":43.2318,"lon":5.39987,"is_reserved":false,"is_disabled":false,"rental_uris":{"android":"levelo://app?vid=bd716387-d314-4c47-800f-f85c5956b1b6","ios":"levelo://app?vid=bd716387-d314-4c47-800f-f85c5956b1b6"},"vehicle_type_id":"4","last_reported":1760173755,"current_range_meters":20800,"station_id":"ce4bhn12rcd13ifvqgqg","pricing_plan_id":"cebpf4jnsgd1na2vs0mg"},{"bike_id":"2609af2e-85de-4b67-9271-9ad758b9f2c3","system_id":"levelo_inurba_marseille","lat":43.27985,"lon":5.40049,"is_reserved":false,"is_disabled":false,"rental_uris":{"android":"levelo://app?vid=2609af2e-85de-4b67-9271-9ad758b9f2c3","ios":"levelo://app?vid=2609af2e-85de-4b67-9271-9ad758b9f2c3"},"vehicle_type_id":"4","last_reported":1760173755,"current_range_meters":20800,"station_id":"ce4bho92rcd13ifvqh4g","pricing_plan_id":"cebpf4jnsgd1na2vs0mg"},{"bike_id":"56d041b9-8d1c-49cf-9009-0dc0de16db65","system_id":"levelo_inurba_marseille","lat":43.23195,"lon":5.35558,"is_reserved":false,"is_disabled":false,"rental_uris":{"android":"levelo://app?vid=56d041b9-8d1c-49cf-9009-0dc0de16db65","ios":"levelo://app?vid=56d041b9-8d1c-49cf-9009-0dc0de16db65"},"vehicle_type_id":"4","last_reported":1760173755,"current_range_meters":20800,"station_id":"ce4bhu92rcd13ifvqi70","pricing_plan_id":"cebpf4jnsgd1na2vs0mg"},{"bike_id":"54af182f-82fd-4524-9da2-785af9850a37","system_id":"levelo_inurba_marseille","lat":43.29182,"lon":5.35833,"is_reserved":false,"is_disabled":false,"rental_uris":{"android":"levelo://app?vid=54af182f-82fd-4524-9da2-785af9850a37","ios":"levelo://app?vid=54af182f-82fd-4524-9da2-785af9850a37"},"vehicle_type_id":"4","last_reported":1760173755,"current_range_meters":21600,"station_id":"","pricing_plan_id":"cebpf4jnsgd1na2vs0mg"},{"bike_id":"581a9eba-62f9-4025-9dee-c86659fe1239","system_id":"levelo_inurba_marseille","lat":43.26194,"lon":5.37448,"is_reserved":false,"is_disabled":false,"rental_uris":{"android":"levelo://app?vid=581a9eba-62f9-4025-9dee-c86659fe1239","ios":"levelo://app?vid=581a9eba-62f9-4025-9dee-c86659fe1239"},"vehicle_type_id":"4","last_reported":1760173755,"current_range_meters":21600,"station_id":"ce4bhgp2rcd13ifvqfc0","pricing_plan_id":"cebpf4jnsgd1na2vs0mg"},{"bike_id":"401bd7c6-fe6c-4541-8c74-ef71bca57868","system_id":"levelo_inurba_marseille","lat":43.32109,"lon":5.36765,"is_reserved":false,"is_disabled":false,"rental_uris":{"android":"levelo://app?vid=401bd7c6-fe6c-4541-8c74-ef71bca57868","ios":"levelo://app?vid=401bd7c6-fe6c-4541-8c74-ef71bca57868"},"vehicle_type_id":"4","last_reported":1760173755,"current_range_meters":21600,"station_id":"ce4bhrh2rcd13ifvqhug","pricing_plan_id":"cebpf4jnsgd1na2vs0mg"},{"bike_id":"acb96587-5dd6-4dad-bb53-4402ea42193d","system_id":"levelo_inurba_marseille","lat":43.22936,"lon":5.35415,"is_reserved":false,"is_disabled":false,"rental_uris":{"android":"levelo://app?vid=acb96587-5dd6-4dad-bb53-4402ea42193d","ios":"levelo://app?vid=acb96587-5dd6-4dad-bb53-4402ea42193d"},"vehicle_type_id":"4","last_reported":1760173755,"current_range_meters":21600,"station_id":"cpo3532slgdg3j2ikp40","pricing_plan_id":"cebpf4jnsgd1na2vs0mg"},{"bike_id":"b9c23e76-a95c-46a5-87fc-e33f07c51062","system_id":"levelo_inurba_marseille","lat":43.325,"lon":5.38971,"is_reserved":false,"is_disabled":false,"rental_uris":{"android":"levelo://app?vid=b9c23e76-a95c-46a5-87fc-e33f07c51062","ios":"levelo://app?vid=b9c23e76-a95c-46a5-87fc-e33f07c51062"},"vehicle_type_id":"4","last_reported":1760173755,"current_range_meters":22000,"station_id":"","pricing_plan_id":"cebpf4jnsgd1na2vs0mg"},{"bike_id":"621a889e-e31c-4ef8-8f00-ae8c1f98bdbd","system_id":"levelo_inurba_marseille","lat":43.297295,"lon":5.37692,"is_reserved":false,"is_disabled":false,"rental_uris":{"android":"levelo://app?vid=621a889e-e31c-4ef8-8f00-ae8c1f98bdbd","ios":"levelo://app?vid=621a889e-e31c-4ef8-8f00-ae8c1f98bdbd"},"vehicle_type_id":"4","last_reported":1760173755,"current_range_meters":22000,"station_id":"ce4bgkh2rcd13ifvqbl0","pricing_plan_id":"cebpf4jnsgd1na2vs0mg"},{"bike_id":"e3d927bd-352e-404d-b2ed-c4e3ce54a95d","system_id":"levelo_inurba_marseille","lat":43.2804,"lon":5.36943,"is_reserved":false,"is_disabled":false,"rental_uris":{"android":"levelo://app?vid=e3d927bd-352e-404d-b2ed-c4e3ce54a95d","ios":"levelo://app?vid=e3d927bd-352e-404d-b2ed-c4e3ce54a95d"},"vehicle_type_id":"4","last_reported":1760173755,"current_range_meters":22000,"station_id":"ce4bha12rcd13ifvqef0","pricing_plan_id":"cebpf4jnsgd1na2vs0mg"},{"bike_id":"14907527-1b3e-4427-a61f-ad1f7eb6fcc9","system_id":"levelo_inurba_marseille","lat":43.292274,"lon":5.363096,"is_reserved":false,"is_disabled":false,"rental_uris":{"android":"levelo://app?vid=14907527-1b3e-4427-a61f-ad1f7eb6fcc9","ios":"levelo://app?vid=14907527-1b3e-4427-a61f-ad1f7eb6fcc9"},"vehicle_type_id":"4","last_reported":1760173755,"current_range_meters":22000,"station_id":"ce4bhbh2rcd13ifvqeqg","pricing_plan_id":"cebpf4jnsgd1na2vs0mg"},{"bike_id":"cd1c5ffd-8853-41e5-bf2d-5fea02a206b7","system_id":"levelo_inurba_marseille","lat":43.2466,"lon":5.3818,"is_reserved":false,"is_disabled":false,"rental_uris":{"android":"levelo://app?vid=cd1c5ffd-8853-41e5-bf2d-5fea02a206b7","ios":"levelo://app?vid=cd1c5ffd-8853-41e5-bf2d-5fea02a206b7"},"vehicle_type_id":"4","last_reported":1760173755,"current_range_meters":22000,"station_id":"ce4bhih2rcd13ifvqfr0","pricing_plan_id":"cebpf4jnsgd1na2vs0mg"},{"bike_id":"e2910cdd-7559-4ec5-a267-25110187d678","system_id":"levelo_inurba_marseille","lat":43.22928,"lon":5.35375,"is_reserved":false,"is_disabled":false,"rental_uris":{"android":"levelo://app?vid=e2910cdd-7559-4ec5-a267-25110187d678","ios":"levelo://app?vid=e2910cdd-7559-4ec5-a267-25110187d678"},"vehicle_type_id":"4","last_reported":1760173755,"current_range_meters":22000,"station_id":"cpo3532slgdg3j2ikp40","pricing_plan_id":"cebpf4jnsgd1na2vs0mg"},{"bike_id":"11827e16-12d8-4d0f-8d13-c003488ca542","system_id":"levelo_inurba_marseille","lat":43.305542,"lon":5.365713,"is_reserved":false,"is_disabled":false,"rental_uris":{"android":"levelo://app?vid=11827e16-12d8-4d0f-8d13-c003488ca542","ios":"levelo://app?vid=11827e16-12d8-4d0f-8d13-c003488ca542"},"vehicle_type_id":"4","last_reported":1760173755,"current_range_meters":22400,"station_id":"","pricing_plan_id":"cebpf4jnsgd1na2vs0mg"},{"bike_id":"49f4792e-f9d9-447d-8835-ecefca593f46","system_id":"levelo_inurba_marseille","lat":43.29721,"lon":5.37697,"is_reserved":false,"is_disabled":false,"rental_uris":{"android":"levelo://app?vid=49f4792e-f9d9-447d-8835-ecefca593f46","ios":"levelo://app?vid=49f4792e-f9d9-447d-8835-ecefca593f46"},"vehicle_type_id":"4","last_reported":1760173755,"current_range_meters":22400,"station_id":"ce4bgkh2rcd13ifvqbl0","pricing_plan_id":"cebpf4jnsgd1na2vs0mg"},{"bike_id":"409bc0d3-216a-437d-8c49-47e5f6990fac","system_id":"levelo_inurba_marseille","lat":43.24404,"lon":5.37035,"is_reserved":false,"is_disabled":false,"rental_uris":{"android":"levelo://app?vid=409bc0d3-216a-437d-8c49-47e5f6990fac","ios":"levelo://app?vid=409bc0d3-216a-437d-8c49-47e5f6990fac"},"vehicle_type_id":"4","last_reported":1760173755,"current_range_meters":22400,"station_id":"ce4bhhh2rcd13ifvqfk0","pricing_plan_id":"cebpf4jnsgd1na2vs0mg"},{"bike_id":"0264e320-cd63-48f9-9800-229174428850","system_id":"levelo_inurba_marseille","lat":43.23147,"lon":5.43715,"is_reserved":false,"is_disabled":false,"rental_uris":{"android":"levelo://app?vid=0264e320-cd63-48f9-9800-229174428850","ios":"levelo://app?vid=0264e320-cd63-48f9-9800-229174428850"},"vehicle_type_id":"4","last_reported":1760173755,"current_range_meters":22400,"station_id":"ce4bhmp2rcd13ifvqgog","pricing_plan_id":"cebpf4jnsgd1na2vs0mg"},{"bike_id":"59690433-0be7-4a7e-950c-859763e32a00","system_id":"levelo_inurba_marseille","lat":43.23178,"lon":5.39993,"is_reserved":false,"is_disabled":false,"rental_uris":{"android":"levelo://app?vid=59690433-0be7-4a7e-950c-859763e32a00","ios":"levelo://app?vid=59690433-0be7-4a7e-950c-859763e32a00"},"vehicle_type_id":"4","last_reported":1760173755,"current_range_meters":22400,"station_id":"ce4bhn12rcd13ifvqgqg","pricing_plan_id":"cebpf4jnsgd1na2vs0mg"},{"bike_id":"7c1a4890-b9ac-4fe5-a571-cd86038dad29","system_id":"levelo_inurba_marseille","lat":43.272059,"lon":5.39183,"is_reserved":false,"is_disabled":false,"rental_uris":{"android":"levelo://app?vid=7c1a4890-b9ac-4fe5-a571-cd86038dad29","ios":"levelo://app?vid=7c1a4890-b9ac-4fe5-a571-cd86038dad29"},"vehicle_type_id":"4","last_reported":1760173755,"current_range_meters":22800,"station_id":"","pricing_plan_id":"cebpf4jnsgd1na2vs0mg"},{"bike_id":"606d8e53-6363-48b4-a0db-b6514d1e8480","system_id":"levelo_inurba_marseille","lat":43.290202,"lon":5.381319,"is_reserved":false,"is_disabled":false,"rental_uris":{"android":"levelo://app?vid=606d8e53-6363-48b4-a0db-b6514d1e8480","ios":"levelo://app?vid=606d8e53-6363-48b4-a0db-b6514d1e8480"},"vehicle_type_id":"4","last_reported":1760173755,"current_range_meters":22800,"station_id":"","pricing_plan_id":"cebpf4jnsgd1na2vs0mg"},{"bike_id":"39983e68-2563-4689-b6aa-b5da97c08cef","system_id":"levelo_inurba_marseille","lat":43.29636,"lon":5.368215,"is_reserved":false,"is_disabled":false,"rental_uris":{"android":"levelo://app?vid=39983e68-2563-4689-b6aa-b5da97c08cef","ios":"levelo://app?vid=39983e68-2563-4689-b6aa-b5da97c08cef"},"vehicle_type_id":"4","last_reported":1760173755,"current_range_meters":22800,"station_id":"","pricing_plan_id":"cebpf4jnsgd1na2vs0mg"},{"bike_id":"71c0aa7d-55bc-4a18-88ab-8d111d7eb5a0","system_id":"levelo_inurba_marseille","lat":43.28831,"lon":5.37102,"is_reserved":false,"is_disabled":false,"rental_uris":{"android":"levelo://app?vid=71c0aa7d-55bc-4a18-88ab-8d111d7eb5a0","ios":"levelo://app?vid=71c0aa7d-55bc-4a18-88ab-8d111d7eb5a0"},"vehicle_type_id":"4","last_reported":1760173755,"current_range_meters":22800,"station_id":"","pricing_plan_id":"cebpf4jnsgd1na2vs0mg"},{"bike_id":"8adba69e-dea2-4595-b2fe-4b2add74c130","system_id":"levelo_inurba_marseille","lat":43.29357,"lon":5.37879,"is_reserved":false,"is_disabled":false,"rental_uris":{"android":"levelo://app?vid=8adba69e-dea2-4595-b2fe-4b2add74c130","ios":"levelo://app?vid=8adba69e-dea2-4595-b2fe-4b2add74c130"},"vehicle_type_id":"4","last_reported":1760173755,"current_range_meters":22800,"station_id":"ce4bgjh2rcd13ifvqbf0","pricing_plan_id":"cebpf4jnsgd1na2vs0mg"},{"bike_id":"2346bfe2-78b1-47f2-8067-8dd2a03e495e","system_id":"levelo_inurba_marseille","lat":43.29872,"lon":5.39735,"is_reserved":false,"is_disabled":false,"rental_uris":{"android":"levelo://app?vid=2346bfe2-78b1-47f2-8067-8dd2a03e495e","ios":"levelo://app?vid=2346bfe2-78b1-47f2-8067-8dd2a03e495e"},"vehicle_type_id":"4","last_reported":1760173755,"current_range_meters":22800,"station_id":"ce4bh0h2rcd13ifvqd50","pricing_plan_id":"cebpf4jnsgd1na2vs0mg"},{"bike_id":"b721bd55-3711-4c41-8cf4-1fe940668c81","system_id":"levelo_inurba_marseille","lat":43.28043,"lon":5.36947,"is_reserved":false,"is_disabled":false,"rental_uris":{"android":"levelo://app?vid=b721bd55-3711-4c41-8cf4-1fe940668c81","ios":"levelo://app?vid=b721bd55-3711-4c41-8cf4-1fe940668c81"},"vehicle_type_id":"4","last_reported":1760173755,"current_range_meters":22800,"station_id":"ce4bha12rcd13ifvqef0","pricing_plan_id":"cebpf4jnsgd1na2vs0mg"},{"bike_id":"a780ca83-67f4-46d3-9be0-951a36a31617","system_id":"levelo_inurba_marseille","lat":43.23957,"lon":5.36628,"is_reserved":false,"is_disabled":false,"rental_uris":{"android":"levelo://app?vid=a780ca83-67f4-46d3-9be0-951a36a31617","ios":"levelo://app?vid=a780ca83-67f4-46d3-9be0-951a36a31617"},"vehicle_type_id":"4","last_reported":1760173755,"current_range_meters":22800,"station_id":"ce4bhi12rcd13ifvqfp0","pricing_plan_id":"cebpf4jnsgd1na2vs0mg"},{"bike_id":"0587b314-4df6-492e-8654-a6c99452a9ad","system_id":"levelo_inurba_marseille","lat":43.21188,"lon":5.35076,"is_reserved":false,"is_disabled":false,"rental_uris":{"android":"levelo://app?vid=0587b314-4df6-492e-8654-a6c99452a9ad","ios":"levelo://app?vid=0587b314-4df6-492e-8654-a6c99452a9ad"},"vehicle_type_id":"4","last_reported":1760173755,"current_range_meters":23200,"station_id":"","pricing_plan_id":"cebpf4jnsgd1na2vs0mg"},{"bike_id":"88c89210-fddd-4220-9024-4d2b042d76e2","system_id":"levelo_inurba_marseille","lat":43.29613,"lon":5.37733,"is_reserved":false,"is_disabled":false,"rental_uris":{"android":"levelo://app?vid=88c89210-fddd-4220-9024-4d2b042d76e2","ios":"levelo://app?vid=88c89210-fddd-4220-9024-4d2b042d76e2"},"vehicle_type_id":"4","last_reported":1760173755,"current_range_meters":23200,"station_id":"ce4bgi92rcd13ifvqb90","pricing_plan_id":"cebpf4jnsgd1na2vs0mg"},{"bike_id":"9b2a57fd-5160-4d47-a5f3-7f444859ecdb","system_id":"levelo_inurba_marseille","lat":43.29629,"lon":5.37191,"is_reserved":false,"is_disabled":false,"rental_uris":{"android":"levelo://app?vid=9b2a57fd-5160-4d47-a5f3-7f444859ecdb","ios":"levelo://app?vid=9b2a57fd-5160-4d47-a5f3-7f444859ecdb"},"vehicle_type_id":"4","last_reported":1760173755,"current_range_meters":23200,"station_id":"ce4bgnh2rcd13ifvqc0g","pricing_plan_id":"cebpf4jnsgd1na2vs0mg"},{"bike_id":"b45b6361-b62b-487f-9af5-51cdf59f6032","system_id":"levelo_inurba_marseille","lat":43.29868,"lon":5.36279,"is_reserved":false,"is_disabled":false,"rental_uris":{"android":"levelo://app?vid=b45b6361-b62b-487f-9af5-51cdf59f6032","ios":"levelo://app?vid=b45b6361-b62b-487f-9af5-51cdf59f6032"},"vehicle_type_id":"4","last_reported":1760173755,"current_range_meters":23200,"station_id":"ce4bgpp2rcd13ifvqc3g","pricing_plan_id":"cebpf4jnsgd1na2vs0mg"},{"bike_id":"6e4a301e-9038-42e2-ad8c-8c468166821d","system_id":"levelo_inurba_marseille","lat":43.25516,"lon":5.37679,"is_reserved":false,"is_disabled":false,"rental_uris":{"android":"levelo://app?vid=6e4a301e-9038-42e2-ad8c-8c468166821d","ios":"levelo://app?vid=6e4a301e-9038-42e2-ad8c-8c468166821d"},"vehicle_type_id":"4","last_reported":1760173755,"current_range_meters":23200,"station_id":"ce4bhh12rcd13ifvqff0","pricing_plan_id":"cebpf4jnsgd1na2vs0mg"},{"bike_id":"092a15f0-5b8a-4986-9001-491596874df7","system_id":"levelo_inurba_marseille","lat":43.258645,"lon":5.398921,"is_reserved":false,"is_disabled":false,"rental_uris":{"android":"levelo://app?vid=092a15f0-5b8a-4986-9001-491596874df7","ios":"levelo://app?vid=092a15f0-5b8a-4986-9001-491596874df7"},"vehicle_type_id":"4","last_reported":1760173755,"current_range_meters":23200,"station_id":"ce4bhl92rcd13ifvqghg","pricing_plan_id":"cebpf4jnsgd1na2vs0mg"},{"bike_id":"a2c50788-21f1-4eff-8aec-06e6746ecd5b","system_id":"levelo_inurba_marseille","lat":43.2315,"lon":5.43724,"is_reserved":false,"is_disabled":false,"rental_uris":{"android":"levelo://app?vid=a2c50788-21f1-4eff-8aec-06e6746ecd5b","ios":"levelo://app?vid=a2c50788-21f1-4eff-8aec-06e6746ecd5b"},"vehicle_type_id":"4","last_reported":1760173755,"current_range_meters":23200,"station_id":"ce4bhmp2rcd13ifvqgog","pricing_plan_id":"cebpf4jnsgd1na2vs0mg"},