{"last_updated":1721322446,"ttl":30,"version":"2.2","data":{"bikes":[{"bike_id":"a403757a-2931-4632-9998-af64cd148b67","system_id":"levelo_inurba_marseille","lat":43.313391,"lon":5.36706,"is_reserved":false,"is_disabled":false,"rental_uris":{"android":"levelo://app?vid=a403757a-2931-4632-9998-af64cd148b67","ios":"levelo://app?vid=a403757a-2931-4632-9998-af64cd148b67"},"vehicle_type_id":"4","last_reported":1721322446,"current_range_meters":0,"station_id":"ce4bgr92rcd13ifvqc6g","pricing_plan_id":"cebpf4jnsgd1na2vs0mg"},{"bike_id":"d1d81e54-fed9-443c-944a-6820c8a62e66","system_id":"levelo_inurba_marseille","lat":43.31251,"lon":5.36793,"is_reserved":false,"is_disabled":false,"rental_uris":{"android":"levelo://app?vid=d1d81e54-fed9-443c-944a-6820c8a62e66","ios":"levelo://app?vid=d1d81e54-fed9-443c-944a-6820c8a62e66"},"vehicle_type_id":"4","last_reported":1721322446,"current_range_meters":8000,"station_id":"","pricing_plan_id":"cebpf4jnsgd1na2vs0mg"},{"bike_id":"8b745c84-b10d-43d3-ab60-9ecae3e5113a","system_id":"levelo_inurba_marseille","lat":43.312239,"lon":5.368562,"is_reserved":false,"is_disabled":false,"rental_uris":{"android":"levelo://app?vid=8b745c84-b10d-43d3-ab60-9ecae3e5113a","ios":"levelo://app?vid=8b745c84-b10d-43d3-ab60-9ecae3e5113a"},"vehicle_type_id":"4","last_reported":1721322446,"current_range_meters":2800,"station_id":"ce4bgl92rcd13ifvqbq0","pricing_plan_id":"cebpf4jnsgd1na2vs0mg"},{"bike_id":"e2c8f7b8-e14d-4f79-a300-33f9ce70d103","system_id":"levelo_inurba_marseille","lat":43.312239,"lon":5.368562,"is_reserved":false,"is_disabled":false,"rental_uris":{"android":"levelo://app?vid=e2c8f7b8-e14d-4f79-a300-33f9ce70d103","ios":"levelo://app?vid=e2c8f7b8-e14d-4f79-a300-33f9ce70d103"},"vehicle_type_id":"4","last_reported":1721322446,"current_range_meters":1200,"station_id":"ce4bgl92rcd13ifvqbq0","pricing_plan_id":"cebpf4jnsgd1na2vs0mg"},{"bike_id":"95ac0778-8e4e-409d-963b-13f375f55f6e","system_id":"levelo_inurba_marseille","lat":43.314811,"lon":5.373103,"is_reserved":false,"is_disabled":false,"rental_uris":{"android":"levelo://app?vid=95ac0778-8e4e-409d-963b-13f375f55f6e","ios":"levelo://app?vid=95ac0778-8e4e-409d-963b-13f375f55f6e"},"vehicle_type_id":"4","last_reported":1721322446,"current_range_meters":1600,"station_id":"ce4bgt12rcd13ifvqcd0","pricing_plan_id":"cebpf4jnsgd1na2vs0mg"},{"bike_id":"d1291b05-9385-4a17-90da-1b19add4ef1a","system_id":"levelo_inurba_marseille","lat":43.31497,"lon":5.37307,"is_reserved":false,"is_disabled":false,"rental_uris":{"android":"levelo://app?vid=d1291b05-9385-4a17-90da-1b19add4ef1a","ios":"levelo://app?vid=d1291b05-9385-4a17-90da-1b19add4ef1a"},"vehicle_type_id":"4","last_reported":1721322446,"current_range_meters":0,"station_id":"ce4bgt12rcd13ifvqcd0","pricing_plan_id":"cebpf4jnsgd1na2vs0mg"},{"bike_id":"32b15b39-0afe-42df-a1c7-442a67c766e0","system_id":"levelo_inurba_marseille","lat":43.309034,"lon":5.371783,"is_reserved":false,"is_disabled":false,"rental_uris":{"android":"levelo://app?vid=32b15b39-0afe-42df-a1c7-442a67c766e0","ios":"levelo://app?vid=32b15b39-0afe-42df-a1c7-442a67c766e0"},"vehicle_type_id":"4","last_reported":1721322446,"current_range_meters":13600,"station_id":"ce4bguh2rcd13ifvqckg","pricing_plan_id":"cebpf4jnsgd1na2vs0mg"},{"bike_id":"ab55da9b-082c-46f5-84a1-5254c04dc2af","system_id":"levelo_inurba_marseille","lat":43.309034,"lon":5.371783,"is_reserved":false,"is_disabled":false,"rental_uris":{"android":"levelo://app?vid=ab55da9b-082c-46f5-84a1-5254c04dc2af","ios":"levelo://app?vid=ab55da9b-082c-46f5-84a1-5254c04dc2af"},"vehicle_type_id":"4","last_reported":1721322446,"current_range_meters":0,"station_id":"ce4bguh2rcd13ifvqckg","pricing_plan_id":"cebpf4jnsgd1na2vs0mg"},{"bike_id":"f82d49e3-4981-4d1e-b7fe-9031243cb667","system_id":"levelo_inurba_marseille","lat":43.309034,"lon":5.371783,"is_reserved":false,"is_disabled":false,"rental_uris":{"android":"levelo://app?vid=f82d49e3-4981-4d1e-b7fe-9031243cb667","ios":"levelo://app?vid=f82d49e3-4981-4d1e-b7fe-9031243cb667"},"vehicle_type_id":"4","last_reported":1721322446,"current_range_meters":9600,"station_id":"ce4bguh2rcd13ifvqckg","pricing_plan_id":"cebpf4jnsgd1na2vs0mg"},{"bike_id":"23b06f80-097b-44ff-86ba-4aaf91ce0050","system_id":"levelo_inurba_marseille","lat":43.30537,"lon":5.367345,"is_reserved":false,"is_disabled":false,"rental_uris":{"android":"levelo://app?vid=23b06f80-097b-44ff-86ba-4aaf91ce0050","ios":"levelo://app?vid=23b06f80-097b-44ff-86ba-4aaf91ce0050"},"vehicle_type_id":"4","last_reported":1721322446,"current_range_meters":0,"station_id":"ce4bgrp2rcd13ifvqc9g","pricing_plan_id":"cebpf4jnsgd1na2vs0mg"},{"bike_id":"6f9c8110-925b-4c3b-906f-74d759e16ab4","system_id":"levelo_inurba_marseille","lat":43.305712,"lon":5.365641,"is_reserved":false,"is_disabled":false,"rental_uris":{"android":"levelo://app?vid=6f9c8110-925b-4c3b-906f-74d759e16ab4","ios":"levelo://app?vid=6f9c8110-925b-4c3b-906f-74d759e16ab4"},"vehicle_type_id":"4","last_reported":1721322446,"current_range_meters":13600,"station_id":"ce4bgs12rcd13ifvqcag","pricing_plan_id":"cebpf4jnsgd1na2vs0mg"},{"bike_id":"46b05f6a-c2a8-47e1-a791-f22071858e95","system_id":"levelo_inurba_marseille","lat":43.30544,"lon":5.36527,"is_reserved":false,"is_disabled":false,"rental_uris":{"android":"levelo://app?vid=46b05f6a-c2a8-47e1-a791-f22071858e95","ios":"levelo://app?vid=46b05f6a-c2a8-47e1-a791-f22071858e95"},"vehicle_type_id":"4","last_reported":1721322446,"current_range_meters":0,"station_id":"ce4bgs12rcd13ifvqcag","pricing_plan_id":"cebpf4jnsgd1na2vs0mg"},{"bike_id":"70465c97-b6ce-4cce-97b8-8a7b5d6bd44e","system_id":"levelo_inurba_marseille","lat":43.3053,"lon":5.36652,"is_reserved":false,"is_disabled":false,"rental_uris":{"android":"levelo://app?vid=70465c97-b6ce-4cce-97b8-8a7b5d6bd44e","ios":"levelo://app?vid=70465c97-b6ce-4cce-97b8-8a7b5d6bd44e"},"vehicle_type_id":"4","last_reported":1721322446,"current_range_meters":4800,"station_id":"","pricing_plan_id":"cebpf4jnsgd1na2vs0mg"},{"bike_id":"18ab9acd-142a-496a-8632-b42fd997488b","system_id":"levelo_inurba_marseille","lat":43.305989,"lon":5.37225,"is_reserved":false,"is_disabled":false,"rental_uris":{"android":"levelo://app?vid=18ab9acd-142a-496a-8632-b42fd997488b","ios":"levelo://app?vid=18ab9acd-142a-496a-8632-b42fd997488b"},"vehicle_type_id":"4","last_reported":1721322446,"current_range_meters":18000,"station_id":"ce4bgqh2rcd13ifvqc4g","pricing_plan_id":"cebpf4jnsgd1na2vs0mg"},{"bike_id":"63779bda-33e3-49fb-97ed-509cb8d60d95","system_id":"levelo_inurba_marseille","lat":43.305989,"lon":5.37225,"is_reserved":false,"is_disabled":false,"rental_uris":{"android":"levelo://app?vid=63779bda-33e3-49fb-97ed-509cb8d60d95","ios":"levelo://app?vid=63779bda-33e3-49fb-97ed-509cb8d60d95"},"vehicle_type_id":"4","last_reported":1721322446,"current_range_meters":2000,"station_id":"ce4bgqh2rcd13ifvqc4g","pricing_plan_id":"cebpf4jnsgd1na2vs0mg"},{"bike_id":"cba9a4a3-a9a3-4436-9de8-30df9517dc46","system_id":"levelo_inurba_marseille","lat":43.3112,"lon":5.37775,"is_reserved":false,"is_disabled":false,"rental_uris":{"android":"levelo://app?vid=cba9a4a3-a9a3-4436-9de8-30df9517dc46","ios":"levelo://app?vid=cba9a4a3-a9a3-4436-9de8-30df9517dc46"},"vehicle_type_id":"4","last_reported":1721322446,"current_range_meters":0,"station_id":"ce4bgt92rcd13ifvqcg0","pricing_plan_id":"cebpf4jnsgd1na2vs0mg"},{"bike_id":"9d747ef4-c62d-43e4-bcec-4074adc69fd4","system_id":"levelo_inurba_marseille","lat":43.31132,"lon":5.37817,"is_reserved":false,"is_disabled":false,"rental_uris":{"android":"levelo://app?vid=9d747ef4-c62d-43e4-bcec-4074adc69fd4","ios":"levelo://app?vid=9d747ef4-c62d-43e4-bcec-4074adc69fd4"},"vehicle_type_id":"4","last_reported":1721322446,"current_range_meters":400,"station_id":"","pricing_plan_id":"cebpf4jnsgd1na2vs0mg"},{"bike_id":"f0470f6c-9211-4cd7-a39c-a034bf894d29","system_id":"levelo_inurba_marseille","lat":43.307945,"lon":5.376487,"is_reserved":false,"is_disabled":false,"rental_uris":{"android":"levelo://app?vid=f0470f6c-9211-4cd7-a39c-a034bf894d29","ios":"levelo://app?vid=f0470f6c-9211-4cd7-a39c-a034bf894d29"},"vehicle_type_id":"4","last_reported":1721322446,"current_range_meters":23600,"station_id":"ce4bgv92rcd13ifvqcq0","pricing_plan_id":"cebpf4jnsgd1na2vs0mg"},{"bike_id":"a81490b5-4f39-4fbd-9646-6922896b739d","system_id":"levelo_inurba_marseille","lat":43.307945,"lon":5.376487,"is_reserved":false,"is_disabled":false,"rental_uris":{"android":"levelo://app?vid=a81490b5-4f39-4fbd-9646-6922896b739d","ios":"levelo://app?vid=a81490b5-4f39-4fbd-9646-6922896b739d"},"vehicle_type_id":"4","last_reported":1721322446,"current_range_meters":4400,"station_id":"ce4bgv92rcd13ifvqcq0","pricing_plan_id":"cebpf4jnsgd1na2vs0mg"},{"bike_id":"15baf512-e311-489f-8d96-e19ee2ee8042","system_id":"levelo_inurba_marseille","lat":43.30304,"lon":5.368987,"is_reserved":false,"is_disabled":false,"rental_uris":{"android":"levelo://app?vid=15baf512-e311-489f-8d96-e19ee2ee8042","ios":"levelo://app?vid=15baf512-e311-489f-8d96-e19ee2ee8042"},"vehicle_type_id":"4","last_reported":1721322446,"current_range_meters":23600,"station_id":"ce4bgqh2rcd13ifvqc5g","pricing_plan_id":"cebpf4jnsgd1na2vs0mg"},{"bike_id":"200e57f7-a0fb-4b5c-989e-862d5a43dabe","system_id":"levelo_inurba_marseille","lat":43.308012,"lon":5.381511,"is_reserved":false,"is_disabled":false,"rental_uris":{"android":"levelo://app?vid=200e57f7-a0fb-4b5c-989e-862d5a43dabe","ios":"levelo://app?vid=200e57f7-a0fb-4b5c-989e-862d5a43dabe"},"vehicle_type_id":"4","last_reported":1721322446,"current_range_meters":0,"station_id":"ce4bgt12rcd13ifvqce0","pricing_plan_id":"cebpf4jnsgd1na2vs0mg"},{"bike_id":"b6378aa8-727a-44aa-83f1-8e37fef2cbb4","system_id":"levelo_inurba_marseille","lat":43.310804,"lon":5.38359,"is_reserved":false,"is_disabled":false,"rental_uris":{"android":"levelo://app?vid=b6378aa8-727a-44aa-83f1-8e37fef2cbb4","ios":"levelo://app?vid=b6378aa8-727a-44aa-83f1-8e37fef2cbb4"},"vehicle_type_id":"4","last_reported":1721322446,"current_range_meters":19600,"station_id":"ce4bgv92rcd13ifvqcr0","pricing_plan_id":"cebpf4jnsgd1na2vs0mg"},{"bike_id":"9d3ad9e9-768f-4d74-9053-c832934ce231","system_id":"levelo_inurba_marseille","lat":43.310724,"lon":5.383514,"is_reserved":false,"is_disabled":false,"rental_uris":{"android":"levelo://app?vid=9d3ad9e9-768f-4d74-9053-c832934ce231","ios":"levelo://app?vid=9d3ad9e9-768f-4d74-9053-c832934ce231"},"vehicle_type_id":"4","last_reported":1721322446,"current_range_meters":0,"station_id":"ce4bgv92rcd13ifvqcr0","pricing_plan_id":"cebpf4jnsgd1na2vs0mg"},{"bike_id":"21520b9c-4b9e-4c80-8bc6-77b104e4185f","system_id":"levelo_inurba_marseille","lat":43.31076,"lon":5.3836,"is_reserved":false,"is_disabled":false,"rental_uris":{"android":"levelo://app?vid=21520b9c-4b9e-4c80-8bc6-77b104e4185f","ios":"levelo://app?vid=21520b9c-4b9e-4c80-8bc6-77b104e4185f"},"vehicle_type_id":"4","last_reported":1721322446,"current_range_meters":0,"station_id":"ce4bgv92rcd13ifvqcr0","pricing_plan_id":"cebpf4jnsgd1na2vs0mg"},{"bike_id":"a45256b4-0045-46f5-bc9e-39653c5b985a","system_id":"levelo_inurba_marseille","lat":43.313571,"lon":5.384829,"is_reserved":false,"is_disabled":false,"rental_uris":{"android":"levelo://app?vid=a45256b4-0045-46f5-bc9e-39653c5b985a","ios":"levelo://app?vid=a45256b4-0045-46f5-bc9e-39653c5b985a"},"vehicle_type_id":"4","last_reported":1721322446,"current_range_meters":0,"station_id":"ce4bgt92rcd13ifvqcf0","pricing_plan_id":"cebpf4jnsgd1na2vs0mg"},{"bike_id":"14b8b709-7f46-40bf-ac9f-50e93cc4f9be","system_id":"levelo_inurba_marseille","lat":43.301633,"lon":5.376997,"is_reserved":false,"is_disabled":false,"rental_uris":{"android":"levelo://app?vid=14b8b709-7f46-40bf-ac9f-50e93cc4f9be","ios":"levelo://app?vid=14b8b709-7f46-40bf-ac9f-50e93cc4f9be"},"vehicle_type_id":"4","last_reported":1721322446,"current_range_meters":18800,"station_id":"","pricing_plan_id":"cebpf4jnsgd1na2vs0mg"},{"bike_id":"6a3bb692-1b5e-437b-a6b5-3f38b98d2686","system_id":"levelo_inurba_marseille","lat":43.30938,"lon":5.38628,"is_reserved":false,"is_disabled":false,"rental_uris":{"android":"levelo://app?vid=6a3bb692-1b5e-437b-a6b5-3f38b98d2686","ios":"levelo://app?vid=6a3bb692-1b5e-437b-a6b5-3f38b98d2686"},"vehicle_type_id":"4","last_reported":1721322446,"current_range_meters":0,"station_id":"","pricing_plan_id":"cebpf4jnsgd1na2vs0mg"},{"bike_id":"760dbf3a-bd56-4052-ab9c-f968d06ea1db","system_id":"levelo_inurba_marseille","lat":43.31169,"lon":5.38713,"is_reserved":false,"is_disabled":false,"rental_uris":{"android":"levelo://app?vid=760dbf3a-bd56-4052-ab9c-f968d06ea1db","ios":"levelo://app?vid=760dbf3a-bd56-4052-ab9c-f968d06ea1db"},"vehicle_type_id":"4","last_reported":1721322446,"current_range_meters":0,"station_id":"ce4bgv12rcd13ifvqcp0","pricing_plan_id":"cebpf4jnsgd1na2vs0mg"},{"bike_id":"dd0e1299-5bdd-4571-8e7c-59071cda8ebb","system_id":"levelo_inurba_marseille","lat":43.299243,"lon":5.37481,"is_reserved":false,"is_disabled":false,"rental_uris":{"android":"levelo://app?vid=dd0e1299-5bdd-4571-8e7c-59071cda8ebb","ios":"levelo://app?vid=dd0e1299-5bdd-4571-8e7c-59071cda8ebb"},"vehicle_type_id":"4","last_reported":1721322446,"current_range_meters":0,"station_id":"ce4bgjh2rcd13ifvqbg0","pricing_plan_id":"cebpf4jnsgd1na2vs0mg"},{"bike_id":"9c31dd33-ceed-4603-9118-767448f0573d","system_id":"levelo_inurba_marseille","lat":43.31183,"lon":5.38718,"is_reserved":false,"is_disabled":false,"rental_uris":{"android":"levelo://app?vid=9c31dd33-ceed-4603-9118-767448f0573d","ios":"levelo://app?vid=9c31dd33-ceed-4603-9118-767448f0573d"},"vehicle_type_id":"4","last_reported":1721322446,"current_range_meters":800,"station_id":"ce4bgv12rcd13ifvqcp0","pricing_plan_id":"cebpf4jnsgd1na2vs0mg"},{"bike_id":"2ba1cd19-4d4f-45ac-aae7-9679f5682841","system_id":"levelo_inurba_marseille","lat":43.322841,"lon":5.382618,"is_reserved":false,"is_disabled":false,"rental_uris":{"android":"levelo://app?vid=2ba1cd19-4d4f-45ac-aae7-9679f5682841","ios":"levelo://app?vid=2ba1cd19-4d4f-45ac-aae7-9679f5682841"},"vehicle_type_id":"4","last_reported":1721322446,"current_range_meters":30400,"station_id":"ce4bhr12rcd13ifvqhqg","pricing_plan_id":"cebpf4jnsgd1na2vs0mg"},{"bike_id":"fc423830-b90c-4ce6-8b77-33871e29351f","system_id":"levelo_inurba_marseille","lat":43.29777,"lon":5.37099,"is_reserved":false,"is_disabled":false,"rental_uris":{"android":"levelo://app?vid=fc423830-b90c-4ce6-8b77-33871e29351f","ios":"levelo://app?vid=fc423830-b90c-4ce6-8b77-33871e29351f"},"vehicle_type_id":"4","last_reported":1721322446,"current_range_meters":0,"station_id":"ce4bgop2rcd13ifvqc1g","pricing_plan_id":"cebpf4jnsgd1na2vs0mg"},{"bike_id":"5a08da59-f942-42f8-a80a-6814a0bbee29","system_id":"levelo_inurba_marseille","lat":43.297794,"lon":5.370888,"is_reserved":false,"is_disabled":false,"rental_uris":{"android":"levelo://app?vid=5a08da59-f942-42f8-a80a-6814a0bbee29","ios":"levelo://app?vid=5a08da59-f942-42f8-a80a-6814a0bbee29"},"vehicle_type_id":"4","last_reported":1721322446,"current_range_meters":400,"station_id":"ce4bgop2rcd13ifvqc1g","pricing_plan_id":"cebpf4jnsgd1na2vs0mg"},{"bike_id":"5d09c540-3302-4731-9cc7-8cea9203cf4a","system_id":"levelo_inurba_marseille","lat":43.322872,"lon":5.382756,"is_reserved":false,"is_disabled":false,"rental_uris":{"android":"levelo://app?vid=5d09c540-3302-4731-9cc7-8cea9203cf4a","ios":"levelo://app?vid=5d09c540-3302-4731-9cc7-8cea9203cf4a"},"vehicle_type_id":"4","last_reported":1721322446,"current_range_meters":22400,"station_id":"ce4bhr12rcd13ifvqhqg","pricing_plan_id":"cebpf4jnsgd1na2vs0mg"},{"bike_id":"9efe873e-df49-440d-af83-ce7b7cb36e2b","system_id":"levelo_inurba_marseille","lat":43.297163,"lon":5.365866,"is_reserved":false,"is_disabled":false,"rental_uris":{"android":"levelo://app?vid=9efe873e-df49-440d-af83-ce7b7cb36e2b","ios":"levelo://app?vid=9efe873e-df49-440d-af83-ce7b7cb36e2b"},"vehicle_type_id":"4","last_reported":1721322446,"current_range_meters":0,"station_id":"ce4bgn12rcd13ifvqbt0","pricing_plan_id":"cebpf4jnsgd1na2vs0mg"},{"bike_id":"bd0a6030-2c1f-492b-8216-f50725091b1e","system_id":"levelo_inurba_marseille","lat":43.2968,"lon":5.37291,"is_reserved":false,"is_disabled":false,"rental_uris":{"android":"levelo://app?vid=bd0a6030-2c1f-492b-8216-f50725091b1e","ios":"levelo://app?vid=bd0a6030-2c1f-492b-8216-f50725091b1e"},"vehicle_type_id":"4","last_reported":1721322446,"current_range_meters":800,"station_id":"ce4bgk12rcd13ifvqbj0","pricing_plan_id":"cebpf4jnsgd1na2vs0mg"},{"bike_id":"b820ccae-251c-402b-ba3e-3b91353318cc","system_id":"levelo_inurba_marseille","lat":43.29681,"lon":5.37267,"is_reserved":false,"is_disabled":false,"rental_uris":{"android":"levelo://app?vid=b820ccae-251c-402b-ba3e-3b91353318cc","ios":"levelo://app?vid=b820ccae-251c-402b-ba3e-3b91353318cc"},"vehicle_type_id":"4","last_reported":1721322446,"current_range_meters":0,"station_id":"ce4bgk12rcd13ifvqbj0","pricing_plan_id":"cebpf4jnsgd1na2vs0mg"},{"bike_id":"8db57188-6d8a-452d-a0be-5940d0d3ae97","system_id":"levelo_inurba_marseille","lat":43.296131,"lon":5.370791,"is_reserved":false,"is_disabled":false,"rental_uris":{"android":"levelo://app?vid=8db57188-6d8a-452d-a0be-5940d0d3ae97","ios":"levelo://app?vid=8db57188-6d8a-452d-a0be-5940d0d3ae97"},"vehicle_type_id":"4","last_reported":1721322446,"current_range_meters":0,"station_id":"ce4bgnh2rcd13ifvqc0g","pricing_plan_id":"cebpf4jnsgd1na2vs0mg"},{"bike_id":"edb9d1b0-6fcd-4e8f-b032-c12025c03d8d","system_id":"levelo_inurba_marseille","lat":43.296131,"lon":5.370791,"is_reserved":false,"is_disabled":false,"rental_uris":{"android":"levelo://app?vid=edb9d1b0-6fcd-4e8f-b032-c12025c03d8d","ios":"levelo://app?vid=edb9d1b0-6fcd-4e8f-b032-c12025c03d8d"},"vehicle_type_id":"4","last_reported":1721322446,"current_range_meters":4400,"station_id":"ce4bgnh2rcd13ifvqc0g","pricing_plan_id":"cebpf4jnsgd1na2vs0mg"},{"bike_id":"12f88aa9-f987-45ae-a54a-d69c8c293a41","system_id":"levelo_inurba_marseille","lat":43.29712,"lon":5.37681,"is_reserved":false,"is_disabled":false,"rental_uris":{"android":"levelo://app?vid=12f88aa9-f987-45ae-a54a-d69c8c293a41","ios":"levelo://app?vid=12f88aa9-f987-45ae-a54a-d69c8c293a41"},"vehicle_type_id":"4","last_reported":1721322446,"current_range_meters":0,"station_id":"ce4bgkh2rcd13ifvqbl0","pricing_plan_id":"cebpf4jnsgd1na2vs0mg"},{"bike_id":"e4296cad-bf20-48d5-ba74-5b1eee93c03f","system_id":"levelo_inurba_marseille","lat":43.299028,"lon":5.381509,"is_reserved":false,"is_disabled":false,"rental_uris":{"android":"levelo://app?vid=e4296cad-bf20-48d5-ba74-5b1eee93c03f","ios":"levelo://app?vid=e4296cad-bf20-48d5-ba74-5b1eee93c03f"},"vehicle_type_id":"4","last_reported":1721322446,"current_range_meters":12400,"station_id":"ce4bgj12rcd13ifvqbc0","pricing_plan_id":"cebpf4jnsgd1na2vs0mg"},{"bike_id":"61daf056-cdb1-484e-a1f3-f11c690899af","system_id":"levelo_inurba_marseille","lat":43.299028,"lon":5.381509,"is_reserved":false,"is_disabled":false,"rental_uris":{"android":"levelo://app?vid=61daf056-cdb1-484e-a1f3-f11c690899af","ios":"levelo://app?vid=61daf056-cdb1-484e-a1f3-f11c690899af"},"vehicle_type_id":"4","last_reported":1721322446,"current_range_meters":800,"station_id":"ce4bgj12rcd13ifvqbc0","pricing_plan_id":"cebpf4jnsgd1na2vs0mg"},{"bike_id":"26ded32e-840e-4309-8799-8d7455c51b1b","system_id":"levelo_inurba_marseille","lat":43.317577,"lon":5.390215,"is_reserved":false,"is_disabled":false,"rental_uris":{"android":"levelo://app?vid=26ded32e-840e-4309-8799-8d7455c51b1b","ios":"levelo://app?vid=26ded32e-840e-4309-8799-8d7455c51b1b"},"vehicle_type_id":"4","last_reported":1721322446,"current_range_meters":6000,"station_id":"","pricing_plan_id":"cebpf4jnsgd1na2vs0mg"},{"bike_id":"586b3ab1-620e-46ea-aafc-b3513fe2ffa3","system_id":"levelo_inurba_marseille","lat":43.28039,"lon":5.369297,"is_reserved":false,"is_disabled":false,"rental_uris":{"android":"levelo://app?vid=586b3ab1-620e-46ea-aafc-b3513fe2ffa3","ios":"levelo://app?vid=586b3ab1-620e-46ea-aafc-b3513fe2ffa3"},"vehicle_type_id":"4","last_reported":1721322446,"current_range_meters":12400,"station_id":"ce4bha12rcd13ifvqef0","pricing_plan_id":"cebpf4jnsgd1na2vs0mg"},{"bike_id":"f86aad9e-9935-4d72-9623-71b8382bb1ae","system_id":"levelo_inurba_marseille","lat":43.295748,"lon":5.37522,"is_reserved":false,"is_disabled":false,"rental_uris":{"android":"levelo://app?vid=f86aad9e-9935-4d72-9623-71b8382bb1ae","ios":"levelo://app?vid=f86aad9e-9935-4d72-9623-71b8382bb1ae"},"vehicle_type_id":"4","last_reported":1721322446,"current_range_meters":14800,"station_id":"ce4bgh92rcd13ifvqb50","pricing_plan_id":"cebpf4jnsgd1na2vs0mg"},{"bike_id":"de5c41f7-5b51-44b9-9b13-3ca73b3b8d57","system_id":"levelo_inurba_marseille","lat":43.296263,"lon":5.377094,"is_reserved":false,"is_disabled":false,"rental_uris":{"android":"levelo://app?vid=de5c41f7-5b51-44b9-9b13-3ca73b3b8d57","ios":"levelo://app?vid=de5c41f7-5b51-44b9-9b13-3ca73b3b8d57"},"vehicle_type_id":"4","last_reported":1721322446,"current_range_meters":31200,"station_id":"ce4bgi92rcd13ifvqb90","pricing_plan_id":"cebpf4jnsgd1na2vs0mg"},{"bike_id":"5b8feae7-e4c3-4bb2-873a-36c6f217200f","system_id":"levelo_inurba_marseille","lat":43.29793,"lon":5.38106,"is_reserved":false,"is_disabled":false,"rental_uris":{"android":"levelo://app?vid=5b8feae7-e4c3-4bb2-873a-36c6f217200f","ios":"levelo://app?vid=5b8feae7-e4c3-4bb2-873a-36c6f217200f"},"vehicle_type_id":"4","last_reported":1721322446,"current_range_meters":31200,"station_id":"ce4bgip2rcd13ifvqbb0","pricing_plan_id":"cebpf4jnsgd1na2vs0mg"},{"bike_id":"832992be-1a3e-421a-9f2d-3cb1e286db25","system_id":"levelo_inurba_marseille","lat":43.292749,"lon":5.368398,"is_reserved":false,"is_disabled":false,"rental_uris":{"android":"levelo://app?vid=832992be-1a3e-421a-9f2d-3cb1e286db25","ios":"levelo://app?vid=832992be-1a3e-421a-9f2d-3cb1e286db25"},"vehicle_type_id":"4","last_reported":1721322446,"current_range_meters":6000,"station_id":"ce4bhbp2rcd13ifvqesg","pricing_plan_id":"cebpf4jnsgd1na2vs0mg"},{"bike_id":"012c259c-fbf7-4fd9-8778-9502abc293d7","system_id":"levelo_inurba_marseille","lat":43.29617,"lon":5.37708,"is_reserved":false,"is_disabled":false,"rental_uris":{"android":"levelo://app?vid=012c259c-fbf7-4fd9-8778-9502abc293d7","ios":"levelo://app?vid=012c259c-fbf7-4fd9-8778-9502abc293d7"},"vehicle_type_id":"4","last_reported":1721322446,"current_range_meters":31200,"station_id":"ce4bgi92rcd13ifvqb90","pricing_plan_id":"cebpf4jnsgd1na2vs0mg"},{"bike_id":"2da6e67b-930e-49ce-bc81-d9f525969eb0","system_id":"levelo_inurba_marseille","lat":43.298037,"lon":5.381066,"is_reserved":false,"is_disabled":false,"rental_uris":{"android":"levelo://app?vid=2da6e67b-930e-49ce-bc81-d9f525969eb0","ios":"levelo://app?vid=2da6e67b-930e-49ce-bc81-d9f525969eb0"},"vehicle_type_id":"4","last_reported":1721322446,"current_range_meters":29600,"station_id":"ce4bgip2rcd13ifvqbb0","pricing_plan_id":"cebpf4jnsgd1na2vs0mg"},{"bike_id":"f76e231e-a50e-43de-bf1e-238f365263f7","system_id":"levelo_inurba_marseille","lat":43.2952,"lon":5.37433,"is_reserved":false,"is_disabled":false,"rental_uris":{"android":"levelo://app?vid=f76e231e-a50e-43de-bf1e-238f365263f7","ios":"levelo://app?vid=f76e231e-a50e-43de-bf1e-238f365263f7"},"vehicle_type_id":"4","last_reported":1721322446,"current_range_meters":0,"station_id":"","pricing_plan_id":"cebpf4jnsgd1na2vs0mg"},{"bike_id":"78ae0c44-298e-4152-bf46-1c997f279d23","system_id":"levelo_inurba_marseille","lat":43.299717,"lon":5.384845,"is_reserved":false,"is_disabled":false,"rental_uris":{"android":"levelo://app?vid=78ae0c44-298e-4152-bf46-1c997f279d23","ios":"levelo://app?vid=78ae0c44-298e-4152-bf46-1c997f279d23"},"vehicle_type_id":"4","last_reported":1721322446,"current_range_meters":0,"station_id":"ce4bgj92rcd13ifvqbd0","pricing_plan_id":"cebpf4jnsgd1na2vs0mg"},{"bike_id":"7599d60e-f52e-42e2-9df5-09b05b979864","system_id":"levelo_inurba_marseille","lat":43.299707,"lon":5.384859,"is_reserved":false,"is_disabled":false,"rental_uris":{"android":"levelo://app?vid=7599d60e-f52e-42e2-9df5-09b05b979864","ios":"levelo://app?vid=7599d60e-f52e-42e2-9df5-09b05b979864"},"vehicle_type_id":"4","last_reported":1721322446,"current_range_meters":8000,"station_id":"ce4bgj92rcd13ifvqbd0","pricing_plan_id":"cebpf4jnsgd1na2vs0mg"},{"bike_id":"72f83a80-6bf4-4d0a-b969-618a492a60bd","system_id":"levelo_inurba_marseille","lat":43.299717,"lon":5.384845,"is_reserved":false,"is_disabled":false,"rental_uris":{"android":"levelo://app?vid=72f83a80-6bf4-4d0a-b969-618a492a60bd","ios":"levelo://app?vid=72f83a80-6bf4-4d0a-b969-618a492a60bd"},"vehicle_type_id":"4","last_reported":1721322446,"current_range_meters":21600,"station_id":"ce4bgj92rcd13ifvqbd0","pricing_plan_id":"cebpf4jnsgd1na2vs0mg"},{"bike_id":"18491e9b-089a-423d-92a6-2224fb4ac1cb","system_id":"levelo_inurba_marseille","lat":43.30473,"lon":5.39011,"is_reserved":false,"is_disabled":false,"rental_uris":{"android":"levelo://app?vid=18491e9b-089a-423d-92a6-2224fb4ac1cb","ios":"levelo://app?vid=18491e9b-089a-423d-92a6-2224fb4ac1cb"},"vehicle_type_id":"4","last_reported":1721322446,"current_range_meters":10800,"station_id":"","pricing_plan_id":"cebpf4jnsgd1na2vs0mg"},{"bike_id":"6d028560-c8fa-4c8a-84a8-b7f0fb293162","system_id":"levelo_inurba_marseille","lat":43.29465,"lon":5.37449,"is_reserved":false,"is_disabled":false,"rental_uris":{"android":"levelo://app?vid=6d028560-c8fa-4c8a-84a8-b7f0fb293162","ios":"levelo://app?vid=6d028560-c8fa-4c8a-84a8-b7f0fb293162"},"vehicle_type_id":"4","last_reported":1721322446,"current_range_meters":400,"station_id":"","pricing_plan_id":"cebpf4jnsgd1na2vs0mg"},{"bike_id":"a5017200-41c0-4e4d-b362-9e124234a34a","system_id":"levelo_inurba_marseille","lat":43.301396,"lon":5.387812,"is_reserved":false,"is_disabled":false,"rental_uris":{"android":"levelo://app?vid=a5017200-41c0-4e4d-b362-9e124234a34a","ios":"levelo://app?vid=a5017200-41c0-4e4d-b362-9e124234a34a"},"vehicle_type_id":"4","last_reported":1721322446,"current_range_meters":10000,"station_id":"ce4bghh2rcd13ifvqb60","pricing_plan_id":"cebpf4jnsgd1na2vs0mg"},{"bike_id":"d6f345c3-fc0e-40f5-b339-4d806734b3bd","system_id":"levelo_inurba_marseille","lat":43.301396,"lon":5.387812,"is_reserved":false,"is_disabled":false,"rental_uris":{"android":"levelo://app?vid=d6f345c3-fc0e-40f5-b339-4d806734b3bd","ios":"levelo://app?vid=d6f345c3-fc0e-40f5-b339-4d806734b3bd"},"vehicle_type_id":"4","last_reported":1721322446,"current_range_meters":18000,"station_id":"ce4bghh2rcd13ifvqb60","pricing_plan_id":"cebpf4jnsgd1na2vs0mg"},{"bike_id":"ba514446-4531-4ecf-9c09-350be85521cf","system_id":"levelo_inurba_marseille","lat":43.32367,"lon":5.388836,"is_reserved":false,"is_disabled":false,"rental_uris":{"android":"levelo://app?vid=ba514446-4531-4ecf-9c09-350be85521cf","ios":"levelo://app?vid=ba514446-4531-4ecf-9c09-350be85521cf"},"vehicle_type_id":"4","last_reported":1721322446,"current_range_meters":0,"station_id":"ce4bhqp2rcd13ifvqhog","pricing_plan_id":"cebpf4jnsgd1na2vs0mg"},{"bike_id":"2aeaaab9-ad82-417d-8e44-8375dffaf90a","system_id":"levelo_inurba_marseille","lat":43.30747,"lon":5.39261,"is_reserved":false,"is_disabled":false,"rental_uris":{"android":"levelo://app?vid=2aeaaab9-ad82-417d-8e44-8375dffaf90a","ios":"levelo://app?vid=2aeaaab9-ad82-417d-8e44-8375dffaf90a"},"vehicle_type_id":"4","last_reported":1721322446,"current_range_meters":17600,"station_id":"","pricing_plan_id":"cebpf4jnsgd1na2vs0mg"},{"bike_id":"7a52eb6e-da9e-4f7d-8fd4-b023ddc369d0","system_id":"levelo_inurba_marseille","lat":43.293699,"lon":5.374257,"is_reserved":false,"is_disabled":false,"rental_uris":{"android":"levelo://app?vid=7a52eb6e-da9e-4f7d-8fd4-b023ddc369d0","ios":"levelo://app?vid=7a52eb6e-da9e-4f7d-8fd4-b023ddc369d0"},"vehicle_type_id":"4","last_reported":1721322446,"current_range_meters":0,"station_id":"","pricing_plan_id":"cebpf4jnsgd1na2vs0mg"},{"bike_id":"e9f61170-99ce-4c51-ac26-0cafc52e19c7","system_id":"levelo_inurba_marseille","lat":43.292749,"lon":5.368402,"is_reserved":false,"is_disabled":false,"rental_uris":{"android":"levelo://app?vid=e9f61170-99ce-4c51-ac26-0cafc52e19c7","ios":"levelo://app?vid=e9f61170-99ce-4c51-ac26-0cafc52e19c7"},"vehicle_type_id":"4","last_reported":1721322446,"current_range_meters":0,"station_id":"ce4bhbp2rcd13ifvqesg","pricing_plan_id":"cebpf4jnsgd1na2vs0mg"},{"bike_id":"f366b1ec-6105-4add-a28d-faf536c29866","system_id":"levelo_inurba_marseille","lat":43.292749,"lon":5.368398,"is_reserved":false,"is_disabled":false,"rental_uris":{"android":"levelo://app?vid=f366b1ec-6105-4add-a28d-faf536c29866","ios":"levelo://app?vid=f366b1ec-6105-4add-a28d-faf536c29866"},"vehicle_type_id":"4","last_reported":1721322446,"current_range_meters":21600,"station_id":"ce4bhbp2rcd13ifvqesg","pricing_plan_id":"cebpf4jnsgd1na2vs0mg"},{"bike_id":"01d8bf4f-9a23-468c-bb49-4d0995822d6a","system_id":"levelo_inurba_marseille","lat":43.292749,"lon":5.368402,"is_reserved":false,"is_disabled":false,"rental_uris":{"android":"levelo://app?vid=01d8bf4f-9a23-468c-bb49-4d0995822d6a","ios":"levelo://app?vid=01d8bf4f-9a23-468c-bb49-4d0995822d6a"},"vehicle_type_id":"4","last_reported":1721322446,"current_range_meters":0,"station_id":"ce4bhbp2rcd13ifvqesg","pricing_plan_id":"cebpf4jnsgd1na2vs0mg"},{"bike_id":"8625c394-63d6-45ee-b198-2997b2fabd6c","system_id":"levelo_inurba_marseille","lat":43.292749,"lon":5.368402,"is_reserved":false,"is_disabled":false,"rental_uris":{"android":"levelo://app?vid=8625c394-63d6-45ee-b198-2997b2fabd6c","ios":"levelo://app?vid=8625c394-63d6-45ee-b198-2997b2fabd6c"},"vehicle_type_id":"4","last_reported":1721322446,"current_range_meters":16000,"station_id":"ce4bhbp2rcd13ifvqesg","pricing_plan_id":"cebpf4jnsgd1na2vs0mg"},{"bike_id":"22e86a9d-aaea-4d7e-adc6-cfe3c327d315","system_id":"levelo_inurba_marseille","lat":43.292749,"lon":5.368402,"is_reserved":false,"is_disabled":false,"rental_uris":{"android":"levelo://app?vid=22e86a9d-aaea-4d7e-adc6-cfe3c327d315","ios":"levelo://app?vid=22e86a9d-aaea-4d7e-adc6-cfe3c327d315"},"vehicle_type_id":"4","last_reported":1721322446,"current_range_meters":5600,"station_id":"ce4bhbp2rcd13ifvqesg","pricing_plan_id":"cebpf4jnsgd1na2vs0mg"},{"bike_id":"5c724f45-6d43-455e-9c98-7a05fffbf7b5","system_id":"levelo_inurba_marseille","lat":43.292749,"lon":5.368402,"is_reserved":false,"is_disabled":false,"rental_uris":{"android":"levelo://app?vid=5c724f45-6d43-455e-9c98-7a05fffbf7b5","ios":"levelo://app?vid=5c724f45-6d43-455e-9c98-7a05fffbf7b5"},"vehicle_type_id":"4","last_reported":1721322446,"current_range_meters":0,"station_id":"ce4bhbp2rcd13ifvqesg","pricing_plan_id":"cebpf4jnsgd1na2vs0mg"},{"bike_id":"dc325787-c3b1-4ab2-9b05-4c71cd7aef76","system_id":"levelo_inurba_marseille","lat":43.292749,"lon":5.368402,"is_reserved":false,"is_disabled":false,"rental_uris":{"android":"levelo://app?vid=dc325787-c3b1-4ab2-9b05-4c71cd7aef76","ios":"levelo://app?vid=dc325787-c3b1-4ab2-9b05-4c71cd7aef76"},"vehicle_type_id":"4","last_reported":1721322446,"current_range_meters":0,"station_id":"ce4bhbp2rcd13ifvqesg","pricing_plan_id":"cebpf4jnsgd1na2vs0mg"},{"bike_id":"09b2e318-558f-492d-afe7-4522288eb2af","system_id":"levelo_inurba_marseille","lat":43.29303,"lon":5.37462,"is_reserved":false,"is_disabled":false,"rental_uris":{"android":"levelo://app?vid=09b2e318-558f-492d-afe7-4522288eb2af","ios":"levelo://app?vid=09b2e318-558f-492d-afe7-4522288eb2af"},"vehicle_type_id":"4","last_reported":1721322446,"current_range_meters":0,"station_id":"ce4bgi12rcd13ifvqb70","pricing_plan_id":"cebpf4jnsgd1na2vs0mg"},{"bike_id":"e79822fa-c153-4fec-ad68-a296167e5abe","system_id":"levelo_inurba_marseille","lat":43.293009,"lon":5.374584,"is_reserved":false,"is_disabled":false,"rental_uris":{"android":"levelo://app?vid=e79822fa-c153-4fec-ad68-a296167e5abe","ios":"levelo://app?vid=e79822fa-c153-4fec-ad68-a296167e5abe"},"vehicle_type_id":"4","last_reported":1721322446,"current_range_meters":0,"station_id":"ce4bgi12rcd13ifvqb70","pricing_plan_id":"cebpf4jnsgd1na2vs0mg"},{"bike_id":"5694e188-584a-4a9c-9a45-3a5ffd98655e","system_id":"levelo_inurba_marseille","lat":43.292995,"lon":5.37446,"is_reserved":false,"is_disabled":false,"rental_uris":{"android":"levelo://app?vid=5694e188-584a-4a9c-9a45-3a5ffd98655e","ios":"levelo://app?vid=5694e188-584a-4a9c-9a45-3a5ffd98655e"},"vehicle_type_id":"4","last_reported":1721322446,"current_range_meters":0,"station_id":"ce4bgi12rcd13ifvqb70","pricing_plan_id":"cebpf4jnsgd1na2vs0mg"},{"bike_id":"e0dbeed9-9dd5-4a1f-a3b6-7949b3d41d95","system_id":"levelo_inurba_marseille","lat":43.29301,"lon":5.37454,"is_reserved":false,"is_disabled":false,"rental_uris":{"android":"levelo://app?vid=e0dbeed9-9dd5-4a1f-a3b6-7949b3d41d95","ios":"levelo://app?vid=e0dbeed9-9dd5-4a1f-a3b6-7949b3d41d95"},"vehicle_type_id":"4","last_reported":1721322446,"current_range_meters":0,"station_id":"ce4bgi12rcd13ifvqb70","pricing_plan_id":"cebpf4jnsgd1na2vs0mg"},{"bike_id":"a2f12bab-37fd-4852-a157-0df0a68a354e","system_id":"levelo_inurba_marseille","lat":43.29298,"lon":5.37459,"is_reserved":false,"is_disabled":false,"rental_uris":{"android":"levelo://app?vid=a2f12bab-37fd-4852-a157-0df0a68a354e","ios":"levelo://app?vid=a2f12bab-37fd-4852-a157-0df0a68a354e"},"vehicle_type_id":"4","last_reported":1721322446,"current_range_meters":0,"station_id":"ce4bgi12rcd13ifvqb70","pricing_plan_id":"cebpf4jnsgd1na2vs0mg"},{"bike_id":"12b8459a-6a87-4648-bb13-5fdd4422523f","system_id":"levelo_inurba_marseille","lat":43.29295,"lon":5.37449,"is_reserved":false,"is_disabled":false,"rental_uris":{"android":"levelo://app?vid=12b8459a-6a87-4648-bb13-5fdd4422523f","ios":"levelo://app?vid=12b8459a-6a87-4648-bb13-5fdd4422523f"},"vehicle_type_id":"4","last_reported":1721322446,"current_range_meters":20400,"station_id":"ce4bgi12rcd13ifvqb70","pricing_plan_id":"cebpf4jnsgd1na2vs0mg"},{"bike_id":"50b4bc62-e081-459b-a768-10947d07eed0","system_id":"levelo_inurba_marseille","lat":43.293009,"lon":5.374584,"is_reserved":false,"is_disabled":false,"rental_uris":{"android":"levelo://app?vid=50b4bc62-e081-459b-a768-10947d07eed0","ios":"levelo://app?vid=50b4bc62-e081-459b-a768-10947d07eed0"},"vehicle_type_id":"4","last_reported":1721322446,"current_range_meters":30000,"station_id":"ce4bgi12rcd13ifvqb70","pricing_plan_id":"cebpf4jnsgd1na2vs0mg"},{"bike_id":"b4a9df49-b983-4d00-ae21-ea4b739fcf0b","system_id":"levelo_inurba_marseille","lat":43.29289,"lon":5.37467,"is_reserved":false,"is_disabled":false,"rental_uris":{"android":"levelo://app?vid=b4a9df49-b983-4d00-ae21-ea4b739fcf0b","ios":"levelo://app?vid=b4a9df49-b983-4d00-ae21-ea4b739fcf0b"},"vehicle_type_id":"4","last_reported":1721322446,"current_range_meters":0,"station_id":"ce4bgi12rcd13ifvqb70","pricing_plan_id":"cebpf4jnsgd1na2vs0mg"},{"bike_id":"dac73832-5d25-46d4-b885-db7ad7ab4e0a","system_id":"levelo_inurba_marseille","lat":43.2936,"lon":5.37835,"is_reserved":false,"is_disabled":false,"rental_uris":{"android":"levelo://app?vid=dac73832-5d25-46d4-b885-db7ad7ab4e0a","ios":"levelo://app?vid=dac73832-5d25-46d4-b885-db7ad7ab4e0a"},"vehicle_type_id":"4","last_reported":1721322446,"current_range_meters":0,"station_id":"ce4bgjh2rcd13ifvqbf0","pricing_plan_id":"cebpf4jnsgd1na2vs0mg"},{"bike_id":"99acf81d-3be9-4b3b-823e-16622bd17da1","system_id":"levelo_inurba_marseille","lat":43.2936,"lon":5.37835,"is_reserved":false,"is_disabled":false,"rental_uris":{"android":"levelo://app?vid=99acf81d-3be9-4b3b-823e-16622bd17da1","ios":"levelo://app?vid=99acf81d-3be9-4b3b-823e-16622bd17da1"},"vehicle_type_id":"4","last_reported":1721322446,"current_range_meters":0,"station_id":"ce4bgjh2rcd13ifvqbf0","pricing_plan_id":"cebpf4jnsgd1na2vs0mg"},{"bike_id":"ba48c684-d79e-4006-9c67-cd72e63d185a","system_id":"levelo_inurba_marseille","lat":43.2936,"lon":5.37835,"is_reserved":false,"is_disabled":false,"rental_uris":{"android":"levelo://app?vid=ba48c684-d79e-4006-9c67-cd72e63d185a","ios":"levelo://app?vid=ba48c684-d79e-4006-9c67-cd72e63d185a"},"vehicle_type_id":"4","last_reported":1721322446,"current_range_meters":19200,"station_id":"ce4bgjh2rcd13ifvqbf0","pricing_plan_id":"cebpf4jnsgd1na2vs0mg"},{"bike_id":"a648ec4e-4ddc-4fb8-92fc-3f9bfe5ba9d6","system_id":"levelo_inurba_marseille","lat":43.313291,"lon":5.396838,"is_reserved":false,"is_disabled":false,"rental_uris":{"android":"levelo://app?vid=a648ec4e-4ddc-4fb8-92fc-3f9bfe5ba9d6","ios":"levelo://app?vid=a648ec4e-4ddc-4fb8-92fc-3f9bfe5ba9d6"},"vehicle_type_id":"4","last_reported":1721322446,"current_range_meters":10800,"station_id":"ce4bgvp2rcd13ifvqcu0","pricing_plan_id":"cebpf4jnsgd1na2vs0mg"},{"bike_id":"7c0c9bb6-80c6-4180-9448-923fbe56ded2","system_id":"levelo_inurba_marseille","lat":43.295345,"lon":5.385479,"is_reserved":false,"is_disabled":false,"rental_uris":{"android":"levelo://app?vid=7c0c9bb6-80c6-4180-9448-923fbe56ded2","ios":"levelo://app?vid=7c0c9bb6-80c6-4180-9448-923fbe56ded2"},"vehicle_type_id":"4","last_reported":1721322446,"current_range_meters":0,"station_id":"ce4bgih2rcd13ifvqba0","pricing_plan_id":"cebpf4jnsgd1na2vs0mg"},{"bike_id":"7464beb7-fe52-4322-8544-8518dfab0ebe","system_id":"levelo_inurba_marseille","lat":43.290631,"lon":5.359244,"is_reserved":false,"is_disabled":false,"rental_uris":{"android":"levelo://app?vid=7464beb7-fe52-4322-8544-8518dfab0ebe","ios":"levelo://app?vid=7464beb7-fe52-4322-8544-8518dfab0ebe"},"vehicle_type_id":"4","last_reported":1721322446,"current_range_meters":3200,"station_id":"ce4bha92rcd13ifvqeg0","pricing_plan_id":"cebpf4jnsgd1na2vs0mg"},{"bike_id":"38732623-1131-48be-b178-c6ac106ffc18","system_id":"levelo_inurba_marseille","lat":43.294162,"lon":5.386292,"is_reserved":false,"is_disabled":false,"rental_uris":{"android":"levelo://app?vid=38732623-1131-48be-b178-c6ac106ffc18","ios":"levelo://app?vid=38732623-1131-48be-b178-c6ac106ffc18"},"vehicle_type_id":"4","last_reported":1721322446,"current_range_meters":1200,"station_id":"ce4bh2h2rcd13ifvqdh0","pricing_plan_id":"cebpf4jnsgd1na2vs0mg"},{"bike_id":"a44c44db-803b-4d45-8ab7-7fc0033822f1","system_id":"levelo_inurba_marseille","lat":43.289184,"lon":5.366408,"is_reserved":false,"is_disabled":false,"rental_uris":{"android":"levelo://app?vid=a44c44db-803b-4d45-8ab7-7fc0033822f1","ios":"levelo://app?vid=a44c44db-803b-4d45-8ab7-7fc0033822f1"},"vehicle_type_id":"4","last_reported":1721322446,"current_range_meters":16000,"station_id":"ce4bhap2rcd13ifvqek0","pricing_plan_id":"cebpf4jnsgd1na2vs0mg"},{"bike_id":"7781129f-74ca-42c1-9486-50fb63c4fe69","system_id":"levelo_inurba_marseille","lat":43.289184,"lon":5.366408,"is_reserved":false,"is_disabled":false,"rental_uris":{"android":"levelo://app?vid=7781129f-74ca-42c1-9486-50fb63c4fe69","ios":"levelo://app?vid=7781129f-74ca-42c1-9486-50fb63c4fe69"},"vehicle_type_id":"4","last_reported":1721322446,"current_range_meters":0,"station_id":"ce4bhap2rcd13ifvqek0","pricing_plan_id":"cebpf4jnsgd1na2vs0mg"},{"bike_id":"93201d9d-6402-474b-af86-c0d188eaff19","system_id":"levelo_inurba_marseille","lat":43.289468,"lon":5.363719,"is_reserved":false,"is_disabled":false,"rental_uris":{"android":"levelo://app?vid=93201d9d-6402-474b-af86-c0d188eaff19","ios":"levelo://app?vid=93201d9d-6402-474b-af86-c0d188eaff19"},"vehicle_type_id":"4","last_reported":1721322446,"current_range_meters":1600,"station_id":"ce4bhc92rcd13ifvqetg","pricing_plan_id":"cebpf4jnsgd1na2vs0mg"},{"bike_id":"f0749434-c583-489d-8695-5d96a72fbdbe","system_id":"levelo_inurba_marseille","lat":43.289184,"lon":5.366408,"is_reserved":false,"is_disabled":false,"rental_uris":{"android":"levelo://app?vid=f0749434-c583-489d-8695-5d96a72fbdbe","ios":"levelo://app?vid=f0749434-c583-489d-8695-5d96a72fbdbe"},"vehicle_type_id":"4","last_reported":1721322446,"current_range_meters":6800,"station_id":"ce4bhap2rcd13ifvqek0","pricing_plan_id":"cebpf4jnsgd1na2vs0mg"},{"bike_id":"d5846c04-6969-4748-a489-9c2c8f1760da","system_id":"levelo_inurba_marseille","lat":43.289184,"lon":5.366408,"is_reserved":false,"is_disabled":false,"rental_uris":{"android":"levelo://app?vid=d5846c04-6969-4748-a489-9c2c8f1760da","ios":"levelo://app?vid=d5846c04-6969-4748-a489-9c2c8f1760da"},"vehicle_type_id":"4","last_reported":1721322446,"current_range_meters":26000,"station_id":"ce4bhap2rcd13ifvqek0","pricing_plan_id":"cebpf4jnsgd1na2vs0mg"},{"bike_id":"07842aab-9c00-473f-b953-721373320006","system_id":"levelo_inurba_marseille","lat":43.289184,"lon":5.366408,"is_reserved":false,"is_disabled":false,"rental_uris":{"android":"levelo://app?vid=07842aab-9c00-473f-b953-721373320006","ios":"levelo://app?vid=07842aab-9c00-473f-b953-721373320006"},"vehicle_type_id":"4","last_reported":1721322446,"current_range_meters":14400,"station_id":"ce4bhap2rcd13ifvqek0","pricing_plan_id":"cebpf4jnsgd1na2vs0mg"},{"bike_id":"fcac7c59-6773-46e3-aede-380938130774","system_id":"levelo_inurba_marseille","lat":43.289184,"lon":5.366408,"is_reserved":false,"is_disabled":false,"rental_uris":{"android":"levelo://app?vid=fcac7c59-6773-46e3-aede-380938130774","ios":"levelo://app?vid=fcac7c59-6773-46e3-aede-380938130774"},"vehicle_type_id":"4","last_reported":1721322446,"current_range_meters":2000,"station_id":"ce4bhap2rcd13ifvqek0","pricing_plan_id":"cebpf4jnsgd1na2vs0mg"},{"bike_id":"5433bd93-5d92-4cb8-8fe1-8d5b40ac5ea3","system_id":"levelo_inurba_marseille","lat":43.289184,"lon":5.366408,"is_reserved":false,"is_disabled":false,"rental_uris":{"android":"levelo://app?vid=5433bd93-5d92-4cb8-8fe1-8d5b40ac5ea3","ios":"levelo://app?vid=5433bd93-5d92-4cb8-8fe1-8d5b40ac5ea3"},"vehicle_type_id":"4","last_reported":1721322446,"current_range_meters":1200,"station_id":"ce4bhap2rcd13ifvqek0","pricing_plan_id":"cebpf4jnsgd1na2vs0mg"},{"bike_id":"5cfa92f9-42e1-4395-8a90-c0b6057edf12","system_id":"levelo_inurba_marseille","lat":43.289184,"lon":5.366408,"is_reserved":false,"is_disabled":false,"rental_uris":{"android":"levelo://app?vid=5cfa92f9-42e1-4395-8a90-c0b6057edf12","ios":"levelo://app?vid=5cfa92f9-42e1-4395-8a90-c0b6057edf12"},"vehicle_type_id":"4","last_reported":1721322446,"current_range_meters":8800,"station_id":"ce4bhap2rcd13ifvqek0","pricing_plan_id":"cebpf4jnsgd1na2vs0mg"},{"bike_id":"5c78d3ed-d0c3-44ec-9778-318e4c1fe6c4","system_id":"levelo_inurba_marseille","lat":43.289184,"lon":5.366408,"is_reserved":false,"is_disabled":false,"rental_uris":{"android":"levelo://app?vid=5c78d3ed-d0c3-44ec-9778-318e4c1fe6c4","ios":"levelo://app?vid=5c78d3ed-d0c3-44ec-9778-318e4c1fe6c4"},"vehicle_type_id":"4","last_reported":1721322446,"current_range_meters":17600,"station_id":"ce4bhap2rcd13ifvqek0","pricing_plan_id":"cebpf4jnsgd1na2vs0mg"},{"bike_id":"48968b10-2a62-4978-9414-05b2a535ebb7","system_id":"levelo_inurba_marseille","lat":43.289184,"lon":5.366408,"is_reserved":false,"is_disabled":false,"rental_uris":{"android":"levelo://app?vid=48968b10-2a62-4978-9414-05b2a535ebb7","ios":"levelo://app?vid=48968b10-2a62-4978-9414-05b2a535ebb7"},"vehicle_type_id":"4","last_reported":1721322446,"current_range_meters":0,"station_id":"ce4bhap2rcd13ifvqek0","pricing_plan_id":"cebpf4jnsgd1na2vs0mg"},{"bike_id":"5dd4270c-7ba3-4ee2-955d-1dd15f25dfc1","system_id":"levelo_inurba_marseille","lat":43.289184,"lon":5.366408,"is_reserved":false,"is_disabled":false,"rental_uris":{"android":"levelo://app?vid=5dd4270c-7ba3-4ee2-955d-1dd15f25dfc1","ios":"levelo://app?vid=5dd4270c-7ba3-4ee2-955d-1dd15f25dfc1"},"vehicle_type_id":"4","last_reported":1721322446,"current_range_meters":12800,"station_id":"ce4bhap2rcd13ifvqek0","pricing_plan_id":"cebpf4jnsgd1na2vs0mg"},{"bike_id":"eaae701d-ccef-4a8f-acd3-eaf943d9b750","system_id":"levelo_inurba_marseille","lat":43.29267,"lon":5.38445,"is_reserved":false,"is_disabled":false,"rental_uris":{"android":"levelo://app?vid=eaae701d-ccef-4a8f-acd3-eaf943d9b750","ios":"levelo://app?vid=eaae701d-ccef-4a8f-acd3-eaf943d9b750"},"vehicle_type_id":"4","last_reported":1721322446,"current_range_meters":0,"station_id":"ce4bh692rcd13ifvqea0","pricing_plan_id":"cebpf4jnsgd1na2vs0mg"},{"bike_id":"615cc1ed-ebff-4049-bbc3-61537dda5248","system_id":"levelo_inurba_marseille","lat":43.29266,"lon":5.38443,"is_reserved":false,"is_disabled":false,"rental_uris":{"android":"levelo://app?vid=615cc1ed-ebff-4049-bbc3-61537dda5248","ios":"levelo://app?vid=615cc1ed-ebff-4049-bbc3-61537dda5248"},"vehicle_type_id":"4","last_reported":1721322446,"current_range_meters":3600,"station_id":"ce4bh692rcd13ifvqea0","pricing_plan_id":"cebpf4jnsgd1na2vs0mg"},{"bike_id":"e38c0ef8-0492-4f21-9860-f992889815f6","system_id":"levelo_inurba_marseille","lat":43.29263,"lon":5.3844,"is_reserved":false,"is_disabled":false,"rental_uris":{"android":"levelo://app?vid=e38c0ef8-0492-4f21-9860-f992889815f6","ios":"levelo://app?vid=e38c0ef8-0492-4f21-9860-f992889815f6"},"vehicle_type_id":"4","last_reported":1721322446,"current_range_meters":22800,"station_id":"ce4bh692rcd13ifvqea0","pricing_plan_id":"cebpf4jnsgd1na2vs0mg"},{"bike_id":"386c5a11-8f8a-4272-9bbf-9d8ef8aa225d","system_id":"levelo_inurba_marseille","lat":43.29247,"lon":5.38422,"is_reserved":false,"is_disabled":false,"rental_uris":{"android":"levelo://app?vid=386c5a11-8f8a-4272-9bbf-9d8ef8aa225d","ios":"levelo://app?vid=386c5a11-8f8a-4272-9bbf-9d8ef8aa225d"},"vehicle_type_id":"4","last_reported":1721322446,"current_range_meters":26400,"station_id":"ce4bh692rcd13ifvqea0","pricing_plan_id":"cebpf4jnsgd1na2vs0mg"},{"bike_id":"26fda2a7-b761-467c-8c55-3226afe1a7d8","system_id":"levelo_inurba_marseille","lat":43.29259,"lon":5.38454,"is_reserved":false,"is_disabled":false,"rental_uris":{"android":"levelo://app?vid=26fda2a7-b761-467c-8c55-3226afe1a7d8","ios":"levelo://app?vid=26fda2a7-b761-467c-8c55-3226afe1a7d8"},"vehicle_type_id":"4","last_reported":1721322446,"current_range_meters":0,"station_id":"ce4bh692rcd13ifvqea0","pricing_plan_id":"cebpf4jnsgd1na2vs0mg"},{"bike_id":"dfb6b39b-3b6a-44cd-b033-caaee42be8e8","system_id":"levelo_inurba_marseille","lat":43.290104,"lon":5.356111,"is_reserved":false,"is_disabled":false,"rental_uris":{"android":"levelo://app?vid=dfb6b39b-3b6a-44cd-b033-caaee42be8e8","ios":"levelo://app?vid=dfb6b39b-3b6a-44cd-b033-caaee42be8e8"},"vehicle_type_id":"4","last_reported":1721322446,"current_range_meters":0,"station_id":"ce4bhb92rcd13ifvqen0","pricing_plan_id":"cebpf4jnsgd1na2vs0mg"},{"bike_id":"128365c9-c1a5-4fc7-b597-51bf5c77dec5","system_id":"levelo_inurba_marseille","lat":43.290103,"lon":5.356114,"is_reserved":false,"is_disabled":false,"rental_uris":{"android":"levelo://app?vid=128365c9-c1a5-4fc7-b597-51bf5c77dec5","ios":"levelo://app?vid=128365c9-c1a5-4fc7-b597-51bf5c77dec5"},"vehicle_type_id":"4","last_reported":1721322446,"current_range_meters":0,"station_id":"ce4bhb92rcd13ifvqen0","pricing_plan_id":"cebpf4jnsgd1na2vs0mg"},{"bike_id":"40479bb3-6af0-4069-9f88-9b0715bee964","system_id":"levelo_inurba_marseille","lat":43.297807,"lon":5.393533,"is_reserved":false,"is_disabled":false,"rental_uris":{"android":"levelo://app?vid=40479bb3-6af0-4069-9f88-9b0715bee964","ios":"levelo://app?vid=40479bb3-6af0-4069-9f88-9b0715bee964"},"vehicle_type_id":"4","last_reported":1721322446,"current_range_meters":31200,"station_id":"chh1huq6cuj3fo74tm60","pricing_plan_id":"cebpf4jnsgd1na2vs0mg"},{"bike_id":"ed112ec8-2773-4a4d-929f-9da86034dc60","system_id":"levelo_inurba_marseille","lat":43.330442,"lon":5.389148,"is_reserved":false,"is_disabled":false,"rental_uris":{"android":"levelo://app?vid=ed112ec8-2773-4a4d-929f-9da86034dc60","ios":"levelo://app?vid=ed112ec8-2773-4a4d-929f-9da86034dc60"},"vehicle_type_id":"4","last_reported":1721322446,"current_range_meters":0,"station_id":"ce4bhr92rcd13ifvqhrg","pricing_plan_id":"cebpf4jnsgd1na2vs0mg"},{"bike_id":"5dd6c576-7054-43d9-9b60-72e4bb744e2e","system_id":"levelo_inurba_marseille","lat":43.295169,"lon":5.390426,"is_reserved":false,"is_disabled":false,"rental_uris":{"android":"levelo://app?vid=5dd6c576-7054-43d9-9b60-72e4bb744e2e","ios":"levelo://app?vid=5dd6c576-7054-43d9-9b60-72e4bb744e2e"},"vehicle_type_id":"4","last_reported":1721322446,"current_range_meters":0,"station_id":"ce4bh3p2rcd13ifvqdp0","pricing_plan_id":"cebpf4jnsgd1na2vs0mg"},{"bike_id":"6a929b33-ec90-4296-b118-82fdcb4e425b","system_id":"levelo_inurba_marseille","lat":43.330442,"lon":5.389148,"is_reserved":false,"is_disabled":false,"rental_uris":{"android":"levelo://app?vid=6a929b33-ec90-4296-b118-82fdcb4e425b","ios":"levelo://app?vid=6a929b33-ec90-4296-b118-82fdcb4e425b"},"vehicle_type_id":"4","last_reported":1721322446,"current_range_meters":800,"station_id":"ce4bhr92rcd13ifvqhrg","pricing_plan_id":"cebpf4jnsgd1na2vs0mg"},{"bike_id":"d79d67a1-5ba7-43a1-af3b-5c5a1c6d42a0","system_id":"levelo_inurba_marseille","lat":43.330442,"lon":5.389148,"is_reserved":false,"is_disabled":false,"rental_uris":{"android":"levelo://app?vid=d79d67a1-5ba7-43a1-af3b-5c5a1c6d42a0","ios":"levelo://app?vid=d79d67a1-5ba7-43a1-af3b-5c5a1c6d42a0"},"vehicle_type_id":"4","last_reported":1721322446,"current_range_meters":32000,"station_id":"ce4bhr92rcd13ifvqhrg","pricing_plan_id":"cebpf4jnsgd1na2vs0mg"},{"bike_id":"fb2ee4f0-a946-4fb2-b7f8-3b5ffc83e1f1","system_id":"levelo_inurba_marseille","lat":43.295169,"lon":5.390426,"is_reserved":false,"is_disabled":false,"rental_uris":{"android":"levelo://app?vid=fb2ee4f0-a946-4fb2-b7f8-3b5ffc83e1f1","ios":"levelo://app?vid=fb2ee4f0-a946-4fb2-b7f8-3b5ffc83e1f1"},"vehicle_type_id":"4","last_reported":1721322446,"current_range_meters":0,"station_id":"ce4bh3p2rcd13ifvqdp0","pricing_plan_id":"cebpf4jnsgd1na2vs0mg"},{"bike_id":"2f2dd33d-1de6-46ae-bc90-5a5ad622b6ae","system_id":"levelo_inurba_marseille","lat":43.330442,"lon":5.389148,"is_reserved":false,"is_disabled":false,"rental_uris":{"android":"levelo://app?vid=2f2dd33d-1de6-46ae-bc90-5a5ad622b6ae","ios":"levelo://app?vid=2f2dd33d-1de6-46ae-bc90-5a5ad622b6ae"},"vehicle_type_id":"4","last_reported":1721322446,"current_range_meters":9200,"station_id":"ce4bhr92rcd13ifvqhrg","pricing_plan_id":"cebpf4jnsgd1na2vs0mg"},{"bike_id":"25e3f1c0-4992-4380-b070-a5c25ba7c9ca","system_id":"levelo_inurba_marseille","lat":43.330442,"lon":5.389148,"is_reserved":false,"is_disabled":false,"rental_uris":{"android":"levelo://app?vid=25e3f1c0-4992-4380-b070-a5c25ba7c9ca","ios":"levelo://app?vid=25e3f1c0-4992-4380-b070-a5c25ba7c9ca"},"vehicle_type_id":"4","last_reported":1721322446,"current_range_meters":12000,"station_id":"ce4bhr92rcd13ifvqhrg","pricing_plan_id":"cebpf4jnsgd1na2vs0mg"},{"bike_id":"33e0984a-2a7c-4084-a5c6-ce19ae236c9f","system_id":"levelo_inurba_marseille","lat":43.295169,"lon":5.390426,"is_reserved":false,"is_disabled":false,"rental_uris":{"android":"levelo://app?vid=33e0984a-2a7c-4084-a5c6-ce19ae236c9f","ios":"levelo://app?vid=33e0984a-2a7c-4084-a5c6-ce19ae236c9f"},"vehicle_type_id":"4","last_reported":1721322446,"current_range_meters":0,"station_id":"ce4bh3p2rcd13ifvqdp0","pricing_plan_id":"cebpf4jnsgd1na2vs0mg"},{"bike_id":"8894b11d-8549-4402-95b2-b8fd7d12018c","system_id":"levelo_inurba_marseille","lat":43.29029,"lon":5.38146,"is_reserved":false,"is_disabled":false,"rental_uris":{"android":"levelo://app?vid=8894b11d-8549-4402-95b2-b8fd7d12018c","ios":"levelo://app?vid=8894b11d-8549-4402-95b2-b8fd7d12018c"},"vehicle_type_id":"4","last_reported":1721322446,"current_range_meters":0,"station_id":"ce4bh4p2rcd13ifvqe1g","pricing_plan_id":"cebpf4jnsgd1na2vs0mg"},{"bike_id":"0f2d3253-ef9d-4a8e-8b7e-c4a6ef417441","system_id":"levelo_inurba_marseille","lat":43.288511,"lon":5.358543,"is_reserved":false,"is_disabled":false,"rental_uris":{"android":"levelo://app?vid=0f2d3253-ef9d-4a8e-8b7e-c4a6ef417441","ios":"levelo://app?vid=0f2d3253-ef9d-4a8e-8b7e-c4a6ef417441"},"vehicle_type_id":"4","last_reported":1721322446,"current_range_meters":30800,"station_id":"","pricing_plan_id":"cebpf4jnsgd1na2vs0mg"},{"bike_id":"8949b9f7-2d2b-47e0-aaf5-824e07d3d4c1","system_id":"levelo_inurba_marseille","lat":43.309371,"lon":5.401449,"is_reserved":false,"is_disabled":false,"rental_uris":{"android":"levelo://app?vid=8949b9f7-2d2b-47e0-aaf5-824e07d3d4c1","ios":"levelo://app?vid=8949b9f7-2d2b-47e0-aaf5-824e07d3d4c1"},"vehicle_type_id":"4","last_reported":1721322446,"current_range_meters":8800,"station_id":"ce4bgvp2rcd13ifvqct0","pricing_plan_id":"cebpf4jnsgd1na2vs0mg"},{"bike_id":"7028a75c-02a8-49b1-8d7f-cb854888c1a9","system_id":"levelo_inurba_marseille","lat":43.30927,"lon":5.40138,"is_reserved":false,"is_disabled":false,"rental_uris":{"android":"levelo://app?vid=7028a75c-02a8-49b1-8d7f-cb854888c1a9","ios":"levelo://app?vid=7028a75c-02a8-49b1-8d7f-cb854888c1a9"},"vehicle_type_id":"4","last_reported":1721322446,"current_range_meters":0,"station_id":"ce4bgvp2rcd13ifvqct0","pricing_plan_id":"cebpf4jnsgd1na2vs0mg"},{"bike_id":"fc1985b8-5314-41fe-8e24-abd61fd01251","system_id":"levelo_inurba_marseille","lat":43.337466,"lon":5.374604,"is_reserved":false,"is_disabled":false,"rental_uris":{"android":"levelo://app?vid=fc1985b8-5314-41fe-8e24-abd61fd01251","ios":"levelo://app?vid=fc1985b8-5314-41fe-8e24-abd61fd01251"},"vehicle_type_id":"4","last_reported":1721322446,"current_range_meters":28000,"station_id":"","pricing_plan_id":"cebpf4jnsgd1na2vs0mg"},{"bike_id":"241d666c-dfd7-4426-8dfc-fba405eb68f7","system_id":"levelo_inurba_marseille","lat":43.337523,"lon":5.37445,"is_reserved":false,"is_disabled":false,"rental_uris":{"android":"levelo://app?vid=241d666c-dfd7-4426-8dfc-fba405eb68f7","ios":"levelo://app?vid=241d666c-dfd7-4426-8dfc-fba405eb68f7"},"vehicle_type_id":"4","last_reported":1721322446,"current_range_meters":30800,"station_id":"","pricing_plan_id":"cebpf4jnsgd1na2vs0mg"},{"bike_id":"10596a36-7342-43d6-bc7f-04036d8a160b","system_id":"levelo_inurba_marseille","lat":43.33755,"lon":5.37444,"is_reserved":false,"is_disabled":false,"rental_uris":{"android":"levelo://app?vid=10596a36-7342-43d6-bc7f-04036d8a160b","ios":"levelo://app?vid=10596a36-7342-43d6-bc7f-04036d8a160b"},"vehicle_type_id":"4","last_reported":1721322446,"current_range_meters":10400,"station_id":"","pricing_plan_id":"cebpf4jnsgd1na2vs0mg"},{"bike_id":"8cbba9d7-8f80-4a33-a97d-d5654d8e6dee","system_id":"levelo_inurba_marseille","lat":43.337558,"lon":5.374492,"is_reserved":false,"is_disabled":false,"rental_uris":{"android":"levelo://app?vid=8cbba9d7-8f80-4a33-a97d-d5654d8e6dee","ios":"levelo://app?vid=8cbba9d7-8f80-4a33-a97d-d5654d8e6dee"},"vehicle_type_id":"4","last_reported":1721322446,"current_range_meters":6800,"station_id":"","pricing_plan_id":"cebpf4jnsgd1na2vs0mg"},{"bike_id":"3b3dae0a-66bb-4a95-9083-9afce2248bf6","system_id":"levelo_inurba_marseille","lat":43.337557,"lon":5.374567,"is_reserved":false,"is_disabled":false,"rental_uris":{"android":"levelo://app?vid=3b3dae0a-66bb-4a95-9083-9afce2248bf6","ios":"levelo://app?vid=3b3dae0a-66bb-4a95-9083-9afce2248bf6"},"vehicle_type_id":"4","last_reported":1721322446,"current_range_meters":29200,"station_id":"","pricing_plan_id":"cebpf4jnsgd1na2vs0mg"},{"bike_id":"0f196da3-1e41-4ce7-9c72-94f59cf0d9bf","system_id":"levelo_inurba_marseille","lat":43.306412,"lon":5.401035,"is_reserved":false,"is_disabled":false,"rental_uris":{"android":"levelo://app?vid=0f196da3-1e41-4ce7-9c72-94f59cf0d9bf","ios":"levelo://app?vid=0f196da3-1e41-4ce7-9c72-94f59cf0d9bf"},"vehicle_type_id":"4","last_reported":1721322446,"current_range_meters":4000,"station_id":"ce4bh112rcd13ifvqda0","pricing_plan_id":"cebpf4jnsgd1na2vs0mg"},{"bike_id":"ac377a63-6a02-42fa-8a70-d5bb9b7546c9","system_id":"levelo_inurba_marseille","lat":43.337643,"lon":5.374326,"is_reserved":false,"is_disabled":false,"rental_uris":{"android":"levelo://app?vid=ac377a63-6a02-42fa-8a70-d5bb9b7546c9","ios":"levelo://app?vid=ac377a63-6a02-42fa-8a70-d5bb9b7546c9"},"vehicle_type_id":"4","last_reported":1721322446,"current_range_meters":29200,"station_id":"","pricing_plan_id":"cebpf4jnsgd1na2vs0mg"},{"bike_id":"0332d023-1a84-46bb-9d50-5cfeaed1610e","system_id":"levelo_inurba_marseille","lat":43.33765,"lon":5.374768,"is_reserved":false,"is_disabled":false,"rental_uris":{"android":"levelo://app?vid=0332d023-1a84-46bb-9d50-5cfeaed1610e","ios":"levelo://app?vid=0332d023-1a84-46bb-9d50-5cfeaed1610e"},"vehicle_type_id":"4","last_reported":1721322446,"current_range_meters":4400,"station_id":"","pricing_plan_id":"cebpf4jnsgd1na2vs0mg"},{"bike_id":"b5f84fb0-09bb-4914-b36d-004ae4988198","system_id":"levelo_inurba_marseille","lat":43.33769,"lon":5.374615,"is_reserved":false,"is_disabled":false,"rental_uris":{"android":"levelo://app?vid=b5f84fb0-09bb-4914-b36d-004ae4988198","ios":"levelo://app?vid=b5f84fb0-09bb-4914-b36d-004ae4988198"},"vehicle_type_id":"4","last_reported":1721322446,"current_range_meters":3600,"station_id":"","pricing_plan_id":"cebpf4jnsgd1na2vs0mg"},{"bike_id":"f55e91aa-ebf4-458b-a117-e13233208d1a","system_id":"levelo_inurba_marseille","lat":43.33041,"lon":5.39233,"is_reserved":false,"is_disabled":false,"rental_uris":{"android":"levelo://app?vid=f55e91aa-ebf4-458b-a117-e13233208d1a","ios":"levelo://app?vid=f55e91aa-ebf4-458b-a117-e13233208d1a"},"vehicle_type_id":"4","last_reported":1721322446,"current_range_meters":6400,"station_id":"","pricing_plan_id":"cebpf4jnsgd1na2vs0mg"},{"bike_id":"3c78c10d-ecde-4a76-8ff0-05cdc4e90368","system_id":"levelo_inurba_marseille","lat":43.33775,"lon":5.37469,"is_reserved":false,"is_disabled":false,"rental_uris":{"android":"levelo://app?vid=3c78c10d-ecde-4a76-8ff0-05cdc4e90368","ios":"levelo://app?vid=3c78c10d-ecde-4a76-8ff0-05cdc4e90368"},"vehicle_type_id":"4","last_reported":1721322446,"current_range_meters":16400,"station_id":"","pricing_plan_id":"cebpf4jnsgd1na2vs0mg"},{"bike_id":"5f95946b-a2c4-4016-b538-ee1482d32976","system_id":"levelo_inurba_marseille","lat":43.301117,"lon":5.398795,"is_reserved":false,"is_disabled":false,"rental_uris":{"android":"levelo://app?vid=5f95946b-a2c4-4016-b538-ee1482d32976","ios":"levelo://app?vid=5f95946b-a2c4-4016-b538-ee1482d32976"},"vehicle_type_id":"4","last_reported":1721322446,"current_range_meters":2400,"station_id":"ce4bh0h2rcd13ifvqd40","pricing_plan_id":"cebpf4jnsgd1na2vs0mg"},{"bike_id":"91cf134a-b89e-4b14-a823-d79b0db6610e","system_id":"levelo_inurba_marseille","lat":43.28727,"lon":5.36078,"is_reserved":false,"is_disabled":false,"rental_uris":{"android":"levelo://app?vid=91cf134a-b89e-4b14-a823-d79b0db6610e","ios":"levelo://app?vid=91cf134a-b89e-4b14-a823-d79b0db6610e"},"vehicle_type_id":"4","last_reported":1721322446,"current_range_meters":800,"station_id":"cki0cbj6b192h4jlfktg","pricing_plan_id":"cebpf4jnsgd1na2vs0mg"},{"bike_id":"853a2d59-71c0-4eaf-8f7a-89030384b7aa","system_id":"levelo_inurba_marseille","lat":43.298681,"lon":5.397225,"is_reserved":false,"is_disabled":false,"rental_uris":{"android":"levelo://app?vid=853a2d59-71c0-4eaf-8f7a-89030384b7aa","ios":"levelo://app?vid=853a2d59-71c0-4eaf-8f7a-89030384b7aa"},"vehicle_type_id":"4","last_reported":1721322446,"current_range_meters":2000,"station_id":"ce4bh0h2rcd13ifvqd50","pricing_plan_id":"cebpf4jnsgd1na2vs0mg"},{"bike_id":"d4c49732-2fe7-4b6c-80bb-fa510a8a2335","system_id":"levelo_inurba_marseille","lat":43.286591,"lon":5.363346,"is_reserved":false,"is_disabled":false,"rental_uris":{"android":"levelo://app?vid=d4c49732-2fe7-4b6c-80bb-fa510a8a2335","ios":"levelo://app?vid=d4c49732-2fe7-4b6c-80bb-fa510a8a2335"},"vehicle_type_id":"4","last_reported":1721322446,"current_range_meters":30000,"station_id":"ce4bhah2rcd13ifvqej0","pricing_plan_id":"cebpf4jnsgd1na2vs0mg"},{"bike_id":"d2c67605-341c-4a87-b631-adb0a1385817","system_id":"levelo_inurba_marseille","lat":43.286591,"lon":5.363346,"is_reserved":false,"is_disabled":false,"rental_uris":{"android":"levelo://app?vid=d2c67605-341c-4a87-b631-adb0a1385817","ios":"levelo://app?vid=d2c67605-341c-4a87-b631-adb0a1385817"},"vehicle_type_id":"4","last_reported":1721322446,"current_range_meters":0,"station_id":"ce4bhah2rcd13ifvqej0","pricing_plan_id":"cebpf4jnsgd1na2vs0mg"},{"bike_id":"7c180671-76b4-44f0-97df-54f779601478","system_id":"levelo_inurba_marseille","lat":43.286591,"lon":5.363346,"is_reserved":false,"is_disabled":false,"rental_uris":{"android":"levelo://app?vid=7c180671-76b4-44f0-97df-54f779601478","ios":"levelo://app?vid=7c180671-76b4-44f0-97df-54f779601478"},"vehicle_type_id":"4","last_reported":1721322446,"current_range_meters":17200,"station_id":"ce4bhah2rcd13ifvqej0","pricing_plan_id":"cebpf4jnsgd1na2vs0mg"},{"bike_id":"9a59871c-4d17-4401-81bc-78eb7622ddba","system_id":"levelo_inurba_marseille","lat":43.286593,"lon":5.363346,"is_reserved":false,"is_disabled":false,"rental_uris":{"android":"levelo://app?vid=9a59871c-4d17-4401-81bc-78eb7622ddba","ios":"levelo://app?vid=9a59871c-4d17-4401-81bc-78eb7622ddba"},"vehicle_type_id":"4","last_reported":1721322446,"current_range_meters":29600,"station_id":"ce4bhah2rcd13ifvqej0","pricing_plan_id":"cebpf4jnsgd1na2vs0mg"},{"bike_id":"4a5747a5-05bc-4954-bdfa-72ed5b712ee0","system_id":"levelo_inurba_marseille","lat":43.286961,"lon":5.373785,"is_reserved":false,"is_disabled":false,"rental_uris":{"android":"levelo://app?vid=4a5747a5-05bc-4954-bdfa-72ed5b712ee0","ios":"levelo://app?vid=4a5747a5-05bc-4954-bdfa-72ed5b712ee0"},"vehicle_type_id":"4","last_reported":1721322446,"current_range_meters":400,"station_id":"ce4bh3p2rcd13ifvqdq0","pricing_plan_id":"cebpf4jnsgd1na2vs0mg"},{"bike_id":"42bcba3a-54b4-4251-8a83-e015d8e231fd","system_id":"levelo_inurba_marseille","lat":43.286591,"lon":5.363346,"is_reserved":false,"is_disabled":false,"rental_uris":{"android":"levelo://app?vid=42bcba3a-54b4-4251-8a83-e015d8e231fd","ios":"levelo://app?vid=42bcba3a-54b4-4251-8a83-e015d8e231fd"},"vehicle_type_id":"4","last_reported":1721322446,"current_range_meters":0,"station_id":"ce4bhah2rcd13ifvqej0","pricing_plan_id":"cebpf4jnsgd1na2vs0mg"},{"bike_id":"3e3bcf15-b0b7-437e-9d13-2d008b9ed72b","system_id":"levelo_inurba_marseille","lat":43.290255,"lon":5.386402,"is_reserved":false,"is_disabled":false,"rental_uris":{"android":"levelo://app?vid=3e3bcf15-b0b7-437e-9d13-2d008b9ed72b","ios":"levelo://app?vid=3e3bcf15-b0b7-437e-9d13-2d008b9ed72b"},"vehicle_type_id":"4","last_reported":1721322446,"current_range_meters":0,"station_id":"ce4bh4p2rcd13ifvqe0g","pricing_plan_id":"cebpf4jnsgd1na2vs0mg"},{"bike_id":"4cc5dc5b-9a2d-4d2b-9312-af15e6975a86","system_id":"levelo_inurba_marseille","lat":43.302633,"lon":5.400737,"is_reserved":false,"is_disabled":false,"rental_uris":{"android":"levelo://app?vid=4cc5dc5b-9a2d-4d2b-9312-af15e6975a86","ios":"levelo://app?vid=4cc5dc5b-9a2d-4d2b-9312-af15e6975a86"},"vehicle_type_id":"4","last_reported":1721322446,"current_range_meters":0,"station_id":"ce4bgvh2rcd13ifvqcs0","pricing_plan_id":"cebpf4jnsgd1na2vs0mg"},{"bike_id":"fd24eedf-e134-4e53-a37f-0136f32ac089","system_id":"levelo_inurba_marseille","lat":43.29027,"lon":5.38649,"is_reserved":false,"is_disabled":false,"rental_uris":{"android":"levelo://app?vid=fd24eedf-e134-4e53-a37f-0136f32ac089","ios":"levelo://app?vid=fd24eedf-e134-4e53-a37f-0136f32ac089"},"vehicle_type_id":"4","last_reported":1721322446,"current_range_meters":0,"station_id":"ce4bh4p2rcd13ifvqe0g","pricing_plan_id":"cebpf4jnsgd1na2vs0mg"},{"bike_id":"252220fd-9a84-4d9d-8ae5-e2ee5558bb76","system_id":"levelo_inurba_marseille","lat":43.30246,"lon":5.40073,"is_reserved":false,"is_disabled":false,"rental_uris":{"android":"levelo://app?vid=252220fd-9a84-4d9d-8ae5-e2ee5558bb76","ios":"levelo://app?vid=252220fd-9a84-4d9d-8ae5-e2ee5558bb76"},"vehicle_type_id":"4","last_reported":1721322446,"current_range_meters":0,"station_id":"ce4bgvh2rcd13ifvqcs0","pricing_plan_id":"cebpf4jnsgd1na2vs0mg"},{"bike_id":"2ae97a43-ab37-465d-b271-2e4319e625f7","system_id":"levelo_inurba_marseille","lat":43.286039,"lon":5.370679,"is_reserved":false,"is_disabled":false,"rental_uris":{"android":"levelo://app?vid=2ae97a43-ab37-465d-b271-2e4319e625f7","ios":"levelo://app?vid=2ae97a43-ab37-465d-b271-2e4319e625f7"},"vehicle_type_id":"4","last_reported":1721322446,"current_range_meters":9200,"station_id":"ce4bht12rcd13ifvqi60","pricing_plan_id":"cebpf4jnsgd1na2vs0mg"},{"bike_id":"2cb2c7ae-1ca9-4cff-9394-b4db5d6f9206","system_id":"levelo_inurba_marseille","lat":43.28613,"lon":5.37055,"is_reserved":false,"is_disabled":false,"rental_uris":{"android":"levelo://app?vid=2cb2c7ae-1ca9-4cff-9394-b4db5d6f9206","ios":"levelo://app?vid=2cb2c7ae-1ca9-4cff-9394-b4db5d6f9206"},"vehicle_type_id":"4","last_reported":1721322446,"current_range_meters":10400,"station_id":"ce4bht12rcd13ifvqi60","pricing_plan_id":"cebpf4jnsgd1na2vs0mg"},{"bike_id":"43ac093d-ac6c-4550-888c-ced91b98c063","system_id":"levelo_inurba_marseille","lat":43.28612,"lon":5.3706,"is_reserved":false,"is_disabled":false,"rental_uris":{"android":"levelo://app?vid=43ac093d-ac6c-4550-888c-ced91b98c063","ios":"levelo://app?vid=43ac093d-ac6c-4550-888c-ced91b98c063"},"vehicle_type_id":"4","last_reported":1721322446,"current_range_meters":6000,"station_id":"ce4bht12rcd13ifvqi60","pricing_plan_id":"cebpf4jnsgd1na2vs0mg"},{"bike_id":"2453c674-07ef-4e11-ba85-63d88ee976c4","system_id":"levelo_inurba_marseille","lat":43.28608,"lon":5.37061,"is_reserved":false,"is_disabled":false,"rental_uris":{"android":"levelo://app?vid=2453c674-07ef-4e11-ba85-63d88ee976c4","ios":"levelo://app?vid=2453c674-07ef-4e11-ba85-63d88ee976c4"},"vehicle_type_id":"4","last_reported":1721322446,"current_range_meters":16000,"station_id":"ce4bht12rcd13ifvqi60","pricing_plan_id":"cebpf4jnsgd1na2vs0mg"},{"bike_id":"cfca1faf-1d30-428f-848f-02cad6c08af4","system_id":"levelo_inurba_marseille","lat":43.287184,"lon":5.37937,"is_reserved":false,"is_disabled":false,"rental_uris":{"android":"levelo://app?vid=cfca1faf-1d30-428f-848f-02cad6c08af4","ios":"levelo://app?vid=cfca1faf-1d30-428f-848f-02cad6c08af4"},"vehicle_type_id":"4","last_reported":1721322446,"current_range_meters":28800,"station_id":"ce4bh9p2rcd13ifvqec0","pricing_plan_id":"cebpf4jnsgd1na2vs0mg"},{"bike_id":"8eac88fd-7c44-4ecd-9f3c-0f61e2bbf9be","system_id":"levelo_inurba_marseille","lat":43.287184,"lon":5.37937,"is_reserved":false,"is_disabled":false,"rental_uris":{"android":"levelo://app?vid=8eac88fd-7c44-4ecd-9f3c-0f61e2bbf9be","ios":"levelo://app?vid=8eac88fd-7c44-4ecd-9f3c-0f61e2bbf9be"},"vehicle_type_id":"4","last_reported":1721322446,"current_range_meters":7600,"station_id":"ce4bh9p2rcd13ifvqec0","pricing_plan_id":"cebpf4jnsgd1na2vs0mg"},{"bike_id":"a972c390-505b-4c87-a8f4-33c039e9c84d","system_id":"levelo_inurba_marseille","lat":43.287185,"lon":5.379373,"is_reserved":false,"is_disabled":false,"rental_uris":{"android":"levelo://app?vid=a972c390-505b-4c87-a8f4-33c039e9c84d","ios":"levelo://app?vid=a972c390-505b-4c87-a8f4-33c039e9c84d"},"vehicle_type_id":"4","last_reported":1721322446,"current_range_meters":0,"station_id":"ce4bh9p2rcd13ifvqec0","pricing_plan_id":"cebpf4jnsgd1na2vs0mg"},{"bike_id":"5684c6fd-cb50-49bb-b4cf-d35f5b8d1c70","system_id":"levelo_inurba_marseille","lat":43.316821,"lon":5.404737,"is_reserved":false,"is_disabled":false,"rental_uris":{"android":"levelo://app?vid=5684c6fd-cb50-49bb-b4cf-d35f5b8d1c70","ios":"levelo://app?vid=5684c6fd-cb50-49bb-b4cf-d35f5b8d1c70"},"vehicle_type_id":"4","last_reported":1721322446,"current_range_meters":23200,"station_id":"ce4bh012rcd13ifvqd00","pricing_plan_id":"cebpf4jnsgd1na2vs0mg"},{"bike_id":"9f3eb802-60d2-4b4f-9d46-8259e6c777a8","system_id":"levelo_inurba_marseille","lat":43.29204,"lon":5.393157,"is_reserved":false,"is_disabled":false,"rental_uris":{"android":"levelo://app?vid=9f3eb802-60d2-4b4f-9d46-8259e6c777a8","ios":"levelo://app?vid=9f3eb802-60d2-4b4f-9d46-8259e6c777a8"},"vehicle_type_id":"4","last_reported":1721322446,"current_range_meters":0,"station_id":"ce4bh192rcd13ifvqdd0","pricing_plan_id":"cebpf4jnsgd1na2vs0mg"},{"bike_id":"2bb3a5e9-c217-4c9d-8637-098a19a86bdd","system_id":"levelo_inurba_marseille","lat":43.291953,"lon":5.393157,"is_reserved":false,"is_disabled":false,"rental_uris":{"android":"levelo://app?vid=2bb3a5e9-c217-4c9d-8637-098a19a86bdd","ios":"levelo://app?vid=2bb3a5e9-c217-4c9d-8637-098a19a86bdd"},"vehicle_type_id":"4","last_reported":1721322446,"current_range_meters":0,"station_id":"ce4bh192rcd13ifvqdd0","pricing_plan_id":"cebpf4jnsgd1na2vs0mg"},{"bike_id":"8ee8b744-77c3-4772-8dcb-1fe81dc30dc3","system_id":"levelo_inurba_marseille","lat":43.286595,"lon":5.386795,"is_reserved":false,"is_disabled":false,"rental_uris":{"android":"levelo://app?vid=8ee8b744-77c3-4772-8dcb-1fe81dc30dc3","ios":"levelo://app?vid=8ee8b744-77c3-4772-8dcb-1fe81dc30dc3"},"vehicle_type_id":"4","last_reported":1721322446,"current_range_meters":7200,"station_id":"ce4bh492rcd13ifvqdug","pricing_plan_id":"cebpf4jnsgd1na2vs0mg"},{"bike_id":"3bf0acb4-6c4b-4f00-a016-c8d0124e3437","system_id":"levelo_inurba_marseille","lat":43.284534,"lon":5.358662,"is_reserved":false,"is_disabled":false,"rental_uris":{"android":"levelo://app?vid=3bf0acb4-6c4b-4f00-a016-c8d0124e3437","ios":"levelo://app?vid=3bf0acb4-6c4b-4f00-a016-c8d0124e3437"},"vehicle_type_id":"4","last_reported":1721322446,"current_range_meters":21600,"station_id":"ce4bhah2rcd13ifvqei0","pricing_plan_id":"cebpf4jnsgd1na2vs0mg"},{"bike_id":"06b218c6-318e-4094-9926-4212e45bf376","system_id":"levelo_inurba_marseille","lat":43.284538,"lon":5.358657,"is_reserved":false,"is_disabled":false,"rental_uris":{"android":"levelo://app?vid=06b218c6-318e-4094-9926-4212e45bf376","ios":"levelo://app?vid=06b218c6-318e-4094-9926-4212e45bf376"},"vehicle_type_id":"4","last_reported":1721322446,"current_range_meters":15200,"station_id":"ce4bhah2rcd13ifvqei0","pricing_plan_id":"cebpf4jnsgd1na2vs0mg"},{"bike_id":"432cda23-638d-465e-a47a-0d27944e7d52","system_id":"levelo_inurba_marseille","lat":43.284534,"lon":5.358662,"is_reserved":false,"is_disabled":false,"rental_uris":{"android":"levelo://app?vid=432cda23-638d-465e-a47a-0d27944e7d52","ios":"levelo://app?vid=432cda23-638d-465e-a47a-0d27944e7d52"},"vehicle_type_id":"4","last_reported":1721322446,"current_range_meters":18000,"station_id":"ce4bhah2rcd13ifvqei0","pricing_plan_id":"cebpf4jnsgd1na2vs0mg"},{"bike_id":"bf5fed90-794e-4727-bc3e-c5bafb33b85c","system_id":"levelo_inurba_marseille","lat":43.28458,"lon":5.35886,"is_reserved":false,"is_disabled":false,"rental_uris":{"android":"levelo://app?vid=bf5fed90-794e-4727-bc3e-c5bafb33b85c","ios":"levelo://app?vid=bf5fed90-794e-4727-bc3e-c5bafb33b85c"},"vehicle_type_id":"4","last_reported":1721322446,"current_range_meters":0,"station_id":"ce4bhah2rcd13ifvqei0","pricing_plan_id":"cebpf4jnsgd1na2vs0mg"},{"bike_id":"0def47cd-f445-4c28-9217-845210829efe","system_id":"levelo_inurba_marseille","lat":43.28619,"lon":5.35113,"is_reserved":false,"is_disabled":false,"rental_uris":{"android":"levelo://app?vid=0def47cd-f445-4c28-9217-845210829efe","ios":"levelo://app?vid=0def47cd-f445-4c28-9217-845210829efe"},"vehicle_type_id":"4","last_reported":1721322446,"current_range_meters":10000,"station_id":"ce4bhch2rcd13ifvqeug","pricing_plan_id":"cebpf4jnsgd1na2vs0mg"},{"bike_id":"4d58fc1c-364f-403f-9b8b-679b0a6bd1d5","system_id":"levelo_inurba_marseille","lat":43.28619,"lon":5.35107,"is_reserved":false,"is_disabled":false,"rental_uris":{"android":"levelo://app?vid=4d58fc1c-364f-403f-9b8b-679b0a6bd1d5","ios":"levelo://app?vid=4d58fc1c-364f-403f-9b8b-679b0a6bd1d5"},"vehicle_type_id":"4","last_reported":1721322446,"current_range_meters":18000,"station_id":"ce4bhch2rcd13ifvqeug","pricing_plan_id":"cebpf4jnsgd1na2vs0mg"},{"bike_id":"a3630e79-55d4-4eb3-a3cb-3c28d3ed4ce9","system_id":"levelo_inurba_marseille","lat":43.28619,"lon":5.35105,"is_reserved":false,"is_disabled":false,"rental_uris":{"android":"levelo://app?vid=a3630e79-55d4-4eb3-a3cb-3c28d3ed4ce9","ios":"levelo://app?vid=a3630e79-55d4-4eb3-a3cb-3c28d3ed4ce9"},"vehicle_type_id":"4","last_reported":1721322446,"current_range_meters":12800,"station_id":"ce4bhch2rcd13ifvqeug","pricing_plan_id":"cebpf4jnsgd1na2vs0mg"},{"bike_id":"b1922a13-bb1b-459d-b952-088d3074d058","system_id":"levelo_inurba_marseille","lat":43.285856,"lon":5.350771,"is_reserved":false,"is_disabled":false,"rental_uris":{"android":"levelo://app?vid=b1922a13-bb1b-459d-b952-088d3074d058","ios":"levelo://app?vid=b1922a13-bb1b-459d-b952-088d3074d058"},"vehicle_type_id":"4","last_reported":1721322446,"current_range_meters":20400,"station_id":"ce4bhch2rcd13ifvqeug","pricing_plan_id":"cebpf4jnsgd1na2vs0mg"},{"bike_id":"f477ebe2-1aff-42ec-a9f0-ed9d22f39133","system_id":"levelo_inurba_marseille","lat":43.28615,"lon":5.35114,"is_reserved":false,"is_disabled":false,"rental_uris":{"android":"levelo://app?vid=f477ebe2-1aff-42ec-a9f0-ed9d22f39133","ios":"levelo://app?vid=f477ebe2-1aff-42ec-a9f0-ed9d22f39133"},"vehicle_type_id":"4","last_reported":1721322446,"current_range_meters":16000,"station_id":"ce4bhch2rcd13ifvqeug","pricing_plan_id":"cebpf4jnsgd1na2vs0mg"},{"bike_id":"31adee5a-ff43-4706-b9b5-6ec2db9ecc9f","system_id":"levelo_inurba_marseille","lat":43.28617,"lon":5.35107,"is_reserved":false,"is_disabled":false,"rental_uris":{"android":"levelo://app?vid=31adee5a-ff43-4706-b9b5-6ec2db9ecc9f","ios":"levelo://app?vid=31adee5a-ff43-4706-b9b5-6ec2db9ecc9f"},"vehicle_type_id":"4","last_reported":1721322446,"current_range_meters":23200,"station_id":"ce4bhch2rcd13ifvqeug","pricing_plan_id":"cebpf4jnsgd1na2vs0mg"},{"bike_id":"26dd1c49-1444-4881-aa72-a074489c4ac9","system_id":"levelo_inurba_marseille","lat":43.28616,"lon":5.3511,"is_reserved":false,"is_disabled":false,"rental_uris":{"android":"levelo://app?vid=26dd1c49-1444-4881-aa72-a074489c4ac9","ios":"levelo://app?vid=26dd1c49-1444-4881-aa72-a074489c4ac9"},"vehicle_type_id":"4","last_reported":1721322446,"current_range_meters":31200,"station_id":"ce4bhch2rcd13ifvqeug","pricing_plan_id":"cebpf4jnsgd1na2vs0mg"},{"bike_id":"3f877351-e7bf-4314-a684-0da59bf5c9c8","system_id":"levelo_inurba_marseille","lat":43.285856,"lon":5.350771,"is_reserved":false,"is_disabled":false,"rental_uris":{"android":"levelo://app?vid=3f877351-e7bf-4314-a684-0da59bf5c9c8","ios":"levelo://app?vid=3f877351-e7bf-4314-a684-0da59bf5c9c8"},"vehicle_type_id":"4","last_reported":1721322446,"current_range_meters":31200,"station_id":"ce4bhch2rcd13ifvqeug","pricing_plan_id":"cebpf4jnsgd1na2vs0mg"},{"bike_id":"b32b3249-74a6-41de-9e4a-9300fdb0e7ac","system_id":"levelo_inurba_marseille","lat":43.28617,"lon":5.35106,"is_reserved":false,"is_disabled":false,"rental_uris":{"android":"levelo://app?vid=b32b3249-74a6-41de-9e4a-9300fdb0e7ac","ios":"levelo://app?vid=b32b3249-74a6-41de-9e4a-9300fdb0e7ac"},"vehicle_type_id":"4","last_reported":1721322446,"current_range_meters":14400,"station_id":"ce4bhch2rcd13ifvqeug","pricing_plan_id":"cebpf4jnsgd1na2vs0mg"},{"bike_id":"59b4e33f-ef41-45b7-a502-6fa560455702","system_id":"levelo_inurba_marseille","lat":43.285856,"lon":5.350771,"is_reserved":false,"is_disabled":false,"rental_uris":{"android":"levelo://app?vid=59b4e33f-ef41-45b7-a502-6fa560455702","ios":"levelo://app?vid=59b4e33f-ef41-45b7-a502-6fa560455702"},"vehicle_type_id":"4","last_reported":1721322446,"current_range_meters":22400,"station_id":"ce4bhch2rcd13ifvqeug","pricing_plan_id":"cebpf4jnsgd1na2vs0mg"},{"bike_id":"d92725b6-84ae-4971-a45e-df6949773f70","system_id":"levelo_inurba_marseille","lat":43.28616,"lon":5.35108,"is_reserved":false,"is_disabled":false,"rental_uris":{"android":"levelo://app?vid=d92725b6-84ae-4971-a45e-df6949773f70","ios":"levelo://app?vid=d92725b6-84ae-4971-a45e-df6949773f70"},"vehicle_type_id":"4","last_reported":1721322446,"current_range_meters":9600,"station_id":"ce4bhch2rcd13ifvqeug","pricing_plan_id":"cebpf4jnsgd1na2vs0mg"},{"bike_id":"1be3355b-cc99-449e-a946-98b065fa4a65","system_id":"levelo_inurba_marseille","lat":43.285848,"lon":5.350787,"is_reserved":false,"is_disabled":false,"rental_uris":{"android":"levelo://app?vid=1be3355b-cc99-449e-a946-98b065fa4a65","ios":"levelo://app?vid=1be3355b-cc99-449e-a946-98b065fa4a65"},"vehicle_type_id":"4","last_reported":1721322446,"current_range_meters":27200,"station_id":"ce4bhch2rcd13ifvqeug","pricing_plan_id":"cebpf4jnsgd1na2vs0mg"},{"bike_id":"de225636-92af-4e54-8488-5313d4390f17","system_id":"levelo_inurba_marseille","lat":43.285848,"lon":5.350787,"is_reserved":false,"is_disabled":false,"rental_uris":{"android":"levelo://app?vid=de225636-92af-4e54-8488-5313d4390f17","ios":"levelo://app?vid=de225636-92af-4e54-8488-5313d4390f17"},"vehicle_type_id":"4","last_reported":1721322446,"current_range_meters":27600,"station_id":"ce4bhch2rcd13ifvqeug","pricing_plan_id":"cebpf4jnsgd1na2vs0mg"},{"bike_id":"51cf49ea-1151-49ba-b2e3-5e3f13d0c40d","system_id":"levelo_inurba_marseille","lat":43.28618,"lon":5.35101,"is_reserved":false,"is_disabled":false,"rental_uris":{"android":"levelo://app?vid=51cf49ea-1151-49ba-b2e3-5e3f13d0c40d","ios":"levelo://app?vid=51cf49ea-1151-49ba-b2e3-5e3f13d0c40d"},"vehicle_type_id":"4","last_reported":1721322446,"current_range_meters":0,"station_id":"ce4bhch2rcd13ifvqeug","pricing_plan_id":"cebpf4jnsgd1na2vs0mg"},{"bike_id":"f5165278-a717-4bb5-a36a-7dca917b6549","system_id":"levelo_inurba_marseille","lat":43.28616,"lon":5.35107,"is_reserved":false,"is_disabled":false,"rental_uris":{"android":"levelo://app?vid=f5165278-a717-4bb5-a36a-7dca917b6549","ios":"levelo://app?vid=f5165278-a717-4bb5-a36a-7dca917b6549"},"vehicle_type_id":"4","last_reported":1721322446,"current_range_meters":20000,"station_id":"ce4bhch2rcd13ifvqeug","pricing_plan_id":"cebpf4jnsgd1na2vs0mg"},{"bike_id":"daf4fe77-9569-4b65-af29-a96505c93064","system_id":"levelo_inurba_marseille","lat":43.286162,"lon":5.351048,"is_reserved":false,"is_disabled":false,"rental_uris":{"android":"levelo://app?vid=daf4fe77-9569-4b65-af29-a96505c93064","ios":"levelo://app?vid=daf4fe77-9569-4b65-af29-a96505c93064"},"vehicle_type_id":"4","last_reported":1721322446,"current_range_meters":30800,"station_id":"ce4bhch2rcd13ifvqeug","pricing_plan_id":"cebpf4jnsgd1na2vs0mg"},{"bike_id":"f5c83dec-9ed9-4ae1-a51e-4c985b9ca530","system_id":"levelo_inurba_marseille","lat":43.285856,"lon":5.350771,"is_reserved":false,"is_disabled":false,"rental_uris":{"android":"levelo://app?vid=f5c83dec-9ed9-4ae1-a51e-4c985b9ca530","ios":"levelo://app?vid=f5c83dec-9ed9-4ae1-a51e-4c985b9ca530"},"vehicle_type_id":"4","last_reported":1721322446,"current_range_meters":22800,"station_id":"ce4bhch2rcd13ifvqeug","pricing_plan_id":"cebpf4jnsgd1na2vs0mg"},{"bike_id":"04c5f6ca-10a5-485c-b33d-49319d281786","system_id":"levelo_inurba_marseille","lat":43.28616,"lon":5.35104,"is_reserved":false,"is_disabled":false,"rental_uris":{"android":"levelo://app?vid=04c5f6ca-10a5-485c-b33d-49319d281786","ios":"levelo://app?vid=04c5f6ca-10a5-485c-b33d-49319d281786"},"vehicle_type_id":"4","last_reported":1721322446,"current_range_meters":26800,"station_id":"ce4bhch2rcd13ifvqeug","pricing_plan_id":"cebpf4jnsgd1na2vs0mg"},{"bike_id":"fbc74263-9210-45cd-94ab-c30968181cb5","system_id":"levelo_inurba_marseille","lat":43.285856,"lon":5.350771,"is_reserved":false,"is_disabled":false,"rental_uris":{"android":"levelo://app?vid=fbc74263-9210-45cd-94ab-c30968181cb5","ios":"levelo://app?vid=fbc74263-9210-45cd-94ab-c30968181cb5"},"vehicle_type_id":"4","last_reported":1721322446,"current_range_meters":30800,"station_id":"ce4bhch2rcd13ifvqeug","pricing_plan_id":"cebpf4jnsgd1na2vs0mg"},{"bike_id":"55e2bc88-5e34-4d23-bbcc-885e6e074d49","system_id":"levelo_inurba_marseille","lat":43.285856,"lon":5.350771,"is_reserved":false,"is_disabled":false,"rental_uris":{"android":"levelo://app?vid=55e2bc88-5e34-4d23-bbcc-885e6e074d49","ios":"levelo://app?vid=55e2bc88-5e34-4d23-bbcc-885e6e074d49"},"vehicle_type_id":"4","last_reported":1721322446,"current_range_meters":17200,"station_id":"ce4bhch2rcd13ifvqeug","pricing_plan_id":"cebpf4jnsgd1na2vs0mg"},{"bike_id":"5b9bc24a-1841-4259-abb8-699956c5238a","system_id":"levelo_inurba_marseille","lat":43.28614,"lon":5.35109,"is_reserved":false,"is_disabled":false,"rental_uris":{"android":"levelo://app?vid=5b9bc24a-1841-4259-abb8-699956c5238a","ios":"levelo://app?vid=5b9bc24a-1841-4259-abb8-699956c5238a"},"vehicle_type_id":"4","last_reported":1721322446,"current_range_meters":31200,"station_id":"ce4bhch2rcd13ifvqeug","pricing_plan_id":"cebpf4jnsgd1na2vs0mg"},{"bike_id":"f4c2fe82-37be-4b8a-97fb-43647e8da0a9","system_id":"levelo_inurba_marseille","lat":43.285856,"lon":5.350771,"is_reserved":false,"is_disabled":false,"rental_uris":{"android":"levelo://app?vid=f4c2fe82-37be-4b8a-97fb-43647e8da0a9","ios":"levelo://app?vid=f4c2fe82-37be-4b8a-97fb-43647e8da0a9"},"vehicle_type_id":"4","last_reported":1721322446,"current_range_meters":9200,"station_id":"ce4bhch2rcd13ifvqeug","pricing_plan_id":"cebpf4jnsgd1na2vs0mg"},{"bike_id":"e5508f60-0ab7-4cb4-b568-fd64850fd515","system_id":"levelo_inurba_marseille","lat":43.28615,"lon":5.35105,"is_reserved":false,"is_disabled":false,"rental_uris":{"android":"levelo://app?vid=e5508f60-0ab7-4cb4-b568-fd64850fd515","ios":"levelo://app?vid=e5508f60-0ab7-4cb4-b568-fd64850fd515"},"vehicle_type_id":"4","last_reported":1721322446,"current_range_meters":0,"station_id":"ce4bhch2rcd13ifvqeug","pricing_plan_id":"cebpf4jnsgd1na2vs0mg"},{"bike_id":"27393c35-1eef-4777-8e87-b8bb8e87308f","system_id":"levelo_inurba_marseille","lat":43.285856,"lon":5.350771,"is_reserved":false,"is_disabled":false,"rental_uris":{"android":"levelo://app?vid=27393c35-1eef-4777-8e87-b8bb8e87308f","ios":"levelo://app?vid=27393c35-1eef-4777-8e87-b8bb8e87308f"},"vehicle_type_id":"4","last_reported":1721322446,"current_range_meters":31200,"station_id":"ce4bhch2rcd13ifvqeug","pricing_plan_id":"cebpf4jnsgd1na2vs0mg"},{"bike_id":"9c93fc16-f6c2-420c-bfbd-8e37925c92a7","system_id":"levelo_inurba_marseille","lat":43.28615,"lon":5.35102,"is_reserved":false,"is_disabled":false,"rental_uris":{"android":"levelo://app?vid=9c93fc16-f6c2-420c-bfbd-8e37925c92a7","ios":"levelo://app?vid=9c93fc16-f6c2-420c-bfbd-8e37925c92a7"},"vehicle_type_id":"4","last_reported":1721322446,"current_range_meters":31200,"station_id":"ce4bhch2rcd13ifvqeug","pricing_plan_id":"cebpf4jnsgd1na2vs0mg"},{"bike_id":"4befd426-1355-4c33-8f1a-7bcf972eba94","system_id":"levelo_inurba_marseille","lat":43.28614,"lon":5.35105,"is_reserved":false,"is_disabled":false,"rental_uris":{"android":"levelo://app?vid=4befd426-1355-4c33-8f1a-7bcf972eba94","ios":"levelo://app?vid=4befd426-1355-4c33-8f1a-7bcf972eba94"},"vehicle_type_id":"4","last_reported":1721322446,"current_range_meters":9600,"station_id":"ce4bhch2rcd13ifvqeug","pricing_plan_id":"cebpf4jnsgd1na2vs0mg"},{"bike_id":"3b9c4268-cc5e-49b5-8676-37dc033f12b2","system_id":"levelo_inurba_marseille","lat":43.28614,"lon":5.35104,"is_reserved":false,"is_disabled":false,"rental_uris":{"android":"levelo://app?vid=3b9c4268-cc5e-49b5-8676-37dc033f12b2","ios":"levelo://app?vid=3b9c4268-cc5e-49b5-8676-37dc033f12b2"},"vehicle_type_id":"4","last_reported":1721322446,"current_range_meters":30400,"station_id":"","pricing_plan_id":"cebpf4jnsgd1na2vs0mg"},{"bike_id":"bde9eac1-96dc-43e8-b8fb-5167d1aacfcc","system_id":"levelo_inurba_marseille","lat":43.28613,"lon":5.35107,"is_reserved":false,"is_disabled":false,"rental_uris":{"android":"levelo://app?vid=bde9eac1-96dc-43e8-b8fb-5167d1aacfcc","ios":"levelo://app?vid=bde9eac1-96dc-43e8-b8fb-5167d1aacfcc"},"vehicle_type_id":"4","last_reported":1721322446,"current_range_meters":19600,"station_id":"ce4bhch2rcd13ifvqeug","pricing_plan_id":"cebpf4jnsgd1na2vs0mg"},{"bike_id":"d3c2ff49-38a0-4c40-aaeb-c6885b38b35c","system_id":"levelo_inurba_marseille","lat":43.28615,"lon":5.35098,"is_reserved":false,"is_disabled":false,"rental_uris":{"android":"levelo://app?vid=d3c2ff49-38a0-4c40-aaeb-c6885b38b35c","ios":"levelo://app?vid=d3c2ff49-38a0-4c40-aaeb-c6885b38b35c"},"vehicle_type_id":"4","last_reported":1721322446,"current_range_meters":9600,"station_id":"ce4bhch2rcd13ifvqeug","pricing_plan_id":"cebpf4jnsgd1na2vs0mg"},{"bike_id":"4f1788e4-ff7c-46a0-b9ef-ebedf1cb35c5","system_id":"levelo_inurba_marseille","lat":43.28613,"lon":5.35104,"is_reserved":false,"is_disabled":false,"rental_uris":{"android":"levelo://app?vid=4f1788e4-ff7c-46a0-b9ef-ebedf1cb35c5","ios":"levelo://app?vid=4f1788e4-ff7c-46a0-b9ef-ebedf1cb35c5"},"vehicle_type_id":"4","last_reported":1721322446,"current_range_meters":28400,"station_id":"ce4bhch2rcd13ifvqeug","pricing_plan_id":"cebpf4jnsgd1na2vs0mg"},{"bike_id":"94852403-906d-4810-a5fe-c67de6eab2fa","system_id":"levelo_inurba_marseille","lat":43.285856,"lon":5.350771,"is_reserved":false,"is_disabled":false,"rental_uris":{"android":"levelo://app?vid=94852403-906d-4810-a5fe-c67de6eab2fa","ios":"levelo://app?vid=94852403-906d-4810-a5fe-c67de6eab2fa"},"vehicle_type_id":"4","last_reported":1721322446,"current_range_meters":31200,"station_id":"ce4bhch2rcd13ifvqeug","pricing_plan_id":"cebpf4jnsgd1na2vs0mg"},{"bike_id":"3e630b39-a46c-421e-b0f8-a9bfe1f589a4","system_id":"levelo_inurba_marseille","lat":43.285856,"lon":5.350771,"is_reserved":false,"is_disabled":false,"rental_uris":{"android":"levelo://app?vid=3e630b39-a46c-421e-b0f8-a9bfe1f589a4","ios":"levelo://app?vid=3e630b39-a46c-421e-b0f8-a9bfe1f589a4"},"vehicle_type_id":"4","last_reported":1721322446,"current_range_meters":30400,"station_id":"ce4bhch2rcd13ifvqeug","pricing_plan_id":"cebpf4jnsgd1na2vs0mg"},{"bike_id":"70a09adb-9338-456f-9562-00aff33a3367","system_id":"levelo_inurba_marseille","lat":43.2861,"lon":5.35106,"is_reserved":false,"is_disabled":false,"rental_uris":{"android":"levelo://app?vid=70a09adb-9338-456f-9562-00aff33a3367","ios":"levelo://app?vid=70a09adb-9338-456f-9562-00aff33a3367"},"vehicle_type_id":"4","last_reported":1721322446,"current_range_meters":24400,"station_id":"ce4bhch2rcd13ifvqeug","pricing_plan_id":"cebpf4jnsgd1na2vs0mg"},{"bike_id":"529199b2-0820-4258-96b7-0669c32b3b2b","system_id":"levelo_inurba_marseille","lat":43.28423,"lon":5.37513,"is_reserved":false,"is_disabled":false,"rental_uris":{"android":"levelo://app?vid=529199b2-0820-4258-96b7-0669c32b3b2b","ios":"levelo://app?vid=529199b2-0820-4258-96b7-0669c32b3b2b"},"vehicle_type_id":"4","last_reported":1721322446,"current_range_meters":0,"station_id":"ce4bh412rcd13ifvqds0","pricing_plan_id":"cebpf4jnsgd1na2vs0mg"},{"bike_id":"238d7b75-5d81-4200-aa63-209c7c2e7ad2","system_id":"levelo_inurba_marseille","lat":43.299675,"lon":5.402805,"is_reserved":false,"is_disabled":false,"rental_uris":{"android":"levelo://app?vid=238d7b75-5d81-4200-aa63-209c7c2e7ad2","ios":"levelo://app?vid=238d7b75-5d81-4200-aa63-209c7c2e7ad2"},"vehicle_type_id":"4","last_reported":1721322446,"current_range_meters":27200,"station_id":"","pricing_plan_id":"cebpf4jnsgd1na2vs0mg"},{"bike_id":"cb6ee69e-fa1c-41d7-912c-a3c289e490ec","system_id":"levelo_inurba_marseille","lat":43.28408,"lon":5.37515,"is_reserved":false,"is_disabled":false,"rental_uris":{"android":"levelo://app?vid=cb6ee69e-fa1c-41d7-912c-a3c289e490ec","ios":"levelo://app?vid=cb6ee69e-fa1c-41d7-912c-a3c289e490ec"},"vehicle_type_id":"4","last_reported":1721322446,"current_range_meters":0,"station_id":"ce4bh412rcd13ifvqds0","pricing_plan_id":"cebpf4jnsgd1na2vs0mg"},{"bike_id":"ad466987-c809-4314-8f3a-02e61629a258","system_id":"levelo_inurba_marseille","lat":43.295713,"lon":5.399639,"is_reserved":false,"is_disabled":false,"rental_uris":{"android":"levelo://app?vid=ad466987-c809-4314-8f3a-02e61629a258","ios":"levelo://app?vid=ad466987-c809-4314-8f3a-02e61629a258"},"vehicle_type_id":"4","last_reported":1721322446,"current_range_meters":400,"station_id":"ce4bh312rcd13ifvqdj0","pricing_plan_id":"cebpf4jnsgd1na2vs0mg"},{"bike_id":"c826a904-3054-4194-b189-e5cc9d28a8fc","system_id":"levelo_inurba_marseille","lat":43.295713,"lon":5.399639,"is_reserved":false,"is_disabled":false,"rental_uris":{"android":"levelo://app?vid=c826a904-3054-4194-b189-e5cc9d28a8fc","ios":"levelo://app?vid=c826a904-3054-4194-b189-e5cc9d28a8fc"},"vehicle_type_id":"4","last_reported":1721322446,"current_range_meters":0,"station_id":"ce4bh312rcd13ifvqdj0","pricing_plan_id":"cebpf4jnsgd1na2vs0mg"},{"bike_id":"c031cfcc-c688-4921-922c-db71a8673f88","system_id":"levelo_inurba_marseille","lat":43.2996,"lon":5.40316,"is_reserved":false,"is_disabled":false,"rental_uris":{"android":"levelo://app?vid=c031cfcc-c688-4921-922c-db71a8673f88","ios":"levelo://app?vid=c031cfcc-c688-4921-922c-db71a8673f88"},"vehicle_type_id":"4","last_reported":1721322446,"current_range_meters":20800,"station_id":"","pricing_plan_id":"cebpf4jnsgd1na2vs0mg"},{"bike_id":"bf2896eb-aa36-4837-ba7e-1eb786b03e00","system_id":"levelo_inurba_marseille","lat":43.298037,"lon":5.381066,"is_reserved":false,"is_disabled":false,"rental_uris":{"android":"levelo://app?vid=bf2896eb-aa36-4837-ba7e-1eb786b03e00","ios":"levelo://app?vid=bf2896eb-aa36-4837-ba7e-1eb786b03e00"},"vehicle_type_id":"4","last_reported":1721322446,"current_range_meters":7600,"station_id":"ce4bgip2rcd13ifvqbb0","pricing_plan_id":"cebpf4jnsgd1na2vs0mg"},{"bike_id":"c098ea2b-f66e-4026-8e10-9ec320708c82","system_id":"levelo_inurba_marseille","lat":43.286595,"lon":5.386795,"is_reserved":false,"is_disabled":false,"rental_uris":{"android":"levelo://app?vid=c098ea2b-f66e-4026-8e10-9ec320708c82","ios":"levelo://app?vid=c098ea2b-f66e-4026-8e10-9ec320708c82"},"vehicle_type_id":"4","last_reported":1721322446,"current_range_meters":0,"station_id":"ce4bh492rcd13ifvqdug","pricing_plan_id":"cebpf4jnsgd1na2vs0mg"},{"bike_id":"e9d91db5-ec13-4f39-af7d-cf6de61aabbf","system_id":"levelo_inurba_marseille","lat":43.319179,"lon":5.407725,"is_reserved":false,"is_disabled":false,"rental_uris":{"android":"levelo://app?vid=e9d91db5-ec13-4f39-af7d-cf6de61aabbf","ios":"levelo://app?vid=e9d91db5-ec13-4f39-af7d-cf6de61aabbf"},"vehicle_type_id":"4","last_reported":1721322446,"current_range_meters":400,"station_id":"ce4bhq12rcd13ifvqhig","pricing_plan_id":"cebpf4jnsgd1na2vs0mg"},{"bike_id":"a21058e8-560d-46eb-a797-bffcabc5f487","system_id":"levelo_inurba_marseille","lat":43.323222,"lon":5.4062,"is_reserved":false,"is_disabled":false,"rental_uris":{"android":"levelo://app?vid=a21058e8-560d-46eb-a797-bffcabc5f487","ios":"levelo://app?vid=a21058e8-560d-46eb-a797-bffcabc5f487"},"vehicle_type_id":"4","last_reported":1721322446,"current_range_meters":28000,"station_id":"ce4bhq92rcd13ifvqhjg","pricing_plan_id":"cebpf4jnsgd1na2vs0mg"},{"bike_id":"4c737145-9cc2-431c-a1eb-dec9887a898d","system_id":"levelo_inurba_marseille","lat":43.323433,"lon":5.406248,"is_reserved":false,"is_disabled":false,"rental_uris":{"android":"levelo://app?vid=4c737145-9cc2-431c-a1eb-dec9887a898d","ios":"levelo://app?vid=4c737145-9cc2-431c-a1eb-dec9887a898d"},"vehicle_type_id":"4","last_reported":1721322446,"current_range_meters":28400,"station_id":"ce4bhq92rcd13ifvqhjg","pricing_plan_id":"cebpf4jnsgd1na2vs0mg"},{"bike_id":"fef9d359-ab93-469b-856e-38caca3ff87a","system_id":"levelo_inurba_marseille","lat":43.297946,"lon":5.404063,"is_reserved":false,"is_disabled":false,"rental_uris":{"android":"levelo://app?vid=fef9d359-ab93-469b-856e-38caca3ff87a","ios":"levelo://app?vid=fef9d359-ab93-469b-856e-38caca3ff87a"},"vehicle_type_id":"4","last_reported":1721322446,"current_range_meters":18400,"station_id":"ce4bh112rcd13ifvqd90","pricing_plan_id":"cebpf4jnsgd1na2vs0mg"},{"bike_id":"87707827-0c12-4b39-90b3-4df74f1b2301","system_id":"levelo_inurba_marseille","lat":43.297946,"lon":5.404063,"is_reserved":false,"is_disabled":false,"rental_uris":{"android":"levelo://app?vid=87707827-0c12-4b39-90b3-4df74f1b2301","ios":"levelo://app?vid=87707827-0c12-4b39-90b3-4df74f1b2301"},"vehicle_type_id":"4","last_reported":1721322446,"current_range_meters":2000,"station_id":"ce4bh112rcd13ifvqd90","pricing_plan_id":"cebpf4jnsgd1na2vs0mg"},{"bike_id":"23ddcf02-1114-431d-babf-1183a2a3571c","system_id":"levelo_inurba_marseille","lat":43.28853,"lon":5.393,"is_reserved":false,"is_disabled":false,"rental_uris":{"android":"levelo://app?vid=23ddcf02-1114-431d-babf-1183a2a3571c","ios":"levelo://app?vid=23ddcf02-1114-431d-babf-1183a2a3571c"},"vehicle_type_id":"4","last_reported":1721322446,"current_range_meters":0,"station_id":"ce4bh2p2rcd13ifvqdi0","pricing_plan_id":"cebpf4jnsgd1na2vs0mg"},{"bike_id":"9040ea9b-1737-4028-91d7-fcf50c58d86b","system_id":"levelo_inurba_marseille","lat":43.283494,"lon":5.380945,"is_reserved":false,"is_disabled":false,"rental_uris":{"android":"levelo://app?vid=9040ea9b-1737-4028-91d7-fcf50c58d86b","ios":"levelo://app?vid=9040ea9b-1737-4028-91d7-fcf50c58d86b"},"vehicle_type_id":"4","last_reported":1721322446,"current_range_meters":0,"station_id":"ce4bh412rcd13ifvqdr0","pricing_plan_id":"cebpf4jnsgd1na2vs0mg"},{"bike_id":"83e25c8a-cb21-4675-8fc8-595759f32786","system_id":"levelo_inurba_marseille","lat":43.284776,"lon":5.385603,"is_reserved":false,"is_disabled":false,"rental_uris":{"android":"levelo://app?vid=83e25c8a-cb21-4675-8fc8-595759f32786","ios":"levelo://app?vid=83e25c8a-cb21-4675-8fc8-595759f32786"},"vehicle_type_id":"4","last_reported":1721322446,"current_range_meters":0,"station_id":"ce4bh8p2rcd13ifvqeb0","pricing_plan_id":"cebpf4jnsgd1na2vs0mg"},{"bike_id":"00e1cea9-e345-4048-9e3e-d946c119f372","system_id":"levelo_inurba_marseille","lat":43.283498,"lon":5.380948,"is_reserved":false,"is_disabled":false,"rental_uris":{"android":"levelo://app?vid=00e1cea9-e345-4048-9e3e-d946c119f372","ios":"levelo://app?vid=00e1cea9-e345-4048-9e3e-d946c119f372"},"vehicle_type_id":"4","last_reported":1721322446,"current_range_meters":0,"station_id":"ce4bh412rcd13ifvqdr0","pricing_plan_id":"cebpf4jnsgd1na2vs0mg"},{"bike_id":"340d2505-bdab-42d2-a261-bc44541fd683","system_id":"levelo_inurba_marseille","lat":43.28429,"lon":5.34994,"is_reserved":false,"is_disabled":false,"rental_uris":{"android":"levelo://app?vid=340d2505-bdab-42d2-a261-bc44541fd683","ios":"levelo://app?vid=340d2505-bdab-42d2-a261-bc44541fd683"},"vehicle_type_id":"4","last_reported":1721322446,"current_range_meters":31200,"station_id":"ce4bhbh2rcd13ifvqepg","pricing_plan_id":"cebpf4jnsgd1na2vs0mg"},{"bike_id":"a3e1882e-d860-4507-aff6-f8a561113eb7","system_id":"levelo_inurba_marseille","lat":43.284219,"lon":5.3497,"is_reserved":false,"is_disabled":false,"rental_uris":{"android":"levelo://app?vid=a3e1882e-d860-4507-aff6-f8a561113eb7","ios":"levelo://app?vid=a3e1882e-d860-4507-aff6-f8a561113eb7"},"vehicle_type_id":"4","last_reported":1721322446,"current_range_meters":30800,"station_id":"ce4bhbh2rcd13ifvqepg","pricing_plan_id":"cebpf4jnsgd1na2vs0mg"},{"bike_id":"e5ec382f-4872-410b-b9c9-0ba2dcccfd07","system_id":"levelo_inurba_marseille","lat":43.284219,"lon":5.3497,"is_reserved":false,"is_disabled":false,"rental_uris":{"android":"levelo://app?vid=e5ec382f-4872-410b-b9c9-0ba2dcccfd07","ios":"levelo://app?vid=e5ec382f-4872-410b-b9c9-0ba2dcccfd07"},"vehicle_type_id":"4","last_reported":1721322446,"current_range_meters":31200,"station_id":"ce4bhbh2rcd13ifvqepg","pricing_plan_id":"cebpf4jnsgd1na2vs0mg"},{"bike_id":"af98fdaa-7688-428a-9f77-5c308db3ff36","system_id":"levelo_inurba_marseille","lat":43.28421,"lon":5.35,"is_reserved":false,"is_disabled":false,"rental_uris":{"android":"levelo://app?vid=af98fdaa-7688-428a-9f77-5c308db3ff36","ios":"levelo://app?vid=af98fdaa-7688-428a-9f77-5c308db3ff36"},"vehicle_type_id":"4","last_reported":1721322446,"current_range_meters":8400,"station_id":"ce4bhbh2rcd13ifvqepg","pricing_plan_id":"cebpf4jnsgd1na2vs0mg"},{"bike_id":"92de1830-9021-425e-8b24-5088cd7f09b0","system_id":"levelo_inurba_marseille","lat":43.284219,"lon":5.3497,"is_reserved":false,"is_disabled":false,"rental_uris":{"android":"levelo://app?vid=92de1830-9021-425e-8b24-5088cd7f09b0","ios":"levelo://app?vid=92de1830-9021-425e-8b24-5088cd7f09b0"},"vehicle_type_id":"4","last_reported":1721322446,"current_range_meters":27200,"station_id":"ce4bhbh2rcd13ifvqepg","pricing_plan_id":"cebpf4jnsgd1na2vs0mg"},{"bike_id":"2fe37e6f-e923-455d-99ea-ae65f1537ed6","system_id":"levelo_inurba_marseille","lat":43.28425,"lon":5.34985,"is_reserved":false,"is_disabled":false,"rental_uris":{"android":"levelo://app?vid=2fe37e6f-e923-455d-99ea-ae65f1537ed6","ios":"levelo://app?vid=2fe37e6f-e923-455d-99ea-ae65f1537ed6"},"vehicle_type_id":"4","last_reported":1721322446,"current_range_meters":5200,"station_id":"ce4bhbh2rcd13ifvqepg","pricing_plan_id":"cebpf4jnsgd1na2vs0mg"},{"bike_id":"7c10f830-9624-4228-a012-6beafe0a9b37","system_id":"levelo_inurba_marseille","lat":43.284219,"lon":5.3497,"is_reserved":false,"is_disabled":false,"rental_uris":{"android":"levelo://app?vid=7c10f830-9624-4228-a012-6beafe0a9b37","ios":"levelo://app?vid=7c10f830-9624-4228-a012-6beafe0a9b37"},"vehicle_type_id":"4","last_reported":1721322446,"current_range_meters":20000,"station_id":"ce4bhbh2rcd13ifvqepg","pricing_plan_id":"cebpf4jnsgd1na2vs0mg"},{"bike_id":"3a68fe6e-4c81-43fd-b175-b6863f63bd81","system_id":"levelo_inurba_marseille","lat":43.28425,"lon":5.34982,"is_reserved":false,"is_disabled":false,"rental_uris":{"android":"levelo://app?vid=3a68fe6e-4c81-43fd-b175-b6863f63bd81","ios":"levelo://app?vid=3a68fe6e-4c81-43fd-b175-b6863f63bd81"},"vehicle_type_id":"4","last_reported":1721322446,"current_range_meters":20400,"station_id":"ce4bhbh2rcd13ifvqepg","pricing_plan_id":"cebpf4jnsgd1na2vs0mg"},{"bike_id":"722aa620-7c0f-4276-abfb-370b5a620db6","system_id":"levelo_inurba_marseille","lat":43.284219,"lon":5.3497,"is_reserved":false,"is_disabled":false,"rental_uris":{"android":"levelo://app?vid=722aa620-7c0f-4276-abfb-370b5a620db6","ios":"levelo://app?vid=722aa620-7c0f-4276-abfb-370b5a620db6"},"vehicle_type_id":"4","last_reported":1721322446,"current_range_meters":32000,"station_id":"ce4bhbh2rcd13ifvqepg","pricing_plan_id":"cebpf4jnsgd1na2vs0mg"},{"bike_id":"44ab605a-12c2-4178-a79b-cc48191ead05","system_id":"levelo_inurba_marseille","lat":43.2842,"lon":5.349957,"is_reserved":false,"is_disabled":false,"rental_uris":{"android":"levelo://app?vid=44ab605a-12c2-4178-a79b-cc48191ead05","ios":"levelo://app?vid=44ab605a-12c2-4178-a79b-cc48191ead05"},"vehicle_type_id":"4","last_reported":1721322446,"current_range_meters":10000,"station_id":"ce4bhbh2rcd13ifvqepg","pricing_plan_id":"cebpf4jnsgd1na2vs0mg"},{"bike_id":"32d059d5-bd03-45aa-b5ef-f577fbcc5b21","system_id":"levelo_inurba_marseille","lat":43.284219,"lon":5.3497,"is_reserved":false,"is_disabled":false,"rental_uris":{"android":"levelo://app?vid=32d059d5-bd03-45aa-b5ef-f577fbcc5b21","ios":"levelo://app?vid=32d059d5-bd03-45aa-b5ef-f577fbcc5b21"},"vehicle_type_id":"4","last_reported":1721322446,"current_range_meters":31600,"station_id":"ce4bhbh2rcd13ifvqepg","pricing_plan_id":"cebpf4jnsgd1na2vs0mg"},{"bike_id":"92ecbe8c-7272-4c76-b1c2-7d3d422b147d","system_id":"levelo_inurba_marseille","lat":43.2842,"lon":5.34992,"is_reserved":false,"is_disabled":false,"rental_uris":{"android":"levelo://app?vid=92ecbe8c-7272-4c76-b1c2-7d3d422b147d","ios":"levelo://app?vid=92ecbe8c-7272-4c76-b1c2-7d3d422b147d"},"vehicle_type_id":"4","last_reported":1721322446,"current_range_meters":17600,"station_id":"ce4bhbh2rcd13ifvqepg","pricing_plan_id":"cebpf4jnsgd1na2vs0mg"},{"bike_id":"e0d9a05c-4c80-4905-9746-9fb0d3779397","system_id":"levelo_inurba_marseille","lat":43.284219,"lon":5.3497,"is_reserved":false,"is_disabled":false,"rental_uris":{"android":"levelo://app?vid=e0d9a05c-4c80-4905-9746-9fb0d3779397","ios":"levelo://app?vid=e0d9a05c-4c80-4905-9746-9fb0d3779397"},"vehicle_type_id":"4","last_reported":1721322446,"current_range_meters":5200,"station_id":"ce4bhbh2rcd13ifvqepg","pricing_plan_id":"cebpf4jnsgd1na2vs0mg"},{"bike_id":"d47405cb-5110-442b-92b8-8857a7cdd55d","system_id":"levelo_inurba_marseille","lat":43.284219,"lon":5.3497,"is_reserved":false,"is_disabled":false,"rental_uris":{"android":"levelo://app?vid=d47405cb-5110-442b-92b8-8857a7cdd55d","ios":"levelo://app?vid=d47405cb-5110-442b-92b8-8857a7cdd55d"},"vehicle_type_id":"4","last_reported":1721322446,"current_range_meters":26800,"station_id":"ce4bhbh2rcd13ifvqepg","pricing_plan_id":"cebpf4jnsgd1na2vs0mg"},{"bike_id":"0f9e3a0a-cb56-46ca-ba78-70080b0b06ac","system_id":"levelo_inurba_marseille","lat":43.28423,"lon":5.34978,"is_reserved":false,"is_disabled":false,"rental_uris":{"android":"levelo://app?vid=0f9e3a0a-cb56-46ca-ba78-70080b0b06ac","ios":"levelo://app?vid=0f9e3a0a-cb56-46ca-ba78-70080b0b06ac"},"vehicle_type_id":"4","last_reported":1721322446,"current_range_meters":10000,"station_id":"ce4bhbh2rcd13ifvqepg","pricing_plan_id":"cebpf4jnsgd1na2vs0mg"},{"bike_id":"fdf167e8-26c5-462b-9c3f-6876e3e5430a","system_id":"levelo_inurba_marseille","lat":43.284165,"lon":5.349978,"is_reserved":false,"is_disabled":false,"rental_uris":{"android":"levelo://app?vid=fdf167e8-26c5-462b-9c3f-6876e3e5430a","ios":"levelo://app?vid=fdf167e8-26c5-462b-9c3f-6876e3e5430a"},