{"last_updated":1723831885,"ttl":30,"version":"2.2","data":{"bikes":[{"bike_id":"02c670e6-e6f9-4ffc-9e36-753edeba947a","system_id":"levelo_inurba_marseille","lat":43.309076,"lon":5.368465,"is_reserved":false,"is_disabled":false,"rental_uris":{"android":"levelo://app?vid=02c670e6-e6f9-4ffc-9e36-753edeba947a","ios":"levelo://app?vid=02c670e6-e6f9-4ffc-9e36-753edeba947a"},"vehicle_type_id":"4","last_reported":1723831885,"current_range_meters":23600,"station_id":"ce4bgn92rcd13ifvqbvg","pricing_plan_id":"cebpf4jnsgd1na2vs0mg"},{"bike_id":"42eb66f3-a7ec-445e-8848-505e7f38f2db","system_id":"levelo_inurba_marseille","lat":43.309076,"lon":5.368465,"is_reserved":false,"is_disabled":false,"rental_uris":{"android":"levelo://app?vid=42eb66f3-a7ec-445e-8848-505e7f38f2db","ios":"levelo://app?vid=42eb66f3-a7ec-445e-8848-505e7f38f2db"},"vehicle_type_id":"4","last_reported":1723831885,"current_range_meters":17200,"station_id":"ce4bgn92rcd13ifvqbvg","pricing_plan_id":"cebpf4jnsgd1na2vs0mg"},{"bike_id":"0bec9390-194d-4d6b-86e2-9b9427187de3","system_id":"levelo_inurba_marseille","lat":43.309076,"lon":5.368465,"is_reserved":false,"is_disabled":false,"rental_uris":{"android":"levelo://app?vid=0bec9390-194d-4d6b-86e2-9b9427187de3","ios":"levelo://app?vid=0bec9390-194d-4d6b-86e2-9b9427187de3"},"vehicle_type_id":"4","last_reported":1723831885,"current_range_meters":26800,"station_id":"ce4bgn92rcd13ifvqbvg","pricing_plan_id":"cebpf4jnsgd1na2vs0mg"},{"bike_id":"1ffa884a-0f61-4153-82c0-2039526efd81","system_id":"levelo_inurba_marseille","lat":43.31478,"lon":5.37303,"is_reserved":false,"is_disabled":false,"rental_uris":{"android":"levelo://app?vid=1ffa884a-0f61-4153-82c0-2039526efd81","ios":"levelo://app?vid=1ffa884a-0f61-4153-82c0-2039526efd81"},"vehicle_type_id":"4","last_reported":1723831885,"current_range_meters":26800,"station_id":"ce4bgt12rcd13ifvqcd0","pricing_plan_id":"cebpf4jnsgd1na2vs0mg"},{"bike_id":"2b7b5081-727c-48c4-ad32-36f0b2d1e582","system_id":"levelo_inurba_marseille","lat":43.314811,"lon":5.373103,"is_reserved":false,"is_disabled":false,"rental_uris":{"android":"levelo://app?vid=2b7b5081-727c-48c4-ad32-36f0b2d1e582","ios":"levelo://app?vid=2b7b5081-727c-48c4-ad32-36f0b2d1e582"},"vehicle_type_id":"4","last_reported":1723831885,"current_range_meters":20400,"station_id":"ce4bgt12rcd13ifvqcd0","pricing_plan_id":"cebpf4jnsgd1na2vs0mg"},{"bike_id":"6fa37966-7f56-47eb-8784-81790b68fa36","system_id":"levelo_inurba_marseille","lat":43.314811,"lon":5.373103,"is_reserved":false,"is_disabled":false,"rental_uris":{"android":"levelo://app?vid=6fa37966-7f56-47eb-8784-81790b68fa36","ios":"levelo://app?vid=6fa37966-7f56-47eb-8784-81790b68fa36"},"vehicle_type_id":"4","last_reported":1723831885,"current_range_meters":4800,"station_id":"ce4bgt12rcd13ifvqcd0","pricing_plan_id":"cebpf4jnsgd1na2vs0mg"},{"bike_id":"1080f4cf-8d0b-49a3-90a1-cd44acc0587f","system_id":"levelo_inurba_marseille","lat":43.309034,"lon":5.371783,"is_reserved":false,"is_disabled":false,"rental_uris":{"android":"levelo://app?vid=1080f4cf-8d0b-49a3-90a1-cd44acc0587f","ios":"levelo://app?vid=1080f4cf-8d0b-49a3-90a1-cd44acc0587f"},"vehicle_type_id":"4","last_reported":1723831885,"current_range_meters":0,"station_id":"ce4bguh2rcd13ifvqckg","pricing_plan_id":"cebpf4jnsgd1na2vs0mg"},{"bike_id":"bd8b9b37-e6c5-4758-8083-7368db1700b4","system_id":"levelo_inurba_marseille","lat":43.314811,"lon":5.373103,"is_reserved":false,"is_disabled":false,"rental_uris":{"android":"levelo://app?vid=bd8b9b37-e6c5-4758-8083-7368db1700b4","ios":"levelo://app?vid=bd8b9b37-e6c5-4758-8083-7368db1700b4"},"vehicle_type_id":"4","last_reported":1723831885,"current_range_meters":11200,"station_id":"ce4bgt12rcd13ifvqcd0","pricing_plan_id":"cebpf4jnsgd1na2vs0mg"},{"bike_id":"54c1372a-fb16-40c9-bf2f-6e56b7ad5b8e","system_id":"levelo_inurba_marseille","lat":43.31487,"lon":5.37307,"is_reserved":false,"is_disabled":false,"rental_uris":{"android":"levelo://app?vid=54c1372a-fb16-40c9-bf2f-6e56b7ad5b8e","ios":"levelo://app?vid=54c1372a-fb16-40c9-bf2f-6e56b7ad5b8e"},"vehicle_type_id":"4","last_reported":1723831885,"current_range_meters":0,"station_id":"ce4bgt12rcd13ifvqcd0","pricing_plan_id":"cebpf4jnsgd1na2vs0mg"},{"bike_id":"e32af26f-7309-42bd-8600-99db6359d332","system_id":"levelo_inurba_marseille","lat":43.305706,"lon":5.365654,"is_reserved":false,"is_disabled":false,"rental_uris":{"android":"levelo://app?vid=e32af26f-7309-42bd-8600-99db6359d332","ios":"levelo://app?vid=e32af26f-7309-42bd-8600-99db6359d332"},"vehicle_type_id":"4","last_reported":1723831885,"current_range_meters":31600,"station_id":"ce4bgs12rcd13ifvqcag","pricing_plan_id":"cebpf4jnsgd1na2vs0mg"},{"bike_id":"200b34e6-294a-453c-8803-398ebb8b3578","system_id":"levelo_inurba_marseille","lat":43.305989,"lon":5.37225,"is_reserved":false,"is_disabled":false,"rental_uris":{"android":"levelo://app?vid=200b34e6-294a-453c-8803-398ebb8b3578","ios":"levelo://app?vid=200b34e6-294a-453c-8803-398ebb8b3578"},"vehicle_type_id":"4","last_reported":1723831885,"current_range_meters":11600,"station_id":"ce4bgqh2rcd13ifvqc4g","pricing_plan_id":"cebpf4jnsgd1na2vs0mg"},{"bike_id":"f6f07dcb-96f9-4c87-9dcd-6b0b42beca9a","system_id":"levelo_inurba_marseille","lat":43.305989,"lon":5.37225,"is_reserved":false,"is_disabled":false,"rental_uris":{"android":"levelo://app?vid=f6f07dcb-96f9-4c87-9dcd-6b0b42beca9a","ios":"levelo://app?vid=f6f07dcb-96f9-4c87-9dcd-6b0b42beca9a"},"vehicle_type_id":"4","last_reported":1723831885,"current_range_meters":8800,"station_id":"ce4bgqh2rcd13ifvqc4g","pricing_plan_id":"cebpf4jnsgd1na2vs0mg"},{"bike_id":"6bfd8896-ebc5-44fc-91f4-6782f5faaf56","system_id":"levelo_inurba_marseille","lat":43.311125,"lon":5.377624,"is_reserved":false,"is_disabled":false,"rental_uris":{"android":"levelo://app?vid=6bfd8896-ebc5-44fc-91f4-6782f5faaf56","ios":"levelo://app?vid=6bfd8896-ebc5-44fc-91f4-6782f5faaf56"},"vehicle_type_id":"4","last_reported":1723831885,"current_range_meters":6000,"station_id":"ce4bgt92rcd13ifvqcg0","pricing_plan_id":"cebpf4jnsgd1na2vs0mg"},{"bike_id":"f7af62af-210c-4188-bd3d-ce31503e1900","system_id":"levelo_inurba_marseille","lat":43.311125,"lon":5.377624,"is_reserved":false,"is_disabled":false,"rental_uris":{"android":"levelo://app?vid=f7af62af-210c-4188-bd3d-ce31503e1900","ios":"levelo://app?vid=f7af62af-210c-4188-bd3d-ce31503e1900"},"vehicle_type_id":"4","last_reported":1723831885,"current_range_meters":22400,"station_id":"ce4bgt92rcd13ifvqcg0","pricing_plan_id":"cebpf4jnsgd1na2vs0mg"},{"bike_id":"90be3d65-c832-4cd8-b2fa-82a3f186625f","system_id":"levelo_inurba_marseille","lat":43.307945,"lon":5.376487,"is_reserved":false,"is_disabled":false,"rental_uris":{"android":"levelo://app?vid=90be3d65-c832-4cd8-b2fa-82a3f186625f","ios":"levelo://app?vid=90be3d65-c832-4cd8-b2fa-82a3f186625f"},"vehicle_type_id":"4","last_reported":1723831885,"current_range_meters":18800,"station_id":"ce4bgv92rcd13ifvqcq0","pricing_plan_id":"cebpf4jnsgd1na2vs0mg"},{"bike_id":"d8326ca9-fd14-44d4-aab6-3a06689a006f","system_id":"levelo_inurba_marseille","lat":43.307945,"lon":5.376487,"is_reserved":false,"is_disabled":false,"rental_uris":{"android":"levelo://app?vid=d8326ca9-fd14-44d4-aab6-3a06689a006f","ios":"levelo://app?vid=d8326ca9-fd14-44d4-aab6-3a06689a006f"},"vehicle_type_id":"4","last_reported":1723831885,"current_range_meters":26000,"station_id":"ce4bgv92rcd13ifvqcq0","pricing_plan_id":"cebpf4jnsgd1na2vs0mg"},{"bike_id":"45fb6d57-bc04-4ac2-bcc1-45749a66ee8d","system_id":"levelo_inurba_marseille","lat":43.307945,"lon":5.376487,"is_reserved":false,"is_disabled":false,"rental_uris":{"android":"levelo://app?vid=45fb6d57-bc04-4ac2-bcc1-45749a66ee8d","ios":"levelo://app?vid=45fb6d57-bc04-4ac2-bcc1-45749a66ee8d"},"vehicle_type_id":"4","last_reported":1723831885,"current_range_meters":24800,"station_id":"ce4bgv92rcd13ifvqcq0","pricing_plan_id":"cebpf4jnsgd1na2vs0mg"},{"bike_id":"b0b98a47-8a12-45bf-9683-ab813b53e683","system_id":"levelo_inurba_marseille","lat":43.307945,"lon":5.376487,"is_reserved":false,"is_disabled":false,"rental_uris":{"android":"levelo://app?vid=b0b98a47-8a12-45bf-9683-ab813b53e683","ios":"levelo://app?vid=b0b98a47-8a12-45bf-9683-ab813b53e683"},"vehicle_type_id":"4","last_reported":1723831885,"current_range_meters":10800,"station_id":"ce4bgv92rcd13ifvqcq0","pricing_plan_id":"cebpf4jnsgd1na2vs0mg"},{"bike_id":"e9318eae-d9e5-48f9-8b20-5a0b986432e3","system_id":"levelo_inurba_marseille","lat":43.307945,"lon":5.376487,"is_reserved":false,"is_disabled":false,"rental_uris":{"android":"levelo://app?vid=e9318eae-d9e5-48f9-8b20-5a0b986432e3","ios":"levelo://app?vid=e9318eae-d9e5-48f9-8b20-5a0b986432e3"},"vehicle_type_id":"4","last_reported":1723831885,"current_range_meters":12000,"station_id":"ce4bgv92rcd13ifvqcq0","pricing_plan_id":"cebpf4jnsgd1na2vs0mg"},{"bike_id":"d9fba8e6-ed35-4184-869a-09b887424200","system_id":"levelo_inurba_marseille","lat":43.317075,"lon":5.377367,"is_reserved":false,"is_disabled":false,"rental_uris":{"android":"levelo://app?vid=d9fba8e6-ed35-4184-869a-09b887424200","ios":"levelo://app?vid=d9fba8e6-ed35-4184-869a-09b887424200"},"vehicle_type_id":"4","last_reported":1723831885,"current_range_meters":22400,"station_id":"ce4bgth2rcd13ifvqch0","pricing_plan_id":"cebpf4jnsgd1na2vs0mg"},{"bike_id":"624a2f6f-c5cb-4f84-a15a-1a0cdda20984","system_id":"levelo_inurba_marseille","lat":43.317075,"lon":5.377367,"is_reserved":false,"is_disabled":false,"rental_uris":{"android":"levelo://app?vid=624a2f6f-c5cb-4f84-a15a-1a0cdda20984","ios":"levelo://app?vid=624a2f6f-c5cb-4f84-a15a-1a0cdda20984"},"vehicle_type_id":"4","last_reported":1723831885,"current_range_meters":23200,"station_id":"ce4bgth2rcd13ifvqch0","pricing_plan_id":"cebpf4jnsgd1na2vs0mg"},{"bike_id":"6f3b0fff-03c6-4bf2-bf94-008f2d7ba3a4","system_id":"levelo_inurba_marseille","lat":43.3137,"lon":5.3792,"is_reserved":false,"is_disabled":false,"rental_uris":{"android":"levelo://app?vid=6f3b0fff-03c6-4bf2-bf94-008f2d7ba3a4","ios":"levelo://app?vid=6f3b0fff-03c6-4bf2-bf94-008f2d7ba3a4"},"vehicle_type_id":"4","last_reported":1723831885,"current_range_meters":6000,"station_id":"","pricing_plan_id":"cebpf4jnsgd1na2vs0mg"},{"bike_id":"d3a32379-ea9f-4e87-8e31-da20fa08db8d","system_id":"levelo_inurba_marseille","lat":43.30304,"lon":5.368987,"is_reserved":false,"is_disabled":false,"rental_uris":{"android":"levelo://app?vid=d3a32379-ea9f-4e87-8e31-da20fa08db8d","ios":"levelo://app?vid=d3a32379-ea9f-4e87-8e31-da20fa08db8d"},"vehicle_type_id":"4","last_reported":1723831885,"current_range_meters":28800,"station_id":"ce4bgqh2rcd13ifvqc5g","pricing_plan_id":"cebpf4jnsgd1na2vs0mg"},{"bike_id":"570ab7be-0612-4383-9d87-ba909e813420","system_id":"levelo_inurba_marseille","lat":43.315289,"lon":5.380349,"is_reserved":false,"is_disabled":false,"rental_uris":{"android":"levelo://app?vid=570ab7be-0612-4383-9d87-ba909e813420","ios":"levelo://app?vid=570ab7be-0612-4383-9d87-ba909e813420"},"vehicle_type_id":"4","last_reported":1723831885,"current_range_meters":28400,"station_id":"ce4bhsp2rcd13ifvqi50","pricing_plan_id":"cebpf4jnsgd1na2vs0mg"},{"bike_id":"6525aa52-816a-4c8e-ad78-f32505ccdfba","system_id":"levelo_inurba_marseille","lat":43.31026,"lon":5.3808,"is_reserved":false,"is_disabled":false,"rental_uris":{"android":"levelo://app?vid=6525aa52-816a-4c8e-ad78-f32505ccdfba","ios":"levelo://app?vid=6525aa52-816a-4c8e-ad78-f32505ccdfba"},"vehicle_type_id":"4","last_reported":1723831885,"current_range_meters":7200,"station_id":"","pricing_plan_id":"cebpf4jnsgd1na2vs0mg"},{"bike_id":"5e9b4be0-0315-455f-8314-3db7d93948e5","system_id":"levelo_inurba_marseille","lat":43.301939,"lon":5.366286,"is_reserved":false,"is_disabled":false,"rental_uris":{"android":"levelo://app?vid=5e9b4be0-0315-455f-8314-3db7d93948e5","ios":"levelo://app?vid=5e9b4be0-0315-455f-8314-3db7d93948e5"},"vehicle_type_id":"4","last_reported":1723831885,"current_range_meters":25600,"station_id":"ce4bgrh2rcd13ifvqc8g","pricing_plan_id":"cebpf4jnsgd1na2vs0mg"},{"bike_id":"6c057124-96a2-4f24-a0ab-e0a2a5cb96f3","system_id":"levelo_inurba_marseille","lat":43.304606,"lon":5.379026,"is_reserved":false,"is_disabled":false,"rental_uris":{"android":"levelo://app?vid=6c057124-96a2-4f24-a0ab-e0a2a5cb96f3","ios":"levelo://app?vid=6c057124-96a2-4f24-a0ab-e0a2a5cb96f3"},"vehicle_type_id":"4","last_reported":1723831885,"current_range_meters":8400,"station_id":"ce4bgup2rcd13ifvqcn0","pricing_plan_id":"cebpf4jnsgd1na2vs0mg"},{"bike_id":"db4acc6a-627b-4fd1-a78c-5c2dc4e52642","system_id":"levelo_inurba_marseille","lat":43.324771,"lon":5.36557,"is_reserved":false,"is_disabled":false,"rental_uris":{"android":"levelo://app?vid=db4acc6a-627b-4fd1-a78c-5c2dc4e52642","ios":"levelo://app?vid=db4acc6a-627b-4fd1-a78c-5c2dc4e52642"},"vehicle_type_id":"4","last_reported":1723831885,"current_range_meters":10000,"station_id":"ce4bhs12rcd13ifvqhvg","pricing_plan_id":"cebpf4jnsgd1na2vs0mg"},{"bike_id":"f276df0f-8c31-463e-bb00-8510b1789493","system_id":"levelo_inurba_marseille","lat":43.324771,"lon":5.36557,"is_reserved":false,"is_disabled":false,"rental_uris":{"android":"levelo://app?vid=f276df0f-8c31-463e-bb00-8510b1789493","ios":"levelo://app?vid=f276df0f-8c31-463e-bb00-8510b1789493"},"vehicle_type_id":"4","last_reported":1723831885,"current_range_meters":2400,"station_id":"ce4bhs12rcd13ifvqhvg","pricing_plan_id":"cebpf4jnsgd1na2vs0mg"},{"bike_id":"7bebe148-2acf-46db-9768-c068347cabe5","system_id":"levelo_inurba_marseille","lat":43.324771,"lon":5.36557,"is_reserved":false,"is_disabled":false,"rental_uris":{"android":"levelo://app?vid=7bebe148-2acf-46db-9768-c068347cabe5","ios":"levelo://app?vid=7bebe148-2acf-46db-9768-c068347cabe5"},"vehicle_type_id":"4","last_reported":1723831885,"current_range_meters":30000,"station_id":"ce4bhs12rcd13ifvqhvg","pricing_plan_id":"cebpf4jnsgd1na2vs0mg"},{"bike_id":"6472a88b-9da4-4029-9f21-391a56f4cfc1","system_id":"levelo_inurba_marseille","lat":43.324771,"lon":5.36557,"is_reserved":false,"is_disabled":false,"rental_uris":{"android":"levelo://app?vid=6472a88b-9da4-4029-9f21-391a56f4cfc1","ios":"levelo://app?vid=6472a88b-9da4-4029-9f21-391a56f4cfc1"},"vehicle_type_id":"4","last_reported":1723831885,"current_range_meters":31600,"station_id":"ce4bhs12rcd13ifvqhvg","pricing_plan_id":"cebpf4jnsgd1na2vs0mg"},{"bike_id":"1cc1a06a-9534-4f77-a6ce-b9613dd45db2","system_id":"levelo_inurba_marseille","lat":43.324771,"lon":5.36557,"is_reserved":false,"is_disabled":false,"rental_uris":{"android":"levelo://app?vid=1cc1a06a-9534-4f77-a6ce-b9613dd45db2","ios":"levelo://app?vid=1cc1a06a-9534-4f77-a6ce-b9613dd45db2"},"vehicle_type_id":"4","last_reported":1723831885,"current_range_meters":14800,"station_id":"ce4bhs12rcd13ifvqhvg","pricing_plan_id":"cebpf4jnsgd1na2vs0mg"},{"bike_id":"f2ef0f05-350c-4b46-afdf-859ee10c40f2","system_id":"levelo_inurba_marseille","lat":43.324771,"lon":5.36557,"is_reserved":false,"is_disabled":false,"rental_uris":{"android":"levelo://app?vid=f2ef0f05-350c-4b46-afdf-859ee10c40f2","ios":"levelo://app?vid=f2ef0f05-350c-4b46-afdf-859ee10c40f2"},"vehicle_type_id":"4","last_reported":1723831885,"current_range_meters":20800,"station_id":"ce4bhs12rcd13ifvqhvg","pricing_plan_id":"cebpf4jnsgd1na2vs0mg"},{"bike_id":"94077f2b-f47f-48d7-8e74-d50d3804e489","system_id":"levelo_inurba_marseille","lat":43.324771,"lon":5.36557,"is_reserved":false,"is_disabled":false,"rental_uris":{"android":"levelo://app?vid=94077f2b-f47f-48d7-8e74-d50d3804e489","ios":"levelo://app?vid=94077f2b-f47f-48d7-8e74-d50d3804e489"},"vehicle_type_id":"4","last_reported":1723831885,"current_range_meters":14800,"station_id":"ce4bhs12rcd13ifvqhvg","pricing_plan_id":"cebpf4jnsgd1na2vs0mg"},{"bike_id":"edd52fff-d71f-4b44-8b00-5583186ff434","system_id":"levelo_inurba_marseille","lat":43.324771,"lon":5.36557,"is_reserved":false,"is_disabled":false,"rental_uris":{"android":"levelo://app?vid=edd52fff-d71f-4b44-8b00-5583186ff434","ios":"levelo://app?vid=edd52fff-d71f-4b44-8b00-5583186ff434"},"vehicle_type_id":"4","last_reported":1723831885,"current_range_meters":23200,"station_id":"ce4bhs12rcd13ifvqhvg","pricing_plan_id":"cebpf4jnsgd1na2vs0mg"},{"bike_id":"f9ad0309-7f53-4d9b-9ddf-f24ce78ffb0d","system_id":"levelo_inurba_marseille","lat":43.324771,"lon":5.36557,"is_reserved":false,"is_disabled":false,"rental_uris":{"android":"levelo://app?vid=f9ad0309-7f53-4d9b-9ddf-f24ce78ffb0d","ios":"levelo://app?vid=f9ad0309-7f53-4d9b-9ddf-f24ce78ffb0d"},"vehicle_type_id":"4","last_reported":1723831885,"current_range_meters":3200,"station_id":"ce4bhs12rcd13ifvqhvg","pricing_plan_id":"cebpf4jnsgd1na2vs0mg"},{"bike_id":"a3e0bb7f-c4cc-46d2-9067-17dd93498269","system_id":"levelo_inurba_marseille","lat":43.310804,"lon":5.38359,"is_reserved":false,"is_disabled":false,"rental_uris":{"android":"levelo://app?vid=a3e0bb7f-c4cc-46d2-9067-17dd93498269","ios":"levelo://app?vid=a3e0bb7f-c4cc-46d2-9067-17dd93498269"},"vehicle_type_id":"4","last_reported":1723831885,"current_range_meters":4800,"station_id":"ce4bgv92rcd13ifvqcr0","pricing_plan_id":"cebpf4jnsgd1na2vs0mg"},{"bike_id":"486a1502-8e0e-44ef-bd93-2703b92b76dc","system_id":"levelo_inurba_marseille","lat":43.302784,"lon":5.377158,"is_reserved":false,"is_disabled":false,"rental_uris":{"android":"levelo://app?vid=486a1502-8e0e-44ef-bd93-2703b92b76dc","ios":"levelo://app?vid=486a1502-8e0e-44ef-bd93-2703b92b76dc"},"vehicle_type_id":"4","last_reported":1723831885,"current_range_meters":31600,"station_id":"ce4bguh2rcd13ifvqcj0","pricing_plan_id":"cebpf4jnsgd1na2vs0mg"},{"bike_id":"c76c3101-9ced-4e78-8b82-f6cc4597d9e1","system_id":"levelo_inurba_marseille","lat":43.302784,"lon":5.377158,"is_reserved":false,"is_disabled":false,"rental_uris":{"android":"levelo://app?vid=c76c3101-9ced-4e78-8b82-f6cc4597d9e1","ios":"levelo://app?vid=c76c3101-9ced-4e78-8b82-f6cc4597d9e1"},"vehicle_type_id":"4","last_reported":1723831885,"current_range_meters":31600,"station_id":"ce4bguh2rcd13ifvqcj0","pricing_plan_id":"cebpf4jnsgd1na2vs0mg"},{"bike_id":"d306aa1b-8db8-4dfe-90ae-9629c3653d4d","system_id":"levelo_inurba_marseille","lat":43.302784,"lon":5.377158,"is_reserved":false,"is_disabled":false,"rental_uris":{"android":"levelo://app?vid=d306aa1b-8db8-4dfe-90ae-9629c3653d4d","ios":"levelo://app?vid=d306aa1b-8db8-4dfe-90ae-9629c3653d4d"},"vehicle_type_id":"4","last_reported":1723831885,"current_range_meters":21200,"station_id":"ce4bguh2rcd13ifvqcj0","pricing_plan_id":"cebpf4jnsgd1na2vs0mg"},{"bike_id":"86001490-0543-4bd0-9ec8-680a92437b3a","system_id":"levelo_inurba_marseille","lat":43.302784,"lon":5.377158,"is_reserved":false,"is_disabled":false,"rental_uris":{"android":"levelo://app?vid=86001490-0543-4bd0-9ec8-680a92437b3a","ios":"levelo://app?vid=86001490-0543-4bd0-9ec8-680a92437b3a"},"vehicle_type_id":"4","last_reported":1723831885,"current_range_meters":31600,"station_id":"ce4bguh2rcd13ifvqcj0","pricing_plan_id":"cebpf4jnsgd1na2vs0mg"},{"bike_id":"b2181fb4-7831-4019-8cfe-98803d24e3d2","system_id":"levelo_inurba_marseille","lat":43.30143,"lon":5.37413,"is_reserved":false,"is_disabled":false,"rental_uris":{"android":"levelo://app?vid=b2181fb4-7831-4019-8cfe-98803d24e3d2","ios":"levelo://app?vid=b2181fb4-7831-4019-8cfe-98803d24e3d2"},"vehicle_type_id":"4","last_reported":1723831885,"current_range_meters":26400,"station_id":"ce4bgs92rcd13ifvqcc0","pricing_plan_id":"cebpf4jnsgd1na2vs0mg"},{"bike_id":"3002f280-7517-4418-82ef-061406a0cac0","system_id":"levelo_inurba_marseille","lat":43.325242,"lon":5.369292,"is_reserved":false,"is_disabled":false,"rental_uris":{"android":"levelo://app?vid=3002f280-7517-4418-82ef-061406a0cac0","ios":"levelo://app?vid=3002f280-7517-4418-82ef-061406a0cac0"},"vehicle_type_id":"4","last_reported":1723831885,"current_range_meters":6000,"station_id":"","pricing_plan_id":"cebpf4jnsgd1na2vs0mg"},{"bike_id":"ce02ec92-1446-4adf-a543-f97cf98b6137","system_id":"levelo_inurba_marseille","lat":43.30594,"lon":5.38181,"is_reserved":false,"is_disabled":false,"rental_uris":{"android":"levelo://app?vid=ce02ec92-1446-4adf-a543-f97cf98b6137","ios":"levelo://app?vid=ce02ec92-1446-4adf-a543-f97cf98b6137"},"vehicle_type_id":"4","last_reported":1723831885,"current_range_meters":26000,"station_id":"","pricing_plan_id":"cebpf4jnsgd1na2vs0mg"},{"bike_id":"ee43e58c-302d-47a7-a254-c86a3c222cd2","system_id":"levelo_inurba_marseille","lat":43.31985,"lon":5.38154,"is_reserved":false,"is_disabled":false,"rental_uris":{"android":"levelo://app?vid=ee43e58c-302d-47a7-a254-c86a3c222cd2","ios":"levelo://app?vid=ee43e58c-302d-47a7-a254-c86a3c222cd2"},"vehicle_type_id":"4","last_reported":1723831885,"current_range_meters":15600,"station_id":"ce4bhr12rcd13ifvqhpg","pricing_plan_id":"cebpf4jnsgd1na2vs0mg"},{"bike_id":"31d9c63a-7a7a-4091-9284-7d01058b5804","system_id":"levelo_inurba_marseille","lat":43.319935,"lon":5.381699,"is_reserved":false,"is_disabled":false,"rental_uris":{"android":"levelo://app?vid=31d9c63a-7a7a-4091-9284-7d01058b5804","ios":"levelo://app?vid=31d9c63a-7a7a-4091-9284-7d01058b5804"},"vehicle_type_id":"4","last_reported":1723831885,"current_range_meters":3200,"station_id":"ce4bhr12rcd13ifvqhpg","pricing_plan_id":"cebpf4jnsgd1na2vs0mg"},{"bike_id":"2c93de35-6471-40eb-9a08-81a024d67633","system_id":"levelo_inurba_marseille","lat":43.313571,"lon":5.384829,"is_reserved":false,"is_disabled":false,"rental_uris":{"android":"levelo://app?vid=2c93de35-6471-40eb-9a08-81a024d67633","ios":"levelo://app?vid=2c93de35-6471-40eb-9a08-81a024d67633"},"vehicle_type_id":"4","last_reported":1723831885,"current_range_meters":24400,"station_id":"ce4bgt92rcd13ifvqcf0","pricing_plan_id":"cebpf4jnsgd1na2vs0mg"},{"bike_id":"762d4440-1261-4bcc-94c3-7ff3b30c8deb","system_id":"levelo_inurba_marseille","lat":43.313571,"lon":5.384829,"is_reserved":false,"is_disabled":false,"rental_uris":{"android":"levelo://app?vid=762d4440-1261-4bcc-94c3-7ff3b30c8deb","ios":"levelo://app?vid=762d4440-1261-4bcc-94c3-7ff3b30c8deb"},"vehicle_type_id":"4","last_reported":1723831885,"current_range_meters":18400,"station_id":"ce4bgt92rcd13ifvqcf0","pricing_plan_id":"cebpf4jnsgd1na2vs0mg"},{"bike_id":"507d84cb-0681-4261-8d52-60a662593ef8","system_id":"levelo_inurba_marseille","lat":43.313599,"lon":5.384875,"is_reserved":false,"is_disabled":false,"rental_uris":{"android":"levelo://app?vid=507d84cb-0681-4261-8d52-60a662593ef8","ios":"levelo://app?vid=507d84cb-0681-4261-8d52-60a662593ef8"},"vehicle_type_id":"4","last_reported":1723831885,"current_range_meters":27600,"station_id":"","pricing_plan_id":"cebpf4jnsgd1na2vs0mg"},{"bike_id":"cade6b3b-1d6a-4fb4-9aa0-ea5afd9b526d","system_id":"levelo_inurba_marseille","lat":43.313571,"lon":5.384829,"is_reserved":false,"is_disabled":false,"rental_uris":{"android":"levelo://app?vid=cade6b3b-1d6a-4fb4-9aa0-ea5afd9b526d","ios":"levelo://app?vid=cade6b3b-1d6a-4fb4-9aa0-ea5afd9b526d"},"vehicle_type_id":"4","last_reported":1723831885,"current_range_meters":14000,"station_id":"ce4bgt92rcd13ifvqcf0","pricing_plan_id":"cebpf4jnsgd1na2vs0mg"},{"bike_id":"8b61964a-1c13-4b41-a550-849a09209fa9","system_id":"levelo_inurba_marseille","lat":43.313571,"lon":5.384829,"is_reserved":false,"is_disabled":false,"rental_uris":{"android":"levelo://app?vid=8b61964a-1c13-4b41-a550-849a09209fa9","ios":"levelo://app?vid=8b61964a-1c13-4b41-a550-849a09209fa9"},"vehicle_type_id":"4","last_reported":1723831885,"current_range_meters":26400,"station_id":"ce4bgt92rcd13ifvqcf0","pricing_plan_id":"cebpf4jnsgd1na2vs0mg"},{"bike_id":"e7027073-dc3b-4453-9155-42f6399a6b69","system_id":"levelo_inurba_marseille","lat":43.313571,"lon":5.384829,"is_reserved":false,"is_disabled":false,"rental_uris":{"android":"levelo://app?vid=e7027073-dc3b-4453-9155-42f6399a6b69","ios":"levelo://app?vid=e7027073-dc3b-4453-9155-42f6399a6b69"},"vehicle_type_id":"4","last_reported":1723831885,"current_range_meters":24000,"station_id":"ce4bgt92rcd13ifvqcf0","pricing_plan_id":"cebpf4jnsgd1na2vs0mg"},{"bike_id":"61d1c6f0-1138-48bd-b27f-5159155839b2","system_id":"levelo_inurba_marseille","lat":43.313571,"lon":5.384829,"is_reserved":false,"is_disabled":false,"rental_uris":{"android":"levelo://app?vid=61d1c6f0-1138-48bd-b27f-5159155839b2","ios":"levelo://app?vid=61d1c6f0-1138-48bd-b27f-5159155839b2"},"vehicle_type_id":"4","last_reported":1723831885,"current_range_meters":0,"station_id":"ce4bgt92rcd13ifvqcf0","pricing_plan_id":"cebpf4jnsgd1na2vs0mg"},{"bike_id":"f4bb82aa-3d7e-4385-85c7-5b03e7cceb50","system_id":"levelo_inurba_marseille","lat":43.31224,"lon":5.38639,"is_reserved":false,"is_disabled":false,"rental_uris":{"android":"levelo://app?vid=f4bb82aa-3d7e-4385-85c7-5b03e7cceb50","ios":"levelo://app?vid=f4bb82aa-3d7e-4385-85c7-5b03e7cceb50"},"vehicle_type_id":"4","last_reported":1723831885,"current_range_meters":10800,"station_id":"","pricing_plan_id":"cebpf4jnsgd1na2vs0mg"},{"bike_id":"479e2cd0-712d-4847-9126-1573d5c44446","system_id":"levelo_inurba_marseille","lat":43.298433,"lon":5.362774,"is_reserved":false,"is_disabled":false,"rental_uris":{"android":"levelo://app?vid=479e2cd0-712d-4847-9126-1573d5c44446","ios":"levelo://app?vid=479e2cd0-712d-4847-9126-1573d5c44446"},"vehicle_type_id":"4","last_reported":1723831885,"current_range_meters":17200,"station_id":"ce4bgpp2rcd13ifvqc3g","pricing_plan_id":"cebpf4jnsgd1na2vs0mg"},{"bike_id":"82e33d5b-30c5-475f-9975-e07cc0ad3c92","system_id":"levelo_inurba_marseille","lat":43.298433,"lon":5.362774,"is_reserved":false,"is_disabled":false,"rental_uris":{"android":"levelo://app?vid=82e33d5b-30c5-475f-9975-e07cc0ad3c92","ios":"levelo://app?vid=82e33d5b-30c5-475f-9975-e07cc0ad3c92"},"vehicle_type_id":"4","last_reported":1723831885,"current_range_meters":17600,"station_id":"ce4bgpp2rcd13ifvqc3g","pricing_plan_id":"cebpf4jnsgd1na2vs0mg"},{"bike_id":"02ae2460-d43c-4e1d-a9eb-ae35cd6da239","system_id":"levelo_inurba_marseille","lat":43.298433,"lon":5.362774,"is_reserved":false,"is_disabled":false,"rental_uris":{"android":"levelo://app?vid=02ae2460-d43c-4e1d-a9eb-ae35cd6da239","ios":"levelo://app?vid=02ae2460-d43c-4e1d-a9eb-ae35cd6da239"},"vehicle_type_id":"4","last_reported":1723831885,"current_range_meters":13200,"station_id":"ce4bgpp2rcd13ifvqc3g","pricing_plan_id":"cebpf4jnsgd1na2vs0mg"},{"bike_id":"a3f52049-f799-4b2d-b92f-1a64e47a6816","system_id":"levelo_inurba_marseille","lat":43.29814,"lon":5.36589,"is_reserved":false,"is_disabled":false,"rental_uris":{"android":"levelo://app?vid=a3f52049-f799-4b2d-b92f-1a64e47a6816","ios":"levelo://app?vid=a3f52049-f799-4b2d-b92f-1a64e47a6816"},"vehicle_type_id":"4","last_reported":1723831885,"current_range_meters":0,"station_id":"","pricing_plan_id":"cebpf4jnsgd1na2vs0mg"},{"bike_id":"9fd8b199-8f98-4e5a-a79b-67ea9df1eaae","system_id":"levelo_inurba_marseille","lat":43.301493,"lon":5.380781,"is_reserved":false,"is_disabled":false,"rental_uris":{"android":"levelo://app?vid=9fd8b199-8f98-4e5a-a79b-67ea9df1eaae","ios":"levelo://app?vid=9fd8b199-8f98-4e5a-a79b-67ea9df1eaae"},"vehicle_type_id":"4","last_reported":1723831885,"current_range_meters":31600,"station_id":"","pricing_plan_id":"cebpf4jnsgd1na2vs0mg"},{"bike_id":"b8f6b5b7-0610-435d-8a91-af156f92d87f","system_id":"levelo_inurba_marseille","lat":43.3015,"lon":5.3808,"is_reserved":false,"is_disabled":false,"rental_uris":{"android":"levelo://app?vid=b8f6b5b7-0610-435d-8a91-af156f92d87f","ios":"levelo://app?vid=b8f6b5b7-0610-435d-8a91-af156f92d87f"},"vehicle_type_id":"4","last_reported":1723831885,"current_range_meters":15600,"station_id":"","pricing_plan_id":"cebpf4jnsgd1na2vs0mg"},{"bike_id":"7040bd21-f32f-46a4-a41b-ba1ef6e43c92","system_id":"levelo_inurba_marseille","lat":43.295748,"lon":5.37522,"is_reserved":false,"is_disabled":false,"rental_uris":{"android":"levelo://app?vid=7040bd21-f32f-46a4-a41b-ba1ef6e43c92","ios":"levelo://app?vid=7040bd21-f32f-46a4-a41b-ba1ef6e43c92"},"vehicle_type_id":"4","last_reported":1723831885,"current_range_meters":0,"station_id":"ce4bgh92rcd13ifvqb50","pricing_plan_id":"cebpf4jnsgd1na2vs0mg"},{"bike_id":"39140390-6c59-4118-beb0-1efabfb16b53","system_id":"levelo_inurba_marseille","lat":43.297163,"lon":5.365866,"is_reserved":false,"is_disabled":false,"rental_uris":{"android":"levelo://app?vid=39140390-6c59-4118-beb0-1efabfb16b53","ios":"levelo://app?vid=39140390-6c59-4118-beb0-1efabfb16b53"},"vehicle_type_id":"4","last_reported":1723831885,"current_range_meters":13200,"station_id":"ce4bgn12rcd13ifvqbt0","pricing_plan_id":"cebpf4jnsgd1na2vs0mg"},{"bike_id":"b4cd0884-cd2c-43b8-af06-fbd60f0e560c","system_id":"levelo_inurba_marseille","lat":43.297163,"lon":5.365866,"is_reserved":false,"is_disabled":false,"rental_uris":{"android":"levelo://app?vid=b4cd0884-cd2c-43b8-af06-fbd60f0e560c","ios":"levelo://app?vid=b4cd0884-cd2c-43b8-af06-fbd60f0e560c"},"vehicle_type_id":"4","last_reported":1723831885,"current_range_meters":24000,"station_id":"ce4bgn12rcd13ifvqbt0","pricing_plan_id":"cebpf4jnsgd1na2vs0mg"},{"bike_id":"a1880622-7ac5-4fa0-8a22-7be14ee4e8c3","system_id":"levelo_inurba_marseille","lat":43.2968,"lon":5.37291,"is_reserved":false,"is_disabled":false,"rental_uris":{"android":"levelo://app?vid=a1880622-7ac5-4fa0-8a22-7be14ee4e8c3","ios":"levelo://app?vid=a1880622-7ac5-4fa0-8a22-7be14ee4e8c3"},"vehicle_type_id":"4","last_reported":1723831885,"current_range_meters":19200,"station_id":"ce4bgk12rcd13ifvqbj0","pricing_plan_id":"cebpf4jnsgd1na2vs0mg"},{"bike_id":"4c65c76e-18ba-4244-ae76-2abc7170d868","system_id":"levelo_inurba_marseille","lat":43.295879,"lon":5.367574,"is_reserved":false,"is_disabled":false,"rental_uris":{"android":"levelo://app?vid=4c65c76e-18ba-4244-ae76-2abc7170d868","ios":"levelo://app?vid=4c65c76e-18ba-4244-ae76-2abc7170d868"},"vehicle_type_id":"4","last_reported":1723831885,"current_range_meters":18000,"station_id":"","pricing_plan_id":"cebpf4jnsgd1na2vs0mg"},{"bike_id":"1244c26c-d612-4df6-99ac-dbb44d255f74","system_id":"levelo_inurba_marseille","lat":43.29573,"lon":5.367355,"is_reserved":false,"is_disabled":false,"rental_uris":{"android":"levelo://app?vid=1244c26c-d612-4df6-99ac-dbb44d255f74","ios":"levelo://app?vid=1244c26c-d612-4df6-99ac-dbb44d255f74"},"vehicle_type_id":"4","last_reported":1723831885,"current_range_meters":20000,"station_id":"ce4bgph2rcd13ifvqc2g","pricing_plan_id":"cebpf4jnsgd1na2vs0mg"},{"bike_id":"8657970e-e3e2-4fd5-9229-ae2f9d0095db","system_id":"levelo_inurba_marseille","lat":43.29573,"lon":5.367355,"is_reserved":false,"is_disabled":false,"rental_uris":{"android":"levelo://app?vid=8657970e-e3e2-4fd5-9229-ae2f9d0095db","ios":"levelo://app?vid=8657970e-e3e2-4fd5-9229-ae2f9d0095db"},"vehicle_type_id":"4","last_reported":1723831885,"current_range_meters":23200,"station_id":"ce4bgph2rcd13ifvqc2g","pricing_plan_id":"cebpf4jnsgd1na2vs0mg"},{"bike_id":"b8a4f3ee-57ee-47e8-aac5-70de139cd143","system_id":"levelo_inurba_marseille","lat":43.296921,"lon":5.376579,"is_reserved":false,"is_disabled":false,"rental_uris":{"android":"levelo://app?vid=b8a4f3ee-57ee-47e8-aac5-70de139cd143","ios":"levelo://app?vid=b8a4f3ee-57ee-47e8-aac5-70de139cd143"},"vehicle_type_id":"4","last_reported":1723831885,"current_range_meters":31200,"station_id":"ce4bgkh2rcd13ifvqbl0","pricing_plan_id":"cebpf4jnsgd1na2vs0mg"},{"bike_id":"437ec4ac-3117-4f0e-b788-a9ec57a42201","system_id":"levelo_inurba_marseille","lat":43.299028,"lon":5.381509,"is_reserved":false,"is_disabled":false,"rental_uris":{"android":"levelo://app?vid=437ec4ac-3117-4f0e-b788-a9ec57a42201","ios":"levelo://app?vid=437ec4ac-3117-4f0e-b788-a9ec57a42201"},"vehicle_type_id":"4","last_reported":1723831885,"current_range_meters":29600,"station_id":"ce4bgj12rcd13ifvqbc0","pricing_plan_id":"cebpf4jnsgd1na2vs0mg"},{"bike_id":"af853860-9b31-4d60-892c-f9b32db111ba","system_id":"levelo_inurba_marseille","lat":43.299028,"lon":5.381509,"is_reserved":false,"is_disabled":false,"rental_uris":{"android":"levelo://app?vid=af853860-9b31-4d60-892c-f9b32db111ba","ios":"levelo://app?vid=af853860-9b31-4d60-892c-f9b32db111ba"},"vehicle_type_id":"4","last_reported":1723831885,"current_range_meters":24800,"station_id":"ce4bgj12rcd13ifvqbc0","pricing_plan_id":"cebpf4jnsgd1na2vs0mg"},{"bike_id":"6b718488-983b-422c-bb07-c38086f7d987","system_id":"levelo_inurba_marseille","lat":43.299028,"lon":5.381509,"is_reserved":false,"is_disabled":false,"rental_uris":{"android":"levelo://app?vid=6b718488-983b-422c-bb07-c38086f7d987","ios":"levelo://app?vid=6b718488-983b-422c-bb07-c38086f7d987"},"vehicle_type_id":"4","last_reported":1723831885,"current_range_meters":5600,"station_id":"ce4bgj12rcd13ifvqbc0","pricing_plan_id":"cebpf4jnsgd1na2vs0mg"},{"bike_id":"74212485-fa37-45e4-85c7-2a1ea6572530","system_id":"levelo_inurba_marseille","lat":43.30964,"lon":5.39024,"is_reserved":false,"is_disabled":false,"rental_uris":{"android":"levelo://app?vid=74212485-fa37-45e4-85c7-2a1ea6572530","ios":"levelo://app?vid=74212485-fa37-45e4-85c7-2a1ea6572530"},"vehicle_type_id":"4","last_reported":1723831885,"current_range_meters":16800,"station_id":"ce4bgup2rcd13ifvqco0","pricing_plan_id":"cebpf4jnsgd1na2vs0mg"},{"bike_id":"db6cefed-7425-468f-8ee1-4d22cab99f17","system_id":"levelo_inurba_marseille","lat":43.299028,"lon":5.381509,"is_reserved":false,"is_disabled":false,"rental_uris":{"android":"levelo://app?vid=db6cefed-7425-468f-8ee1-4d22cab99f17","ios":"levelo://app?vid=db6cefed-7425-468f-8ee1-4d22cab99f17"},"vehicle_type_id":"4","last_reported":1723831885,"current_range_meters":21600,"station_id":"ce4bgj12rcd13ifvqbc0","pricing_plan_id":"cebpf4jnsgd1na2vs0mg"},{"bike_id":"a965bbf9-2fe6-46d5-8dea-3462ebd4aed8","system_id":"levelo_inurba_marseille","lat":43.299028,"lon":5.381509,"is_reserved":false,"is_disabled":false,"rental_uris":{"android":"levelo://app?vid=a965bbf9-2fe6-46d5-8dea-3462ebd4aed8","ios":"levelo://app?vid=a965bbf9-2fe6-46d5-8dea-3462ebd4aed8"},"vehicle_type_id":"4","last_reported":1723831885,"current_range_meters":31200,"station_id":"ce4bgj12rcd13ifvqbc0","pricing_plan_id":"cebpf4jnsgd1na2vs0mg"},{"bike_id":"2edae5da-54ac-4111-8e42-7ea1439a1655","system_id":"levelo_inurba_marseille","lat":43.309537,"lon":5.390267,"is_reserved":false,"is_disabled":false,"rental_uris":{"android":"levelo://app?vid=2edae5da-54ac-4111-8e42-7ea1439a1655","ios":"levelo://app?vid=2edae5da-54ac-4111-8e42-7ea1439a1655"},"vehicle_type_id":"4","last_reported":1723831885,"current_range_meters":6400,"station_id":"","pricing_plan_id":"cebpf4jnsgd1na2vs0mg"},{"bike_id":"3f876144-2c5b-4468-83d1-86b11b3a2fb5","system_id":"levelo_inurba_marseille","lat":43.309486,"lon":5.390254,"is_reserved":false,"is_disabled":false,"rental_uris":{"android":"levelo://app?vid=3f876144-2c5b-4468-83d1-86b11b3a2fb5","ios":"levelo://app?vid=3f876144-2c5b-4468-83d1-86b11b3a2fb5"},"vehicle_type_id":"4","last_reported":1723831885,"current_range_meters":24800,"station_id":"ce4bgup2rcd13ifvqco0","pricing_plan_id":"cebpf4jnsgd1na2vs0mg"},{"bike_id":"a1618b8e-5d3f-4cbb-a0f1-469a41eef48a","system_id":"levelo_inurba_marseille","lat":43.30941,"lon":5.39024,"is_reserved":false,"is_disabled":false,"rental_uris":{"android":"levelo://app?vid=a1618b8e-5d3f-4cbb-a0f1-469a41eef48a","ios":"levelo://app?vid=a1618b8e-5d3f-4cbb-a0f1-469a41eef48a"},"vehicle_type_id":"4","last_reported":1723831885,"current_range_meters":16400,"station_id":"ce4bgup2rcd13ifvqco0","pricing_plan_id":"cebpf4jnsgd1na2vs0mg"},{"bike_id":"0ef5d92e-8d45-495d-9f73-7a087716d7c8","system_id":"levelo_inurba_marseille","lat":43.30952,"lon":5.39027,"is_reserved":false,"is_disabled":false,"rental_uris":{"android":"levelo://app?vid=0ef5d92e-8d45-495d-9f73-7a087716d7c8","ios":"levelo://app?vid=0ef5d92e-8d45-495d-9f73-7a087716d7c8"},"vehicle_type_id":"4","last_reported":1723831885,"current_range_meters":1200,"station_id":"ce4bgup2rcd13ifvqco0","pricing_plan_id":"cebpf4jnsgd1na2vs0mg"},{"bike_id":"f88a1a0c-27ed-4582-8f59-9c980fe3e658","system_id":"levelo_inurba_marseille","lat":43.309589,"lon":5.390258,"is_reserved":false,"is_disabled":false,"rental_uris":{"android":"levelo://app?vid=f88a1a0c-27ed-4582-8f59-9c980fe3e658","ios":"levelo://app?vid=f88a1a0c-27ed-4582-8f59-9c980fe3e658"},"vehicle_type_id":"4","last_reported":1723831885,"current_range_meters":20800,"station_id":"ce4bgup2rcd13ifvqco0","pricing_plan_id":"cebpf4jnsgd1na2vs0mg"},{"bike_id":"3b71dcbb-1dd5-4ad7-9cc5-6b0f4a96a4dd","system_id":"levelo_inurba_marseille","lat":43.3095,"lon":5.39028,"is_reserved":false,"is_disabled":false,"rental_uris":{"android":"levelo://app?vid=3b71dcbb-1dd5-4ad7-9cc5-6b0f4a96a4dd","ios":"levelo://app?vid=3b71dcbb-1dd5-4ad7-9cc5-6b0f4a96a4dd"},"vehicle_type_id":"4","last_reported":1723831885,"current_range_meters":2800,"station_id":"ce4bgup2rcd13ifvqco0","pricing_plan_id":"cebpf4jnsgd1na2vs0mg"},{"bike_id":"6ede9333-46eb-4917-aa03-dd88302a4a6b","system_id":"levelo_inurba_marseille","lat":43.309503,"lon":5.390283,"is_reserved":false,"is_disabled":false,"rental_uris":{"android":"levelo://app?vid=6ede9333-46eb-4917-aa03-dd88302a4a6b","ios":"levelo://app?vid=6ede9333-46eb-4917-aa03-dd88302a4a6b"},"vehicle_type_id":"4","last_reported":1723831885,"current_range_meters":12000,"station_id":"ce4bgup2rcd13ifvqco0","pricing_plan_id":"cebpf4jnsgd1na2vs0mg"},{"bike_id":"7d25b1be-02ee-483e-84cc-152659258e27","system_id":"levelo_inurba_marseille","lat":43.30945,"lon":5.39027,"is_reserved":false,"is_disabled":false,"rental_uris":{"android":"levelo://app?vid=7d25b1be-02ee-483e-84cc-152659258e27","ios":"levelo://app?vid=7d25b1be-02ee-483e-84cc-152659258e27"},"vehicle_type_id":"4","last_reported":1723831885,"current_range_meters":6400,"station_id":"ce4bgup2rcd13ifvqco0","pricing_plan_id":"cebpf4jnsgd1na2vs0mg"},{"bike_id":"9aa2d2dd-57d6-41c3-8e31-9ef3dc5e2c9c","system_id":"levelo_inurba_marseille","lat":43.309473,"lon":5.39028,"is_reserved":false,"is_disabled":false,"rental_uris":{"android":"levelo://app?vid=9aa2d2dd-57d6-41c3-8e31-9ef3dc5e2c9c","ios":"levelo://app?vid=9aa2d2dd-57d6-41c3-8e31-9ef3dc5e2c9c"},"vehicle_type_id":"4","last_reported":1723831885,"current_range_meters":0,"station_id":"ce4bgup2rcd13ifvqco0","pricing_plan_id":"cebpf4jnsgd1na2vs0mg"},{"bike_id":"61eb39cd-83e5-46da-90ce-19021a7e233b","system_id":"levelo_inurba_marseille","lat":43.30953,"lon":5.3903,"is_reserved":false,"is_disabled":false,"rental_uris":{"android":"levelo://app?vid=61eb39cd-83e5-46da-90ce-19021a7e233b","ios":"levelo://app?vid=61eb39cd-83e5-46da-90ce-19021a7e233b"},"vehicle_type_id":"4","last_reported":1723831885,"current_range_meters":13200,"station_id":"ce4bgup2rcd13ifvqco0","pricing_plan_id":"cebpf4jnsgd1na2vs0mg"},{"bike_id":"76daf1cb-cab4-447e-81dc-21ad814db61e","system_id":"levelo_inurba_marseille","lat":43.30947,"lon":5.39029,"is_reserved":false,"is_disabled":false,"rental_uris":{"android":"levelo://app?vid=76daf1cb-cab4-447e-81dc-21ad814db61e","ios":"levelo://app?vid=76daf1cb-cab4-447e-81dc-21ad814db61e"},"vehicle_type_id":"4","last_reported":1723831885,"current_range_meters":27200,"station_id":"ce4bgup2rcd13ifvqco0","pricing_plan_id":"cebpf4jnsgd1na2vs0mg"},{"bike_id":"033375c2-c45c-4d5a-aa9e-67ca21c74297","system_id":"levelo_inurba_marseille","lat":43.30948,"lon":5.3903,"is_reserved":false,"is_disabled":false,"rental_uris":{"android":"levelo://app?vid=033375c2-c45c-4d5a-aa9e-67ca21c74297","ios":"levelo://app?vid=033375c2-c45c-4d5a-aa9e-67ca21c74297"},"vehicle_type_id":"4","last_reported":1723831885,"current_range_meters":15600,"station_id":"ce4bgup2rcd13ifvqco0","pricing_plan_id":"cebpf4jnsgd1na2vs0mg"},{"bike_id":"50f7a106-fb7e-4b22-80fb-4aa4878d20eb","system_id":"levelo_inurba_marseille","lat":43.30951,"lon":5.39031,"is_reserved":false,"is_disabled":false,"rental_uris":{"android":"levelo://app?vid=50f7a106-fb7e-4b22-80fb-4aa4878d20eb","ios":"levelo://app?vid=50f7a106-fb7e-4b22-80fb-4aa4878d20eb"},"vehicle_type_id":"4","last_reported":1723831885,"current_range_meters":18800,"station_id":"ce4bgup2rcd13ifvqco0","pricing_plan_id":"cebpf4jnsgd1na2vs0mg"},{"bike_id":"6539f01d-b46d-4db6-9802-9a60e1c3e121","system_id":"levelo_inurba_marseille","lat":43.3095,"lon":5.39031,"is_reserved":false,"is_disabled":false,"rental_uris":{"android":"levelo://app?vid=6539f01d-b46d-4db6-9802-9a60e1c3e121","ios":"levelo://app?vid=6539f01d-b46d-4db6-9802-9a60e1c3e121"},"vehicle_type_id":"4","last_reported":1723831885,"current_range_meters":13200,"station_id":"ce4bgup2rcd13ifvqco0","pricing_plan_id":"cebpf4jnsgd1na2vs0mg"},{"bike_id":"c9ed0f12-5b32-43ea-b81c-9a6184d5d8d0","system_id":"levelo_inurba_marseille","lat":43.30948,"lon":5.39031,"is_reserved":false,"is_disabled":false,"rental_uris":{"android":"levelo://app?vid=c9ed0f12-5b32-43ea-b81c-9a6184d5d8d0","ios":"levelo://app?vid=c9ed0f12-5b32-43ea-b81c-9a6184d5d8d0"},"vehicle_type_id":"4","last_reported":1723831885,"current_range_meters":11200,"station_id":"ce4bgup2rcd13ifvqco0","pricing_plan_id":"cebpf4jnsgd1na2vs0mg"},{"bike_id":"e2938117-8870-40ad-99f5-951f583244cc","system_id":"levelo_inurba_marseille","lat":43.30947,"lon":5.39031,"is_reserved":false,"is_disabled":false,"rental_uris":{"android":"levelo://app?vid=e2938117-8870-40ad-99f5-951f583244cc","ios":"levelo://app?vid=e2938117-8870-40ad-99f5-951f583244cc"},"vehicle_type_id":"4","last_reported":1723831885,"current_range_meters":0,"station_id":"ce4bgup2rcd13ifvqco0","pricing_plan_id":"cebpf4jnsgd1na2vs0mg"},{"bike_id":"e7966b35-2297-4a42-be40-4f6c0792c235","system_id":"levelo_inurba_marseille","lat":43.30946,"lon":5.39031,"is_reserved":false,"is_disabled":false,"rental_uris":{"android":"levelo://app?vid=e7966b35-2297-4a42-be40-4f6c0792c235","ios":"levelo://app?vid=e7966b35-2297-4a42-be40-4f6c0792c235"},"vehicle_type_id":"4","last_reported":1723831885,"current_range_meters":4800,"station_id":"ce4bgup2rcd13ifvqco0","pricing_plan_id":"cebpf4jnsgd1na2vs0mg"},{"bike_id":"4746e3aa-2e1d-47e4-adb9-a4fcd8eae585","system_id":"levelo_inurba_marseille","lat":43.30943,"lon":5.39031,"is_reserved":false,"is_disabled":false,"rental_uris":{"android":"levelo://app?vid=4746e3aa-2e1d-47e4-adb9-a4fcd8eae585","ios":"levelo://app?vid=4746e3aa-2e1d-47e4-adb9-a4fcd8eae585"},"vehicle_type_id":"4","last_reported":1723831885,"current_range_meters":19200,"station_id":"ce4bgup2rcd13ifvqco0","pricing_plan_id":"cebpf4jnsgd1na2vs0mg"},{"bike_id":"5625f5d6-faae-4655-855d-78ece61c6a0e","system_id":"levelo_inurba_marseille","lat":43.30948,"lon":5.39033,"is_reserved":false,"is_disabled":false,"rental_uris":{"android":"levelo://app?vid=5625f5d6-faae-4655-855d-78ece61c6a0e","ios":"levelo://app?vid=5625f5d6-faae-4655-855d-78ece61c6a0e"},"vehicle_type_id":"4","last_reported":1723831885,"current_range_meters":18000,"station_id":"ce4bgup2rcd13ifvqco0","pricing_plan_id":"cebpf4jnsgd1na2vs0mg"},{"bike_id":"a6a72077-43d6-4af7-a8a7-f893ef85ab87","system_id":"levelo_inurba_marseille","lat":43.30947,"lon":5.39033,"is_reserved":false,"is_disabled":false,"rental_uris":{"android":"levelo://app?vid=a6a72077-43d6-4af7-a8a7-f893ef85ab87","ios":"levelo://app?vid=a6a72077-43d6-4af7-a8a7-f893ef85ab87"},"vehicle_type_id":"4","last_reported":1723831885,"current_range_meters":8400,"station_id":"ce4bgup2rcd13ifvqco0","pricing_plan_id":"cebpf4jnsgd1na2vs0mg"},{"bike_id":"e3d609cf-e59e-4b97-a00a-e9fe2c4423c2","system_id":"levelo_inurba_marseille","lat":43.30947,"lon":5.39034,"is_reserved":false,"is_disabled":false,"rental_uris":{"android":"levelo://app?vid=e3d609cf-e59e-4b97-a00a-e9fe2c4423c2","ios":"levelo://app?vid=e3d609cf-e59e-4b97-a00a-e9fe2c4423c2"},"vehicle_type_id":"4","last_reported":1723831885,"current_range_meters":20000,"station_id":"ce4bgup2rcd13ifvqco0","pricing_plan_id":"cebpf4jnsgd1na2vs0mg"},{"bike_id":"2ba3f437-a542-4b1c-9347-a05561bf018f","system_id":"levelo_inurba_marseille","lat":43.30946,"lon":5.39034,"is_reserved":false,"is_disabled":false,"rental_uris":{"android":"levelo://app?vid=2ba3f437-a542-4b1c-9347-a05561bf018f","ios":"levelo://app?vid=2ba3f437-a542-4b1c-9347-a05561bf018f"},"vehicle_type_id":"4","last_reported":1723831885,"current_range_meters":4000,"station_id":"ce4bgup2rcd13ifvqco0","pricing_plan_id":"cebpf4jnsgd1na2vs0mg"},{"bike_id":"2073c45a-e362-480c-aebc-3d779ac1e6db","system_id":"levelo_inurba_marseille","lat":43.30945,"lon":5.39035,"is_reserved":false,"is_disabled":false,"rental_uris":{"android":"levelo://app?vid=2073c45a-e362-480c-aebc-3d779ac1e6db","ios":"levelo://app?vid=2073c45a-e362-480c-aebc-3d779ac1e6db"},"vehicle_type_id":"4","last_reported":1723831885,"current_range_meters":13600,"station_id":"ce4bgup2rcd13ifvqco0","pricing_plan_id":"cebpf4jnsgd1na2vs0mg"},{"bike_id":"bd4d30a6-fe92-4227-a1f5-8e54e67c2e42","system_id":"levelo_inurba_marseille","lat":43.30951,"lon":5.39037,"is_reserved":false,"is_disabled":false,"rental_uris":{"android":"levelo://app?vid=bd4d30a6-fe92-4227-a1f5-8e54e67c2e42","ios":"levelo://app?vid=bd4d30a6-fe92-4227-a1f5-8e54e67c2e42"},"vehicle_type_id":"4","last_reported":1723831885,"current_range_meters":11200,"station_id":"ce4bgup2rcd13ifvqco0","pricing_plan_id":"cebpf4jnsgd1na2vs0mg"},{"bike_id":"af827add-9713-4f73-9b83-eb7fba32754f","system_id":"levelo_inurba_marseille","lat":43.309589,"lon":5.390258,"is_reserved":false,"is_disabled":false,"rental_uris":{"android":"levelo://app?vid=af827add-9713-4f73-9b83-eb7fba32754f","ios":"levelo://app?vid=af827add-9713-4f73-9b83-eb7fba32754f"},"vehicle_type_id":"4","last_reported":1723831885,"current_range_meters":23200,"station_id":"ce4bgup2rcd13ifvqco0","pricing_plan_id":"cebpf4jnsgd1na2vs0mg"},{"bike_id":"cba6f0bf-7b52-4a75-8c74-d781d8f1cea6","system_id":"levelo_inurba_marseille","lat":43.30954,"lon":5.39038,"is_reserved":false,"is_disabled":false,"rental_uris":{"android":"levelo://app?vid=cba6f0bf-7b52-4a75-8c74-d781d8f1cea6","ios":"levelo://app?vid=cba6f0bf-7b52-4a75-8c74-d781d8f1cea6"},"vehicle_type_id":"4","last_reported":1723831885,"current_range_meters":400,"station_id":"ce4bgup2rcd13ifvqco0","pricing_plan_id":"cebpf4jnsgd1na2vs0mg"},{"bike_id":"c6147e89-c515-4533-ba17-abad8d30ce84","system_id":"levelo_inurba_marseille","lat":43.296935,"lon":5.376544,"is_reserved":false,"is_disabled":false,"rental_uris":{"android":"levelo://app?vid=c6147e89-c515-4533-ba17-abad8d30ce84","ios":"levelo://app?vid=c6147e89-c515-4533-ba17-abad8d30ce84"},"vehicle_type_id":"4","last_reported":1723831885,"current_range_meters":31200,"station_id":"ce4bgkh2rcd13ifvqbl0","pricing_plan_id":"cebpf4jnsgd1na2vs0mg"},{"bike_id":"5e8c3b11-1935-43b1-8215-176ec55e05f2","system_id":"levelo_inurba_marseille","lat":43.30946,"lon":5.39047,"is_reserved":false,"is_disabled":false,"rental_uris":{"android":"levelo://app?vid=5e8c3b11-1935-43b1-8215-176ec55e05f2","ios":"levelo://app?vid=5e8c3b11-1935-43b1-8215-176ec55e05f2"},"vehicle_type_id":"4","last_reported":1723831885,"current_range_meters":18800,"station_id":"ce4bgup2rcd13ifvqco0","pricing_plan_id":"cebpf4jnsgd1na2vs0mg"},{"bike_id":"2c788d96-13f1-4e1b-b04e-34d7ebd3dd24","system_id":"levelo_inurba_marseille","lat":43.317557,"lon":5.390173,"is_reserved":false,"is_disabled":false,"rental_uris":{"android":"levelo://app?vid=2c788d96-13f1-4e1b-b04e-34d7ebd3dd24","ios":"levelo://app?vid=2c788d96-13f1-4e1b-b04e-34d7ebd3dd24"},"vehicle_type_id":"4","last_reported":1723831885,"current_range_meters":20800,"station_id":"ce4bhqp2rcd13ifvqhng","pricing_plan_id":"cebpf4jnsgd1na2vs0mg"},{"bike_id":"864dbf84-46a8-4a39-9e14-a484ee7bed9e","system_id":"levelo_inurba_marseille","lat":43.29747,"lon":5.37937,"is_reserved":false,"is_disabled":false,"rental_uris":{"android":"levelo://app?vid=864dbf84-46a8-4a39-9e14-a484ee7bed9e","ios":"levelo://app?vid=864dbf84-46a8-4a39-9e14-a484ee7bed9e"},"vehicle_type_id":"4","last_reported":1723831885,"current_range_meters":10000,"station_id":"","pricing_plan_id":"cebpf4jnsgd1na2vs0mg"},{"bike_id":"f21be2a9-a92b-45d0-b3e8-36d592937cce","system_id":"levelo_inurba_marseille","lat":43.298037,"lon":5.381066,"is_reserved":false,"is_disabled":false,"rental_uris":{"android":"levelo://app?vid=f21be2a9-a92b-45d0-b3e8-36d592937cce","ios":"levelo://app?vid=f21be2a9-a92b-45d0-b3e8-36d592937cce"},"vehicle_type_id":"4","last_reported":1723831885,"current_range_meters":31600,"station_id":"ce4bgip2rcd13ifvqbb0","pricing_plan_id":"cebpf4jnsgd1na2vs0mg"},{"bike_id":"66571eac-dddd-4f5b-b913-384c8bdd3ccd","system_id":"levelo_inurba_marseille","lat":43.304274,"lon":5.388873,"is_reserved":false,"is_disabled":false,"rental_uris":{"android":"levelo://app?vid=66571eac-dddd-4f5b-b913-384c8bdd3ccd","ios":"levelo://app?vid=66571eac-dddd-4f5b-b913-384c8bdd3ccd"},"vehicle_type_id":"4","last_reported":1723831885,"current_range_meters":5200,"station_id":"ce4bgk12rcd13ifvqbi0","pricing_plan_id":"cebpf4jnsgd1na2vs0mg"},{"bike_id":"944b66de-8e77-407d-b118-269c9223e190","system_id":"levelo_inurba_marseille","lat":43.296277,"lon":5.377108,"is_reserved":false,"is_disabled":false,"rental_uris":{"android":"levelo://app?vid=944b66de-8e77-407d-b118-269c9223e190","ios":"levelo://app?vid=944b66de-8e77-407d-b118-269c9223e190"},"vehicle_type_id":"4","last_reported":1723831885,"current_range_meters":0,"station_id":"ce4bgi92rcd13ifvqb90","pricing_plan_id":"cebpf4jnsgd1na2vs0mg"},{"bike_id":"3883dc78-a398-4b3e-920f-39c1af28a4c6","system_id":"levelo_inurba_marseille","lat":43.296277,"lon":5.377108,"is_reserved":false,"is_disabled":false,"rental_uris":{"android":"levelo://app?vid=3883dc78-a398-4b3e-920f-39c1af28a4c6","ios":"levelo://app?vid=3883dc78-a398-4b3e-920f-39c1af28a4c6"},"vehicle_type_id":"4","last_reported":1723831885,"current_range_meters":21200,"station_id":"ce4bgi92rcd13ifvqb90","pricing_plan_id":"cebpf4jnsgd1na2vs0mg"},{"bike_id":"64331153-86f3-4033-b847-42aa4de274f3","system_id":"levelo_inurba_marseille","lat":43.309589,"lon":5.390258,"is_reserved":false,"is_disabled":false,"rental_uris":{"android":"levelo://app?vid=64331153-86f3-4033-b847-42aa4de274f3","ios":"levelo://app?vid=64331153-86f3-4033-b847-42aa4de274f3"},"vehicle_type_id":"4","last_reported":1723831885,"current_range_meters":400,"station_id":"ce4bgup2rcd13ifvqco0","pricing_plan_id":"cebpf4jnsgd1na2vs0mg"},{"bike_id":"467e8a4d-40cf-4c33-8a82-72241ce64de4","system_id":"levelo_inurba_marseille","lat":43.29972,"lon":5.38486,"is_reserved":false,"is_disabled":false,"rental_uris":{"android":"levelo://app?vid=467e8a4d-40cf-4c33-8a82-72241ce64de4","ios":"levelo://app?vid=467e8a4d-40cf-4c33-8a82-72241ce64de4"},"vehicle_type_id":"4","last_reported":1723831885,"current_range_meters":31200,"station_id":"ce4bgj92rcd13ifvqbd0","pricing_plan_id":"cebpf4jnsgd1na2vs0mg"},{"bike_id":"ebb21399-b02f-4696-8e3b-18f53863fe94","system_id":"levelo_inurba_marseille","lat":43.29971,"lon":5.38488,"is_reserved":false,"is_disabled":false,"rental_uris":{"android":"levelo://app?vid=ebb21399-b02f-4696-8e3b-18f53863fe94","ios":"levelo://app?vid=ebb21399-b02f-4696-8e3b-18f53863fe94"},"vehicle_type_id":"4","last_reported":1723831885,"current_range_meters":31200,"station_id":"ce4bgj92rcd13ifvqbd0","pricing_plan_id":"cebpf4jnsgd1na2vs0mg"},{"bike_id":"e463d2c5-45f1-4959-8905-e340eed30472","system_id":"levelo_inurba_marseille","lat":43.295279,"lon":5.375048,"is_reserved":false,"is_disabled":false,"rental_uris":{"android":"levelo://app?vid=e463d2c5-45f1-4959-8905-e340eed30472","ios":"levelo://app?vid=e463d2c5-45f1-4959-8905-e340eed30472"},"vehicle_type_id":"4","last_reported":1723831885,"current_range_meters":0,"station_id":"ce4bgkp2rcd13ifvqbmg","pricing_plan_id":"cebpf4jnsgd1na2vs0mg"},{"bike_id":"dd0e9ddb-8429-440e-8c1b-c8f82aee9ae8","system_id":"levelo_inurba_marseille","lat":43.299724,"lon":5.384848,"is_reserved":false,"is_disabled":false,"rental_uris":{"android":"levelo://app?vid=dd0e9ddb-8429-440e-8c1b-c8f82aee9ae8","ios":"levelo://app?vid=dd0e9ddb-8429-440e-8c1b-c8f82aee9ae8"},"vehicle_type_id":"4","last_reported":1723831885,"current_range_meters":5600,"station_id":"ce4bgj92rcd13ifvqbd0","pricing_plan_id":"cebpf4jnsgd1na2vs0mg"},{"bike_id":"d50c40b5-23b2-44a5-a94f-195aceed0948","system_id":"levelo_inurba_marseille","lat":43.299717,"lon":5.384845,"is_reserved":false,"is_disabled":false,"rental_uris":{"android":"levelo://app?vid=d50c40b5-23b2-44a5-a94f-195aceed0948","ios":"levelo://app?vid=d50c40b5-23b2-44a5-a94f-195aceed0948"},"vehicle_type_id":"4","last_reported":1723831885,"current_range_meters":14800,"station_id":"ce4bgj92rcd13ifvqbd0","pricing_plan_id":"cebpf4jnsgd1na2vs0mg"},{"bike_id":"2c068b5b-efac-4551-b48a-1b9e52295ebd","system_id":"levelo_inurba_marseille","lat":43.30117,"lon":5.38787,"is_reserved":false,"is_disabled":false,"rental_uris":{"android":"levelo://app?vid=2c068b5b-efac-4551-b48a-1b9e52295ebd","ios":"levelo://app?vid=2c068b5b-efac-4551-b48a-1b9e52295ebd"},"vehicle_type_id":"4","last_reported":1723831885,"current_range_meters":0,"station_id":"","pricing_plan_id":"cebpf4jnsgd1na2vs0mg"},{"bike_id":"0d663fc6-a124-486d-a9ba-92d78cb1b09d","system_id":"levelo_inurba_marseille","lat":43.32367,"lon":5.388836,"is_reserved":false,"is_disabled":false,"rental_uris":{"android":"levelo://app?vid=0d663fc6-a124-486d-a9ba-92d78cb1b09d","ios":"levelo://app?vid=0d663fc6-a124-486d-a9ba-92d78cb1b09d"},"vehicle_type_id":"4","last_reported":1723831885,"current_range_meters":28400,"station_id":"ce4bhqp2rcd13ifvqhog","pricing_plan_id":"cebpf4jnsgd1na2vs0mg"},{"bike_id":"b820cec9-ff92-4eba-940e-c12d878eb4e9","system_id":"levelo_inurba_marseille","lat":43.32367,"lon":5.388836,"is_reserved":false,"is_disabled":false,"rental_uris":{"android":"levelo://app?vid=b820cec9-ff92-4eba-940e-c12d878eb4e9","ios":"levelo://app?vid=b820cec9-ff92-4eba-940e-c12d878eb4e9"},"vehicle_type_id":"4","last_reported":1723831885,"current_range_meters":2400,"station_id":"ce4bhqp2rcd13ifvqhog","pricing_plan_id":"cebpf4jnsgd1na2vs0mg"},{"bike_id":"402c23ae-3b47-4966-86de-af9e31194029","system_id":"levelo_inurba_marseille","lat":43.32367,"lon":5.388836,"is_reserved":false,"is_disabled":false,"rental_uris":{"android":"levelo://app?vid=402c23ae-3b47-4966-86de-af9e31194029","ios":"levelo://app?vid=402c23ae-3b47-4966-86de-af9e31194029"},"vehicle_type_id":"4","last_reported":1723831885,"current_range_meters":11200,"station_id":"ce4bhqp2rcd13ifvqhog","pricing_plan_id":"cebpf4jnsgd1na2vs0mg"},{"bike_id":"4b086123-966f-4ee9-a6f2-a2b7d011c905","system_id":"levelo_inurba_marseille","lat":43.29596,"lon":5.38096,"is_reserved":false,"is_disabled":false,"rental_uris":{"android":"levelo://app?vid=4b086123-966f-4ee9-a6f2-a2b7d011c905","ios":"levelo://app?vid=4b086123-966f-4ee9-a6f2-a2b7d011c905"},"vehicle_type_id":"4","last_reported":1723831885,"current_range_meters":31600,"station_id":"ce4bgl12rcd13ifvqbo0","pricing_plan_id":"cebpf4jnsgd1na2vs0mg"},{"bike_id":"8b8e0fb0-e41b-4a76-9a57-907455453cad","system_id":"levelo_inurba_marseille","lat":43.29602,"lon":5.381084,"is_reserved":false,"is_disabled":false,"rental_uris":{"android":"levelo://app?vid=8b8e0fb0-e41b-4a76-9a57-907455453cad","ios":"levelo://app?vid=8b8e0fb0-e41b-4a76-9a57-907455453cad"},"vehicle_type_id":"4","last_reported":1723831885,"current_range_meters":31600,"station_id":"ce4bgl12rcd13ifvqbo0","pricing_plan_id":"cebpf4jnsgd1na2vs0mg"},{"bike_id":"62320cdf-360d-438b-bb22-67fe1067720b","system_id":"levelo_inurba_marseille","lat":43.293249,"lon":5.371578,"is_reserved":false,"is_disabled":false,"rental_uris":{"android":"levelo://app?vid=62320cdf-360d-438b-bb22-67fe1067720b","ios":"levelo://app?vid=62320cdf-360d-438b-bb22-67fe1067720b"},"vehicle_type_id":"4","last_reported":1723831885,"current_range_meters":28400,"station_id":"ce4bgh92rcd13ifvqb40","pricing_plan_id":"cebpf4jnsgd1na2vs0mg"},{"bike_id":"c3aebfc7-a3cd-47d2-afb0-16a7658ae6ca","system_id":"levelo_inurba_marseille","lat":43.29308,"lon":5.37178,"is_reserved":false,"is_disabled":false,"rental_uris":{"android":"levelo://app?vid=c3aebfc7-a3cd-47d2-afb0-16a7658ae6ca","ios":"levelo://app?vid=c3aebfc7-a3cd-47d2-afb0-16a7658ae6ca"},"vehicle_type_id":"4","last_reported":1723831885,"current_range_meters":0,"station_id":"ce4bgh92rcd13ifvqb40","pricing_plan_id":"cebpf4jnsgd1na2vs0mg"},{"bike_id":"27539e41-b258-4c29-9d0b-1843f91dbbce","system_id":"levelo_inurba_marseille","lat":43.292749,"lon":5.368402,"is_reserved":false,"is_disabled":false,"rental_uris":{"android":"levelo://app?vid=27539e41-b258-4c29-9d0b-1843f91dbbce","ios":"levelo://app?vid=27539e41-b258-4c29-9d0b-1843f91dbbce"},"vehicle_type_id":"4","last_reported":1723831885,"current_range_meters":24400,"station_id":"ce4bhbp2rcd13ifvqesg","pricing_plan_id":"cebpf4jnsgd1na2vs0mg"},{"bike_id":"cf3879eb-18a2-448f-ab19-1c2c4e93b270","system_id":"levelo_inurba_marseille","lat":43.292749,"lon":5.368402,"is_reserved":false,"is_disabled":false,"rental_uris":{"android":"levelo://app?vid=cf3879eb-18a2-448f-ab19-1c2c4e93b270","ios":"levelo://app?vid=cf3879eb-18a2-448f-ab19-1c2c4e93b270"},"vehicle_type_id":"4","last_reported":1723831885,"current_range_meters":1600,"station_id":"ce4bhbp2rcd13ifvqesg","pricing_plan_id":"cebpf4jnsgd1na2vs0mg"},{"bike_id":"8ba189c4-760b-4b32-a06d-f35319a73466","system_id":"levelo_inurba_marseille","lat":43.292749,"lon":5.368402,"is_reserved":false,"is_disabled":false,"rental_uris":{"android":"levelo://app?vid=8ba189c4-760b-4b32-a06d-f35319a73466","ios":"levelo://app?vid=8ba189c4-760b-4b32-a06d-f35319a73466"},"vehicle_type_id":"4","last_reported":1723831885,"current_range_meters":9200,"station_id":"ce4bhbp2rcd13ifvqesg","pricing_plan_id":"cebpf4jnsgd1na2vs0mg"},{"bike_id":"d162d741-ed42-4b87-b586-944dd341aac8","system_id":"levelo_inurba_marseille","lat":43.292749,"lon":5.368402,"is_reserved":false,"is_disabled":false,"rental_uris":{"android":"levelo://app?vid=d162d741-ed42-4b87-b586-944dd341aac8","ios":"levelo://app?vid=d162d741-ed42-4b87-b586-944dd341aac8"},"vehicle_type_id":"4","last_reported":1723831885,"current_range_meters":6400,"station_id":"ce4bhbp2rcd13ifvqesg","pricing_plan_id":"cebpf4jnsgd1na2vs0mg"},{"bike_id":"ff5d8333-ea16-49cf-9596-bc0adc14d3b9","system_id":"levelo_inurba_marseille","lat":43.292749,"lon":5.368402,"is_reserved":false,"is_disabled":false,"rental_uris":{"android":"levelo://app?vid=ff5d8333-ea16-49cf-9596-bc0adc14d3b9","ios":"levelo://app?vid=ff5d8333-ea16-49cf-9596-bc0adc14d3b9"},"vehicle_type_id":"4","last_reported":1723831885,"current_range_meters":18400,"station_id":"ce4bhbp2rcd13ifvqesg","pricing_plan_id":"cebpf4jnsgd1na2vs0mg"},{"bike_id":"bc4aad92-6dfe-431e-96d7-64e8339c93d4","system_id":"levelo_inurba_marseille","lat":43.292749,"lon":5.368402,"is_reserved":false,"is_disabled":false,"rental_uris":{"android":"levelo://app?vid=bc4aad92-6dfe-431e-96d7-64e8339c93d4","ios":"levelo://app?vid=bc4aad92-6dfe-431e-96d7-64e8339c93d4"},"vehicle_type_id":"4","last_reported":1723831885,"current_range_meters":30000,"station_id":"ce4bhbp2rcd13ifvqesg","pricing_plan_id":"cebpf4jnsgd1na2vs0mg"},{"bike_id":"a951d2a3-96c7-4cbc-be24-5341812ba48a","system_id":"levelo_inurba_marseille","lat":43.292749,"lon":5.368402,"is_reserved":false,"is_disabled":false,"rental_uris":{"android":"levelo://app?vid=a951d2a3-96c7-4cbc-be24-5341812ba48a","ios":"levelo://app?vid=a951d2a3-96c7-4cbc-be24-5341812ba48a"},"vehicle_type_id":"4","last_reported":1723831885,"current_range_meters":12800,"station_id":"ce4bhbp2rcd13ifvqesg","pricing_plan_id":"cebpf4jnsgd1na2vs0mg"},{"bike_id":"2b9256fb-2360-4a8b-bbfe-04e34231bdcb","system_id":"levelo_inurba_marseille","lat":43.292749,"lon":5.368402,"is_reserved":false,"is_disabled":false,"rental_uris":{"android":"levelo://app?vid=2b9256fb-2360-4a8b-bbfe-04e34231bdcb","ios":"levelo://app?vid=2b9256fb-2360-4a8b-bbfe-04e34231bdcb"},"vehicle_type_id":"4","last_reported":1723831885,"current_range_meters":2000,"station_id":"ce4bhbp2rcd13ifvqesg","pricing_plan_id":"cebpf4jnsgd1na2vs0mg"},{"bike_id":"c27457f7-bb16-4f5d-862f-1869daefdb3e","system_id":"levelo_inurba_marseille","lat":43.292749,"lon":5.368402,"is_reserved":false,"is_disabled":false,"rental_uris":{"android":"levelo://app?vid=c27457f7-bb16-4f5d-862f-1869daefdb3e","ios":"levelo://app?vid=c27457f7-bb16-4f5d-862f-1869daefdb3e"},"vehicle_type_id":"4","last_reported":1723831885,"current_range_meters":20000,"station_id":"ce4bhbp2rcd13ifvqesg","pricing_plan_id":"cebpf4jnsgd1na2vs0mg"},{"bike_id":"890d5617-8e1c-4be8-961c-19a5e44a3bbf","system_id":"levelo_inurba_marseille","lat":43.305994,"lon":5.393687,"is_reserved":false,"is_disabled":false,"rental_uris":{"android":"levelo://app?vid=890d5617-8e1c-4be8-961c-19a5e44a3bbf","ios":"levelo://app?vid=890d5617-8e1c-4be8-961c-19a5e44a3bbf"},"vehicle_type_id":"4","last_reported":1723831885,"current_range_meters":8400,"station_id":"ce4bh0p2rcd13ifvqd80","pricing_plan_id":"cebpf4jnsgd1na2vs0mg"},{"bike_id":"f38fa803-c2e9-4b17-ad96-bf95f011eb03","system_id":"levelo_inurba_marseille","lat":43.29233,"lon":5.36474,"is_reserved":false,"is_disabled":false,"rental_uris":{"android":"levelo://app?vid=f38fa803-c2e9-4b17-ad96-bf95f011eb03","ios":"levelo://app?vid=f38fa803-c2e9-4b17-ad96-bf95f011eb03"},"vehicle_type_id":"4","last_reported":1723831885,"current_range_meters":12000,"station_id":"","pricing_plan_id":"cebpf4jnsgd1na2vs0mg"},{"bike_id":"3ecf9e3f-715e-49d9-ad68-588b45319278","system_id":"levelo_inurba_marseille","lat":43.293009,"lon":5.374584,"is_reserved":false,"is_disabled":false,"rental_uris":{"android":"levelo://app?vid=3ecf9e3f-715e-49d9-ad68-588b45319278","ios":"levelo://app?vid=3ecf9e3f-715e-49d9-ad68-588b45319278"},"vehicle_type_id":"4","last_reported":1723831885,"current_range_meters":15600,"station_id":"ce4bgi12rcd13ifvqb70","pricing_plan_id":"cebpf4jnsgd1na2vs0mg"},{"bike_id":"a99b7e75-8b13-4c88-b59a-b66497d69858","system_id":"levelo_inurba_marseille","lat":43.305994,"lon":5.393687,"is_reserved":false,"is_disabled":false,"rental_uris":{"android":"levelo://app?vid=a99b7e75-8b13-4c88-b59a-b66497d69858","ios":"levelo://app?vid=a99b7e75-8b13-4c88-b59a-b66497d69858"},"vehicle_type_id":"4","last_reported":1723831885,"current_range_meters":14400,"station_id":"ce4bh0p2rcd13ifvqd80","pricing_plan_id":"cebpf4jnsgd1na2vs0mg"},{"bike_id":"3e6e1b0b-ccb7-4686-8e5e-b37fc52cdc5e","system_id":"levelo_inurba_marseille","lat":43.305994,"lon":5.393687,"is_reserved":false,"is_disabled":false,"rental_uris":{"android":"levelo://app?vid=3e6e1b0b-ccb7-4686-8e5e-b37fc52cdc5e","ios":"levelo://app?vid=3e6e1b0b-ccb7-4686-8e5e-b37fc52cdc5e"},"vehicle_type_id":"4","last_reported":1723831885,"current_range_meters":27200,"station_id":"ce4bh0p2rcd13ifvqd80","pricing_plan_id":"cebpf4jnsgd1na2vs0mg"},{"bike_id":"bd6a1a5d-8ce7-4432-a30c-b4fae0625f22","system_id":"levelo_inurba_marseille","lat":43.305994,"lon":5.393687,"is_reserved":false,"is_disabled":false,"rental_uris":{"android":"levelo://app?vid=bd6a1a5d-8ce7-4432-a30c-b4fae0625f22","ios":"levelo://app?vid=bd6a1a5d-8ce7-4432-a30c-b4fae0625f22"},"vehicle_type_id":"4","last_reported":1723831885,"current_range_meters":28000,"station_id":"ce4bh0p2rcd13ifvqd80","pricing_plan_id":"cebpf4jnsgd1na2vs0mg"},{"bike_id":"8824789a-f4e3-4763-99cf-94a54acb5f73","system_id":"levelo_inurba_marseille","lat":43.29294,"lon":5.37457,"is_reserved":false,"is_disabled":false,"rental_uris":{"android":"levelo://app?vid=8824789a-f4e3-4763-99cf-94a54acb5f73","ios":"levelo://app?vid=8824789a-f4e3-4763-99cf-94a54acb5f73"},"vehicle_type_id":"4","last_reported":1723831885,"current_range_meters":23200,"station_id":"ce4bgi12rcd13ifvqb70","pricing_plan_id":"cebpf4jnsgd1na2vs0mg"},{"bike_id":"fe09dac8-8e5e-4ade-9c04-404e5a15d766","system_id":"levelo_inurba_marseille","lat":43.292935,"lon":5.374555,"is_reserved":false,"is_disabled":false,"rental_uris":{"android":"levelo://app?vid=fe09dac8-8e5e-4ade-9c04-404e5a15d766","ios":"levelo://app?vid=fe09dac8-8e5e-4ade-9c04-404e5a15d766"},"vehicle_type_id":"4","last_reported":1723831885,"current_range_meters":1200,"station_id":"ce4bgi12rcd13ifvqb70","pricing_plan_id":"cebpf4jnsgd1na2vs0mg"},{"bike_id":"9ede4d6a-c033-4ff9-9270-0290d6f2f02c","system_id":"levelo_inurba_marseille","lat":43.305994,"lon":5.393687,"is_reserved":false,"is_disabled":false,"rental_uris":{"android":"levelo://app?vid=9ede4d6a-c033-4ff9-9270-0290d6f2f02c","ios":"levelo://app?vid=9ede4d6a-c033-4ff9-9270-0290d6f2f02c"},"vehicle_type_id":"4","last_reported":1723831885,"current_range_meters":2400,"station_id":"ce4bh0p2rcd13ifvqd80","pricing_plan_id":"cebpf4jnsgd1na2vs0mg"},{"bike_id":"f2acfa50-d63a-4906-a61d-7d64daf1cc08","system_id":"levelo_inurba_marseille","lat":43.305994,"lon":5.393687,"is_reserved":false,"is_disabled":false,"rental_uris":{"android":"levelo://app?vid=f2acfa50-d63a-4906-a61d-7d64daf1cc08","ios":"levelo://app?vid=f2acfa50-d63a-4906-a61d-7d64daf1cc08"},"vehicle_type_id":"4","last_reported":1723831885,"current_range_meters":10400,"station_id":"ce4bh0p2rcd13ifvqd80","pricing_plan_id":"cebpf4jnsgd1na2vs0mg"},{"bike_id":"4900bc7a-7ce2-4f37-8f0b-64bd6c297de2","system_id":"levelo_inurba_marseille","lat":43.292885,"lon":5.37452,"is_reserved":false,"is_disabled":false,"rental_uris":{"android":"levelo://app?vid=4900bc7a-7ce2-4f37-8f0b-64bd6c297de2","ios":"levelo://app?vid=4900bc7a-7ce2-4f37-8f0b-64bd6c297de2"},"vehicle_type_id":"4","last_reported":1723831885,"current_range_meters":0,"station_id":"ce4bgi12rcd13ifvqb70","pricing_plan_id":"cebpf4jnsgd1na2vs0mg"},{"bike_id":"7779e8c0-5fba-49d9-a974-22f5ecec70e9","system_id":"levelo_inurba_marseille","lat":43.29288,"lon":5.37459,"is_reserved":false,"is_disabled":false,"rental_uris":{"android":"levelo://app?vid=7779e8c0-5fba-49d9-a974-22f5ecec70e9","ios":"levelo://app?vid=7779e8c0-5fba-49d9-a974-22f5ecec70e9"},"vehicle_type_id":"4","last_reported":1723831885,"current_range_meters":0,"station_id":"ce4bgi12rcd13ifvqb70","pricing_plan_id":"cebpf4jnsgd1na2vs0mg"},{"bike_id":"5f5efda3-db9b-4cf6-afca-7a9352faf8be","system_id":"levelo_inurba_marseille","lat":43.303002,"lon":5.392142,"is_reserved":false,"is_disabled":false,"rental_uris":{"android":"levelo://app?vid=5f5efda3-db9b-4cf6-afca-7a9352faf8be","ios":"levelo://app?vid=5f5efda3-db9b-4cf6-afca-7a9352faf8be"},"vehicle_type_id":"4","last_reported":1723831885,"current_range_meters":4000,"station_id":"ce4bgkh2rcd13ifvqbk0","pricing_plan_id":"cebpf4jnsgd1na2vs0mg"},{"bike_id":"cccf8a46-47de-422e-a72f-3b111f2f59a5","system_id":"levelo_inurba_marseille","lat":43.302992,"lon":5.392136,"is_reserved":false,"is_disabled":false,"rental_uris":{"android":"levelo://app?vid=cccf8a46-47de-422e-a72f-3b111f2f59a5","ios":"levelo://app?vid=cccf8a46-47de-422e-a72f-3b111f2f59a5"},"vehicle_type_id":"4","last_reported":1723831885,"current_range_meters":2000,"station_id":"ce4bgkh2rcd13ifvqbk0","pricing_plan_id":"cebpf4jnsgd1na2vs0mg"},{"bike_id":"c6e7f93a-6f96-4c2c-9fa7-a8f45b9a2222","system_id":"levelo_inurba_marseille","lat":43.2936,"lon":5.37835,"is_reserved":false,"is_disabled":false,"rental_uris":{"android":"levelo://app?vid=c6e7f93a-6f96-4c2c-9fa7-a8f45b9a2222","ios":"levelo://app?vid=c6e7f93a-6f96-4c2c-9fa7-a8f45b9a2222"},"vehicle_type_id":"4","last_reported":1723831885,"current_range_meters":8800,"station_id":"ce4bgjh2rcd13ifvqbf0","pricing_plan_id":"cebpf4jnsgd1na2vs0mg"},{"bike_id":"562adb6e-ee6a-4263-9d33-b92a5b5d417e","system_id":"levelo_inurba_marseille","lat":43.2936,"lon":5.37835,"is_reserved":false,"is_disabled":false,"rental_uris":{"android":"levelo://app?vid=562adb6e-ee6a-4263-9d33-b92a5b5d417e","ios":"levelo://app?vid=562adb6e-ee6a-4263-9d33-b92a5b5d417e"},"vehicle_type_id":"4","last_reported":1723831885,"current_range_meters":26000,"station_id":"ce4bgjh2rcd13ifvqbf0","pricing_plan_id":"cebpf4jnsgd1na2vs0mg"},{"bike_id":"24188666-64ca-45bd-886e-901a826000bd","system_id":"levelo_inurba_marseille","lat":43.2936,"lon":5.37835,"is_reserved":false,"is_disabled":false,"rental_uris":{"android":"levelo://app?vid=24188666-64ca-45bd-886e-901a826000bd","ios":"levelo://app?vid=24188666-64ca-45bd-886e-901a826000bd"},"vehicle_type_id":"4","last_reported":1723831885,"current_range_meters":18800,"station_id":"ce4bgjh2rcd13ifvqbf0","pricing_plan_id":"cebpf4jnsgd1na2vs0mg"},{"bike_id":"6a29ab79-a312-4730-89a9-411bbba81689","system_id":"levelo_inurba_marseille","lat":43.2936,"lon":5.37835,"is_reserved":false,"is_disabled":false,"rental_uris":{"android":"levelo://app?vid=6a29ab79-a312-4730-89a9-411bbba81689","ios":"levelo://app?vid=6a29ab79-a312-4730-89a9-411bbba81689"},"vehicle_type_id":"4","last_reported":1723831885,"current_range_meters":23600,"station_id":"ce4bgjh2rcd13ifvqbf0","pricing_plan_id":"cebpf4jnsgd1na2vs0mg"},{"bike_id":"f4fbb989-eb4d-4093-beb9-b05783766755","system_id":"levelo_inurba_marseille","lat":43.2936,"lon":5.37835,"is_reserved":false,"is_disabled":false,"rental_uris":{"android":"levelo://app?vid=f4fbb989-eb4d-4093-beb9-b05783766755","ios":"levelo://app?vid=f4fbb989-eb4d-4093-beb9-b05783766755"},"vehicle_type_id":"4","last_reported":1723831885,"current_range_meters":14400,"station_id":"ce4bgjh2rcd13ifvqbf0","pricing_plan_id":"cebpf4jnsgd1na2vs0mg"},{"bike_id":"4b168796-2821-4dea-bec2-377be3da5b0d","system_id":"levelo_inurba_marseille","lat":43.29675,"lon":5.38551,"is_reserved":false,"is_disabled":false,"rental_uris":{"android":"levelo://app?vid=4b168796-2821-4dea-bec2-377be3da5b0d","ios":"levelo://app?vid=4b168796-2821-4dea-bec2-377be3da5b0d"},"vehicle_type_id":"4","last_reported":1723831885,"current_range_meters":30400,"station_id":"","pricing_plan_id":"cebpf4jnsgd1na2vs0mg"},{"bike_id":"b393222c-a11b-46c0-8bfe-823cbc5398b6","system_id":"levelo_inurba_marseille","lat":43.292311,"lon":5.360731,"is_reserved":false,"is_disabled":false,"rental_uris":{"android":"levelo://app?vid=b393222c-a11b-46c0-8bfe-823cbc5398b6","ios":"levelo://app?vid=b393222c-a11b-46c0-8bfe-823cbc5398b6"},"vehicle_type_id":"4","last_reported":1723831885,"current_range_meters":29600,"station_id":"ce4bhbh2rcd13ifvqeqg","pricing_plan_id":"cebpf4jnsgd1na2vs0mg"},{"bike_id":"1475b943-5187-47c1-86ca-15bb269078df","system_id":"levelo_inurba_marseille","lat":43.292265,"lon":5.36061,"is_reserved":false,"is_disabled":false,"rental_uris":{"android":"levelo://app?vid=1475b943-5187-47c1-86ca-15bb269078df","ios":"levelo://app?vid=1475b943-5187-47c1-86ca-15bb269078df"},"vehicle_type_id":"4","last_reported":1723831885,"current_range_meters":19600,"station_id":"ce4bhbh2rcd13ifvqeqg","pricing_plan_id":"cebpf4jnsgd1na2vs0mg"},{"bike_id":"3d781265-4e5e-461c-95a4-d703de6424d9","system_id":"levelo_inurba_marseille","lat":43.29225,"lon":5.3606,"is_reserved":false,"is_disabled":false,"rental_uris":{"android":"levelo://app?vid=3d781265-4e5e-461c-95a4-d703de6424d9","ios":"levelo://app?vid=3d781265-4e5e-461c-95a4-d703de6424d9"},"vehicle_type_id":"4","last_reported":1723831885,"current_range_meters":29600,"station_id":"ce4bhbh2rcd13ifvqeqg","pricing_plan_id":"cebpf4jnsgd1na2vs0mg"},{"bike_id":"a9d2cc4d-6463-4765-84e0-2a2f1bf36e39","system_id":"levelo_inurba_marseille","lat":43.292311,"lon":5.360731,"is_reserved":false,"is_disabled":false,"rental_uris":{"android":"levelo://app?vid=a9d2cc4d-6463-4765-84e0-2a2f1bf36e39","ios":"levelo://app?vid=a9d2cc4d-6463-4765-84e0-2a2f1bf36e39"},"vehicle_type_id":"4","last_reported":1723831885,"current_range_meters":0,"station_id":"ce4bhbh2rcd13ifvqeqg","pricing_plan_id":"cebpf4jnsgd1na2vs0mg"},{"bike_id":"c80028f6-658a-48c6-8426-941f7f417452","system_id":"levelo_inurba_marseille","lat":43.292311,"lon":5.360731,"is_reserved":false,"is_disabled":false,"rental_uris":{"android":"levelo://app?vid=c80028f6-658a-48c6-8426-941f7f417452","ios":"levelo://app?vid=c80028f6-658a-48c6-8426-941f7f417452"},"vehicle_type_id":"4","last_reported":1723831885,"current_range_meters":27600,"station_id":"ce4bhbh2rcd13ifvqeqg","pricing_plan_id":"cebpf4jnsgd1na2vs0mg"},{"bike_id":"8f2d17d4-cbae-4b1e-9d10-0c6c6d3fe940","system_id":"levelo_inurba_marseille","lat":43.292311,"lon":5.360731,"is_reserved":false,"is_disabled":false,"rental_uris":{"android":"levelo://app?vid=8f2d17d4-cbae-4b1e-9d10-0c6c6d3fe940","ios":"levelo://app?vid=8f2d17d4-cbae-4b1e-9d10-0c6c6d3fe940"},"vehicle_type_id":"4","last_reported":1723831885,"current_range_meters":13600,"station_id":"ce4bhbh2rcd13ifvqeqg","pricing_plan_id":"cebpf4jnsgd1na2vs0mg"},{"bike_id":"3219fe98-bdc0-4308-b782-31075059b072","system_id":"levelo_inurba_marseille","lat":43.29219,"lon":5.360474,"is_reserved":false,"is_disabled":false,"rental_uris":{"android":"levelo://app?vid=3219fe98-bdc0-4308-b782-31075059b072","ios":"levelo://app?vid=3219fe98-bdc0-4308-b782-31075059b072"},"vehicle_type_id":"4","last_reported":1723831885,"current_range_meters":31200,"station_id":"ce4bhbh2rcd13ifvqeqg","pricing_plan_id":"cebpf4jnsgd1na2vs0mg"},{"bike_id":"849fb5d7-0e05-424f-b2fb-1840c9832da6","system_id":"levelo_inurba_marseille","lat":43.31372,"lon":5.39597,"is_reserved":false,"is_disabled":false,"rental_uris":{"android":"levelo://app?vid=849fb5d7-0e05-424f-b2fb-1840c9832da6","ios":"levelo://app?vid=849fb5d7-0e05-424f-b2fb-1840c9832da6"},"vehicle_type_id":"4","last_reported":1723831885,"current_range_meters":20800,"station_id":"","pricing_plan_id":"cebpf4jnsgd1na2vs0mg"},{"bike_id":"edba9ffd-be59-4f35-9c83-914de0070a5c","system_id":"levelo_inurba_marseille","lat":43.2936,"lon":5.37835,"is_reserved":false,"is_disabled":false,"rental_uris":{"android":"levelo://app?vid=edba9ffd-be59-4f35-9c83-914de0070a5c","ios":"levelo://app?vid=edba9ffd-be59-4f35-9c83-914de0070a5c"},"vehicle_type_id":"4","last_reported":1723831885,"current_range_meters":11600,"station_id":"ce4bgjh2rcd13ifvqbf0","pricing_plan_id":"cebpf4jnsgd1na2vs0mg"},{"bike_id":"6ad210b1-8ed2-41e6-8bf3-32f61bddb71c","system_id":"levelo_inurba_marseille","lat":43.29171,"lon":5.37136,"is_reserved":false,"is_disabled":false,"rental_uris":{"android":"levelo://app?vid=6ad210b1-8ed2-41e6-8bf3-32f61bddb71c","ios":"levelo://app?vid=6ad210b1-8ed2-41e6-8bf3-32f61bddb71c"},"vehicle_type_id":"4","last_reported":1723831885,"current_range_meters":25600,"station_id":"ce4bha92rcd13ifvqeh0","pricing_plan_id":"cebpf4jnsgd1na2vs0mg"},{"bike_id":"02bd0e9d-1619-4299-a830-5a788679cf43","system_id":"levelo_inurba_marseille","lat":43.291675,"lon":5.371583,"is_reserved":false,"is_disabled":false,"rental_uris":{"android":"levelo://app?vid=02bd0e9d-1619-4299-a830-5a788679cf43","ios":"levelo://app?vid=02bd0e9d-1619-4299-a830-5a788679cf43"},"vehicle_type_id":"4","last_reported":1723831885,"current_range_meters":31200,"station_id":"ce4bha92rcd13ifvqeh0","pricing_plan_id":"cebpf4jnsgd1na2vs0mg"},{"bike_id":"5e9530ad-2710-4506-ad06-17e87cd7632f","system_id":"levelo_inurba_marseille","lat":43.291671,"lon":5.371575,"is_reserved":false,"is_disabled":false,"rental_uris":{"android":"levelo://app?vid=5e9530ad-2710-4506-ad06-17e87cd7632f","ios":"levelo://app?vid=5e9530ad-2710-4506-ad06-17e87cd7632f"},"vehicle_type_id":"4","last_reported":1723831885,"current_range_meters":14000,"station_id":"ce4bha92rcd13ifvqeh0","pricing_plan_id":"cebpf4jnsgd1na2vs0mg"},{"bike_id":"d66ad6ea-cbcf-4277-bb6e-373807030a0d","system_id":"levelo_inurba_marseille","lat":43.292005,"lon":5.357875,"is_reserved":false,"is_disabled":false,"rental_uris":{"android":"levelo://app?vid=d66ad6ea-cbcf-4277-bb6e-373807030a0d","ios":"levelo://app?vid=d66ad6ea-cbcf-4277-bb6e-373807030a0d"},"vehicle_type_id":"4","last_reported":1723831885,"current_range_meters":21600,"station_id":"ce4bhb12rcd13ifvqel0","pricing_plan_id":"cebpf4jnsgd1na2vs0mg"},{"bike_id":"aa5e970c-923e-444f-b861-e60f37330edd","system_id":"levelo_inurba_marseille","lat":43.292005,"lon":5.357875,"is_reserved":false,"is_disabled":false,"rental_uris":{"android":"levelo://app?vid=aa5e970c-923e-444f-b861-e60f37330edd","ios":"levelo://app?vid=aa5e970c-923e-444f-b861-e60f37330edd"},"vehicle_type_id":"4","last_reported":1723831885,"current_range_meters":9200,"station_id":"ce4bhb12rcd13ifvqel0","pricing_plan_id":"cebpf4jnsgd1na2vs0mg"},{"bike_id":"72d69a4f-9245-41b1-9e0e-c4dbfe415e00","system_id":"levelo_inurba_marseille","lat":43.292005,"lon":5.357875,"is_reserved":false,"is_disabled":false,"rental_uris":{"android":"levelo://app?vid=72d69a4f-9245-41b1-9e0e-c4dbfe415e00","ios":"levelo://app?vid=72d69a4f-9245-41b1-9e0e-c4dbfe415e00"},"vehicle_type_id":"4","last_reported":1723831885,"current_range_meters":28000,"station_id":"ce4bhb12rcd13ifvqel0","pricing_plan_id":"cebpf4jnsgd1na2vs0mg"},{"bike_id":"7b0e55e9-3e98-4882-8bb0-c26f760a1c2d","system_id":"levelo_inurba_marseille","lat":43.29192,"lon":5.35788,"is_reserved":false,"is_disabled":false,"rental_uris":{"android":"levelo://app?vid=7b0e55e9-3e98-4882-8bb0-c26f760a1c2d","ios":"levelo://app?vid=7b0e55e9-3e98-4882-8bb0-c26f760a1c2d"},"vehicle_type_id":"4","last_reported":1723831885,"current_range_meters":0,"station_id":"ce4bhb12rcd13ifvqel0","pricing_plan_id":"cebpf4jnsgd1na2vs0mg"},{"bike_id":"0fc9b76e-a7e1-49ac-a094-d4b764601291","system_id":"levelo_inurba_marseille","lat":43.292005,"lon":5.357875,"is_reserved":false,"is_disabled":false,"rental_uris":{"android":"levelo://app?vid=0fc9b76e-a7e1-49ac-a094-d4b764601291","ios":"levelo://app?vid=0fc9b76e-a7e1-49ac-a094-d4b764601291"},"vehicle_type_id":"4","last_reported":1723831885,"current_range_meters":5600,"station_id":"ce4bhb12rcd13ifvqel0","pricing_plan_id":"cebpf4jnsgd1na2vs0mg"},{"bike_id":"c78021ed-3a5b-48a0-9717-9af1996653cf","system_id":"levelo_inurba_marseille","lat":43.309047,"lon":5.396551,"is_reserved":false,"is_disabled":false,"rental_uris":{"android":"levelo://app?vid=c78021ed-3a5b-48a0-9717-9af1996653cf","ios":"levelo://app?vid=c78021ed-3a5b-48a0-9717-9af1996653cf"},"vehicle_type_id":"4","last_reported":1723831885,"current_range_meters":14800,"station_id":"ce4bh012rcd13ifvqcv0","pricing_plan_id":"cebpf4jnsgd1na2vs0mg"},{"bike_id":"c03a7cfb-b74f-4dd1-b552-fa39962c3621","system_id":"levelo_inurba_marseille","lat":43.31329,"lon":5.39698,"is_reserved":false,"is_disabled":false,"rental_uris":{"android":"levelo://app?vid=c03a7cfb-b74f-4dd1-b552-fa39962c3621","ios":"levelo://app?vid=c03a7cfb-b74f-4dd1-b552-fa39962c3621"},"vehicle_type_id":"4","last_reported":1723831885,"current_range_meters":0,"station_id":"ce4bgvp2rcd13ifvqcu0","pricing_plan_id":"cebpf4jnsgd1na2vs0mg"},{"bike_id":"b77fa359-6563-4507-a9e0-015a579c9a03","system_id":"levelo_inurba_marseille","lat":43.309038,"lon":5.396546,"is_reserved":false,"is_disabled":false,"rental_uris":{"android":"levelo://app?vid=b77fa359-6563-4507-a9e0-015a579c9a03","ios":"levelo://app?vid=b77fa359-6563-4507-a9e0-015a579c9a03"},"vehicle_type_id":"4","last_reported":1723831885,"current_range_meters":13600,"station_id":"ce4bh012rcd13ifvqcv0","pricing_plan_id":"cebpf4jnsgd1na2vs0mg"},{"bike_id":"8110adaa-26a0-4521-87bd-cb9edfb8face","system_id":"levelo_inurba_marseille","lat":43.29529,"lon":5.385581,"is_reserved":false,"is_disabled":false,"rental_uris":{"android":"levelo://app?vid=8110adaa-26a0-4521-87bd-cb9edfb8face","ios":"levelo://app?vid=8110adaa-26a0-4521-87bd-cb9edfb8face"},"vehicle_type_id":"4","last_reported":1723831885,"current_range_meters":17200,"station_id":"ce4bgih2rcd13ifvqba0","pricing_plan_id":"cebpf4jnsgd1na2vs0mg"},{"bike_id":"9acc7243-5de5-4b72-b233-af6a21033e30","system_id":"levelo_inurba_marseille","lat":43.29536,"lon":5.385353,"is_reserved":false,"is_disabled":false,"rental_uris":{"android":"levelo://app?vid=9acc7243-5de5-4b72-b233-af6a21033e30","ios":"levelo://app?vid=9acc7243-5de5-4b72-b233-af6a21033e30"},"vehicle_type_id":"4","last_reported":1723831885,"current_range_meters":6800,"station_id":"ce4bgih2rcd13ifvqba0","pricing_plan_id":"cebpf4jnsgd1na2vs0mg"},{"bike_id":"900996b2-7e31-446a-b112-bdad15c9102c","system_id":"levelo_inurba_marseille","lat":43.29529,"lon":5.385581,"is_reserved":false,"is_disabled":false,"rental_uris":{"android":"levelo://app?vid=900996b2-7e31-446a-b112-bdad15c9102c","ios":"levelo://app?vid=900996b2-7e31-446a-b112-bdad15c9102c"},"vehicle_type_id":"4","last_reported":1723831885,"current_range_meters":17200,"station_id":"ce4bgih2rcd13ifvqba0","pricing_plan_id":"cebpf4jnsgd1na2vs0mg"},{"bike_id":"077affc4-ee76-4f95-9e60-aa2548000bb2","system_id":"levelo_inurba_marseille","lat":43.29539,"lon":5.38547,"is_reserved":false,"is_disabled":false,"rental_uris":{"android":"levelo://app?vid=077affc4-ee76-4f95-9e60-aa2548000bb2","ios":"levelo://app?vid=077affc4-ee76-4f95-9e60-aa2548000bb2"},"vehicle_type_id":"4","last_reported":1723831885,"current_range_meters":22000,"station_id":"ce4bgih2rcd13ifvqba0","pricing_plan_id":"cebpf4jnsgd1na2vs0mg"},{"bike_id":"bbaf6212-6d85-4ae9-b828-2f7c038ea1ef","system_id":"levelo_inurba_marseille","lat":43.29531,"lon":5.38535,"is_reserved":false,"is_disabled":false,"rental_uris":{"android":"levelo://app?vid=bbaf6212-6d85-4ae9-b828-2f7c038ea1ef","ios":"levelo://app?vid=bbaf6212-6d85-4ae9-b828-2f7c038ea1ef"},"vehicle_type_id":"4","last_reported":1723831885,"current_range_meters":16800,"station_id":"ce4bgih2rcd13ifvqba0","pricing_plan_id":"cebpf4jnsgd1na2vs0mg"},{"bike_id":"ac535b22-82de-4778-8b81-9d26800b12fa","system_id":"levelo_inurba_marseille","lat":43.29529,"lon":5.385581,"is_reserved":false,"is_disabled":false,"rental_uris":{"android":"levelo://app?vid=ac535b22-82de-4778-8b81-9d26800b12fa","ios":"levelo://app?vid=ac535b22-82de-4778-8b81-9d26800b12fa"},"vehicle_type_id":"4","last_reported":1723831885,"current_range_meters":19200,"station_id":"ce4bgih2rcd13ifvqba0","pricing_plan_id":"cebpf4jnsgd1na2vs0mg"},{"bike_id":"308c613c-ab29-4ab7-8482-fd980d480389","system_id":"levelo_inurba_marseille","lat":43.29532,"lon":5.38539,"is_reserved":false,"is_disabled":false,"rental_uris":{"android":"levelo://app?vid=308c613c-ab29-4ab7-8482-fd980d480389","ios":"levelo://app?vid=308c613c-ab29-4ab7-8482-fd980d480389"},"vehicle_type_id":"4","last_reported":1723831885,"current_range_meters":14400,"station_id":"ce4bgih2rcd13ifvqba0","pricing_plan_id":"cebpf4jnsgd1na2vs0mg"},{"bike_id":"c83ba061-f7bd-48cd-a066-cc25f99160b2","system_id":"levelo_inurba_marseille","lat":43.29531,"lon":5.38539,"is_reserved":false,"is_disabled":false,"rental_uris":{"android":"levelo://app?vid=c83ba061-f7bd-48cd-a066-cc25f99160b2","ios":"levelo://app?vid=c83ba061-f7bd-48cd-a066-cc25f99160b2"},"vehicle_type_id":"4","last_reported":1723831885,"current_range_meters":19200,"station_id":"ce4bgih2rcd13ifvqba0","pricing_plan_id":"cebpf4jnsgd1na2vs0mg"},{"bike_id":"6355eda8-0a99-4c37-b7b0-31e03536839c","system_id":"levelo_inurba_marseille","lat":43.29533,"lon":5.38546,"is_reserved":false,"is_disabled":false,"rental_uris":{"android":"levelo://app?vid=6355eda8-0a99-4c37-b7b0-31e03536839c","ios":"levelo://app?vid=6355eda8-0a99-4c37-b7b0-31e03536839c"},"vehicle_type_id":"4","last_reported":1723831885,"current_range_meters":12400,"station_id":"ce4bgih2rcd13ifvqba0","pricing_plan_id":"cebpf4jnsgd1na2vs0mg"},{"bike_id":"4fb179ba-357e-478a-b530-29ca69f97406","system_id":"levelo_inurba_marseille","lat":43.29531,"lon":5.38544,"is_reserved":false,"is_disabled":false,"rental_uris":{"android":"levelo://app?vid=4fb179ba-357e-478a-b530-29ca69f97406","ios":"levelo://app?vid=4fb179ba-357e-478a-b530-29ca69f97406"},"vehicle_type_id":"4","last_reported":1723831885,"current_range_meters":4400,"station_id":"ce4bgih2rcd13ifvqba0","pricing_plan_id":"cebpf4jnsgd1na2vs0mg"},{"bike_id":"1341079f-3733-4968-bbb8-cfc2ef2e47a3","system_id":"levelo_inurba_marseille","lat":43.29529,"lon":5.385581,"is_reserved":false,"is_disabled":false,"rental_uris":{"android":"levelo://app?vid=1341079f-3733-4968-bbb8-cfc2ef2e47a3","ios":"levelo://app?vid=1341079f-3733-4968-bbb8-cfc2ef2e47a3"},"vehicle_type_id":"4","last_reported":1723831885,"current_range_meters":20800,"station_id":"ce4bgih2rcd13ifvqba0","pricing_plan_id":"cebpf4jnsgd1na2vs0mg"},{"bike_id":"a92d22fc-a2b2-406a-b4c3-732e3b780fb1","system_id":"levelo_inurba_marseille","lat":43.29529,"lon":5.385581,"is_reserved":false,"is_disabled":false,"rental_uris":{"android":"levelo://app?vid=a92d22fc-a2b2-406a-b4c3-732e3b780fb1","ios":"levelo://app?vid=a92d22fc-a2b2-406a-b4c3-732e3b780fb1"},"vehicle_type_id":"4","last_reported":1723831885,"current_range_meters":21600,"station_id":"ce4bgih2rcd13ifvqba0","pricing_plan_id":"cebpf4jnsgd1na2vs0mg"},{"bike_id":"6d445d10-085e-4a3f-97de-f16e62a5ad4a","system_id":"levelo_inurba_marseille","lat":43.29533,"lon":5.38548,"is_reserved":false,"is_disabled":false,"rental_uris":{"android":"levelo://app?vid=6d445d10-085e-4a3f-97de-f16e62a5ad4a","ios":"levelo://app?vid=6d445d10-085e-4a3f-97de-f16e62a5ad4a"},"vehicle_type_id":"4","last_reported":1723831885,"current_range_meters":22400,"station_id":"ce4bgih2rcd13ifvqba0","pricing_plan_id":"cebpf4jnsgd1na2vs0mg"},{"bike_id":"c2266628-179b-4c66-8835-6f18f37625bd","system_id":"levelo_inurba_marseille","lat":43.29529,"lon":5.385581,"is_reserved":false,"is_disabled":false,"rental_uris":{"android":"levelo://app?vid=c2266628-179b-4c66-8835-6f18f37625bd","ios":"levelo://app?vid=c2266628-179b-4c66-8835-6f18f37625bd"},"vehicle_type_id":"4","last_reported":1723831885,"current_range_meters":31200,"station_id":"ce4bgih2rcd13ifvqba0","pricing_plan_id":"cebpf4jnsgd1na2vs0mg"},{"bike_id":"9e16e9b6-a68c-4f93-a6f2-d638ddaa2c27","system_id":"levelo_inurba_marseille","lat":43.29531,"lon":5.38548,"is_reserved":false,"is_disabled":false,"rental_uris":{"android":"levelo://app?vid=9e16e9b6-a68c-4f93-a6f2-d638ddaa2c27","ios":"levelo://app?vid=9e16e9b6-a68c-4f93-a6f2-d638ddaa2c27"},"vehicle_type_id":"4","last_reported":1723831885,"current_range_meters":31200,"station_id":"ce4bgih2rcd13ifvqba0","pricing_plan_id":"cebpf4jnsgd1na2vs0mg"},{"bike_id":"ca5f28e2-6600-4905-981b-51e790fe3203","system_id":"levelo_inurba_marseille","lat":43.29531,"lon":5.38549,"is_reserved":false,"is_disabled":false,"rental_uris":{"android":"levelo://app?vid=ca5f28e2-6600-4905-981b-51e790fe3203","ios":"levelo://app?vid=ca5f28e2-6600-4905-981b-51e790fe3203"},"vehicle_type_id":"4","last_reported":1723831885,"current_range_meters":18800,"station_id":"ce4bgih2rcd13ifvqba0","pricing_plan_id":"cebpf4jnsgd1na2vs0mg"},{"bike_id":"b8923f08-282e-4dc7-a576-997b98c1f85b","system_id":"levelo_inurba_marseille","lat":43.29526,"lon":5.38543,"is_reserved":false,"is_disabled":false,"rental_uris":{"android":"levelo://app?vid=b8923f08-282e-4dc7-a576-997b98c1f85b","ios":"levelo://app?vid=b8923f08-282e-4dc7-a576-997b98c1f85b"},"vehicle_type_id":"4","last_reported":1723831885,"current_range_meters":31200,"station_id":"ce4bgih2rcd13ifvqba0","pricing_plan_id":"cebpf4jnsgd1na2vs0mg"},{"bike_id":"886ae89d-7866-4804-803c-26f4f6c0f662","system_id":"levelo_inurba_marseille","lat":43.29529,"lon":5.38553,"is_reserved":false,"is_disabled":false,"rental_uris":{"android":"levelo://app?vid=886ae89d-7866-4804-803c-26f4f6c0f662","ios":"levelo://app?vid=886ae89d-7866-4804-803c-26f4f6c0f662"},"vehicle_type_id":"4","last_reported":1723831885,"current_range_meters":3600,"station_id":"ce4bgih2rcd13ifvqba0","pricing_plan_id":"cebpf4jnsgd1na2vs0mg"},{"bike_id":"fa846605-cf6c-4207-9545-893b19c46d65","system_id":"levelo_inurba_marseille","lat":43.29525,"lon":5.38554,"is_reserved":false,"is_disabled":false,"rental_uris":{"android":"levelo://app?vid=fa846605-cf6c-4207-9545-893b19c46d65","ios":"levelo://app?vid=fa846605-cf6c-4207-9545-893b19c46d65"},"vehicle_type_id":"4","last_reported":1723831885,"current_range_meters":31200,"station_id":"ce4bgih2rcd13ifvqba0","pricing_plan_id":"cebpf4jnsgd1na2vs0mg"},{"bike_id":"dde9842f-934f-4f2b-ba28-8016d5a3025c","system_id":"levelo_inurba_marseille","lat":43.290779,"lon":5.371482,"is_reserved":false,"is_disabled":false,"rental_uris":{"android":"levelo://app?vid=dde9842f-934f-4f2b-ba28-8016d5a3025c","ios":"levelo://app?vid=dde9842f-934f-4f2b-ba28-8016d5a3025c"},"vehicle_type_id":"4","last_reported":1723831885,"current_range_meters":800,"station_id":"ce4bh5p2rcd13ifvqe4g","pricing_plan_id":"cebpf4jnsgd1na2vs0mg"},{"bike_id":"61a52a00-9eb8-4472-8167-bfe34b2fc210","system_id":"levelo_inurba_marseille","lat":43.302008,"lon":5.394694,"is_reserved":false,"is_disabled":false,"rental_uris":{"android":"levelo://app?vid=61a52a00-9eb8-4472-8167-bfe34b2fc210","ios":"levelo://app?vid=61a52a00-9eb8-4472-8167-bfe34b2fc210"},"vehicle_type_id":"4","last_reported":1723831885,"current_range_meters":12400,"station_id":"ce4bh0p2rcd13ifvqd70","pricing_plan_id":"cebpf4jnsgd1na2vs0mg"},{"bike_id":"df642cbc-af0d-4f70-9eab-10427f04c3d0","system_id":"levelo_inurba_marseille","lat":43.30207,"lon":5.39465,"is_reserved":false,"is_disabled":false,"rental_uris":{"android":"levelo://app?vid=df642cbc-af0d-4f70-9eab-10427f04c3d0","ios":"levelo://app?vid=df642cbc-af0d-4f70-9eab-10427f04c3d0"},"vehicle_type_id":"4","last_reported":1723831885,"current_range_meters":0,"station_id":"ce4bh0p2rcd13ifvqd70","pricing_plan_id":"cebpf4jnsgd1na2vs0mg"},{"bike_id":"5a8e759e-6646-4ee8-842c-565368a3a966","system_id":"levelo_inurba_marseille","lat":43.302008,"lon":5.394694,"is_reserved":false,"is_disabled":false,"rental_uris":{"android":"levelo://app?vid=5a8e759e-6646-4ee8-842c-565368a3a966","ios":"levelo://app?vid=5a8e759e-6646-4ee8-842c-565368a3a966"},"vehicle_type_id":"4","last_reported":1723831885,"current_range_meters":6400,"station_id":"ce4bh0p2rcd13ifvqd70","pricing_plan_id":"cebpf4jnsgd1na2vs0mg"},{"bike_id":"ff81ce7c-a1f3-4c64-a5b9-2a00d0d057c3","system_id":"levelo_inurba_marseille","lat":43.290624,"lon":5.359245,"is_reserved":false,"is_disabled":false,"rental_uris":{"android":"levelo://app?vid=ff81ce7c-a1f3-4c64-a5b9-2a00d0d057c3","ios":"levelo://app?vid=ff81ce7c-a1f3-4c64-a5b9-2a00d0d057c3"},"vehicle_type_id":"4","last_reported":1723831885,"current_range_meters":17600,"station_id":"ce4bha92rcd13ifvqeg0","pricing_plan_id":"cebpf4jnsgd1na2vs0mg"},{"bike_id":"219bd919-4174-429b-8bfc-e1e2487a7ffc","system_id":"levelo_inurba_marseille","lat":43.290624,"lon":5.359245,"is_reserved":false,"is_disabled":false,"rental_uris":{"android":"levelo://app?vid=219bd919-4174-429b-8bfc-e1e2487a7ffc","ios":"levelo://app?vid=219bd919-4174-429b-8bfc-e1e2487a7ffc"},"vehicle_type_id":"4","last_reported":1723831885,"current_range_meters":27200,"station_id":"ce4bha92rcd13ifvqeg0","pricing_plan_id":"cebpf4jnsgd1na2vs0mg"},{"bike_id":"5541ad3c-e685-4e20-9537-b92a491db0e1","system_id":"levelo_inurba_marseille","lat":43.290624,"lon":5.359245,"is_reserved":false,"is_disabled":false,"rental_uris":{"android":"levelo://app?vid=5541ad3c-e685-4e20-9537-b92a491db0e1","ios":"levelo://app?vid=5541ad3c-e685-4e20-9537-b92a491db0e1"},"vehicle_type_id":"4","last_reported":1723831885,"current_range_meters":18800,"station_id":"ce4bha92rcd13ifvqeg0","pricing_plan_id":"cebpf4jnsgd1na2vs0mg"},{"bike_id":"36b2e8ad-4481-4b3b-9a48-3b5950c292f4","system_id":"levelo_inurba_marseille","lat":43.290624,"lon":5.359245,"is_reserved":false,"is_disabled":false,"rental_uris":{"android":"levelo://app?vid=36b2e8ad-4481-4b3b-9a48-3b5950c292f4","ios":"levelo://app?vid=36b2e8ad-4481-4b3b-9a48-3b5950c292f4"},"vehicle_type_id":"4","last_reported":1723831885,"current_range_meters":24000,"station_id":"ce4bha92rcd13ifvqeg0","pricing_plan_id":"cebpf4jnsgd1na2vs0mg"},{"bike_id":"c6129870-3a3c-4f65-8b68-8a74a7c7080c","system_id":"levelo_inurba_marseille","lat":43.290631,"lon":5.359244,"is_reserved":false,"is_disabled":false,"rental_uris":{"android":"levelo://app?vid=c6129870-3a3c-4f65-8b68-8a74a7c7080c","ios":"levelo://app?vid=c6129870-3a3c-4f65-8b68-8a74a7c7080c"},"vehicle_type_id":"4","last_reported":1723831885,"current_range_meters":29200,"station_id":"ce4bha92rcd13ifvqeg0","pricing_plan_id":"cebpf4jnsgd1na2vs0mg"},{"bike_id":"5d4b0a11-d9b7-403e-ada2-5de2634f33e1","system_id":"levelo_inurba_marseille","lat":43.29529,"lon":5.385581,"is_reserved":false,"is_disabled":false,"rental_uris":{"android":"levelo://app?vid=5d4b0a11-d9b7-403e-ada2-5de2634f33e1","ios":"levelo://app?vid=5d4b0a11-d9b7-403e-ada2-5de2634f33e1"},"vehicle_type_id":"4","last_reported":1723831885,"current_range_meters":31200,"station_id":"ce4bgih2rcd13ifvqba0","pricing_plan_id":"cebpf4jnsgd1na2vs0mg"},{"bike_id":"2e1ecf1f-224a-45cc-aa17-c81034027523","system_id":"levelo_inurba_marseille","lat":43.290426,"lon":5.359121,"is_reserved":false,"is_disabled":false,"rental_uris":{"android":"levelo://app?vid=2e1ecf1f-224a-45cc-aa17-c81034027523","ios":"levelo://app?vid=2e1ecf1f-224a-45cc-aa17-c81034027523"},"vehicle_type_id":"4","last_reported":1723831885,"current_range_meters":4400,"station_id":"ce4bha92rcd13ifvqeg0","pricing_plan_id":"cebpf4jnsgd1na2vs0mg"},{"bike_id":"efa915c3-c18c-4faa-96bd-05122a7196ea","system_id":"levelo_inurba_marseille","lat":43.290682,"lon":5.357833,"is_reserved":false,"is_disabled":false,"rental_uris":{"android":"levelo://app?vid=efa915c3-c18c-4faa-96bd-05122a7196ea","ios":"levelo://app?vid=efa915c3-c18c-4faa-96bd-05122a7196ea"},"vehicle_type_id":"4","last_reported":1723831885,"current_range_meters":20000,"station_id":"","pricing_plan_id":"cebpf4jnsgd1na2vs0mg"},{"bike_id":"046e60f6-46ca-4c1d-a89e-7f64fde034f2","system_id":"levelo_inurba_marseille","lat":43.290417,"lon":5.359053,"is_reserved":false,"is_disabled":false,"rental_uris":{"android":"levelo://app?vid=046e60f6-46ca-4c1d-a89e-7f64fde034f2","ios":"levelo://app?vid=046e60f6-46ca-4c1d-a89e-7f64fde034f2"},"vehicle_type_id":"4","last_reported":1723831885,"current_range_meters":16800,"station_id":"ce4bha92rcd13ifvqeg0","pricing_plan_id":"cebpf4jnsgd1na2vs0mg"},{"bike_id":"1dbafd16-5830-421b-9835-5ed80a6b337f","system_id":"levelo_inurba_marseille","lat":43.290319,"lon":5.375732,"is_reserved":false,"is_disabled":false,"rental_uris":{"android":"levelo://app?vid=1dbafd16-5830-421b-9835-5ed80a6b337f","ios":"levelo://app?vid=1dbafd16-5830-421b-9835-5ed80a6b337f"},"vehicle_type_id":"4","last_reported":1723831885,"current_range_meters":6000,"station_id":"ce4bh692rcd13ifvqe90","pricing_plan_id":"cebpf4jnsgd1na2vs0mg"},{"bike_id":"fec5f62f-9ee8-46cc-951d-fc1f7db48f2d","system_id":"levelo_inurba_marseille","lat":43.28949,"lon":5.36632,"is_reserved":false,"is_disabled":false,"rental_uris":{"android":"levelo://app?vid=fec5f62f-9ee8-46cc-951d-fc1f7db48f2d","ios":"levelo://app?vid=fec5f62f-9ee8-46cc-951d-fc1f7db48f2d"},"vehicle_type_id":"4","last_reported":1723831885,"current_range_meters":0,"station_id":"ce4bhap2rcd13ifvqek0","pricing_plan_id":"cebpf4jnsgd1na2vs0mg"},{"bike_id":"b9857091-aeb1-4e46-a4b0-91ef7590a8db","system_id":"levelo_inurba_marseille","lat":43.290319,"lon":5.375732,"is_reserved":false,"is_disabled":false,"rental_uris":{"android":"levelo://app?vid=b9857091-aeb1-4e46-a4b0-91ef7590a8db","ios":"levelo://app?vid=b9857091-aeb1-4e46-a4b0-91ef7590a8db"},"vehicle_type_id":"4","last_reported":1723831885,"current_range_meters":15600,"station_id":"ce4bh692rcd13ifvqe90","pricing_plan_id":"cebpf4jnsgd1na2vs0mg"},{"bike_id":"7548b9c6-bf0c-4a43-aeea-92990d2364a9","system_id":"levelo_inurba_marseille","lat":43.294162,"lon":5.386292,"is_reserved":false,"is_disabled":false,"rental_uris":{"android":"levelo://app?vid=7548b9c6-bf0c-4a43-aeea-92990d2364a9","ios":"levelo://app?vid=7548b9c6-bf0c-4a43-aeea-92990d2364a9"},"vehicle_type_id":"4","last_reported":1723831885,"current_range_meters":16000,"station_id":"ce4bh2h2rcd13ifvqdh0","pricing_plan_id":"cebpf4jnsgd1na2vs0mg"},{"bike_id":"3e7c3db2-002a-480d-8ac8-9d830e5f4edc","system_id":"levelo_inurba_marseille","lat":43.294153,"lon":5.386305,"is_reserved":false,"is_disabled":false,"rental_uris":{"android":"levelo://app?vid=3e7c3db2-002a-480d-8ac8-9d830e5f4edc","ios":"levelo://app?vid=3e7c3db2-002a-480d-8ac8-9d830e5f4edc"},"vehicle_type_id":"4","last_reported":1723831885,"current_range_meters":8000,"station_id":"ce4bh2h2rcd13ifvqdh0","pricing_plan_id":"cebpf4jnsgd1na2vs0mg"},{"bike_id":"a7ba9b6e-5b59-4fdc-8d45-33e1d40b347b","system_id":"levelo_inurba_marseille","lat":43.294162,"lon":5.386292,"is_reserved":false,"is_disabled":false,"rental_uris":{"android":"levelo://app?vid=a7ba9b6e-5b59-4fdc-8d45-33e1d40b347b","ios":"levelo://app?vid=a7ba9b6e-5b59-4fdc-8d45-33e1d40b347b"},"vehicle_type_id":"4","last_reported":1723831885,"current_range_meters":12800,"station_id":"ce4bh2h2rcd13ifvqdh0","pricing_plan_id":"cebpf4jnsgd1na2vs0mg"},{"bike_id":"11b1fee7-cd35-4016-8521-4351fa31f718","system_id":"levelo_inurba_marseille","lat":43.29415,"lon":5.3862,"is_reserved":false,"is_disabled":false,"rental_uris":{"android":"levelo://app?vid=11b1fee7-cd35-4016-8521-4351fa31f718","ios":"levelo://app?vid=11b1fee7-cd35-4016-8521-4351fa31f718"},"vehicle_type_id":"4","last_reported":1723831885,"current_range_meters":26400,"station_id":"ce4bh2h2rcd13ifvqdh0","pricing_plan_id":"cebpf4jnsgd1na2vs0mg"},{"bike_id":"50088453-ef7e-4d30-a845-6fbabbeaa751","system_id":"levelo_inurba_marseille","lat":43.29416,"lon":5.38622,"is_reserved":false,"is_disabled":false,"rental_uris":{"android":"levelo://app?vid=50088453-ef7e-4d30-a845-6fbabbeaa751","ios":"levelo://app?vid=50088453-ef7e-4d30-a845-6fbabbeaa751"},"vehicle_type_id":"4","last_reported":1723831885,"current_range_meters":20000,"station_id":"ce4bh2h2rcd13ifvqdh0","pricing_plan_id":"cebpf4jnsgd1na2vs0mg"},{"bike_id":"01610363-7937-4c3d-b881-3498bd5b8c45","system_id":"levelo_inurba_marseille","lat":43.290319,"lon":5.375732,"is_reserved":false,"is_disabled":false,"rental_uris":{"android":"levelo://app?vid=01610363-7937-4c3d-b881-3498bd5b8c45","ios":"levelo://app?vid=01610363-7937-4c3d-b881-3498bd5b8c45"},"vehicle_type_id":"4","last_reported":1723831885,"current_range_meters":24400,"station_id":"ce4bh692rcd13ifvqe90","pricing_plan_id":"cebpf4jnsgd1na2vs0mg"},{"bike_id":"7e8efeac-e217-44f0-aa07-5191a0f41b09","system_id":"levelo_inurba_marseille","lat":43.294162,"lon":5.386292,"is_reserved":false,"is_disabled":false,"rental_uris":{"android":"levelo://app?vid=7e8efeac-e217-44f0-aa07-5191a0f41b09","ios":"levelo://app?vid=7e8efeac-e217-44f0-aa07-5191a0f41b09"},"vehicle_type_id":"4","last_reported":1723831885,"current_range_meters":31200,"station_id":"ce4bh2h2rcd13ifvqdh0","pricing_plan_id":"cebpf4jnsgd1na2vs0mg"},{"bike_id":"e9f58f31-9cff-4f6c-8d94-a5b0e17c6ce2","system_id":"levelo_inurba_marseille","lat":43.294153,"lon":5.386305,"is_reserved":false,"is_disabled":false,"rental_uris":{"android":"levelo://app?vid=e9f58f31-9cff-4f6c-8d94-a5b0e17c6ce2","ios":"levelo://app?vid=e9f58f31-9cff-4f6c-8d94-a5b0e17c6ce2"},"vehicle_type_id":"4","last_reported":1723831885,"current_range_meters":13200,"station_id":"ce4bh2h2rcd13ifvqdh0","pricing_plan_id":"cebpf4jnsgd1na2vs0mg"},{"bike_id":"74d82bd6-5b60-44f4-bc69-eea6818efd33","system_id":"levelo_inurba_marseille","lat":43.29414,"lon":5.38623,"is_reserved":false,"is_disabled":false,"rental_uris":{"android":"levelo://app?vid=74d82bd6-5b60-44f4-bc69-eea6818efd33","ios":"levelo://app?vid=74d82bd6-5b60-44f4-bc69-eea6818efd33"},"vehicle_type_id":"4","last_reported":1723831885,"current_range_meters":11600,"station_id":"ce4bh2h2rcd13ifvqdh0","pricing_plan_id":"cebpf4jnsgd1na2vs0mg"},{"bike_id":"67c0e80a-0ea0-413b-8d60-483fea5b7727","system_id":"levelo_inurba_marseille","lat":43.289435,"lon":5.36633,"is_reserved":false,"is_disabled":false,"rental_uris":{"android":"levelo://app?vid=67c0e80a-0ea0-413b-8d60-483fea5b7727","ios":"levelo://app?vid=67c0e80a-0ea0-413b-8d60-483fea5b7727"},"vehicle_type_id":"4","last_reported":1723831885,"current_range_meters":17600,"station_id":"ce4bhap2rcd13ifvqek0","pricing_plan_id":"cebpf4jnsgd1na2vs0mg"},{"bike_id":"ecae0a92-b851-4903-b57f-a99e03b4cc18","system_id":"levelo_inurba_marseille","lat":43.29416,"lon":5.38627,"is_reserved":false,"is_disabled":false,"rental_uris":{"android":"levelo://app?vid=ecae0a92-b851-4903-b57f-a99e03b4cc18","ios":"levelo://app?vid=ecae0a92-b851-4903-b57f-a99e03b4cc18"},"vehicle_type_id":"4","last_reported":1723831885,"current_range_meters":8800,"station_id":"ce4bh2h2rcd13ifvqdh0","pricing_plan_id":"cebpf4jnsgd1na2vs0mg"},{"bike_id":"2e0ce89f-205c-46dc-983d-16fa8f4cfc68","system_id":"levelo_inurba_marseille","lat":43.290319,"lon":5.375732,"is_reserved":false,"is_disabled":false,"rental_uris":{"android":"levelo://app?vid=2e0ce89f-205c-46dc-983d-16fa8f4cfc68","ios":"levelo://app?vid=2e0ce89f-205c-46dc-983d-16fa8f4cfc68"},"vehicle_type_id":"4","last_reported":1723831885,"current_range_meters":0,"station_id":"ce4bh692rcd13ifvqe90","pricing_plan_id":"cebpf4jnsgd1na2vs0mg"},{"bike_id":"a77deee8-50f8-48bf-a5a9-b4ea073ad64e","system_id":"levelo_inurba_marseille","lat":43.29416,"lon":5.38629,"is_reserved":false,"is_disabled":false,"rental_uris":{"android":"levelo://app?vid=a77deee8-50f8-48bf-a5a9-b4ea073ad64e","ios":"levelo://app?vid=a77deee8-50f8-48bf-a5a9-b4ea073ad64e"},"vehicle_type_id":"4","last_reported":1723831885,"current_range_meters":18000,"station_id":"ce4bh2h2rcd13ifvqdh0","pricing_plan_id":"cebpf4jnsgd1na2vs0mg"},