{"last_updated":1751281782,"ttl":60,"version":"2.2","data":{"bikes":[{"bike_id":"3da29fb8-fc97-44c6-b9ac-31dd456b2fd4","system_id":"levelo_inurba_marseille","lat":43.33771,"lon":5.37424,"is_reserved":false,"is_disabled":true,"rental_uris":{"android":"levelo://app?vid=3da29fb8-fc97-44c6-b9ac-31dd456b2fd4","ios":"levelo://app?vid=3da29fb8-fc97-44c6-b9ac-31dd456b2fd4"},"vehicle_type_id":"4","last_reported":1751281783,"current_range_meters":0,"station_id":"","pricing_plan_id":"cebpf4jnsgd1na2vs0mg"},{"bike_id":"01861ad8-a8d7-4be6-816e-651927c87584","system_id":"levelo_inurba_marseille","lat":43.33751,"lon":5.37456,"is_reserved":false,"is_disabled":true,"rental_uris":{"android":"levelo://app?vid=01861ad8-a8d7-4be6-816e-651927c87584","ios":"levelo://app?vid=01861ad8-a8d7-4be6-816e-651927c87584"},"vehicle_type_id":"4","last_reported":1751281783,"current_range_meters":0,"station_id":"","pricing_plan_id":"cebpf4jnsgd1na2vs0mg"},{"bike_id":"f1483ff6-ae8a-4286-a635-7d40887e3e92","system_id":"levelo_inurba_marseille","lat":43.2699,"lon":5.36626,"is_reserved":false,"is_disabled":true,"rental_uris":{"android":"levelo://app?vid=f1483ff6-ae8a-4286-a635-7d40887e3e92","ios":"levelo://app?vid=f1483ff6-ae8a-4286-a635-7d40887e3e92"},"vehicle_type_id":"4","last_reported":1751281783,"current_range_meters":0,"station_id":"","pricing_plan_id":"cebpf4jnsgd1na2vs0mg"},{"bike_id":"9976d630-087d-4040-a306-8079efcee7af","system_id":"levelo_inurba_marseille","lat":43.2962,"lon":5.37171,"is_reserved":false,"is_disabled":true,"rental_uris":{"android":"levelo://app?vid=9976d630-087d-4040-a306-8079efcee7af","ios":"levelo://app?vid=9976d630-087d-4040-a306-8079efcee7af"},"vehicle_type_id":"4","last_reported":1751281783,"current_range_meters":0,"station_id":"ce4bgnh2rcd13ifvqc0g","pricing_plan_id":"cebpf4jnsgd1na2vs0mg"},{"bike_id":"764f406e-b080-4f4e-a9e5-96f205f8e436","system_id":"levelo_inurba_marseille","lat":43.31343,"lon":5.3672,"is_reserved":false,"is_disabled":true,"rental_uris":{"android":"levelo://app?vid=764f406e-b080-4f4e-a9e5-96f205f8e436","ios":"levelo://app?vid=764f406e-b080-4f4e-a9e5-96f205f8e436"},"vehicle_type_id":"4","last_reported":1751281783,"current_range_meters":0,"station_id":"ce4bgr92rcd13ifvqc6g","pricing_plan_id":"cebpf4jnsgd1na2vs0mg"},{"bike_id":"527917eb-dbb1-458c-bc37-0719e0ade664","system_id":"levelo_inurba_marseille","lat":43.28496,"lon":5.38435,"is_reserved":false,"is_disabled":true,"rental_uris":{"android":"levelo://app?vid=527917eb-dbb1-458c-bc37-0719e0ade664","ios":"levelo://app?vid=527917eb-dbb1-458c-bc37-0719e0ade664"},"vehicle_type_id":"4","last_reported":1751281783,"current_range_meters":0,"station_id":"ce4bh512rcd13ifvqe3g","pricing_plan_id":"cebpf4jnsgd1na2vs0mg"},{"bike_id":"98af472e-65f0-436a-9bbd-a72d0ab45e2c","system_id":"levelo_inurba_marseille","lat":43.29007,"lon":5.3561,"is_reserved":false,"is_disabled":true,"rental_uris":{"android":"levelo://app?vid=98af472e-65f0-436a-9bbd-a72d0ab45e2c","ios":"levelo://app?vid=98af472e-65f0-436a-9bbd-a72d0ab45e2c"},"vehicle_type_id":"4","last_reported":1751281783,"current_range_meters":0,"station_id":"ce4bhb92rcd13ifvqen0","pricing_plan_id":"cebpf4jnsgd1na2vs0mg"},{"bike_id":"cf932eaa-1f50-417e-a947-790602e4a606","system_id":"levelo_inurba_marseille","lat":43.28418,"lon":5.34981,"is_reserved":false,"is_disabled":true,"rental_uris":{"android":"levelo://app?vid=cf932eaa-1f50-417e-a947-790602e4a606","ios":"levelo://app?vid=cf932eaa-1f50-417e-a947-790602e4a606"},"vehicle_type_id":"4","last_reported":1751281783,"current_range_meters":0,"station_id":"ce4bhbh2rcd13ifvqepg","pricing_plan_id":"cebpf4jnsgd1na2vs0mg"},{"bike_id":"bd3d37e1-be55-4b2b-907a-4ee992fb54d0","system_id":"levelo_inurba_marseille","lat":43.23147,"lon":5.43719,"is_reserved":false,"is_disabled":true,"rental_uris":{"android":"levelo://app?vid=bd3d37e1-be55-4b2b-907a-4ee992fb54d0","ios":"levelo://app?vid=bd3d37e1-be55-4b2b-907a-4ee992fb54d0"},"vehicle_type_id":"4","last_reported":1751281783,"current_range_meters":0,"station_id":"ce4bhmp2rcd13ifvqgog","pricing_plan_id":"cebpf4jnsgd1na2vs0mg"},{"bike_id":"81f2a023-1d65-43a4-995b-373d26b177ed","system_id":"levelo_inurba_marseille","lat":43.24163,"lon":5.36394,"is_reserved":false,"is_disabled":true,"rental_uris":{"android":"levelo://app?vid=81f2a023-1d65-43a4-995b-373d26b177ed","ios":"levelo://app?vid=81f2a023-1d65-43a4-995b-373d26b177ed"},"vehicle_type_id":"4","last_reported":1751281783,"current_range_meters":0,"station_id":"cpo36qri1sfpv3e86is0","pricing_plan_id":"cebpf4jnsgd1na2vs0mg"},{"bike_id":"5d83e44b-b6d0-4e8a-b94f-5a528af57873","system_id":"levelo_inurba_marseille","lat":43.30592,"lon":5.39357,"is_reserved":false,"is_disabled":true,"rental_uris":{"android":"levelo://app?vid=5d83e44b-b6d0-4e8a-b94f-5a528af57873","ios":"levelo://app?vid=5d83e44b-b6d0-4e8a-b94f-5a528af57873"},"vehicle_type_id":"4","last_reported":1751281783,"current_range_meters":400,"station_id":"ce4bh0p2rcd13ifvqd80","pricing_plan_id":"cebpf4jnsgd1na2vs0mg"},{"bike_id":"04b0cf8d-2e53-4eec-a93b-4a4826ab91fa","system_id":"levelo_inurba_marseille","lat":43.2796,"lon":5.387175,"is_reserved":false,"is_disabled":true,"rental_uris":{"android":"levelo://app?vid=04b0cf8d-2e53-4eec-a93b-4a4826ab91fa","ios":"levelo://app?vid=04b0cf8d-2e53-4eec-a93b-4a4826ab91fa"},"vehicle_type_id":"4","last_reported":1751281783,"current_range_meters":400,"station_id":"ce4bhg12rcd13ifvqf80","pricing_plan_id":"cebpf4jnsgd1na2vs0mg"},{"bike_id":"2f57a76e-2e2e-465d-b156-8c607e12c283","system_id":"levelo_inurba_marseille","lat":43.249975,"lon":5.389281,"is_reserved":false,"is_disabled":true,"rental_uris":{"android":"levelo://app?vid=2f57a76e-2e2e-465d-b156-8c607e12c283","ios":"levelo://app?vid=2f57a76e-2e2e-465d-b156-8c607e12c283"},"vehicle_type_id":"4","last_reported":1751281783,"current_range_meters":400,"station_id":"ce4bhgp2rcd13ifvqfd0","pricing_plan_id":"cebpf4jnsgd1na2vs0mg"},{"bike_id":"29e697ca-26a6-4412-8107-f2c74b259edc","system_id":"levelo_inurba_marseille","lat":43.24187,"lon":5.38389,"is_reserved":false,"is_disabled":true,"rental_uris":{"android":"levelo://app?vid=29e697ca-26a6-4412-8107-f2c74b259edc","ios":"levelo://app?vid=29e697ca-26a6-4412-8107-f2c74b259edc"},"vehicle_type_id":"4","last_reported":1751281783,"current_range_meters":1200,"station_id":"","pricing_plan_id":"cebpf4jnsgd1na2vs0mg"},{"bike_id":"85eb80f1-fdf8-4910-9983-416402de22ff","system_id":"levelo_inurba_marseille","lat":43.27696,"lon":5.41522,"is_reserved":false,"is_disabled":true,"rental_uris":{"android":"levelo://app?vid=85eb80f1-fdf8-4910-9983-416402de22ff","ios":"levelo://app?vid=85eb80f1-fdf8-4910-9983-416402de22ff"},"vehicle_type_id":"4","last_reported":1751281783,"current_range_meters":1200,"station_id":"","pricing_plan_id":"cebpf4jnsgd1na2vs0mg"},{"bike_id":"05e2a4f9-c12a-45dd-8837-4a9f2d8837c1","system_id":"levelo_inurba_marseille","lat":43.288361,"lon":5.392929,"is_reserved":false,"is_disabled":true,"rental_uris":{"android":"levelo://app?vid=05e2a4f9-c12a-45dd-8837-4a9f2d8837c1","ios":"levelo://app?vid=05e2a4f9-c12a-45dd-8837-4a9f2d8837c1"},"vehicle_type_id":"4","last_reported":1751281783,"current_range_meters":1200,"station_id":"ce4bh2p2rcd13ifvqdi0","pricing_plan_id":"cebpf4jnsgd1na2vs0mg"},{"bike_id":"dc8ba8cd-7340-4b33-b6d6-04200ab14b1a","system_id":"levelo_inurba_marseille","lat":43.24547,"lon":5.39529,"is_reserved":false,"is_disabled":true,"rental_uris":{"android":"levelo://app?vid=dc8ba8cd-7340-4b33-b6d6-04200ab14b1a","ios":"levelo://app?vid=dc8ba8cd-7340-4b33-b6d6-04200ab14b1a"},"vehicle_type_id":"4","last_reported":1751281783,"current_range_meters":1200,"station_id":"ce4bhlp2rcd13ifvqgjg","pricing_plan_id":"cebpf4jnsgd1na2vs0mg"},{"bike_id":"4bb4a733-a9bd-4772-9320-a8c7885ff73b","system_id":"levelo_inurba_marseille","lat":43.27773,"lon":5.35618,"is_reserved":false,"is_disabled":true,"rental_uris":{"android":"levelo://app?vid=4bb4a733-a9bd-4772-9320-a8c7885ff73b","ios":"levelo://app?vid=4bb4a733-a9bd-4772-9320-a8c7885ff73b"},"vehicle_type_id":"4","last_reported":1751281783,"current_range_meters":1600,"station_id":"","pricing_plan_id":"cebpf4jnsgd1na2vs0mg"},{"bike_id":"d99025c1-bd02-496a-a020-5b9afe0d9ad8","system_id":"levelo_inurba_marseille","lat":43.29596,"lon":5.36734,"is_reserved":false,"is_disabled":true,"rental_uris":{"android":"levelo://app?vid=d99025c1-bd02-496a-a020-5b9afe0d9ad8","ios":"levelo://app?vid=d99025c1-bd02-496a-a020-5b9afe0d9ad8"},"vehicle_type_id":"4","last_reported":1751281783,"current_range_meters":1600,"station_id":"ce4bgph2rcd13ifvqc2g","pricing_plan_id":"cebpf4jnsgd1na2vs0mg"},{"bike_id":"24c2734e-8f13-46b5-ab15-4dd68fc9dac0","system_id":"levelo_inurba_marseille","lat":43.30946,"lon":5.39039,"is_reserved":false,"is_disabled":true,"rental_uris":{"android":"levelo://app?vid=24c2734e-8f13-46b5-ab15-4dd68fc9dac0","ios":"levelo://app?vid=24c2734e-8f13-46b5-ab15-4dd68fc9dac0"},"vehicle_type_id":"4","last_reported":1751281783,"current_range_meters":1600,"station_id":"ce4bgup2rcd13ifvqco0","pricing_plan_id":"cebpf4jnsgd1na2vs0mg"},{"bike_id":"21dd46ce-b92f-4106-8375-4e23b08ea349","system_id":"levelo_inurba_marseille","lat":43.2811,"lon":5.3784,"is_reserved":false,"is_disabled":true,"rental_uris":{"android":"levelo://app?vid=21dd46ce-b92f-4106-8375-4e23b08ea349","ios":"levelo://app?vid=21dd46ce-b92f-4106-8375-4e23b08ea349"},"vehicle_type_id":"4","last_reported":1751281783,"current_range_meters":1600,"station_id":"ce4bha12rcd13ifvqee0","pricing_plan_id":"cebpf4jnsgd1na2vs0mg"},{"bike_id":"3b55baee-9d20-4bdc-9689-a9e74dd8e41d","system_id":"levelo_inurba_marseille","lat":43.25726,"lon":5.4111,"is_reserved":false,"is_disabled":true,"rental_uris":{"android":"levelo://app?vid=3b55baee-9d20-4bdc-9689-a9e74dd8e41d","ios":"levelo://app?vid=3b55baee-9d20-4bdc-9689-a9e74dd8e41d"},"vehicle_type_id":"4","last_reported":1751281783,"current_range_meters":1600,"station_id":"ce4bhkp2rcd13ifvqgd0","pricing_plan_id":"cebpf4jnsgd1na2vs0mg"},{"bike_id":"65fc1e2f-e29f-45f4-a100-72d7eb31bbb1","system_id":"levelo_inurba_marseille","lat":43.30987,"lon":5.39045,"is_reserved":false,"is_disabled":true,"rental_uris":{"android":"levelo://app?vid=65fc1e2f-e29f-45f4-a100-72d7eb31bbb1","ios":"levelo://app?vid=65fc1e2f-e29f-45f4-a100-72d7eb31bbb1"},"vehicle_type_id":"4","last_reported":1751281783,"current_range_meters":2000,"station_id":"ce4bgup2rcd13ifvqco0","pricing_plan_id":"cebpf4jnsgd1na2vs0mg"},{"bike_id":"c3da1042-6870-4f4b-91a1-366cef676576","system_id":"levelo_inurba_marseille","lat":43.290387,"lon":5.381547,"is_reserved":false,"is_disabled":true,"rental_uris":{"android":"levelo://app?vid=c3da1042-6870-4f4b-91a1-366cef676576","ios":"levelo://app?vid=c3da1042-6870-4f4b-91a1-366cef676576"},"vehicle_type_id":"4","last_reported":1751281783,"current_range_meters":2000,"station_id":"ce4bh4p2rcd13ifvqe1g","pricing_plan_id":"cebpf4jnsgd1na2vs0mg"},{"bike_id":"3066de4d-576b-4494-bdf0-b6ca99d72aee","system_id":"levelo_inurba_marseille","lat":43.27314,"lon":5.3909,"is_reserved":false,"is_disabled":true,"rental_uris":{"android":"levelo://app?vid=3066de4d-576b-4494-bdf0-b6ca99d72aee","ios":"levelo://app?vid=3066de4d-576b-4494-bdf0-b6ca99d72aee"},"vehicle_type_id":"4","last_reported":1751281783,"current_range_meters":2000,"station_id":"ce4bhgp2rcd13ifvqfe0","pricing_plan_id":"cebpf4jnsgd1na2vs0mg"},{"bike_id":"b0c66422-02e6-4981-919b-11d1b6c77736","system_id":"levelo_inurba_marseille","lat":43.26803,"lon":5.40263,"is_reserved":false,"is_disabled":true,"rental_uris":{"android":"levelo://app?vid=b0c66422-02e6-4981-919b-11d1b6c77736","ios":"levelo://app?vid=b0c66422-02e6-4981-919b-11d1b6c77736"},"vehicle_type_id":"4","last_reported":1751281783,"current_range_meters":2000,"station_id":"ce501612rcd8frsf0b60","pricing_plan_id":"cebpf4jnsgd1na2vs0mg"},{"bike_id":"9640febe-0408-4479-856b-c3075f19feea","system_id":"levelo_inurba_marseille","lat":43.26924,"lon":5.40257,"is_reserved":false,"is_disabled":true,"rental_uris":{"android":"levelo://app?vid=9640febe-0408-4479-856b-c3075f19feea","ios":"levelo://app?vid=9640febe-0408-4479-856b-c3075f19feea"},"vehicle_type_id":"4","last_reported":1751281783,"current_range_meters":2000,"station_id":"cjm6bp8fraef2m0cb0m0","pricing_plan_id":"cebpf4jnsgd1na2vs0mg"},{"bike_id":"3bbaef4b-0514-412a-a8ae-309886c8e8ce","system_id":"levelo_inurba_marseille","lat":43.21746,"lon":5.346,"is_reserved":false,"is_disabled":true,"rental_uris":{"android":"levelo://app?vid=3bbaef4b-0514-412a-a8ae-309886c8e8ce","ios":"levelo://app?vid=3bbaef4b-0514-412a-a8ae-309886c8e8ce"},"vehicle_type_id":"4","last_reported":1751281783,"current_range_meters":2000,"station_id":"st_cvj6r9ubvosntc0bgbag","pricing_plan_id":"cebpf4jnsgd1na2vs0mg"},{"bike_id":"a37e8def-144c-4d8d-aabf-950aca51f939","system_id":"levelo_inurba_marseille","lat":43.297702,"lon":5.38121,"is_reserved":false,"is_disabled":false,"rental_uris":{"android":"levelo://app?vid=a37e8def-144c-4d8d-aabf-950aca51f939","ios":"levelo://app?vid=a37e8def-144c-4d8d-aabf-950aca51f939"},"vehicle_type_id":"4","last_reported":1751281783,"current_range_meters":2800,"station_id":"","pricing_plan_id":"cebpf4jnsgd1na2vs0mg"},{"bike_id":"2ff54923-0f05-4d07-aacc-d62577cdd530","system_id":"levelo_inurba_marseille","lat":43.33605,"lon":5.41005,"is_reserved":false,"is_disabled":false,"rental_uris":{"android":"levelo://app?vid=2ff54923-0f05-4d07-aacc-d62577cdd530","ios":"levelo://app?vid=2ff54923-0f05-4d07-aacc-d62577cdd530"},"vehicle_type_id":"4","last_reported":1751281783,"current_range_meters":2800,"station_id":"ce4bhqh2rcd13ifvqhmg","pricing_plan_id":"cebpf4jnsgd1na2vs0mg"},{"bike_id":"f1c4fcee-b5e5-4cd3-9d7f-38f660d75ab4","system_id":"levelo_inurba_marseille","lat":43.21737,"lon":5.34608,"is_reserved":false,"is_disabled":false,"rental_uris":{"android":"levelo://app?vid=f1c4fcee-b5e5-4cd3-9d7f-38f660d75ab4","ios":"levelo://app?vid=f1c4fcee-b5e5-4cd3-9d7f-38f660d75ab4"},"vehicle_type_id":"4","last_reported":1751281783,"current_range_meters":2800,"station_id":"st_cvj6r9ubvosntc0bgbag","pricing_plan_id":"cebpf4jnsgd1na2vs0mg"},{"bike_id":"9e163c86-36ef-4269-bcd8-6c9e6f4075a0","system_id":"levelo_inurba_marseille","lat":43.30274,"lon":5.37151,"is_reserved":false,"is_disabled":false,"rental_uris":{"android":"levelo://app?vid=9e163c86-36ef-4269-bcd8-6c9e6f4075a0","ios":"levelo://app?vid=9e163c86-36ef-4269-bcd8-6c9e6f4075a0"},"vehicle_type_id":"4","last_reported":1751281783,"current_range_meters":3200,"station_id":"","pricing_plan_id":"cebpf4jnsgd1na2vs0mg"},{"bike_id":"a7c61877-faeb-4d80-8411-ad42697c7422","system_id":"levelo_inurba_marseille","lat":43.28421,"lon":5.35003,"is_reserved":false,"is_disabled":false,"rental_uris":{"android":"levelo://app?vid=a7c61877-faeb-4d80-8411-ad42697c7422","ios":"levelo://app?vid=a7c61877-faeb-4d80-8411-ad42697c7422"},"vehicle_type_id":"4","last_reported":1751281783,"current_range_meters":3200,"station_id":"ce4bhbh2rcd13ifvqepg","pricing_plan_id":"cebpf4jnsgd1na2vs0mg"},{"bike_id":"08db75d8-6492-47ad-8e4d-1bb1950e2761","system_id":"levelo_inurba_marseille","lat":43.28265,"lon":5.3506,"is_reserved":false,"is_disabled":false,"rental_uris":{"android":"levelo://app?vid=08db75d8-6492-47ad-8e4d-1bb1950e2761","ios":"levelo://app?vid=08db75d8-6492-47ad-8e4d-1bb1950e2761"},"vehicle_type_id":"4","last_reported":1751281783,"current_range_meters":3200,"station_id":"ce4bhbp2rcd13ifvqerg","pricing_plan_id":"cebpf4jnsgd1na2vs0mg"},{"bike_id":"680b0bba-924e-4566-a5d3-6cf324478c1b","system_id":"levelo_inurba_marseille","lat":43.28853,"lon":5.39325,"is_reserved":false,"is_disabled":false,"rental_uris":{"android":"levelo://app?vid=680b0bba-924e-4566-a5d3-6cf324478c1b","ios":"levelo://app?vid=680b0bba-924e-4566-a5d3-6cf324478c1b"},"vehicle_type_id":"4","last_reported":1751281783,"current_range_meters":3600,"station_id":"ce4bh2p2rcd13ifvqdi0","pricing_plan_id":"cebpf4jnsgd1na2vs0mg"},{"bike_id":"26a90510-49b0-46b8-a310-571476ba1ab0","system_id":"levelo_inurba_marseille","lat":43.23148,"lon":5.43709,"is_reserved":false,"is_disabled":false,"rental_uris":{"android":"levelo://app?vid=26a90510-49b0-46b8-a310-571476ba1ab0","ios":"levelo://app?vid=26a90510-49b0-46b8-a310-571476ba1ab0"},"vehicle_type_id":"4","last_reported":1751281783,"current_range_meters":3600,"station_id":"ce4bhmp2rcd13ifvqgog","pricing_plan_id":"cebpf4jnsgd1na2vs0mg"},{"bike_id":"673e7fb0-7d48-465d-bdf5-5ce3f5301db6","system_id":"levelo_inurba_marseille","lat":43.24167,"lon":5.3639,"is_reserved":false,"is_disabled":false,"rental_uris":{"android":"levelo://app?vid=673e7fb0-7d48-465d-bdf5-5ce3f5301db6","ios":"levelo://app?vid=673e7fb0-7d48-465d-bdf5-5ce3f5301db6"},"vehicle_type_id":"4","last_reported":1751281783,"current_range_meters":3600,"station_id":"cpo36qri1sfpv3e86is0","pricing_plan_id":"cebpf4jnsgd1na2vs0mg"},{"bike_id":"d5b5bc74-aaeb-40c0-b979-fb1a262527de","system_id":"levelo_inurba_marseille","lat":43.33264,"lon":5.35858,"is_reserved":false,"is_disabled":false,"rental_uris":{"android":"levelo://app?vid=d5b5bc74-aaeb-40c0-b979-fb1a262527de","ios":"levelo://app?vid=d5b5bc74-aaeb-40c0-b979-fb1a262527de"},"vehicle_type_id":"4","last_reported":1751281783,"current_range_meters":4000,"station_id":"","pricing_plan_id":"cebpf4jnsgd1na2vs0mg"},{"bike_id":"f530c99a-3110-4b3e-8848-887a21125f48","system_id":"levelo_inurba_marseille","lat":43.3026,"lon":5.40065,"is_reserved":false,"is_disabled":false,"rental_uris":{"android":"levelo://app?vid=f530c99a-3110-4b3e-8848-887a21125f48","ios":"levelo://app?vid=f530c99a-3110-4b3e-8848-887a21125f48"},"vehicle_type_id":"4","last_reported":1751281783,"current_range_meters":4000,"station_id":"ce4bgvh2rcd13ifvqcs0","pricing_plan_id":"cebpf4jnsgd1na2vs0mg"},{"bike_id":"721165c1-ef6f-40cc-8d33-af3a7999864b","system_id":"levelo_inurba_marseille","lat":43.326103,"lon":5.378957,"is_reserved":false,"is_disabled":false,"rental_uris":{"android":"levelo://app?vid=721165c1-ef6f-40cc-8d33-af3a7999864b","ios":"levelo://app?vid=721165c1-ef6f-40cc-8d33-af3a7999864b"},"vehicle_type_id":"4","last_reported":1751281783,"current_range_meters":4800,"station_id":"","pricing_plan_id":"cebpf4jnsgd1na2vs0mg"},{"bike_id":"0881ae71-189f-43a7-ae72-88a4e435249c","system_id":"levelo_inurba_marseille","lat":43.29204,"lon":5.39323,"is_reserved":false,"is_disabled":false,"rental_uris":{"android":"levelo://app?vid=0881ae71-189f-43a7-ae72-88a4e435249c","ios":"levelo://app?vid=0881ae71-189f-43a7-ae72-88a4e435249c"},"vehicle_type_id":"4","last_reported":1751281783,"current_range_meters":4800,"station_id":"ce4bh192rcd13ifvqdd0","pricing_plan_id":"cebpf4jnsgd1na2vs0mg"},{"bike_id":"7ed42c89-9316-4eac-bbfe-d802de2a56b2","system_id":"levelo_inurba_marseille","lat":43.28266,"lon":5.35064,"is_reserved":false,"is_disabled":false,"rental_uris":{"android":"levelo://app?vid=7ed42c89-9316-4eac-bbfe-d802de2a56b2","ios":"levelo://app?vid=7ed42c89-9316-4eac-bbfe-d802de2a56b2"},"vehicle_type_id":"4","last_reported":1751281783,"current_range_meters":4800,"station_id":"ce4bhbp2rcd13ifvqerg","pricing_plan_id":"cebpf4jnsgd1na2vs0mg"},{"bike_id":"42cf7d6e-0461-49b7-8935-e2b16e8cba60","system_id":"levelo_inurba_marseille","lat":43.26209,"lon":5.37444,"is_reserved":false,"is_disabled":false,"rental_uris":{"android":"levelo://app?vid=42cf7d6e-0461-49b7-8935-e2b16e8cba60","ios":"levelo://app?vid=42cf7d6e-0461-49b7-8935-e2b16e8cba60"},"vehicle_type_id":"4","last_reported":1751281783,"current_range_meters":4800,"station_id":"ce4bhgp2rcd13ifvqfc0","pricing_plan_id":"cebpf4jnsgd1na2vs0mg"},{"bike_id":"6ee865bb-3efe-4226-8377-fe558a79fbcb","system_id":"levelo_inurba_marseille","lat":43.25491,"lon":5.37673,"is_reserved":false,"is_disabled":false,"rental_uris":{"android":"levelo://app?vid=6ee865bb-3efe-4226-8377-fe558a79fbcb","ios":"levelo://app?vid=6ee865bb-3efe-4226-8377-fe558a79fbcb"},"vehicle_type_id":"4","last_reported":1751281783,"current_range_meters":4800,"station_id":"ce4bhh12rcd13ifvqff0","pricing_plan_id":"cebpf4jnsgd1na2vs0mg"},{"bike_id":"6445cc03-f0ad-4833-bf37-aec5b859b6be","system_id":"levelo_inurba_marseille","lat":43.263366,"lon":5.401142,"is_reserved":false,"is_disabled":false,"rental_uris":{"android":"levelo://app?vid=6445cc03-f0ad-4833-bf37-aec5b859b6be","ios":"levelo://app?vid=6445cc03-f0ad-4833-bf37-aec5b859b6be"},"vehicle_type_id":"4","last_reported":1751281783,"current_range_meters":5600,"station_id":"","pricing_plan_id":"cebpf4jnsgd1na2vs0mg"},{"bike_id":"bf7e3bd4-0d40-4e2c-a694-9e7036323dc2","system_id":"levelo_inurba_marseille","lat":43.284821,"lon":5.384119,"is_reserved":false,"is_disabled":false,"rental_uris":{"android":"levelo://app?vid=bf7e3bd4-0d40-4e2c-a694-9e7036323dc2","ios":"levelo://app?vid=bf7e3bd4-0d40-4e2c-a694-9e7036323dc2"},"vehicle_type_id":"4","last_reported":1751281783,"current_range_meters":5600,"station_id":"ce4bh512rcd13ifvqe3g","pricing_plan_id":"cebpf4jnsgd1na2vs0mg"},{"bike_id":"b875df27-a820-47d0-980e-08e014eb2d1b","system_id":"levelo_inurba_marseille","lat":43.27379,"lon":5.36259,"is_reserved":false,"is_disabled":false,"rental_uris":{"android":"levelo://app?vid=b875df27-a820-47d0-980e-08e014eb2d1b","ios":"levelo://app?vid=b875df27-a820-47d0-980e-08e014eb2d1b"},"vehicle_type_id":"4","last_reported":1751281783,"current_range_meters":5600,"station_id":"ce4bhbh2rcd13ifvqeo0","pricing_plan_id":"cebpf4jnsgd1na2vs0mg"},{"bike_id":"2f8a56b1-df2f-4a68-a556-476cc023cc98","system_id":"levelo_inurba_marseille","lat":43.33739,"lon":5.374693,"is_reserved":false,"is_disabled":false,"rental_uris":{"android":"levelo://app?vid=2f8a56b1-df2f-4a68-a556-476cc023cc98","ios":"levelo://app?vid=2f8a56b1-df2f-4a68-a556-476cc023cc98"},"vehicle_type_id":"4","last_reported":1751281783,"current_range_meters":6000,"station_id":"","pricing_plan_id":"cebpf4jnsgd1na2vs0mg"},{"bike_id":"ddea8738-6fbd-4276-904b-0185f2657ff3","system_id":"levelo_inurba_marseille","lat":43.284668,"lon":5.384174,"is_reserved":false,"is_disabled":false,"rental_uris":{"android":"levelo://app?vid=ddea8738-6fbd-4276-904b-0185f2657ff3","ios":"levelo://app?vid=ddea8738-6fbd-4276-904b-0185f2657ff3"},"vehicle_type_id":"4","last_reported":1751281783,"current_range_meters":6000,"station_id":"ce4bh512rcd13ifvqe3g","pricing_plan_id":"cebpf4jnsgd1na2vs0mg"},{"bike_id":"1392b63b-f116-45ff-a253-d2ae42bfcfb3","system_id":"levelo_inurba_marseille","lat":43.273833,"lon":5.362477,"is_reserved":false,"is_disabled":false,"rental_uris":{"android":"levelo://app?vid=1392b63b-f116-45ff-a253-d2ae42bfcfb3","ios":"levelo://app?vid=1392b63b-f116-45ff-a253-d2ae42bfcfb3"},"vehicle_type_id":"4","last_reported":1751281783,"current_range_meters":6000,"station_id":"ce4bhbh2rcd13ifvqeo0","pricing_plan_id":"cebpf4jnsgd1na2vs0mg"},{"bike_id":"c6e6d07a-da78-424c-bebb-a3bdc6e9ab11","system_id":"levelo_inurba_marseille","lat":43.28617,"lon":5.35105,"is_reserved":false,"is_disabled":false,"rental_uris":{"android":"levelo://app?vid=c6e6d07a-da78-424c-bebb-a3bdc6e9ab11","ios":"levelo://app?vid=c6e6d07a-da78-424c-bebb-a3bdc6e9ab11"},"vehicle_type_id":"4","last_reported":1751281783,"current_range_meters":6000,"station_id":"ce4bhch2rcd13ifvqeug","pricing_plan_id":"cebpf4jnsgd1na2vs0mg"},{"bike_id":"033a09f5-ae17-4a3e-8db3-110d81477f8c","system_id":"levelo_inurba_marseille","lat":43.25551,"lon":5.38247,"is_reserved":false,"is_disabled":false,"rental_uris":{"android":"levelo://app?vid=033a09f5-ae17-4a3e-8db3-110d81477f8c","ios":"levelo://app?vid=033a09f5-ae17-4a3e-8db3-110d81477f8c"},"vehicle_type_id":"4","last_reported":1751281783,"current_range_meters":6000,"station_id":"ce4bhih2rcd13ifvqfs0","pricing_plan_id":"cebpf4jnsgd1na2vs0mg"},{"bike_id":"98b8d127-f303-4f7e-8444-3a27b3ae7a78","system_id":"levelo_inurba_marseille","lat":43.23146,"lon":5.43704,"is_reserved":false,"is_disabled":false,"rental_uris":{"android":"levelo://app?vid=98b8d127-f303-4f7e-8444-3a27b3ae7a78","ios":"levelo://app?vid=98b8d127-f303-4f7e-8444-3a27b3ae7a78"},"vehicle_type_id":"4","last_reported":1751281783,"current_range_meters":6000,"station_id":"ce4bhmp2rcd13ifvqgog","pricing_plan_id":"cebpf4jnsgd1na2vs0mg"},{"bike_id":"4e2cc4fd-da60-49d1-aa55-fc6bf1ea23bc","system_id":"levelo_inurba_marseille","lat":43.30535,"lon":5.36545,"is_reserved":false,"is_disabled":false,"rental_uris":{"android":"levelo://app?vid=4e2cc4fd-da60-49d1-aa55-fc6bf1ea23bc","ios":"levelo://app?vid=4e2cc4fd-da60-49d1-aa55-fc6bf1ea23bc"},"vehicle_type_id":"4","last_reported":1751281783,"current_range_meters":6400,"station_id":"ce4bgs12rcd13ifvqcag","pricing_plan_id":"cebpf4jnsgd1na2vs0mg"},{"bike_id":"983a43e6-41cb-4ffe-9fc3-9cd6d96bdd2a","system_id":"levelo_inurba_marseille","lat":43.31185,"lon":5.36911,"is_reserved":false,"is_disabled":false,"rental_uris":{"android":"levelo://app?vid=983a43e6-41cb-4ffe-9fc3-9cd6d96bdd2a","ios":"levelo://app?vid=983a43e6-41cb-4ffe-9fc3-9cd6d96bdd2a"},"vehicle_type_id":"4","last_reported":1751281783,"current_range_meters":6800,"station_id":"","pricing_plan_id":"cebpf4jnsgd1na2vs0mg"},{"bike_id":"4182696b-ee73-4c50-8680-2fb7a09114fd","system_id":"levelo_inurba_marseille","lat":43.295197,"lon":5.375001,"is_reserved":false,"is_disabled":false,"rental_uris":{"android":"levelo://app?vid=4182696b-ee73-4c50-8680-2fb7a09114fd","ios":"levelo://app?vid=4182696b-ee73-4c50-8680-2fb7a09114fd"},"vehicle_type_id":"4","last_reported":1751281783,"current_range_meters":6800,"station_id":"ce4bgkp2rcd13ifvqbmg","pricing_plan_id":"cebpf4jnsgd1na2vs0mg"},{"bike_id":"404c5dea-cf22-48f3-ad44-8b252fa4f599","system_id":"levelo_inurba_marseille","lat":43.25486,"lon":5.37648,"is_reserved":false,"is_disabled":false,"rental_uris":{"android":"levelo://app?vid=404c5dea-cf22-48f3-ad44-8b252fa4f599","ios":"levelo://app?vid=404c5dea-cf22-48f3-ad44-8b252fa4f599"},"vehicle_type_id":"4","last_reported":1751281783,"current_range_meters":6800,"station_id":"ce4bhh12rcd13ifvqff0","pricing_plan_id":"cebpf4jnsgd1na2vs0mg"},{"bike_id":"99f281eb-44dd-4a50-b8f7-afecd19c12a4","system_id":"levelo_inurba_marseille","lat":43.31273,"lon":5.36834,"is_reserved":false,"is_disabled":false,"rental_uris":{"android":"levelo://app?vid=99f281eb-44dd-4a50-b8f7-afecd19c12a4","ios":"levelo://app?vid=99f281eb-44dd-4a50-b8f7-afecd19c12a4"},"vehicle_type_id":"4","last_reported":1751281783,"current_range_meters":7200,"station_id":"","pricing_plan_id":"cebpf4jnsgd1na2vs0mg"},{"bike_id":"0c7c6e5b-2f5d-4d23-8825-83ae60425af8","system_id":"levelo_inurba_marseille","lat":43.31173,"lon":5.38721,"is_reserved":false,"is_disabled":false,"rental_uris":{"android":"levelo://app?vid=0c7c6e5b-2f5d-4d23-8825-83ae60425af8","ios":"levelo://app?vid=0c7c6e5b-2f5d-4d23-8825-83ae60425af8"},"vehicle_type_id":"4","last_reported":1751281783,"current_range_meters":7200,"station_id":"ce4bgv12rcd13ifvqcp0","pricing_plan_id":"cebpf4jnsgd1na2vs0mg"},{"bike_id":"af7de75b-90fa-4d69-8f16-30aba1969675","system_id":"levelo_inurba_marseille","lat":43.28266,"lon":5.35062,"is_reserved":false,"is_disabled":false,"rental_uris":{"android":"levelo://app?vid=af7de75b-90fa-4d69-8f16-30aba1969675","ios":"levelo://app?vid=af7de75b-90fa-4d69-8f16-30aba1969675"},"vehicle_type_id":"4","last_reported":1751281783,"current_range_meters":7200,"station_id":"ce4bhbp2rcd13ifvqerg","pricing_plan_id":"cebpf4jnsgd1na2vs0mg"},{"bike_id":"d7108b38-207d-4563-9e39-051f8fd4c8c0","system_id":"levelo_inurba_marseille","lat":43.25499,"lon":5.37646,"is_reserved":false,"is_disabled":false,"rental_uris":{"android":"levelo://app?vid=d7108b38-207d-4563-9e39-051f8fd4c8c0","ios":"levelo://app?vid=d7108b38-207d-4563-9e39-051f8fd4c8c0"},"vehicle_type_id":"4","last_reported":1751281783,"current_range_meters":7200,"station_id":"ce4bhh12rcd13ifvqff0","pricing_plan_id":"cebpf4jnsgd1na2vs0mg"},{"bike_id":"8734b93f-6823-4274-9866-56f18b8ec79f","system_id":"levelo_inurba_marseille","lat":43.27203,"lon":5.39174,"is_reserved":false,"is_disabled":false,"rental_uris":{"android":"levelo://app?vid=8734b93f-6823-4274-9866-56f18b8ec79f","ios":"levelo://app?vid=8734b93f-6823-4274-9866-56f18b8ec79f"},"vehicle_type_id":"4","last_reported":1751281783,"current_range_meters":7200,"station_id":"ce4bhhp2rcd13ifvqfm0","pricing_plan_id":"cebpf4jnsgd1na2vs0mg"},{"bike_id":"7b28ebac-3c6a-43aa-aca9-7bd954b07205","system_id":"levelo_inurba_marseille","lat":43.29685,"lon":5.37966,"is_reserved":false,"is_disabled":false,"rental_uris":{"android":"levelo://app?vid=7b28ebac-3c6a-43aa-aca9-7bd954b07205","ios":"levelo://app?vid=7b28ebac-3c6a-43aa-aca9-7bd954b07205"},"vehicle_type_id":"4","last_reported":1751281783,"current_range_meters":8000,"station_id":"","pricing_plan_id":"cebpf4jnsgd1na2vs0mg"},{"bike_id":"59ac2892-2e99-45aa-9ad4-298b28d8085f","system_id":"levelo_inurba_marseille","lat":43.30307,"lon":5.39214,"is_reserved":false,"is_disabled":false,"rental_uris":{"android":"levelo://app?vid=59ac2892-2e99-45aa-9ad4-298b28d8085f","ios":"levelo://app?vid=59ac2892-2e99-45aa-9ad4-298b28d8085f"},"vehicle_type_id":"4","last_reported":1751281783,"current_range_meters":8000,"station_id":"ce4bgkh2rcd13ifvqbk0","pricing_plan_id":"cebpf4jnsgd1na2vs0mg"},{"bike_id":"32cd2463-fd3a-40ce-a470-7caa54aa2746","system_id":"levelo_inurba_marseille","lat":43.29587,"lon":5.38095,"is_reserved":false,"is_disabled":false,"rental_uris":{"android":"levelo://app?vid=32cd2463-fd3a-40ce-a470-7caa54aa2746","ios":"levelo://app?vid=32cd2463-fd3a-40ce-a470-7caa54aa2746"},"vehicle_type_id":"4","last_reported":1751281783,"current_range_meters":8000,"station_id":"ce4bgl12rcd13ifvqbo0","pricing_plan_id":"cebpf4jnsgd1na2vs0mg"},{"bike_id":"6765dee0-770a-4bfd-a80a-3fa36da7ede5","system_id":"levelo_inurba_marseille","lat":43.30956,"lon":5.39031,"is_reserved":false,"is_disabled":false,"rental_uris":{"android":"levelo://app?vid=6765dee0-770a-4bfd-a80a-3fa36da7ede5","ios":"levelo://app?vid=6765dee0-770a-4bfd-a80a-3fa36da7ede5"},"vehicle_type_id":"4","last_reported":1751281783,"current_range_meters":8000,"station_id":"ce4bgup2rcd13ifvqco0","pricing_plan_id":"cebpf4jnsgd1na2vs0mg"},{"bike_id":"17e4815c-8308-45b9-94aa-7f3c66b0ee34","system_id":"levelo_inurba_marseille","lat":43.2841,"lon":5.34984,"is_reserved":false,"is_disabled":false,"rental_uris":{"android":"levelo://app?vid=17e4815c-8308-45b9-94aa-7f3c66b0ee34","ios":"levelo://app?vid=17e4815c-8308-45b9-94aa-7f3c66b0ee34"},"vehicle_type_id":"4","last_reported":1751281783,"current_range_meters":8000,"station_id":"ce4bhbh2rcd13ifvqepg","pricing_plan_id":"cebpf4jnsgd1na2vs0mg"},{"bike_id":"cbe8cf16-ee4d-44dc-af26-2dea0d93d494","system_id":"levelo_inurba_marseille","lat":43.337444,"lon":5.374475,"is_reserved":false,"is_disabled":false,"rental_uris":{"android":"levelo://app?vid=cbe8cf16-ee4d-44dc-af26-2dea0d93d494","ios":"levelo://app?vid=cbe8cf16-ee4d-44dc-af26-2dea0d93d494"},"vehicle_type_id":"4","last_reported":1751281783,"current_range_meters":8400,"station_id":"","pricing_plan_id":"cebpf4jnsgd1na2vs0mg"},{"bike_id":"f7ca005b-5947-4a37-af97-f5871fa04fe4","system_id":"levelo_inurba_marseille","lat":43.26685,"lon":5.38332,"is_reserved":false,"is_disabled":false,"rental_uris":{"android":"levelo://app?vid=f7ca005b-5947-4a37-af97-f5871fa04fe4","ios":"levelo://app?vid=f7ca005b-5947-4a37-af97-f5871fa04fe4"},"vehicle_type_id":"4","last_reported":1751281783,"current_range_meters":8400,"station_id":"ce4bhg92rcd13ifvqf90","pricing_plan_id":"cebpf4jnsgd1na2vs0mg"},{"bike_id":"17b905fe-a900-4025-ab2a-9ab7be6d565c","system_id":"levelo_inurba_marseille","lat":43.25507,"lon":5.37661,"is_reserved":false,"is_disabled":false,"rental_uris":{"android":"levelo://app?vid=17b905fe-a900-4025-ab2a-9ab7be6d565c","ios":"levelo://app?vid=17b905fe-a900-4025-ab2a-9ab7be6d565c"},"vehicle_type_id":"4","last_reported":1751281783,"current_range_meters":8400,"station_id":"ce4bhh12rcd13ifvqff0","pricing_plan_id":"cebpf4jnsgd1na2vs0mg"},{"bike_id":"9fc6b39a-5532-40ac-8f58-975bced56a19","system_id":"levelo_inurba_marseille","lat":43.325748,"lon":5.404512,"is_reserved":false,"is_disabled":false,"rental_uris":{"android":"levelo://app?vid=9fc6b39a-5532-40ac-8f58-975bced56a19","ios":"levelo://app?vid=9fc6b39a-5532-40ac-8f58-975bced56a19"},"vehicle_type_id":"4","last_reported":1751281783,"current_range_meters":8800,"station_id":"","pricing_plan_id":"cebpf4jnsgd1na2vs0mg"},{"bike_id":"d308c658-b19c-49c0-8014-5506ff26f69a","system_id":"levelo_inurba_marseille","lat":43.230789,"lon":5.405051,"is_reserved":false,"is_disabled":false,"rental_uris":{"android":"levelo://app?vid=d308c658-b19c-49c0-8014-5506ff26f69a","ios":"levelo://app?vid=d308c658-b19c-49c0-8014-5506ff26f69a"},"vehicle_type_id":"4","last_reported":1751281783,"current_range_meters":8800,"station_id":"","pricing_plan_id":"cebpf4jnsgd1na2vs0mg"},{"bike_id":"93d1837d-26af-4a81-a266-3fa3318d0804","system_id":"levelo_inurba_marseille","lat":43.2894,"lon":5.36629,"is_reserved":false,"is_disabled":false,"rental_uris":{"android":"levelo://app?vid=93d1837d-26af-4a81-a266-3fa3318d0804","ios":"levelo://app?vid=93d1837d-26af-4a81-a266-3fa3318d0804"},"vehicle_type_id":"4","last_reported":1751281783,"current_range_meters":8800,"station_id":"ce4bhap2rcd13ifvqek0","pricing_plan_id":"cebpf4jnsgd1na2vs0mg"},{"bike_id":"d7d64aa7-3f1c-401a-afb1-2a560f7861c0","system_id":"levelo_inurba_marseille","lat":43.27381,"lon":5.36256,"is_reserved":false,"is_disabled":false,"rental_uris":{"android":"levelo://app?vid=d7d64aa7-3f1c-401a-afb1-2a560f7861c0","ios":"levelo://app?vid=d7d64aa7-3f1c-401a-afb1-2a560f7861c0"},"vehicle_type_id":"4","last_reported":1751281783,"current_range_meters":8800,"station_id":"ce4bhbh2rcd13ifvqeo0","pricing_plan_id":"cebpf4jnsgd1na2vs0mg"},{"bike_id":"84fd2ac3-3f72-4d76-8509-8e37b930099e","system_id":"levelo_inurba_marseille","lat":43.32561,"lon":5.41465,"is_reserved":false,"is_disabled":false,"rental_uris":{"android":"levelo://app?vid=84fd2ac3-3f72-4d76-8509-8e37b930099e","ios":"levelo://app?vid=84fd2ac3-3f72-4d76-8509-8e37b930099e"},"vehicle_type_id":"4","last_reported":1751281783,"current_range_meters":8800,"station_id":"ce4bhq12rcd13ifvqhhg","pricing_plan_id":"cebpf4jnsgd1na2vs0mg"},{"bike_id":"e219543a-880e-4c38-aff0-63dd83878c8b","system_id":"levelo_inurba_marseille","lat":43.321025,"lon":5.367711,"is_reserved":false,"is_disabled":false,"rental_uris":{"android":"levelo://app?vid=e219543a-880e-4c38-aff0-63dd83878c8b","ios":"levelo://app?vid=e219543a-880e-4c38-aff0-63dd83878c8b"},"vehicle_type_id":"4","last_reported":1751281783,"current_range_meters":8800,"station_id":"ce4bhrh2rcd13ifvqhug","pricing_plan_id":"cebpf4jnsgd1na2vs0mg"},{"bike_id":"543deaf2-5ebd-4216-bbfe-ec7cd0a5ce60","system_id":"levelo_inurba_marseille","lat":43.24162,"lon":5.36396,"is_reserved":false,"is_disabled":false,"rental_uris":{"android":"levelo://app?vid=543deaf2-5ebd-4216-bbfe-ec7cd0a5ce60","ios":"levelo://app?vid=543deaf2-5ebd-4216-bbfe-ec7cd0a5ce60"},"vehicle_type_id":"4","last_reported":1751281783,"current_range_meters":8800,"station_id":"cpo36qri1sfpv3e86is0","pricing_plan_id":"cebpf4jnsgd1na2vs0mg"},{"bike_id":"2630b0d7-8518-44a1-b41d-4305f5c2b588","system_id":"levelo_inurba_marseille","lat":43.288553,"lon":5.393204,"is_reserved":false,"is_disabled":false,"rental_uris":{"android":"levelo://app?vid=2630b0d7-8518-44a1-b41d-4305f5c2b588","ios":"levelo://app?vid=2630b0d7-8518-44a1-b41d-4305f5c2b588"},"vehicle_type_id":"4","last_reported":1751281783,"current_range_meters":9200,"station_id":"ce4bh492rcd13ifvqdug","pricing_plan_id":"cebpf4jnsgd1na2vs0mg"},{"bike_id":"c595d0e1-c778-4abe-9c79-a9dd74f54e27","system_id":"levelo_inurba_marseille","lat":43.244716,"lon":5.372131,"is_reserved":false,"is_disabled":false,"rental_uris":{"android":"levelo://app?vid=c595d0e1-c778-4abe-9c79-a9dd74f54e27","ios":"levelo://app?vid=c595d0e1-c778-4abe-9c79-a9dd74f54e27"},"vehicle_type_id":"4","last_reported":1751281783,"current_range_meters":9600,"station_id":"","pricing_plan_id":"cebpf4jnsgd1na2vs0mg"},{"bike_id":"1698043f-f060-4e43-ad3d-73a8b20ff25d","system_id":"levelo_inurba_marseille","lat":43.30903,"lon":5.36864,"is_reserved":false,"is_disabled":false,"rental_uris":{"android":"levelo://app?vid=1698043f-f060-4e43-ad3d-73a8b20ff25d","ios":"levelo://app?vid=1698043f-f060-4e43-ad3d-73a8b20ff25d"},"vehicle_type_id":"4","last_reported":1751281783,"current_range_meters":9600,"station_id":"ce4bgn92rcd13ifvqbvg","pricing_plan_id":"cebpf4jnsgd1na2vs0mg"},{"bike_id":"73f15934-f1d5-4ee2-ab7c-ead31ca49576","system_id":"levelo_inurba_marseille","lat":43.25001,"lon":5.38919,"is_reserved":false,"is_disabled":false,"rental_uris":{"android":"levelo://app?vid=73f15934-f1d5-4ee2-ab7c-ead31ca49576","ios":"levelo://app?vid=73f15934-f1d5-4ee2-ab7c-ead31ca49576"},"vehicle_type_id":"4","last_reported":1751281783,"current_range_meters":9600,"station_id":"ce4bhgp2rcd13ifvqfd0","pricing_plan_id":"cebpf4jnsgd1na2vs0mg"},{"bike_id":"b879504e-c85b-45ea-ab13-dce989cb130f","system_id":"levelo_inurba_marseille","lat":43.3238,"lon":5.36604,"is_reserved":false,"is_disabled":false,"rental_uris":{"android":"levelo://app?vid=b879504e-c85b-45ea-ab13-dce989cb130f","ios":"levelo://app?vid=b879504e-c85b-45ea-ab13-dce989cb130f"},"vehicle_type_id":"4","last_reported":1751281783,"current_range_meters":9600,"station_id":"ce4bhs12rcd13ifvqhvg","pricing_plan_id":"cebpf4jnsgd1na2vs0mg"},{"bike_id":"99bfe58d-afb2-4aca-bf08-fb4a4b977428","system_id":"levelo_inurba_marseille","lat":43.22938,"lon":5.35375,"is_reserved":false,"is_disabled":false,"rental_uris":{"android":"levelo://app?vid=99bfe58d-afb2-4aca-bf08-fb4a4b977428","ios":"levelo://app?vid=99bfe58d-afb2-4aca-bf08-fb4a4b977428"},"vehicle_type_id":"4","last_reported":1751281783,"current_range_meters":9600,"station_id":"cpo3532slgdg3j2ikp40","pricing_plan_id":"cebpf4jnsgd1na2vs0mg"},{"bike_id":"120036e1-945c-4ddf-ba61-047361af53a6","system_id":"levelo_inurba_marseille","lat":43.21206,"lon":5.35076,"is_reserved":false,"is_disabled":false,"rental_uris":{"android":"levelo://app?vid=120036e1-945c-4ddf-ba61-047361af53a6","ios":"levelo://app?vid=120036e1-945c-4ddf-ba61-047361af53a6"},"vehicle_type_id":"4","last_reported":1751281783,"current_range_meters":9600,"station_id":"st_cvj6sg6p6f1abm77japg","pricing_plan_id":"cebpf4jnsgd1na2vs0mg"},{"bike_id":"7b47b272-fbf3-4098-ac79-c3a56cb95ee9","system_id":"levelo_inurba_marseille","lat":43.24491,"lon":5.37249,"is_reserved":false,"is_disabled":false,"rental_uris":{"android":"levelo://app?vid=7b47b272-fbf3-4098-ac79-c3a56cb95ee9","ios":"levelo://app?vid=7b47b272-fbf3-4098-ac79-c3a56cb95ee9"},"vehicle_type_id":"4","last_reported":1751281783,"current_range_meters":10000,"station_id":"","pricing_plan_id":"cebpf4jnsgd1na2vs0mg"},{"bike_id":"360cb72f-7cec-423b-b304-7f8da672b6d7","system_id":"levelo_inurba_marseille","lat":43.2976,"lon":5.37923,"is_reserved":false,"is_disabled":false,"rental_uris":{"android":"levelo://app?vid=360cb72f-7cec-423b-b304-7f8da672b6d7","ios":"levelo://app?vid=360cb72f-7cec-423b-b304-7f8da672b6d7"},"vehicle_type_id":"4","last_reported":1751281783,"current_range_meters":10000,"station_id":"","pricing_plan_id":"cebpf4jnsgd1na2vs0mg"},{"bike_id":"05d3d448-235e-4ac7-88df-050f15d5a616","system_id":"levelo_inurba_marseille","lat":43.2794,"lon":5.42255,"is_reserved":false,"is_disabled":false,"rental_uris":{"android":"levelo://app?vid=05d3d448-235e-4ac7-88df-050f15d5a616","ios":"levelo://app?vid=05d3d448-235e-4ac7-88df-050f15d5a616"},"vehicle_type_id":"4","last_reported":1751281783,"current_range_meters":10000,"station_id":"","pricing_plan_id":"cebpf4jnsgd1na2vs0mg"},{"bike_id":"dbef6216-5898-49e5-bf8c-85e5563f2362","system_id":"levelo_inurba_marseille","lat":43.29232,"lon":5.36069,"is_reserved":false,"is_disabled":false,"rental_uris":{"android":"levelo://app?vid=dbef6216-5898-49e5-bf8c-85e5563f2362","ios":"levelo://app?vid=dbef6216-5898-49e5-bf8c-85e5563f2362"},"vehicle_type_id":"4","last_reported":1751281783,"current_range_meters":10000,"station_id":"ce4bhbh2rcd13ifvqeqg","pricing_plan_id":"cebpf4jnsgd1na2vs0mg"},{"bike_id":"1c0e4f1f-023a-4f4d-b468-cc966152458e","system_id":"levelo_inurba_marseille","lat":43.31086,"lon":5.42426,"is_reserved":false,"is_disabled":false,"rental_uris":{"android":"levelo://app?vid=1c0e4f1f-023a-4f4d-b468-cc966152458e","ios":"levelo://app?vid=1c0e4f1f-023a-4f4d-b468-cc966152458e"},"vehicle_type_id":"4","last_reported":1751281783,"current_range_meters":10000,"station_id":"ce4bhp92rcd13ifvqhag","pricing_plan_id":"cebpf4jnsgd1na2vs0mg"},{"bike_id":"761f7a97-5f6f-4f61-92c5-de6e9123cf16","system_id":"levelo_inurba_marseille","lat":43.29906,"lon":5.43681,"is_reserved":false,"is_disabled":false,"rental_uris":{"android":"levelo://app?vid=761f7a97-5f6f-4f61-92c5-de6e9123cf16","ios":"levelo://app?vid=761f7a97-5f6f-4f61-92c5-de6e9123cf16"},"vehicle_type_id":"4","last_reported":1751281783,"current_range_meters":10000,"station_id":"ce4bhpp2rcd13ifvqhfg","pricing_plan_id":"cebpf4jnsgd1na2vs0mg"},{"bike_id":"3035be0e-7c3d-4f7d-a1cb-7a1af59e497b","system_id":"levelo_inurba_marseille","lat":43.29671,"lon":5.35998,"is_reserved":false,"is_disabled":false,"rental_uris":{"android":"levelo://app?vid=3035be0e-7c3d-4f7d-a1cb-7a1af59e497b","ios":"levelo://app?vid=3035be0e-7c3d-4f7d-a1cb-7a1af59e497b"},"vehicle_type_id":"4","last_reported":1751281783,"current_range_meters":10800,"station_id":"","pricing_plan_id":"cebpf4jnsgd1na2vs0mg"},{"bike_id":"f14ea732-2ab2-4f5d-9515-779400c440ec","system_id":"levelo_inurba_marseille","lat":43.28632,"lon":5.3706,"is_reserved":false,"is_disabled":false,"rental_uris":{"android":"levelo://app?vid=f14ea732-2ab2-4f5d-9515-779400c440ec","ios":"levelo://app?vid=f14ea732-2ab2-4f5d-9515-779400c440ec"},"vehicle_type_id":"4","last_reported":1751281783,"current_range_meters":10800,"station_id":"ce4bht12rcd13ifvqi60","pricing_plan_id":"cebpf4jnsgd1na2vs0mg"},{"bike_id":"78284af2-bf69-4fd5-b7d0-bf87d4b01869","system_id":"levelo_inurba_marseille","lat":43.312183,"lon":5.368398,"is_reserved":false,"is_disabled":false,"rental_uris":{"android":"levelo://app?vid=78284af2-bf69-4fd5-b7d0-bf87d4b01869","ios":"levelo://app?vid=78284af2-bf69-4fd5-b7d0-bf87d4b01869"},"vehicle_type_id":"4","last_reported":1751281783,"current_range_meters":11200,"station_id":"ce4bgl92rcd13ifvqbq0","pricing_plan_id":"cebpf4jnsgd1na2vs0mg"},{"bike_id":"b6c522c6-cbef-4d71-a62b-f5594355331f","system_id":"levelo_inurba_marseille","lat":43.26564,"lon":5.3904,"is_reserved":false,"is_disabled":false,"rental_uris":{"android":"levelo://app?vid=b6c522c6-cbef-4d71-a62b-f5594355331f","ios":"levelo://app?vid=b6c522c6-cbef-4d71-a62b-f5594355331f"},"vehicle_type_id":"4","last_reported":1751281783,"current_range_meters":11200,"station_id":"ce4bhe12rcd13ifvqf30","pricing_plan_id":"cebpf4jnsgd1na2vs0mg"},{"bike_id":"6d8bd07f-eecc-40d3-a609-a77fe2d77f85","system_id":"levelo_inurba_marseille","lat":43.22933,"lon":5.35373,"is_reserved":false,"is_disabled":false,"rental_uris":{"android":"levelo://app?vid=6d8bd07f-eecc-40d3-a609-a77fe2d77f85","ios":"levelo://app?vid=6d8bd07f-eecc-40d3-a609-a77fe2d77f85"},"vehicle_type_id":"4","last_reported":1751281783,"current_range_meters":11200,"station_id":"cpo3532slgdg3j2ikp40","pricing_plan_id":"cebpf4jnsgd1na2vs0mg"},{"bike_id":"b05ac08d-847b-4f20-ac36-038a0d69d167","system_id":"levelo_inurba_marseille","lat":43.28128,"lon":5.35866,"is_reserved":false,"is_disabled":false,"rental_uris":{"android":"levelo://app?vid=b05ac08d-847b-4f20-ac36-038a0d69d167","ios":"levelo://app?vid=b05ac08d-847b-4f20-ac36-038a0d69d167"},"vehicle_type_id":"4","last_reported":1751281783,"current_range_meters":11600,"station_id":"","pricing_plan_id":"cebpf4jnsgd1na2vs0mg"},{"bike_id":"e7641e58-176f-485d-9342-129003cdc52b","system_id":"levelo_inurba_marseille","lat":43.32082,"lon":5.3685,"is_reserved":false,"is_disabled":false,"rental_uris":{"android":"levelo://app?vid=e7641e58-176f-485d-9342-129003cdc52b","ios":"levelo://app?vid=e7641e58-176f-485d-9342-129003cdc52b"},"vehicle_type_id":"4","last_reported":1751281783,"current_range_meters":11600,"station_id":"","pricing_plan_id":"cebpf4jnsgd1na2vs0mg"},{"bike_id":"acca692d-8d39-459c-a574-7087df4141fc","system_id":"levelo_inurba_marseille","lat":43.31489,"lon":5.37314,"is_reserved":false,"is_disabled":false,"rental_uris":{"android":"levelo://app?vid=acca692d-8d39-459c-a574-7087df4141fc","ios":"levelo://app?vid=acca692d-8d39-459c-a574-7087df4141fc"},"vehicle_type_id":"4","last_reported":1751281783,"current_range_meters":11600,"station_id":"ce4bgt12rcd13ifvqcd0","pricing_plan_id":"cebpf4jnsgd1na2vs0mg"},{"bike_id":"c3113ac1-162f-498c-8047-ff3b370b9976","system_id":"levelo_inurba_marseille","lat":43.31071,"lon":5.38359,"is_reserved":false,"is_disabled":false,"rental_uris":{"android":"levelo://app?vid=c3113ac1-162f-498c-8047-ff3b370b9976","ios":"levelo://app?vid=c3113ac1-162f-498c-8047-ff3b370b9976"},"vehicle_type_id":"4","last_reported":1751281783,"current_range_meters":11600,"station_id":"ce4bgv92rcd13ifvqcr0","pricing_plan_id":"cebpf4jnsgd1na2vs0mg"},{"bike_id":"65280d13-d120-4e26-bd33-57186b6a7313","system_id":"levelo_inurba_marseille","lat":43.32346,"lon":5.4062,"is_reserved":false,"is_disabled":false,"rental_uris":{"android":"levelo://app?vid=65280d13-d120-4e26-bd33-57186b6a7313","ios":"levelo://app?vid=65280d13-d120-4e26-bd33-57186b6a7313"},"vehicle_type_id":"4","last_reported":1751281783,"current_range_meters":11600,"station_id":"ce4bhq92rcd13ifvqhjg","pricing_plan_id":"cebpf4jnsgd1na2vs0mg"},{"bike_id":"786f230b-598f-4e58-bbc2-1e0a419e9de2","system_id":"levelo_inurba_marseille","lat":43.26477,"lon":5.3921,"is_reserved":false,"is_disabled":false,"rental_uris":{"android":"levelo://app?vid=786f230b-598f-4e58-bbc2-1e0a419e9de2","ios":"levelo://app?vid=786f230b-598f-4e58-bbc2-1e0a419e9de2"},"vehicle_type_id":"4","last_reported":1751281783,"current_range_meters":12000,"station_id":"","pricing_plan_id":"cebpf4jnsgd1na2vs0mg"},{"bike_id":"7cd73daf-6410-4b72-a872-e5224e9d29ff","system_id":"levelo_inurba_marseille","lat":43.27414,"lon":5.41165,"is_reserved":false,"is_disabled":false,"rental_uris":{"android":"levelo://app?vid=7cd73daf-6410-4b72-a872-e5224e9d29ff","ios":"levelo://app?vid=7cd73daf-6410-4b72-a872-e5224e9d29ff"},"vehicle_type_id":"4","last_reported":1751281783,"current_range_meters":12000,"station_id":"","pricing_plan_id":"cebpf4jnsgd1na2vs0mg"},{"bike_id":"f5c16f07-bc6f-4121-91a7-5ad90eec4f34","system_id":"levelo_inurba_marseille","lat":43.31206,"lon":5.37344,"is_reserved":false,"is_disabled":false,"rental_uris":{"android":"levelo://app?vid=f5c16f07-bc6f-4121-91a7-5ad90eec4f34","ios":"levelo://app?vid=f5c16f07-bc6f-4121-91a7-5ad90eec4f34"},"vehicle_type_id":"4","last_reported":1751281783,"current_range_meters":12000,"station_id":"","pricing_plan_id":"cebpf4jnsgd1na2vs0mg"},{"bike_id":"68532ab6-1a23-44c9-964a-ad455358b38b","system_id":"levelo_inurba_marseille","lat":43.31079,"lon":5.38353,"is_reserved":false,"is_disabled":false,"rental_uris":{"android":"levelo://app?vid=68532ab6-1a23-44c9-964a-ad455358b38b","ios":"levelo://app?vid=68532ab6-1a23-44c9-964a-ad455358b38b"},"vehicle_type_id":"4","last_reported":1751281783,"current_range_meters":12000,"station_id":"ce4bgv92rcd13ifvqcr0","pricing_plan_id":"cebpf4jnsgd1na2vs0mg"},{"bike_id":"6fc878fe-f291-4038-8752-c69de15e3aaa","system_id":"levelo_inurba_marseille","lat":43.28077,"lon":5.39656,"is_reserved":false,"is_disabled":false,"rental_uris":{"android":"levelo://app?vid=6fc878fe-f291-4038-8752-c69de15e3aaa","ios":"levelo://app?vid=6fc878fe-f291-4038-8752-c69de15e3aaa"},"vehicle_type_id":"4","last_reported":1751281783,"current_range_meters":12000,"station_id":"ce4bho12rcd13ifvqh2g","pricing_plan_id":"cebpf4jnsgd1na2vs0mg"},{"bike_id":"69f9f81b-a2e6-41be-8799-4ab810eecf8a","system_id":"levelo_inurba_marseille","lat":43.323354,"lon":5.406228,"is_reserved":false,"is_disabled":false,"rental_uris":{"android":"levelo://app?vid=69f9f81b-a2e6-41be-8799-4ab810eecf8a","ios":"levelo://app?vid=69f9f81b-a2e6-41be-8799-4ab810eecf8a"},"vehicle_type_id":"4","last_reported":1751281783,"current_range_meters":12000,"station_id":"ce4bhq92rcd13ifvqhjg","pricing_plan_id":"cebpf4jnsgd1na2vs0mg"},{"bike_id":"6b6a646f-e1ae-4138-9055-a2e578c870cb","system_id":"levelo_inurba_marseille","lat":43.21734,"lon":5.34646,"is_reserved":false,"is_disabled":false,"rental_uris":{"android":"levelo://app?vid=6b6a646f-e1ae-4138-9055-a2e578c870cb","ios":"levelo://app?vid=6b6a646f-e1ae-4138-9055-a2e578c870cb"},"vehicle_type_id":"4","last_reported":1751281783,"current_range_meters":12000,"station_id":"st_cvj6r9ubvosntc0bgbag","pricing_plan_id":"cebpf4jnsgd1na2vs0mg"},{"bike_id":"5031ccf9-7dcf-4258-a4a4-0c83bcd30a12","system_id":"levelo_inurba_marseille","lat":43.337444,"lon":5.374475,"is_reserved":false,"is_disabled":false,"rental_uris":{"android":"levelo://app?vid=5031ccf9-7dcf-4258-a4a4-0c83bcd30a12","ios":"levelo://app?vid=5031ccf9-7dcf-4258-a4a4-0c83bcd30a12"},"vehicle_type_id":"4","last_reported":1751281783,"current_range_meters":12400,"station_id":"","pricing_plan_id":"cebpf4jnsgd1na2vs0mg"},{"bike_id":"8eb8c879-c2df-4670-8eaf-a5f2f232b1c4","system_id":"levelo_inurba_marseille","lat":43.31716,"lon":5.40502,"is_reserved":false,"is_disabled":false,"rental_uris":{"android":"levelo://app?vid=8eb8c879-c2df-4670-8eaf-a5f2f232b1c4","ios":"levelo://app?vid=8eb8c879-c2df-4670-8eaf-a5f2f232b1c4"},"vehicle_type_id":"4","last_reported":1751281783,"current_range_meters":12400,"station_id":"ce4bh012rcd13ifvqd00","pricing_plan_id":"cebpf4jnsgd1na2vs0mg"},{"bike_id":"83d719b8-7401-4b46-aad2-2573411a912e","system_id":"levelo_inurba_marseille","lat":43.2621,"lon":5.37442,"is_reserved":false,"is_disabled":false,"rental_uris":{"android":"levelo://app?vid=83d719b8-7401-4b46-aad2-2573411a912e","ios":"levelo://app?vid=83d719b8-7401-4b46-aad2-2573411a912e"},"vehicle_type_id":"4","last_reported":1751281783,"current_range_meters":12400,"station_id":"ce4bhgp2rcd13ifvqfc0","pricing_plan_id":"cebpf4jnsgd1na2vs0mg"},{"bike_id":"c2e134cb-ee58-410e-8443-cdf3a592d767","system_id":"levelo_inurba_marseille","lat":43.29575,"lon":5.38717,"is_reserved":false,"is_disabled":false,"rental_uris":{"android":"levelo://app?vid=c2e134cb-ee58-410e-8443-cdf3a592d767","ios":"levelo://app?vid=c2e134cb-ee58-410e-8443-cdf3a592d767"},"vehicle_type_id":"4","last_reported":1751281783,"current_range_meters":12800,"station_id":"","pricing_plan_id":"cebpf4jnsgd1na2vs0mg"},{"bike_id":"7dc148e5-fd7e-4677-bce3-55c94c6ee080","system_id":"levelo_inurba_marseille","lat":43.306765,"lon":5.409206,"is_reserved":false,"is_disabled":false,"rental_uris":{"android":"levelo://app?vid=7dc148e5-fd7e-4677-bce3-55c94c6ee080","ios":"levelo://app?vid=7dc148e5-fd7e-4677-bce3-55c94c6ee080"},"vehicle_type_id":"4","last_reported":1751281783,"current_range_meters":12800,"station_id":"","pricing_plan_id":"cebpf4jnsgd1na2vs0mg"},{"bike_id":"ce6965e5-89e8-46bb-b5c2-35a8bb9fe3b3","system_id":"levelo_inurba_marseille","lat":43.29571,"lon":5.37531,"is_reserved":false,"is_disabled":false,"rental_uris":{"android":"levelo://app?vid=ce6965e5-89e8-46bb-b5c2-35a8bb9fe3b3","ios":"levelo://app?vid=ce6965e5-89e8-46bb-b5c2-35a8bb9fe3b3"},"vehicle_type_id":"4","last_reported":1751281783,"current_range_meters":12800,"station_id":"ce4bgh92rcd13ifvqb50","pricing_plan_id":"cebpf4jnsgd1na2vs0mg"},{"bike_id":"2585f3b0-1f06-40b4-a3dc-03efbdc31dfa","system_id":"levelo_inurba_marseille","lat":43.2797,"lon":5.38728,"is_reserved":false,"is_disabled":false,"rental_uris":{"android":"levelo://app?vid=2585f3b0-1f06-40b4-a3dc-03efbdc31dfa","ios":"levelo://app?vid=2585f3b0-1f06-40b4-a3dc-03efbdc31dfa"},"vehicle_type_id":"4","last_reported":1751281783,"current_range_meters":12800,"station_id":"ce4bhg12rcd13ifvqf80","pricing_plan_id":"cebpf4jnsgd1na2vs0mg"},{"bike_id":"2a7d4522-b0dd-48c1-8653-7a6d0e58cc43","system_id":"levelo_inurba_marseille","lat":43.3208,"lon":5.40103,"is_reserved":false,"is_disabled":false,"rental_uris":{"android":"levelo://app?vid=2a7d4522-b0dd-48c1-8653-7a6d0e58cc43","ios":"levelo://app?vid=2a7d4522-b0dd-48c1-8653-7a6d0e58cc43"},"vehicle_type_id":"4","last_reported":1751281783,"current_range_meters":13600,"station_id":"","pricing_plan_id":"cebpf4jnsgd1na2vs0mg"},{"bike_id":"8fa28b23-229d-4272-9e78-71fede29bb98","system_id":"levelo_inurba_marseille","lat":43.29518,"lon":5.37503,"is_reserved":false,"is_disabled":false,"rental_uris":{"android":"levelo://app?vid=8fa28b23-229d-4272-9e78-71fede29bb98","ios":"levelo://app?vid=8fa28b23-229d-4272-9e78-71fede29bb98"},"vehicle_type_id":"4","last_reported":1751281783,"current_range_meters":13600,"station_id":"ce4bgkp2rcd13ifvqbmg","pricing_plan_id":"cebpf4jnsgd1na2vs0mg"},{"bike_id":"d5646891-8437-41b9-82f4-9884fb61575b","system_id":"levelo_inurba_marseille","lat":43.307114,"lon":5.395461,"is_reserved":false,"is_disabled":false,"rental_uris":{"android":"levelo://app?vid=d5646891-8437-41b9-82f4-9884fb61575b","ios":"levelo://app?vid=d5646891-8437-41b9-82f4-9884fb61575b"},"vehicle_type_id":"4","last_reported":1751281783,"current_range_meters":13600,"station_id":"ce4bh012rcd13ifvqcv0","pricing_plan_id":"cebpf4jnsgd1na2vs0mg"},{"bike_id":"77530b8d-6494-41ed-8d8f-37daa105ab09","system_id":"levelo_inurba_marseille","lat":43.27919,"lon":5.39576,"is_reserved":false,"is_disabled":false,"rental_uris":{"android":"levelo://app?vid=77530b8d-6494-41ed-8d8f-37daa105ab09","ios":"levelo://app?vid=77530b8d-6494-41ed-8d8f-37daa105ab09"},"vehicle_type_id":"4","last_reported":1751281783,"current_range_meters":13600,"station_id":"ce4bhf92rcd13ifvqf40","pricing_plan_id":"cebpf4jnsgd1na2vs0mg"},{"bike_id":"c54202df-6f2a-4d59-8634-b55ecbbac657","system_id":"levelo_inurba_marseille","lat":43.26933,"lon":5.40279,"is_reserved":false,"is_disabled":false,"rental_uris":{"android":"levelo://app?vid=c54202df-6f2a-4d59-8634-b55ecbbac657","ios":"levelo://app?vid=c54202df-6f2a-4d59-8634-b55ecbbac657"},"vehicle_type_id":"4","last_reported":1751281783,"current_range_meters":13600,"station_id":"cjm6bp8fraef2m0cb0m0","pricing_plan_id":"cebpf4jnsgd1na2vs0mg"},{"bike_id":"5be1a4b5-3e1e-4bcd-9477-5aee0b89f062","system_id":"levelo_inurba_marseille","lat":43.27836,"lon":5.35487,"is_reserved":false,"is_disabled":false,"rental_uris":{"android":"levelo://app?vid=5be1a4b5-3e1e-4bcd-9477-5aee0b89f062","ios":"levelo://app?vid=5be1a4b5-3e1e-4bcd-9477-5aee0b89f062"},"vehicle_type_id":"4","last_reported":1751281783,"current_range_meters":14000,"station_id":"","pricing_plan_id":"cebpf4jnsgd1na2vs0mg"},{"bike_id":"ceb818d5-6a0e-45de-8d40-c9c1b19d5e60","system_id":"levelo_inurba_marseille","lat":43.32401,"lon":5.36549,"is_reserved":false,"is_disabled":false,"rental_uris":{"android":"levelo://app?vid=ceb818d5-6a0e-45de-8d40-c9c1b19d5e60","ios":"levelo://app?vid=ceb818d5-6a0e-45de-8d40-c9c1b19d5e60"},"vehicle_type_id":"4","last_reported":1751281783,"current_range_meters":14000,"station_id":"ce4bhs12rcd13ifvqhvg","pricing_plan_id":"cebpf4jnsgd1na2vs0mg"},{"bike_id":"6b352fdb-4980-452d-9441-954a1a4f7cc1","system_id":"levelo_inurba_marseille","lat":43.29566,"lon":5.37501,"is_reserved":false,"is_disabled":false,"rental_uris":{"android":"levelo://app?vid=6b352fdb-4980-452d-9441-954a1a4f7cc1","ios":"levelo://app?vid=6b352fdb-4980-452d-9441-954a1a4f7cc1"},"vehicle_type_id":"4","last_reported":1751281783,"current_range_meters":14400,"station_id":"ce4bgh92rcd13ifvqb50","pricing_plan_id":"cebpf4jnsgd1na2vs0mg"},{"bike_id":"39d5057d-a02f-476b-ba2e-d456855b3580","system_id":"levelo_inurba_marseille","lat":43.29521,"lon":5.375,"is_reserved":false,"is_disabled":false,"rental_uris":{"android":"levelo://app?vid=39d5057d-a02f-476b-ba2e-d456855b3580","ios":"levelo://app?vid=39d5057d-a02f-476b-ba2e-d456855b3580"},"vehicle_type_id":"4","last_reported":1751281783,"current_range_meters":14400,"station_id":"ce4bgkp2rcd13ifvqbmg","pricing_plan_id":"cebpf4jnsgd1na2vs0mg"},{"bike_id":"53dbd597-e5e9-4fd0-859f-9ba02686418c","system_id":"levelo_inurba_marseille","lat":43.26942,"lon":5.3863,"is_reserved":false,"is_disabled":false,"rental_uris":{"android":"levelo://app?vid=53dbd597-e5e9-4fd0-859f-9ba02686418c","ios":"levelo://app?vid=53dbd597-e5e9-4fd0-859f-9ba02686418c"},"vehicle_type_id":"4","last_reported":1751281783,"current_range_meters":14400,"station_id":"ce4bhh92rcd13ifvqfh0","pricing_plan_id":"cebpf4jnsgd1na2vs0mg"},{"bike_id":"64c79f92-7c8d-4076-b59e-fea63fad04dd","system_id":"levelo_inurba_marseille","lat":43.25581,"lon":5.38231,"is_reserved":false,"is_disabled":false,"rental_uris":{"android":"levelo://app?vid=64c79f92-7c8d-4076-b59e-fea63fad04dd","ios":"levelo://app?vid=64c79f92-7c8d-4076-b59e-fea63fad04dd"},"vehicle_type_id":"4","last_reported":1751281783,"current_range_meters":14400,"station_id":"ce4bhih2rcd13ifvqfs0","pricing_plan_id":"cebpf4jnsgd1na2vs0mg"},{"bike_id":"eaa01021-3fd8-4405-a287-c7502d10ea7e","system_id":"levelo_inurba_marseille","lat":43.21746,"lon":5.346187,"is_reserved":false,"is_disabled":false,"rental_uris":{"android":"levelo://app?vid=eaa01021-3fd8-4405-a287-c7502d10ea7e","ios":"levelo://app?vid=eaa01021-3fd8-4405-a287-c7502d10ea7e"},"vehicle_type_id":"4","last_reported":1751281783,"current_range_meters":14400,"station_id":"st_cvj6r9ubvosntc0bgbag","pricing_plan_id":"cebpf4jnsgd1na2vs0mg"},{"bike_id":"1ac664aa-f2a4-4b75-879f-dcb93272d133","system_id":"levelo_inurba_marseille","lat":43.32038,"lon":5.40995,"is_reserved":false,"is_disabled":false,"rental_uris":{"android":"levelo://app?vid=1ac664aa-f2a4-4b75-879f-dcb93272d133","ios":"levelo://app?vid=1ac664aa-f2a4-4b75-879f-dcb93272d133"},"vehicle_type_id":"4","last_reported":1751281783,"current_range_meters":14800,"station_id":"","pricing_plan_id":"cebpf4jnsgd1na2vs0mg"},{"bike_id":"53ca0b75-6da8-43b1-b442-426483fcae0b","system_id":"levelo_inurba_marseille","lat":43.28496,"lon":5.38568,"is_reserved":false,"is_disabled":false,"rental_uris":{"android":"levelo://app?vid=53ca0b75-6da8-43b1-b442-426483fcae0b","ios":"levelo://app?vid=53ca0b75-6da8-43b1-b442-426483fcae0b"},"vehicle_type_id":"4","last_reported":1751281783,"current_range_meters":14800,"station_id":"ce4bh8p2rcd13ifvqeb0","pricing_plan_id":"cebpf4jnsgd1na2vs0mg"},{"bike_id":"b6941871-17ec-4dc8-9dbe-bf1e08f324ad","system_id":"levelo_inurba_marseille","lat":43.31308,"lon":5.36817,"is_reserved":false,"is_disabled":false,"rental_uris":{"android":"levelo://app?vid=b6941871-17ec-4dc8-9dbe-bf1e08f324ad","ios":"levelo://app?vid=b6941871-17ec-4dc8-9dbe-bf1e08f324ad"},"vehicle_type_id":"4","last_reported":1751281783,"current_range_meters":15200,"station_id":"ce4bgr92rcd13ifvqc6g","pricing_plan_id":"cebpf4jnsgd1na2vs0mg"},{"bike_id":"60b21ac2-92e4-444c-a910-dd6e242d9e1a","system_id":"levelo_inurba_marseille","lat":43.2909,"lon":5.38139,"is_reserved":false,"is_disabled":false,"rental_uris":{"android":"levelo://app?vid=60b21ac2-92e4-444c-a910-dd6e242d9e1a","ios":"levelo://app?vid=60b21ac2-92e4-444c-a910-dd6e242d9e1a"},"vehicle_type_id":"4","last_reported":1751281783,"current_range_meters":15200,"station_id":"ce4bh512rcd13ifvqe2g","pricing_plan_id":"cebpf4jnsgd1na2vs0mg"},{"bike_id":"6084d936-0d93-496b-8b3a-8f548cddd9cd","system_id":"levelo_inurba_marseille","lat":43.2465,"lon":5.38892,"is_reserved":false,"is_disabled":false,"rental_uris":{"android":"levelo://app?vid=6084d936-0d93-496b-8b3a-8f548cddd9cd","ios":"levelo://app?vid=6084d936-0d93-496b-8b3a-8f548cddd9cd"},"vehicle_type_id":"4","last_reported":1751281783,"current_range_meters":15200,"station_id":"ce4bhg12rcd13ifvqf60","pricing_plan_id":"cebpf4jnsgd1na2vs0mg"},{"bike_id":"6b04a8db-f012-4ea9-88f5-d59ff3f24fd9","system_id":"levelo_inurba_marseille","lat":43.29908,"lon":5.43679,"is_reserved":false,"is_disabled":false,"rental_uris":{"android":"levelo://app?vid=6b04a8db-f012-4ea9-88f5-d59ff3f24fd9","ios":"levelo://app?vid=6b04a8db-f012-4ea9-88f5-d59ff3f24fd9"},"vehicle_type_id":"4","last_reported":1751281783,"current_range_meters":15200,"station_id":"ce4bhpp2rcd13ifvqhfg","pricing_plan_id":"cebpf4jnsgd1na2vs0mg"},{"bike_id":"4e47abe4-6598-4756-807d-26ba558e3c39","system_id":"levelo_inurba_marseille","lat":43.29895,"lon":5.43665,"is_reserved":false,"is_disabled":false,"rental_uris":{"android":"levelo://app?vid=4e47abe4-6598-4756-807d-26ba558e3c39","ios":"levelo://app?vid=4e47abe4-6598-4756-807d-26ba558e3c39"},"vehicle_type_id":"4","last_reported":1751281783,"current_range_meters":15200,"station_id":"ce4bhpp2rcd13ifvqhfg","pricing_plan_id":"cebpf4jnsgd1na2vs0mg"},{"bike_id":"ad9a1bf3-7423-4a3f-b7d3-23958e3dbc15","system_id":"levelo_inurba_marseille","lat":43.30894,"lon":5.37821,"is_reserved":false,"is_disabled":false,"rental_uris":{"android":"levelo://app?vid=ad9a1bf3-7423-4a3f-b7d3-23958e3dbc15","ios":"levelo://app?vid=ad9a1bf3-7423-4a3f-b7d3-23958e3dbc15"},"vehicle_type_id":"4","last_reported":1751281783,"current_range_meters":16000,"station_id":"","pricing_plan_id":"cebpf4jnsgd1na2vs0mg"},{"bike_id":"ed04a1b8-7ed9-4134-8457-ec8a436b5623","system_id":"levelo_inurba_marseille","lat":43.28426,"lon":5.34996,"is_reserved":false,"is_disabled":false,"rental_uris":{"android":"levelo://app?vid=ed04a1b8-7ed9-4134-8457-ec8a436b5623","ios":"levelo://app?vid=ed04a1b8-7ed9-4134-8457-ec8a436b5623"},"vehicle_type_id":"4","last_reported":1751281783,"current_range_meters":16000,"station_id":"ce4bhbh2rcd13ifvqepg","pricing_plan_id":"cebpf4jnsgd1na2vs0mg"},{"bike_id":"f3291c68-c441-45bc-979c-3d6ac0230693","system_id":"levelo_inurba_marseille","lat":43.2842,"lon":5.3499,"is_reserved":false,"is_disabled":false,"rental_uris":{"android":"levelo://app?vid=f3291c68-c441-45bc-979c-3d6ac0230693","ios":"levelo://app?vid=f3291c68-c441-45bc-979c-3d6ac0230693"},"vehicle_type_id":"4","last_reported":1751281783,"current_range_meters":16000,"station_id":"ce4bhbh2rcd13ifvqepg","pricing_plan_id":"cebpf4jnsgd1na2vs0mg"},{"bike_id":"aad466d4-9058-4038-a189-895fae6f1c28","system_id":"levelo_inurba_marseille","lat":43.21189,"lon":5.35066,"is_reserved":false,"is_disabled":false,"rental_uris":{"android":"levelo://app?vid=aad466d4-9058-4038-a189-895fae6f1c28","ios":"levelo://app?vid=aad466d4-9058-4038-a189-895fae6f1c28"},"vehicle_type_id":"4","last_reported":1751281783,"current_range_meters":16000,"station_id":"st_cvj6sg6p6f1abm77japg","pricing_plan_id":"cebpf4jnsgd1na2vs0mg"},{"bike_id":"4f97e136-2006-43b5-84b8-8ce28f4647e9","system_id":"levelo_inurba_marseille","lat":43.21187,"lon":5.35081,"is_reserved":false,"is_disabled":false,"rental_uris":{"android":"levelo://app?vid=4f97e136-2006-43b5-84b8-8ce28f4647e9","ios":"levelo://app?vid=4f97e136-2006-43b5-84b8-8ce28f4647e9"},"vehicle_type_id":"4","last_reported":1751281783,"current_range_meters":16000,"station_id":"st_cvj6sg6p6f1abm77japg","pricing_plan_id":"cebpf4jnsgd1na2vs0mg"},{"bike_id":"d8facb10-b967-4a32-9b5c-8cfed4bbd05b","system_id":"levelo_inurba_marseille","lat":43.3211,"lon":5.36829,"is_reserved":false,"is_disabled":false,"rental_uris":{"android":"levelo://app?vid=d8facb10-b967-4a32-9b5c-8cfed4bbd05b","ios":"levelo://app?vid=d8facb10-b967-4a32-9b5c-8cfed4bbd05b"},"vehicle_type_id":"4","last_reported":1751281783,"current_range_meters":16400,"station_id":"","pricing_plan_id":"cebpf4jnsgd1na2vs0mg"},{"bike_id":"aedeb1f0-5a8b-4eda-80e3-d6566cd40abf","system_id":"levelo_inurba_marseille","lat":43.28106,"lon":5.3784,"is_reserved":false,"is_disabled":false,"rental_uris":{"android":"levelo://app?vid=aedeb1f0-5a8b-4eda-80e3-d6566cd40abf","ios":"levelo://app?vid=aedeb1f0-5a8b-4eda-80e3-d6566cd40abf"},"vehicle_type_id":"4","last_reported":1751281783,"current_range_meters":16400,"station_id":"ce4bha12rcd13ifvqee0","pricing_plan_id":"cebpf4jnsgd1na2vs0mg"},{"bike_id":"185d44ff-c14c-40d1-8cb0-126b3d7a76ca","system_id":"levelo_inurba_marseille","lat":43.29018,"lon":5.35626,"is_reserved":false,"is_disabled":false,"rental_uris":{"android":"levelo://app?vid=185d44ff-c14c-40d1-8cb0-126b3d7a76ca","ios":"levelo://app?vid=185d44ff-c14c-40d1-8cb0-126b3d7a76ca"},"vehicle_type_id":"4","last_reported":1751281783,"current_range_meters":16400,"station_id":"ce4bhb92rcd13ifvqen0","pricing_plan_id":"cebpf4jnsgd1na2vs0mg"},{"bike_id":"5e14d2ae-e330-4fea-a6b2-dfbb5e95d8f7","system_id":"levelo_inurba_marseille","lat":43.26034,"lon":5.37547,"is_reserved":false,"is_disabled":false,"rental_uris":{"android":"levelo://app?vid=5e14d2ae-e330-4fea-a6b2-dfbb5e95d8f7","ios":"levelo://app?vid=5e14d2ae-e330-4fea-a6b2-dfbb5e95d8f7"},"vehicle_type_id":"4","last_reported":1751281783,"current_range_meters":16400,"station_id":"ce4bhgh2rcd13ifvqfa0","pricing_plan_id":"cebpf4jnsgd1na2vs0mg"},{"bike_id":"979de6cf-c504-49d9-a2a6-718fedec1306","system_id":"levelo_inurba_marseille","lat":43.250519,"lon":5.38863,"is_reserved":false,"is_disabled":false,"rental_uris":{"android":"levelo://app?vid=979de6cf-c504-49d9-a2a6-718fedec1306","ios":"levelo://app?vid=979de6cf-c504-49d9-a2a6-718fedec1306"},"vehicle_type_id":"4","last_reported":1751281783,"current_range_meters":16400,"station_id":"ce4bhgp2rcd13ifvqfd0","pricing_plan_id":"cebpf4jnsgd1na2vs0mg"},{"bike_id":"537c1067-a1b7-4303-94b5-c113f6ee9e63","system_id":"levelo_inurba_marseille","lat":43.27318,"lon":5.39078,"is_reserved":false,"is_disabled":false,"rental_uris":{"android":"levelo://app?vid=537c1067-a1b7-4303-94b5-c113f6ee9e63","ios":"levelo://app?vid=537c1067-a1b7-4303-94b5-c113f6ee9e63"},"vehicle_type_id":"4","last_reported":1751281783,"current_range_meters":16400,"station_id":"ce4bhgp2rcd13ifvqfe0","pricing_plan_id":"cebpf4jnsgd1na2vs0mg"},{"bike_id":"27de128b-79d6-4ae4-99ba-8537bd95d5a2","system_id":"levelo_inurba_marseille","lat":43.325026,"lon":5.365512,"is_reserved":false,"is_disabled":false,"rental_uris":{"android":"levelo://app?vid=27de128b-79d6-4ae4-99ba-8537bd95d5a2","ios":"levelo://app?vid=27de128b-79d6-4ae4-99ba-8537bd95d5a2"},"vehicle_type_id":"4","last_reported":1751281783,"current_range_meters":16400,"station_id":"ce4bhs12rcd13ifvqhvg","pricing_plan_id":"cebpf4jnsgd1na2vs0mg"},{"bike_id":"eea6ad0a-b8b6-414b-a92b-2f178d46f42f","system_id":"levelo_inurba_marseille","lat":43.23192,"lon":5.35553,"is_reserved":false,"is_disabled":false,"rental_uris":{"android":"levelo://app?vid=eea6ad0a-b8b6-414b-a92b-2f178d46f42f","ios":"levelo://app?vid=eea6ad0a-b8b6-414b-a92b-2f178d46f42f"},"vehicle_type_id":"4","last_reported":1751281783,"current_range_meters":16400,"station_id":"ce4bhu92rcd13ifvqi70","pricing_plan_id":"cebpf4jnsgd1na2vs0mg"},{"bike_id":"8ceb2860-ca09-420a-8aab-fcf0c529a0d3","system_id":"levelo_inurba_marseille","lat":43.21192,"lon":5.35073,"is_reserved":false,"is_disabled":false,"rental_uris":{"android":"levelo://app?vid=8ceb2860-ca09-420a-8aab-fcf0c529a0d3","ios":"levelo://app?vid=8ceb2860-ca09-420a-8aab-fcf0c529a0d3"},"vehicle_type_id":"4","last_reported":1751281783,"current_range_meters":16400,"station_id":"st_cvj6sg6p6f1abm77japg","pricing_plan_id":"cebpf4jnsgd1na2vs0mg"},{"bike_id":"46e1b6b0-2f4d-4911-91fb-81dddd2d5578","system_id":"levelo_inurba_marseille","lat":43.30522,"lon":5.36536,"is_reserved":false,"is_disabled":false,"rental_uris":{"android":"levelo://app?vid=46e1b6b0-2f4d-4911-91fb-81dddd2d5578","ios":"levelo://app?vid=46e1b6b0-2f4d-4911-91fb-81dddd2d5578"},"vehicle_type_id":"4","last_reported":1751281783,"current_range_meters":16800,"station_id":"ce4bgs12rcd13ifvqcag","pricing_plan_id":"cebpf4jnsgd1na2vs0mg"},{"bike_id":"75cd3adb-c1a5-4cf8-8691-a6fcebcedce0","system_id":"levelo_inurba_marseille","lat":43.27381,"lon":5.36256,"is_reserved":false,"is_disabled":false,"rental_uris":{"android":"levelo://app?vid=75cd3adb-c1a5-4cf8-8691-a6fcebcedce0","ios":"levelo://app?vid=75cd3adb-c1a5-4cf8-8691-a6fcebcedce0"},"vehicle_type_id":"4","last_reported":1751281783,"current_range_meters":16800,"station_id":"ce4bhbh2rcd13ifvqeo0","pricing_plan_id":"cebpf4jnsgd1na2vs0mg"},{"bike_id":"51edfba5-b99a-4676-bdc8-9398cc67026f","system_id":"levelo_inurba_marseille","lat":43.24651,"lon":5.38894,"is_reserved":false,"is_disabled":false,"rental_uris":{"android":"levelo://app?vid=51edfba5-b99a-4676-bdc8-9398cc67026f","ios":"levelo://app?vid=51edfba5-b99a-4676-bdc8-9398cc67026f"},"vehicle_type_id":"4","last_reported":1751281783,"current_range_meters":16800,"station_id":"ce4bhg12rcd13ifvqf60","pricing_plan_id":"cebpf4jnsgd1na2vs0mg"},{"bike_id":"599d3b6b-c4af-4164-b2a8-efdd9af1021e","system_id":"levelo_inurba_marseille","lat":43.29367,"lon":5.37865,"is_reserved":false,"is_disabled":false,"rental_uris":{"android":"levelo://app?vid=599d3b6b-c4af-4164-b2a8-efdd9af1021e","ios":"levelo://app?vid=599d3b6b-c4af-4164-b2a8-efdd9af1021e"},"vehicle_type_id":"4","last_reported":1751281783,"current_range_meters":17200,"station_id":"ce4bgjh2rcd13ifvqbf0","pricing_plan_id":"cebpf4jnsgd1na2vs0mg"},{"bike_id":"2b4fa9d6-d55c-459f-b66a-601a052cf300","system_id":"levelo_inurba_marseille","lat":43.31516,"lon":5.37295,"is_reserved":false,"is_disabled":false,"rental_uris":{"android":"levelo://app?vid=2b4fa9d6-d55c-459f-b66a-601a052cf300","ios":"levelo://app?vid=2b4fa9d6-d55c-459f-b66a-601a052cf300"},"vehicle_type_id":"4","last_reported":1751281783,"current_range_meters":17200,"station_id":"ce4bgt12rcd13ifvqcd0","pricing_plan_id":"cebpf4jnsgd1na2vs0mg"},{"bike_id":"de5b787a-ab4f-4c24-af26-40dc2f8d9443","system_id":"levelo_inurba_marseille","lat":43.28378,"lon":5.3863,"is_reserved":false,"is_disabled":false,"rental_uris":{"android":"levelo://app?vid=de5b787a-ab4f-4c24-af26-40dc2f8d9443","ios":"levelo://app?vid=de5b787a-ab4f-4c24-af26-40dc2f8d9443"},"vehicle_type_id":"4","last_reported":1751281783,"current_range_meters":17200,"station_id":"ce4bh492rcd13ifvqdvg","pricing_plan_id":"cebpf4jnsgd1na2vs0mg"},{"bike_id":"e3151a2f-9747-4c0e-9cce-666327dcfcc7","system_id":"levelo_inurba_marseille","lat":43.29102,"lon":5.38132,"is_reserved":false,"is_disabled":false,"rental_uris":{"android":"levelo://app?vid=e3151a2f-9747-4c0e-9cce-666327dcfcc7","ios":"levelo://app?vid=e3151a2f-9747-4c0e-9cce-666327dcfcc7"},"vehicle_type_id":"4","last_reported":1751281783,"current_range_meters":17200,"station_id":"ce4bh512rcd13ifvqe2g","pricing_plan_id":"cebpf4jnsgd1na2vs0mg"},{"bike_id":"2a193b96-6cf5-49b0-be2e-a4cecb65aedc","system_id":"levelo_inurba_marseille","lat":43.28276,"lon":5.35097,"is_reserved":false,"is_disabled":false,"rental_uris":{"android":"levelo://app?vid=2a193b96-6cf5-49b0-be2e-a4cecb65aedc","ios":"levelo://app?vid=2a193b96-6cf5-49b0-be2e-a4cecb65aedc"},"vehicle_type_id":"4","last_reported":1751281783,"current_range_meters":17200,"station_id":"ce4bhbp2rcd13ifvqerg","pricing_plan_id":"cebpf4jnsgd1na2vs0mg"},{"bike_id":"7e623c89-c673-44ab-9822-7ea8887ff69d","system_id":"levelo_inurba_marseille","lat":43.337444,"lon":5.374475,"is_reserved":false,"is_disabled":false,"rental_uris":{"android":"levelo://app?vid=7e623c89-c673-44ab-9822-7ea8887ff69d","ios":"levelo://app?vid=7e623c89-c673-44ab-9822-7ea8887ff69d"},"vehicle_type_id":"4","last_reported":1751281783,"current_range_meters":17200,"station_id":"ce4bhlh2rcd13ifvqgig","pricing_plan_id":"cebpf4jnsgd1na2vs0mg"},{"bike_id":"7def622c-1243-44da-af36-4c505b4f00ba","system_id":"levelo_inurba_marseille","lat":43.24168,"lon":5.39761,"is_reserved":false,"is_disabled":false,"rental_uris":{"android":"levelo://app?vid=7def622c-1243-44da-af36-4c505b4f00ba","ios":"levelo://app?vid=7def622c-1243-44da-af36-4c505b4f00ba"},"vehicle_type_id":"4","last_reported":1751281783,"current_range_meters":17200,"station_id":"ce4bhn12rcd13ifvqgpg","pricing_plan_id":"cebpf4jnsgd1na2vs0mg"},{"bike_id":"048ec6e9-5fd9-4256-ae6a-a72856ab2acf","system_id":"levelo_inurba_marseille","lat":43.21187,"lon":5.35068,"is_reserved":false,"is_disabled":false,"rental_uris":{"android":"levelo://app?vid=048ec6e9-5fd9-4256-ae6a-a72856ab2acf","ios":"levelo://app?vid=048ec6e9-5fd9-4256-ae6a-a72856ab2acf"},"vehicle_type_id":"4","last_reported":1751281783,"current_range_meters":17200,"station_id":"st_cvj6sg6p6f1abm77japg","pricing_plan_id":"cebpf4jnsgd1na2vs0mg"},{"bike_id":"d5da5bd9-7c2a-48e5-92aa-fa21076cad13","system_id":"levelo_inurba_marseille","lat":43.21202,"lon":5.35083,"is_reserved":false,"is_disabled":false,"rental_uris":{"android":"levelo://app?vid=d5da5bd9-7c2a-48e5-92aa-fa21076cad13","ios":"levelo://app?vid=d5da5bd9-7c2a-48e5-92aa-fa21076cad13"},"vehicle_type_id":"4","last_reported":1751281783,"current_range_meters":17200,"station_id":"st_cvj6sg6p6f1abm77japg","pricing_plan_id":"cebpf4jnsgd1na2vs0mg"},{"bike_id":"6bab9544-1962-4072-86fa-b4e79b2ea979","system_id":"levelo_inurba_marseille","lat":43.284148,"lon":5.375001,"is_reserved":false,"is_disabled":false,"rental_uris":{"android":"levelo://app?vid=6bab9544-1962-4072-86fa-b4e79b2ea979","ios":"levelo://app?vid=6bab9544-1962-4072-86fa-b4e79b2ea979"},"vehicle_type_id":"4","last_reported":1751281783,"current_range_meters":17600,"station_id":"ce4bh412rcd13ifvqds0","pricing_plan_id":"cebpf4jnsgd1na2vs0mg"},{"bike_id":"24d7f41e-0303-4887-a630-d6848a3191df","system_id":"levelo_inurba_marseille","lat":43.308,"lon":5.43527,"is_reserved":false,"is_disabled":false,"rental_uris":{"android":"levelo://app?vid=24d7f41e-0303-4887-a630-d6848a3191df","ios":"levelo://app?vid=24d7f41e-0303-4887-a630-d6848a3191df"},"vehicle_type_id":"4","last_reported":1751281783,"current_range_meters":17600,"station_id":"ce4bhph2rcd13ifvqheg","pricing_plan_id":"cebpf4jnsgd1na2vs0mg"},{"bike_id":"d3bc1cc2-d1b4-45ad-9d4b-82253af86674","system_id":"levelo_inurba_marseille","lat":43.32048,"lon":5.41551,"is_reserved":false,"is_disabled":false,"rental_uris":{"android":"levelo://app?vid=d3bc1cc2-d1b4-45ad-9d4b-82253af86674","ios":"levelo://app?vid=d3bc1cc2-d1b4-45ad-9d4b-82253af86674"},"vehicle_type_id":"4","last_reported":1751281783,"current_range_meters":17600,"station_id":"ce4bhq92rcd13ifvqhkg","pricing_plan_id":"cebpf4jnsgd1na2vs0mg"},{"bike_id":"d90daeb2-baa5-4f84-8ba2-ffc1dcd4b96b","system_id":"levelo_inurba_marseille","lat":43.24171,"lon":5.36396,"is_reserved":false,"is_disabled":false,"rental_uris":{"android":"levelo://app?vid=d90daeb2-baa5-4f84-8ba2-ffc1dcd4b96b","ios":"levelo://app?vid=d90daeb2-baa5-4f84-8ba2-ffc1dcd4b96b"},"vehicle_type_id":"4","last_reported":1751281783,"current_range_meters":17600,"station_id":"cpo36qri1sfpv3e86is0","pricing_plan_id":"cebpf4jnsgd1na2vs0mg"},{"bike_id":"e552832c-7ca2-4106-b0f9-92bbabda27d1","system_id":"levelo_inurba_marseille","lat":43.21206,"lon":5.35051,"is_reserved":false,"is_disabled":false,"rental_uris":{"android":"levelo://app?vid=e552832c-7ca2-4106-b0f9-92bbabda27d1","ios":"levelo://app?vid=e552832c-7ca2-4106-b0f9-92bbabda27d1"},"vehicle_type_id":"4","last_reported":1751281783,"current_range_meters":17600,"station_id":"st_cvj6sg6p6f1abm77japg","pricing_plan_id":"cebpf4jnsgd1na2vs0mg"},{"bike_id":"b13877a6-4825-4d82-b46b-67fa8ad66c5d","system_id":"levelo_inurba_marseille","lat":43.2119,"lon":5.35072,"is_reserved":false,"is_disabled":false,"rental_uris":{"android":"levelo://app?vid=b13877a6-4825-4d82-b46b-67fa8ad66c5d","ios":"levelo://app?vid=b13877a6-4825-4d82-b46b-67fa8ad66c5d"},"vehicle_type_id":"4","last_reported":1751281783,"current_range_meters":17600,"station_id":"st_cvj6sg6p6f1abm77japg","pricing_plan_id":"cebpf4jnsgd1na2vs0mg"},{"bike_id":"e891d413-f511-44d4-9ddd-90f57509289b","system_id":"levelo_inurba_marseille","lat":43.31714,"lon":5.36792,"is_reserved":false,"is_disabled":false,"rental_uris":{"android":"levelo://app?vid=e891d413-f511-44d4-9ddd-90f57509289b","ios":"levelo://app?vid=e891d413-f511-44d4-9ddd-90f57509289b"},"vehicle_type_id":"4","last_reported":1751281783,"current_range_meters":18000,"station_id":"","pricing_plan_id":"cebpf4jnsgd1na2vs0mg"},{"bike_id":"1c1e0436-c990-4c38-b11e-d6968f287975","system_id":"levelo_inurba_marseille","lat":43.29577,"lon":5.36751,"is_reserved":false,"is_disabled":false,"rental_uris":{"android":"levelo://app?vid=1c1e0436-c990-4c38-b11e-d6968f287975","ios":"levelo://app?vid=1c1e0436-c990-4c38-b11e-d6968f287975"},"vehicle_type_id":"4","last_reported":1751281783,"current_range_meters":18000,"station_id":"ce4bgph2rcd13ifvqc2g","pricing_plan_id":"cebpf4jnsgd1na2vs0mg"},{"bike_id":"bf32d900-abe4-4588-8640-e1bd43cdfd86","system_id":"levelo_inurba_marseille","lat":43.30464,"lon":5.37905,"is_reserved":false,"is_disabled":false,"rental_uris":{"android":"levelo://app?vid=bf32d900-abe4-4588-8640-e1bd43cdfd86","ios":"levelo://app?vid=bf32d900-abe4-4588-8640-e1bd43cdfd86"},"vehicle_type_id":"4","last_reported":1751281783,"current_range_meters":18000,"station_id":"ce4bgup2rcd13ifvqcn0","pricing_plan_id":"cebpf4jnsgd1na2vs0mg"},{"bike_id":"4618b46f-535e-47ad-a818-c7d931efcd78","system_id":"levelo_inurba_marseille","lat":43.284119,"lon":5.374962,"is_reserved":false,"is_disabled":false,"rental_uris":{"android":"levelo://app?vid=4618b46f-535e-47ad-a818-c7d931efcd78","ios":"levelo://app?vid=4618b46f-535e-47ad-a818-c7d931efcd78"},"vehicle_type_id":"4","last_reported":1751281783,"current_range_meters":18000,"station_id":"ce4bh412rcd13ifvqds0","pricing_plan_id":"cebpf4jnsgd1na2vs0mg"},{"bike_id":"714e81cc-0a88-4f76-a904-b1c3a28974fe","system_id":"levelo_inurba_marseille","lat":43.28622,"lon":5.35102,"is_reserved":false,"is_disabled":false,"rental_uris":{"android":"levelo://app?vid=714e81cc-0a88-4f76-a904-b1c3a28974fe","ios":"levelo://app?vid=714e81cc-0a88-4f76-a904-b1c3a28974fe"},"vehicle_type_id":"4","last_reported":1751281783,"current_range_meters":18000,"station_id":"ce4bhch2rcd13ifvqeug","pricing_plan_id":"cebpf4jnsgd1na2vs0mg"},{"bike_id":"0d839b5e-baaf-4b32-8658-bb0d20744629","system_id":"levelo_inurba_marseille","lat":43.21189,"lon":5.3508,"is_reserved":false,"is_disabled":false,"rental_uris":{"android":"levelo://app?vid=0d839b5e-baaf-4b32-8658-bb0d20744629","ios":"levelo://app?vid=0d839b5e-baaf-4b32-8658-bb0d20744629"},"vehicle_type_id":"4","last_reported":1751281783,"current_range_meters":18000,"station_id":"st_cvj6sg6p6f1abm77japg","pricing_plan_id":"cebpf4jnsgd1na2vs0mg"},{"bike_id":"0da97725-d656-430e-82c0-80aeb7c9f8a2","system_id":"levelo_inurba_marseille","lat":43.31201,"lon":5.36931,"is_reserved":false,"is_disabled":false,"rental_uris":{"android":"levelo://app?vid=0da97725-d656-430e-82c0-80aeb7c9f8a2","ios":"levelo://app?vid=0da97725-d656-430e-82c0-80aeb7c9f8a2"},"vehicle_type_id":"4","last_reported":1751281783,"current_range_meters":18800,"station_id":"","pricing_plan_id":"cebpf4jnsgd1na2vs0mg"},{"bike_id":"c2b72fe0-bae6-4c7b-ad48-9e771b203dc8","system_id":"levelo_inurba_marseille","lat":43.31342,"lon":5.38469,"is_reserved":false,"is_disabled":false,"rental_uris":{"android":"levelo://app?vid=c2b72fe0-bae6-4c7b-ad48-9e771b203dc8","ios":"levelo://app?vid=c2b72fe0-bae6-4c7b-ad48-9e771b203dc8"},"vehicle_type_id":"4","last_reported":1751281783,"current_range_meters":18800,"station_id":"ce4bgt92rcd13ifvqcf0","pricing_plan_id":"cebpf4jnsgd1na2vs0mg"},{"bike_id":"e25ba395-2bc9-44d2-8b95-073fe9e7fe66","system_id":"levelo_inurba_marseille","lat":43.28628,"lon":5.35125,"is_reserved":false,"is_disabled":false,"rental_uris":{"android":"levelo://app?vid=e25ba395-2bc9-44d2-8b95-073fe9e7fe66","ios":"levelo://app?vid=e25ba395-2bc9-44d2-8b95-073fe9e7fe66"},"vehicle_type_id":"4","last_reported":1751281783,"current_range_meters":18800,"station_id":"ce4bhch2rcd13ifvqeug","pricing_plan_id":"cebpf4jnsgd1na2vs0mg"},{"bike_id":"3ac1347d-2b60-4295-839f-89aba5cbe725","system_id":"levelo_inurba_marseille","lat":43.27948,"lon":5.38728,"is_reserved":false,"is_disabled":false,"rental_uris":{"android":"levelo://app?vid=3ac1347d-2b60-4295-839f-89aba5cbe725","ios":"levelo://app?vid=3ac1347d-2b60-4295-839f-89aba5cbe725"},"vehicle_type_id":"4","last_reported":1751281783,"current_range_meters":18800,"station_id":"ce4bhg12rcd13ifvqf80","pricing_plan_id":"cebpf4jnsgd1na2vs0mg"},{"bike_id":"e01419d7-8f44-4040-82d4-ead02b262976","system_id":"levelo_inurba_marseille","lat":43.26199,"lon":5.37466,"is_reserved":false,"is_disabled":false,"rental_uris":{"android":"levelo://app?vid=e01419d7-8f44-4040-82d4-ead02b262976","ios":"levelo://app?vid=e01419d7-8f44-4040-82d4-ead02b262976"},"vehicle_type_id":"4","last_reported":1751281783,"current_range_meters":18800,"station_id":"ce4bhgp2rcd13ifvqfc0","pricing_plan_id":"cebpf4jnsgd1na2vs0mg"},{"bike_id":"ec59dc73-efec-49fb-a623-8c210bcd8f9c","system_id":"levelo_inurba_marseille","lat":43.2175,"lon":5.34619,"is_reserved":false,"is_disabled":false,"rental_uris":{"android":"levelo://app?vid=ec59dc73-efec-49fb-a623-8c210bcd8f9c","ios":"levelo://app?vid=ec59dc73-efec-49fb-a623-8c210bcd8f9c"},"vehicle_type_id":"4","last_reported":1751281783,"current_range_meters":18800,"station_id":"st_cvj6r9ubvosntc0bgbag","pricing_plan_id":"cebpf4jnsgd1na2vs0mg"},{"bike_id":"f603f3aa-5bf7-4a19-a8a1-b47909f854c7","system_id":"levelo_inurba_marseille","lat":43.21213,"lon":5.3508,"is_reserved":false,"is_disabled":false,"rental_uris":{"android":"levelo://app?vid=f603f3aa-5bf7-4a19-a8a1-b47909f854c7","ios":"levelo://app?vid=f603f3aa-5bf7-4a19-a8a1-b47909f854c7"},"vehicle_type_id":"4","last_reported":1751281783,"current_range_meters":18800,"station_id":"st_cvj6sg6p6f1abm77japg","pricing_plan_id":"cebpf4jnsgd1na2vs0mg"},{"bike_id":"c71a1e96-0dfb-45e6-948f-a7991373f41f","system_id":"levelo_inurba_marseille","lat":43.290188,"lon":5.38126,"is_reserved":false,"is_disabled":false,"rental_uris":{"android":"levelo://app?vid=c71a1e96-0dfb-45e6-948f-a7991373f41f","ios":"levelo://app?vid=c71a1e96-0dfb-45e6-948f-a7991373f41f"},"vehicle_type_id":"4","last_reported":1751281783,"current_range_meters":19200,"station_id":"","pricing_plan_id":"cebpf4jnsgd1na2vs0mg"},{"bike_id":"4f15fd4b-ce59-4795-af47-e04942d308e4","system_id":"levelo_inurba_marseille","lat":43.29887,"lon":5.37474,"is_reserved":false,"is_disabled":false,"rental_uris":{"android":"levelo://app?vid=4f15fd4b-ce59-4795-af47-e04942d308e4","ios":"levelo://app?vid=4f15fd4b-ce59-4795-af47-e04942d308e4"},"vehicle_type_id":"4","last_reported":1751281783,"current_range_meters":19200,"station_id":"ce4bgjh2rcd13ifvqbg0","pricing_plan_id":"cebpf4jnsgd1na2vs0mg"},{"bike_id":"f95ffdc9-116a-4bc7-aec8-97617d0768dd","system_id":"levelo_inurba_marseille","lat":43.29614,"lon":5.37163,"is_reserved":false,"is_disabled":false,"rental_uris":{"android":"levelo://app?vid=f95ffdc9-116a-4bc7-aec8-97617d0768dd","ios":"levelo://app?vid=f95ffdc9-116a-4bc7-aec8-97617d0768dd"},"vehicle_type_id":"4","last_reported":1751281783,"current_range_meters":19200,"station_id":"ce4bgnh2rcd13ifvqc0g","pricing_plan_id":"cebpf4jnsgd1na2vs0mg"},{"bike_id":"036d89bb-7350-4239-99d4-2504abc8fb7a","system_id":"levelo_inurba_marseille","lat":43.29822,"lon":5.36321,"is_reserved":false,"is_disabled":false,"rental_uris":{"android":"levelo://app?vid=036d89bb-7350-4239-99d4-2504abc8fb7a","ios":"levelo://app?vid=036d89bb-7350-4239-99d4-2504abc8fb7a"},"vehicle_type_id":"4","last_reported":1751281783,"current_range_meters":19200,"station_id":"ce4bgpp2rcd13ifvqc3g","pricing_plan_id":"cebpf4jnsgd1na2vs0mg"},{"bike_id":"0bee8496-de04-444f-924d-eff6f1b842d3","system_id":"levelo_inurba_marseille","lat":43.30511,"lon":5.36713,"is_reserved":false,"is_disabled":false,"rental_uris":{"android":"levelo://app?vid=0bee8496-de04-444f-924d-eff6f1b842d3","ios":"levelo://app?vid=0bee8496-de04-444f-924d-eff6f1b842d3"},"vehicle_type_id":"4","last_reported":1751281783,"current_range_meters":19200,"station_id":"ce4bgrp2rcd13ifvqc9g","pricing_plan_id":"cebpf4jnsgd1na2vs0mg"},{"bike_id":"202b4bb9-d397-4ded-8f0f-1e3ccb19fc6d","system_id":"levelo_inurba_marseille","lat":43.31115,"lon":5.37762,"is_reserved":false,"is_disabled":false,"rental_uris":{"android":"levelo://app?vid=202b4bb9-d397-4ded-8f0f-1e3ccb19fc6d","ios":"levelo://app?vid=202b4bb9-d397-4ded-8f0f-1e3ccb19fc6d"},"vehicle_type_id":"4","last_reported":1751281783,"current_range_meters":19200,"station_id":"ce4bgt92rcd13ifvqcg0","pricing_plan_id":"cebpf4jnsgd1na2vs0mg"},{"bike_id":"14f4327a-b11d-4c64-8cd8-de44769d9e77","system_id":"levelo_inurba_marseille","lat":43.28454,"lon":5.38402,"is_reserved":false,"is_disabled":false,"rental_uris":{"android":"levelo://app?vid=14f4327a-b11d-4c64-8cd8-de44769d9e77","ios":"levelo://app?vid=14f4327a-b11d-4c64-8cd8-de44769d9e77"},"vehicle_type_id":"4","last_reported":1751281783,"current_range_meters":19200,"station_id":"ce4bh512rcd13ifvqe3g","pricing_plan_id":"cebpf4jnsgd1na2vs0mg"},{"bike_id":"c0d6253d-9159-4083-b4d8-6fac71f18cab","system_id":"levelo_inurba_marseille","lat":43.28937,"lon":5.36651,"is_reserved":false,"is_disabled":false,"rental_uris":{"android":"levelo://app?vid=c0d6253d-9159-4083-b4d8-6fac71f18cab","ios":"levelo://app?vid=c0d6253d-9159-4083-b4d8-6fac71f18cab"},"vehicle_type_id":"4","last_reported":1751281783,"current_range_meters":19200,"station_id":"ce4bhap2rcd13ifvqek0","pricing_plan_id":"cebpf4jnsgd1na2vs0mg"},{"bike_id":"ea40031a-1dd9-4c64-a6f8-b7eca4034072","system_id":"levelo_inurba_marseille","lat":43.255793,"lon":5.382288,"is_reserved":false,"is_disabled":false,"rental_uris":{"android":"levelo://app?vid=ea40031a-1dd9-4c64-a6f8-b7eca4034072","ios":"levelo://app?vid=ea40031a-1dd9-4c64-a6f8-b7eca4034072"},"vehicle_type_id":"4","last_reported":1751281783,"current_range_meters":19200,"station_id":"ce4bhih2rcd13ifvqfs0","pricing_plan_id":"cebpf4jnsgd1na2vs0mg"},{"bike_id":"352380ee-ad43-4641-b75a-8ca6767ae9f1","system_id":"levelo_inurba_marseille","lat":43.299,"lon":5.43675,"is_reserved":false,"is_disabled":false,"rental_uris":{"android":"levelo://app?vid=352380ee-ad43-4641-b75a-8ca6767ae9f1","ios":"levelo://app?vid=352380ee-ad43-4641-b75a-8ca6767ae9f1"},"vehicle_type_id":"4","last_reported":1751281783,"current_range_meters":19200,"station_id":"ce4bhpp2rcd13ifvqhfg","pricing_plan_id":"cebpf4jnsgd1na2vs0mg"},{"bike_id":"fa16bbec-3211-49bd-a8b0-90a3ace4afe6","system_id":"levelo_inurba_marseille","lat":43.316,"lon":5.38477,"is_reserved":false,"is_disabled":false,"rental_uris":{"android":"levelo://app?vid=fa16bbec-3211-49bd-a8b0-90a3ace4afe6","ios":"levelo://app?vid=fa16bbec-3211-49bd-a8b0-90a3ace4afe6"},"vehicle_type_id":"4","last_reported":1751281783,"current_range_meters":19600,"station_id":"","pricing_plan_id":"cebpf4jnsgd1na2vs0mg"},{"bike_id":"566cdaf1-8ce7-454a-aec9-c370e2c0ae71","system_id":"levelo_inurba_marseille","lat":43.29023,"lon":5.38132,"is_reserved":false,"is_disabled":false,"rental_uris":{"android":"levelo://app?vid=566cdaf1-8ce7-454a-aec9-c370e2c0ae71","ios":"levelo://app?vid=566cdaf1-8ce7-454a-aec9-c370e2c0ae71"},"vehicle_type_id":"4","last_reported":1751281783,"current_range_meters":19600,"station_id":"ce4bh4p2rcd13ifvqe1g","pricing_plan_id":"cebpf4jnsgd1na2vs0mg"},{"bike_id":"c96abb5e-946c-4313-978f-0f2f82da4857","system_id":"levelo_inurba_marseille","lat":43.28936,"lon":5.38393,"is_reserved":false,"is_disabled":false,"rental_uris":{"android":"levelo://app?vid=c96abb5e-946c-4313-978f-0f2f82da4857","ios":"levelo://app?vid=c96abb5e-946c-4313-978f-0f2f82da4857"},"vehicle_type_id":"4","last_reported":1751281783,"current_range_meters":19600,"station_id":"ce4bh612rcd13ifvqe6g","pricing_plan_id":"cebpf4jnsgd1na2vs0mg"},{"bike_id":"bcc7a965-6238-4ac1-857f-945f01d77ce6","system_id":"levelo_inurba_marseille","lat":43.28416,"lon":5.35011,"is_reserved":false,"is_disabled":false,"rental_uris":{"android":"levelo://app?vid=bcc7a965-6238-4ac1-857f-945f01d77ce6","ios":"levelo://app?vid=bcc7a965-6238-4ac1-857f-945f01d77ce6"},"vehicle_type_id":"4","last_reported":1751281783,"current_range_meters":19600,"station_id":"ce4bhbh2rcd13ifvqepg","pricing_plan_id":"cebpf4jnsgd1na2vs0mg"},{"bike_id":"0a24663d-7c62-458e-8d52-c21c6564ba2b","system_id":"levelo_inurba_marseille","lat":43.29215,"lon":5.3608,"is_reserved":false,"is_disabled":false,"rental_uris":{"android":"levelo://app?vid=0a24663d-7c62-458e-8d52-c21c6564ba2b","ios":"levelo://app?vid=0a24663d-7c62-458e-8d52-c21c6564ba2b"},"vehicle_type_id":"4","last_reported":1751281783,"current_range_meters":19600,"station_id":"ce4bhbh2rcd13ifvqeqg","pricing_plan_id":"cebpf4jnsgd1na2vs0mg"},{"bike_id":"7fbcf780-1543-40eb-925e-510061f019f5","system_id":"levelo_inurba_marseille","lat":43.25501,"lon":5.37647,"is_reserved":false,"is_disabled":false,"rental_uris":{"android":"levelo://app?vid=7fbcf780-1543-40eb-925e-510061f019f5","ios":"levelo://app?vid=7fbcf780-1543-40eb-925e-510061f019f5"},"vehicle_type_id":"4","last_reported":1751281783,"current_range_meters":19600,"station_id":"ce4bhh12rcd13ifvqff0","pricing_plan_id":"cebpf4jnsgd1na2vs0mg"},{"bike_id":"6e588efc-a5fa-43d5-ae0d-510d646e930d","system_id":"levelo_inurba_marseille","lat":43.25722,"lon":5.41119,"is_reserved":false,"is_disabled":false,"rental_uris":{"android":"levelo://app?vid=6e588efc-a5fa-43d5-ae0d-510d646e930d","ios":"levelo://app?vid=6e588efc-a5fa-43d5-ae0d-510d646e930d"},"vehicle_type_id":"4","last_reported":1751281783,"current_range_meters":19600,"station_id":"ce4bhkp2rcd13ifvqgd0","pricing_plan_id":"cebpf4jnsgd1na2vs0mg"},{"bike_id":"62356331-a304-4ae1-ae69-10136cbd3f1d","system_id":"levelo_inurba_marseille","lat":43.3212,"lon":5.36842,"is_reserved":false,"is_disabled":false,"rental_uris":{"android":"levelo://app?vid=62356331-a304-4ae1-ae69-10136cbd3f1d","ios":"levelo://app?vid=62356331-a304-4ae1-ae69-10136cbd3f1d"},"vehicle_type_id":"4","last_reported":1751281783,"current_range_meters":19600,"station_id":"ce4bhrh2rcd13ifvqhug","pricing_plan_id":"cebpf4jnsgd1na2vs0mg"},{"bike_id":"518354b5-8405-430c-bbfc-0e30bc76b92d","system_id":"levelo_inurba_marseille","lat":43.21725,"lon":5.34603,"is_reserved":false,"is_disabled":false,"rental_uris":{"android":"levelo://app?vid=518354b5-8405-430c-bbfc-0e30bc76b92d","ios":"levelo://app?vid=518354b5-8405-430c-bbfc-0e30bc76b92d"},"vehicle_type_id":"4","last_reported":1751281783,"current_range_meters":20000,"station_id":"","pricing_plan_id":"cebpf4jnsgd1na2vs0mg"},{"bike_id":"b7defa60-4421-49e2-bd9b-b9075b82b780","system_id":"levelo_inurba_marseille","lat":43.282884,"lon":5.350456,"is_reserved":false,"is_disabled":false,"rental_uris":{"android":"levelo://app?vid=b7defa60-4421-49e2-bd9b-b9075b82b780","ios":"levelo://app?vid=b7defa60-4421-49e2-bd9b-b9075b82b780"},"vehicle_type_id":"4","last_reported":1751281783,"current_range_meters":20000,"station_id":"ce4bhbp2rcd13ifvqerg","pricing_plan_id":"cebpf4jnsgd1na2vs0mg"},{"bike_id":"e951d2a2-2a1d-4030-bee6-afbfe2838ed7","system_id":"levelo_inurba_marseille","lat":43.23194,"lon":5.35552,"is_reserved":false,"is_disabled":false,"rental_uris":{"android":"levelo://app?vid=e951d2a2-2a1d-4030-bee6-afbfe2838ed7","ios":"levelo://app?vid=e951d2a2-2a1d-4030-bee6-afbfe2838ed7"},"vehicle_type_id":"4","last_reported":1751281783,"current_range_meters":20000,"station_id":"ce4bhu92rcd13ifvqi70","pricing_plan_id":"cebpf4jnsgd1na2vs0mg"},{"bike_id":"86fa6ce7-8cbe-47ff-b5d3-c2b4938fd05c","system_id":"levelo_inurba_marseille","lat":43.21193,"lon":5.35071,"is_reserved":false,"is_disabled":false,"rental_uris":{"android":"levelo://app?vid=86fa6ce7-8cbe-47ff-b5d3-c2b4938fd05c","ios":"levelo://app?vid=86fa6ce7-8cbe-47ff-b5d3-c2b4938fd05c"},"vehicle_type_id":"4","last_reported":1751281783,"current_range_meters":20000,"station_id":"st_cvj6sg6p6f1abm77japg","pricing_plan_id":"cebpf4jnsgd1na2vs0mg"},{"bike_id":"5767b9e4-81ec-40bf-bccc-db289ba35b4e","system_id":"levelo_inurba_marseille","lat":43.2739,"lon":5.41249,"is_reserved":false,"is_disabled":false,"rental_uris":{"android":"levelo://app?vid=5767b9e4-81ec-40bf-bccc-db289ba35b4e","ios":"levelo://app?vid=5767b9e4-81ec-40bf-bccc-db289ba35b4e"},"vehicle_type_id":"4","last_reported":1751281783,"current_range_meters":20400,"station_id":"","pricing_plan_id":"cebpf4jnsgd1na2vs0mg"},{"bike_id":"47b0b597-a0b9-442e-9864-16a4dba2e4b7","system_id":"levelo_inurba_marseille","lat":43.30131,"lon":5.38792,"is_reserved":false,"is_disabled":false,"rental_uris":{"android":"levelo://app?vid=47b0b597-a0b9-442e-9864-16a4dba2e4b7","ios":"levelo://app?vid=47b0b597-a0b9-442e-9864-16a4dba2e4b7"},"vehicle_type_id":"4","last_reported":1751281783,"current_range_meters":20400,"station_id":"ce4bghh2rcd13ifvqb60","pricing_plan_id":"cebpf4jnsgd1na2vs0mg"},{"bike_id":"7f071c7d-3984-4e8e-a6e3-b4116a4673de","system_id":"levelo_inurba_marseille","lat":43.2439,"lon":5.37059,"is_reserved":false,"is_disabled":false,"rental_uris":{"android":"levelo://app?vid=7f071c7d-3984-4e8e-a6e3-b4116a4673de","ios":"levelo://app?vid=7f071c7d-3984-4e8e-a6e3-b4116a4673de"},"vehicle_type_id":"4","last_reported":1751281783,"current_range_meters":20400,"station_id":"ce4bhhh2rcd13ifvqfk0","pricing_plan_id":"cebpf4jnsgd1na2vs0mg"},{"bike_id":"940c8448-39b7-4d8b-b4cc-9918765a5bbc","system_id":"levelo_inurba_marseille","lat":43.21195,"lon":5.35091,"is_reserved":false,"is_disabled":false,"rental_uris":{"android":"levelo://app?vid=940c8448-39b7-4d8b-b4cc-9918765a5bbc","ios":"levelo://app?vid=940c8448-39b7-4d8b-b4cc-9918765a5bbc"},"vehicle_type_id":"4","last_reported":1751281783,"current_range_meters":20400,"station_id":"st_cvj6sg6p6f1abm77japg","pricing_plan_id":"cebpf4jnsgd1na2vs0mg"},{"bike_id":"8edbf84c-2b7b-4b3c-89f3-04e6ec75d805","system_id":"levelo_inurba_marseille","lat":43.286142,"lon":5.351043,"is_reserved":false,"is_disabled":false,"rental_uris":{"android":"levelo://app?vid=8edbf84c-2b7b-4b3c-89f3-04e6ec75d805","ios":"levelo://app?vid=8edbf84c-2b7b-4b3c-89f3-04e6ec75d805"},"vehicle_type_id":"4","last_reported":1751281783,"current_range_meters":20800,"station_id":"","pricing_plan_id":"cebpf4jnsgd1na2vs0mg"},{"bike_id":"78bcf11a-7934-402f-be3c-c37086edba67","system_id":"levelo_inurba_marseille","lat":43.29308,"lon":5.37169,"is_reserved":false,"is_disabled":false,"rental_uris":{"android":"levelo://app?vid=78bcf11a-7934-402f-be3c-c37086edba67","ios":"levelo://app?vid=78bcf11a-7934-402f-be3c-c37086edba67"},"vehicle_type_id":"4","last_reported":1751281783,"current_range_meters":20800,"station_id":"ce4bgh92rcd13ifvqb40","pricing_plan_id":"cebpf4jnsgd1na2vs0mg"},{"bike_id":"4e4d8ed0-3bfc-4e48-a136-e71ad902d558","system_id":"levelo_inurba_marseille","lat":43.291802,"lon":5.375855,"is_reserved":false,"is_disabled":false,"rental_uris":{"android":"levelo://app?vid=4e4d8ed0-3bfc-4e48-a136-e71ad902d558","ios":"levelo://app?vid=4e4d8ed0-3bfc-4e48-a136-e71ad902d558"},"vehicle_type_id":"4","last_reported":1751281783,"current_range_meters":20800,"station_id":"ce4bh5p2rcd13ifvqe4g","pricing_plan_id":"cebpf4jnsgd1na2vs0mg"},{"bike_id":"51603226-2a56-4623-a67f-4c89e01eb464","system_id":"levelo_inurba_marseille","lat":43.2625,"lon":5.40413,"is_reserved":false,"is_disabled":false,"rental_uris":{"android":"levelo://app?vid=51603226-2a56-4623-a67f-4c89e01eb464","ios":"levelo://app?vid=51603226-2a56-4623-a67f-4c89e01eb464"},"vehicle_type_id":"4","last_reported":1751281783,"current_range_meters":20800,"station_id":"ce4bhmh2rcd13ifvqgmg","pricing_plan_id":"cebpf4jnsgd1na2vs0mg"},{"bike_id":"d2f72e45-6b0c-4b36-9924-deef3cd98510","system_id":"levelo_inurba_marseille","lat":43.274959,"lon":5.424605,"is_reserved":false,"is_disabled":false,"rental_uris":{"android":"levelo://app?vid=d2f72e45-6b0c-4b36-9924-deef3cd98510","ios":"levelo://app?vid=d2f72e45-6b0c-4b36-9924-deef3cd98510"},"vehicle_type_id":"4","last_reported":1751281783,"current_range_meters":20800,"station_id":"ce4bhn92rcd13ifvqgrg","pricing_plan_id":"cebpf4jnsgd1na2vs0mg"},{"bike_id":"86f2cfd2-5050-4e0f-aa91-f01bd25804fd","system_id":"levelo_inurba_marseille","lat":43.27944,"lon":5.41051,"is_reserved":false,"is_disabled":false,"rental_uris":{"android":"levelo://app?vid=86f2cfd2-5050-4e0f-aa91-f01bd25804fd","ios":"levelo://app?vid=86f2cfd2-5050-4e0f-aa91-f01bd25804fd"},"vehicle_type_id":"4","last_reported":1751281783,"current_range_meters":20800,"station_id":"ce4bhnp2rcd13ifvqh0g","pricing_plan_id":"cebpf4jnsgd1na2vs0mg"},{"bike_id":"d2019eb4-f450-4e51-abec-b5191e2306d5","system_id":"levelo_inurba_marseille","lat":43.2992,"lon":5.43653,"is_reserved":false,"is_disabled":false,"rental_uris":{"android":"levelo://app?vid=d2019eb4-f450-4e51-abec-b5191e2306d5","ios":"levelo://app?vid=d2019eb4-f450-4e51-abec-b5191e2306d5"},"vehicle_type_id":"4","last_reported":1751281783,"current_range_meters":20800,"station_id":"ce4bhpp2rcd13ifvqhfg","pricing_plan_id":"cebpf4jnsgd1na2vs0mg"},{"bike_id":"569afbd4-da57-4911-aecb-840950c33922","system_id":"levelo_inurba_marseille","lat":43.212184,"lon":5.35067,"is_reserved":false,"is_disabled":false,"rental_uris":{"android":"levelo://app?vid=569afbd4-da57-4911-aecb-840950c33922","ios":"levelo://app?vid=569afbd4-da57-4911-aecb-840950c33922"},"vehicle_type_id":"4","last_reported":1751281783,"current_range_meters":20800,"station_id":"st_cvj6sg6p6f1abm77japg","pricing_plan_id":"cebpf4jnsgd1na2vs0mg"},{"bike_id":"958c2327-57da-4aeb-ac4e-8532d81abc49","system_id":"levelo_inurba_marseille","lat":43.29615,"lon":5.37174,"is_reserved":false,"is_disabled":false,"rental_uris":{"android":"levelo://app?vid=958c2327-57da-4aeb-ac4e-8532d81abc49","ios":"levelo://app?vid=958c2327-57da-4aeb-ac4e-8532d81abc49"},"vehicle_type_id":"4","last_reported":1751281783,"current_range_meters":21600,"station_id":"ce4bgnh2rcd13ifvqc0g","pricing_plan_id":"cebpf4jnsgd1na2vs0mg"},{"bike_id":"f66a8765-d3d0-43a4-8099-bbea4781c38e","system_id":"levelo_inurba_marseille","lat":43.30601,"lon":5.37229,"is_reserved":false,"is_disabled":false,"rental_uris":{"android":"levelo://app?vid=f66a8765-d3d0-43a4-8099-bbea4781c38e","ios":"levelo://app?vid=f66a8765-d3d0-43a4-8099-bbea4781c38e"},"vehicle_type_id":"4","last_reported":1751281783,"current_range_meters":21600,"station_id":"ce4bgqh2rcd13ifvqc4g","pricing_plan_id":"cebpf4jnsgd1na2vs0mg"},{"bike_id":"4475c56f-b03d-4ea6-ae76-ba258a9fa5eb","system_id":"levelo_inurba_marseille","lat":43.24808,"lon":5.37455,"is_reserved":false,"is_disabled":false,"rental_uris":{"android":"levelo://app?vid=4475c56f-b03d-4ea6-ae76-ba258a9fa5eb","ios":"levelo://app?vid=4475c56f-b03d-4ea6-ae76-ba258a9fa5eb"},"vehicle_type_id":"4","last_reported":1751281783,"current_range_meters":21600,"station_id":"ce4bhgh2rcd13ifvqfb0","pricing_plan_id":"cebpf4jnsgd1na2vs0mg"},{"bike_id":"ad977269-a860-4487-99ff-8ff95561d289","system_id":"levelo_inurba_marseille","lat":43.25502,"lon":5.37647,"is_reserved":false,"is_disabled":false,"rental_uris":{"android":"levelo://app?vid=ad977269-a860-4487-99ff-8ff95561d289","ios":"levelo://app?vid=ad977269-a860-4487-99ff-8ff95561d289"},"vehicle_type_id":"4","last_reported":1751281783,"current_range_meters":21600,"station_id":"ce4bhh12rcd13ifvqff0","pricing_plan_id":"cebpf4jnsgd1na2vs0mg"},{"bike_id":"e0c4211a-662e-4f11-90b6-981ca029649d","system_id":"levelo_inurba_marseille","lat":43.22498,"lon":5.34812,"is_reserved":false,"is_disabled":false,"rental_uris":{"android":"levelo://app?vid=e0c4211a-662e-4f11-90b6-981ca029649d","ios":"levelo://app?vid=e0c4211a-662e-4f11-90b6-981ca029649d"},"vehicle_type_id":"4","last_reported":1751281783,"current_range_meters":21600,"station_id":"st_cvj5dfep6f1abm77gieg","pricing_plan_id":"cebpf4jnsgd1na2vs0mg"},{"bike_id":"3a33ebd2-49a2-4e39-92d7-f09d7dd08672","system_id":"levelo_inurba_marseille","lat":43.21185,"lon":5.35043,"is_reserved":false,"is_disabled":false,"rental_uris":{"android":"levelo://app?vid=3a33ebd2-49a2-4e39-92d7-f09d7dd08672","ios":"levelo://app?vid=3a33ebd2-49a2-4e39-92d7-f09d7dd08672"},"vehicle_type_id":"4","last_reported":1751281783,"current_range_meters":21600,"station_id":"st_cvj6sg6p6f1abm77japg","pricing_plan_id":"cebpf4jnsgd1na2vs0mg"},{"bike_id":"d11fe4c9-c130-42ee-bb73-8c70d6efcfc0","system_id":"levelo_inurba_marseille","lat":43.28985,"lon":5.36658,"is_reserved":false,"is_disabled":false,"rental_uris":{"android":"levelo://app?vid=d11fe4c9-c130-42ee-bb73-8c70d6efcfc0","ios":"levelo://app?vid=d11fe4c9-c130-42ee-bb73-8c70d6efcfc0"},"vehicle_type_id":"4","last_reported":1751281783,"current_range_meters":22000,"station_id":"","pricing_plan_id":"cebpf4jnsgd1na2vs0mg"},{"bike_id":"fb51f881-f33f-4e2d-8477-3806506721b2","system_id":"levelo_inurba_marseille","lat":43.29915,"lon":5.3622,"is_reserved":false,"is_disabled":false,"rental_uris":{"android":"levelo://app?vid=fb51f881-f33f-4e2d-8477-3806506721b2","ios":"levelo://app?vid=fb51f881-f33f-4e2d-8477-3806506721b2"},"vehicle_type_id":"4","last_reported":1751281783,"current_range_meters":22000,"station_id":"ce4bgpp2rcd13ifvqc3g","pricing_plan_id":"cebpf4jnsgd1na2vs0mg"},{"bike_id":"25c08c4a-66e9-415e-a99b-0f78f316af23","system_id":"levelo_inurba_marseille","lat":43.29841,"lon":5.36302,"is_reserved":false,"is_disabled":false,"rental_uris":{"android":"levelo://app?vid=25c08c4a-66e9-415e-a99b-0f78f316af23","ios":"levelo://app?vid=25c08c4a-66e9-415e-a99b-0f78f316af23"},