{"last_updated":1701781842,"ttl":30,"version":"2.2","data":{"bikes":[{"bike_id":"bde4eeae-5677-4d2b-8f11-0b7fbe38c7d4","system_id":"levelo_inurba_marseille","lat":43.313391,"lon":5.36706,"is_reserved":false,"is_disabled":false,"rental_uris":{"android":"levelo://app?vid=bde4eeae-5677-4d2b-8f11-0b7fbe38c7d4","ios":"levelo://app?vid=bde4eeae-5677-4d2b-8f11-0b7fbe38c7d4"},"vehicle_type_id":"4","last_reported":1701781842,"current_range_meters":3200,"station_id":"ce4bgr92rcd13ifvqc6g","pricing_plan_id":"free"},{"bike_id":"70b41924-c4ab-4775-984a-0b2c192e1b51","system_id":"levelo_inurba_marseille","lat":43.313391,"lon":5.36706,"is_reserved":false,"is_disabled":false,"rental_uris":{"android":"levelo://app?vid=70b41924-c4ab-4775-984a-0b2c192e1b51","ios":"levelo://app?vid=70b41924-c4ab-4775-984a-0b2c192e1b51"},"vehicle_type_id":"4","last_reported":1701781842,"current_range_meters":31200,"station_id":"ce4bgr92rcd13ifvqc6g","pricing_plan_id":"free"},{"bike_id":"e50e9030-eb6f-46d7-be75-e6b88221d3dc","system_id":"levelo_inurba_marseille","lat":43.31341,"lon":5.36719,"is_reserved":false,"is_disabled":false,"rental_uris":{"android":"levelo://app?vid=e50e9030-eb6f-46d7-be75-e6b88221d3dc","ios":"levelo://app?vid=e50e9030-eb6f-46d7-be75-e6b88221d3dc"},"vehicle_type_id":"4","last_reported":1701781842,"current_range_meters":25600,"station_id":"ce4bgr92rcd13ifvqc6g","pricing_plan_id":"free"},{"bike_id":"ae4b0316-8fd1-40e3-bc76-be1388b5aa47","system_id":"levelo_inurba_marseille","lat":43.313391,"lon":5.36706,"is_reserved":false,"is_disabled":false,"rental_uris":{"android":"levelo://app?vid=ae4b0316-8fd1-40e3-bc76-be1388b5aa47","ios":"levelo://app?vid=ae4b0316-8fd1-40e3-bc76-be1388b5aa47"},"vehicle_type_id":"4","last_reported":1701781842,"current_range_meters":23600,"station_id":"ce4bgr92rcd13ifvqc6g","pricing_plan_id":"free"},{"bike_id":"4b076af0-63cb-42ed-902b-1abd681f46fe","system_id":"levelo_inurba_marseille","lat":43.313391,"lon":5.36706,"is_reserved":false,"is_disabled":false,"rental_uris":{"android":"levelo://app?vid=4b076af0-63cb-42ed-902b-1abd681f46fe","ios":"levelo://app?vid=4b076af0-63cb-42ed-902b-1abd681f46fe"},"vehicle_type_id":"4","last_reported":1701781842,"current_range_meters":13600,"station_id":"ce4bgr92rcd13ifvqc6g","pricing_plan_id":"free"},{"bike_id":"6c22590d-6750-4410-b7e4-1413015c08a1","system_id":"levelo_inurba_marseille","lat":43.313436,"lon":5.367253,"is_reserved":false,"is_disabled":false,"rental_uris":{"android":"levelo://app?vid=6c22590d-6750-4410-b7e4-1413015c08a1","ios":"levelo://app?vid=6c22590d-6750-4410-b7e4-1413015c08a1"},"vehicle_type_id":"4","last_reported":1701781842,"current_range_meters":19200,"station_id":"ce4bgr92rcd13ifvqc6g","pricing_plan_id":"free"},{"bike_id":"fd01627b-64c2-4d52-8bfd-4cab12c5ce93","system_id":"levelo_inurba_marseille","lat":43.313391,"lon":5.36706,"is_reserved":false,"is_disabled":false,"rental_uris":{"android":"levelo://app?vid=fd01627b-64c2-4d52-8bfd-4cab12c5ce93","ios":"levelo://app?vid=fd01627b-64c2-4d52-8bfd-4cab12c5ce93"},"vehicle_type_id":"4","last_reported":1701781842,"current_range_meters":21600,"station_id":"ce4bgr92rcd13ifvqc6g","pricing_plan_id":"free"},{"bike_id":"3e81bf10-5475-43cf-86ae-1191f8fce7d0","system_id":"levelo_inurba_marseille","lat":43.31345,"lon":5.367219,"is_reserved":false,"is_disabled":false,"rental_uris":{"android":"levelo://app?vid=3e81bf10-5475-43cf-86ae-1191f8fce7d0","ios":"levelo://app?vid=3e81bf10-5475-43cf-86ae-1191f8fce7d0"},"vehicle_type_id":"4","last_reported":1701781842,"current_range_meters":11200,"station_id":"ce4bgr92rcd13ifvqc6g","pricing_plan_id":"free"},{"bike_id":"745e6030-c6ca-4127-8d3f-4f131fa830a6","system_id":"levelo_inurba_marseille","lat":43.313391,"lon":5.36706,"is_reserved":false,"is_disabled":false,"rental_uris":{"android":"levelo://app?vid=745e6030-c6ca-4127-8d3f-4f131fa830a6","ios":"levelo://app?vid=745e6030-c6ca-4127-8d3f-4f131fa830a6"},"vehicle_type_id":"4","last_reported":1701781842,"current_range_meters":18400,"station_id":"ce4bgr92rcd13ifvqc6g","pricing_plan_id":"free"},{"bike_id":"0244d170-5838-4ab0-94da-2dda74a0c916","system_id":"levelo_inurba_marseille","lat":43.313391,"lon":5.36706,"is_reserved":false,"is_disabled":false,"rental_uris":{"android":"levelo://app?vid=0244d170-5838-4ab0-94da-2dda74a0c916","ios":"levelo://app?vid=0244d170-5838-4ab0-94da-2dda74a0c916"},"vehicle_type_id":"4","last_reported":1701781842,"current_range_meters":16800,"station_id":"ce4bgr92rcd13ifvqc6g","pricing_plan_id":"free"},{"bike_id":"ff9f49a8-7cd0-4bbf-a87a-af7489536e88","system_id":"levelo_inurba_marseille","lat":43.313391,"lon":5.36706,"is_reserved":false,"is_disabled":false,"rental_uris":{"android":"levelo://app?vid=ff9f49a8-7cd0-4bbf-a87a-af7489536e88","ios":"levelo://app?vid=ff9f49a8-7cd0-4bbf-a87a-af7489536e88"},"vehicle_type_id":"4","last_reported":1701781842,"current_range_meters":31200,"station_id":"ce4bgr92rcd13ifvqc6g","pricing_plan_id":"free"},{"bike_id":"335bd2e4-d778-465e-8392-7659726a15ef","system_id":"levelo_inurba_marseille","lat":43.313512,"lon":5.367104,"is_reserved":false,"is_disabled":false,"rental_uris":{"android":"levelo://app?vid=335bd2e4-d778-465e-8392-7659726a15ef","ios":"levelo://app?vid=335bd2e4-d778-465e-8392-7659726a15ef"},"vehicle_type_id":"4","last_reported":1701781842,"current_range_meters":22400,"station_id":"ce4bgr92rcd13ifvqc6g","pricing_plan_id":"free"},{"bike_id":"5fd61d4d-97d9-46ea-ad6e-9ae0ba00cbdf","system_id":"levelo_inurba_marseille","lat":43.313531,"lon":5.367115,"is_reserved":false,"is_disabled":false,"rental_uris":{"android":"levelo://app?vid=5fd61d4d-97d9-46ea-ad6e-9ae0ba00cbdf","ios":"levelo://app?vid=5fd61d4d-97d9-46ea-ad6e-9ae0ba00cbdf"},"vehicle_type_id":"4","last_reported":1701781842,"current_range_meters":24800,"station_id":"ce4bgr92rcd13ifvqc6g","pricing_plan_id":"free"},{"bike_id":"4167b9f2-99d5-4760-a9a1-6d91aacce329","system_id":"levelo_inurba_marseille","lat":43.313391,"lon":5.36706,"is_reserved":false,"is_disabled":false,"rental_uris":{"android":"levelo://app?vid=4167b9f2-99d5-4760-a9a1-6d91aacce329","ios":"levelo://app?vid=4167b9f2-99d5-4760-a9a1-6d91aacce329"},"vehicle_type_id":"4","last_reported":1701781842,"current_range_meters":23600,"station_id":"ce4bgr92rcd13ifvqc6g","pricing_plan_id":"free"},{"bike_id":"5ba3014d-8658-4332-a218-35f7ef631cda","system_id":"levelo_inurba_marseille","lat":43.31354,"lon":5.367061,"is_reserved":false,"is_disabled":false,"rental_uris":{"android":"levelo://app?vid=5ba3014d-8658-4332-a218-35f7ef631cda","ios":"levelo://app?vid=5ba3014d-8658-4332-a218-35f7ef631cda"},"vehicle_type_id":"4","last_reported":1701781842,"current_range_meters":21600,"station_id":"ce4bgr92rcd13ifvqc6g","pricing_plan_id":"free"},{"bike_id":"b5b52938-c5f2-4aae-93b3-a65ff916766b","system_id":"levelo_inurba_marseille","lat":43.31352,"lon":5.36724,"is_reserved":false,"is_disabled":false,"rental_uris":{"android":"levelo://app?vid=b5b52938-c5f2-4aae-93b3-a65ff916766b","ios":"levelo://app?vid=b5b52938-c5f2-4aae-93b3-a65ff916766b"},"vehicle_type_id":"4","last_reported":1701781842,"current_range_meters":8000,"station_id":"ce4bgr92rcd13ifvqc6g","pricing_plan_id":"free"},{"bike_id":"c90c4f56-179f-47c0-b367-8237d5be2f6f","system_id":"levelo_inurba_marseille","lat":43.313563,"lon":5.367085,"is_reserved":false,"is_disabled":false,"rental_uris":{"android":"levelo://app?vid=c90c4f56-179f-47c0-b367-8237d5be2f6f","ios":"levelo://app?vid=c90c4f56-179f-47c0-b367-8237d5be2f6f"},"vehicle_type_id":"4","last_reported":1701781842,"current_range_meters":22000,"station_id":"","pricing_plan_id":"free"},{"bike_id":"4383aa1e-8860-4099-b229-cc2de3364d19","system_id":"levelo_inurba_marseille","lat":43.312239,"lon":5.368562,"is_reserved":false,"is_disabled":false,"rental_uris":{"android":"levelo://app?vid=4383aa1e-8860-4099-b229-cc2de3364d19","ios":"levelo://app?vid=4383aa1e-8860-4099-b229-cc2de3364d19"},"vehicle_type_id":"4","last_reported":1701781842,"current_range_meters":16000,"station_id":"ce4bgl92rcd13ifvqbq0","pricing_plan_id":"free"},{"bike_id":"8e436c44-e603-4120-89ea-1611358b7412","system_id":"levelo_inurba_marseille","lat":43.312239,"lon":5.368562,"is_reserved":false,"is_disabled":false,"rental_uris":{"android":"levelo://app?vid=8e436c44-e603-4120-89ea-1611358b7412","ios":"levelo://app?vid=8e436c44-e603-4120-89ea-1611358b7412"},"vehicle_type_id":"4","last_reported":1701781842,"current_range_meters":26000,"station_id":"ce4bgl92rcd13ifvqbq0","pricing_plan_id":"free"},{"bike_id":"d2ab9e52-b395-4984-b344-111e09f40656","system_id":"levelo_inurba_marseille","lat":43.312239,"lon":5.368562,"is_reserved":false,"is_disabled":false,"rental_uris":{"android":"levelo://app?vid=d2ab9e52-b395-4984-b344-111e09f40656","ios":"levelo://app?vid=d2ab9e52-b395-4984-b344-111e09f40656"},"vehicle_type_id":"4","last_reported":1701781842,"current_range_meters":8400,"station_id":"ce4bgl92rcd13ifvqbq0","pricing_plan_id":"free"},{"bike_id":"c84da087-1a97-449f-b316-95f95a5b7fae","system_id":"levelo_inurba_marseille","lat":43.309076,"lon":5.368465,"is_reserved":false,"is_disabled":false,"rental_uris":{"android":"levelo://app?vid=c84da087-1a97-449f-b316-95f95a5b7fae","ios":"levelo://app?vid=c84da087-1a97-449f-b316-95f95a5b7fae"},"vehicle_type_id":"4","last_reported":1701781842,"current_range_meters":22000,"station_id":"ce4bgn92rcd13ifvqbvg","pricing_plan_id":"free"},{"bike_id":"4d4759d5-33a0-442f-8178-0c555242d3e8","system_id":"levelo_inurba_marseille","lat":43.30888,"lon":5.36839,"is_reserved":false,"is_disabled":false,"rental_uris":{"android":"levelo://app?vid=4d4759d5-33a0-442f-8178-0c555242d3e8","ios":"levelo://app?vid=4d4759d5-33a0-442f-8178-0c555242d3e8"},"vehicle_type_id":"4","last_reported":1701781842,"current_range_meters":26000,"station_id":"ce4bgn92rcd13ifvqbvg","pricing_plan_id":"free"},{"bike_id":"303e4ff1-3db0-473a-ada9-b629a9bae404","system_id":"levelo_inurba_marseille","lat":43.314933,"lon":5.373003,"is_reserved":false,"is_disabled":false,"rental_uris":{"android":"levelo://app?vid=303e4ff1-3db0-473a-ada9-b629a9bae404","ios":"levelo://app?vid=303e4ff1-3db0-473a-ada9-b629a9bae404"},"vehicle_type_id":"4","last_reported":1701781842,"current_range_meters":28800,"station_id":"ce4bgt12rcd13ifvqcd0","pricing_plan_id":"free"},{"bike_id":"0e7d406c-1943-498c-adcc-19279f47ccc1","system_id":"levelo_inurba_marseille","lat":43.314811,"lon":5.373103,"is_reserved":false,"is_disabled":false,"rental_uris":{"android":"levelo://app?vid=0e7d406c-1943-498c-adcc-19279f47ccc1","ios":"levelo://app?vid=0e7d406c-1943-498c-adcc-19279f47ccc1"},"vehicle_type_id":"4","last_reported":1701781842,"current_range_meters":0,"station_id":"ce4bgt12rcd13ifvqcd0","pricing_plan_id":"free"},{"bike_id":"6ed6ab70-e155-4f15-b270-a2acb041e731","system_id":"levelo_inurba_marseille","lat":43.309039,"lon":5.371797,"is_reserved":false,"is_disabled":false,"rental_uris":{"android":"levelo://app?vid=6ed6ab70-e155-4f15-b270-a2acb041e731","ios":"levelo://app?vid=6ed6ab70-e155-4f15-b270-a2acb041e731"},"vehicle_type_id":"4","last_reported":1701781842,"current_range_meters":31200,"station_id":"ce4bguh2rcd13ifvqckg","pricing_plan_id":"free"},{"bike_id":"299c1eda-a86c-4f2c-a320-58b4e01cd6b9","system_id":"levelo_inurba_marseille","lat":43.30559,"lon":5.36555,"is_reserved":false,"is_disabled":false,"rental_uris":{"android":"levelo://app?vid=299c1eda-a86c-4f2c-a320-58b4e01cd6b9","ios":"levelo://app?vid=299c1eda-a86c-4f2c-a320-58b4e01cd6b9"},"vehicle_type_id":"4","last_reported":1701781842,"current_range_meters":0,"station_id":"ce4bgs12rcd13ifvqcag","pricing_plan_id":"free"},{"bike_id":"e68bd4fb-ac30-4166-938d-db87e415e22c","system_id":"levelo_inurba_marseille","lat":43.305369,"lon":5.366999,"is_reserved":false,"is_disabled":false,"rental_uris":{"android":"levelo://app?vid=e68bd4fb-ac30-4166-938d-db87e415e22c","ios":"levelo://app?vid=e68bd4fb-ac30-4166-938d-db87e415e22c"},"vehicle_type_id":"4","last_reported":1701781842,"current_range_meters":0,"station_id":"ce4bgrp2rcd13ifvqc9g","pricing_plan_id":"free"},{"bike_id":"28ddbcb9-ad5b-4fda-9262-36ee92469f89","system_id":"levelo_inurba_marseille","lat":43.305368,"lon":5.367343,"is_reserved":false,"is_disabled":false,"rental_uris":{"android":"levelo://app?vid=28ddbcb9-ad5b-4fda-9262-36ee92469f89","ios":"levelo://app?vid=28ddbcb9-ad5b-4fda-9262-36ee92469f89"},"vehicle_type_id":"4","last_reported":1701781842,"current_range_meters":0,"station_id":"ce4bgrp2rcd13ifvqc9g","pricing_plan_id":"free"},{"bike_id":"a728eea0-9f43-42cf-b8b1-39763a7f1ef5","system_id":"levelo_inurba_marseille","lat":43.30612,"lon":5.37218,"is_reserved":false,"is_disabled":false,"rental_uris":{"android":"levelo://app?vid=a728eea0-9f43-42cf-b8b1-39763a7f1ef5","ios":"levelo://app?vid=a728eea0-9f43-42cf-b8b1-39763a7f1ef5"},"vehicle_type_id":"4","last_reported":1701781842,"current_range_meters":400,"station_id":"ce4bgqh2rcd13ifvqc4g","pricing_plan_id":"free"},{"bike_id":"f60d59da-8d33-4d03-b82f-1226208b44da","system_id":"levelo_inurba_marseille","lat":43.305989,"lon":5.37225,"is_reserved":false,"is_disabled":false,"rental_uris":{"android":"levelo://app?vid=f60d59da-8d33-4d03-b82f-1226208b44da","ios":"levelo://app?vid=f60d59da-8d33-4d03-b82f-1226208b44da"},"vehicle_type_id":"4","last_reported":1701781842,"current_range_meters":14000,"station_id":"ce4bgqh2rcd13ifvqc4g","pricing_plan_id":"free"},{"bike_id":"b065b12a-ef87-47d8-8ac6-a38844050d40","system_id":"levelo_inurba_marseille","lat":43.319338,"lon":5.372928,"is_reserved":false,"is_disabled":false,"rental_uris":{"android":"levelo://app?vid=b065b12a-ef87-47d8-8ac6-a38844050d40","ios":"levelo://app?vid=b065b12a-ef87-47d8-8ac6-a38844050d40"},"vehicle_type_id":"4","last_reported":1701781842,"current_range_meters":0,"station_id":"","pricing_plan_id":"free"},{"bike_id":"590dd921-2567-4fbc-aabe-5b8ab5d1a730","system_id":"levelo_inurba_marseille","lat":43.311131,"lon":5.377651,"is_reserved":false,"is_disabled":false,"rental_uris":{"android":"levelo://app?vid=590dd921-2567-4fbc-aabe-5b8ab5d1a730","ios":"levelo://app?vid=590dd921-2567-4fbc-aabe-5b8ab5d1a730"},"vehicle_type_id":"4","last_reported":1701781842,"current_range_meters":21600,"station_id":"ce4bgt92rcd13ifvqcg0","pricing_plan_id":"free"},{"bike_id":"c52d5db6-7f37-47da-8dc9-fe39b7f57219","system_id":"levelo_inurba_marseille","lat":43.307945,"lon":5.376487,"is_reserved":false,"is_disabled":false,"rental_uris":{"android":"levelo://app?vid=c52d5db6-7f37-47da-8dc9-fe39b7f57219","ios":"levelo://app?vid=c52d5db6-7f37-47da-8dc9-fe39b7f57219"},"vehicle_type_id":"4","last_reported":1701781842,"current_range_meters":20400,"station_id":"ce4bgv92rcd13ifvqcq0","pricing_plan_id":"free"},{"bike_id":"8ffe38e3-828a-4043-9d6a-fc50569607d2","system_id":"levelo_inurba_marseille","lat":43.307945,"lon":5.376487,"is_reserved":false,"is_disabled":false,"rental_uris":{"android":"levelo://app?vid=8ffe38e3-828a-4043-9d6a-fc50569607d2","ios":"levelo://app?vid=8ffe38e3-828a-4043-9d6a-fc50569607d2"},"vehicle_type_id":"4","last_reported":1701781842,"current_range_meters":14800,"station_id":"ce4bgv92rcd13ifvqcq0","pricing_plan_id":"free"},{"bike_id":"520bd81f-ddb1-4cc7-9ebe-efd36c582364","system_id":"levelo_inurba_marseille","lat":43.317075,"lon":5.377367,"is_reserved":false,"is_disabled":false,"rental_uris":{"android":"levelo://app?vid=520bd81f-ddb1-4cc7-9ebe-efd36c582364","ios":"levelo://app?vid=520bd81f-ddb1-4cc7-9ebe-efd36c582364"},"vehicle_type_id":"4","last_reported":1701781842,"current_range_meters":17200,"station_id":"ce4bgth2rcd13ifvqch0","pricing_plan_id":"free"},{"bike_id":"98c7b888-80cd-42bb-af25-7fcd5dde9a55","system_id":"levelo_inurba_marseille","lat":43.317075,"lon":5.377367,"is_reserved":false,"is_disabled":false,"rental_uris":{"android":"levelo://app?vid=98c7b888-80cd-42bb-af25-7fcd5dde9a55","ios":"levelo://app?vid=98c7b888-80cd-42bb-af25-7fcd5dde9a55"},"vehicle_type_id":"4","last_reported":1701781842,"current_range_meters":20400,"station_id":"ce4bgth2rcd13ifvqch0","pricing_plan_id":"free"},{"bike_id":"fb6fd937-527b-4585-9058-0dfdc6436ac8","system_id":"levelo_inurba_marseille","lat":43.31351,"lon":5.37909,"is_reserved":false,"is_disabled":false,"rental_uris":{"android":"levelo://app?vid=fb6fd937-527b-4585-9058-0dfdc6436ac8","ios":"levelo://app?vid=fb6fd937-527b-4585-9058-0dfdc6436ac8"},"vehicle_type_id":"4","last_reported":1701781842,"current_range_meters":10000,"station_id":"","pricing_plan_id":"free"},{"bike_id":"e6958429-38a2-4d2a-adf8-ea3e9258f055","system_id":"levelo_inurba_marseille","lat":43.303046,"lon":5.368981,"is_reserved":false,"is_disabled":false,"rental_uris":{"android":"levelo://app?vid=e6958429-38a2-4d2a-adf8-ea3e9258f055","ios":"levelo://app?vid=e6958429-38a2-4d2a-adf8-ea3e9258f055"},"vehicle_type_id":"4","last_reported":1701781842,"current_range_meters":9600,"station_id":"ce4bgqh2rcd13ifvqc5g","pricing_plan_id":"free"},{"bike_id":"5d2cd6ab-df60-423f-88bd-5a119f5f993d","system_id":"levelo_inurba_marseille","lat":43.308012,"lon":5.381511,"is_reserved":false,"is_disabled":false,"rental_uris":{"android":"levelo://app?vid=5d2cd6ab-df60-423f-88bd-5a119f5f993d","ios":"levelo://app?vid=5d2cd6ab-df60-423f-88bd-5a119f5f993d"},"vehicle_type_id":"4","last_reported":1701781842,"current_range_meters":22800,"station_id":"ce4bgt12rcd13ifvqce0","pricing_plan_id":"free"},{"bike_id":"e222377b-5f50-452f-b870-cfaf3055e8ec","system_id":"levelo_inurba_marseille","lat":43.324674,"lon":5.365836,"is_reserved":false,"is_disabled":false,"rental_uris":{"android":"levelo://app?vid=e222377b-5f50-452f-b870-cfaf3055e8ec","ios":"levelo://app?vid=e222377b-5f50-452f-b870-cfaf3055e8ec"},"vehicle_type_id":"4","last_reported":1701781842,"current_range_meters":22400,"station_id":"","pricing_plan_id":"free"},{"bike_id":"72e379ad-1f51-418a-8cce-24857b7d2467","system_id":"levelo_inurba_marseille","lat":43.304606,"lon":5.379026,"is_reserved":false,"is_disabled":false,"rental_uris":{"android":"levelo://app?vid=72e379ad-1f51-418a-8cce-24857b7d2467","ios":"levelo://app?vid=72e379ad-1f51-418a-8cce-24857b7d2467"},"vehicle_type_id":"4","last_reported":1701781842,"current_range_meters":18000,"station_id":"ce4bgup2rcd13ifvqcn0","pricing_plan_id":"free"},{"bike_id":"ab542b0a-b258-4b62-baed-c4ff4b3a7961","system_id":"levelo_inurba_marseille","lat":43.324771,"lon":5.36557,"is_reserved":false,"is_disabled":false,"rental_uris":{"android":"levelo://app?vid=ab542b0a-b258-4b62-baed-c4ff4b3a7961","ios":"levelo://app?vid=ab542b0a-b258-4b62-baed-c4ff4b3a7961"},"vehicle_type_id":"4","last_reported":1701781842,"current_range_meters":13200,"station_id":"ce4bhs12rcd13ifvqhvg","pricing_plan_id":"free"},{"bike_id":"41280701-a143-4e50-93ef-fa297df3585f","system_id":"levelo_inurba_marseille","lat":43.324771,"lon":5.36557,"is_reserved":false,"is_disabled":false,"rental_uris":{"android":"levelo://app?vid=41280701-a143-4e50-93ef-fa297df3585f","ios":"levelo://app?vid=41280701-a143-4e50-93ef-fa297df3585f"},"vehicle_type_id":"4","last_reported":1701781842,"current_range_meters":25600,"station_id":"ce4bhs12rcd13ifvqhvg","pricing_plan_id":"free"},{"bike_id":"349dfaee-3ed5-42be-8292-0ab2ba4552e5","system_id":"levelo_inurba_marseille","lat":43.324771,"lon":5.36557,"is_reserved":false,"is_disabled":false,"rental_uris":{"android":"levelo://app?vid=349dfaee-3ed5-42be-8292-0ab2ba4552e5","ios":"levelo://app?vid=349dfaee-3ed5-42be-8292-0ab2ba4552e5"},"vehicle_type_id":"4","last_reported":1701781842,"current_range_meters":28000,"station_id":"ce4bhs12rcd13ifvqhvg","pricing_plan_id":"free"},{"bike_id":"84c39752-f48f-4f4d-ac4b-a1b4c5ddefdf","system_id":"levelo_inurba_marseille","lat":43.30143,"lon":5.37413,"is_reserved":false,"is_disabled":false,"rental_uris":{"android":"levelo://app?vid=84c39752-f48f-4f4d-ac4b-a1b4c5ddefdf","ios":"levelo://app?vid=84c39752-f48f-4f4d-ac4b-a1b4c5ddefdf"},"vehicle_type_id":"4","last_reported":1701781842,"current_range_meters":12800,"station_id":"ce4bgs92rcd13ifvqcc0","pricing_plan_id":"free"},{"bike_id":"7775cb7e-f5a7-4453-9091-b81a0592c10f","system_id":"levelo_inurba_marseille","lat":43.301429,"lon":5.37413,"is_reserved":false,"is_disabled":false,"rental_uris":{"android":"levelo://app?vid=7775cb7e-f5a7-4453-9091-b81a0592c10f","ios":"levelo://app?vid=7775cb7e-f5a7-4453-9091-b81a0592c10f"},"vehicle_type_id":"4","last_reported":1701781842,"current_range_meters":10800,"station_id":"ce4bgs92rcd13ifvqcc0","pricing_plan_id":"free"},{"bike_id":"379581e9-298e-4b85-9a5d-29f875de6f0d","system_id":"levelo_inurba_marseille","lat":43.30143,"lon":5.37413,"is_reserved":false,"is_disabled":false,"rental_uris":{"android":"levelo://app?vid=379581e9-298e-4b85-9a5d-29f875de6f0d","ios":"levelo://app?vid=379581e9-298e-4b85-9a5d-29f875de6f0d"},"vehicle_type_id":"4","last_reported":1701781842,"current_range_meters":24400,"station_id":"ce4bgs92rcd13ifvqcc0","pricing_plan_id":"free"},{"bike_id":"47c291db-a702-4865-9097-2678b3fdead3","system_id":"levelo_inurba_marseille","lat":43.298433,"lon":5.362774,"is_reserved":false,"is_disabled":false,"rental_uris":{"android":"levelo://app?vid=47c291db-a702-4865-9097-2678b3fdead3","ios":"levelo://app?vid=47c291db-a702-4865-9097-2678b3fdead3"},"vehicle_type_id":"4","last_reported":1701781842,"current_range_meters":25600,"station_id":"ce4bgpp2rcd13ifvqc3g","pricing_plan_id":"free"},{"bike_id":"a0fc7a9b-300d-40e1-8ce7-3b53ef2cda08","system_id":"levelo_inurba_marseille","lat":43.305364,"lon":5.384119,"is_reserved":false,"is_disabled":false,"rental_uris":{"android":"levelo://app?vid=a0fc7a9b-300d-40e1-8ce7-3b53ef2cda08","ios":"levelo://app?vid=a0fc7a9b-300d-40e1-8ce7-3b53ef2cda08"},"vehicle_type_id":"4","last_reported":1701781842,"current_range_meters":23600,"station_id":"ce4bgg92rcd13ifvqb30","pricing_plan_id":"free"},{"bike_id":"0e859481-928a-46e5-b63f-1ef502825551","system_id":"levelo_inurba_marseille","lat":43.311722,"lon":5.387247,"is_reserved":false,"is_disabled":false,"rental_uris":{"android":"levelo://app?vid=0e859481-928a-46e5-b63f-1ef502825551","ios":"levelo://app?vid=0e859481-928a-46e5-b63f-1ef502825551"},"vehicle_type_id":"4","last_reported":1701781842,"current_range_meters":30400,"station_id":"ce4bgv12rcd13ifvqcp0","pricing_plan_id":"free"},{"bike_id":"22246d08-5510-4ef9-88e2-78fe34345ac7","system_id":"levelo_inurba_marseille","lat":43.297794,"lon":5.370888,"is_reserved":false,"is_disabled":false,"rental_uris":{"android":"levelo://app?vid=22246d08-5510-4ef9-88e2-78fe34345ac7","ios":"levelo://app?vid=22246d08-5510-4ef9-88e2-78fe34345ac7"},"vehicle_type_id":"4","last_reported":1701781842,"current_range_meters":26000,"station_id":"ce4bgop2rcd13ifvqc1g","pricing_plan_id":"free"},{"bike_id":"7c9b34d1-3514-4392-a2ee-937250c3bc00","system_id":"levelo_inurba_marseille","lat":43.32821,"lon":5.3669,"is_reserved":false,"is_disabled":false,"rental_uris":{"android":"levelo://app?vid=7c9b34d1-3514-4392-a2ee-937250c3bc00","ios":"levelo://app?vid=7c9b34d1-3514-4392-a2ee-937250c3bc00"},"vehicle_type_id":"4","last_reported":1701781842,"current_range_meters":15200,"station_id":"ce4bhs92rcd13ifvqi0g","pricing_plan_id":"free"},{"bike_id":"b4879a0b-f87c-476b-ba9f-57011b8686d8","system_id":"levelo_inurba_marseille","lat":43.298218,"lon":5.374416,"is_reserved":false,"is_disabled":false,"rental_uris":{"android":"levelo://app?vid=b4879a0b-f87c-476b-ba9f-57011b8686d8","ios":"levelo://app?vid=b4879a0b-f87c-476b-ba9f-57011b8686d8"},"vehicle_type_id":"4","last_reported":1701781842,"current_range_meters":17600,"station_id":"","pricing_plan_id":"free"},{"bike_id":"decb4574-6d6b-402e-89b6-fd19a98c1a00","system_id":"levelo_inurba_marseille","lat":43.32831,"lon":5.36691,"is_reserved":false,"is_disabled":false,"rental_uris":{"android":"levelo://app?vid=decb4574-6d6b-402e-89b6-fd19a98c1a00","ios":"levelo://app?vid=decb4574-6d6b-402e-89b6-fd19a98c1a00"},"vehicle_type_id":"4","last_reported":1701781842,"current_range_meters":21200,"station_id":"ce4bhs92rcd13ifvqi0g","pricing_plan_id":"free"},{"bike_id":"e96dfd9a-2b85-48df-97f7-50cbcabb3b0a","system_id":"levelo_inurba_marseille","lat":43.297163,"lon":5.365866,"is_reserved":false,"is_disabled":false,"rental_uris":{"android":"levelo://app?vid=e96dfd9a-2b85-48df-97f7-50cbcabb3b0a","ios":"levelo://app?vid=e96dfd9a-2b85-48df-97f7-50cbcabb3b0a"},"vehicle_type_id":"4","last_reported":1701781842,"current_range_meters":9600,"station_id":"ce4bgn12rcd13ifvqbt0","pricing_plan_id":"free"},{"bike_id":"c397aa65-a0f0-42cd-88dc-1815a06dc1b9","system_id":"levelo_inurba_marseille","lat":43.297163,"lon":5.365866,"is_reserved":false,"is_disabled":false,"rental_uris":{"android":"levelo://app?vid=c397aa65-a0f0-42cd-88dc-1815a06dc1b9","ios":"levelo://app?vid=c397aa65-a0f0-42cd-88dc-1815a06dc1b9"},"vehicle_type_id":"4","last_reported":1701781842,"current_range_meters":18000,"station_id":"ce4bgn12rcd13ifvqbt0","pricing_plan_id":"free"},{"bike_id":"eb6e7f47-d703-40d3-b365-ef330215af35","system_id":"levelo_inurba_marseille","lat":43.295908,"lon":5.368,"is_reserved":false,"is_disabled":false,"rental_uris":{"android":"levelo://app?vid=eb6e7f47-d703-40d3-b365-ef330215af35","ios":"levelo://app?vid=eb6e7f47-d703-40d3-b365-ef330215af35"},"vehicle_type_id":"4","last_reported":1701781842,"current_range_meters":24400,"station_id":"","pricing_plan_id":"free"},{"bike_id":"c978dd9f-1e56-4006-9f51-63023aa6f822","system_id":"levelo_inurba_marseille","lat":43.296131,"lon":5.370791,"is_reserved":false,"is_disabled":false,"rental_uris":{"android":"levelo://app?vid=c978dd9f-1e56-4006-9f51-63023aa6f822","ios":"levelo://app?vid=c978dd9f-1e56-4006-9f51-63023aa6f822"},"vehicle_type_id":"4","last_reported":1701781842,"current_range_meters":17600,"station_id":"ce4bgnh2rcd13ifvqc0g","pricing_plan_id":"free"},{"bike_id":"eaa0e7e7-2390-47fa-909b-7b240952cbef","system_id":"levelo_inurba_marseille","lat":43.316538,"lon":5.38954,"is_reserved":false,"is_disabled":false,"rental_uris":{"android":"levelo://app?vid=eaa0e7e7-2390-47fa-909b-7b240952cbef","ios":"levelo://app?vid=eaa0e7e7-2390-47fa-909b-7b240952cbef"},"vehicle_type_id":"4","last_reported":1701781842,"current_range_meters":13200,"station_id":"","pricing_plan_id":"free"},{"bike_id":"477ae435-0f3c-4245-8596-246a5d6e8464","system_id":"levelo_inurba_marseille","lat":43.296131,"lon":5.370791,"is_reserved":false,"is_disabled":false,"rental_uris":{"android":"levelo://app?vid=477ae435-0f3c-4245-8596-246a5d6e8464","ios":"levelo://app?vid=477ae435-0f3c-4245-8596-246a5d6e8464"},"vehicle_type_id":"4","last_reported":1701781842,"current_range_meters":20000,"station_id":"ce4bgnh2rcd13ifvqc0g","pricing_plan_id":"free"},{"bike_id":"87211628-7f49-4f99-8e4f-acfdc1942f71","system_id":"levelo_inurba_marseille","lat":43.309589,"lon":5.390258,"is_reserved":false,"is_disabled":false,"rental_uris":{"android":"levelo://app?vid=87211628-7f49-4f99-8e4f-acfdc1942f71","ios":"levelo://app?vid=87211628-7f49-4f99-8e4f-acfdc1942f71"},"vehicle_type_id":"4","last_reported":1701781842,"current_range_meters":9600,"station_id":"ce4bgup2rcd13ifvqco0","pricing_plan_id":"free"},{"bike_id":"82b1a9f8-445f-4ed1-ae5f-ed51d0df50f3","system_id":"levelo_inurba_marseille","lat":43.309589,"lon":5.390258,"is_reserved":false,"is_disabled":false,"rental_uris":{"android":"levelo://app?vid=82b1a9f8-445f-4ed1-ae5f-ed51d0df50f3","ios":"levelo://app?vid=82b1a9f8-445f-4ed1-ae5f-ed51d0df50f3"},"vehicle_type_id":"4","last_reported":1701781842,"current_range_meters":22400,"station_id":"ce4bgup2rcd13ifvqco0","pricing_plan_id":"free"},{"bike_id":"29ff7a7b-7b8e-4c3c-926e-3a15bd082839","system_id":"levelo_inurba_marseille","lat":43.309589,"lon":5.390258,"is_reserved":false,"is_disabled":false,"rental_uris":{"android":"levelo://app?vid=29ff7a7b-7b8e-4c3c-926e-3a15bd082839","ios":"levelo://app?vid=29ff7a7b-7b8e-4c3c-926e-3a15bd082839"},"vehicle_type_id":"4","last_reported":1701781842,"current_range_meters":24400,"station_id":"ce4bgup2rcd13ifvqco0","pricing_plan_id":"free"},{"bike_id":"bc346089-8474-4750-987b-39cb292d364e","system_id":"levelo_inurba_marseille","lat":43.309589,"lon":5.390258,"is_reserved":false,"is_disabled":false,"rental_uris":{"android":"levelo://app?vid=bc346089-8474-4750-987b-39cb292d364e","ios":"levelo://app?vid=bc346089-8474-4750-987b-39cb292d364e"},"vehicle_type_id":"4","last_reported":1701781842,"current_range_meters":20400,"station_id":"ce4bgup2rcd13ifvqco0","pricing_plan_id":"free"},{"bike_id":"ebf3c062-e7bc-4b86-9d1f-e0130e22c5f6","system_id":"levelo_inurba_marseille","lat":43.30963,"lon":5.3905,"is_reserved":false,"is_disabled":false,"rental_uris":{"android":"levelo://app?vid=ebf3c062-e7bc-4b86-9d1f-e0130e22c5f6","ios":"levelo://app?vid=ebf3c062-e7bc-4b86-9d1f-e0130e22c5f6"},"vehicle_type_id":"4","last_reported":1701781842,"current_range_meters":4000,"station_id":"ce4bgup2rcd13ifvqco0","pricing_plan_id":"free"},{"bike_id":"390ce454-35de-4c2a-bf9c-0ba60f1ce790","system_id":"levelo_inurba_marseille","lat":43.317557,"lon":5.390173,"is_reserved":false,"is_disabled":false,"rental_uris":{"android":"levelo://app?vid=390ce454-35de-4c2a-bf9c-0ba60f1ce790","ios":"levelo://app?vid=390ce454-35de-4c2a-bf9c-0ba60f1ce790"},"vehicle_type_id":"4","last_reported":1701781842,"current_range_meters":13600,"station_id":"ce4bhqp2rcd13ifvqhng","pricing_plan_id":"free"},{"bike_id":"142e7d99-d905-4155-8ace-ef64c4694d2c","system_id":"levelo_inurba_marseille","lat":43.317557,"lon":5.390173,"is_reserved":false,"is_disabled":false,"rental_uris":{"android":"levelo://app?vid=142e7d99-d905-4155-8ace-ef64c4694d2c","ios":"levelo://app?vid=142e7d99-d905-4155-8ace-ef64c4694d2c"},"vehicle_type_id":"4","last_reported":1701781842,"current_range_meters":23600,"station_id":"ce4bhqp2rcd13ifvqhng","pricing_plan_id":"free"},{"bike_id":"520c8717-569f-4e4a-9011-ac832b6d9613","system_id":"levelo_inurba_marseille","lat":43.317557,"lon":5.390173,"is_reserved":false,"is_disabled":false,"rental_uris":{"android":"levelo://app?vid=520c8717-569f-4e4a-9011-ac832b6d9613","ios":"levelo://app?vid=520c8717-569f-4e4a-9011-ac832b6d9613"},"vehicle_type_id":"4","last_reported":1701781842,"current_range_meters":17200,"station_id":"ce4bhqp2rcd13ifvqhng","pricing_plan_id":"free"},{"bike_id":"423ce3da-3412-4022-b5b9-f1d48fa322c5","system_id":"levelo_inurba_marseille","lat":43.298037,"lon":5.381066,"is_reserved":false,"is_disabled":false,"rental_uris":{"android":"levelo://app?vid=423ce3da-3412-4022-b5b9-f1d48fa322c5","ios":"levelo://app?vid=423ce3da-3412-4022-b5b9-f1d48fa322c5"},"vehicle_type_id":"4","last_reported":1701781842,"current_range_meters":14000,"station_id":"ce4bgip2rcd13ifvqbb0","pricing_plan_id":"free"},{"bike_id":"eb5fcd74-795f-4f30-bf70-117d5895fa96","system_id":"levelo_inurba_marseille","lat":43.298037,"lon":5.381066,"is_reserved":false,"is_disabled":false,"rental_uris":{"android":"levelo://app?vid=eb5fcd74-795f-4f30-bf70-117d5895fa96","ios":"levelo://app?vid=eb5fcd74-795f-4f30-bf70-117d5895fa96"},"vehicle_type_id":"4","last_reported":1701781842,"current_range_meters":31200,"station_id":"ce4bgip2rcd13ifvqbb0","pricing_plan_id":"free"},{"bike_id":"a4663b42-ab64-4e76-b653-948d9e57969e","system_id":"levelo_inurba_marseille","lat":43.296263,"lon":5.377094,"is_reserved":false,"is_disabled":false,"rental_uris":{"android":"levelo://app?vid=a4663b42-ab64-4e76-b653-948d9e57969e","ios":"levelo://app?vid=a4663b42-ab64-4e76-b653-948d9e57969e"},"vehicle_type_id":"4","last_reported":1701781842,"current_range_meters":27200,"station_id":"ce4bgi92rcd13ifvqb90","pricing_plan_id":"free"},{"bike_id":"dd62479b-e8d1-4595-8604-a6450e7ae497","system_id":"levelo_inurba_marseille","lat":43.296263,"lon":5.377094,"is_reserved":false,"is_disabled":false,"rental_uris":{"android":"levelo://app?vid=dd62479b-e8d1-4595-8604-a6450e7ae497","ios":"levelo://app?vid=dd62479b-e8d1-4595-8604-a6450e7ae497"},"vehicle_type_id":"4","last_reported":1701781842,"current_range_meters":7200,"station_id":"ce4bgi92rcd13ifvqb90","pricing_plan_id":"free"},{"bike_id":"08a1d7e9-f22d-4c5f-8bc4-cd5936e63fcb","system_id":"levelo_inurba_marseille","lat":43.295279,"lon":5.375048,"is_reserved":false,"is_disabled":false,"rental_uris":{"android":"levelo://app?vid=08a1d7e9-f22d-4c5f-8bc4-cd5936e63fcb","ios":"levelo://app?vid=08a1d7e9-f22d-4c5f-8bc4-cd5936e63fcb"},"vehicle_type_id":"4","last_reported":1701781842,"current_range_meters":5200,"station_id":"ce4bgkp2rcd13ifvqbmg","pricing_plan_id":"free"},{"bike_id":"c3643ac2-cdd1-4bd1-99e6-62e33012d634","system_id":"levelo_inurba_marseille","lat":43.32365,"lon":5.38888,"is_reserved":false,"is_disabled":false,"rental_uris":{"android":"levelo://app?vid=c3643ac2-cdd1-4bd1-99e6-62e33012d634","ios":"levelo://app?vid=c3643ac2-cdd1-4bd1-99e6-62e33012d634"},"vehicle_type_id":"4","last_reported":1701781842,"current_range_meters":12400,"station_id":"ce4bhqp2rcd13ifvqhog","pricing_plan_id":"free"},{"bike_id":"9b3b92f4-9220-4c57-8168-3c698dea10f9","system_id":"levelo_inurba_marseille","lat":43.29601,"lon":5.381084,"is_reserved":false,"is_disabled":false,"rental_uris":{"android":"levelo://app?vid=9b3b92f4-9220-4c57-8168-3c698dea10f9","ios":"levelo://app?vid=9b3b92f4-9220-4c57-8168-3c698dea10f9"},"vehicle_type_id":"4","last_reported":1701781842,"current_range_meters":6000,"station_id":"ce4bgl12rcd13ifvqbo0","pricing_plan_id":"free"},{"bike_id":"2f079f1e-3a84-43ed-b20e-afba9a9a6b43","system_id":"levelo_inurba_marseille","lat":43.292749,"lon":5.368402,"is_reserved":false,"is_disabled":false,"rental_uris":{"android":"levelo://app?vid=2f079f1e-3a84-43ed-b20e-afba9a9a6b43","ios":"levelo://app?vid=2f079f1e-3a84-43ed-b20e-afba9a9a6b43"},"vehicle_type_id":"4","last_reported":1701781842,"current_range_meters":12800,"station_id":"ce4bhbp2rcd13ifvqesg","pricing_plan_id":"free"},{"bike_id":"4733618e-8adf-44ff-959a-09a48083a5ea","system_id":"levelo_inurba_marseille","lat":43.300852,"lon":5.390859,"is_reserved":false,"is_disabled":false,"rental_uris":{"android":"levelo://app?vid=4733618e-8adf-44ff-959a-09a48083a5ea","ios":"levelo://app?vid=4733618e-8adf-44ff-959a-09a48083a5ea"},"vehicle_type_id":"4","last_reported":1701781842,"current_range_meters":5600,"station_id":"ce4bh192rcd13ifvqdb0","pricing_plan_id":"free"},{"bike_id":"9aa5db3c-540c-4a02-8bfe-f41e31da8d92","system_id":"levelo_inurba_marseille","lat":43.292311,"lon":5.360731,"is_reserved":false,"is_disabled":false,"rental_uris":{"android":"levelo://app?vid=9aa5db3c-540c-4a02-8bfe-f41e31da8d92","ios":"levelo://app?vid=9aa5db3c-540c-4a02-8bfe-f41e31da8d92"},"vehicle_type_id":"4","last_reported":1701781842,"current_range_meters":22400,"station_id":"ce4bhbh2rcd13ifvqeqg","pricing_plan_id":"free"},{"bike_id":"ceb03d53-9f78-44b3-bb1e-0633727a1994","system_id":"levelo_inurba_marseille","lat":43.30085,"lon":5.390856,"is_reserved":false,"is_disabled":false,"rental_uris":{"android":"levelo://app?vid=ceb03d53-9f78-44b3-bb1e-0633727a1994","ios":"levelo://app?vid=ceb03d53-9f78-44b3-bb1e-0633727a1994"},"vehicle_type_id":"4","last_reported":1701781842,"current_range_meters":28800,"station_id":"ce4bh192rcd13ifvqdb0","pricing_plan_id":"free"},{"bike_id":"c8f55b94-7e0b-43dc-a7a7-6023eb7ca422","system_id":"levelo_inurba_marseille","lat":43.292311,"lon":5.360731,"is_reserved":false,"is_disabled":false,"rental_uris":{"android":"levelo://app?vid=c8f55b94-7e0b-43dc-a7a7-6023eb7ca422","ios":"levelo://app?vid=c8f55b94-7e0b-43dc-a7a7-6023eb7ca422"},"vehicle_type_id":"4","last_reported":1701781842,"current_range_meters":14000,"station_id":"ce4bhbh2rcd13ifvqeqg","pricing_plan_id":"free"},{"bike_id":"f253ff3b-b695-478a-8de9-13f895fbddbd","system_id":"levelo_inurba_marseille","lat":43.292663,"lon":5.376394,"is_reserved":false,"is_disabled":false,"rental_uris":{"android":"levelo://app?vid=f253ff3b-b695-478a-8de9-13f895fbddbd","ios":"levelo://app?vid=f253ff3b-b695-478a-8de9-13f895fbddbd"},"vehicle_type_id":"4","last_reported":1701781842,"current_range_meters":15200,"station_id":"ce4bgi12rcd13ifvqb80","pricing_plan_id":"free"},{"bike_id":"7ddfee4a-887b-43d7-bbb7-9584cf9f4d28","system_id":"levelo_inurba_marseille","lat":43.292663,"lon":5.376394,"is_reserved":false,"is_disabled":false,"rental_uris":{"android":"levelo://app?vid=7ddfee4a-887b-43d7-bbb7-9584cf9f4d28","ios":"levelo://app?vid=7ddfee4a-887b-43d7-bbb7-9584cf9f4d28"},"vehicle_type_id":"4","last_reported":1701781842,"current_range_meters":31600,"station_id":"ce4bgi12rcd13ifvqb80","pricing_plan_id":"free"},{"bike_id":"c36ccde5-3a96-440e-a58d-330fe5eae21a","system_id":"levelo_inurba_marseille","lat":43.291675,"lon":5.371583,"is_reserved":false,"is_disabled":false,"rental_uris":{"android":"levelo://app?vid=c36ccde5-3a96-440e-a58d-330fe5eae21a","ios":"levelo://app?vid=c36ccde5-3a96-440e-a58d-330fe5eae21a"},"vehicle_type_id":"4","last_reported":1701781842,"current_range_meters":25200,"station_id":"ce4bha92rcd13ifvqeh0","pricing_plan_id":"free"},{"bike_id":"378f6429-5b46-45d1-905b-f6c26192dbf4","system_id":"levelo_inurba_marseille","lat":43.291675,"lon":5.371583,"is_reserved":false,"is_disabled":false,"rental_uris":{"android":"levelo://app?vid=378f6429-5b46-45d1-905b-f6c26192dbf4","ios":"levelo://app?vid=378f6429-5b46-45d1-905b-f6c26192dbf4"},"vehicle_type_id":"4","last_reported":1701781842,"current_range_meters":21600,"station_id":"ce4bha92rcd13ifvqeh0","pricing_plan_id":"free"},{"bike_id":"681dbb1d-fd33-4b20-8e45-94a8e33b9700","system_id":"levelo_inurba_marseille","lat":43.291994,"lon":5.357886,"is_reserved":false,"is_disabled":false,"rental_uris":{"android":"levelo://app?vid=681dbb1d-fd33-4b20-8e45-94a8e33b9700","ios":"levelo://app?vid=681dbb1d-fd33-4b20-8e45-94a8e33b9700"},"vehicle_type_id":"4","last_reported":1701781842,"current_range_meters":22400,"station_id":"ce4bhb12rcd13ifvqel0","pricing_plan_id":"free"},{"bike_id":"0f09f155-54d1-4fe7-b698-af2527540a1c","system_id":"levelo_inurba_marseille","lat":43.31333,"lon":5.39698,"is_reserved":false,"is_disabled":false,"rental_uris":{"android":"levelo://app?vid=0f09f155-54d1-4fe7-b698-af2527540a1c","ios":"levelo://app?vid=0f09f155-54d1-4fe7-b698-af2527540a1c"},"vehicle_type_id":"4","last_reported":1701781842,"current_range_meters":14800,"station_id":"ce4bgvp2rcd13ifvqcu0","pricing_plan_id":"free"},{"bike_id":"3c84ccf4-5707-4f7f-b0f6-6ab6d5a00125","system_id":"levelo_inurba_marseille","lat":43.302008,"lon":5.394694,"is_reserved":false,"is_disabled":false,"rental_uris":{"android":"levelo://app?vid=3c84ccf4-5707-4f7f-b0f6-6ab6d5a00125","ios":"levelo://app?vid=3c84ccf4-5707-4f7f-b0f6-6ab6d5a00125"},"vehicle_type_id":"4","last_reported":1701781842,"current_range_meters":30000,"station_id":"ce4bh0p2rcd13ifvqd70","pricing_plan_id":"free"},{"bike_id":"c3e06c12-7642-46ca-8eb9-0919a2734dbc","system_id":"levelo_inurba_marseille","lat":43.289184,"lon":5.366408,"is_reserved":false,"is_disabled":false,"rental_uris":{"android":"levelo://app?vid=c3e06c12-7642-46ca-8eb9-0919a2734dbc","ios":"levelo://app?vid=c3e06c12-7642-46ca-8eb9-0919a2734dbc"},"vehicle_type_id":"4","last_reported":1701781842,"current_range_meters":17200,"station_id":"ce4bhap2rcd13ifvqek0","pricing_plan_id":"free"},{"bike_id":"babe9859-0762-4197-9f31-fa40d9177655","system_id":"levelo_inurba_marseille","lat":43.28941,"lon":5.36642,"is_reserved":false,"is_disabled":false,"rental_uris":{"android":"levelo://app?vid=babe9859-0762-4197-9f31-fa40d9177655","ios":"levelo://app?vid=babe9859-0762-4197-9f31-fa40d9177655"},"vehicle_type_id":"4","last_reported":1701781842,"current_range_meters":10400,"station_id":"ce4bhap2rcd13ifvqek0","pricing_plan_id":"free"},{"bike_id":"6d95b7ba-e79c-4f0b-98de-ec016270b83e","system_id":"levelo_inurba_marseille","lat":43.28948,"lon":5.36411,"is_reserved":false,"is_disabled":false,"rental_uris":{"android":"levelo://app?vid=6d95b7ba-e79c-4f0b-98de-ec016270b83e","ios":"levelo://app?vid=6d95b7ba-e79c-4f0b-98de-ec016270b83e"},"vehicle_type_id":"4","last_reported":1701781842,"current_range_meters":15200,"station_id":"ce4bhc92rcd13ifvqetg","pricing_plan_id":"free"},{"bike_id":"5234982b-b12e-43cf-a31b-cc4b01db58a6","system_id":"levelo_inurba_marseille","lat":43.289184,"lon":5.366408,"is_reserved":false,"is_disabled":false,"rental_uris":{"android":"levelo://app?vid=5234982b-b12e-43cf-a31b-cc4b01db58a6","ios":"levelo://app?vid=5234982b-b12e-43cf-a31b-cc4b01db58a6"},"vehicle_type_id":"4","last_reported":1701781842,"current_range_meters":28000,"station_id":"ce4bhap2rcd13ifvqek0","pricing_plan_id":"free"},{"bike_id":"2becf173-e0df-4769-92c6-041d86f283fc","system_id":"levelo_inurba_marseille","lat":43.330442,"lon":5.389148,"is_reserved":false,"is_disabled":false,"rental_uris":{"android":"levelo://app?vid=2becf173-e0df-4769-92c6-041d86f283fc","ios":"levelo://app?vid=2becf173-e0df-4769-92c6-041d86f283fc"},"vehicle_type_id":"4","last_reported":1701781842,"current_range_meters":22400,"station_id":"ce4bhr92rcd13ifvqhrg","pricing_plan_id":"free"},{"bike_id":"f68e2c8b-de08-4ad7-b342-74483183b5be","system_id":"levelo_inurba_marseille","lat":43.33049,"lon":5.38909,"is_reserved":false,"is_disabled":false,"rental_uris":{"android":"levelo://app?vid=f68e2c8b-de08-4ad7-b342-74483183b5be","ios":"levelo://app?vid=f68e2c8b-de08-4ad7-b342-74483183b5be"},"vehicle_type_id":"4","last_reported":1701781842,"current_range_meters":30400,"station_id":"ce4bhr92rcd13ifvqhrg","pricing_plan_id":"free"},{"bike_id":"97728094-63a7-4fa3-a491-f617436bb6eb","system_id":"levelo_inurba_marseille","lat":43.290995,"lon":5.381361,"is_reserved":false,"is_disabled":false,"rental_uris":{"android":"levelo://app?vid=97728094-63a7-4fa3-a491-f617436bb6eb","ios":"levelo://app?vid=97728094-63a7-4fa3-a491-f617436bb6eb"},"vehicle_type_id":"4","last_reported":1701781842,"current_range_meters":6800,"station_id":"ce4bh512rcd13ifvqe2g","pricing_plan_id":"free"},{"bike_id":"a0cfa970-e7bb-4570-9c42-8beaa71b49e0","system_id":"levelo_inurba_marseille","lat":43.290995,"lon":5.381361,"is_reserved":false,"is_disabled":false,"rental_uris":{"android":"levelo://app?vid=a0cfa970-e7bb-4570-9c42-8beaa71b49e0","ios":"levelo://app?vid=a0cfa970-e7bb-4570-9c42-8beaa71b49e0"},"vehicle_type_id":"4","last_reported":1701781842,"current_range_meters":30400,"station_id":"ce4bh512rcd13ifvqe2g","pricing_plan_id":"free"},{"bike_id":"a9a06f03-614f-4509-a96b-5ed0d93ffaed","system_id":"levelo_inurba_marseille","lat":43.29787,"lon":5.39337,"is_reserved":false,"is_disabled":false,"rental_uris":{"android":"levelo://app?vid=a9a06f03-614f-4509-a96b-5ed0d93ffaed","ios":"levelo://app?vid=a9a06f03-614f-4509-a96b-5ed0d93ffaed"},"vehicle_type_id":"4","last_reported":1701781842,"current_range_meters":23600,"station_id":"chh1huq6cuj3fo74tm60","pricing_plan_id":"free"},{"bike_id":"40d2a898-a6b3-43f7-9873-f8f2766126ca","system_id":"levelo_inurba_marseille","lat":43.297815,"lon":5.393548,"is_reserved":false,"is_disabled":false,"rental_uris":{"android":"levelo://app?vid=40d2a898-a6b3-43f7-9873-f8f2766126ca","ios":"levelo://app?vid=40d2a898-a6b3-43f7-9873-f8f2766126ca"},"vehicle_type_id":"4","last_reported":1701781842,"current_range_meters":29600,"station_id":"chh1huq6cuj3fo74tm60","pricing_plan_id":"free"},{"bike_id":"4b0a4153-c270-4531-a611-3834b2aaa278","system_id":"levelo_inurba_marseille","lat":43.2901,"lon":5.381269,"is_reserved":false,"is_disabled":false,"rental_uris":{"android":"levelo://app?vid=4b0a4153-c270-4531-a611-3834b2aaa278","ios":"levelo://app?vid=4b0a4153-c270-4531-a611-3834b2aaa278"},"vehicle_type_id":"4","last_reported":1701781842,"current_range_meters":19200,"station_id":"ce4bh4p2rcd13ifvqe1g","pricing_plan_id":"free"},{"bike_id":"46362411-2372-4c7f-a5f0-191148c52941","system_id":"levelo_inurba_marseille","lat":43.28859,"lon":5.35869,"is_reserved":false,"is_disabled":false,"rental_uris":{"android":"levelo://app?vid=46362411-2372-4c7f-a5f0-191148c52941","ios":"levelo://app?vid=46362411-2372-4c7f-a5f0-191148c52941"},"vehicle_type_id":"4","last_reported":1701781842,"current_range_meters":24800,"station_id":"ce4bhb12rcd13ifvqem0","pricing_plan_id":"free"},{"bike_id":"b1da507f-59bc-4bfa-9de7-dd18b0d37739","system_id":"levelo_inurba_marseille","lat":43.337487,"lon":5.374513,"is_reserved":false,"is_disabled":false,"rental_uris":{"android":"levelo://app?vid=b1da507f-59bc-4bfa-9de7-dd18b0d37739","ios":"levelo://app?vid=b1da507f-59bc-4bfa-9de7-dd18b0d37739"},"vehicle_type_id":"4","last_reported":1701781842,"current_range_meters":31200,"station_id":"","pricing_plan_id":"free"},{"bike_id":"2fbea006-0d22-445c-bfc1-d379dcddc1c1","system_id":"levelo_inurba_marseille","lat":43.33748,"lon":5.37465,"is_reserved":false,"is_disabled":false,"rental_uris":{"android":"levelo://app?vid=2fbea006-0d22-445c-bfc1-d379dcddc1c1","ios":"levelo://app?vid=2fbea006-0d22-445c-bfc1-d379dcddc1c1"},"vehicle_type_id":"4","last_reported":1701781842,"current_range_meters":28800,"station_id":"","pricing_plan_id":"free"},{"bike_id":"61e94894-252e-4e6e-9735-b09eceabfad5","system_id":"levelo_inurba_marseille","lat":43.33748,"lon":5.37474,"is_reserved":false,"is_disabled":false,"rental_uris":{"android":"levelo://app?vid=61e94894-252e-4e6e-9735-b09eceabfad5","ios":"levelo://app?vid=61e94894-252e-4e6e-9735-b09eceabfad5"},"vehicle_type_id":"4","last_reported":1701781842,"current_range_meters":29600,"station_id":"","pricing_plan_id":"free"},{"bike_id":"6b4ba298-52d5-44e7-9aa5-989d2120c2bd","system_id":"levelo_inurba_marseille","lat":43.30642,"lon":5.401031,"is_reserved":false,"is_disabled":false,"rental_uris":{"android":"levelo://app?vid=6b4ba298-52d5-44e7-9aa5-989d2120c2bd","ios":"levelo://app?vid=6b4ba298-52d5-44e7-9aa5-989d2120c2bd"},"vehicle_type_id":"4","last_reported":1701781842,"current_range_meters":25600,"station_id":"ce4bh112rcd13ifvqda0","pricing_plan_id":"free"},{"bike_id":"3279ab10-c559-4255-80ce-132e262777da","system_id":"levelo_inurba_marseille","lat":43.33764,"lon":5.37443,"is_reserved":false,"is_disabled":false,"rental_uris":{"android":"levelo://app?vid=3279ab10-c559-4255-80ce-132e262777da","ios":"levelo://app?vid=3279ab10-c559-4255-80ce-132e262777da"},"vehicle_type_id":"4","last_reported":1701781842,"current_range_meters":6800,"station_id":"","pricing_plan_id":"free"},{"bike_id":"42b1d51d-9a49-4b54-a16e-19a252d9cc2f","system_id":"levelo_inurba_marseille","lat":43.295196,"lon":5.39397,"is_reserved":false,"is_disabled":false,"rental_uris":{"android":"levelo://app?vid=42b1d51d-9a49-4b54-a16e-19a252d9cc2f","ios":"levelo://app?vid=42b1d51d-9a49-4b54-a16e-19a252d9cc2f"},"vehicle_type_id":"4","last_reported":1701781842,"current_range_meters":12800,"station_id":"ce4bh292rcd13ifvqdf0","pricing_plan_id":"free"},{"bike_id":"a9806f5d-8874-414e-a5ba-6d21b3108d2c","system_id":"levelo_inurba_marseille","lat":43.286039,"lon":5.370679,"is_reserved":false,"is_disabled":false,"rental_uris":{"android":"levelo://app?vid=a9806f5d-8874-414e-a5ba-6d21b3108d2c","ios":"levelo://app?vid=a9806f5d-8874-414e-a5ba-6d21b3108d2c"},"vehicle_type_id":"4","last_reported":1701781842,"current_range_meters":27600,"station_id":"ce4bht12rcd13ifvqi60","pricing_plan_id":"free"},{"bike_id":"f35ffc96-1abe-4b43-ad9e-61bb56e260b0","system_id":"levelo_inurba_marseille","lat":43.3165,"lon":5.40437,"is_reserved":false,"is_disabled":false,"rental_uris":{"android":"levelo://app?vid=f35ffc96-1abe-4b43-ad9e-61bb56e260b0","ios":"levelo://app?vid=f35ffc96-1abe-4b43-ad9e-61bb56e260b0"},"vehicle_type_id":"4","last_reported":1701781842,"current_range_meters":14800,"station_id":"ce4bh012rcd13ifvqd00","pricing_plan_id":"free"},{"bike_id":"b489717b-8900-466d-83b7-1be1bc514bf2","system_id":"levelo_inurba_marseille","lat":43.295713,"lon":5.399639,"is_reserved":false,"is_disabled":false,"rental_uris":{"android":"levelo://app?vid=b489717b-8900-466d-83b7-1be1bc514bf2","ios":"levelo://app?vid=b489717b-8900-466d-83b7-1be1bc514bf2"},"vehicle_type_id":"4","last_reported":1701781842,"current_range_meters":20400,"station_id":"ce4bh312rcd13ifvqdj0","pricing_plan_id":"free"},{"bike_id":"a7b716bd-6f6f-4d7c-94ed-74e91bfcfea3","system_id":"levelo_inurba_marseille","lat":43.284534,"lon":5.358662,"is_reserved":false,"is_disabled":false,"rental_uris":{"android":"levelo://app?vid=a7b716bd-6f6f-4d7c-94ed-74e91bfcfea3","ios":"levelo://app?vid=a7b716bd-6f6f-4d7c-94ed-74e91bfcfea3"},"vehicle_type_id":"4","last_reported":1701781842,"current_range_meters":26400,"station_id":"ce4bhah2rcd13ifvqei0","pricing_plan_id":"free"},{"bike_id":"75e489f6-c251-4a06-93e7-e640f9910364","system_id":"levelo_inurba_marseille","lat":43.286595,"lon":5.386795,"is_reserved":false,"is_disabled":false,"rental_uris":{"android":"levelo://app?vid=75e489f6-c251-4a06-93e7-e640f9910364","ios":"levelo://app?vid=75e489f6-c251-4a06-93e7-e640f9910364"},"vehicle_type_id":"4","last_reported":1701781842,"current_range_meters":19600,"station_id":"ce4bh492rcd13ifvqdug","pricing_plan_id":"free"},{"bike_id":"74c50794-a6f6-4360-9bba-1e2aba68335e","system_id":"levelo_inurba_marseille","lat":43.286595,"lon":5.386795,"is_reserved":false,"is_disabled":false,"rental_uris":{"android":"levelo://app?vid=74c50794-a6f6-4360-9bba-1e2aba68335e","ios":"levelo://app?vid=74c50794-a6f6-4360-9bba-1e2aba68335e"},"vehicle_type_id":"4","last_reported":1701781842,"current_range_meters":28000,"station_id":"ce4bh492rcd13ifvqdug","pricing_plan_id":"free"},{"bike_id":"26a1eaaa-c052-4229-965d-422f6e872f39","system_id":"levelo_inurba_marseille","lat":43.337168,"lon":5.391825,"is_reserved":false,"is_disabled":false,"rental_uris":{"android":"levelo://app?vid=26a1eaaa-c052-4229-965d-422f6e872f39","ios":"levelo://app?vid=26a1eaaa-c052-4229-965d-422f6e872f39"},"vehicle_type_id":"4","last_reported":1701781842,"current_range_meters":29200,"station_id":"ce4bhr92rcd13ifvqhsg","pricing_plan_id":"free"},{"bike_id":"2f9c43a2-ffb0-4223-b6cc-2e0d24aa05fd","system_id":"levelo_inurba_marseille","lat":43.284793,"lon":5.384113,"is_reserved":false,"is_disabled":false,"rental_uris":{"android":"levelo://app?vid=2f9c43a2-ffb0-4223-b6cc-2e0d24aa05fd","ios":"levelo://app?vid=2f9c43a2-ffb0-4223-b6cc-2e0d24aa05fd"},"vehicle_type_id":"4","last_reported":1701781842,"current_range_meters":15600,"station_id":"ce4bh512rcd13ifvqe3g","pricing_plan_id":"free"},{"bike_id":"86f7f2f6-8add-4306-8f58-033d3eb6b9f8","system_id":"levelo_inurba_marseille","lat":43.288501,"lon":5.393087,"is_reserved":false,"is_disabled":false,"rental_uris":{"android":"levelo://app?vid=86f7f2f6-8add-4306-8f58-033d3eb6b9f8","ios":"levelo://app?vid=86f7f2f6-8add-4306-8f58-033d3eb6b9f8"},"vehicle_type_id":"4","last_reported":1701781842,"current_range_meters":27200,"station_id":"ce4bh2p2rcd13ifvqdi0","pricing_plan_id":"free"},{"bike_id":"a3d28026-955f-4fcf-aa66-2afb6e76213d","system_id":"levelo_inurba_marseille","lat":43.283494,"lon":5.380945,"is_reserved":false,"is_disabled":false,"rental_uris":{"android":"levelo://app?vid=a3d28026-955f-4fcf-aa66-2afb6e76213d","ios":"levelo://app?vid=a3d28026-955f-4fcf-aa66-2afb6e76213d"},"vehicle_type_id":"4","last_reported":1701781842,"current_range_meters":15600,"station_id":"ce4bh412rcd13ifvqdr0","pricing_plan_id":"free"},{"bike_id":"6aa06c94-e335-4190-b6b1-500d9de3a801","system_id":"levelo_inurba_marseille","lat":43.283494,"lon":5.380945,"is_reserved":false,"is_disabled":false,"rental_uris":{"android":"levelo://app?vid=6aa06c94-e335-4190-b6b1-500d9de3a801","ios":"levelo://app?vid=6aa06c94-e335-4190-b6b1-500d9de3a801"},"vehicle_type_id":"4","last_reported":1701781842,"current_range_meters":16400,"station_id":"ce4bh412rcd13ifvqdr0","pricing_plan_id":"free"},{"bike_id":"e546e6f9-28db-4d88-af2a-b09a750a6bcf","system_id":"levelo_inurba_marseille","lat":43.283498,"lon":5.380948,"is_reserved":false,"is_disabled":false,"rental_uris":{"android":"levelo://app?vid=e546e6f9-28db-4d88-af2a-b09a750a6bcf","ios":"levelo://app?vid=e546e6f9-28db-4d88-af2a-b09a750a6bcf"},"vehicle_type_id":"4","last_reported":1701781842,"current_range_meters":4800,"station_id":"ce4bh412rcd13ifvqdr0","pricing_plan_id":"free"},{"bike_id":"0811af71-72ea-4d56-b3f5-37cfef844aff","system_id":"levelo_inurba_marseille","lat":43.283398,"lon":5.381169,"is_reserved":false,"is_disabled":false,"rental_uris":{"android":"levelo://app?vid=0811af71-72ea-4d56-b3f5-37cfef844aff","ios":"levelo://app?vid=0811af71-72ea-4d56-b3f5-37cfef844aff"},"vehicle_type_id":"4","last_reported":1701781842,"current_range_meters":0,"station_id":"","pricing_plan_id":"free"},{"bike_id":"3add4f2a-7ac9-4f04-8651-52d0e070061d","system_id":"levelo_inurba_marseille","lat":43.292724,"lon":5.401131,"is_reserved":false,"is_disabled":false,"rental_uris":{"android":"levelo://app?vid=3add4f2a-7ac9-4f04-8651-52d0e070061d","ios":"levelo://app?vid=3add4f2a-7ac9-4f04-8651-52d0e070061d"},"vehicle_type_id":"4","last_reported":1701781842,"current_range_meters":16800,"station_id":"ce4bh312rcd13ifvqdk0","pricing_plan_id":"free"},{"bike_id":"e44b6700-6d80-4fc9-b5eb-bec4940fb864","system_id":"levelo_inurba_marseille","lat":43.283502,"lon":5.386471,"is_reserved":false,"is_disabled":false,"rental_uris":{"android":"levelo://app?vid=e44b6700-6d80-4fc9-b5eb-bec4940fb864","ios":"levelo://app?vid=e44b6700-6d80-4fc9-b5eb-bec4940fb864"},"vehicle_type_id":"4","last_reported":1701781842,"current_range_meters":21600,"station_id":"ce4bh492rcd13ifvqdvg","pricing_plan_id":"free"},{"bike_id":"eb5415df-f26c-4723-aa07-3ae9c458a6eb","system_id":"levelo_inurba_marseille","lat":43.282744,"lon":5.350533,"is_reserved":false,"is_disabled":false,"rental_uris":{"android":"levelo://app?vid=eb5415df-f26c-4723-aa07-3ae9c458a6eb","ios":"levelo://app?vid=eb5415df-f26c-4723-aa07-3ae9c458a6eb"},"vehicle_type_id":"4","last_reported":1701781842,"current_range_meters":1600,"station_id":"ce4bhbp2rcd13ifvqerg","pricing_plan_id":"free"},{"bike_id":"60877ddb-9389-4a3a-8429-6b687c59db3f","system_id":"levelo_inurba_marseille","lat":43.28039,"lon":5.369297,"is_reserved":false,"is_disabled":false,"rental_uris":{"android":"levelo://app?vid=60877ddb-9389-4a3a-8429-6b687c59db3f","ios":"levelo://app?vid=60877ddb-9389-4a3a-8429-6b687c59db3f"},"vehicle_type_id":"4","last_reported":1701781842,"current_range_meters":8800,"station_id":"ce4bha12rcd13ifvqef0","pricing_plan_id":"free"},{"bike_id":"cf3fd51f-cce2-44fd-969a-dd41fd7ffb03","system_id":"levelo_inurba_marseille","lat":43.280382,"lon":5.369291,"is_reserved":false,"is_disabled":false,"rental_uris":{"android":"levelo://app?vid=cf3fd51f-cce2-44fd-969a-dd41fd7ffb03","ios":"levelo://app?vid=cf3fd51f-cce2-44fd-969a-dd41fd7ffb03"},"vehicle_type_id":"4","last_reported":1701781842,"current_range_meters":6000,"station_id":"ce4bha12rcd13ifvqef0","pricing_plan_id":"free"},{"bike_id":"aa0c7e47-a3fb-42c6-8685-aca57c0a215f","system_id":"levelo_inurba_marseille","lat":43.29041,"lon":5.399634,"is_reserved":false,"is_disabled":false,"rental_uris":{"android":"levelo://app?vid=aa0c7e47-a3fb-42c6-8685-aca57c0a215f","ios":"levelo://app?vid=aa0c7e47-a3fb-42c6-8685-aca57c0a215f"},"vehicle_type_id":"4","last_reported":1701781842,"current_range_meters":0,"station_id":"ce4bh392rcd13ifvqdm0","pricing_plan_id":"free"},{"bike_id":"50cd4667-6913-40ed-963d-8600884e3671","system_id":"levelo_inurba_marseille","lat":43.281044,"lon":5.378308,"is_reserved":false,"is_disabled":false,"rental_uris":{"android":"levelo://app?vid=50cd4667-6913-40ed-963d-8600884e3671","ios":"levelo://app?vid=50cd4667-6913-40ed-963d-8600884e3671"},"vehicle_type_id":"4","last_reported":1701781842,"current_range_meters":25600,"station_id":"ce4bha12rcd13ifvqee0","pricing_plan_id":"free"},{"bike_id":"0505417b-f320-4149-9ba1-8bef61495364","system_id":"levelo_inurba_marseille","lat":43.285742,"lon":5.395004,"is_reserved":false,"is_disabled":false,"rental_uris":{"android":"levelo://app?vid=0505417b-f320-4149-9ba1-8bef61495364","ios":"levelo://app?vid=0505417b-f320-4149-9ba1-8bef61495364"},"vehicle_type_id":"4","last_reported":1701781842,"current_range_meters":25200,"station_id":"ce4bh292rcd13ifvqdg0","pricing_plan_id":"free"},{"bike_id":"efb5fe83-e3e3-4add-8540-6e61e1a847bb","system_id":"levelo_inurba_marseille","lat":43.3266,"lon":5.40981,"is_reserved":false,"is_disabled":false,"rental_uris":{"android":"levelo://app?vid=efb5fe83-e3e3-4add-8540-6e61e1a847bb","ios":"levelo://app?vid=efb5fe83-e3e3-4add-8540-6e61e1a847bb"},"vehicle_type_id":"4","last_reported":1701781842,"current_range_meters":24000,"station_id":"ce4bhpp2rcd13ifvqhgg","pricing_plan_id":"free"},{"bike_id":"fc0f01ba-69ed-479b-9e65-f39483a15901","system_id":"levelo_inurba_marseille","lat":43.326605,"lon":5.409903,"is_reserved":false,"is_disabled":false,"rental_uris":{"android":"levelo://app?vid=fc0f01ba-69ed-479b-9e65-f39483a15901","ios":"levelo://app?vid=fc0f01ba-69ed-479b-9e65-f39483a15901"},"vehicle_type_id":"4","last_reported":1701781842,"current_range_meters":25200,"station_id":"ce4bhpp2rcd13ifvqhgg","pricing_plan_id":"free"},{"bike_id":"be2777a6-ea6e-46dd-bb90-1098e5347070","system_id":"levelo_inurba_marseille","lat":43.326605,"lon":5.409903,"is_reserved":false,"is_disabled":false,"rental_uris":{"android":"levelo://app?vid=be2777a6-ea6e-46dd-bb90-1098e5347070","ios":"levelo://app?vid=be2777a6-ea6e-46dd-bb90-1098e5347070"},"vehicle_type_id":"4","last_reported":1701781842,"current_range_meters":26800,"station_id":"ce4bhpp2rcd13ifvqhgg","pricing_plan_id":"free"},{"bike_id":"876d825d-f1ec-4536-a5f9-fcc306417330","system_id":"levelo_inurba_marseille","lat":43.326605,"lon":5.409903,"is_reserved":false,"is_disabled":false,"rental_uris":{"android":"levelo://app?vid=876d825d-f1ec-4536-a5f9-fcc306417330","ios":"levelo://app?vid=876d825d-f1ec-4536-a5f9-fcc306417330"},"vehicle_type_id":"4","last_reported":1701781842,"current_range_meters":19600,"station_id":"ce4bhpp2rcd13ifvqhgg","pricing_plan_id":"free"},{"bike_id":"2039eed6-1d0c-44fe-9940-0fd558c850cb","system_id":"levelo_inurba_marseille","lat":43.326605,"lon":5.409903,"is_reserved":false,"is_disabled":false,"rental_uris":{"android":"levelo://app?vid=2039eed6-1d0c-44fe-9940-0fd558c850cb","ios":"levelo://app?vid=2039eed6-1d0c-44fe-9940-0fd558c850cb"},"vehicle_type_id":"4","last_reported":1701781842,"current_range_meters":22800,"station_id":"ce4bhpp2rcd13ifvqhgg","pricing_plan_id":"free"},{"bike_id":"f98eb9e4-5fdc-4141-b98b-ce396fedd7e2","system_id":"levelo_inurba_marseille","lat":43.304188,"lon":5.412904,"is_reserved":false,"is_disabled":false,"rental_uris":{"android":"levelo://app?vid=f98eb9e4-5fdc-4141-b98b-ce396fedd7e2","ios":"levelo://app?vid=f98eb9e4-5fdc-4141-b98b-ce396fedd7e2"},"vehicle_type_id":"4","last_reported":1701781842,"current_range_meters":25600,"station_id":"ce4bhop2rcd13ifvqh8g","pricing_plan_id":"free"},{"bike_id":"b469198c-9eb9-4da4-842b-32419ecc279b","system_id":"levelo_inurba_marseille","lat":43.287154,"lon":5.399979,"is_reserved":false,"is_disabled":false,"rental_uris":{"android":"levelo://app?vid=b469198c-9eb9-4da4-842b-32419ecc279b","ios":"levelo://app?vid=b469198c-9eb9-4da4-842b-32419ecc279b"},"vehicle_type_id":"4","last_reported":1701781842,"current_range_meters":8000,"station_id":"ce4bho92rcd13ifvqh3g","pricing_plan_id":"free"},{"bike_id":"816484e6-6ee5-4bae-bcbe-1325378d868e","system_id":"levelo_inurba_marseille","lat":43.292571,"lon":5.409107,"is_reserved":false,"is_disabled":false,"rental_uris":{"android":"levelo://app?vid=816484e6-6ee5-4bae-bcbe-1325378d868e","ios":"levelo://app?vid=816484e6-6ee5-4bae-bcbe-1325378d868e"},"vehicle_type_id":"4","last_reported":1701781842,"current_range_meters":21200,"station_id":"ce4bh192rcd13ifvqdc0","pricing_plan_id":"free"},{"bike_id":"a7d7646d-a533-4eba-8285-55642225e828","system_id":"levelo_inurba_marseille","lat":43.292569,"lon":5.409107,"is_reserved":false,"is_disabled":false,"rental_uris":{"android":"levelo://app?vid=a7d7646d-a533-4eba-8285-55642225e828","ios":"levelo://app?vid=a7d7646d-a533-4eba-8285-55642225e828"},"vehicle_type_id":"4","last_reported":1701781842,"current_range_meters":28400,"station_id":"ce4bh192rcd13ifvqdc0","pricing_plan_id":"free"},{"bike_id":"afc4c634-a414-4fc5-949d-c79bae18661c","system_id":"levelo_inurba_marseille","lat":43.292569,"lon":5.409107,"is_reserved":false,"is_disabled":false,"rental_uris":{"android":"levelo://app?vid=afc4c634-a414-4fc5-949d-c79bae18661c","ios":"levelo://app?vid=afc4c634-a414-4fc5-949d-c79bae18661c"},"vehicle_type_id":"4","last_reported":1701781842,"current_range_meters":23200,"station_id":"ce4bh192rcd13ifvqdc0","pricing_plan_id":"free"},{"bike_id":"0633faae-0fc7-4c9a-809e-c56d9334ba2f","system_id":"levelo_inurba_marseille","lat":43.278401,"lon":5.392152,"is_reserved":false,"is_disabled":false,"rental_uris":{"android":"levelo://app?vid=0633faae-0fc7-4c9a-809e-c56d9334ba2f","ios":"levelo://app?vid=0633faae-0fc7-4c9a-809e-c56d9334ba2f"},"vehicle_type_id":"4","last_reported":1701781842,"current_range_meters":11200,"station_id":"ce4bhjp2rcd13ifvqga0","pricing_plan_id":"free"},{"bike_id":"1258299f-d7e4-429c-a530-9c376d622f15","system_id":"levelo_inurba_marseille","lat":43.33612,"lon":5.410321,"is_reserved":false,"is_disabled":false,"rental_uris":{"android":"levelo://app?vid=1258299f-d7e4-429c-a530-9c376d622f15","ios":"levelo://app?vid=1258299f-d7e4-429c-a530-9c376d622f15"},"vehicle_type_id":"4","last_reported":1701781842,"current_range_meters":31600,"station_id":"ce4bhqh2rcd13ifvqhmg","pricing_plan_id":"free"},{"bike_id":"239677c5-ab07-41df-8420-20952dd103ca","system_id":"levelo_inurba_marseille","lat":43.27567,"lon":5.3843,"is_reserved":false,"is_disabled":false,"rental_uris":{"android":"levelo://app?vid=239677c5-ab07-41df-8420-20952dd103ca","ios":"levelo://app?vid=239677c5-ab07-41df-8420-20952dd103ca"},"vehicle_type_id":"4","last_reported":1701781842,"current_range_meters":27200,"station_id":"ce4bhh92rcd13ifvqfi0","pricing_plan_id":"free"},{"bike_id":"671fb5f1-2a82-4780-a5b0-30c24b7c7c9c","system_id":"levelo_inurba_marseille","lat":43.336049,"lon":5.410215,"is_reserved":false,"is_disabled":false,"rental_uris":{"android":"levelo://app?vid=671fb5f1-2a82-4780-a5b0-30c24b7c7c9c","ios":"levelo://app?vid=671fb5f1-2a82-4780-a5b0-30c24b7c7c9c"},"vehicle_type_id":"4","last_reported":1701781842,"current_range_meters":30800,"station_id":"ce4bhqh2rcd13ifvqhmg","pricing_plan_id":"free"},{"bike_id":"8a47b020-aa5b-4cc3-8211-b16e6ca47a88","system_id":"levelo_inurba_marseille","lat":43.336148,"lon":5.410349,"is_reserved":false,"is_disabled":false,"rental_uris":{"android":"levelo://app?vid=8a47b020-aa5b-4cc3-8211-b16e6ca47a88","ios":"levelo://app?vid=8a47b020-aa5b-4cc3-8211-b16e6ca47a88"},"vehicle_type_id":"4","last_reported":1701781842,"current_range_meters":10000,"station_id":"ce4bhqh2rcd13ifvqhmg","pricing_plan_id":"free"},{"bike_id":"4e82e8fe-efe4-4055-9952-cf9ff8ef7567","system_id":"levelo_inurba_marseille","lat":43.33612,"lon":5.410321,"is_reserved":false,"is_disabled":false,"rental_uris":{"android":"levelo://app?vid=4e82e8fe-efe4-4055-9952-cf9ff8ef7567","ios":"levelo://app?vid=4e82e8fe-efe4-4055-9952-cf9ff8ef7567"},"vehicle_type_id":"4","last_reported":1701781842,"current_range_meters":18000,"station_id":"ce4bhqh2rcd13ifvqhmg","pricing_plan_id":"free"},{"bike_id":"6dee21f9-0077-4751-a68d-f121846d4b85","system_id":"levelo_inurba_marseille","lat":43.336134,"lon":5.410341,"is_reserved":false,"is_disabled":false,"rental_uris":{"android":"levelo://app?vid=6dee21f9-0077-4751-a68d-f121846d4b85","ios":"levelo://app?vid=6dee21f9-0077-4751-a68d-f121846d4b85"},"vehicle_type_id":"4","last_reported":1701781842,"current_range_meters":10400,"station_id":"ce4bhqh2rcd13ifvqhmg","pricing_plan_id":"free"},{"bike_id":"10e3306f-3484-4730-b241-cea924fb3668","system_id":"levelo_inurba_marseille","lat":43.33612,"lon":5.410321,"is_reserved":false,"is_disabled":false,"rental_uris":{"android":"levelo://app?vid=10e3306f-3484-4730-b241-cea924fb3668","ios":"levelo://app?vid=10e3306f-3484-4730-b241-cea924fb3668"},"vehicle_type_id":"4","last_reported":1701781842,"current_range_meters":19200,"station_id":"ce4bhqh2rcd13ifvqhmg","pricing_plan_id":"free"},{"bike_id":"d5223aaa-c834-4716-a7bc-da1240ce7714","system_id":"levelo_inurba_marseille","lat":43.336134,"lon":5.410341,"is_reserved":false,"is_disabled":false,"rental_uris":{"android":"levelo://app?vid=d5223aaa-c834-4716-a7bc-da1240ce7714","ios":"levelo://app?vid=d5223aaa-c834-4716-a7bc-da1240ce7714"},"vehicle_type_id":"4","last_reported":1701781842,"current_range_meters":16400,"station_id":"ce4bhqh2rcd13ifvqhmg","pricing_plan_id":"free"},{"bike_id":"15658610-2637-4193-bc7a-1682528f62e8","system_id":"levelo_inurba_marseille","lat":43.276771,"lon":5.388799,"is_reserved":false,"is_disabled":false,"rental_uris":{"android":"levelo://app?vid=15658610-2637-4193-bc7a-1682528f62e8","ios":"levelo://app?vid=15658610-2637-4193-bc7a-1682528f62e8"},"vehicle_type_id":"4","last_reported":1701781842,"current_range_meters":24400,"station_id":"ce4bhi12rcd13ifvqfo0","pricing_plan_id":"free"},{"bike_id":"3b5c90d6-7f62-401f-a31f-ef6443b131bd","system_id":"levelo_inurba_marseille","lat":43.276769,"lon":5.388787,"is_reserved":false,"is_disabled":false,"rental_uris":{"android":"levelo://app?vid=3b5c90d6-7f62-401f-a31f-ef6443b131bd","ios":"levelo://app?vid=3b5c90d6-7f62-401f-a31f-ef6443b131bd"},"vehicle_type_id":"4","last_reported":1701781842,"current_range_meters":1600,"station_id":"ce4bhi12rcd13ifvqfo0","pricing_plan_id":"free"},{"bike_id":"c3dc7daf-ae0e-46f2-8881-274bdde6dc20","system_id":"levelo_inurba_marseille","lat":43.276771,"lon":5.388799,"is_reserved":false,"is_disabled":false,"rental_uris":{"android":"levelo://app?vid=c3dc7daf-ae0e-46f2-8881-274bdde6dc20","ios":"levelo://app?vid=c3dc7daf-ae0e-46f2-8881-274bdde6dc20"},"vehicle_type_id":"4","last_reported":1701781842,"current_range_meters":23200,"station_id":"ce4bhi12rcd13ifvqfo0","pricing_plan_id":"free"},{"bike_id":"7bc4c53c-a963-4b87-b83a-b045984682ce","system_id":"levelo_inurba_marseille","lat":43.276771,"lon":5.388799,"is_reserved":false,"is_disabled":false,"rental_uris":{"android":"levelo://app?vid=7bc4c53c-a963-4b87-b83a-b045984682ce","ios":"levelo://app?vid=7bc4c53c-a963-4b87-b83a-b045984682ce"},"vehicle_type_id":"4","last_reported":1701781842,"current_range_meters":24400,"station_id":"ce4bhi12rcd13ifvqfo0","pricing_plan_id":"free"},{"bike_id":"a9e9906d-1d07-4052-b1db-a806b8e7c813","system_id":"levelo_inurba_marseille","lat":43.279975,"lon":5.40009,"is_reserved":false,"is_disabled":false,"rental_uris":{"android":"levelo://app?vid=a9e9906d-1d07-4052-b1db-a806b8e7c813","ios":"levelo://app?vid=a9e9906d-1d07-4052-b1db-a806b8e7c813"},"vehicle_type_id":"4","last_reported":1701781842,"current_range_meters":18000,"station_id":"ce4bho92rcd13ifvqh4g","pricing_plan_id":"free"},{"bike_id":"8834434a-9c82-4d22-8468-bc4bfcddaa52","system_id":"levelo_inurba_marseille","lat":43.310785,"lon":5.424305,"is_reserved":false,"is_disabled":false,"rental_uris":{"android":"levelo://app?vid=8834434a-9c82-4d22-8468-bc4bfcddaa52","ios":"levelo://app?vid=8834434a-9c82-4d22-8468-bc4bfcddaa52"},"vehicle_type_id":"4","last_reported":1701781842,"current_range_meters":24400,"station_id":"ce4bhp92rcd13ifvqhag","pricing_plan_id":"free"},{"bike_id":"dc017e15-f028-4e52-802e-a3b27de32ccc","system_id":"levelo_inurba_marseille","lat":43.310785,"lon":5.424305,"is_reserved":false,"is_disabled":false,"rental_uris":{"android":"levelo://app?vid=dc017e15-f028-4e52-802e-a3b27de32ccc","ios":"levelo://app?vid=dc017e15-f028-4e52-802e-a3b27de32ccc"},"vehicle_type_id":"4","last_reported":1701781842,"current_range_meters":25600,"station_id":"ce4bhp92rcd13ifvqhag","pricing_plan_id":"free"},{"bike_id":"2b4b5227-7f75-4606-8538-80a8d3038e52","system_id":"levelo_inurba_marseille","lat":43.34137,"lon":5.40899,"is_reserved":false,"is_disabled":false,"rental_uris":{"android":"levelo://app?vid=2b4b5227-7f75-4606-8538-80a8d3038e52","ios":"levelo://app?vid=2b4b5227-7f75-4606-8538-80a8d3038e52"},"vehicle_type_id":"4","last_reported":1701781842,"current_range_meters":22800,"station_id":"ce4bhqh2rcd13ifvqhlg","pricing_plan_id":"free"},{"bike_id":"4f4e5d52-124e-4276-8af2-2d2503944d2e","system_id":"levelo_inurba_marseille","lat":43.341401,"lon":5.408975,"is_reserved":false,"is_disabled":false,"rental_uris":{"android":"levelo://app?vid=4f4e5d52-124e-4276-8af2-2d2503944d2e","ios":"levelo://app?vid=4f4e5d52-124e-4276-8af2-2d2503944d2e"},"vehicle_type_id":"4","last_reported":1701781842,"current_range_meters":31200,"station_id":"ce4bhqh2rcd13ifvqhlg","pricing_plan_id":"free"},{"bike_id":"c5e2d489-64a7-4b1d-90c3-714ee1643fb3","system_id":"levelo_inurba_marseille","lat":43.340804,"lon":5.410219,"is_reserved":false,"is_disabled":false,"rental_uris":{"android":"levelo://app?vid=c5e2d489-64a7-4b1d-90c3-714ee1643fb3","ios":"levelo://app?vid=c5e2d489-64a7-4b1d-90c3-714ee1643fb3"},"vehicle_type_id":"4","last_reported":1701781842,"current_range_meters":29200,"station_id":"ce4bhqh2rcd13ifvqhlg","pricing_plan_id":"free"},{"bike_id":"16157153-85f0-4b89-ba4e-76c2768de1a5","system_id":"levelo_inurba_marseille","lat":43.34141,"lon":5.40918,"is_reserved":false,"is_disabled":false,"rental_uris":{"android":"levelo://app?vid=16157153-85f0-4b89-ba4e-76c2768de1a5","ios":"levelo://app?vid=16157153-85f0-4b89-ba4e-76c2768de1a5"},"vehicle_type_id":"4","last_reported":1701781842,"current_range_meters":30400,"station_id":"ce4bhqh2rcd13ifvqhlg","pricing_plan_id":"free"},{"bike_id":"910fd3aa-d2e0-4553-894a-6161d41c7fcd","system_id":"levelo_inurba_marseille","lat":43.275739,"lon":5.395344,"is_reserved":false,"is_disabled":false,"rental_uris":{"android":"levelo://app?vid=910fd3aa-d2e0-4553-894a-6161d41c7fcd","ios":"levelo://app?vid=910fd3aa-d2e0-4553-894a-6161d41c7fcd"},"vehicle_type_id":"4","last_reported":1701781842,"current_range_meters":6000,"station_id":"","pricing_plan_id":"free"},{"bike_id":"e8635d6b-c89d-4686-a546-6ae53756c9bc","system_id":"levelo_inurba_marseille","lat":43.304096,"lon":5.425385,"is_reserved":false,"is_disabled":false,"rental_uris":{"android":"levelo://app?vid=e8635d6b-c89d-4686-a546-6ae53756c9bc","ios":"levelo://app?vid=e8635d6b-c89d-4686-a546-6ae53756c9bc"},"vehicle_type_id":"4","last_reported":1701781842,"current_range_meters":21200,"station_id":"ce4bhoh2rcd13ifvqh6g","pricing_plan_id":"free"},{"bike_id":"859d7ec7-684f-4249-96cc-164a9ac7874a","system_id":"levelo_inurba_marseille","lat":43.304096,"lon":5.425385,"is_reserved":false,"is_disabled":false,"rental_uris":{"android":"levelo://app?vid=859d7ec7-684f-4249-96cc-164a9ac7874a","ios":"levelo://app?vid=859d7ec7-684f-4249-96cc-164a9ac7874a"},"vehicle_type_id":"4","last_reported":1701781842,"current_range_meters":22000,"station_id":"ce4bhoh2rcd13ifvqh6g","pricing_plan_id":"free"},{"bike_id":"6b1e9140-7af3-4671-93c4-d7b03c10a75d","system_id":"levelo_inurba_marseille","lat":43.304088,"lon":5.425388,"is_reserved":false,"is_disabled":false,"rental_uris":{"android":"levelo://app?vid=6b1e9140-7af3-4671-93c4-d7b03c10a75d","ios":"levelo://app?vid=6b1e9140-7af3-4671-93c4-d7b03c10a75d"},"vehicle_type_id":"4","last_reported":1701781842,"current_range_meters":23200,"station_id":"ce4bhoh2rcd13ifvqh6g","pricing_plan_id":"free"},{"bike_id":"44b7e749-26e2-4b57-bc9c-9a6ffa54d913","system_id":"levelo_inurba_marseille","lat":43.295511,"lon":5.422926,"is_reserved":false,"is_disabled":false,"rental_uris":{"android":"levelo://app?vid=44b7e749-26e2-4b57-bc9c-9a6ffa54d913","ios":"levelo://app?vid=44b7e749-26e2-4b57-bc9c-9a6ffa54d913"},"vehicle_type_id":"4","last_reported":1701781842,"current_range_meters":4400,"station_id":"ce4bhph2rcd13ifvqhdg","pricing_plan_id":"free"},{"bike_id":"244b2fb6-047a-4a4d-9b63-87c6ac9546c2","system_id":"levelo_inurba_marseille","lat":43.272116,"lon":5.391747,"is_reserved":false,"is_disabled":false,"rental_uris":{"android":"levelo://app?vid=244b2fb6-047a-4a4d-9b63-87c6ac9546c2","ios":"levelo://app?vid=244b2fb6-047a-4a4d-9b63-87c6ac9546c2"},"vehicle_type_id":"4","last_reported":1701781842,"current_range_meters":7200,"station_id":"ce4bhhp2rcd13ifvqfm0","pricing_plan_id":"free"},{"bike_id":"4aaafaa4-5992-4d41-aca4-45ea537c3e9e","system_id":"levelo_inurba_marseille","lat":43.27214,"lon":5.3925,"is_reserved":false,"is_disabled":false,"rental_uris":{"android":"levelo://app?vid=4aaafaa4-5992-4d41-aca4-45ea537c3e9e","ios":"levelo://app?vid=4aaafaa4-5992-4d41-aca4-45ea537c3e9e"},"vehicle_type_id":"4","last_reported":1701781842,"current_range_meters":16800,"station_id":"","pricing_plan_id":"free"},{"bike_id":"c4b50c76-24de-4d0d-9f08-665fe921ed4e","system_id":"levelo_inurba_marseille","lat":43.278128,"lon":5.407195,"is_reserved":false,"is_disabled":false,"rental_uris":{"android":"levelo://app?vid=c4b50c76-24de-4d0d-9f08-665fe921ed4e","ios":"levelo://app?vid=c4b50c76-24de-4d0d-9f08-665fe921ed4e"},"vehicle_type_id":"4","last_reported":1701781842,"current_range_meters":25600,"station_id":"ce4bhnh2rcd13ifvqgtg","pricing_plan_id":"free"},{"bike_id":"13643171-fc4f-42a5-9949-27ae7af98f15","system_id":"levelo_inurba_marseille","lat":43.278128,"lon":5.407195,"is_reserved":false,"is_disabled":false,"rental_uris":{"android":"levelo://app?vid=13643171-fc4f-42a5-9949-27ae7af98f15","ios":"levelo://app?vid=13643171-fc4f-42a5-9949-27ae7af98f15"},"vehicle_type_id":"4","last_reported":1701781842,"current_range_meters":6800,"station_id":"ce4bhnh2rcd13ifvqgtg","pricing_plan_id":"free"},{"bike_id":"6c08837d-6529-4283-baf4-4146e78d24d2","system_id":"levelo_inurba_marseille","lat":43.27953,"lon":5.4106,"is_reserved":false,"is_disabled":false,"rental_uris":{"android":"levelo://app?vid=6c08837d-6529-4283-baf4-4146e78d24d2","ios":"levelo://app?vid=6c08837d-6529-4283-baf4-4146e78d24d2"},"vehicle_type_id":"4","last_reported":1701781842,"current_range_meters":6800,"station_id":"ce4bhnp2rcd13ifvqh0g","pricing_plan_id":"free"},{"bike_id":"7a9bc1c5-da38-4458-adf7-0306aad57f41","system_id":"levelo_inurba_marseille","lat":43.26681,"lon":5.382694,"is_reserved":false,"is_disabled":false,"rental_uris":{"android":"levelo://app?vid=7a9bc1c5-da38-4458-adf7-0306aad57f41","ios":"levelo://app?vid=7a9bc1c5-da38-4458-adf7-0306aad57f41"},"vehicle_type_id":"4","last_reported":1701781842,"current_range_meters":28000,"station_id":"ce4bhg92rcd13ifvqf90","pricing_plan_id":"free"},{"bike_id":"17db11e9-ff6b-4265-a772-9fca0f8a787a","system_id":"levelo_inurba_marseille","lat":43.27522,"lon":5.40927,"is_reserved":false,"is_disabled":false,"rental_uris":{"android":"levelo://app?vid=17db11e9-ff6b-4265-a772-9fca0f8a787a","ios":"levelo://app?vid=17db11e9-ff6b-4265-a772-9fca0f8a787a"},"vehicle_type_id":"4","last_reported":1701781842,"current_range_meters":6800,"station_id":"","pricing_plan_id":"free"},{"bike_id":"208d1e5f-6282-468d-8a38-a4e10f53f922","system_id":"levelo_inurba_marseille","lat":43.267966,"lon":5.393976,"is_reserved":false,"is_disabled":false,"rental_uris":{"android":"levelo://app?vid=208d1e5f-6282-468d-8a38-a4e10f53f922","ios":"levelo://app?vid=208d1e5f-6282-468d-8a38-a4e10f53f922"},"vehicle_type_id":"4","last_reported":1701781842,"current_range_meters":22800,"station_id":"ce4bhh12rcd13ifvqfg0","pricing_plan_id":"free"},{"bike_id":"16d4dd84-8158-43e3-81e1-ba6b0a64712e","system_id":"levelo_inurba_marseille","lat":43.265714,"lon":5.372891,"is_reserved":false,"is_disabled":false,"rental_uris":{"android":"levelo://app?vid=16d4dd84-8158-43e3-81e1-ba6b0a64712e","ios":"levelo://app?vid=16d4dd84-8158-43e3-81e1-ba6b0a64712e"},"vehicle_type_id":"4","last_reported":1701781842,"current_range_meters":24000,"station_id":"ce4bhg12rcd13ifvqf70","pricing_plan_id":"free"},{"bike_id":"2d3af368-a0cd-4057-b288-1d2c030d1425","system_id":"levelo_inurba_marseille","lat":43.267966,"lon":5.393976,"is_reserved":false,"is_disabled":false,"rental_uris":{"android":"levelo://app?vid=2d3af368-a0cd-4057-b288-1d2c030d1425","ios":"levelo://app?vid=2d3af368-a0cd-4057-b288-1d2c030d1425"},"vehicle_type_id":"4","last_reported":1701781842,"current_range_meters":16400,"station_id":"ce4bhh12rcd13ifvqfg0","pricing_plan_id":"free"},{"bike_id":"4aa30631-4fb2-490b-a377-d1465ef7f42f","system_id":"levelo_inurba_marseille","lat":43.26565,"lon":5.39009,"is_reserved":false,"is_disabled":false,"rental_uris":{"android":"levelo://app?vid=4aa30631-4fb2-490b-a377-d1465ef7f42f","ios":"levelo://app?vid=4aa30631-4fb2-490b-a377-d1465ef7f42f"},"vehicle_type_id":"4","last_reported":1701781842,"current_range_meters":3600,"station_id":"ce4bhe12rcd13ifvqf30","pricing_plan_id":"free"},{"bike_id":"f46c6dd2-71b0-4e0c-bcf9-3ac341b75700","system_id":"levelo_inurba_marseille","lat":43.265483,"lon":5.39056,"is_reserved":false,"is_disabled":false,"rental_uris":{"android":"levelo://app?vid=f46c6dd2-71b0-4e0c-bcf9-3ac341b75700","ios":"levelo://app?vid=f46c6dd2-71b0-4e0c-bcf9-3ac341b75700"},"vehicle_type_id":"4","last_reported":1701781842,"current_range_meters":0,"station_id":"ce4bhe12rcd13ifvqf30","pricing_plan_id":"free"},{"bike_id":"893b2ac6-4c6b-4863-9ca8-ac20559a7a5d","system_id":"levelo_inurba_marseille","lat":43.271368,"lon":5.40928,"is_reserved":false,"is_disabled":false,"rental_uris":{"android":"levelo://app?vid=893b2ac6-4c6b-4863-9ca8-ac20559a7a5d","ios":"levelo://app?vid=893b2ac6-4c6b-4863-9ca8-ac20559a7a5d"},"vehicle_type_id":"4","last_reported":1701781842,"current_range_meters":26800,"station_id":"ce4bhl12rcd13ifvqgf0","pricing_plan_id":"free"},{"bike_id":"4a48eb7c-8d80-4ae6-b3fa-a91a98657f3c","system_id":"levelo_inurba_marseille","lat":43.267959,"lon":5.402685,"is_reserved":false,"is_disabled":false,"rental_uris":{"android":"levelo://app?vid=4a48eb7c-8d80-4ae6-b3fa-a91a98657f3c","ios":"levelo://app?vid=4a48eb7c-8d80-4ae6-b3fa-a91a98657f3c"},"vehicle_type_id":"4","last_reported":1701781842,"current_range_meters":2000,"station_id":"ce501612rcd8frsf0b60","pricing_plan_id":"free"},{"bike_id":"832bbf83-f612-426a-a9a9-4ed9c874c863","system_id":"levelo_inurba_marseille","lat":43.267959,"lon":5.402687,"is_reserved":false,"is_disabled":false,"rental_uris":{"android":"levelo://app?vid=832bbf83-f612-426a-a9a9-4ed9c874c863","ios":"levelo://app?vid=832bbf83-f612-426a-a9a9-4ed9c874c863"},"vehicle_type_id":"4","last_reported":1701781842,"current_range_meters":28400,"station_id":"ce501612rcd8frsf0b60","pricing_plan_id":"free"},{"bike_id":"c54cd023-a6f2-4d68-aabc-4be9f862ccbb","system_id":"levelo_inurba_marseille","lat":43.298768,"lon":5.43643,"is_reserved":false,"is_disabled":false,"rental_uris":{"android":"levelo://app?vid=c54cd023-a6f2-4d68-aabc-4be9f862ccbb","ios":"levelo://app?vid=c54cd023-a6f2-4d68-aabc-4be9f862ccbb"},"vehicle_type_id":"4","last_reported":1701781842,"current_range_meters":30400,"station_id":"ce4bhpp2rcd13ifvqhfg","pricing_plan_id":"free"},{"bike_id":"d62599d1-0e34-4f31-a5c2-b338ebfc86b7","system_id":"levelo_inurba_marseille","lat":43.281548,"lon":5.42643,"is_reserved":false,"is_disabled":false,"rental_uris":{"android":"levelo://app?vid=d62599d1-0e34-4f31-a5c2-b338ebfc86b7","ios":"levelo://app?vid=d62599d1-0e34-4f31-a5c2-b338ebfc86b7"},"vehicle_type_id":"4","last_reported":1701781842,"current_range_meters":30400,"station_id":"ce4bhnh2rcd13ifvqgug","pricing_plan_id":"free"},{"bike_id":"c6f044ff-789e-4833-ab97-b5bb5727e969","system_id":"levelo_inurba_marseille","lat":43.281548,"lon":5.42643,"is_reserved":false,"is_disabled":false,"rental_uris":{"android":"levelo://app?vid=c6f044ff-789e-4833-ab97-b5bb5727e969","ios":"levelo://app?vid=c6f044ff-789e-4833-ab97-b5bb5727e969"},"vehicle_type_id":"4","last_reported":1701781842,"current_range_meters":21200,"station_id":"ce4bhnh2rcd13ifvqgug","pricing_plan_id":"free"},{"bike_id":"9cf0bb24-deeb-4ace-b255-3d4b5d796cdf","system_id":"levelo_inurba_marseille","lat":43.2479,"lon":5.374457,"is_reserved":false,"is_disabled":false,"rental_uris":{"android":"levelo://app?vid=9cf0bb24-deeb-4ace-b255-3d4b5d796cdf","ios":"levelo://app?vid=9cf0bb24-deeb-4ace-b255-3d4b5d796cdf"},"vehicle_type_id":"4","last_reported":1701781842,"current_range_meters":30400,"station_id":"ce4bhgh2rcd13ifvqfb0","pricing_plan_id":"free"},{"bike_id":"328f1217-3a92-45d4-927a-846967f402bf","system_id":"levelo_inurba_marseille","lat":43.2607,"lon":5.393983,"is_reserved":false,"is_disabled":false,"rental_uris":{"android":"levelo://app?vid=328f1217-3a92-45d4-927a-846967f402bf","ios":"levelo://app?vid=328f1217-3a92-45d4-927a-846967f402bf"},"vehicle_type_id":"4","last_reported":1701781842,"current_range_meters":10400,"station_id":"ce4bhh92rcd13ifvqfj0","pricing_plan_id":"free"},{"bike_id":"93da9e28-965a-4b5c-8286-be3708316f04","system_id":"levelo_inurba_marseille","lat":43.275028,"lon":5.424534,"is_reserved":false,"is_disabled":false,"rental_uris":{"android":"levelo://app?vid=93da9e28-965a-4b5c-8286-be3708316f04","ios":"levelo://app?vid=93da9e28-965a-4b5c-8286-be3708316f04"},"vehicle_type_id":"4","last_reported":1701781842,"current_range_meters":31200,"station_id":"ce4bhn92rcd13ifvqgrg","pricing_plan_id":"free"},{"bike_id":"691b9079-0770-43af-aa83-f2290bca892b","system_id":"levelo_inurba_marseille","lat":43.255756,"lon":5.382303,"is_reserved":false,"is_disabled":false,"rental_uris":{"android":"levelo://app?vid=691b9079-0770-43af-aa83-f2290bca892b","ios":"levelo://app?vid=691b9079-0770-43af-aa83-f2290bca892b"},"vehicle_type_id":"4","last_reported":1701781842,"current_range_meters":24400,"station_id":"ce4bhih2rcd13ifvqfs0","pricing_plan_id":"free"},{"bike_id":"8fd00fe8-be8f-47e5-8787-f2091c48ddd8","system_id":"levelo_inurba_marseille","lat":43.255756,"lon":5.382303,"is_reserved":false,"is_disabled":false,"rental_uris":{"android":"levelo://app?vid=8fd00fe8-be8f-47e5-8787-f2091c48ddd8","ios":"levelo://app?vid=8fd00fe8-be8f-47e5-8787-f2091c48ddd8"},"vehicle_type_id":"4","last_reported":1701781842,"current_range_meters":16800,"station_id":"ce4bhih2rcd13ifvqfs0","pricing_plan_id":"free"},{"bike_id":"0c8af203-d673-474c-840b-33000aa98c3d","system_id":"levelo_inurba_marseille","lat":43.255756,"lon":5.382303,"is_reserved":false,"is_disabled":false,"rental_uris":{"android":"levelo://app?vid=0c8af203-d673-474c-840b-33000aa98c3d","ios":"levelo://app?vid=0c8af203-d673-474c-840b-33000aa98c3d"},"vehicle_type_id":"4","last_reported":1701781842,"current_range_meters":22000,"station_id":"ce4bhih2rcd13ifvqfs0","pricing_plan_id":"free"},{"bike_id":"4ed36cc1-a2c5-4e7b-a549-264d22bcef2d","system_id":"levelo_inurba_marseille","lat":43.259013,"lon":5.409301,"is_reserved":false,"is_disabled":false,"rental_uris":{"android":"levelo://app?vid=4ed36cc1-a2c5-4e7b-a549-264d22bcef2d","ios":"levelo://app?vid=4ed36cc1-a2c5-4e7b-a549-264d22bcef2d"},"vehicle_type_id":"4","last_reported":1701781842,"current_range_meters":6400,"station_id":"ce4bhm92rcd13ifvqglg","pricing_plan_id":"free"},{"bike_id":"0c5dd37f-06ef-4b2a-8f04-7e748e11872f","system_id":"levelo_inurba_marseille","lat":43.257275,"lon":5.411074,"is_reserved":false,"is_disabled":false,"rental_uris":{"android":"levelo://app?vid=0c5dd37f-06ef-4b2a-8f04-7e748e11872f","ios":"levelo://app?vid=0c5dd37f-06ef-4b2a-8f04-7e748e11872f"},"vehicle_type_id":"4","last_reported":1701781842,"current_range_meters":18400,"station_id":"ce4bhkp2rcd13ifvqgd0","pricing_plan_id":"free"},{"bike_id":"6d89ba26-a018-4503-8bc7-0e2707c2382b","system_id":"levelo_inurba_marseille","lat":43.25722,"lon":5.41105,"is_reserved":false,"is_disabled":false,"rental_uris":{"android":"levelo://app?vid=6d89ba26-a018-4503-8bc7-0e2707c2382b","ios":"levelo://app?vid=6d89ba26-a018-4503-8bc7-0e2707c2382b"},"vehicle_type_id":"4","last_reported":1701781842,"current_range_meters":4800,"station_id":"ce4bhkp2rcd13ifvqgd0","pricing_plan_id":"free"},{"bike_id":"908b18e5-f3a0-4189-9b52-ad5820ca1297","system_id":"levelo_inurba_marseille","lat":43.25721,"lon":5.41108,"is_reserved":false,"is_disabled":false,"rental_uris":{"android":"levelo://app?vid=908b18e5-f3a0-4189-9b52-ad5820ca1297","ios":"levelo://app?vid=908b18e5-f3a0-4189-9b52-ad5820ca1297"},"vehicle_type_id":"4","last_reported":1701781842,"current_range_meters":12800,"station_id":"ce4bhkp2rcd13ifvqgd0","pricing_plan_id":"free"},{"bike_id":"3e56ef50-5c91-4be6-995a-6e11acf02124","system_id":"levelo_inurba_marseille","lat":43.250009,"lon":5.389195,"is_reserved":false,"is_disabled":false,"rental_uris":{"android":"levelo://app?vid=3e56ef50-5c91-4be6-995a-6e11acf02124","ios":"levelo://app?vid=3e56ef50-5c91-4be6-995a-6e11acf02124"},"vehicle_type_id":"4","last_reported":1701781842,"current_range_meters":15200,"station_id":"ce4bhgp2rcd13ifvqfd0","pricing_plan_id":"free"},{"bike_id":"8f55974a-e74c-4666-a00a-1ff1a4760897","system_id":"levelo_inurba_marseille","lat":43.25102,"lon":5.403214,"is_reserved":false,"is_disabled":false,"rental_uris":{"android":"levelo://app?vid=8f55974a-e74c-4666-a00a-1ff1a4760897","ios":"levelo://app?vid=8f55974a-e74c-4666-a00a-1ff1a4760897"},"vehicle_type_id":"4","last_reported":1701781842,"current_range_meters":22800,"station_id":"ce4bhlh2rcd13ifvqgig","pricing_plan_id":"free"},{"bike_id":"07e4f5ed-9e28-45ff-ba4d-699e5fe75cab","system_id":"levelo_inurba_marseille","lat":43.250966,"lon":5.395186,"is_reserved":false,"is_disabled":false,"rental_uris":{"android":"levelo://app?vid=07e4f5ed-9e28-45ff-ba4d-699e5fe75cab","ios":"levelo://app?vid=07e4f5ed-9e28-45ff-ba4d-699e5fe75cab"},"vehicle_type_id":"4","last_reported":1701781842,"current_range_meters":2000,"station_id":"ce4bhm12rcd13ifvqgkg","pricing_plan_id":"free"},{"bike_id":"d127ae70-db99-4c7a-bfe1-e98008e28703","system_id":"levelo_inurba_marseille","lat":43.25085,"lon":5.395217,"is_reserved":false,"is_disabled":false,"rental_uris":{"android":"levelo://app?vid=d127ae70-db99-4c7a-bfe1-e98008e28703","ios":"levelo://app?vid=d127ae70-db99-4c7a-bfe1-e98008e28703"},"vehicle_type_id":"4","last_reported":1701781842,"current_range_meters":27200,"station_id":"ce4bhm12rcd13ifvqgkg","pricing_plan_id":"free"},{"bike_id":"5923cf95-5cfc-4945-9d02-b21fb4ef7a73","system_id":"levelo_inurba_marseille","lat":43.246614,"lon":5.381624,"is_reserved":false,"is_disabled":false,"rental_uris":{"android":"levelo://app?vid=5923cf95-5cfc-4945-9d02-b21fb4ef7a73","ios":"levelo://app?vid=5923cf95-5cfc-4945-9d02-b21fb4ef7a73"},"vehicle_type_id":"4","last_reported":1701781842,"current_range_meters":0,"station_id":"ce4bhih2rcd13ifvqfr0","pricing_plan_id":"free"},{"bike_id":"bfd4ee7f-9206-4141-9b51-fae3ba1e6ea7","system_id":"levelo_inurba_marseille","lat":43.25102,"lon":5.403214,"is_reserved":false,"is_disabled":false,"rental_uris":{"android":"levelo://app?vid=bfd4ee7f-9206-4141-9b51-fae3ba1e6ea7","ios":"levelo://app?vid=bfd4ee7f-9206-4141-9b51-fae3ba1e6ea7"},"vehicle_type_id":"4","last_reported":1701781842,"current_range_meters":28400,"station_id":"ce4bhlh2rcd13ifvqgig","pricing_plan_id":"free"},{"bike_id":"cb4e4086-8219-4fba-88c1-0e944da0b150","system_id":"levelo_inurba_marseille","lat":43.25102,"lon":5.403214,"is_reserved":false,"is_disabled":false,"rental_uris":{"android":"levelo://app?vid=cb4e4086-8219-4fba-88c1-0e944da0b150","ios":"levelo://app?vid=cb4e4086-8219-4fba-88c1-0e944da0b150"},"vehicle_type_id":"4","last_reported":1701781842,"current_range_meters":28000,"station_id":"ce4bhlh2rcd13ifvqgig","pricing_plan_id":"free"},{"bike_id":"656f8318-b7ea-4df4-afc3-9a22e6f12f57","system_id":"levelo_inurba_marseille","lat":43.25102,"lon":5.403214,"is_reserved":false,"is_disabled":false,"rental_uris":{"android":"levelo://app?vid=656f8318-b7ea-4df4-afc3-9a22e6f12f57","ios":"levelo://app?vid=656f8318-b7ea-4df4-afc3-9a22e6f12f57"},"vehicle_type_id":"4","last_reported":1701781842,"current_range_meters":800,"station_id":"ce4bhlh2rcd13ifvqgig","pricing_plan_id":"free"},{"bike_id":"ed4ed92f-d533-49e7-a272-460e24eb2a5e","system_id":"levelo_inurba_marseille","lat":43.25102,"lon":5.403214,"is_reserved":false,"is_disabled":false,"rental_uris":{"android":"levelo://app?vid=ed4ed92f-d533-49e7-a272-460e24eb2a5e","ios":"levelo://app?vid=ed4ed92f-d533-49e7-a272-460e24eb2a5e"},"vehicle_type_id":"4","last_reported":1701781842,"current_range_meters":14000,"station_id":"ce4bhlh2rcd13ifvqgig","pricing_plan_id":"free"},{"bike_id":"5ae3db74-75b3-4023-87be-98d4844d31d1","system_id":"levelo_inurba_marseille","lat":43.25102,"lon":5.403214,"is_reserved":false,"is_disabled":false,"rental_uris":{"android":"levelo://app?vid=5ae3db74-75b3-4023-87be-98d4844d31d1","ios":"levelo://app?vid=5ae3db74-75b3-4023-87be-98d4844d31d1"},"vehicle_type_id":"4","last_reported":1701781842,"current_range_meters":7600,"station_id":"ce4bhlh2rcd13ifvqgig","pricing_plan_id":"free"},{"bike_id":"707efc64-65f0-49d9-83a4-0b9abddf6ee8","system_id":"levelo_inurba_marseille","lat":43.246467,"lon":5.388984,"is_reserved":false,"is_disabled":false,"rental_uris":{"android":"levelo://app?vid=707efc64-65f0-49d9-83a4-0b9abddf6ee8","ios":"levelo://app?vid=707efc64-65f0-49d9-83a4-0b9abddf6ee8"},"vehicle_type_id":"4","last_reported":1701781842,"current_range_meters":14000,"station_id":"ce4bhg12rcd13ifvqf60","pricing_plan_id":"free"},{"bike_id":"678bebca-3e53-476d-b0ac-84fd767b79db","system_id":"levelo_inurba_marseille","lat":43.245581,"lon":5.395069,"is_reserved":false,"is_disabled":false,"rental_uris":{"android":"levelo://app?vid=678bebca-3e53-476d-b0ac-84fd767b79db","ios":"levelo://app?vid=678bebca-3e53-476d-b0ac-84fd767b79db"},"vehicle_type_id":"4","last_reported":1701781842,"current_range_meters":17600,"station_id":"ce4bhlp2rcd13ifvqgjg","pricing_plan_id":"free"},{"bike_id":"0d2f6e79-3400-48fd-96a9-fe0f6e8c9c8f","system_id":"levelo_inurba_marseille","lat":43.24077,"lon":5.3776,"is_reserved":false,"is_disabled":false,"rental_uris":{"android":"levelo://app?vid=0d2f6e79-3400-48fd-96a9-fe0f6e8c9c8f","ios":"levelo://app?vid=0d2f6e79-3400-48fd-96a9-fe0f6e8c9c8f"},"vehicle_type_id":"4","last_reported":1701781842,"current_range_meters":9200,"station_id":"ce4bhnp2rcd13ifvqgvg","pricing_plan_id":"free"},{"bike_id":"e148ea0c-fbc5-436c-8f10-c9a462fa9c2d","system_id":"levelo_inurba_marseille","lat":43.240623,"lon":5.377642,"is_reserved":false,"is_disabled":false,"rental_uris":{"android":"levelo://app?vid=e148ea0c-fbc5-436c-8f10-c9a462fa9c2d","ios":"levelo://app?vid=e148ea0c-fbc5-436c-8f10-c9a462fa9c2d"},"vehicle_type_id":"4","last_reported":1701781842,"current_range_meters":3600,"station_id":"ce4bhnp2rcd13ifvqgvg","pricing_plan_id":"free"},{"bike_id":"0315da7f-87fa-4055-b382-7d72c0daef10","system_id":"levelo_inurba_marseille","lat":43.240623,"lon":5.377642,"is_reserved":false,"is_disabled":false,"rental_uris":{"android":"levelo://app?vid=0315da7f-87fa-4055-b382-7d72c0daef10","ios":"levelo://app?vid=0315da7f-87fa-4055-b382-7d72c0daef10"},"vehicle_type_id":"4","last_reported":1701781842,"current_range_meters":27600,"station_id":"ce4bhnp2rcd13ifvqgvg","pricing_plan_id":"free"},{"bike_id":"89aca074-359c-4e33-bf2d-a3d729e693f8","system_id":"levelo_inurba_marseille","lat":43.24073,"lon":5.37763,"is_reserved":false,"is_disabled":false,"rental_uris":{"android":"levelo://app?vid=89aca074-359c-4e33-bf2d-a3d729e693f8","ios":"levelo://app?vid=89aca074-359c-4e33-bf2d-a3d729e693f8"},"vehicle_type_id":"4","last_reported":1701781842,"current_range_meters":24000,"station_id":"ce4bhnp2rcd13ifvqgvg","pricing_plan_id":"free"},{"bike_id":"e34ce574-0d3a-4c84-bad1-06e724b5af2a","system_id":"levelo_inurba_marseille","lat":43.240623,"lon":5.377642,"is_reserved":false,"is_disabled":false,"rental_uris":{"android":"levelo://app?vid=e34ce574-0d3a-4c84-bad1-06e724b5af2a","ios":"levelo://app?vid=e34ce574-0d3a-4c84-bad1-06e724b5af2a"},"vehicle_type_id":"4","last_reported":1701781842,"current_range_meters":30800,"station_id":"ce4bhnp2rcd13ifvqgvg","pricing_plan_id":"free"},{"bike_id":"9f9eb382-f99a-4ffc-9842-b4408c41e05e","system_id":"levelo_inurba_marseille","lat":43.240623,"lon":5.377642,"is_reserved":false,"is_disabled":false,"rental_uris":{"android":"levelo://app?vid=9f9eb382-f99a-4ffc-9842-b4408c41e05e","ios":"levelo://app?vid=9f9eb382-f99a-4ffc-9842-b4408c41e05e"},"vehicle_type_id":"4","last_reported":1701781842,"current_range_meters":3200,"station_id":"ce4bhnp2rcd13ifvqgvg","pricing_plan_id":"free"},{"bike_id":"9f98581c-8321-4518-8823-402c9ea0822f","system_id":"levelo_inurba_marseille","lat":43.24072,"lon":5.37761,"is_reserved":false,"is_disabled":false,"rental_uris":{"android":"levelo://app?vid=9f98581c-8321-4518-8823-402c9ea0822f","ios":"levelo://app?vid=9f98581c-8321-4518-8823-402c9ea0822f"},"vehicle_type_id":"4","last_reported":1701781842,"current_range_meters":10000,"station_id":"ce4bhnp2rcd13ifvqgvg","pricing_plan_id":"free"},{"bike_id":"8c28f869-8b27-4717-955f-eeabe389dff8","system_id":"levelo_inurba_marseille","lat":43.240623,"lon":5.377642,"is_reserved":false,"is_disabled":false,"rental_uris":{"android":"levelo://app?vid=8c28f869-8b27-4717-955f-eeabe389dff8","ios":"levelo://app?vid=8c28f869-8b27-4717-955f-eeabe389dff8"},"vehicle_type_id":"4","last_reported":1701781842,"current_range_meters":31200,"station_id":"ce4bhnp2rcd13ifvqgvg","pricing_plan_id":"free"},{"bike_id":"2ac84801-0821-4fac-abed-f2686e6b71ef","system_id":"levelo_inurba_marseille","lat":43.24071,"lon":5.37761,"is_reserved":false,"is_disabled":false,"rental_uris":{"android":"levelo://app?vid=2ac84801-0821-4fac-abed-f2686e6b71ef","ios":"levelo://app?vid=2ac84801-0821-4fac-abed-f2686e6b71ef"},"vehicle_type_id":"4","last_reported":1701781842,"current_range_meters":9200,"station_id":"ce4bhnp2rcd13ifvqgvg","pricing_plan_id":"free"},{"bike_id":"14b33437-8c8c-4c8c-9f8a-1c486181466d","system_id":"levelo_inurba_marseille","lat":43.240623,"lon":5.377642,"is_reserved":false,"is_disabled":false,"rental_uris":{"android":"levelo://app?vid=14b33437-8c8c-4c8c-9f8a-1c486181466d","ios":"levelo://app?vid=14b33437-8c8c-4c8c-9f8a-1c486181466d"},"vehicle_type_id":"4","last_reported":1701781842,"current_range_meters":22800,"station_id":"ce4bhnp2rcd13ifvqgvg","pricing_plan_id":"free"},{"bike_id":"ea73b481-0891-4597-8446-4d1322992f33","system_id":"levelo_inurba_marseille","lat":43.240623,"lon":5.377642,"is_reserved":false,"is_disabled":false,"rental_uris":{"android":"levelo://app?vid=ea73b481-0891-4597-8446-4d1322992f33","ios":"levelo://app?vid=ea73b481-0891-4597-8446-4d1322992f33"},"vehicle_type_id":"4","last_reported":1701781842,"current_range_meters":18800,"station_id":"ce4bhnp2rcd13ifvqgvg","pricing_plan_id":"free"},{"bike_id":"e93d2c63-f14c-4faa-aae7-c435a0599ef0","system_id":"levelo_inurba_marseille","lat":43.240623,"lon":5.377642,"is_reserved":false,"is_disabled":false,"rental_uris":{"android":"levelo://app?vid=e93d2c63-f14c-4faa-aae7-c435a0599ef0","ios":"levelo://app?vid=e93d2c63-f14c-4faa-aae7-c435a0599ef0"},"vehicle_type_id":"4","last_reported":1701781842,"current_range_meters":26000,"station_id":"ce4bhnp2rcd13ifvqgvg","pricing_plan_id":"free"},{"bike_id":"cb6ba51b-84b7-4540-b8f5-403657ef16c8","system_id":"levelo_inurba_marseille","lat":43.240623,"lon":5.377642,"is_reserved":false,"is_disabled":false,"rental_uris":{"android":"levelo://app?vid=cb6ba51b-84b7-4540-b8f5-403657ef16c8","ios":"levelo://app?vid=cb6ba51b-84b7-4540-b8f5-403657ef16c8"},"vehicle_type_id":"4","last_reported":1701781842,"current_range_meters":25600,"station_id":"ce4bhnp2rcd13ifvqgvg","pricing_plan_id":"free"},{"bike_id":"2e43447f-abca-4d71-8f13-a975156b923b","system_id":"levelo_inurba_marseille","lat":43.240623,"lon":5.377642,"is_reserved":false,"is_disabled":false,"rental_uris":{"android":"levelo://app?vid=2e43447f-abca-4d71-8f13-a975156b923b","ios":"levelo://app?vid=2e43447f-abca-4d71-8f13-a975156b923b"},"vehicle_type_id":"4","last_reported":1701781842,"current_range_meters":31200,"station_id":"ce4bhnp2rcd13ifvqgvg","pricing_plan_id":"free"},{"bike_id":"1f8e1a80-4243-4649-ac71-2ebc1e48b939","system_id":"levelo_inurba_marseille","lat":43.231923,"lon":5.355545,"is_reserved":false,"is_disabled":false,"rental_uris":{"android":"levelo://app?vid=1f8e1a80-4243-4649-ac71-2ebc1e48b939","ios":"levelo://app?vid=1f8e1a80-4243-4649-ac71-2ebc1e48b939"},"vehicle_type_id":"4","last_reported":1701781842,"current_range_meters":5600,"station_id":"ce4bhu92rcd13ifvqi70","pricing_plan_id":"free"},{"bike_id":"cf3102c4-88e0-4a41-86b7-69a76932d3e6","system_id":"levelo_inurba_marseille","lat":43.231923,"lon":5.355545,"is_reserved":false,"is_disabled":false,"rental_uris":{"android":"levelo://app?vid=cf3102c4-88e0-4a41-86b7-69a76932d3e6","ios":"levelo://app?vid=cf3102c4-88e0-4a41-86b7-69a76932d3e6"},"vehicle_type_id":"4","last_reported":1701781842,"current_range_meters":31200,"station_id":"ce4bhu92rcd13ifvqi70","pricing_plan_id":"free"},{"bike_id":"f922cddf-9fbc-4714-b966-50501c7ff4b4","system_id":"levelo_inurba_marseille","lat":43.23183,"lon":5.35551,"is_reserved":false,"is_disabled":false,"rental_uris":{"android":"levelo://app?vid=f922cddf-9fbc-4714-b966-50501c7ff4b4","ios":"levelo://app?vid=f922cddf-9fbc-4714-b966-50501c7ff4b4"},"vehicle_type_id":"4","last_reported":1701781842,"current_range_meters":7600,"station_id":"ce4bhu92rcd13ifvqi70","pricing_plan_id":"free"},{"bike_id":"5278a15d-20a4-43d4-86a2-a3cf79e58d2a","system_id":"levelo_inurba_marseille","lat":43.231793,"lon":5.400044,"is_reserved":false,"is_disabled":false,"rental_uris":{"android":"levelo://app?vid=5278a15d-20a4-43d4-86a2-a3cf79e58d2a","ios":"levelo://app?vid=5278a15d-20a4-43d4-86a2-a3cf79e58d2a"},"vehicle_type_id":"4","last_reported":1701781842,"current_range_meters":16800,"station_id":"ce4bhn12rcd13ifvqgqg","pricing_plan_id":"free"},{"bike_id":"b24377f2-8ed0-4651-85c1-637313820b38","system_id":"levelo_inurba_marseille","lat":43.231794,"lon":5.400052,"is_reserved":false,"is_disabled":false,"rental_uris":{"android":"levelo://app?vid=b24377f2-8ed0-4651-85c1-637313820b38","ios":"levelo://app?vid=b24377f2-8ed0-4651-85c1-637313820b38"},"vehicle_type_id":"4","last_reported":1701781842,"current_range_meters":25600,"station_id":"ce4bhn12rcd13ifvqgqg","pricing_plan_id":"free"},{"bike_id":"c1ea53d3-f77a-4d0f-880c-9af43a51a81c","system_id":"levelo_inurba_marseille","lat":43.231562,"lon":5.436933,"is_reserved":false,"is_disabled":false,"rental_uris":{"android":"levelo://app?vid=c1ea53d3-f77a-4d0f-880c-9af43a51a81c","ios":"levelo://app?vid=c1ea53d3-f77a-4d0f-880c-9af43a51a81c"},"vehicle_type_id":"4","last_reported":1701781842,"current_range_meters":30800,"station_id":"ce4bhmp2rcd13ifvqgog","pricing_plan_id":"free"},{"bike_id":"818b7971-a62f-4d0c-b4d6-ebcff5688a44","system_id":"levelo_inurba_marseille","lat":43.231562,"lon":5.436933,"is_reserved":false,"is_disabled":false,"rental_uris":{"android":"levelo://app?vid=818b7971-a62f-4d0c-b4d6-ebcff5688a44","ios":"levelo://app?vid=818b7971-a62f-4d0c-b4d6-ebcff5688a44"},"vehicle_type_id":"4","last_reported":1701781842,"current_range_meters":30000,"station_id":"ce4bhmp2rcd13ifvqgog","pricing_plan_id":"free"},{"bike_id":"fb57a19c-6052-4ad3-b116-cf7961d5d660","system_id":"levelo_inurba_marseille","lat":43.231562,"lon":5.436933,"is_reserved":false,"is_disabled":false,"rental_uris":{"android":"levelo://app?vid=fb57a19c-6052-4ad3-b116-cf7961d5d660","ios":"levelo://app?vid=fb57a19c-6052-4ad3-b116-cf7961d5d660"},"vehicle_type_id":"4","last_reported":1701781842,"current_range_meters":17200,"station_id":"ce4bhmp2rcd13ifvqgog","pricing_plan_id":"free"},{"bike_id":"b88a7beb-1507-4507-ad76-90e5fbe86117","system_id":"levelo_inurba_marseille","lat":43.231562,"lon":5.436933,"is_reserved":false,"is_disabled":false,"rental_uris":{"android":"levelo://app?vid=b88a7beb-1507-4507-ad76-90e5fbe86117","ios":"levelo://app?vid=b88a7beb-1507-4507-ad76-90e5fbe86117"},"vehicle_type_id":"4","last_reported":1701781842,"current_range_meters":24000,"station_id":"ce4bhmp2rcd13ifvqgog","pricing_plan_id":"free"},{"bike_id":"499f6839-de97-4b12-a005-76ce9f041c0f","system_id":"levelo_inurba_marseille","lat":43.231562,"lon":5.436933,"is_reserved":false,"is_disabled":false,"rental_uris":{"android":"levelo://app?vid=499f6839-de97-4b12-a005-76ce9f041c0f","ios":"levelo://app?vid=499f6839-de97-4b12-a005-76ce9f041c0f"},"vehicle_type_id":"4","last_reported":1701781842,"current_range_meters":21200,"station_id":"ce4bhmp2rcd13ifvqgog","pricing_plan_id":"free"},{"bike_id":"eb2c14b2-e332-47fe-992b-c25d14433af5","system_id":"levelo_inurba_marseille","lat":43.231562,"lon":5.436933,"is_reserved":false,"is_disabled":false,"rental_uris":{"android":"levelo://app?vid=eb2c14b2-e332-47fe-992b-c25d14433af5","ios":"levelo://app?vid=eb2c14b2-e332-47fe-992b-c25d14433af5"},"vehicle_type_id":"4","last_reported":1701781842,"current_range_meters":2000,"station_id":"ce4bhmp2rcd13ifvqgog","pricing_plan_id":"free"},{"bike_id":"bd1c9afa-c136-40b6-9ad4-c891fe6a0ae4","system_id":"levelo_inurba_marseille","lat":43.231562,"lon":5.436933,"is_reserved":false,"is_disabled":false,"rental_uris":{"android":"levelo://app?vid=bd1c9afa-c136-40b6-9ad4-c891fe6a0ae4","ios":"levelo://app?vid=bd1c9afa-c136-40b6-9ad4-c891fe6a0ae4"},