{"last_updated":1758982084,"ttl":60,"version":"2.2","data":{"bikes":[{"bike_id":"305717c3-f19a-438f-9db8-3ec806c6fd74","system_id":"levelo_inurba_marseille","lat":43.29968,"lon":5.38502,"is_reserved":false,"is_disabled":false,"rental_uris":{"android":"levelo://app?vid=305717c3-f19a-438f-9db8-3ec806c6fd74","ios":"levelo://app?vid=305717c3-f19a-438f-9db8-3ec806c6fd74"},"vehicle_type_id":"4","last_reported":1758982084,"current_range_meters":2800,"station_id":"ce4bgj92rcd13ifvqbd0","pricing_plan_id":"cebpf4jnsgd1na2vs0mg"},{"bike_id":"b8527da5-a495-4d5b-b851-2eca8d2602f2","system_id":"levelo_inurba_marseille","lat":43.25719,"lon":5.41116,"is_reserved":false,"is_disabled":false,"rental_uris":{"android":"levelo://app?vid=b8527da5-a495-4d5b-b851-2eca8d2602f2","ios":"levelo://app?vid=b8527da5-a495-4d5b-b851-2eca8d2602f2"},"vehicle_type_id":"4","last_reported":1758982084,"current_range_meters":2800,"station_id":"ce4bhkp2rcd13ifvqgd0","pricing_plan_id":"cebpf4jnsgd1na2vs0mg"},{"bike_id":"73b5fc82-4472-483b-beea-c5b467bc15ff","system_id":"levelo_inurba_marseille","lat":43.29284,"lon":5.40126,"is_reserved":false,"is_disabled":false,"rental_uris":{"android":"levelo://app?vid=73b5fc82-4472-483b-beea-c5b467bc15ff","ios":"levelo://app?vid=73b5fc82-4472-483b-beea-c5b467bc15ff"},"vehicle_type_id":"4","last_reported":1758982084,"current_range_meters":2800,"station_id":"ce4bh312rcd13ifvqdk0","pricing_plan_id":"cebpf4jnsgd1na2vs0mg"},{"bike_id":"f3a40705-e950-434b-94de-837e9d01cfcd","system_id":"levelo_inurba_marseille","lat":43.27374,"lon":5.3626,"is_reserved":false,"is_disabled":false,"rental_uris":{"android":"levelo://app?vid=f3a40705-e950-434b-94de-837e9d01cfcd","ios":"levelo://app?vid=f3a40705-e950-434b-94de-837e9d01cfcd"},"vehicle_type_id":"4","last_reported":1758982084,"current_range_meters":3200,"station_id":"ce4bhbh2rcd13ifvqeo0","pricing_plan_id":"cebpf4jnsgd1na2vs0mg"},{"bike_id":"d918f0e1-9c6e-4d65-8b6c-6ab57e6f2a76","system_id":"levelo_inurba_marseille","lat":43.282642,"lon":5.350744,"is_reserved":false,"is_disabled":false,"rental_uris":{"android":"levelo://app?vid=d918f0e1-9c6e-4d65-8b6c-6ab57e6f2a76","ios":"levelo://app?vid=d918f0e1-9c6e-4d65-8b6c-6ab57e6f2a76"},"vehicle_type_id":"4","last_reported":1758982084,"current_range_meters":3200,"station_id":"","pricing_plan_id":"cebpf4jnsgd1na2vs0mg"},{"bike_id":"f2b11a02-f2b4-40b7-885f-40e3d07bf5cd","system_id":"levelo_inurba_marseille","lat":43.2174,"lon":5.34602,"is_reserved":false,"is_disabled":false,"rental_uris":{"android":"levelo://app?vid=f2b11a02-f2b4-40b7-885f-40e3d07bf5cd","ios":"levelo://app?vid=f2b11a02-f2b4-40b7-885f-40e3d07bf5cd"},"vehicle_type_id":"4","last_reported":1758982084,"current_range_meters":3200,"station_id":"","pricing_plan_id":"cebpf4jnsgd1na2vs0mg"},{"bike_id":"0737bf89-8475-4de7-b74e-7cfc3a2ce00e","system_id":"levelo_inurba_marseille","lat":43.28621,"lon":5.35103,"is_reserved":false,"is_disabled":false,"rental_uris":{"android":"levelo://app?vid=0737bf89-8475-4de7-b74e-7cfc3a2ce00e","ios":"levelo://app?vid=0737bf89-8475-4de7-b74e-7cfc3a2ce00e"},"vehicle_type_id":"4","last_reported":1758982084,"current_range_meters":3200,"station_id":"ce4bhch2rcd13ifvqeug","pricing_plan_id":"cebpf4jnsgd1na2vs0mg"},{"bike_id":"192d9b12-98e6-4eca-bbb7-0f0018c0995b","system_id":"levelo_inurba_marseille","lat":43.2174,"lon":5.346,"is_reserved":false,"is_disabled":false,"rental_uris":{"android":"levelo://app?vid=192d9b12-98e6-4eca-bbb7-0f0018c0995b","ios":"levelo://app?vid=192d9b12-98e6-4eca-bbb7-0f0018c0995b"},"vehicle_type_id":"4","last_reported":1758982084,"current_range_meters":3200,"station_id":"st_cvj6r9ubvosntc0bgbag","pricing_plan_id":"cebpf4jnsgd1na2vs0mg"},{"bike_id":"588bb5c6-d90f-4edd-b1de-2d2164a39c00","system_id":"levelo_inurba_marseille","lat":43.32948,"lon":5.39046,"is_reserved":false,"is_disabled":false,"rental_uris":{"android":"levelo://app?vid=588bb5c6-d90f-4edd-b1de-2d2164a39c00","ios":"levelo://app?vid=588bb5c6-d90f-4edd-b1de-2d2164a39c00"},"vehicle_type_id":"4","last_reported":1758982084,"current_range_meters":3200,"station_id":"","pricing_plan_id":"cebpf4jnsgd1na2vs0mg"},{"bike_id":"8038e4bf-250c-46fa-83ab-935290c3a5be","system_id":"levelo_inurba_marseille","lat":43.292016,"lon":5.39329,"is_reserved":false,"is_disabled":false,"rental_uris":{"android":"levelo://app?vid=8038e4bf-250c-46fa-83ab-935290c3a5be","ios":"levelo://app?vid=8038e4bf-250c-46fa-83ab-935290c3a5be"},"vehicle_type_id":"4","last_reported":1758982084,"current_range_meters":3200,"station_id":"ce4bh192rcd13ifvqdd0","pricing_plan_id":"cebpf4jnsgd1na2vs0mg"},{"bike_id":"003515e8-8117-44bb-979d-5f47e8d50fda","system_id":"levelo_inurba_marseille","lat":43.30639,"lon":5.37575,"is_reserved":false,"is_disabled":false,"rental_uris":{"android":"levelo://app?vid=003515e8-8117-44bb-979d-5f47e8d50fda","ios":"levelo://app?vid=003515e8-8117-44bb-979d-5f47e8d50fda"},"vehicle_type_id":"4","last_reported":1758982084,"current_range_meters":3600,"station_id":"","pricing_plan_id":"cebpf4jnsgd1na2vs0mg"},{"bike_id":"ff9d7570-c373-4836-9333-4e0ff94b0769","system_id":"levelo_inurba_marseille","lat":43.31882,"lon":5.40738,"is_reserved":false,"is_disabled":false,"rental_uris":{"android":"levelo://app?vid=ff9d7570-c373-4836-9333-4e0ff94b0769","ios":"levelo://app?vid=ff9d7570-c373-4836-9333-4e0ff94b0769"},"vehicle_type_id":"4","last_reported":1758982084,"current_range_meters":3600,"station_id":"ce4bhq12rcd13ifvqhig","pricing_plan_id":"cebpf4jnsgd1na2vs0mg"},{"bike_id":"34e56b31-5516-496a-a251-eecc17601514","system_id":"levelo_inurba_marseille","lat":43.257132,"lon":5.410199,"is_reserved":false,"is_disabled":false,"rental_uris":{"android":"levelo://app?vid=34e56b31-5516-496a-a251-eecc17601514","ios":"levelo://app?vid=34e56b31-5516-496a-a251-eecc17601514"},"vehicle_type_id":"4","last_reported":1758982084,"current_range_meters":3200,"station_id":"ce4bhkp2rcd13ifvqgd0","pricing_plan_id":"cebpf4jnsgd1na2vs0mg"},{"bike_id":"5d9fa3cf-7b58-469c-92c7-18e505cc48ea","system_id":"levelo_inurba_marseille","lat":43.30541,"lon":5.36704,"is_reserved":false,"is_disabled":false,"rental_uris":{"android":"levelo://app?vid=5d9fa3cf-7b58-469c-92c7-18e505cc48ea","ios":"levelo://app?vid=5d9fa3cf-7b58-469c-92c7-18e505cc48ea"},"vehicle_type_id":"4","last_reported":1758982084,"current_range_meters":3600,"station_id":"ce4bgrp2rcd13ifvqc9g","pricing_plan_id":"cebpf4jnsgd1na2vs0mg"},{"bike_id":"a581bdea-2b1e-4888-bbaf-27e08cddff08","system_id":"levelo_inurba_marseille","lat":43.31081,"lon":5.42436,"is_reserved":false,"is_disabled":false,"rental_uris":{"android":"levelo://app?vid=a581bdea-2b1e-4888-bbaf-27e08cddff08","ios":"levelo://app?vid=a581bdea-2b1e-4888-bbaf-27e08cddff08"},"vehicle_type_id":"4","last_reported":1758982084,"current_range_meters":3600,"station_id":"ce4bhp92rcd13ifvqhag","pricing_plan_id":"cebpf4jnsgd1na2vs0mg"},{"bike_id":"bafbc151-6aac-4b3c-b525-abe075c5588a","system_id":"levelo_inurba_marseille","lat":43.30935,"lon":5.40137,"is_reserved":false,"is_disabled":false,"rental_uris":{"android":"levelo://app?vid=bafbc151-6aac-4b3c-b525-abe075c5588a","ios":"levelo://app?vid=bafbc151-6aac-4b3c-b525-abe075c5588a"},"vehicle_type_id":"4","last_reported":1758982084,"current_range_meters":3600,"station_id":"ce4bgvp2rcd13ifvqct0","pricing_plan_id":"cebpf4jnsgd1na2vs0mg"},{"bike_id":"acc3ae7c-3849-41f0-97b4-aaeaa6753ad4","system_id":"levelo_inurba_marseille","lat":43.27669,"lon":5.38873,"is_reserved":false,"is_disabled":false,"rental_uris":{"android":"levelo://app?vid=acc3ae7c-3849-41f0-97b4-aaeaa6753ad4","ios":"levelo://app?vid=acc3ae7c-3849-41f0-97b4-aaeaa6753ad4"},"vehicle_type_id":"4","last_reported":1758982084,"current_range_meters":3600,"station_id":"ce4bhi12rcd13ifvqfo0","pricing_plan_id":"cebpf4jnsgd1na2vs0mg"},{"bike_id":"74335752-2b12-4d43-aae6-1fb0dbdcc2f6","system_id":"levelo_inurba_marseille","lat":43.28481,"lon":5.38416,"is_reserved":false,"is_disabled":false,"rental_uris":{"android":"levelo://app?vid=74335752-2b12-4d43-aae6-1fb0dbdcc2f6","ios":"levelo://app?vid=74335752-2b12-4d43-aae6-1fb0dbdcc2f6"},"vehicle_type_id":"4","last_reported":1758982084,"current_range_meters":3600,"station_id":"ce4bh512rcd13ifvqe3g","pricing_plan_id":"cebpf4jnsgd1na2vs0mg"},{"bike_id":"02661da9-16d8-4836-abfa-c8c5c132ea52","system_id":"levelo_inurba_marseille","lat":43.292665,"lon":5.384208,"is_reserved":false,"is_disabled":false,"rental_uris":{"android":"levelo://app?vid=02661da9-16d8-4836-abfa-c8c5c132ea52","ios":"levelo://app?vid=02661da9-16d8-4836-abfa-c8c5c132ea52"},"vehicle_type_id":"4","last_reported":1758982084,"current_range_meters":3600,"station_id":"ce4bh692rcd13ifvqea0","pricing_plan_id":"cebpf4jnsgd1na2vs0mg"},{"bike_id":"c5d8e3fe-0e15-4340-b067-1696e65e7f27","system_id":"levelo_inurba_marseille","lat":43.286941,"lon":5.399848,"is_reserved":false,"is_disabled":false,"rental_uris":{"android":"levelo://app?vid=c5d8e3fe-0e15-4340-b067-1696e65e7f27","ios":"levelo://app?vid=c5d8e3fe-0e15-4340-b067-1696e65e7f27"},"vehicle_type_id":"4","last_reported":1758982084,"current_range_meters":3600,"station_id":"ce4bho92rcd13ifvqh3g","pricing_plan_id":"cebpf4jnsgd1na2vs0mg"},{"bike_id":"919d2afa-d56d-4e9a-9d14-fac6db05eef0","system_id":"levelo_inurba_marseille","lat":43.27997,"lon":5.4002,"is_reserved":false,"is_disabled":false,"rental_uris":{"android":"levelo://app?vid=919d2afa-d56d-4e9a-9d14-fac6db05eef0","ios":"levelo://app?vid=919d2afa-d56d-4e9a-9d14-fac6db05eef0"},"vehicle_type_id":"4","last_reported":1758982084,"current_range_meters":3200,"station_id":"ce4bho92rcd13ifvqh4g","pricing_plan_id":"cebpf4jnsgd1na2vs0mg"},{"bike_id":"ba2cbd25-dec5-402f-88fc-1826da3ab12f","system_id":"levelo_inurba_marseille","lat":43.27375,"lon":5.36247,"is_reserved":false,"is_disabled":false,"rental_uris":{"android":"levelo://app?vid=ba2cbd25-dec5-402f-88fc-1826da3ab12f","ios":"levelo://app?vid=ba2cbd25-dec5-402f-88fc-1826da3ab12f"},"vehicle_type_id":"4","last_reported":1758982084,"current_range_meters":4000,"station_id":"ce4bhbh2rcd13ifvqeo0","pricing_plan_id":"cebpf4jnsgd1na2vs0mg"},{"bike_id":"5ad10cc9-4d9c-4888-b4d8-04d3e52e20fa","system_id":"levelo_inurba_marseille","lat":43.2558,"lon":5.3823,"is_reserved":false,"is_disabled":false,"rental_uris":{"android":"levelo://app?vid=5ad10cc9-4d9c-4888-b4d8-04d3e52e20fa","ios":"levelo://app?vid=5ad10cc9-4d9c-4888-b4d8-04d3e52e20fa"},"vehicle_type_id":"4","last_reported":1758982084,"current_range_meters":3600,"station_id":"ce4bhih2rcd13ifvqfs0","pricing_plan_id":"cebpf4jnsgd1na2vs0mg"},{"bike_id":"7c62388b-3de4-4851-9c96-dfa129f6b1c9","system_id":"levelo_inurba_marseille","lat":43.26196,"lon":5.37453,"is_reserved":false,"is_disabled":false,"rental_uris":{"android":"levelo://app?vid=7c62388b-3de4-4851-9c96-dfa129f6b1c9","ios":"levelo://app?vid=7c62388b-3de4-4851-9c96-dfa129f6b1c9"},"vehicle_type_id":"4","last_reported":1758982084,"current_range_meters":4000,"station_id":"ce4bhgp2rcd13ifvqfc0","pricing_plan_id":"cebpf4jnsgd1na2vs0mg"},{"bike_id":"d0a32380-4aea-48da-a058-08e4c8b7fc00","system_id":"levelo_inurba_marseille","lat":43.2175,"lon":5.3461,"is_reserved":false,"is_disabled":false,"rental_uris":{"android":"levelo://app?vid=d0a32380-4aea-48da-a058-08e4c8b7fc00","ios":"levelo://app?vid=d0a32380-4aea-48da-a058-08e4c8b7fc00"},"vehicle_type_id":"4","last_reported":1758982084,"current_range_meters":4400,"station_id":"st_cvj6r9ubvosntc0bgbag","pricing_plan_id":"cebpf4jnsgd1na2vs0mg"},{"bike_id":"f897d300-643c-4c7a-951b-f56d70ef23ca","system_id":"levelo_inurba_marseille","lat":43.30309,"lon":5.39082,"is_reserved":false,"is_disabled":false,"rental_uris":{"android":"levelo://app?vid=f897d300-643c-4c7a-951b-f56d70ef23ca","ios":"levelo://app?vid=f897d300-643c-4c7a-951b-f56d70ef23ca"},"vehicle_type_id":"4","last_reported":1758982084,"current_range_meters":4400,"station_id":"","pricing_plan_id":"cebpf4jnsgd1na2vs0mg"},{"bike_id":"60d29423-2cb9-4c79-844f-e294276e726a","system_id":"levelo_inurba_marseille","lat":43.2998,"lon":5.3717,"is_reserved":false,"is_disabled":false,"rental_uris":{"android":"levelo://app?vid=60d29423-2cb9-4c79-844f-e294276e726a","ios":"levelo://app?vid=60d29423-2cb9-4c79-844f-e294276e726a"},"vehicle_type_id":"4","last_reported":1758982084,"current_range_meters":4400,"station_id":"ce4bgr92rcd13ifvqc7g","pricing_plan_id":"cebpf4jnsgd1na2vs0mg"},{"bike_id":"2d02af1a-f196-4b65-aae0-b777bd03a5fe","system_id":"levelo_inurba_marseille","lat":43.2174,"lon":5.34604,"is_reserved":false,"is_disabled":false,"rental_uris":{"android":"levelo://app?vid=2d02af1a-f196-4b65-aae0-b777bd03a5fe","ios":"levelo://app?vid=2d02af1a-f196-4b65-aae0-b777bd03a5fe"},"vehicle_type_id":"4","last_reported":1758982084,"current_range_meters":4400,"station_id":"","pricing_plan_id":"cebpf4jnsgd1na2vs0mg"},{"bike_id":"1ba48560-da29-4bf1-9bcb-c0f33fb77ae2","system_id":"levelo_inurba_marseille","lat":43.21759,"lon":5.34614,"is_reserved":false,"is_disabled":false,"rental_uris":{"android":"levelo://app?vid=1ba48560-da29-4bf1-9bcb-c0f33fb77ae2","ios":"levelo://app?vid=1ba48560-da29-4bf1-9bcb-c0f33fb77ae2"},"vehicle_type_id":"4","last_reported":1758982084,"current_range_meters":4800,"station_id":"st_cvj6r9ubvosntc0bgbag","pricing_plan_id":"cebpf4jnsgd1na2vs0mg"},{"bike_id":"b6f3f6aa-5432-4a75-9fcf-4e6d4514012d","system_id":"levelo_inurba_marseille","lat":43.224809,"lon":5.347746,"is_reserved":false,"is_disabled":false,"rental_uris":{"android":"levelo://app?vid=b6f3f6aa-5432-4a75-9fcf-4e6d4514012d","ios":"levelo://app?vid=b6f3f6aa-5432-4a75-9fcf-4e6d4514012d"},"vehicle_type_id":"4","last_reported":1758982084,"current_range_meters":4800,"station_id":"","pricing_plan_id":"cebpf4jnsgd1na2vs0mg"},{"bike_id":"d28904fd-723f-4bb6-bad5-fd7df1dd5b3b","system_id":"levelo_inurba_marseille","lat":43.293733,"lon":5.378397,"is_reserved":false,"is_disabled":false,"rental_uris":{"android":"levelo://app?vid=d28904fd-723f-4bb6-bad5-fd7df1dd5b3b","ios":"levelo://app?vid=d28904fd-723f-4bb6-bad5-fd7df1dd5b3b"},"vehicle_type_id":"4","last_reported":1758982084,"current_range_meters":4800,"station_id":"ce4bgjh2rcd13ifvqbf0","pricing_plan_id":"cebpf4jnsgd1na2vs0mg"},{"bike_id":"7270d17a-036a-45cd-8ef5-751c9e703233","system_id":"levelo_inurba_marseille","lat":43.21741,"lon":5.3461,"is_reserved":false,"is_disabled":false,"rental_uris":{"android":"levelo://app?vid=7270d17a-036a-45cd-8ef5-751c9e703233","ios":"levelo://app?vid=7270d17a-036a-45cd-8ef5-751c9e703233"},"vehicle_type_id":"4","last_reported":1758982084,"current_range_meters":4800,"station_id":"st_cvj6r9ubvosntc0bgbag","pricing_plan_id":"cebpf4jnsgd1na2vs0mg"},{"bike_id":"9a819dc8-447d-4df7-8b5f-0b18332a26a7","system_id":"levelo_inurba_marseille","lat":43.33128,"lon":5.37569,"is_reserved":false,"is_disabled":false,"rental_uris":{"android":"levelo://app?vid=9a819dc8-447d-4df7-8b5f-0b18332a26a7","ios":"levelo://app?vid=9a819dc8-447d-4df7-8b5f-0b18332a26a7"},"vehicle_type_id":"4","last_reported":1758982084,"current_range_meters":4800,"station_id":"","pricing_plan_id":"cebpf4jnsgd1na2vs0mg"},{"bike_id":"99568b06-6739-4b19-83d7-0f672f8fe303","system_id":"levelo_inurba_marseille","lat":43.2841,"lon":5.34976,"is_reserved":false,"is_disabled":false,"rental_uris":{"android":"levelo://app?vid=99568b06-6739-4b19-83d7-0f672f8fe303","ios":"levelo://app?vid=99568b06-6739-4b19-83d7-0f672f8fe303"},"vehicle_type_id":"4","last_reported":1758982084,"current_range_meters":5600,"station_id":"ce4bhbh2rcd13ifvqepg","pricing_plan_id":"cebpf4jnsgd1na2vs0mg"},{"bike_id":"cfaf466f-e79c-4075-bf60-8a7a2c0ec6d3","system_id":"levelo_inurba_marseille","lat":43.28266,"lon":5.35066,"is_reserved":false,"is_disabled":false,"rental_uris":{"android":"levelo://app?vid=cfaf466f-e79c-4075-bf60-8a7a2c0ec6d3","ios":"levelo://app?vid=cfaf466f-e79c-4075-bf60-8a7a2c0ec6d3"},"vehicle_type_id":"4","last_reported":1758982084,"current_range_meters":5600,"station_id":"ce4bhbp2rcd13ifvqerg","pricing_plan_id":"cebpf4jnsgd1na2vs0mg"},{"bike_id":"8423907f-7040-43c6-8eca-b801ec4b6465","system_id":"levelo_inurba_marseille","lat":43.26939,"lon":5.4025,"is_reserved":false,"is_disabled":false,"rental_uris":{"android":"levelo://app?vid=8423907f-7040-43c6-8eca-b801ec4b6465","ios":"levelo://app?vid=8423907f-7040-43c6-8eca-b801ec4b6465"},"vehicle_type_id":"4","last_reported":1758982084,"current_range_meters":4800,"station_id":"cjm6bp8fraef2m0cb0m0","pricing_plan_id":"cebpf4jnsgd1na2vs0mg"},{"bike_id":"96556b0a-96bb-429a-bb24-c505c64bdf1f","system_id":"levelo_inurba_marseille","lat":43.30311,"lon":5.36903,"is_reserved":false,"is_disabled":false,"rental_uris":{"android":"levelo://app?vid=96556b0a-96bb-429a-bb24-c505c64bdf1f","ios":"levelo://app?vid=96556b0a-96bb-429a-bb24-c505c64bdf1f"},"vehicle_type_id":"4","last_reported":1758982084,"current_range_meters":5600,"station_id":"ce4bgqh2rcd13ifvqc5g","pricing_plan_id":"cebpf4jnsgd1na2vs0mg"},{"bike_id":"c7f6a08b-c655-4213-b2ba-7d02e7f382fe","system_id":"levelo_inurba_marseille","lat":43.27988,"lon":5.39483,"is_reserved":false,"is_disabled":false,"rental_uris":{"android":"levelo://app?vid=c7f6a08b-c655-4213-b2ba-7d02e7f382fe","ios":"levelo://app?vid=c7f6a08b-c655-4213-b2ba-7d02e7f382fe"},"vehicle_type_id":"4","last_reported":1758982084,"current_range_meters":5600,"station_id":"","pricing_plan_id":"cebpf4jnsgd1na2vs0mg"},{"bike_id":"428266ee-2c7e-4d57-b6e9-c485efbe18f5","system_id":"levelo_inurba_marseille","lat":43.29363,"lon":5.3785,"is_reserved":false,"is_disabled":false,"rental_uris":{"android":"levelo://app?vid=428266ee-2c7e-4d57-b6e9-c485efbe18f5","ios":"levelo://app?vid=428266ee-2c7e-4d57-b6e9-c485efbe18f5"},"vehicle_type_id":"4","last_reported":1758982084,"current_range_meters":5600,"station_id":"ce4bgjh2rcd13ifvqbf0","pricing_plan_id":"cebpf4jnsgd1na2vs0mg"},{"bike_id":"7293e23f-6bf0-4649-b856-4fc07316894f","system_id":"levelo_inurba_marseille","lat":43.303064,"lon":5.392076,"is_reserved":false,"is_disabled":false,"rental_uris":{"android":"levelo://app?vid=7293e23f-6bf0-4649-b856-4fc07316894f","ios":"levelo://app?vid=7293e23f-6bf0-4649-b856-4fc07316894f"},"vehicle_type_id":"4","last_reported":1758982084,"current_range_meters":4800,"station_id":"ce4bgkh2rcd13ifvqbk0","pricing_plan_id":"cebpf4jnsgd1na2vs0mg"},{"bike_id":"1a91c14e-474e-4036-b500-861efe4a0d87","system_id":"levelo_inurba_marseille","lat":43.28155,"lon":5.42647,"is_reserved":false,"is_disabled":false,"rental_uris":{"android":"levelo://app?vid=1a91c14e-474e-4036-b500-861efe4a0d87","ios":"levelo://app?vid=1a91c14e-474e-4036-b500-861efe4a0d87"},"vehicle_type_id":"4","last_reported":1758982084,"current_range_meters":5600,"station_id":"ce4bhnh2rcd13ifvqgug","pricing_plan_id":"cebpf4jnsgd1na2vs0mg"},{"bike_id":"1b289c65-fdf6-437a-ac40-c9db241d0093","system_id":"levelo_inurba_marseille","lat":43.29192,"lon":5.35814,"is_reserved":false,"is_disabled":false,"rental_uris":{"android":"levelo://app?vid=1b289c65-fdf6-437a-ac40-c9db241d0093","ios":"levelo://app?vid=1b289c65-fdf6-437a-ac40-c9db241d0093"},"vehicle_type_id":"4","last_reported":1758982084,"current_range_meters":6000,"station_id":"ce4bhb12rcd13ifvqel0","pricing_plan_id":"cebpf4jnsgd1na2vs0mg"},{"bike_id":"b7c51ef5-b2af-45bc-87a3-3f1ea9e26da6","system_id":"levelo_inurba_marseille","lat":43.308,"lon":5.38169,"is_reserved":false,"is_disabled":false,"rental_uris":{"android":"levelo://app?vid=b7c51ef5-b2af-45bc-87a3-3f1ea9e26da6","ios":"levelo://app?vid=b7c51ef5-b2af-45bc-87a3-3f1ea9e26da6"},"vehicle_type_id":"4","last_reported":1758982084,"current_range_meters":6000,"station_id":"ce4bgt12rcd13ifvqce0","pricing_plan_id":"cebpf4jnsgd1na2vs0mg"},{"bike_id":"cb97d57c-5779-4e37-8a90-bbddc4c01590","system_id":"levelo_inurba_marseille","lat":43.292717,"lon":5.408846,"is_reserved":false,"is_disabled":false,"rental_uris":{"android":"levelo://app?vid=cb97d57c-5779-4e37-8a90-bbddc4c01590","ios":"levelo://app?vid=cb97d57c-5779-4e37-8a90-bbddc4c01590"},"vehicle_type_id":"4","last_reported":1758982084,"current_range_meters":6000,"station_id":"ce4bh192rcd13ifvqdc0","pricing_plan_id":"cebpf4jnsgd1na2vs0mg"},{"bike_id":"eb966c70-2b24-4443-869c-a481d206b2b7","system_id":"levelo_inurba_marseille","lat":43.217425,"lon":5.346007,"is_reserved":false,"is_disabled":false,"rental_uris":{"android":"levelo://app?vid=eb966c70-2b24-4443-869c-a481d206b2b7","ios":"levelo://app?vid=eb966c70-2b24-4443-869c-a481d206b2b7"},"vehicle_type_id":"4","last_reported":1758982084,"current_range_meters":6000,"station_id":"st_cvj6r9ubvosntc0bgbag","pricing_plan_id":"cebpf4jnsgd1na2vs0mg"},{"bike_id":"041cd397-24ab-4e04-af23-07b961e161f4","system_id":"levelo_inurba_marseille","lat":43.337444,"lon":5.374475,"is_reserved":false,"is_disabled":false,"rental_uris":{"android":"levelo://app?vid=041cd397-24ab-4e04-af23-07b961e161f4","ios":"levelo://app?vid=041cd397-24ab-4e04-af23-07b961e161f4"},"vehicle_type_id":"4","last_reported":1758982084,"current_range_meters":6000,"station_id":"","pricing_plan_id":"cebpf4jnsgd1na2vs0mg"},{"bike_id":"5860fd71-a040-43b7-9a78-6773c291e385","system_id":"levelo_inurba_marseille","lat":43.26193,"lon":5.37453,"is_reserved":false,"is_disabled":false,"rental_uris":{"android":"levelo://app?vid=5860fd71-a040-43b7-9a78-6773c291e385","ios":"levelo://app?vid=5860fd71-a040-43b7-9a78-6773c291e385"},"vehicle_type_id":"4","last_reported":1758982084,"current_range_meters":6400,"station_id":"ce4bhgp2rcd13ifvqfc0","pricing_plan_id":"cebpf4jnsgd1na2vs0mg"},{"bike_id":"90aba6bb-04c9-4199-8679-640e954b961a","system_id":"levelo_inurba_marseille","lat":43.3054,"lon":5.38415,"is_reserved":false,"is_disabled":false,"rental_uris":{"android":"levelo://app?vid=90aba6bb-04c9-4199-8679-640e954b961a","ios":"levelo://app?vid=90aba6bb-04c9-4199-8679-640e954b961a"},"vehicle_type_id":"4","last_reported":1758982084,"current_range_meters":6400,"station_id":"ce4bgg92rcd13ifvqb30","pricing_plan_id":"cebpf4jnsgd1na2vs0mg"},{"bike_id":"d7481dc4-1865-479f-a493-f848adee1e34","system_id":"levelo_inurba_marseille","lat":43.27209,"lon":5.39175,"is_reserved":false,"is_disabled":false,"rental_uris":{"android":"levelo://app?vid=d7481dc4-1865-479f-a493-f848adee1e34","ios":"levelo://app?vid=d7481dc4-1865-479f-a493-f848adee1e34"},"vehicle_type_id":"4","last_reported":1758982084,"current_range_meters":6400,"station_id":"ce4bhhp2rcd13ifvqfm0","pricing_plan_id":"cebpf4jnsgd1na2vs0mg"},{"bike_id":"1028cd2b-b4fc-4d5c-9515-2844e29f4322","system_id":"levelo_inurba_marseille","lat":43.225362,"lon":5.348472,"is_reserved":false,"is_disabled":false,"rental_uris":{"android":"levelo://app?vid=1028cd2b-b4fc-4d5c-9515-2844e29f4322","ios":"levelo://app?vid=1028cd2b-b4fc-4d5c-9515-2844e29f4322"},"vehicle_type_id":"4","last_reported":1758982084,"current_range_meters":6400,"station_id":"","pricing_plan_id":"cebpf4jnsgd1na2vs0mg"},{"bike_id":"06df5b27-cf76-45a6-adcf-7487938b49d5","system_id":"levelo_inurba_marseille","lat":43.21187,"lon":5.35069,"is_reserved":false,"is_disabled":false,"rental_uris":{"android":"levelo://app?vid=06df5b27-cf76-45a6-adcf-7487938b49d5","ios":"levelo://app?vid=06df5b27-cf76-45a6-adcf-7487938b49d5"},"vehicle_type_id":"4","last_reported":1758982084,"current_range_meters":6400,"station_id":"st_cvj6sg6p6f1abm77japg","pricing_plan_id":"cebpf4jnsgd1na2vs0mg"},{"bike_id":"4fdbb02e-2b03-4b8c-831d-2f04db33a42a","system_id":"levelo_inurba_marseille","lat":43.29719,"lon":5.37699,"is_reserved":false,"is_disabled":false,"rental_uris":{"android":"levelo://app?vid=4fdbb02e-2b03-4b8c-831d-2f04db33a42a","ios":"levelo://app?vid=4fdbb02e-2b03-4b8c-831d-2f04db33a42a"},"vehicle_type_id":"4","last_reported":1758982084,"current_range_meters":6000,"station_id":"ce4bgkh2rcd13ifvqbl0","pricing_plan_id":"cebpf4jnsgd1na2vs0mg"},{"bike_id":"a462cce2-9104-46a9-a432-ba7c3c35eb6a","system_id":"levelo_inurba_marseille","lat":43.27052,"lon":5.40267,"is_reserved":false,"is_disabled":true,"rental_uris":{"android":"levelo://app?vid=a462cce2-9104-46a9-a432-ba7c3c35eb6a","ios":"levelo://app?vid=a462cce2-9104-46a9-a432-ba7c3c35eb6a"},"vehicle_type_id":"4","last_reported":1758982084,"current_range_meters":6400,"station_id":"ce4bhk92rcd13ifvqgc0","pricing_plan_id":"cebpf4jnsgd1na2vs0mg"},{"bike_id":"90b16cfb-4abf-4e40-a9c7-f357958b1e71","system_id":"levelo_inurba_marseille","lat":43.21187,"lon":5.35081,"is_reserved":false,"is_disabled":false,"rental_uris":{"android":"levelo://app?vid=90b16cfb-4abf-4e40-a9c7-f357958b1e71","ios":"levelo://app?vid=90b16cfb-4abf-4e40-a9c7-f357958b1e71"},"vehicle_type_id":"4","last_reported":1758982084,"current_range_meters":6400,"station_id":"st_cvj6sg6p6f1abm77japg","pricing_plan_id":"cebpf4jnsgd1na2vs0mg"},{"bike_id":"9b2a4166-4bf6-4740-b018-82f7f5312a3d","system_id":"levelo_inurba_marseille","lat":43.26935,"lon":5.4026,"is_reserved":false,"is_disabled":true,"rental_uris":{"android":"levelo://app?vid=9b2a4166-4bf6-4740-b018-82f7f5312a3d","ios":"levelo://app?vid=9b2a4166-4bf6-4740-b018-82f7f5312a3d"},"vehicle_type_id":"4","last_reported":1758982084,"current_range_meters":6800,"station_id":"cjm6bp8fraef2m0cb0m0","pricing_plan_id":"cebpf4jnsgd1na2vs0mg"},{"bike_id":"75611fb7-df45-4d9f-9db0-a181136cc424","system_id":"levelo_inurba_marseille","lat":43.21739,"lon":5.3459,"is_reserved":false,"is_disabled":false,"rental_uris":{"android":"levelo://app?vid=75611fb7-df45-4d9f-9db0-a181136cc424","ios":"levelo://app?vid=75611fb7-df45-4d9f-9db0-a181136cc424"},"vehicle_type_id":"4","last_reported":1758982084,"current_range_meters":6800,"station_id":"st_cvj6r9ubvosntc0bgbag","pricing_plan_id":"cebpf4jnsgd1na2vs0mg"},{"bike_id":"0b1eb747-8274-4a8a-a752-7c30d6b68dc6","system_id":"levelo_inurba_marseille","lat":43.29899,"lon":5.43658,"is_reserved":false,"is_disabled":false,"rental_uris":{"android":"levelo://app?vid=0b1eb747-8274-4a8a-a752-7c30d6b68dc6","ios":"levelo://app?vid=0b1eb747-8274-4a8a-a752-7c30d6b68dc6"},"vehicle_type_id":"4","last_reported":1758982084,"current_range_meters":6800,"station_id":"ce4bhpp2rcd13ifvqhfg","pricing_plan_id":"cebpf4jnsgd1na2vs0mg"},{"bike_id":"fa09aa4b-9e02-4bf1-bb2c-2662917291e0","system_id":"levelo_inurba_marseille","lat":43.299072,"lon":5.381543,"is_reserved":false,"is_disabled":false,"rental_uris":{"android":"levelo://app?vid=fa09aa4b-9e02-4bf1-bb2c-2662917291e0","ios":"levelo://app?vid=fa09aa4b-9e02-4bf1-bb2c-2662917291e0"},"vehicle_type_id":"4","last_reported":1758982084,"current_range_meters":6800,"station_id":"ce4bgj12rcd13ifvqbc0","pricing_plan_id":"cebpf4jnsgd1na2vs0mg"},{"bike_id":"da6d5d25-07a0-442d-964f-4ab9277db94f","system_id":"levelo_inurba_marseille","lat":43.27176,"lon":5.40996,"is_reserved":false,"is_disabled":false,"rental_uris":{"android":"levelo://app?vid=da6d5d25-07a0-442d-964f-4ab9277db94f","ios":"levelo://app?vid=da6d5d25-07a0-442d-964f-4ab9277db94f"},"vehicle_type_id":"4","last_reported":1758982084,"current_range_meters":6800,"station_id":"ce4bhl12rcd13ifvqgf0","pricing_plan_id":"cebpf4jnsgd1na2vs0mg"},{"bike_id":"ce98b368-6a6b-4373-b557-f58feedc4dcc","system_id":"levelo_inurba_marseille","lat":43.29262,"lon":5.38443,"is_reserved":false,"is_disabled":false,"rental_uris":{"android":"levelo://app?vid=ce98b368-6a6b-4373-b557-f58feedc4dcc","ios":"levelo://app?vid=ce98b368-6a6b-4373-b557-f58feedc4dcc"},"vehicle_type_id":"4","last_reported":1758982084,"current_range_meters":7200,"station_id":"ce4bh692rcd13ifvqea0","pricing_plan_id":"cebpf4jnsgd1na2vs0mg"},{"bike_id":"5365e873-98ea-45e2-9689-7e119051f22e","system_id":"levelo_inurba_marseille","lat":43.32363,"lon":5.38888,"is_reserved":false,"is_disabled":false,"rental_uris":{"android":"levelo://app?vid=5365e873-98ea-45e2-9689-7e119051f22e","ios":"levelo://app?vid=5365e873-98ea-45e2-9689-7e119051f22e"},"vehicle_type_id":"4","last_reported":1758982084,"current_range_meters":7200,"station_id":"ce4bhqp2rcd13ifvqhog","pricing_plan_id":"cebpf4jnsgd1na2vs0mg"},{"bike_id":"69699675-8a18-4582-a1c3-6bfb6681de1d","system_id":"levelo_inurba_marseille","lat":43.2119,"lon":5.35069,"is_reserved":false,"is_disabled":false,"rental_uris":{"android":"levelo://app?vid=69699675-8a18-4582-a1c3-6bfb6681de1d","ios":"levelo://app?vid=69699675-8a18-4582-a1c3-6bfb6681de1d"},"vehicle_type_id":"4","last_reported":1758982084,"current_range_meters":7200,"station_id":"st_cvj6sg6p6f1abm77japg","pricing_plan_id":"cebpf4jnsgd1na2vs0mg"},{"bike_id":"87a9ad93-2256-4d89-8ccc-0caf07d515a8","system_id":"levelo_inurba_marseille","lat":43.31328,"lon":5.3969,"is_reserved":false,"is_disabled":false,"rental_uris":{"android":"levelo://app?vid=87a9ad93-2256-4d89-8ccc-0caf07d515a8","ios":"levelo://app?vid=87a9ad93-2256-4d89-8ccc-0caf07d515a8"},"vehicle_type_id":"4","last_reported":1758982084,"current_range_meters":7200,"station_id":"ce4bgvp2rcd13ifvqcu0","pricing_plan_id":"cebpf4jnsgd1na2vs0mg"},{"bike_id":"174dfb4f-f618-4c2f-be1c-ae0d6b405e94","system_id":"levelo_inurba_marseille","lat":43.29708,"lon":5.3827,"is_reserved":false,"is_disabled":false,"rental_uris":{"android":"levelo://app?vid=174dfb4f-f618-4c2f-be1c-ae0d6b405e94","ios":"levelo://app?vid=174dfb4f-f618-4c2f-be1c-ae0d6b405e94"},"vehicle_type_id":"4","last_reported":1758982084,"current_range_meters":7200,"station_id":"","pricing_plan_id":"cebpf4jnsgd1na2vs0mg"},{"bike_id":"4ea066be-d5c0-4685-b39a-612a810bdfbb","system_id":"levelo_inurba_marseille","lat":43.33768,"lon":5.37471,"is_reserved":false,"is_disabled":true,"rental_uris":{"android":"levelo://app?vid=4ea066be-d5c0-4685-b39a-612a810bdfbb","ios":"levelo://app?vid=4ea066be-d5c0-4685-b39a-612a810bdfbb"},"vehicle_type_id":"4","last_reported":1758982084,"current_range_meters":7200,"station_id":"","pricing_plan_id":"cebpf4jnsgd1na2vs0mg"},{"bike_id":"117e17c3-21f2-4b0f-a4f3-0e48c37f86f4","system_id":"levelo_inurba_marseille","lat":43.29966,"lon":5.38495,"is_reserved":false,"is_disabled":false,"rental_uris":{"android":"levelo://app?vid=117e17c3-21f2-4b0f-a4f3-0e48c37f86f4","ios":"levelo://app?vid=117e17c3-21f2-4b0f-a4f3-0e48c37f86f4"},"vehicle_type_id":"4","last_reported":1758982084,"current_range_meters":7200,"station_id":"ce4bgj92rcd13ifvqbd0","pricing_plan_id":"cebpf4jnsgd1na2vs0mg"},{"bike_id":"da08e6e1-3bf0-4983-81b5-aeb0c6c7c7fc","system_id":"levelo_inurba_marseille","lat":43.28263,"lon":5.3506,"is_reserved":false,"is_disabled":false,"rental_uris":{"android":"levelo://app?vid=da08e6e1-3bf0-4983-81b5-aeb0c6c7c7fc","ios":"levelo://app?vid=da08e6e1-3bf0-4983-81b5-aeb0c6c7c7fc"},"vehicle_type_id":"4","last_reported":1758982084,"current_range_meters":7200,"station_id":"ce4bhbp2rcd13ifvqerg","pricing_plan_id":"cebpf4jnsgd1na2vs0mg"},{"bike_id":"805495fe-c5f6-42c0-b3da-881ffa9f9449","system_id":"levelo_inurba_marseille","lat":43.27843,"lon":5.39213,"is_reserved":false,"is_disabled":false,"rental_uris":{"android":"levelo://app?vid=805495fe-c5f6-42c0-b3da-881ffa9f9449","ios":"levelo://app?vid=805495fe-c5f6-42c0-b3da-881ffa9f9449"},"vehicle_type_id":"4","last_reported":1758982084,"current_range_meters":7200,"station_id":"ce4bhjp2rcd13ifvqga0","pricing_plan_id":"cebpf4jnsgd1na2vs0mg"},{"bike_id":"580ae213-a1ce-44cc-a06d-4738eb251267","system_id":"levelo_inurba_marseille","lat":43.284068,"lon":5.349763,"is_reserved":false,"is_disabled":false,"rental_uris":{"android":"levelo://app?vid=580ae213-a1ce-44cc-a06d-4738eb251267","ios":"levelo://app?vid=580ae213-a1ce-44cc-a06d-4738eb251267"},"vehicle_type_id":"4","last_reported":1758982084,"current_range_meters":7200,"station_id":"ce4bhbh2rcd13ifvqepg","pricing_plan_id":"cebpf4jnsgd1na2vs0mg"},{"bike_id":"ae69dd1b-e926-4587-9bb2-56d4e5b60ef8","system_id":"levelo_inurba_marseille","lat":43.29276,"lon":5.40115,"is_reserved":false,"is_disabled":false,"rental_uris":{"android":"levelo://app?vid=ae69dd1b-e926-4587-9bb2-56d4e5b60ef8","ios":"levelo://app?vid=ae69dd1b-e926-4587-9bb2-56d4e5b60ef8"},"vehicle_type_id":"4","last_reported":1758982084,"current_range_meters":7200,"station_id":"ce4bh312rcd13ifvqdk0","pricing_plan_id":"cebpf4jnsgd1na2vs0mg"},{"bike_id":"4f562fc5-f162-44bf-bf9d-1cd64a44b25e","system_id":"levelo_inurba_marseille","lat":43.2827,"lon":5.35064,"is_reserved":false,"is_disabled":false,"rental_uris":{"android":"levelo://app?vid=4f562fc5-f162-44bf-bf9d-1cd64a44b25e","ios":"levelo://app?vid=4f562fc5-f162-44bf-bf9d-1cd64a44b25e"},"vehicle_type_id":"4","last_reported":1758982084,"current_range_meters":6800,"station_id":"ce4bhbp2rcd13ifvqerg","pricing_plan_id":"cebpf4jnsgd1na2vs0mg"},{"bike_id":"7b65e264-2dd9-4f1a-9195-0dbc1cf0a026","system_id":"levelo_inurba_marseille","lat":43.27999,"lon":5.4001,"is_reserved":false,"is_disabled":false,"rental_uris":{"android":"levelo://app?vid=7b65e264-2dd9-4f1a-9195-0dbc1cf0a026","ios":"levelo://app?vid=7b65e264-2dd9-4f1a-9195-0dbc1cf0a026"},"vehicle_type_id":"4","last_reported":1758982084,"current_range_meters":7200,"station_id":"ce4bho92rcd13ifvqh4g","pricing_plan_id":"cebpf4jnsgd1na2vs0mg"},{"bike_id":"c2207658-b923-4a8f-a2fa-281c17511191","system_id":"levelo_inurba_marseille","lat":43.32475,"lon":5.36565,"is_reserved":false,"is_disabled":false,"rental_uris":{"android":"levelo://app?vid=c2207658-b923-4a8f-a2fa-281c17511191","ios":"levelo://app?vid=c2207658-b923-4a8f-a2fa-281c17511191"},"vehicle_type_id":"4","last_reported":1758982084,"current_range_meters":8000,"station_id":"ce4bhs12rcd13ifvqhvg","pricing_plan_id":"cebpf4jnsgd1na2vs0mg"},{"bike_id":"93228355-f00c-4723-a64e-074d0a5b2b08","system_id":"levelo_inurba_marseille","lat":43.29199,"lon":5.3581,"is_reserved":false,"is_disabled":false,"rental_uris":{"android":"levelo://app?vid=93228355-f00c-4723-a64e-074d0a5b2b08","ios":"levelo://app?vid=93228355-f00c-4723-a64e-074d0a5b2b08"},"vehicle_type_id":"4","last_reported":1758982084,"current_range_meters":8000,"station_id":"ce4bhb12rcd13ifvqel0","pricing_plan_id":"cebpf4jnsgd1na2vs0mg"},{"bike_id":"c8232037-c851-47ec-82d6-c3e061723810","system_id":"levelo_inurba_marseille","lat":43.272247,"lon":5.391985,"is_reserved":false,"is_disabled":false,"rental_uris":{"android":"levelo://app?vid=c8232037-c851-47ec-82d6-c3e061723810","ios":"levelo://app?vid=c8232037-c851-47ec-82d6-c3e061723810"},"vehicle_type_id":"4","last_reported":1758982084,"current_range_meters":8000,"station_id":"ce4bh412rcd13ifvqds0","pricing_plan_id":"cebpf4jnsgd1na2vs0mg"},{"bike_id":"b8b6f8a4-3847-4442-ab0a-61917887959d","system_id":"levelo_inurba_marseille","lat":43.28691,"lon":5.39979,"is_reserved":false,"is_disabled":false,"rental_uris":{"android":"levelo://app?vid=b8b6f8a4-3847-4442-ab0a-61917887959d","ios":"levelo://app?vid=b8b6f8a4-3847-4442-ab0a-61917887959d"},"vehicle_type_id":"4","last_reported":1758982084,"current_range_meters":8000,"station_id":"ce4bho92rcd13ifvqh3g","pricing_plan_id":"cebpf4jnsgd1na2vs0mg"},{"bike_id":"3a173072-2714-45a8-83c1-deec7b1fc5cb","system_id":"levelo_inurba_marseille","lat":43.28666,"lon":5.38667,"is_reserved":false,"is_disabled":false,"rental_uris":{"android":"levelo://app?vid=3a173072-2714-45a8-83c1-deec7b1fc5cb","ios":"levelo://app?vid=3a173072-2714-45a8-83c1-deec7b1fc5cb"},"vehicle_type_id":"4","last_reported":1758982084,"current_range_meters":8400,"station_id":"ce4bh492rcd13ifvqdug","pricing_plan_id":"cebpf4jnsgd1na2vs0mg"},{"bike_id":"10a08b9f-7a07-4893-966e-3a697be34c1f","system_id":"levelo_inurba_marseille","lat":43.28852,"lon":5.35851,"is_reserved":false,"is_disabled":false,"rental_uris":{"android":"levelo://app?vid=10a08b9f-7a07-4893-966e-3a697be34c1f","ios":"levelo://app?vid=10a08b9f-7a07-4893-966e-3a697be34c1f"},"vehicle_type_id":"4","last_reported":1758982084,"current_range_meters":8400,"station_id":"ce4bhb12rcd13ifvqem0","pricing_plan_id":"cebpf4jnsgd1na2vs0mg"},{"bike_id":"cd5332c8-b7a4-42d8-bbee-d21346d785c0","system_id":"levelo_inurba_marseille","lat":43.32483,"lon":5.36558,"is_reserved":false,"is_disabled":false,"rental_uris":{"android":"levelo://app?vid=cd5332c8-b7a4-42d8-bbee-d21346d785c0","ios":"levelo://app?vid=cd5332c8-b7a4-42d8-bbee-d21346d785c0"},"vehicle_type_id":"4","last_reported":1758982084,"current_range_meters":8400,"station_id":"ce4bhs12rcd13ifvqhvg","pricing_plan_id":"cebpf4jnsgd1na2vs0mg"},{"bike_id":"741795d3-e69e-4dae-b7e3-e150ab063b9f","system_id":"levelo_inurba_marseille","lat":43.27068,"lon":5.40253,"is_reserved":false,"is_disabled":false,"rental_uris":{"android":"levelo://app?vid=741795d3-e69e-4dae-b7e3-e150ab063b9f","ios":"levelo://app?vid=741795d3-e69e-4dae-b7e3-e150ab063b9f"},"vehicle_type_id":"4","last_reported":1758982084,"current_range_meters":8400,"station_id":"ce4bhk92rcd13ifvqgc0","pricing_plan_id":"cebpf4jnsgd1na2vs0mg"},{"bike_id":"02b68390-89b6-46d7-a1d1-d0b7b60c06b8","system_id":"levelo_inurba_marseille","lat":43.26193,"lon":5.37453,"is_reserved":false,"is_disabled":false,"rental_uris":{"android":"levelo://app?vid=02b68390-89b6-46d7-a1d1-d0b7b60c06b8","ios":"levelo://app?vid=02b68390-89b6-46d7-a1d1-d0b7b60c06b8"},"vehicle_type_id":"4","last_reported":1758982084,"current_range_meters":8400,"station_id":"ce4bhgp2rcd13ifvqfc0","pricing_plan_id":"cebpf4jnsgd1na2vs0mg"},{"bike_id":"7a9821bc-a2fe-45d1-8a60-a0192f399340","system_id":"levelo_inurba_marseille","lat":43.30632,"lon":5.400631,"is_reserved":false,"is_disabled":false,"rental_uris":{"android":"levelo://app?vid=7a9821bc-a2fe-45d1-8a60-a0192f399340","ios":"levelo://app?vid=7a9821bc-a2fe-45d1-8a60-a0192f399340"},"vehicle_type_id":"4","last_reported":1758982084,"current_range_meters":8400,"station_id":"ce4bh112rcd13ifvqda0","pricing_plan_id":"cebpf4jnsgd1na2vs0mg"},{"bike_id":"247b6e67-4d46-4811-9eda-5b97b76bd341","system_id":"levelo_inurba_marseille","lat":43.27375,"lon":5.36246,"is_reserved":false,"is_disabled":false,"rental_uris":{"android":"levelo://app?vid=247b6e67-4d46-4811-9eda-5b97b76bd341","ios":"levelo://app?vid=247b6e67-4d46-4811-9eda-5b97b76bd341"},"vehicle_type_id":"4","last_reported":1758982084,"current_range_meters":8400,"station_id":"ce4bhbh2rcd13ifvqeo0","pricing_plan_id":"cebpf4jnsgd1na2vs0mg"},{"bike_id":"3110b026-3d6c-4189-baff-4e89506fd82c","system_id":"levelo_inurba_marseille","lat":43.25587,"lon":5.38233,"is_reserved":false,"is_disabled":false,"rental_uris":{"android":"levelo://app?vid=3110b026-3d6c-4189-baff-4e89506fd82c","ios":"levelo://app?vid=3110b026-3d6c-4189-baff-4e89506fd82c"},"vehicle_type_id":"4","last_reported":1758982084,"current_range_meters":8400,"station_id":"ce4bhih2rcd13ifvqfs0","pricing_plan_id":"cebpf4jnsgd1na2vs0mg"},{"bike_id":"d2b4ac83-91e6-46fb-9929-4b55b0b2c4f5","system_id":"levelo_inurba_marseille","lat":43.25711,"lon":5.41138,"is_reserved":false,"is_disabled":false,"rental_uris":{"android":"levelo://app?vid=d2b4ac83-91e6-46fb-9929-4b55b0b2c4f5","ios":"levelo://app?vid=d2b4ac83-91e6-46fb-9929-4b55b0b2c4f5"},"vehicle_type_id":"4","last_reported":1758982084,"current_range_meters":8400,"station_id":"ce4bhkp2rcd13ifvqgd0","pricing_plan_id":"cebpf4jnsgd1na2vs0mg"},{"bike_id":"a639c491-c436-478a-8d5d-bd2c30b918ff","system_id":"levelo_inurba_marseille","lat":43.29757,"lon":5.37223,"is_reserved":false,"is_disabled":false,"rental_uris":{"android":"levelo://app?vid=a639c491-c436-478a-8d5d-bd2c30b918ff","ios":"levelo://app?vid=a639c491-c436-478a-8d5d-bd2c30b918ff"},"vehicle_type_id":"4","last_reported":1758982084,"current_range_meters":8400,"station_id":"","pricing_plan_id":"cebpf4jnsgd1na2vs0mg"},{"bike_id":"bee0d985-86ef-4df9-9d1a-fa2cbb71f060","system_id":"levelo_inurba_marseille","lat":43.27317,"lon":5.39069,"is_reserved":false,"is_disabled":false,"rental_uris":{"android":"levelo://app?vid=bee0d985-86ef-4df9-9d1a-fa2cbb71f060","ios":"levelo://app?vid=bee0d985-86ef-4df9-9d1a-fa2cbb71f060"},"vehicle_type_id":"4","last_reported":1758982084,"current_range_meters":8400,"station_id":"ce4bhgp2rcd13ifvqfe0","pricing_plan_id":"cebpf4jnsgd1na2vs0mg"},{"bike_id":"200011ff-c365-439a-badc-c2154db5af2d","system_id":"levelo_inurba_marseille","lat":43.29361,"lon":5.37836,"is_reserved":false,"is_disabled":false,"rental_uris":{"android":"levelo://app?vid=200011ff-c365-439a-badc-c2154db5af2d","ios":"levelo://app?vid=200011ff-c365-439a-badc-c2154db5af2d"},"vehicle_type_id":"4","last_reported":1758982084,"current_range_meters":8400,"station_id":"","pricing_plan_id":"cebpf4jnsgd1na2vs0mg"},{"bike_id":"f81d740e-5a47-4f22-a27f-7e5a1a3e086e","system_id":"levelo_inurba_marseille","lat":43.28703,"lon":5.39985,"is_reserved":false,"is_disabled":false,"rental_uris":{"android":"levelo://app?vid=f81d740e-5a47-4f22-a27f-7e5a1a3e086e","ios":"levelo://app?vid=f81d740e-5a47-4f22-a27f-7e5a1a3e086e"},"vehicle_type_id":"4","last_reported":1758982084,"current_range_meters":8800,"station_id":"ce4bho92rcd13ifvqh3g","pricing_plan_id":"cebpf4jnsgd1na2vs0mg"},{"bike_id":"a6bb3f7e-1291-473c-8705-9c817f65406c","system_id":"levelo_inurba_marseille","lat":43.21753,"lon":5.34591,"is_reserved":false,"is_disabled":false,"rental_uris":{"android":"levelo://app?vid=a6bb3f7e-1291-473c-8705-9c817f65406c","ios":"levelo://app?vid=a6bb3f7e-1291-473c-8705-9c817f65406c"},"vehicle_type_id":"4","last_reported":1758982084,"current_range_meters":8800,"station_id":"st_cvj6r9ubvosntc0bgbag","pricing_plan_id":"cebpf4jnsgd1na2vs0mg"},{"bike_id":"2907de3a-cdb7-4c49-945b-9d4546080cdd","system_id":"levelo_inurba_marseille","lat":43.29481,"lon":5.36236,"is_reserved":false,"is_disabled":false,"rental_uris":{"android":"levelo://app?vid=2907de3a-cdb7-4c49-945b-9d4546080cdd","ios":"levelo://app?vid=2907de3a-cdb7-4c49-945b-9d4546080cdd"},"vehicle_type_id":"4","last_reported":1758982084,"current_range_meters":8800,"station_id":"","pricing_plan_id":"cebpf4jnsgd1na2vs0mg"},{"bike_id":"9a4f92ed-e086-4038-a651-bbe0613f80bd","system_id":"levelo_inurba_marseille","lat":43.22576,"lon":5.4162,"is_reserved":false,"is_disabled":false,"rental_uris":{"android":"levelo://app?vid=9a4f92ed-e086-4038-a651-bbe0613f80bd","ios":"levelo://app?vid=9a4f92ed-e086-4038-a651-bbe0613f80bd"},"vehicle_type_id":"4","last_reported":1758982084,"current_range_meters":9200,"station_id":"st_d2o4gvlbi1j2169b742g","pricing_plan_id":"cebpf4jnsgd1na2vs0mg"},{"bike_id":"3b6f32f4-65d4-44ce-9bb8-a50393055e8d","system_id":"levelo_inurba_marseille","lat":43.27207,"lon":5.3918,"is_reserved":false,"is_disabled":false,"rental_uris":{"android":"levelo://app?vid=3b6f32f4-65d4-44ce-9bb8-a50393055e8d","ios":"levelo://app?vid=3b6f32f4-65d4-44ce-9bb8-a50393055e8d"},"vehicle_type_id":"4","last_reported":1758982084,"current_range_meters":9200,"station_id":"ce4bhhp2rcd13ifvqfm0","pricing_plan_id":"cebpf4jnsgd1na2vs0mg"},{"bike_id":"08fe2b08-b3fa-43f8-ae73-04061f76318d","system_id":"levelo_inurba_marseille","lat":43.305552,"lon":5.365395,"is_reserved":false,"is_disabled":false,"rental_uris":{"android":"levelo://app?vid=08fe2b08-b3fa-43f8-ae73-04061f76318d","ios":"levelo://app?vid=08fe2b08-b3fa-43f8-ae73-04061f76318d"},"vehicle_type_id":"4","last_reported":1758982084,"current_range_meters":9200,"station_id":"","pricing_plan_id":"cebpf4jnsgd1na2vs0mg"},{"bike_id":"443f7dc3-4c35-4975-a8f4-b6a0ee79874b","system_id":"levelo_inurba_marseille","lat":43.29242,"lon":5.37214,"is_reserved":false,"is_disabled":false,"rental_uris":{"android":"levelo://app?vid=443f7dc3-4c35-4975-a8f4-b6a0ee79874b","ios":"levelo://app?vid=443f7dc3-4c35-4975-a8f4-b6a0ee79874b"},"vehicle_type_id":"4","last_reported":1758982084,"current_range_meters":9200,"station_id":"","pricing_plan_id":"cebpf4jnsgd1na2vs0mg"},{"bike_id":"34a7defe-70c0-456f-a0a0-c863b55b9a43","system_id":"levelo_inurba_marseille","lat":43.217457,"lon":5.346013,"is_reserved":false,"is_disabled":false,"rental_uris":{"android":"levelo://app?vid=34a7defe-70c0-456f-a0a0-c863b55b9a43","ios":"levelo://app?vid=34a7defe-70c0-456f-a0a0-c863b55b9a43"},"vehicle_type_id":"4","last_reported":1758982084,"current_range_meters":9200,"station_id":"st_cvj6r9ubvosntc0bgbag","pricing_plan_id":"cebpf4jnsgd1na2vs0mg"},{"bike_id":"12b962dd-dab1-4da6-801e-14aa3708c3f6","system_id":"levelo_inurba_marseille","lat":43.21758,"lon":5.34602,"is_reserved":false,"is_disabled":false,"rental_uris":{"android":"levelo://app?vid=12b962dd-dab1-4da6-801e-14aa3708c3f6","ios":"levelo://app?vid=12b962dd-dab1-4da6-801e-14aa3708c3f6"},"vehicle_type_id":"4","last_reported":1758982084,"current_range_meters":9200,"station_id":"st_cvj6r9ubvosntc0bgbag","pricing_plan_id":"cebpf4jnsgd1na2vs0mg"},{"bike_id":"69a62fd3-0958-4f3c-b7b8-d7bc800aecff","system_id":"levelo_inurba_marseille","lat":43.21208,"lon":5.35069,"is_reserved":false,"is_disabled":false,"rental_uris":{"android":"levelo://app?vid=69a62fd3-0958-4f3c-b7b8-d7bc800aecff","ios":"levelo://app?vid=69a62fd3-0958-4f3c-b7b8-d7bc800aecff"},"vehicle_type_id":"4","last_reported":1758982084,"current_range_meters":9200,"station_id":"st_cvj6sg6p6f1abm77japg","pricing_plan_id":"cebpf4jnsgd1na2vs0mg"},{"bike_id":"7aa0b385-6d74-4468-8425-237ce050c0dd","system_id":"levelo_inurba_marseille","lat":43.29606,"lon":5.37717,"is_reserved":false,"is_disabled":false,"rental_uris":{"android":"levelo://app?vid=7aa0b385-6d74-4468-8425-237ce050c0dd","ios":"levelo://app?vid=7aa0b385-6d74-4468-8425-237ce050c0dd"},"vehicle_type_id":"4","last_reported":1758982084,"current_range_meters":9200,"station_id":"ce4bgi92rcd13ifvqb90","pricing_plan_id":"cebpf4jnsgd1na2vs0mg"},{"bike_id":"0e688cb7-c0aa-4626-b449-e15f2f173be7","system_id":"levelo_inurba_marseille","lat":43.2667,"lon":5.38267,"is_reserved":false,"is_disabled":false,"rental_uris":{"android":"levelo://app?vid=0e688cb7-c0aa-4626-b449-e15f2f173be7","ios":"levelo://app?vid=0e688cb7-c0aa-4626-b449-e15f2f173be7"},"vehicle_type_id":"4","last_reported":1758982084,"current_range_meters":9600,"station_id":"ce4bhg92rcd13ifvqf90","pricing_plan_id":"cebpf4jnsgd1na2vs0mg"},{"bike_id":"5bfdff97-3089-4f1a-acba-1011ce8f0a3a","system_id":"levelo_inurba_marseille","lat":43.24426,"lon":5.38383,"is_reserved":false,"is_disabled":false,"rental_uris":{"android":"levelo://app?vid=5bfdff97-3089-4f1a-acba-1011ce8f0a3a","ios":"levelo://app?vid=5bfdff97-3089-4f1a-acba-1011ce8f0a3a"},"vehicle_type_id":"4","last_reported":1758982084,"current_range_meters":9600,"station_id":"","pricing_plan_id":"cebpf4jnsgd1na2vs0mg"},{"bike_id":"87d1e1e4-2f18-4641-aa05-3c58dec2296f","system_id":"levelo_inurba_marseille","lat":43.273761,"lon":5.362551,"is_reserved":false,"is_disabled":false,"rental_uris":{"android":"levelo://app?vid=87d1e1e4-2f18-4641-aa05-3c58dec2296f","ios":"levelo://app?vid=87d1e1e4-2f18-4641-aa05-3c58dec2296f"},"vehicle_type_id":"4","last_reported":1758982084,"current_range_meters":9600,"station_id":"ce4bhbh2rcd13ifvqeo0","pricing_plan_id":"cebpf4jnsgd1na2vs0mg"},{"bike_id":"01bb3554-a4c5-4108-9a56-db598e72b58a","system_id":"levelo_inurba_marseille","lat":43.30547,"lon":5.36539,"is_reserved":false,"is_disabled":false,"rental_uris":{"android":"levelo://app?vid=01bb3554-a4c5-4108-9a56-db598e72b58a","ios":"levelo://app?vid=01bb3554-a4c5-4108-9a56-db598e72b58a"},"vehicle_type_id":"4","last_reported":1758982084,"current_range_meters":9600,"station_id":"ce4bgs12rcd13ifvqcag","pricing_plan_id":"cebpf4jnsgd1na2vs0mg"},{"bike_id":"ffc92de0-b837-4c6a-a389-1c802a91b54f","system_id":"levelo_inurba_marseille","lat":43.27376,"lon":5.36247,"is_reserved":false,"is_disabled":false,"rental_uris":{"android":"levelo://app?vid=ffc92de0-b837-4c6a-a389-1c802a91b54f","ios":"levelo://app?vid=ffc92de0-b837-4c6a-a389-1c802a91b54f"},"vehicle_type_id":"4","last_reported":1758982084,"current_range_meters":9600,"station_id":"ce4bhbh2rcd13ifvqeo0","pricing_plan_id":"cebpf4jnsgd1na2vs0mg"},{"bike_id":"0b2fda4e-ac18-414b-8b05-54fcdd4fc421","system_id":"levelo_inurba_marseille","lat":43.3229,"lon":5.38265,"is_reserved":false,"is_disabled":false,"rental_uris":{"android":"levelo://app?vid=0b2fda4e-ac18-414b-8b05-54fcdd4fc421","ios":"levelo://app?vid=0b2fda4e-ac18-414b-8b05-54fcdd4fc421"},"vehicle_type_id":"4","last_reported":1758982084,"current_range_meters":9600,"station_id":"ce4bhr12rcd13ifvqhqg","pricing_plan_id":"cebpf4jnsgd1na2vs0mg"},{"bike_id":"0a985552-4364-4723-8528-9a5baf187beb","system_id":"levelo_inurba_marseille","lat":43.26561,"lon":5.38999,"is_reserved":false,"is_disabled":false,"rental_uris":{"android":"levelo://app?vid=0a985552-4364-4723-8528-9a5baf187beb","ios":"levelo://app?vid=0a985552-4364-4723-8528-9a5baf187beb"},"vehicle_type_id":"4","last_reported":1758982084,"current_range_meters":9600,"station_id":"ce4bhe12rcd13ifvqf30","pricing_plan_id":"cebpf4jnsgd1na2vs0mg"},{"bike_id":"3e759d0e-fc8e-490f-97ba-370f5b01cb5e","system_id":"levelo_inurba_marseille","lat":43.217397,"lon":5.346036,"is_reserved":false,"is_disabled":false,"rental_uris":{"android":"levelo://app?vid=3e759d0e-fc8e-490f-97ba-370f5b01cb5e","ios":"levelo://app?vid=3e759d0e-fc8e-490f-97ba-370f5b01cb5e"},"vehicle_type_id":"4","last_reported":1758982084,"current_range_meters":10000,"station_id":"","pricing_plan_id":"cebpf4jnsgd1na2vs0mg"},{"bike_id":"79092a7b-4bdb-462b-b0d9-1da561930354","system_id":"levelo_inurba_marseille","lat":43.28859,"lon":5.42522,"is_reserved":false,"is_disabled":false,"rental_uris":{"android":"levelo://app?vid=79092a7b-4bdb-462b-b0d9-1da561930354","ios":"levelo://app?vid=79092a7b-4bdb-462b-b0d9-1da561930354"},"vehicle_type_id":"4","last_reported":1758982084,"current_range_meters":10000,"station_id":"st_d3b462108ojc7389ooeg","pricing_plan_id":"cebpf4jnsgd1na2vs0mg"},{"bike_id":"5f657238-3924-4edf-9381-8ddeee15c693","system_id":"levelo_inurba_marseille","lat":43.225334,"lon":5.348386,"is_reserved":false,"is_disabled":false,"rental_uris":{"android":"levelo://app?vid=5f657238-3924-4edf-9381-8ddeee15c693","ios":"levelo://app?vid=5f657238-3924-4edf-9381-8ddeee15c693"},"vehicle_type_id":"4","last_reported":1758982084,"current_range_meters":10000,"station_id":"","pricing_plan_id":"cebpf4jnsgd1na2vs0mg"},{"bike_id":"8360fe96-8a6b-4a67-9ba4-0ef948b002e1","system_id":"levelo_inurba_marseille","lat":43.250041,"lon":5.389087,"is_reserved":false,"is_disabled":false,"rental_uris":{"android":"levelo://app?vid=8360fe96-8a6b-4a67-9ba4-0ef948b002e1","ios":"levelo://app?vid=8360fe96-8a6b-4a67-9ba4-0ef948b002e1"},"vehicle_type_id":"4","last_reported":1758982084,"current_range_meters":10000,"station_id":"ce4bhgp2rcd13ifvqfd0","pricing_plan_id":"cebpf4jnsgd1na2vs0mg"},{"bike_id":"6c00a6a0-3cf0-48a9-b218-0693fab11be9","system_id":"levelo_inurba_marseille","lat":43.3029,"lon":5.43494,"is_reserved":false,"is_disabled":false,"rental_uris":{"android":"levelo://app?vid=6c00a6a0-3cf0-48a9-b218-0693fab11be9","ios":"levelo://app?vid=6c00a6a0-3cf0-48a9-b218-0693fab11be9"},"vehicle_type_id":"4","last_reported":1758982084,"current_range_meters":10000,"station_id":"","pricing_plan_id":"cebpf4jnsgd1na2vs0mg"},{"bike_id":"23ddd2c9-5af6-4e31-a05e-bc27ac4e3673","system_id":"levelo_inurba_marseille","lat":43.21745,"lon":5.34612,"is_reserved":false,"is_disabled":false,"rental_uris":{"android":"levelo://app?vid=23ddd2c9-5af6-4e31-a05e-bc27ac4e3673","ios":"levelo://app?vid=23ddd2c9-5af6-4e31-a05e-bc27ac4e3673"},"vehicle_type_id":"4","last_reported":1758982084,"current_range_meters":10000,"station_id":"","pricing_plan_id":"cebpf4jnsgd1na2vs0mg"},{"bike_id":"cdc89dd7-79fa-4381-8161-d2091b5ca7d4","system_id":"levelo_inurba_marseille","lat":43.22563,"lon":5.41624,"is_reserved":false,"is_disabled":false,"rental_uris":{"android":"levelo://app?vid=cdc89dd7-79fa-4381-8161-d2091b5ca7d4","ios":"levelo://app?vid=cdc89dd7-79fa-4381-8161-d2091b5ca7d4"},"vehicle_type_id":"4","last_reported":1758982084,"current_range_meters":10000,"station_id":"st_d2o4gvlbi1j2169b742g","pricing_plan_id":"cebpf4jnsgd1na2vs0mg"},{"bike_id":"fee74e98-eb52-4f66-a612-109c75f34aa6","system_id":"levelo_inurba_marseille","lat":43.296216,"lon":5.379492,"is_reserved":false,"is_disabled":false,"rental_uris":{"android":"levelo://app?vid=fee74e98-eb52-4f66-a612-109c75f34aa6","ios":"levelo://app?vid=fee74e98-eb52-4f66-a612-109c75f34aa6"},"vehicle_type_id":"4","last_reported":1758982084,"current_range_meters":10000,"station_id":"","pricing_plan_id":"cebpf4jnsgd1na2vs0mg"},{"bike_id":"04c45487-5861-41e6-a331-b040d875ec96","system_id":"levelo_inurba_marseille","lat":43.298184,"lon":5.380872,"is_reserved":false,"is_disabled":false,"rental_uris":{"android":"levelo://app?vid=04c45487-5861-41e6-a331-b040d875ec96","ios":"levelo://app?vid=04c45487-5861-41e6-a331-b040d875ec96"},"vehicle_type_id":"4","last_reported":1758982084,"current_range_meters":8000,"station_id":"ce4bgip2rcd13ifvqbb0","pricing_plan_id":"cebpf4jnsgd1na2vs0mg"},{"bike_id":"1e330786-637d-4cfa-bcc0-02c21b7ff082","system_id":"levelo_inurba_marseille","lat":43.2905,"lon":5.35916,"is_reserved":false,"is_disabled":false,"rental_uris":{"android":"levelo://app?vid=1e330786-637d-4cfa-bcc0-02c21b7ff082","ios":"levelo://app?vid=1e330786-637d-4cfa-bcc0-02c21b7ff082"},"vehicle_type_id":"4","last_reported":1758982084,"current_range_meters":10000,"station_id":"ce4bha92rcd13ifvqeg0","pricing_plan_id":"cebpf4jnsgd1na2vs0mg"},{"bike_id":"a6187c30-1c11-4309-be70-335b3ca8c646","system_id":"levelo_inurba_marseille","lat":43.21186,"lon":5.35058,"is_reserved":false,"is_disabled":false,"rental_uris":{"android":"levelo://app?vid=a6187c30-1c11-4309-be70-335b3ca8c646","ios":"levelo://app?vid=a6187c30-1c11-4309-be70-335b3ca8c646"},"vehicle_type_id":"4","last_reported":1758982084,"current_range_meters":10800,"station_id":"","pricing_plan_id":"cebpf4jnsgd1na2vs0mg"},{"bike_id":"fd4b5ad5-2581-44dd-90b2-f4a8fbdc2423","system_id":"levelo_inurba_marseille","lat":43.299011,"lon":5.364989,"is_reserved":false,"is_disabled":false,"rental_uris":{"android":"levelo://app?vid=fd4b5ad5-2581-44dd-90b2-f4a8fbdc2423","ios":"levelo://app?vid=fd4b5ad5-2581-44dd-90b2-f4a8fbdc2423"},"vehicle_type_id":"4","last_reported":1758982084,"current_range_meters":10800,"station_id":"","pricing_plan_id":"cebpf4jnsgd1na2vs0mg"},{"bike_id":"a673cea6-a77d-4f5d-9cd9-bf514ac46193","system_id":"levelo_inurba_marseille","lat":43.28399,"lon":5.34983,"is_reserved":false,"is_disabled":false,"rental_uris":{"android":"levelo://app?vid=a673cea6-a77d-4f5d-9cd9-bf514ac46193","ios":"levelo://app?vid=a673cea6-a77d-4f5d-9cd9-bf514ac46193"},"vehicle_type_id":"4","last_reported":1758982084,"current_range_meters":10800,"station_id":"ce4bhbh2rcd13ifvqepg","pricing_plan_id":"cebpf4jnsgd1na2vs0mg"},{"bike_id":"02cd8139-aa9e-4144-8d0c-7d6e570a5ef6","system_id":"levelo_inurba_marseille","lat":43.29898,"lon":5.43672,"is_reserved":false,"is_disabled":false,"rental_uris":{"android":"levelo://app?vid=02cd8139-aa9e-4144-8d0c-7d6e570a5ef6","ios":"levelo://app?vid=02cd8139-aa9e-4144-8d0c-7d6e570a5ef6"},"vehicle_type_id":"4","last_reported":1758982084,"current_range_meters":10800,"station_id":"ce4bhpp2rcd13ifvqhfg","pricing_plan_id":"cebpf4jnsgd1na2vs0mg"},{"bike_id":"2a416e7a-1803-402e-9523-74bfe690bd54","system_id":"levelo_inurba_marseille","lat":43.32365,"lon":5.36767,"is_reserved":false,"is_disabled":false,"rental_uris":{"android":"levelo://app?vid=2a416e7a-1803-402e-9523-74bfe690bd54","ios":"levelo://app?vid=2a416e7a-1803-402e-9523-74bfe690bd54"},"vehicle_type_id":"4","last_reported":1758982084,"current_range_meters":10800,"station_id":"ce4bhsh2rcd13ifvqi2g","pricing_plan_id":"cebpf4jnsgd1na2vs0mg"},{"bike_id":"280c6f44-d40a-4f47-8231-9ee53360c29a","system_id":"levelo_inurba_marseille","lat":43.27371,"lon":5.3626,"is_reserved":false,"is_disabled":false,"rental_uris":{"android":"levelo://app?vid=280c6f44-d40a-4f47-8231-9ee53360c29a","ios":"levelo://app?vid=280c6f44-d40a-4f47-8231-9ee53360c29a"},"vehicle_type_id":"4","last_reported":1758982084,"current_range_meters":11200,"station_id":"ce4bhbh2rcd13ifvqeo0","pricing_plan_id":"cebpf4jnsgd1na2vs0mg"},{"bike_id":"63d52c35-c9c9-44eb-9780-1b2f9145123b","system_id":"levelo_inurba_marseille","lat":43.29627,"lon":5.377037,"is_reserved":false,"is_disabled":false,"rental_uris":{"android":"levelo://app?vid=63d52c35-c9c9-44eb-9780-1b2f9145123b","ios":"levelo://app?vid=63d52c35-c9c9-44eb-9780-1b2f9145123b"},"vehicle_type_id":"4","last_reported":1758982084,"current_range_meters":11200,"station_id":"","pricing_plan_id":"cebpf4jnsgd1na2vs0mg"},{"bike_id":"fd7db3b2-bf6f-47a6-a193-d9e54fb8924d","system_id":"levelo_inurba_marseille","lat":43.29811,"lon":5.37668,"is_reserved":false,"is_disabled":false,"rental_uris":{"android":"levelo://app?vid=fd7db3b2-bf6f-47a6-a193-d9e54fb8924d","ios":"levelo://app?vid=fd7db3b2-bf6f-47a6-a193-d9e54fb8924d"},"vehicle_type_id":"4","last_reported":1758982084,"current_range_meters":11200,"station_id":"","pricing_plan_id":"cebpf4jnsgd1na2vs0mg"},{"bike_id":"9bb4db31-0bf9-4171-bca1-76cb045f53a3","system_id":"levelo_inurba_marseille","lat":43.26924,"lon":5.389081,"is_reserved":false,"is_disabled":false,"rental_uris":{"android":"levelo://app?vid=9bb4db31-0bf9-4171-bca1-76cb045f53a3","ios":"levelo://app?vid=9bb4db31-0bf9-4171-bca1-76cb045f53a3"},"vehicle_type_id":"4","last_reported":1758982084,"current_range_meters":11200,"station_id":"ce4bhhh2rcd13ifvqfl0","pricing_plan_id":"cebpf4jnsgd1na2vs0mg"},{"bike_id":"fa4ac7b9-7dd4-484f-a04c-f9c24e7fab8d","system_id":"levelo_inurba_marseille","lat":43.30378,"lon":5.42487,"is_reserved":false,"is_disabled":false,"rental_uris":{"android":"levelo://app?vid=fa4ac7b9-7dd4-484f-a04c-f9c24e7fab8d","ios":"levelo://app?vid=fa4ac7b9-7dd4-484f-a04c-f9c24e7fab8d"},"vehicle_type_id":"4","last_reported":1758982084,"current_range_meters":11200,"station_id":"ce4bhoh2rcd13ifvqh6g","pricing_plan_id":"cebpf4jnsgd1na2vs0mg"},{"bike_id":"4139d386-4594-4690-833a-a09beb81a86e","system_id":"levelo_inurba_marseille","lat":43.280809,"lon":5.396628,"is_reserved":false,"is_disabled":false,"rental_uris":{"android":"levelo://app?vid=4139d386-4594-4690-833a-a09beb81a86e","ios":"levelo://app?vid=4139d386-4594-4690-833a-a09beb81a86e"},"vehicle_type_id":"4","last_reported":1758982084,"current_range_meters":11200,"station_id":"ce4bho12rcd13ifvqh2g","pricing_plan_id":"cebpf4jnsgd1na2vs0mg"},{"bike_id":"e6c9e7e9-8a6c-49cd-af7d-c554051b0a08","system_id":"levelo_inurba_marseille","lat":43.28411,"lon":5.34975,"is_reserved":false,"is_disabled":false,"rental_uris":{"android":"levelo://app?vid=e6c9e7e9-8a6c-49cd-af7d-c554051b0a08","ios":"levelo://app?vid=e6c9e7e9-8a6c-49cd-af7d-c554051b0a08"},"vehicle_type_id":"4","last_reported":1758982084,"current_range_meters":11200,"station_id":"ce4bhbh2rcd13ifvqepg","pricing_plan_id":"cebpf4jnsgd1na2vs0mg"},{"bike_id":"cd52d724-6e36-4c8e-9efa-f35ff15b1a8b","system_id":"levelo_inurba_marseille","lat":43.31724,"lon":5.42386,"is_reserved":false,"is_disabled":false,"rental_uris":{"android":"levelo://app?vid=cd52d724-6e36-4c8e-9efa-f35ff15b1a8b","ios":"levelo://app?vid=cd52d724-6e36-4c8e-9efa-f35ff15b1a8b"},"vehicle_type_id":"4","last_reported":1758982084,"current_range_meters":11200,"station_id":"ce4bhp92rcd13ifvqhbg","pricing_plan_id":"cebpf4jnsgd1na2vs0mg"},{"bike_id":"42ca528a-85fa-475a-abe7-3eacedb896a7","system_id":"levelo_inurba_marseille","lat":43.27057,"lon":5.40245,"is_reserved":false,"is_disabled":false,"rental_uris":{"android":"levelo://app?vid=42ca528a-85fa-475a-abe7-3eacedb896a7","ios":"levelo://app?vid=42ca528a-85fa-475a-abe7-3eacedb896a7"},"vehicle_type_id":"4","last_reported":1758982084,"current_range_meters":11600,"station_id":"ce4bhk92rcd13ifvqgc0","pricing_plan_id":"cebpf4jnsgd1na2vs0mg"},{"bike_id":"f994e9ac-cad3-4ca1-ad2b-af49a93bb968","system_id":"levelo_inurba_marseille","lat":43.24992,"lon":5.38938,"is_reserved":false,"is_disabled":false,"rental_uris":{"android":"levelo://app?vid=f994e9ac-cad3-4ca1-ad2b-af49a93bb968","ios":"levelo://app?vid=f994e9ac-cad3-4ca1-ad2b-af49a93bb968"},"vehicle_type_id":"4","last_reported":1758982084,"current_range_meters":11600,"station_id":"ce4bhgp2rcd13ifvqfd0","pricing_plan_id":"cebpf4jnsgd1na2vs0mg"},{"bike_id":"cdbb77c4-41a7-497c-843b-7e39de5a1bfd","system_id":"levelo_inurba_marseille","lat":43.30535,"lon":5.3656,"is_reserved":false,"is_disabled":false,"rental_uris":{"android":"levelo://app?vid=cdbb77c4-41a7-497c-843b-7e39de5a1bfd","ios":"levelo://app?vid=cdbb77c4-41a7-497c-843b-7e39de5a1bfd"},"vehicle_type_id":"4","last_reported":1758982084,"current_range_meters":11600,"station_id":"ce4bgs12rcd13ifvqcag","pricing_plan_id":"cebpf4jnsgd1na2vs0mg"},{"bike_id":"01bf55f2-4ac6-46f6-8504-3267bf31e1a6","system_id":"levelo_inurba_marseille","lat":43.2973,"lon":5.381787,"is_reserved":false,"is_disabled":false,"rental_uris":{"android":"levelo://app?vid=01bf55f2-4ac6-46f6-8504-3267bf31e1a6","ios":"levelo://app?vid=01bf55f2-4ac6-46f6-8504-3267bf31e1a6"},"vehicle_type_id":"4","last_reported":1758982084,"current_range_meters":11600,"station_id":"","pricing_plan_id":"cebpf4jnsgd1na2vs0mg"},{"bike_id":"6139899b-059d-4c90-bc87-0f77ab11d584","system_id":"levelo_inurba_marseille","lat":43.30304,"lon":5.3922,"is_reserved":false,"is_disabled":false,"rental_uris":{"android":"levelo://app?vid=6139899b-059d-4c90-bc87-0f77ab11d584","ios":"levelo://app?vid=6139899b-059d-4c90-bc87-0f77ab11d584"},"vehicle_type_id":"4","last_reported":1758982084,"current_range_meters":11600,"station_id":"ce4bgkh2rcd13ifvqbk0","pricing_plan_id":"cebpf4jnsgd1na2vs0mg"},{"bike_id":"1c28470f-e877-48ba-9c26-09056d1e5ed2","system_id":"levelo_inurba_marseille","lat":43.29277,"lon":5.36844,"is_reserved":false,"is_disabled":false,"rental_uris":{"android":"levelo://app?vid=1c28470f-e877-48ba-9c26-09056d1e5ed2","ios":"levelo://app?vid=1c28470f-e877-48ba-9c26-09056d1e5ed2"},"vehicle_type_id":"4","last_reported":1758982084,"current_range_meters":11600,"station_id":"ce4bhbp2rcd13ifvqesg","pricing_plan_id":"cebpf4jnsgd1na2vs0mg"},{"bike_id":"5295a361-8994-4e6f-96d8-723a227848d8","system_id":"levelo_inurba_marseille","lat":43.23055,"lon":5.3548,"is_reserved":false,"is_disabled":false,"rental_uris":{"android":"levelo://app?vid=5295a361-8994-4e6f-96d8-723a227848d8","ios":"levelo://app?vid=5295a361-8994-4e6f-96d8-723a227848d8"},"vehicle_type_id":"4","last_reported":1758982084,"current_range_meters":12000,"station_id":"cpo3342slgdg3j2ifvpg","pricing_plan_id":"cebpf4jnsgd1na2vs0mg"},{"bike_id":"26293089-e827-4a91-b336-c1833ecbc843","system_id":"levelo_inurba_marseille","lat":43.21764,"lon":5.34586,"is_reserved":false,"is_disabled":false,"rental_uris":{"android":"levelo://app?vid=26293089-e827-4a91-b336-c1833ecbc843","ios":"levelo://app?vid=26293089-e827-4a91-b336-c1833ecbc843"},"vehicle_type_id":"4","last_reported":1758982084,"current_range_meters":12000,"station_id":"st_cvj6r9ubvosntc0bgbag","pricing_plan_id":"cebpf4jnsgd1na2vs0mg"},{"bike_id":"3f51e03c-3abb-4dde-8cdd-da596aa3252f","system_id":"levelo_inurba_marseille","lat":43.27666,"lon":5.38907,"is_reserved":false,"is_disabled":true,"rental_uris":{"android":"levelo://app?vid=3f51e03c-3abb-4dde-8cdd-da596aa3252f","ios":"levelo://app?vid=3f51e03c-3abb-4dde-8cdd-da596aa3252f"},"vehicle_type_id":"4","last_reported":1758982084,"current_range_meters":12000,"station_id":"ce4bhi12rcd13ifvqfo0","pricing_plan_id":"cebpf4jnsgd1na2vs0mg"},{"bike_id":"10aaa4bd-7b69-46e5-9c91-cc8ea0d3aac7","system_id":"levelo_inurba_marseille","lat":43.21175,"lon":5.35067,"is_reserved":false,"is_disabled":false,"rental_uris":{"android":"levelo://app?vid=10aaa4bd-7b69-46e5-9c91-cc8ea0d3aac7","ios":"levelo://app?vid=10aaa4bd-7b69-46e5-9c91-cc8ea0d3aac7"},"vehicle_type_id":"4","last_reported":1758982084,"current_range_meters":12000,"station_id":"st_cvj6sg6p6f1abm77japg","pricing_plan_id":"cebpf4jnsgd1na2vs0mg"},{"bike_id":"1c14f608-9eb0-4b58-8221-e6e5ed28265b","system_id":"levelo_inurba_marseille","lat":43.24389,"lon":5.37064,"is_reserved":false,"is_disabled":false,"rental_uris":{"android":"levelo://app?vid=1c14f608-9eb0-4b58-8221-e6e5ed28265b","ios":"levelo://app?vid=1c14f608-9eb0-4b58-8221-e6e5ed28265b"},"vehicle_type_id":"4","last_reported":1758982084,"current_range_meters":12000,"station_id":"ce4bhhh2rcd13ifvqfk0","pricing_plan_id":"cebpf4jnsgd1na2vs0mg"},{"bike_id":"934ea1ec-b7f6-49a1-9efa-287317d4eb22","system_id":"levelo_inurba_marseille","lat":43.29048,"lon":5.35914,"is_reserved":false,"is_disabled":false,"rental_uris":{"android":"levelo://app?vid=934ea1ec-b7f6-49a1-9efa-287317d4eb22","ios":"levelo://app?vid=934ea1ec-b7f6-49a1-9efa-287317d4eb22"},"vehicle_type_id":"4","last_reported":1758982084,"current_range_meters":12400,"station_id":"","pricing_plan_id":"cebpf4jnsgd1na2vs0mg"},{"bike_id":"10214b51-40da-4f32-b4d7-c6e7f4b2f81a","system_id":"levelo_inurba_marseille","lat":43.21746,"lon":5.34616,"is_reserved":false,"is_disabled":false,"rental_uris":{"android":"levelo://app?vid=10214b51-40da-4f32-b4d7-c6e7f4b2f81a","ios":"levelo://app?vid=10214b51-40da-4f32-b4d7-c6e7f4b2f81a"},"vehicle_type_id":"4","last_reported":1758982084,"current_range_meters":12400,"station_id":"st_cvj6r9ubvosntc0bgbag","pricing_plan_id":"cebpf4jnsgd1na2vs0mg"},{"bike_id":"052c59a7-1cc4-4bbc-97f5-180981a63118","system_id":"levelo_inurba_marseille","lat":43.24627,"lon":5.43142,"is_reserved":false,"is_disabled":false,"rental_uris":{"android":"levelo://app?vid=052c59a7-1cc4-4bbc-97f5-180981a63118","ios":"levelo://app?vid=052c59a7-1cc4-4bbc-97f5-180981a63118"},"vehicle_type_id":"4","last_reported":1758982084,"current_range_meters":12400,"station_id":"st_d2m6c4gdas8pm72e190g","pricing_plan_id":"cebpf4jnsgd1na2vs0mg"},{"bike_id":"d4f4ec00-d24e-4258-9e10-cd63a8ad76be","system_id":"levelo_inurba_marseille","lat":43.27378,"lon":5.36264,"is_reserved":false,"is_disabled":false,"rental_uris":{"android":"levelo://app?vid=d4f4ec00-d24e-4258-9e10-cd63a8ad76be","ios":"levelo://app?vid=d4f4ec00-d24e-4258-9e10-cd63a8ad76be"},"vehicle_type_id":"4","last_reported":1758982084,"current_range_meters":12400,"station_id":"ce4bhbh2rcd13ifvqeo0","pricing_plan_id":"cebpf4jnsgd1na2vs0mg"},{"bike_id":"80bdba63-46f3-4274-b0d9-d9711409b6a8","system_id":"levelo_inurba_marseille","lat":43.270752,"lon":5.402497,"is_reserved":false,"is_disabled":false,"rental_uris":{"android":"levelo://app?vid=80bdba63-46f3-4274-b0d9-d9711409b6a8","ios":"levelo://app?vid=80bdba63-46f3-4274-b0d9-d9711409b6a8"},"vehicle_type_id":"4","last_reported":1758982084,"current_range_meters":12400,"station_id":"","pricing_plan_id":"cebpf4jnsgd1na2vs0mg"},{"bike_id":"360c0746-c854-4629-884f-7c911de53d9d","system_id":"levelo_inurba_marseille","lat":43.33604,"lon":5.40988,"is_reserved":false,"is_disabled":false,"rental_uris":{"android":"levelo://app?vid=360c0746-c854-4629-884f-7c911de53d9d","ios":"levelo://app?vid=360c0746-c854-4629-884f-7c911de53d9d"},"vehicle_type_id":"4","last_reported":1758982084,"current_range_meters":12800,"station_id":"ce4bhqh2rcd13ifvqhmg","pricing_plan_id":"cebpf4jnsgd1na2vs0mg"},{"bike_id":"9de5eb4a-2bba-4d94-b5d2-50807c7d8cc2","system_id":"levelo_inurba_marseille","lat":43.22534,"lon":5.34839,"is_reserved":false,"is_disabled":false,"rental_uris":{"android":"levelo://app?vid=9de5eb4a-2bba-4d94-b5d2-50807c7d8cc2","ios":"levelo://app?vid=9de5eb4a-2bba-4d94-b5d2-50807c7d8cc2"},"vehicle_type_id":"4","last_reported":1758982084,"current_range_meters":12800,"station_id":"","pricing_plan_id":"cebpf4jnsgd1na2vs0mg"},{"bike_id":"5bb42022-0e19-48bc-a5b4-218bb1d7482e","system_id":"levelo_inurba_marseille","lat":43.31225,"lon":5.37807,"is_reserved":false,"is_disabled":false,"rental_uris":{"android":"levelo://app?vid=5bb42022-0e19-48bc-a5b4-218bb1d7482e","ios":"levelo://app?vid=5bb42022-0e19-48bc-a5b4-218bb1d7482e"},"vehicle_type_id":"4","last_reported":1758982084,"current_range_meters":12800,"station_id":"","pricing_plan_id":"cebpf4jnsgd1na2vs0mg"},{"bike_id":"46ac5fb6-ac2e-43e8-84c9-c4e46889ea29","system_id":"levelo_inurba_marseille","lat":43.21188,"lon":5.35042,"is_reserved":false,"is_disabled":false,"rental_uris":{"android":"levelo://app?vid=46ac5fb6-ac2e-43e8-84c9-c4e46889ea29","ios":"levelo://app?vid=46ac5fb6-ac2e-43e8-84c9-c4e46889ea29"},"vehicle_type_id":"4","last_reported":1758982084,"current_range_meters":12800,"station_id":"st_cvj6sg6p6f1abm77japg","pricing_plan_id":"cebpf4jnsgd1na2vs0mg"},{"bike_id":"d7720e15-3e8d-4ddf-bc70-8dce8a1e1d42","system_id":"levelo_inurba_marseille","lat":43.23181,"lon":5.35562,"is_reserved":false,"is_disabled":false,"rental_uris":{"android":"levelo://app?vid=d7720e15-3e8d-4ddf-bc70-8dce8a1e1d42","ios":"levelo://app?vid=d7720e15-3e8d-4ddf-bc70-8dce8a1e1d42"},"vehicle_type_id":"4","last_reported":1758982084,"current_range_meters":12800,"station_id":"ce4bhu92rcd13ifvqi70","pricing_plan_id":"cebpf4jnsgd1na2vs0mg"},{"bike_id":"229322dc-7e9a-471c-b4cd-d973ac7b7ea8","system_id":"levelo_inurba_marseille","lat":43.261501,"lon":5.379263,"is_reserved":false,"is_disabled":false,"rental_uris":{"android":"levelo://app?vid=229322dc-7e9a-471c-b4cd-d973ac7b7ea8","ios":"levelo://app?vid=229322dc-7e9a-471c-b4cd-d973ac7b7ea8"},"vehicle_type_id":"4","last_reported":1758982084,"current_range_meters":13600,"station_id":"ce4bhjp2rcd13ifvqg90","pricing_plan_id":"cebpf4jnsgd1na2vs0mg"},{"bike_id":"7288255e-cd42-4965-998c-5dbb797f88cd","system_id":"levelo_inurba_marseille","lat":43.27312,"lon":5.39078,"is_reserved":false,"is_disabled":false,"rental_uris":{"android":"levelo://app?vid=7288255e-cd42-4965-998c-5dbb797f88cd","ios":"levelo://app?vid=7288255e-cd42-4965-998c-5dbb797f88cd"},"vehicle_type_id":"4","last_reported":1758982084,"current_range_meters":13600,"station_id":"ce4bhgp2rcd13ifvqfe0","pricing_plan_id":"cebpf4jnsgd1na2vs0mg"},{"bike_id":"3f370d73-db2b-4865-959a-4b8e76c81d77","system_id":"levelo_inurba_marseille","lat":43.25502,"lon":5.3765,"is_reserved":false,"is_disabled":false,"rental_uris":{"android":"levelo://app?vid=3f370d73-db2b-4865-959a-4b8e76c81d77","ios":"levelo://app?vid=3f370d73-db2b-4865-959a-4b8e76c81d77"},"vehicle_type_id":"4","last_reported":1758982084,"current_range_meters":13600,"station_id":"ce4bhh12rcd13ifvqff0","pricing_plan_id":"cebpf4jnsgd1na2vs0mg"},{"bike_id":"6be1bab7-b5b2-4cbe-b01a-5cdfcaffe066","system_id":"levelo_inurba_marseille","lat":43.29167,"lon":5.37151,"is_reserved":false,"is_disabled":false,"rental_uris":{"android":"levelo://app?vid=6be1bab7-b5b2-4cbe-b01a-5cdfcaffe066","ios":"levelo://app?vid=6be1bab7-b5b2-4cbe-b01a-5cdfcaffe066"},"vehicle_type_id":"4","last_reported":1758982084,"current_range_meters":12800,"station_id":"ce4bha92rcd13ifvqeh0","pricing_plan_id":"cebpf4jnsgd1na2vs0mg"},{"bike_id":"720623f7-9148-4a0e-ade4-a205c6fa44f0","system_id":"levelo_inurba_marseille","lat":43.28988,"lon":5.42911,"is_reserved":false,"is_disabled":false,"rental_uris":{"android":"levelo://app?vid=720623f7-9148-4a0e-ade4-a205c6fa44f0","ios":"levelo://app?vid=720623f7-9148-4a0e-ade4-a205c6fa44f0"},"vehicle_type_id":"4","last_reported":1758982084,"current_range_meters":13600,"station_id":"","pricing_plan_id":"cebpf4jnsgd1na2vs0mg"},{"bike_id":"a79771f7-9547-42c9-9edd-e8630ba14d95","system_id":"levelo_inurba_marseille","lat":43.23211,"lon":5.35547,"is_reserved":false,"is_disabled":false,"rental_uris":{"android":"levelo://app?vid=a79771f7-9547-42c9-9edd-e8630ba14d95","ios":"levelo://app?vid=a79771f7-9547-42c9-9edd-e8630ba14d95"},"vehicle_type_id":"4","last_reported":1758982084,"current_range_meters":13600,"station_id":"ce4bhu92rcd13ifvqi70","pricing_plan_id":"cebpf4jnsgd1na2vs0mg"},{"bike_id":"03350417-1098-4d6c-b8fe-9e64358744bf","system_id":"levelo_inurba_marseille","lat":43.3107,"lon":5.37547,"is_reserved":false,"is_disabled":false,"rental_uris":{"android":"levelo://app?vid=03350417-1098-4d6c-b8fe-9e64358744bf","ios":"levelo://app?vid=03350417-1098-4d6c-b8fe-9e64358744bf"},"vehicle_type_id":"4","last_reported":1758982084,"current_range_meters":13600,"station_id":"","pricing_plan_id":"cebpf4jnsgd1na2vs0mg"},{"bike_id":"71649b2c-48f8-4b8a-b9c0-477bd83fa14b","system_id":"levelo_inurba_marseille","lat":43.28432,"lon":5.34984,"is_reserved":false,"is_disabled":false,"rental_uris":{"android":"levelo://app?vid=71649b2c-48f8-4b8a-b9c0-477bd83fa14b","ios":"levelo://app?vid=71649b2c-48f8-4b8a-b9c0-477bd83fa14b"},"vehicle_type_id":"4","last_reported":1758982084,"current_range_meters":14000,"station_id":"ce4bhbh2rcd13ifvqepg","pricing_plan_id":"cebpf4jnsgd1na2vs0mg"},{"bike_id":"4a2200e6-24a3-4e1a-9aba-bb1fc811843c","system_id":"levelo_inurba_marseille","lat":43.29533,"lon":5.3856,"is_reserved":false,"is_disabled":false,"rental_uris":{"android":"levelo://app?vid=4a2200e6-24a3-4e1a-9aba-bb1fc811843c","ios":"levelo://app?vid=4a2200e6-24a3-4e1a-9aba-bb1fc811843c"},"vehicle_type_id":"4","last_reported":1758982084,"current_range_meters":14400,"station_id":"ce4bgih2rcd13ifvqba0","pricing_plan_id":"cebpf4jnsgd1na2vs0mg"},{"bike_id":"cd119ae5-1417-41f1-a8e2-920696e70b86","system_id":"levelo_inurba_marseille","lat":43.22569,"lon":5.41622,"is_reserved":false,"is_disabled":false,"rental_uris":{"android":"levelo://app?vid=cd119ae5-1417-41f1-a8e2-920696e70b86","ios":"levelo://app?vid=cd119ae5-1417-41f1-a8e2-920696e70b86"},"vehicle_type_id":"4","last_reported":1758982084,"current_range_meters":14000,"station_id":"st_d2o4gvlbi1j2169b742g","pricing_plan_id":"cebpf4jnsgd1na2vs0mg"},{"bike_id":"ba946e07-ae21-4167-a729-43c29741c431","system_id":"levelo_inurba_marseille","lat":43.29604,"lon":5.381,"is_reserved":false,"is_disabled":false,"rental_uris":{"android":"levelo://app?vid=ba946e07-ae21-4167-a729-43c29741c431","ios":"levelo://app?vid=ba946e07-ae21-4167-a729-43c29741c431"},"vehicle_type_id":"4","last_reported":1758982084,"current_range_meters":14000,"station_id":"ce4bgl12rcd13ifvqbo0","pricing_plan_id":"cebpf4jnsgd1na2vs0mg"},{"bike_id":"6ef3024a-2129-46d2-8f53-f8c4119ef86c","system_id":"levelo_inurba_marseille","lat":43.22932,"lon":5.35365,"is_reserved":false,"is_disabled":false,"rental_uris":{"android":"levelo://app?vid=6ef3024a-2129-46d2-8f53-f8c4119ef86c","ios":"levelo://app?vid=6ef3024a-2129-46d2-8f53-f8c4119ef86c"},"vehicle_type_id":"4","last_reported":1758982084,"current_range_meters":14000,"station_id":"cpo3532slgdg3j2ikp40","pricing_plan_id":"cebpf4jnsgd1na2vs0mg"},{"bike_id":"2a7adc97-2b29-41e1-8a87-0ddee422e867","system_id":"levelo_inurba_marseille","lat":43.32347,"lon":5.36735,"is_reserved":false,"is_disabled":false,"rental_uris":{"android":"levelo://app?vid=2a7adc97-2b29-41e1-8a87-0ddee422e867","ios":"levelo://app?vid=2a7adc97-2b29-41e1-8a87-0ddee422e867"},"vehicle_type_id":"4","last_reported":1758982084,"current_range_meters":14000,"station_id":"ce4bhsh2rcd13ifvqi2g","pricing_plan_id":"cebpf4jnsgd1na2vs0mg"},{"bike_id":"cfd7d3fb-9a3a-49b2-8cdc-e6651d540559","system_id":"levelo_inurba_marseille","lat":43.27379,"lon":5.36252,"is_reserved":false,"is_disabled":false,"rental_uris":{"android":"levelo://app?vid=cfd7d3fb-9a3a-49b2-8cdc-e6651d540559","ios":"levelo://app?vid=cfd7d3fb-9a3a-49b2-8cdc-e6651d540559"},"vehicle_type_id":"4","last_reported":1758982084,"current_range_meters":14000,"station_id":"ce4bhbh2rcd13ifvqeo0","pricing_plan_id":"cebpf4jnsgd1na2vs0mg"},{"bike_id":"a620a7e5-a887-4fb5-a1a7-865fb05d9266","system_id":"levelo_inurba_marseille","lat":43.30789,"lon":5.37645,"is_reserved":false,"is_disabled":false,"rental_uris":{"android":"levelo://app?vid=a620a7e5-a887-4fb5-a1a7-865fb05d9266","ios":"levelo://app?vid=a620a7e5-a887-4fb5-a1a7-865fb05d9266"},"vehicle_type_id":"4","last_reported":1758982084,"current_range_meters":13600,"station_id":"ce4bgv92rcd13ifvqcq0","pricing_plan_id":"cebpf4jnsgd1na2vs0mg"},{"bike_id":"367cc5de-fbd0-47d1-8fa2-cb83d9fcf585","system_id":"levelo_inurba_marseille","lat":43.25827,"lon":5.3943,"is_reserved":false,"is_disabled":false,"rental_uris":{"android":"levelo://app?vid=367cc5de-fbd0-47d1-8fa2-cb83d9fcf585","ios":"levelo://app?vid=367cc5de-fbd0-47d1-8fa2-cb83d9fcf585"},"vehicle_type_id":"4","last_reported":1758982084,"current_range_meters":14000,"station_id":"ce4bhip2rcd13ifvqft0","pricing_plan_id":"cebpf4jnsgd1na2vs0mg"},{"bike_id":"695662ab-65fe-4c59-81b6-3dceb9f5066d","system_id":"levelo_inurba_marseille","lat":43.25576,"lon":5.38223,"is_reserved":false,"is_disabled":true,"rental_uris":{"android":"levelo://app?vid=695662ab-65fe-4c59-81b6-3dceb9f5066d","ios":"levelo://app?vid=695662ab-65fe-4c59-81b6-3dceb9f5066d"},"vehicle_type_id":"4","last_reported":1758982084,"current_range_meters":14000,"station_id":"ce4bhih2rcd13ifvqfs0","pricing_plan_id":"cebpf4jnsgd1na2vs0mg"},{"bike_id":"bbab51e7-e820-459f-9cd0-2fc0f3709374","system_id":"levelo_inurba_marseille","lat":43.29916,"lon":5.38149,"is_reserved":false,"is_disabled":false,"rental_uris":{"android":"levelo://app?vid=bbab51e7-e820-459f-9cd0-2fc0f3709374","ios":"levelo://app?vid=bbab51e7-e820-459f-9cd0-2fc0f3709374"},"vehicle_type_id":"4","last_reported":1758982084,"current_range_meters":14400,"station_id":"ce4bgj12rcd13ifvqbc0","pricing_plan_id":"cebpf4jnsgd1na2vs0mg"},{"bike_id":"9feae468-b8bd-422a-8fcb-2d68fc5ee82c","system_id":"levelo_inurba_marseille","lat":43.33386,"lon":5.42018,"is_reserved":false,"is_disabled":false,"rental_uris":{"android":"levelo://app?vid=9feae468-b8bd-422a-8fcb-2d68fc5ee82c","ios":"levelo://app?vid=9feae468-b8bd-422a-8fcb-2d68fc5ee82c"},"vehicle_type_id":"4","last_reported":1758982084,"current_range_meters":14400,"station_id":"","pricing_plan_id":"cebpf4jnsgd1na2vs0mg"},{"bike_id":"01e260f5-828c-4df2-9bc4-ca80e799f979","system_id":"levelo_inurba_marseille","lat":43.21753,"lon":5.3461,"is_reserved":false,"is_disabled":true,"rental_uris":{"android":"levelo://app?vid=01e260f5-828c-4df2-9bc4-ca80e799f979","ios":"levelo://app?vid=01e260f5-828c-4df2-9bc4-ca80e799f979"},"vehicle_type_id":"4","last_reported":1758982084,"current_range_meters":14400,"station_id":"st_cvj6r9ubvosntc0bgbag","pricing_plan_id":"cebpf4jnsgd1na2vs0mg"},{"bike_id":"349977c5-2efd-48ed-8dd8-9cfd0d464679","system_id":"levelo_inurba_marseille","lat":43.2122,"lon":5.35075,"is_reserved":false,"is_disabled":false,"rental_uris":{"android":"levelo://app?vid=349977c5-2efd-48ed-8dd8-9cfd0d464679","ios":"levelo://app?vid=349977c5-2efd-48ed-8dd8-9cfd0d464679"},"vehicle_type_id":"4","last_reported":1758982084,"current_range_meters":14400,"station_id":"st_cvj6sg6p6f1abm77japg","pricing_plan_id":"cebpf4jnsgd1na2vs0mg"},{"bike_id":"fb1f00f0-4275-4c6e-8a59-3367c7a547e7","system_id":"levelo_inurba_marseille","lat":43.24651,"lon":5.38891,"is_reserved":false,"is_disabled":false,"rental_uris":{"android":"levelo://app?vid=fb1f00f0-4275-4c6e-8a59-3367c7a547e7","ios":"levelo://app?vid=fb1f00f0-4275-4c6e-8a59-3367c7a547e7"},"vehicle_type_id":"4","last_reported":1758982084,"current_range_meters":14400,"station_id":"ce4bhg12rcd13ifvqf60","pricing_plan_id":"cebpf4jnsgd1na2vs0mg"},{"bike_id":"a35b5087-e8d6-4cff-ba8a-b4b8beb29196","system_id":"levelo_inurba_marseille","lat":43.24167,"lon":5.36394,"is_reserved":false,"is_disabled":false,"rental_uris":{"android":"levelo://app?vid=a35b5087-e8d6-4cff-ba8a-b4b8beb29196","ios":"levelo://app?vid=a35b5087-e8d6-4cff-ba8a-b4b8beb29196"},"vehicle_type_id":"4","last_reported":1758982084,"current_range_meters":14400,"station_id":"cpo36qri1sfpv3e86is0","pricing_plan_id":"cebpf4jnsgd1na2vs0mg"},{"bike_id":"071bc3a5-4a03-46da-a8d6-b7aa12cea887","system_id":"levelo_inurba_marseille","lat":43.212,"lon":5.3506,"is_reserved":false,"is_disabled":false,"rental_uris":{"android":"levelo://app?vid=071bc3a5-4a03-46da-a8d6-b7aa12cea887","ios":"levelo://app?vid=071bc3a5-4a03-46da-a8d6-b7aa12cea887"},"vehicle_type_id":"4","last_reported":1758982084,"current_range_meters":14800,"station_id":"st_cvj6sg6p6f1abm77japg","pricing_plan_id":"cebpf4jnsgd1na2vs0mg"},{"bike_id":"ae08b77d-1a3f-48a7-84e4-394168f3829b","system_id":"levelo_inurba_marseille","lat":43.305407,"lon":5.365618,"is_reserved":false,"is_disabled":false,"rental_uris":{"android":"levelo://app?vid=ae08b77d-1a3f-48a7-84e4-394168f3829b","ios":"levelo://app?vid=ae08b77d-1a3f-48a7-84e4-394168f3829b"},"vehicle_type_id":"4","last_reported":1758982084,"current_range_meters":14800,"station_id":"ce4bgs12rcd13ifvqcag","pricing_plan_id":"cebpf4jnsgd1na2vs0mg"},{"bike_id":"788438c0-1d9c-4954-8f17-ca5b2562b03e","system_id":"levelo_inurba_marseille","lat":43.21737,"lon":5.34604,"is_reserved":false,"is_disabled":false,"rental_uris":{"android":"levelo://app?vid=788438c0-1d9c-4954-8f17-ca5b2562b03e","ios":"levelo://app?vid=788438c0-1d9c-4954-8f17-ca5b2562b03e"},"vehicle_type_id":"4","last_reported":1758982084,"current_range_meters":14800,"station_id":"st_cvj6r9ubvosntc0bgbag","pricing_plan_id":"cebpf4jnsgd1na2vs0mg"},{"bike_id":"45da7522-9b8e-4896-8689-2d9501fc0c18","system_id":"levelo_inurba_marseille","lat":43.29167,"lon":5.371528,"is_reserved":false,"is_disabled":false,"rental_uris":{"android":"levelo://app?vid=45da7522-9b8e-4896-8689-2d9501fc0c18","ios":"levelo://app?vid=45da7522-9b8e-4896-8689-2d9501fc0c18"},"vehicle_type_id":"4","last_reported":1758982084,"current_range_meters":14800,"station_id":"ce4bha92rcd13ifvqeh0","pricing_plan_id":"cebpf4jnsgd1na2vs0mg"},{"bike_id":"6d4fa21f-0f41-49ae-93a6-059b63d3c466","system_id":"levelo_inurba_marseille","lat":43.23958,"lon":5.36638,"is_reserved":false,"is_disabled":false,"rental_uris":{"android":"levelo://app?vid=6d4fa21f-0f41-49ae-93a6-059b63d3c466","ios":"levelo://app?vid=6d4fa21f-0f41-49ae-93a6-059b63d3c466"},"vehicle_type_id":"4","last_reported":1758982084,"current_range_meters":14800,"station_id":"ce4bhi12rcd13ifvqfp0","pricing_plan_id":"cebpf4jnsgd1na2vs0mg"},{"bike_id":"eda1841b-0190-4f9a-b9ea-99e86f3b4b7f","system_id":"levelo_inurba_marseille","lat":43.29283,"lon":5.40114,"is_reserved":false,"is_disabled":false,"rental_uris":{"android":"levelo://app?vid=eda1841b-0190-4f9a-b9ea-99e86f3b4b7f","ios":"levelo://app?vid=eda1841b-0190-4f9a-b9ea-99e86f3b4b7f"},"vehicle_type_id":"4","last_reported":1758982084,"current_range_meters":14800,"station_id":"ce4bh312rcd13ifvqdk0","pricing_plan_id":"cebpf4jnsgd1na2vs0mg"},{"bike_id":"bc48c9cb-13b1-4ab4-970e-68b4c58d6cd1","system_id":"levelo_inurba_marseille","lat":43.217749,"lon":5.346059,"is_reserved":false,"is_disabled":false,"rental_uris":{"android":"levelo://app?vid=bc48c9cb-13b1-4ab4-970e-68b4c58d6cd1","ios":"levelo://app?vid=bc48c9cb-13b1-4ab4-970e-68b4c58d6cd1"},"vehicle_type_id":"4","last_reported":1758982084,"current_range_meters":14800,"station_id":"","pricing_plan_id":"cebpf4jnsgd1na2vs0mg"},{"bike_id":"6ea7e838-2bf7-468a-bf5e-4dca1ea96177","system_id":"levelo_inurba_marseille","lat":43.21746,"lon":5.34599,"is_reserved":false,"is_disabled":false,"rental_uris":{"android":"levelo://app?vid=6ea7e838-2bf7-468a-bf5e-4dca1ea96177","ios":"levelo://app?vid=6ea7e838-2bf7-468a-bf5e-4dca1ea96177"},"vehicle_type_id":"4","last_reported":1758982084,"current_range_meters":14800,"station_id":"st_cvj6r9ubvosntc0bgbag","pricing_plan_id":"cebpf4jnsgd1na2vs0mg"},{"bike_id":"c19816f8-5b4c-4141-a3d7-33478726bda9","system_id":"levelo_inurba_marseille","lat":43.217451,"lon":5.346019,"is_reserved":false,"is_disabled":false,"rental_uris":{"android":"levelo://app?vid=c19816f8-5b4c-4141-a3d7-33478726bda9","ios":"levelo://app?vid=c19816f8-5b4c-4141-a3d7-33478726bda9"},"vehicle_type_id":"4","last_reported":1758982084,"current_range_meters":14800,"station_id":"","pricing_plan_id":"cebpf4jnsgd1na2vs0mg"},{"bike_id":"1f79a2a5-bde6-432a-acf5-797e5a7cc493","system_id":"levelo_inurba_marseille","lat":43.30947,"lon":5.39023,"is_reserved":false,"is_disabled":false,"rental_uris":{"android":"levelo://app?vid=1f79a2a5-bde6-432a-acf5-797e5a7cc493","ios":"levelo://app?vid=1f79a2a5-bde6-432a-acf5-797e5a7cc493"},"vehicle_type_id":"4","last_reported":1758982084,"current_range_meters":15200,"station_id":"ce4bgup2rcd13ifvqco0","pricing_plan_id":"cebpf4jnsgd1na2vs0mg"},{"bike_id":"dbde707b-9342-4b19-9f9f-3235df7805f2","system_id":"levelo_inurba_marseille","lat":43.26564,"lon":5.37284,"is_reserved":false,"is_disabled":false,"rental_uris":{"android":"levelo://app?vid=dbde707b-9342-4b19-9f9f-3235df7805f2","ios":"levelo://app?vid=dbde707b-9342-4b19-9f9f-3235df7805f2"},"vehicle_type_id":"4","last_reported":1758982084,"current_range_meters":15200,"station_id":"ce4bhg12rcd13ifvqf70","pricing_plan_id":"cebpf4jnsgd1na2vs0mg"},{"bike_id":"8c57add6-9585-4279-81d0-bcfd5e52d359","system_id":"levelo_inurba_marseille","lat":43.2396,"lon":5.36634,"is_reserved":false,"is_disabled":false,"rental_uris":{"android":"levelo://app?vid=8c57add6-9585-4279-81d0-bcfd5e52d359","ios":"levelo://app?vid=8c57add6-9585-4279-81d0-bcfd5e52d359"},"vehicle_type_id":"4","last_reported":1758982084,"current_range_meters":15200,"station_id":"ce4bhi12rcd13ifvqfp0","pricing_plan_id":"cebpf4jnsgd1na2vs0mg"},{"bike_id":"40160ca7-1c86-416c-acdd-981ef869ed29","system_id":"levelo_inurba_marseille","lat":43.2319,"lon":5.35544,"is_reserved":false,"is_disabled":false,"rental_uris":{"android":"levelo://app?vid=40160ca7-1c86-416c-acdd-981ef869ed29","ios":"levelo://app?vid=40160ca7-1c86-416c-acdd-981ef869ed29"},"vehicle_type_id":"4","last_reported":1758982084,"current_range_meters":15200,"station_id":"ce4bhu92rcd13ifvqi70","pricing_plan_id":"cebpf4jnsgd1na2vs0mg"},{"bike_id":"804751d6-92e8-42de-824b-829236914131","system_id":"levelo_inurba_marseille","lat":43.23962,"lon":5.36641,"is_reserved":false,"is_disabled":false,"rental_uris":{"android":"levelo://app?vid=804751d6-92e8-42de-824b-829236914131","ios":"levelo://app?vid=804751d6-92e8-42de-824b-829236914131"},"vehicle_type_id":"4","last_reported":1758982084,"current_range_meters":15200,"station_id":"ce4bhi12rcd13ifvqfp0","pricing_plan_id":"cebpf4jnsgd1na2vs0mg"},{"bike_id":"70c99b1b-3a05-46b7-b778-e5482d7a6288","system_id":"levelo_inurba_marseille","lat":43.27323,"lon":5.39083,"is_reserved":false,"is_disabled":false,"rental_uris":{"android":"levelo://app?vid=70c99b1b-3a05-46b7-b778-e5482d7a6288","ios":"levelo://app?vid=70c99b1b-3a05-46b7-b778-e5482d7a6288"},"vehicle_type_id":"4","last_reported":1758982084,"current_range_meters":16000,"station_id":"ce4bhgp2rcd13ifvqfe0","pricing_plan_id":"cebpf4jnsgd1na2vs0mg"},{"bike_id":"a5eb6b1c-4986-42c7-b3d8-8da34ebe8ad1","system_id":"levelo_inurba_marseille","lat":43.2721,"lon":5.39197,"is_reserved":false,"is_disabled":false,"rental_uris":{"android":"levelo://app?vid=a5eb6b1c-4986-42c7-b3d8-8da34ebe8ad1","ios":"levelo://app?vid=a5eb6b1c-4986-42c7-b3d8-8da34ebe8ad1"},"vehicle_type_id":"4","last_reported":1758982084,"current_range_meters":16000,"station_id":"ce4bhhp2rcd13ifvqfm0","pricing_plan_id":"cebpf4jnsgd1na2vs0mg"},{"bike_id":"f18b9768-5111-4dbf-a273-1fb15e369929","system_id":"levelo_inurba_marseille","lat":43.26055,"lon":5.39388,"is_reserved":false,"is_disabled":false,"rental_uris":{"android":"levelo://app?vid=f18b9768-5111-4dbf-a273-1fb15e369929","ios":"levelo://app?vid=f18b9768-5111-4dbf-a273-1fb15e369929"},"vehicle_type_id":"4","last_reported":1758982084,"current_range_meters":16000,"station_id":"ce4bhh92rcd13ifvqfj0","pricing_plan_id":"cebpf4jnsgd1na2vs0mg"},{"bike_id":"096c311a-e31f-4e60-ab8c-de0b76354103","system_id":"levelo_inurba_marseille","lat":43.27185,"lon":5.41004,"is_reserved":false,"is_disabled":true,"rental_uris":{"android":"levelo://app?vid=096c311a-e31f-4e60-ab8c-de0b76354103","ios":"levelo://app?vid=096c311a-e31f-4e60-ab8c-de0b76354103"},"vehicle_type_id":"4","last_reported":1758982084,"current_range_meters":16000,"station_id":"ce4bhl12rcd13ifvqgf0","pricing_plan_id":"cebpf4jnsgd1na2vs0mg"},{"bike_id":"61c13e37-1625-4287-958b-e4edbceea3c6","system_id":"levelo_inurba_marseille","lat":43.28626,"lon":5.35097,"is_reserved":false,"is_disabled":false,"rental_uris":{"android":"levelo://app?vid=61c13e37-1625-4287-958b-e4edbceea3c6","ios":"levelo://app?vid=61c13e37-1625-4287-958b-e4edbceea3c6"},"vehicle_type_id":"4","last_reported":1758982084,"current_range_meters":16000,"station_id":"ce4bhch2rcd13ifvqeug","pricing_plan_id":"cebpf4jnsgd1na2vs0mg"},{"bike_id":"85c7ac65-0172-4766-8977-f4ba34ed9c93","system_id":"levelo_inurba_marseille","lat":43.25336,"lon":5.4217,"is_reserved":false,"is_disabled":false,"rental_uris":{"android":"levelo://app?vid=85c7ac65-0172-4766-8977-f4ba34ed9c93","ios":"levelo://app?vid=85c7ac65-0172-4766-8977-f4ba34ed9c93"},"vehicle_type_id":"4","last_reported":1758982084,"current_range_meters":16000,"station_id":"st_d2m65c5bi1j21697t3ng","pricing_plan_id":"cebpf4jnsgd1na2vs0mg"},{"bike_id":"cb0a43cc-2f6b-482a-91bb-c383cccf5be4","system_id":"levelo_inurba_marseille","lat":43.31991,"lon":5.37998,"is_reserved":false,"is_disabled":false,"rental_uris":{"android":"levelo://app?vid=cb0a43cc-2f6b-482a-91bb-c383cccf5be4","ios":"levelo://app?vid=cb0a43cc-2f6b-482a-91bb-c383cccf5be4"},"vehicle_type_id":"4","last_reported":1758982084,"current_range_meters":16000,"station_id":"","pricing_plan_id":"cebpf4jnsgd1na2vs0mg"},{"bike_id":"6c083406-7f24-4007-97a2-1384cc361022","system_id":"levelo_inurba_marseille","lat":43.30554,"lon":5.36544,"is_reserved":false,"is_disabled":false,"rental_uris":{"android":"levelo://app?vid=6c083406-7f24-4007-97a2-1384cc361022","ios":"levelo://app?vid=6c083406-7f24-4007-97a2-1384cc361022"},"vehicle_type_id":"4","last_reported":1758982084,"current_range_meters":16000,"station_id":"ce4bgs12rcd13ifvqcag","pricing_plan_id":"cebpf4jnsgd1na2vs0mg"},{"bike_id":"4c02c545-ad59-45b1-9b9c-d3678a5922c7","system_id":"levelo_inurba_marseille","lat":43.337444,"lon":5.374475,"is_reserved":false,"is_disabled":false,"rental_uris":{"android":"levelo://app?vid=4c02c545-ad59-45b1-9b9c-d3678a5922c7","ios":"levelo://app?vid=4c02c545-ad59-45b1-9b9c-d3678a5922c7"},"vehicle_type_id":"4","last_reported":1758982084,"current_range_meters":16000,"station_id":"","pricing_plan_id":"cebpf4jnsgd1na2vs0mg"},{"bike_id":"c097f066-7651-435e-913f-a8a7838aba88","system_id":"levelo_inurba_marseille","lat":43.33722,"lon":5.37459,"is_reserved":false,"is_disabled":false,"rental_uris":{"android":"levelo://app?vid=c097f066-7651-435e-913f-a8a7838aba88","ios":"levelo://app?vid=c097f066-7651-435e-913f-a8a7838aba88"},"vehicle_type_id":"4","last_reported":1758982084,"current_range_meters":16000,"station_id":"","pricing_plan_id":"cebpf4jnsgd1na2vs0mg"},{"bike_id":"f35f013e-32c9-48f5-a888-a78329aa64bf","system_id":"levelo_inurba_marseille","lat":43.28466,"lon":5.3841,"is_reserved":false,"is_disabled":false,"rental_uris":{"android":"levelo://app?vid=f35f013e-32c9-48f5-a888-a78329aa64bf","ios":"levelo://app?vid=f35f013e-32c9-48f5-a888-a78329aa64bf"},"vehicle_type_id":"4","last_reported":1758982084,"current_range_meters":16000,"station_id":"ce4bh512rcd13ifvqe3g","pricing_plan_id":"cebpf4jnsgd1na2vs0mg"},{"bike_id":"f69f32ce-d26a-41b8-970a-cd64c85de01c","system_id":"levelo_inurba_marseille","lat":43.27424,"lon":5.39419,"is_reserved":false,"is_disabled":false,"rental_uris":{"android":"levelo://app?vid=f69f32ce-d26a-41b8-970a-cd64c85de01c","ios":"levelo://app?vid=f69f32ce-d26a-41b8-970a-cd64c85de01c"},"vehicle_type_id":"4","last_reported":1758982084,"current_range_meters":16000,"station_id":"ce4bhdp2rcd13ifvqf20","pricing_plan_id":"cebpf4jnsgd1na2vs0mg"},{"bike_id":"9b2c0362-8a01-4219-9cc0-a7d9b6166838","system_id":"levelo_inurba_marseille","lat":43.23953,"lon":5.36634,"is_reserved":false,"is_disabled":false,"rental_uris":{"android":"levelo://app?vid=9b2c0362-8a01-4219-9cc0-a7d9b6166838","ios":"levelo://app?vid=9b2c0362-8a01-4219-9cc0-a7d9b6166838"},"vehicle_type_id":"4","last_reported":1758982084,"current_range_meters":16000,"station_id":"","pricing_plan_id":"cebpf4jnsgd1na2vs0mg"},{"bike_id":"7f9ea73d-e3cd-4e01-97ca-33cb3525f719","system_id":"levelo_inurba_marseille","lat":43.29926,"lon":5.37482,"is_reserved":false,"is_disabled":false,"rental_uris":{"android":"levelo://app?vid=7f9ea73d-e3cd-4e01-97ca-33cb3525f719","ios":"levelo://app?vid=7f9ea73d-e3cd-4e01-97ca-33cb3525f719"},"vehicle_type_id":"4","last_reported":1758982084,"current_range_meters":16400,"station_id":"ce4bgjh2rcd13ifvqbg0","pricing_plan_id":"cebpf4jnsgd1na2vs0mg"},{"bike_id":"976fd36e-2f5c-424c-baa8-068b37f1eb42","system_id":"levelo_inurba_marseille","lat":43.2757,"lon":5.38399,"is_reserved":false,"is_disabled":false,"rental_uris":{"android":"levelo://app?vid=976fd36e-2f5c-424c-baa8-068b37f1eb42","ios":"levelo://app?vid=976fd36e-2f5c-424c-baa8-068b37f1eb42"},"vehicle_type_id":"4","last_reported":1758982084,"current_range_meters":16400,"station_id":"ce4bhh92rcd13ifvqfi0","pricing_plan_id":"cebpf4jnsgd1na2vs0mg"},{"bike_id":"4ffe6e02-eede-4b89-82b9-f42f263e7c0f","system_id":"levelo_inurba_marseille","lat":43.293714,"lon":5.378465,"is_reserved":false,"is_disabled":false,"rental_uris":{"android":"levelo://app?vid=4ffe6e02-eede-4b89-82b9-f42f263e7c0f","ios":"levelo://app?vid=4ffe6e02-eede-4b89-82b9-f42f263e7c0f"},"vehicle_type_id":"4","last_reported":1758982084,"current_range_meters":16000,"station_id":"ce4bgjh2rcd13ifvqbf0","pricing_plan_id":"cebpf4jnsgd1na2vs0mg"},{"bike_id":"843f4427-2b31-4287-80c6-22dbe5d2810c","system_id":"levelo_inurba_marseille","lat":43.21757,"lon":5.34604,"is_reserved":false,"is_disabled":false,"rental_uris":{"android":"levelo://app?vid=843f4427-2b31-4287-80c6-22dbe5d2810c","ios":"levelo://app?vid=843f4427-2b31-4287-80c6-22dbe5d2810c"},"vehicle_type_id":"4","last_reported":1758982084,"current_range_meters":16400,"station_id":"st_cvj6r9ubvosntc0bgbag","pricing_plan_id":"cebpf4jnsgd1na2vs0mg"},{"bike_id":"6d98ab21-1faa-4b15-97b2-a1dd6f53a5a7","system_id":"levelo_inurba_marseille","lat":43.27423,"lon":5.39392,"is_reserved":false,"is_disabled":true,"rental_uris":{"android":"levelo://app?vid=6d98ab21-1faa-4b15-97b2-a1dd6f53a5a7","ios":"levelo://app?vid=6d98ab21-1faa-4b15-97b2-a1dd6f53a5a7"},"vehicle_type_id":"4","last_reported":1758982084,"current_range_meters":16400,"station_id":"ce4bhdp2rcd13ifvqf20","pricing_plan_id":"cebpf4jnsgd1na2vs0mg"},{"bike_id":"073d00dd-0eb0-4e99-8f59-4e399eaad790","system_id":"levelo_inurba_marseille","lat":43.25583,"lon":5.38231,"is_reserved":false,"is_disabled":false,"rental_uris":{"android":"levelo://app?vid=073d00dd-0eb0-4e99-8f59-4e399eaad790","ios":"levelo://app?vid=073d00dd-0eb0-4e99-8f59-4e399eaad790"},"vehicle_type_id":"4","last_reported":1758982084,"current_range_meters":16400,"station_id":"ce4bhih2rcd13ifvqfs0","pricing_plan_id":"cebpf4jnsgd1na2vs0mg"},{"bike_id":"249e371e-aedf-4b0a-b9f8-eb3f32be53a0","system_id":"levelo_inurba_marseille","lat":43.305411,"lon":5.367119,"is_reserved":false,"is_disabled":false,"rental_uris":{"android":"levelo://app?vid=249e371e-aedf-4b0a-b9f8-eb3f32be53a0","ios":"levelo://app?vid=249e371e-aedf-4b0a-b9f8-eb3f32be53a0"},"vehicle_type_id":"4","last_reported":1758982084,"current_range_meters":16400,"station_id":"ce4bgrp2rcd13ifvqc9g","pricing_plan_id":"cebpf4jnsgd1na2vs0mg"},{"bike_id":"d66cd03b-dbeb-4aa4-961e-bd97aeefe4a4","system_id":"levelo_inurba_marseille","lat":43.25954,"lon":5.41358,"is_reserved":false,"is_disabled":false,"rental_uris":{"android":"levelo://app?vid=d66cd03b-dbeb-4aa4-961e-bd97aeefe4a4","ios":"levelo://app?vid=d66cd03b-dbeb-4aa4-961e-bd97aeefe4a4"},"vehicle_type_id":"4","last_reported":1758982084,"current_range_meters":16400,"station_id":"","pricing_plan_id":"cebpf4jnsgd1na2vs0mg"},{"bike_id":"f363e68d-376b-40e8-bcd3-be01499b82b9","system_id":"levelo_inurba_marseille","lat":43.291897,"lon":5.393176,"is_reserved":false,"is_disabled":false,"rental_uris":{"android":"levelo://app?vid=f363e68d-376b-40e8-bcd3-be01499b82b9","ios":"levelo://app?vid=f363e68d-376b-40e8-bcd3-be01499b82b9"},"vehicle_type_id":"4","last_reported":1758982084,"current_range_meters":16000,"station_id":"ce4bh192rcd13ifvqdd0","pricing_plan_id":"cebpf4jnsgd1na2vs0mg"},{"bike_id":"ce4303a4-2f4f-418a-a588-00f52a6f966a","system_id":"levelo_inurba_marseille","lat":43.29623,"lon":5.37723,"is_reserved":false,"is_disabled":false,"rental_uris":{"android":"levelo://app?vid=ce4303a4-2f4f-418a-a588-00f52a6f966a","ios":"levelo://app?vid=ce4303a4-2f4f-418a-a588-00f52a6f966a"},"vehicle_type_id":"4","last_reported":1758982084,"current_range_meters":16800,"station_id":"ce4bgi92rcd13ifvqb90","pricing_plan_id":"cebpf4jnsgd1na2vs0mg"},{"bike_id":"75a1808b-f036-45a0-9b9e-d8442cdf8f90","system_id":"levelo_inurba_marseille","lat":43.25013,"lon":5.38907,"is_reserved":false,"is_disabled":false,"rental_uris":{"android":"levelo://app?vid=75a1808b-f036-45a0-9b9e-d8442cdf8f90","ios":"levelo://app?vid=75a1808b-f036-45a0-9b9e-d8442cdf8f90"},"vehicle_type_id":"4","last_reported":1758982084,"current_range_meters":16800,"station_id":"ce4bhgp2rcd13ifvqfd0","pricing_plan_id":"cebpf4jnsgd1na2vs0mg"},{"bike_id":"e54b8c9f-4f66-4c52-b603-24745fa68456","system_id":"levelo_inurba_marseille","lat":43.25726,"lon":5.41124,"is_reserved":false,"is_disabled":false,"rental_uris":{"android":"levelo://app?vid=e54b8c9f-4f66-4c52-b603-24745fa68456","ios":"levelo://app?vid=e54b8c9f-4f66-4c52-b603-24745fa68456"},"vehicle_type_id":"4","last_reported":1758982084,"current_range_meters":16800,"station_id":"ce4bhkp2rcd13ifvqgd0","pricing_plan_id":"cebpf4jnsgd1na2vs0mg"},{"bike_id":"4f22dce1-4ec1-470a-99fa-d21517df2f5d","system_id":"levelo_inurba_marseille","lat":43.26222,"lon":5.37441,"is_reserved":false,"is_disabled":false,"rental_uris":{"android":"levelo://app?vid=4f22dce1-4ec1-470a-99fa-d21517df2f5d","ios":"levelo://app?vid=4f22dce1-4ec1-470a-99fa-d21517df2f5d"},"vehicle_type_id":"4","last_reported":1758982084,"current_range_meters":16800,"station_id":"ce4bhgp2rcd13ifvqfc0","pricing_plan_id":"cebpf4jnsgd1na2vs0mg"},{"bike_id":"61f066a7-184f-43bc-b959-8ad24ef2814a","system_id":"levelo_inurba_marseille","lat":43.284122,"lon":5.349747,"is_reserved":false,"is_disabled":false,"rental_uris":{"android":"levelo://app?vid=61f066a7-184f-43bc-b959-8ad24ef2814a","ios":"levelo://app?vid=61f066a7-184f-43bc-b959-8ad24ef2814a"},"vehicle_type_id":"4","last_reported":1758982084,"current_range_meters":16800,"station_id":"ce4bhbh2rcd13ifvqepg","pricing_plan_id":"cebpf4jnsgd1na2vs0mg"},{"bike_id":"dc4883ea-8f06-44d1-8b3d-6660e39a87ec","system_id":"levelo_inurba_marseille","lat":43.2174,"lon":5.34621,"is_reserved":false,"is_disabled":true,"rental_uris":{"android":"levelo://app?vid=dc4883ea-8f06-44d1-8b3d-6660e39a87ec","ios":"levelo://app?vid=dc4883ea-8f06-44d1-8b3d-6660e39a87ec"},"vehicle_type_id":"4","last_reported":1758982084,"current_range_meters":16800,"station_id":"","pricing_plan_id":"cebpf4jnsgd1na2vs0mg"},{"bike_id":"54fff988-c74f-45fc-a0eb-29489bfa1777","system_id":"levelo_inurba_marseille","lat":43.24647,"lon":5.38888,"is_reserved":false,"is_disabled":false,"rental_uris":{"android":"levelo://app?vid=54fff988-c74f-45fc-a0eb-29489bfa1777","ios":"levelo://app?vid=54fff988-c74f-45fc-a0eb-29489bfa1777"},"vehicle_type_id":"4","last_reported":1758982084,"current_range_meters":16800,"station_id":"ce4bhg12rcd13ifvqf60","pricing_plan_id":"cebpf4jnsgd1na2vs0mg"},{"bike_id":"c081d6ac-5788-49e0-94f1-f96219519e58","system_id":"levelo_inurba_marseille","lat":43.24641,"lon":5.38899,"is_reserved":false,"is_disabled":false,"rental_uris":{"android":"levelo://app?vid=c081d6ac-5788-49e0-94f1-f96219519e58","ios":"levelo://app?vid=c081d6ac-5788-49e0-94f1-f96219519e58"},"vehicle_type_id":"4","last_reported":1758982084,"current_range_meters":16800,"station_id":"ce4bhg12rcd13ifvqf60","pricing_plan_id":"cebpf4jnsgd1na2vs0mg"},{"bike_id":"61f72c81-84af-4d24-903d-9a7cb27e68a1","system_id":"levelo_inurba_marseille","lat":43.24636,"lon":5.43128,"is_reserved":false,"is_disabled":false,"rental_uris":{"android":"levelo://app?vid=61f72c81-84af-4d24-903d-9a7cb27e68a1","ios":"levelo://app?vid=61f72c81-84af-4d24-903d-9a7cb27e68a1"},"vehicle_type_id":"4","last_reported":1758982084,"current_range_meters":16800,"station_id":"st_d2m6c4gdas8pm72e190g","pricing_plan_id":"cebpf4jnsgd1na2vs0mg"},{"bike_id":"0049db36-2932-4d11-9f78-c3e4e2d45139","system_id":"levelo_inurba_marseille","lat":43.2621,"lon":5.3745,"is_reserved":false,"is_disabled":false,"rental_uris":{"android":"levelo://app?vid=0049db36-2932-4d11-9f78-c3e4e2d45139","ios":"levelo://app?vid=0049db36-2932-4d11-9f78-c3e4e2d45139"},"vehicle_type_id":"4","last_reported":1758982084,"current_range_meters":16800,"station_id":"ce4bhgp2rcd13ifvqfc0","pricing_plan_id":"cebpf4jnsgd1na2vs0mg"},{"bike_id":"bb70a50a-3e1e-4b1f-8ba6-03eee903b8af","system_id":"levelo_inurba_marseille","lat":43.282724,"lon":5.350683,"is_reserved":false,"is_disabled":false,"rental_uris":{"android":"levelo://app?vid=bb70a50a-3e1e-4b1f-8ba6-03eee903b8af","ios":"levelo://app?vid=bb70a50a-3e1e-4b1f-8ba6-03eee903b8af"},"vehicle_type_id":"4","last_reported":1758982084,"current_range_meters":16800,"station_id":"","pricing_plan_id":"cebpf4jnsgd1na2vs0mg"},