{"last_updated":1742069376,"ttl":60,"version":"2.2","data":{"bikes":[{"bike_id":"c622300d-ef12-42b9-9151-d2444a93186a","system_id":"levelo_inurba_marseille","lat":43.29296,"lon":5.37463,"is_reserved":false,"is_disabled":false,"rental_uris":{"android":"levelo://app?vid=c622300d-ef12-42b9-9151-d2444a93186a","ios":"levelo://app?vid=c622300d-ef12-42b9-9151-d2444a93186a"},"vehicle_type_id":"4","last_reported":1742069376,"current_range_meters":2800,"station_id":"ce4bgi12rcd13ifvqb70","pricing_plan_id":"cebpf4jnsgd1na2vs0mg"},{"bike_id":"35779b3d-050c-4ba4-975b-c295daeaa082","system_id":"levelo_inurba_marseille","lat":43.292032,"lon":5.393288,"is_reserved":false,"is_disabled":false,"rental_uris":{"android":"levelo://app?vid=35779b3d-050c-4ba4-975b-c295daeaa082","ios":"levelo://app?vid=35779b3d-050c-4ba4-975b-c295daeaa082"},"vehicle_type_id":"4","last_reported":1742069376,"current_range_meters":2800,"station_id":"ce4bh192rcd13ifvqdd0","pricing_plan_id":"cebpf4jnsgd1na2vs0mg"},{"bike_id":"a794f8b0-78ac-4909-bffc-a1affea9aacc","system_id":"levelo_inurba_marseille","lat":43.27816,"lon":5.40731,"is_reserved":false,"is_disabled":false,"rental_uris":{"android":"levelo://app?vid=a794f8b0-78ac-4909-bffc-a1affea9aacc","ios":"levelo://app?vid=a794f8b0-78ac-4909-bffc-a1affea9aacc"},"vehicle_type_id":"4","last_reported":1742069376,"current_range_meters":2800,"station_id":"ce4bhnh2rcd13ifvqgtg","pricing_plan_id":"cebpf4jnsgd1na2vs0mg"},{"bike_id":"3197d0d7-f0dd-4b52-ab97-1eeff5571526","system_id":"levelo_inurba_marseille","lat":43.30884,"lon":5.39643,"is_reserved":false,"is_disabled":false,"rental_uris":{"android":"levelo://app?vid=3197d0d7-f0dd-4b52-ab97-1eeff5571526","ios":"levelo://app?vid=3197d0d7-f0dd-4b52-ab97-1eeff5571526"},"vehicle_type_id":"4","last_reported":1742069376,"current_range_meters":2800,"station_id":"ce4bh012rcd13ifvqcv0","pricing_plan_id":"cebpf4jnsgd1na2vs0mg"},{"bike_id":"45762ca8-8c10-4547-8f76-5d45109d4255","system_id":"levelo_inurba_marseille","lat":43.29524,"lon":5.39033,"is_reserved":false,"is_disabled":false,"rental_uris":{"android":"levelo://app?vid=45762ca8-8c10-4547-8f76-5d45109d4255","ios":"levelo://app?vid=45762ca8-8c10-4547-8f76-5d45109d4255"},"vehicle_type_id":"4","last_reported":1742069376,"current_range_meters":2800,"station_id":"ce4bh3p2rcd13ifvqdp0","pricing_plan_id":"cebpf4jnsgd1na2vs0mg"},{"bike_id":"c4d74ac0-59f0-4b6c-b491-28aa3f7d79da","system_id":"levelo_inurba_marseille","lat":43.32112,"lon":5.36799,"is_reserved":false,"is_disabled":false,"rental_uris":{"android":"levelo://app?vid=c4d74ac0-59f0-4b6c-b491-28aa3f7d79da","ios":"levelo://app?vid=c4d74ac0-59f0-4b6c-b491-28aa3f7d79da"},"vehicle_type_id":"4","last_reported":1742069376,"current_range_meters":2800,"station_id":"ce4bhrh2rcd13ifvqhug","pricing_plan_id":"cebpf4jnsgd1na2vs0mg"},{"bike_id":"576fc5ef-c7bf-4718-ba85-51b16362c5b4","system_id":"levelo_inurba_marseille","lat":43.2956,"lon":5.42297,"is_reserved":false,"is_disabled":false,"rental_uris":{"android":"levelo://app?vid=576fc5ef-c7bf-4718-ba85-51b16362c5b4","ios":"levelo://app?vid=576fc5ef-c7bf-4718-ba85-51b16362c5b4"},"vehicle_type_id":"4","last_reported":1742069376,"current_range_meters":3200,"station_id":"ce4bhph2rcd13ifvqhdg","pricing_plan_id":"cebpf4jnsgd1na2vs0mg"},{"bike_id":"7db9235c-9c67-42de-9517-6ba12cc78925","system_id":"levelo_inurba_marseille","lat":43.26563,"lon":5.39015,"is_reserved":false,"is_disabled":false,"rental_uris":{"android":"levelo://app?vid=7db9235c-9c67-42de-9517-6ba12cc78925","ios":"levelo://app?vid=7db9235c-9c67-42de-9517-6ba12cc78925"},"vehicle_type_id":"4","last_reported":1742069376,"current_range_meters":3200,"station_id":"ce4bhe12rcd13ifvqf30","pricing_plan_id":"cebpf4jnsgd1na2vs0mg"},{"bike_id":"4489de69-e79b-4217-b581-8ef0bbff1fae","system_id":"levelo_inurba_marseille","lat":43.27972,"lon":5.41045,"is_reserved":false,"is_disabled":false,"rental_uris":{"android":"levelo://app?vid=4489de69-e79b-4217-b581-8ef0bbff1fae","ios":"levelo://app?vid=4489de69-e79b-4217-b581-8ef0bbff1fae"},"vehicle_type_id":"4","last_reported":1742069376,"current_range_meters":3200,"station_id":"ce4bhnp2rcd13ifvqh0g","pricing_plan_id":"cebpf4jnsgd1na2vs0mg"},{"bike_id":"36ec5a15-215b-4367-a3ca-336aadd9a251","system_id":"levelo_inurba_marseille","lat":43.33746,"lon":5.3745,"is_reserved":false,"is_disabled":false,"rental_uris":{"android":"levelo://app?vid=36ec5a15-215b-4367-a3ca-336aadd9a251","ios":"levelo://app?vid=36ec5a15-215b-4367-a3ca-336aadd9a251"},"vehicle_type_id":"4","last_reported":1742069376,"current_range_meters":3200,"station_id":"","pricing_plan_id":"cebpf4jnsgd1na2vs0mg"},{"bike_id":"6e32353d-8edf-4017-90f6-585a4b0fab7f","system_id":"levelo_inurba_marseille","lat":43.338366,"lon":5.406892,"is_reserved":false,"is_disabled":false,"rental_uris":{"android":"levelo://app?vid=6e32353d-8edf-4017-90f6-585a4b0fab7f","ios":"levelo://app?vid=6e32353d-8edf-4017-90f6-585a4b0fab7f"},"vehicle_type_id":"4","last_reported":1742069376,"current_range_meters":3600,"station_id":"ce4bgl12rcd13ifvqbo0","pricing_plan_id":"cebpf4jnsgd1na2vs0mg"},{"bike_id":"f5e7d2b2-fb20-4f36-840e-f670691c6011","system_id":"levelo_inurba_marseille","lat":43.29966,"lon":5.38503,"is_reserved":false,"is_disabled":false,"rental_uris":{"android":"levelo://app?vid=f5e7d2b2-fb20-4f36-840e-f670691c6011","ios":"levelo://app?vid=f5e7d2b2-fb20-4f36-840e-f670691c6011"},"vehicle_type_id":"4","last_reported":1742069376,"current_range_meters":3600,"station_id":"ce4bgj92rcd13ifvqbd0","pricing_plan_id":"cebpf4jnsgd1na2vs0mg"},{"bike_id":"b5068f6b-8c9a-4a7e-85e2-83b19be9c574","system_id":"levelo_inurba_marseille","lat":43.28736,"lon":5.37947,"is_reserved":false,"is_disabled":true,"rental_uris":{"android":"levelo://app?vid=b5068f6b-8c9a-4a7e-85e2-83b19be9c574","ios":"levelo://app?vid=b5068f6b-8c9a-4a7e-85e2-83b19be9c574"},"vehicle_type_id":"4","last_reported":1742069376,"current_range_meters":3600,"station_id":"ce4bh9p2rcd13ifvqec0","pricing_plan_id":"cebpf4jnsgd1na2vs0mg"},{"bike_id":"ded042e3-2c2d-4045-a520-fed798af70ce","system_id":"levelo_inurba_marseille","lat":43.29304,"lon":5.37461,"is_reserved":false,"is_disabled":false,"rental_uris":{"android":"levelo://app?vid=ded042e3-2c2d-4045-a520-fed798af70ce","ios":"levelo://app?vid=ded042e3-2c2d-4045-a520-fed798af70ce"},"vehicle_type_id":"4","last_reported":1742069376,"current_range_meters":3600,"station_id":"ce4bgi12rcd13ifvqb70","pricing_plan_id":"cebpf4jnsgd1na2vs0mg"},{"bike_id":"5d51dfd6-d2b8-4008-9bb1-54e15f06911c","system_id":"levelo_inurba_marseille","lat":43.30141,"lon":5.388,"is_reserved":false,"is_disabled":false,"rental_uris":{"android":"levelo://app?vid=5d51dfd6-d2b8-4008-9bb1-54e15f06911c","ios":"levelo://app?vid=5d51dfd6-d2b8-4008-9bb1-54e15f06911c"},"vehicle_type_id":"4","last_reported":1742069376,"current_range_meters":4000,"station_id":"ce4bghh2rcd13ifvqb60","pricing_plan_id":"cebpf4jnsgd1na2vs0mg"},{"bike_id":"8941bf71-1ad4-4e5e-b2f9-d992d8e7140e","system_id":"levelo_inurba_marseille","lat":43.27628,"lon":5.36112,"is_reserved":false,"is_disabled":false,"rental_uris":{"android":"levelo://app?vid=8941bf71-1ad4-4e5e-b2f9-d992d8e7140e","ios":"levelo://app?vid=8941bf71-1ad4-4e5e-b2f9-d992d8e7140e"},"vehicle_type_id":"4","last_reported":1742069376,"current_range_meters":4000,"station_id":"ce4bgj92rcd13ifvqbe0","pricing_plan_id":"cebpf4jnsgd1na2vs0mg"},{"bike_id":"c564f816-3b93-485b-b129-c1895a6bd30c","system_id":"levelo_inurba_marseille","lat":43.29981,"lon":5.37179,"is_reserved":false,"is_disabled":false,"rental_uris":{"android":"levelo://app?vid=c564f816-3b93-485b-b129-c1895a6bd30c","ios":"levelo://app?vid=c564f816-3b93-485b-b129-c1895a6bd30c"},"vehicle_type_id":"4","last_reported":1742069376,"current_range_meters":4000,"station_id":"ce4bgr92rcd13ifvqc7g","pricing_plan_id":"cebpf4jnsgd1na2vs0mg"},{"bike_id":"70c9beeb-26b7-4860-984d-eebc64b09ee9","system_id":"levelo_inurba_marseille","lat":43.31119,"lon":5.37766,"is_reserved":false,"is_disabled":false,"rental_uris":{"android":"levelo://app?vid=70c9beeb-26b7-4860-984d-eebc64b09ee9","ios":"levelo://app?vid=70c9beeb-26b7-4860-984d-eebc64b09ee9"},"vehicle_type_id":"4","last_reported":1742069376,"current_range_meters":4000,"station_id":"ce4bgt92rcd13ifvqcg0","pricing_plan_id":"cebpf4jnsgd1na2vs0mg"},{"bike_id":"66dd1640-8250-4be0-80fa-4489c989c0bf","system_id":"levelo_inurba_marseille","lat":43.2396,"lon":5.36644,"is_reserved":false,"is_disabled":false,"rental_uris":{"android":"levelo://app?vid=66dd1640-8250-4be0-80fa-4489c989c0bf","ios":"levelo://app?vid=66dd1640-8250-4be0-80fa-4489c989c0bf"},"vehicle_type_id":"4","last_reported":1742069376,"current_range_meters":4000,"station_id":"ce4bhi12rcd13ifvqfp0","pricing_plan_id":"cebpf4jnsgd1na2vs0mg"},{"bike_id":"cd2914ff-5ddf-4465-add0-5220dd4b2e6a","system_id":"levelo_inurba_marseille","lat":43.27947,"lon":5.41044,"is_reserved":false,"is_disabled":false,"rental_uris":{"android":"levelo://app?vid=cd2914ff-5ddf-4465-add0-5220dd4b2e6a","ios":"levelo://app?vid=cd2914ff-5ddf-4465-add0-5220dd4b2e6a"},"vehicle_type_id":"4","last_reported":1742069376,"current_range_meters":4000,"station_id":"ce4bhnp2rcd13ifvqh0g","pricing_plan_id":"cebpf4jnsgd1na2vs0mg"},{"bike_id":"f2eb4374-0875-4873-8177-a38f3baa6f3a","system_id":"levelo_inurba_marseille","lat":43.2408,"lon":5.3777,"is_reserved":false,"is_disabled":false,"rental_uris":{"android":"levelo://app?vid=f2eb4374-0875-4873-8177-a38f3baa6f3a","ios":"levelo://app?vid=f2eb4374-0875-4873-8177-a38f3baa6f3a"},"vehicle_type_id":"4","last_reported":1742069376,"current_range_meters":4400,"station_id":"ce4bhnp2rcd13ifvqgvg","pricing_plan_id":"cebpf4jnsgd1na2vs0mg"},{"bike_id":"1b1b8b7a-1bb1-4f65-a070-4a4cf74718ab","system_id":"levelo_inurba_marseille","lat":43.22968,"lon":5.35413,"is_reserved":false,"is_disabled":false,"rental_uris":{"android":"levelo://app?vid=1b1b8b7a-1bb1-4f65-a070-4a4cf74718ab","ios":"levelo://app?vid=1b1b8b7a-1bb1-4f65-a070-4a4cf74718ab"},"vehicle_type_id":"4","last_reported":1742069376,"current_range_meters":4400,"station_id":"","pricing_plan_id":"cebpf4jnsgd1na2vs0mg"},{"bike_id":"20a06f47-6443-444e-b7a5-8e10f3f58f2c","system_id":"levelo_inurba_marseille","lat":43.29916,"lon":5.37489,"is_reserved":false,"is_disabled":false,"rental_uris":{"android":"levelo://app?vid=20a06f47-6443-444e-b7a5-8e10f3f58f2c","ios":"levelo://app?vid=20a06f47-6443-444e-b7a5-8e10f3f58f2c"},"vehicle_type_id":"4","last_reported":1742069376,"current_range_meters":4000,"station_id":"ce4bgjh2rcd13ifvqbg0","pricing_plan_id":"cebpf4jnsgd1na2vs0mg"},{"bike_id":"340488f0-9988-427b-a9bc-7386c392af7a","system_id":"levelo_inurba_marseille","lat":43.25725,"lon":5.41101,"is_reserved":false,"is_disabled":false,"rental_uris":{"android":"levelo://app?vid=340488f0-9988-427b-a9bc-7386c392af7a","ios":"levelo://app?vid=340488f0-9988-427b-a9bc-7386c392af7a"},"vehicle_type_id":"4","last_reported":1742069376,"current_range_meters":4800,"station_id":"ce4bhkp2rcd13ifvqgd0","pricing_plan_id":"cebpf4jnsgd1na2vs0mg"},{"bike_id":"9fe5b961-d827-4a2a-9cf5-4bd4b908e028","system_id":"levelo_inurba_marseille","lat":43.25687,"lon":5.41077,"is_reserved":false,"is_disabled":false,"rental_uris":{"android":"levelo://app?vid=9fe5b961-d827-4a2a-9cf5-4bd4b908e028","ios":"levelo://app?vid=9fe5b961-d827-4a2a-9cf5-4bd4b908e028"},"vehicle_type_id":"4","last_reported":1742069376,"current_range_meters":4800,"station_id":"ce4bhkp2rcd13ifvqgd0","pricing_plan_id":"cebpf4jnsgd1na2vs0mg"},{"bike_id":"71b6f67f-73eb-483b-aa0f-fa78d321869b","system_id":"levelo_inurba_marseille","lat":43.29093,"lon":5.38123,"is_reserved":false,"is_disabled":false,"rental_uris":{"android":"levelo://app?vid=71b6f67f-73eb-483b-aa0f-fa78d321869b","ios":"levelo://app?vid=71b6f67f-73eb-483b-aa0f-fa78d321869b"},"vehicle_type_id":"4","last_reported":1742069376,"current_range_meters":4800,"station_id":"ce4bh512rcd13ifvqe2g","pricing_plan_id":"cebpf4jnsgd1na2vs0mg"},{"bike_id":"4be80e14-ba3c-47c7-adf7-6b55e7155ce7","system_id":"levelo_inurba_marseille","lat":43.30947,"lon":5.40155,"is_reserved":false,"is_disabled":false,"rental_uris":{"android":"levelo://app?vid=4be80e14-ba3c-47c7-adf7-6b55e7155ce7","ios":"levelo://app?vid=4be80e14-ba3c-47c7-adf7-6b55e7155ce7"},"vehicle_type_id":"4","last_reported":1742069376,"current_range_meters":4800,"station_id":"ce4bgvp2rcd13ifvqct0","pricing_plan_id":"cebpf4jnsgd1na2vs0mg"},{"bike_id":"898f4364-1f8e-49d3-a596-aa84b0093672","system_id":"levelo_inurba_marseille","lat":43.28612,"lon":5.3511,"is_reserved":false,"is_disabled":false,"rental_uris":{"android":"levelo://app?vid=898f4364-1f8e-49d3-a596-aa84b0093672","ios":"levelo://app?vid=898f4364-1f8e-49d3-a596-aa84b0093672"},"vehicle_type_id":"4","last_reported":1742069376,"current_range_meters":4800,"station_id":"ce4bhch2rcd13ifvqeug","pricing_plan_id":"cebpf4jnsgd1na2vs0mg"},{"bike_id":"fa5894d7-1c98-4f78-8661-afc7d0ea5566","system_id":"levelo_inurba_marseille","lat":43.26941,"lon":5.40259,"is_reserved":false,"is_disabled":false,"rental_uris":{"android":"levelo://app?vid=fa5894d7-1c98-4f78-8661-afc7d0ea5566","ios":"levelo://app?vid=fa5894d7-1c98-4f78-8661-afc7d0ea5566"},"vehicle_type_id":"4","last_reported":1742069376,"current_range_meters":4800,"station_id":"cjm6bp8fraef2m0cb0m0","pricing_plan_id":"cebpf4jnsgd1na2vs0mg"},{"bike_id":"dcd435ce-b0f6-4a81-9070-9cefd39577e9","system_id":"levelo_inurba_marseille","lat":43.29865,"lon":5.38911,"is_reserved":false,"is_disabled":true,"rental_uris":{"android":"levelo://app?vid=dcd435ce-b0f6-4a81-9070-9cefd39577e9","ios":"levelo://app?vid=dcd435ce-b0f6-4a81-9070-9cefd39577e9"},"vehicle_type_id":"4","last_reported":1742069376,"current_range_meters":4800,"station_id":"ce4bh392rcd13ifvqdl0","pricing_plan_id":"cebpf4jnsgd1na2vs0mg"},{"bike_id":"96c95cc5-3655-4976-bd9e-8b622b598117","system_id":"levelo_inurba_marseille","lat":43.279931,"lon":5.416704,"is_reserved":false,"is_disabled":true,"rental_uris":{"android":"levelo://app?vid=96c95cc5-3655-4976-bd9e-8b622b598117","ios":"levelo://app?vid=96c95cc5-3655-4976-bd9e-8b622b598117"},"vehicle_type_id":"4","last_reported":1742069376,"current_range_meters":4800,"station_id":"ce4bho12rcd13ifvqh1g","pricing_plan_id":"cebpf4jnsgd1na2vs0mg"},{"bike_id":"dfb1890d-a53d-42f7-a687-0bca1634d203","system_id":"levelo_inurba_marseille","lat":43.26998,"lon":5.38711,"is_reserved":false,"is_disabled":false,"rental_uris":{"android":"levelo://app?vid=dfb1890d-a53d-42f7-a687-0bca1634d203","ios":"levelo://app?vid=dfb1890d-a53d-42f7-a687-0bca1634d203"},"vehicle_type_id":"4","last_reported":1742069376,"current_range_meters":4800,"station_id":"","pricing_plan_id":"cebpf4jnsgd1na2vs0mg"},{"bike_id":"98836e19-8221-42d1-946f-956561327618","system_id":"levelo_inurba_marseille","lat":43.27379,"lon":5.3626,"is_reserved":false,"is_disabled":true,"rental_uris":{"android":"levelo://app?vid=98836e19-8221-42d1-946f-956561327618","ios":"levelo://app?vid=98836e19-8221-42d1-946f-956561327618"},"vehicle_type_id":"4","last_reported":1742069376,"current_range_meters":4800,"station_id":"ce4bhbh2rcd13ifvqeo0","pricing_plan_id":"cebpf4jnsgd1na2vs0mg"},{"bike_id":"0c1f1373-7f9f-44af-8969-5e90c4748115","system_id":"levelo_inurba_marseille","lat":43.2867,"lon":5.36354,"is_reserved":false,"is_disabled":false,"rental_uris":{"android":"levelo://app?vid=0c1f1373-7f9f-44af-8969-5e90c4748115","ios":"levelo://app?vid=0c1f1373-7f9f-44af-8969-5e90c4748115"},"vehicle_type_id":"4","last_reported":1742069376,"current_range_meters":4800,"station_id":"ce4bhah2rcd13ifvqej0","pricing_plan_id":"cebpf4jnsgd1na2vs0mg"},{"bike_id":"b76967ef-432a-4b0a-a1aa-bc28216361bc","system_id":"levelo_inurba_marseille","lat":43.2319,"lon":5.39992,"is_reserved":false,"is_disabled":false,"rental_uris":{"android":"levelo://app?vid=b76967ef-432a-4b0a-a1aa-bc28216361bc","ios":"levelo://app?vid=b76967ef-432a-4b0a-a1aa-bc28216361bc"},"vehicle_type_id":"4","last_reported":1742069376,"current_range_meters":5600,"station_id":"ce4bhn12rcd13ifvqgqg","pricing_plan_id":"cebpf4jnsgd1na2vs0mg"},{"bike_id":"3dec03f7-711b-476c-8e87-0b75b382b1a1","system_id":"levelo_inurba_marseille","lat":43.29309,"lon":5.37453,"is_reserved":false,"is_disabled":false,"rental_uris":{"android":"levelo://app?vid=3dec03f7-711b-476c-8e87-0b75b382b1a1","ios":"levelo://app?vid=3dec03f7-711b-476c-8e87-0b75b382b1a1"},"vehicle_type_id":"4","last_reported":1742069376,"current_range_meters":5600,"station_id":"ce4bgi12rcd13ifvqb70","pricing_plan_id":"cebpf4jnsgd1na2vs0mg"},{"bike_id":"8c329b8b-e9f6-45f6-9749-328bf6c1e896","system_id":"levelo_inurba_marseille","lat":43.25003,"lon":5.38923,"is_reserved":false,"is_disabled":false,"rental_uris":{"android":"levelo://app?vid=8c329b8b-e9f6-45f6-9749-328bf6c1e896","ios":"levelo://app?vid=8c329b8b-e9f6-45f6-9749-328bf6c1e896"},"vehicle_type_id":"4","last_reported":1742069376,"current_range_meters":5600,"station_id":"","pricing_plan_id":"cebpf4jnsgd1na2vs0mg"},{"bike_id":"70733407-d631-4bef-9379-9cbf10906a47","system_id":"levelo_inurba_marseille","lat":43.29603,"lon":5.38109,"is_reserved":false,"is_disabled":false,"rental_uris":{"android":"levelo://app?vid=70733407-d631-4bef-9379-9cbf10906a47","ios":"levelo://app?vid=70733407-d631-4bef-9379-9cbf10906a47"},"vehicle_type_id":"4","last_reported":1742069376,"current_range_meters":5600,"station_id":"ce4bgl12rcd13ifvqbo0","pricing_plan_id":"cebpf4jnsgd1na2vs0mg"},{"bike_id":"eb46fac1-0ff1-4348-89c6-246454422b8a","system_id":"levelo_inurba_marseille","lat":43.28411,"lon":5.37517,"is_reserved":false,"is_disabled":false,"rental_uris":{"android":"levelo://app?vid=eb46fac1-0ff1-4348-89c6-246454422b8a","ios":"levelo://app?vid=eb46fac1-0ff1-4348-89c6-246454422b8a"},"vehicle_type_id":"4","last_reported":1742069376,"current_range_meters":5600,"station_id":"ce4bh412rcd13ifvqds0","pricing_plan_id":"cebpf4jnsgd1na2vs0mg"},{"bike_id":"236e4ef2-ed04-43df-a58b-0f3c5bf5cc33","system_id":"levelo_inurba_marseille","lat":43.2991,"lon":5.38142,"is_reserved":false,"is_disabled":false,"rental_uris":{"android":"levelo://app?vid=236e4ef2-ed04-43df-a58b-0f3c5bf5cc33","ios":"levelo://app?vid=236e4ef2-ed04-43df-a58b-0f3c5bf5cc33"},"vehicle_type_id":"4","last_reported":1742069376,"current_range_meters":5600,"station_id":"ce4bgj12rcd13ifvqbc0","pricing_plan_id":"cebpf4jnsgd1na2vs0mg"},{"bike_id":"9e47f4dd-e296-4fc3-ba49-3cb504725941","system_id":"levelo_inurba_marseille","lat":43.27986,"lon":5.40056,"is_reserved":false,"is_disabled":false,"rental_uris":{"android":"levelo://app?vid=9e47f4dd-e296-4fc3-ba49-3cb504725941","ios":"levelo://app?vid=9e47f4dd-e296-4fc3-ba49-3cb504725941"},"vehicle_type_id":"4","last_reported":1742069376,"current_range_meters":5600,"station_id":"ce4bho92rcd13ifvqh4g","pricing_plan_id":"cebpf4jnsgd1na2vs0mg"},{"bike_id":"b8dc8f59-88b2-4cec-b5bd-26e833ba9750","system_id":"levelo_inurba_marseille","lat":43.32492,"lon":5.36587,"is_reserved":false,"is_disabled":true,"rental_uris":{"android":"levelo://app?vid=b8dc8f59-88b2-4cec-b5bd-26e833ba9750","ios":"levelo://app?vid=b8dc8f59-88b2-4cec-b5bd-26e833ba9750"},"vehicle_type_id":"4","last_reported":1742069376,"current_range_meters":5600,"station_id":"ce4bhs12rcd13ifvqhvg","pricing_plan_id":"cebpf4jnsgd1na2vs0mg"},{"bike_id":"5e92b9c9-c32c-4e0a-8f6f-a2013a747b78","system_id":"levelo_inurba_marseille","lat":43.29985,"lon":5.38509,"is_reserved":false,"is_disabled":false,"rental_uris":{"android":"levelo://app?vid=5e92b9c9-c32c-4e0a-8f6f-a2013a747b78","ios":"levelo://app?vid=5e92b9c9-c32c-4e0a-8f6f-a2013a747b78"},"vehicle_type_id":"4","last_reported":1742069376,"current_range_meters":6000,"station_id":"ce4bgj92rcd13ifvqbd0","pricing_plan_id":"cebpf4jnsgd1na2vs0mg"},{"bike_id":"ee04f0d7-be84-4b6b-b77c-e161e113ebb7","system_id":"levelo_inurba_marseille","lat":43.232,"lon":5.39986,"is_reserved":false,"is_disabled":false,"rental_uris":{"android":"levelo://app?vid=ee04f0d7-be84-4b6b-b77c-e161e113ebb7","ios":"levelo://app?vid=ee04f0d7-be84-4b6b-b77c-e161e113ebb7"},"vehicle_type_id":"4","last_reported":1742069376,"current_range_meters":6000,"station_id":"ce4bhn12rcd13ifvqgqg","pricing_plan_id":"cebpf4jnsgd1na2vs0mg"},{"bike_id":"aeaf34e1-0107-4003-be9e-0e20d3f9c3f4","system_id":"levelo_inurba_marseille","lat":43.29907,"lon":5.38141,"is_reserved":false,"is_disabled":false,"rental_uris":{"android":"levelo://app?vid=aeaf34e1-0107-4003-be9e-0e20d3f9c3f4","ios":"levelo://app?vid=aeaf34e1-0107-4003-be9e-0e20d3f9c3f4"},"vehicle_type_id":"4","last_reported":1742069376,"current_range_meters":6000,"station_id":"ce4bgj12rcd13ifvqbc0","pricing_plan_id":"cebpf4jnsgd1na2vs0mg"},{"bike_id":"006f350b-20dd-4c5e-9bfc-9e892238e923","system_id":"levelo_inurba_marseille","lat":43.29819,"lon":5.38112,"is_reserved":false,"is_disabled":false,"rental_uris":{"android":"levelo://app?vid=006f350b-20dd-4c5e-9bfc-9e892238e923","ios":"levelo://app?vid=006f350b-20dd-4c5e-9bfc-9e892238e923"},"vehicle_type_id":"4","last_reported":1742069376,"current_range_meters":6000,"station_id":"ce4bgip2rcd13ifvqbb0","pricing_plan_id":"cebpf4jnsgd1na2vs0mg"},{"bike_id":"c360ef65-caae-4998-8364-d8efa27e88ed","system_id":"levelo_inurba_marseille","lat":43.30144,"lon":5.38783,"is_reserved":false,"is_disabled":false,"rental_uris":{"android":"levelo://app?vid=c360ef65-caae-4998-8364-d8efa27e88ed","ios":"levelo://app?vid=c360ef65-caae-4998-8364-d8efa27e88ed"},"vehicle_type_id":"4","last_reported":1742069376,"current_range_meters":6000,"station_id":"ce4bghh2rcd13ifvqb60","pricing_plan_id":"cebpf4jnsgd1na2vs0mg"},{"bike_id":"0fb10cf2-fb64-4d40-90d9-4521468f3e61","system_id":"levelo_inurba_marseille","lat":43.30315,"lon":5.39194,"is_reserved":false,"is_disabled":false,"rental_uris":{"android":"levelo://app?vid=0fb10cf2-fb64-4d40-90d9-4521468f3e61","ios":"levelo://app?vid=0fb10cf2-fb64-4d40-90d9-4521468f3e61"},"vehicle_type_id":"4","last_reported":1742069376,"current_range_meters":6000,"station_id":"ce4bgkh2rcd13ifvqbk0","pricing_plan_id":"cebpf4jnsgd1na2vs0mg"},{"bike_id":"c4d301f2-be0f-4a0a-b8eb-80308e186a53","system_id":"levelo_inurba_marseille","lat":43.29311,"lon":5.37456,"is_reserved":false,"is_disabled":false,"rental_uris":{"android":"levelo://app?vid=c4d301f2-be0f-4a0a-b8eb-80308e186a53","ios":"levelo://app?vid=c4d301f2-be0f-4a0a-b8eb-80308e186a53"},"vehicle_type_id":"4","last_reported":1742069376,"current_range_meters":6400,"station_id":"ce4bgi12rcd13ifvqb70","pricing_plan_id":"cebpf4jnsgd1na2vs0mg"},{"bike_id":"f5d879b5-4e8a-4e91-bc2b-907eff703e2f","system_id":"levelo_inurba_marseille","lat":43.24667,"lon":5.38163,"is_reserved":false,"is_disabled":false,"rental_uris":{"android":"levelo://app?vid=f5d879b5-4e8a-4e91-bc2b-907eff703e2f","ios":"levelo://app?vid=f5d879b5-4e8a-4e91-bc2b-907eff703e2f"},"vehicle_type_id":"4","last_reported":1742069376,"current_range_meters":6400,"station_id":"ce4bhih2rcd13ifvqfr0","pricing_plan_id":"cebpf4jnsgd1na2vs0mg"},{"bike_id":"895ed339-d2e8-455d-8c91-c58694d5dcc5","system_id":"levelo_inurba_marseille","lat":43.30592,"lon":5.39348,"is_reserved":false,"is_disabled":false,"rental_uris":{"android":"levelo://app?vid=895ed339-d2e8-455d-8c91-c58694d5dcc5","ios":"levelo://app?vid=895ed339-d2e8-455d-8c91-c58694d5dcc5"},"vehicle_type_id":"4","last_reported":1742069376,"current_range_meters":6400,"station_id":"ce4bh0p2rcd13ifvqd80","pricing_plan_id":"cebpf4jnsgd1na2vs0mg"},{"bike_id":"6b43488e-49e7-4159-b7e7-54e154d8769f","system_id":"levelo_inurba_marseille","lat":43.23055,"lon":5.35492,"is_reserved":false,"is_disabled":false,"rental_uris":{"android":"levelo://app?vid=6b43488e-49e7-4159-b7e7-54e154d8769f","ios":"levelo://app?vid=6b43488e-49e7-4159-b7e7-54e154d8769f"},"vehicle_type_id":"4","last_reported":1742069376,"current_range_meters":6400,"station_id":"cpo3342slgdg3j2ifvpg","pricing_plan_id":"cebpf4jnsgd1na2vs0mg"},{"bike_id":"a8e67676-89ba-43e0-82dc-5ef4b0a5e328","system_id":"levelo_inurba_marseille","lat":43.31621,"lon":5.3863,"is_reserved":false,"is_disabled":false,"rental_uris":{"android":"levelo://app?vid=a8e67676-89ba-43e0-82dc-5ef4b0a5e328","ios":"levelo://app?vid=a8e67676-89ba-43e0-82dc-5ef4b0a5e328"},"vehicle_type_id":"4","last_reported":1742069376,"current_range_meters":6400,"station_id":"","pricing_plan_id":"cebpf4jnsgd1na2vs0mg"},{"bike_id":"1725a416-5064-46c4-8cd1-0ce68b451be2","system_id":"levelo_inurba_marseille","lat":43.29969,"lon":5.3849,"is_reserved":false,"is_disabled":false,"rental_uris":{"android":"levelo://app?vid=1725a416-5064-46c4-8cd1-0ce68b451be2","ios":"levelo://app?vid=1725a416-5064-46c4-8cd1-0ce68b451be2"},"vehicle_type_id":"4","last_reported":1742069376,"current_range_meters":6400,"station_id":"ce4bgj92rcd13ifvqbd0","pricing_plan_id":"cebpf4jnsgd1na2vs0mg"},{"bike_id":"9e763656-124f-449b-8369-476a0acf3318","system_id":"levelo_inurba_marseille","lat":43.29069,"lon":5.37166,"is_reserved":false,"is_disabled":false,"rental_uris":{"android":"levelo://app?vid=9e763656-124f-449b-8369-476a0acf3318","ios":"levelo://app?vid=9e763656-124f-449b-8369-476a0acf3318"},"vehicle_type_id":"4","last_reported":1742069376,"current_range_meters":6400,"station_id":"ce4bh5p2rcd13ifvqe4g","pricing_plan_id":"cebpf4jnsgd1na2vs0mg"},{"bike_id":"5615a699-fda4-441d-b799-b3e9983dbd0d","system_id":"levelo_inurba_marseille","lat":43.29964,"lon":5.38497,"is_reserved":false,"is_disabled":false,"rental_uris":{"android":"levelo://app?vid=5615a699-fda4-441d-b799-b3e9983dbd0d","ios":"levelo://app?vid=5615a699-fda4-441d-b799-b3e9983dbd0d"},"vehicle_type_id":"4","last_reported":1742069376,"current_range_meters":6800,"station_id":"ce4bgj92rcd13ifvqbd0","pricing_plan_id":"cebpf4jnsgd1na2vs0mg"},{"bike_id":"a8db734b-bd7d-4d7a-a437-7c9f339f7518","system_id":"levelo_inurba_marseille","lat":43.29981,"lon":5.38491,"is_reserved":false,"is_disabled":false,"rental_uris":{"android":"levelo://app?vid=a8db734b-bd7d-4d7a-a437-7c9f339f7518","ios":"levelo://app?vid=a8db734b-bd7d-4d7a-a437-7c9f339f7518"},"vehicle_type_id":"4","last_reported":1742069376,"current_range_meters":6800,"station_id":"ce4bgj92rcd13ifvqbd0","pricing_plan_id":"cebpf4jnsgd1na2vs0mg"},{"bike_id":"48f968e9-2670-450c-9a50-b12a7ac1907f","system_id":"levelo_inurba_marseille","lat":43.25728,"lon":5.41114,"is_reserved":false,"is_disabled":false,"rental_uris":{"android":"levelo://app?vid=48f968e9-2670-450c-9a50-b12a7ac1907f","ios":"levelo://app?vid=48f968e9-2670-450c-9a50-b12a7ac1907f"},"vehicle_type_id":"4","last_reported":1742069376,"current_range_meters":6800,"station_id":"ce4bhkp2rcd13ifvqgd0","pricing_plan_id":"cebpf4jnsgd1na2vs0mg"},{"bike_id":"52d1096d-8fe7-49a0-85fe-4d48bf271b73","system_id":"levelo_inurba_marseille","lat":43.27808,"lon":5.40719,"is_reserved":false,"is_disabled":false,"rental_uris":{"android":"levelo://app?vid=52d1096d-8fe7-49a0-85fe-4d48bf271b73","ios":"levelo://app?vid=52d1096d-8fe7-49a0-85fe-4d48bf271b73"},"vehicle_type_id":"4","last_reported":1742069376,"current_range_meters":6800,"station_id":"ce4bhnh2rcd13ifvqgtg","pricing_plan_id":"cebpf4jnsgd1na2vs0mg"},{"bike_id":"f88f80d3-9df8-4102-bc05-765d6265e2da","system_id":"levelo_inurba_marseille","lat":43.29915,"lon":5.38166,"is_reserved":false,"is_disabled":false,"rental_uris":{"android":"levelo://app?vid=f88f80d3-9df8-4102-bc05-765d6265e2da","ios":"levelo://app?vid=f88f80d3-9df8-4102-bc05-765d6265e2da"},"vehicle_type_id":"4","last_reported":1742069376,"current_range_meters":6800,"station_id":"ce4bgj12rcd13ifvqbc0","pricing_plan_id":"cebpf4jnsgd1na2vs0mg"},{"bike_id":"fbc6030b-cf37-4c55-9637-878839b7783c","system_id":"levelo_inurba_marseille","lat":43.30302,"lon":5.392,"is_reserved":false,"is_disabled":false,"rental_uris":{"android":"levelo://app?vid=fbc6030b-cf37-4c55-9637-878839b7783c","ios":"levelo://app?vid=fbc6030b-cf37-4c55-9637-878839b7783c"},"vehicle_type_id":"4","last_reported":1742069376,"current_range_meters":6800,"station_id":"ce4bgkh2rcd13ifvqbk0","pricing_plan_id":"cebpf4jnsgd1na2vs0mg"},{"bike_id":"5f302834-47d4-401d-a4b4-804921831d5f","system_id":"levelo_inurba_marseille","lat":43.27812,"lon":5.4072,"is_reserved":false,"is_disabled":false,"rental_uris":{"android":"levelo://app?vid=5f302834-47d4-401d-a4b4-804921831d5f","ios":"levelo://app?vid=5f302834-47d4-401d-a4b4-804921831d5f"},"vehicle_type_id":"4","last_reported":1742069376,"current_range_meters":6800,"station_id":"ce4bhnh2rcd13ifvqgtg","pricing_plan_id":"cebpf4jnsgd1na2vs0mg"},{"bike_id":"07462697-9727-42c5-a00d-efea2ff39280","system_id":"levelo_inurba_marseille","lat":43.29199,"lon":5.39323,"is_reserved":false,"is_disabled":false,"rental_uris":{"android":"levelo://app?vid=07462697-9727-42c5-a00d-efea2ff39280","ios":"levelo://app?vid=07462697-9727-42c5-a00d-efea2ff39280"},"vehicle_type_id":"4","last_reported":1742069376,"current_range_meters":6800,"station_id":"ce4bh192rcd13ifvqdd0","pricing_plan_id":"cebpf4jnsgd1na2vs0mg"},{"bike_id":"2315d970-5319-41d5-ad3c-06ac299452e3","system_id":"levelo_inurba_marseille","lat":43.27824,"lon":5.40731,"is_reserved":false,"is_disabled":false,"rental_uris":{"android":"levelo://app?vid=2315d970-5319-41d5-ad3c-06ac299452e3","ios":"levelo://app?vid=2315d970-5319-41d5-ad3c-06ac299452e3"},"vehicle_type_id":"4","last_reported":1742069376,"current_range_meters":6800,"station_id":"ce4bhnh2rcd13ifvqgtg","pricing_plan_id":"cebpf4jnsgd1na2vs0mg"},{"bike_id":"355fb77e-22da-4ed4-bab8-f395a5c5d15a","system_id":"levelo_inurba_marseille","lat":43.2466,"lon":5.38162,"is_reserved":false,"is_disabled":false,"rental_uris":{"android":"levelo://app?vid=355fb77e-22da-4ed4-bab8-f395a5c5d15a","ios":"levelo://app?vid=355fb77e-22da-4ed4-bab8-f395a5c5d15a"},"vehicle_type_id":"4","last_reported":1742069376,"current_range_meters":6800,"station_id":"ce4bhih2rcd13ifvqfr0","pricing_plan_id":"cebpf4jnsgd1na2vs0mg"},{"bike_id":"bd7fb638-a561-41df-90ca-f32685780427","system_id":"levelo_inurba_marseille","lat":43.22929,"lon":5.35378,"is_reserved":false,"is_disabled":false,"rental_uris":{"android":"levelo://app?vid=bd7fb638-a561-41df-90ca-f32685780427","ios":"levelo://app?vid=bd7fb638-a561-41df-90ca-f32685780427"},"vehicle_type_id":"4","last_reported":1742069376,"current_range_meters":6800,"station_id":"cpo3532slgdg3j2ikp40","pricing_plan_id":"cebpf4jnsgd1na2vs0mg"},{"bike_id":"cfabaa4d-15fd-4b12-8893-bb822c895519","system_id":"levelo_inurba_marseille","lat":43.29299,"lon":5.37466,"is_reserved":false,"is_disabled":false,"rental_uris":{"android":"levelo://app?vid=cfabaa4d-15fd-4b12-8893-bb822c895519","ios":"levelo://app?vid=cfabaa4d-15fd-4b12-8893-bb822c895519"},"vehicle_type_id":"4","last_reported":1742069376,"current_range_meters":6800,"station_id":"ce4bgi12rcd13ifvqb70","pricing_plan_id":"cebpf4jnsgd1na2vs0mg"},{"bike_id":"31a0334a-e232-4ef2-8523-76e80a04f75f","system_id":"levelo_inurba_marseille","lat":43.29218,"lon":5.36056,"is_reserved":false,"is_disabled":false,"rental_uris":{"android":"levelo://app?vid=31a0334a-e232-4ef2-8523-76e80a04f75f","ios":"levelo://app?vid=31a0334a-e232-4ef2-8523-76e80a04f75f"},"vehicle_type_id":"4","last_reported":1742069376,"current_range_meters":6800,"station_id":"ce4bhbh2rcd13ifvqeqg","pricing_plan_id":"cebpf4jnsgd1na2vs0mg"},{"bike_id":"4fba7e23-c0bd-469b-817e-c2e00b4ad63a","system_id":"levelo_inurba_marseille","lat":43.29049,"lon":5.38637,"is_reserved":false,"is_disabled":false,"rental_uris":{"android":"levelo://app?vid=4fba7e23-c0bd-469b-817e-c2e00b4ad63a","ios":"levelo://app?vid=4fba7e23-c0bd-469b-817e-c2e00b4ad63a"},"vehicle_type_id":"4","last_reported":1742069376,"current_range_meters":6800,"station_id":"ce4bh4p2rcd13ifvqe0g","pricing_plan_id":"cebpf4jnsgd1na2vs0mg"},{"bike_id":"2ec0f046-4e68-4150-a618-5c892d6b2cb5","system_id":"levelo_inurba_marseille","lat":43.26225,"lon":5.40446,"is_reserved":false,"is_disabled":false,"rental_uris":{"android":"levelo://app?vid=2ec0f046-4e68-4150-a618-5c892d6b2cb5","ios":"levelo://app?vid=2ec0f046-4e68-4150-a618-5c892d6b2cb5"},"vehicle_type_id":"4","last_reported":1742069376,"current_range_meters":6800,"station_id":"ce4bhmh2rcd13ifvqgmg","pricing_plan_id":"cebpf4jnsgd1na2vs0mg"},{"bike_id":"30a4f127-94f9-4909-8f10-cc0842fe728e","system_id":"levelo_inurba_marseille","lat":43.29862,"lon":5.36306,"is_reserved":false,"is_disabled":false,"rental_uris":{"android":"levelo://app?vid=30a4f127-94f9-4909-8f10-cc0842fe728e","ios":"levelo://app?vid=30a4f127-94f9-4909-8f10-cc0842fe728e"},"vehicle_type_id":"4","last_reported":1742069376,"current_range_meters":6800,"station_id":"ce4bgpp2rcd13ifvqc3g","pricing_plan_id":"cebpf4jnsgd1na2vs0mg"},{"bike_id":"21320d42-c5dd-4b38-8591-7e09be8d4e4d","system_id":"levelo_inurba_marseille","lat":43.29167,"lon":5.37168,"is_reserved":false,"is_disabled":false,"rental_uris":{"android":"levelo://app?vid=21320d42-c5dd-4b38-8591-7e09be8d4e4d","ios":"levelo://app?vid=21320d42-c5dd-4b38-8591-7e09be8d4e4d"},"vehicle_type_id":"4","last_reported":1742069376,"current_range_meters":7200,"station_id":"ce4bha92rcd13ifvqeh0","pricing_plan_id":"cebpf4jnsgd1na2vs0mg"},{"bike_id":"1ec01547-d7be-479c-bf18-ac6931f44751","system_id":"levelo_inurba_marseille","lat":43.29963,"lon":5.38498,"is_reserved":false,"is_disabled":false,"rental_uris":{"android":"levelo://app?vid=1ec01547-d7be-479c-bf18-ac6931f44751","ios":"levelo://app?vid=1ec01547-d7be-479c-bf18-ac6931f44751"},"vehicle_type_id":"4","last_reported":1742069376,"current_range_meters":7200,"station_id":"ce4bgj92rcd13ifvqbd0","pricing_plan_id":"cebpf4jnsgd1na2vs0mg"},{"bike_id":"32e54212-bcb0-4c34-9b2b-debf9a0c5310","system_id":"levelo_inurba_marseille","lat":43.29512,"lon":5.39038,"is_reserved":false,"is_disabled":false,"rental_uris":{"android":"levelo://app?vid=32e54212-bcb0-4c34-9b2b-debf9a0c5310","ios":"levelo://app?vid=32e54212-bcb0-4c34-9b2b-debf9a0c5310"},"vehicle_type_id":"4","last_reported":1742069376,"current_range_meters":7200,"station_id":"ce4bh3p2rcd13ifvqdp0","pricing_plan_id":"cebpf4jnsgd1na2vs0mg"},{"bike_id":"8a5bd971-61c1-4475-933b-dffdb284dd01","system_id":"levelo_inurba_marseille","lat":43.25044,"lon":5.38949,"is_reserved":false,"is_disabled":false,"rental_uris":{"android":"levelo://app?vid=8a5bd971-61c1-4475-933b-dffdb284dd01","ios":"levelo://app?vid=8a5bd971-61c1-4475-933b-dffdb284dd01"},"vehicle_type_id":"4","last_reported":1742069376,"current_range_meters":7200,"station_id":"","pricing_plan_id":"cebpf4jnsgd1na2vs0mg"},{"bike_id":"745536dc-c7aa-4813-9f2d-a3c042de011d","system_id":"levelo_inurba_marseille","lat":43.29512,"lon":5.39406,"is_reserved":false,"is_disabled":false,"rental_uris":{"android":"levelo://app?vid=745536dc-c7aa-4813-9f2d-a3c042de011d","ios":"levelo://app?vid=745536dc-c7aa-4813-9f2d-a3c042de011d"},"vehicle_type_id":"4","last_reported":1742069376,"current_range_meters":7200,"station_id":"ce4bh292rcd13ifvqdf0","pricing_plan_id":"cebpf4jnsgd1na2vs0mg"},{"bike_id":"6dc3c1f8-b7f0-44f6-b17b-f51851049f32","system_id":"levelo_inurba_marseille","lat":43.29285,"lon":5.37447,"is_reserved":false,"is_disabled":false,"rental_uris":{"android":"levelo://app?vid=6dc3c1f8-b7f0-44f6-b17b-f51851049f32","ios":"levelo://app?vid=6dc3c1f8-b7f0-44f6-b17b-f51851049f32"},"vehicle_type_id":"4","last_reported":1742069376,"current_range_meters":7200,"station_id":"ce4bgi12rcd13ifvqb70","pricing_plan_id":"cebpf4jnsgd1na2vs0mg"},{"bike_id":"88c2ec9c-c2ee-474d-a6aa-dbb7a53fc0ca","system_id":"levelo_inurba_marseille","lat":43.2419,"lon":5.39745,"is_reserved":false,"is_disabled":true,"rental_uris":{"android":"levelo://app?vid=88c2ec9c-c2ee-474d-a6aa-dbb7a53fc0ca","ios":"levelo://app?vid=88c2ec9c-c2ee-474d-a6aa-dbb7a53fc0ca"},"vehicle_type_id":"4","last_reported":1742069376,"current_range_meters":7200,"station_id":"ce4bhn12rcd13ifvqgpg","pricing_plan_id":"cebpf4jnsgd1na2vs0mg"},{"bike_id":"290fed96-c961-40dd-8907-eaa6ef861c1c","system_id":"levelo_inurba_marseille","lat":43.25098,"lon":5.39542,"is_reserved":false,"is_disabled":false,"rental_uris":{"android":"levelo://app?vid=290fed96-c961-40dd-8907-eaa6ef861c1c","ios":"levelo://app?vid=290fed96-c961-40dd-8907-eaa6ef861c1c"},"vehicle_type_id":"4","last_reported":1742069376,"current_range_meters":7200,"station_id":"ce4bhm12rcd13ifvqgkg","pricing_plan_id":"cebpf4jnsgd1na2vs0mg"},{"bike_id":"a48a4c08-1744-4127-9d1a-8414680229a6","system_id":"levelo_inurba_marseille","lat":43.29968,"lon":5.38502,"is_reserved":false,"is_disabled":false,"rental_uris":{"android":"levelo://app?vid=a48a4c08-1744-4127-9d1a-8414680229a6","ios":"levelo://app?vid=a48a4c08-1744-4127-9d1a-8414680229a6"},"vehicle_type_id":"4","last_reported":1742069376,"current_range_meters":7200,"station_id":"ce4bgj92rcd13ifvqbd0","pricing_plan_id":"cebpf4jnsgd1na2vs0mg"},{"bike_id":"cec596e7-05db-41ae-acd9-68cf99ac7b7f","system_id":"levelo_inurba_marseille","lat":43.29303,"lon":5.37443,"is_reserved":false,"is_disabled":false,"rental_uris":{"android":"levelo://app?vid=cec596e7-05db-41ae-acd9-68cf99ac7b7f","ios":"levelo://app?vid=cec596e7-05db-41ae-acd9-68cf99ac7b7f"},"vehicle_type_id":"4","last_reported":1742069376,"current_range_meters":7200,"station_id":"ce4bgi12rcd13ifvqb70","pricing_plan_id":"cebpf4jnsgd1na2vs0mg"},{"bike_id":"51ab53f7-208d-4680-8b07-384454f7147f","system_id":"levelo_inurba_marseille","lat":43.23174,"lon":5.39981,"is_reserved":false,"is_disabled":false,"rental_uris":{"android":"levelo://app?vid=51ab53f7-208d-4680-8b07-384454f7147f","ios":"levelo://app?vid=51ab53f7-208d-4680-8b07-384454f7147f"},"vehicle_type_id":"4","last_reported":1742069376,"current_range_meters":7200,"station_id":"ce4bhn12rcd13ifvqgqg","pricing_plan_id":"cebpf4jnsgd1na2vs0mg"},{"bike_id":"39fc9955-9b73-4685-ba5b-6ad09fdfa658","system_id":"levelo_inurba_marseille","lat":43.27832,"lon":5.40715,"is_reserved":false,"is_disabled":false,"rental_uris":{"android":"levelo://app?vid=39fc9955-9b73-4685-ba5b-6ad09fdfa658","ios":"levelo://app?vid=39fc9955-9b73-4685-ba5b-6ad09fdfa658"},"vehicle_type_id":"4","last_reported":1742069376,"current_range_meters":7200,"station_id":"ce4bhnh2rcd13ifvqgtg","pricing_plan_id":"cebpf4jnsgd1na2vs0mg"},{"bike_id":"0effbbb8-a931-404a-a47c-69bda0c677cc","system_id":"levelo_inurba_marseille","lat":43.2294,"lon":5.3539,"is_reserved":false,"is_disabled":false,"rental_uris":{"android":"levelo://app?vid=0effbbb8-a931-404a-a47c-69bda0c677cc","ios":"levelo://app?vid=0effbbb8-a931-404a-a47c-69bda0c677cc"},"vehicle_type_id":"4","last_reported":1742069376,"current_range_meters":7200,"station_id":"cpo3532slgdg3j2ikp40","pricing_plan_id":"cebpf4jnsgd1na2vs0mg"},{"bike_id":"2a08fd20-e848-4a1d-bcf1-daeaad3b5b51","system_id":"levelo_inurba_marseille","lat":43.28369,"lon":5.38643,"is_reserved":false,"is_disabled":false,"rental_uris":{"android":"levelo://app?vid=2a08fd20-e848-4a1d-bcf1-daeaad3b5b51","ios":"levelo://app?vid=2a08fd20-e848-4a1d-bcf1-daeaad3b5b51"},"vehicle_type_id":"4","last_reported":1742069376,"current_range_meters":7200,"station_id":"ce4bh492rcd13ifvqdvg","pricing_plan_id":"cebpf4jnsgd1na2vs0mg"},{"bike_id":"5b6d8940-ede5-40ec-97a9-745cd6b9e014","system_id":"levelo_inurba_marseille","lat":43.29605,"lon":5.38106,"is_reserved":false,"is_disabled":false,"rental_uris":{"android":"levelo://app?vid=5b6d8940-ede5-40ec-97a9-745cd6b9e014","ios":"levelo://app?vid=5b6d8940-ede5-40ec-97a9-745cd6b9e014"},"vehicle_type_id":"4","last_reported":1742069376,"current_range_meters":7200,"station_id":"ce4bgl12rcd13ifvqbo0","pricing_plan_id":"cebpf4jnsgd1na2vs0mg"},{"bike_id":"ef0420cd-62d9-46e6-bc23-a8b7c01978bb","system_id":"levelo_inurba_marseille","lat":43.2979,"lon":5.38096,"is_reserved":false,"is_disabled":true,"rental_uris":{"android":"levelo://app?vid=ef0420cd-62d9-46e6-bc23-a8b7c01978bb","ios":"levelo://app?vid=ef0420cd-62d9-46e6-bc23-a8b7c01978bb"},"vehicle_type_id":"4","last_reported":1742069376,"current_range_meters":7200,"station_id":"ce4bgip2rcd13ifvqbb0","pricing_plan_id":"cebpf4jnsgd1na2vs0mg"},{"bike_id":"7b9a04eb-a59e-4274-ba94-0d8f83e449da","system_id":"levelo_inurba_marseille","lat":43.247611,"lon":5.374448,"is_reserved":false,"is_disabled":false,"rental_uris":{"android":"levelo://app?vid=7b9a04eb-a59e-4274-ba94-0d8f83e449da","ios":"levelo://app?vid=7b9a04eb-a59e-4274-ba94-0d8f83e449da"},"vehicle_type_id":"4","last_reported":1742069376,"current_range_meters":7200,"station_id":"ce4bhg92rcd13ifvqf90","pricing_plan_id":"cebpf4jnsgd1na2vs0mg"},{"bike_id":"bde31b6e-d6e4-43cd-966e-a6b549bf9f71","system_id":"levelo_inurba_marseille","lat":43.29971,"lon":5.38488,"is_reserved":false,"is_disabled":false,"rental_uris":{"android":"levelo://app?vid=bde31b6e-d6e4-43cd-966e-a6b549bf9f71","ios":"levelo://app?vid=bde31b6e-d6e4-43cd-966e-a6b549bf9f71"},"vehicle_type_id":"4","last_reported":1742069376,"current_range_meters":8000,"station_id":"ce4bgj92rcd13ifvqbd0","pricing_plan_id":"cebpf4jnsgd1na2vs0mg"},{"bike_id":"ae101444-9461-4e76-a90e-2e5eacdcafbc","system_id":"levelo_inurba_marseille","lat":43.2799,"lon":5.38672,"is_reserved":false,"is_disabled":true,"rental_uris":{"android":"levelo://app?vid=ae101444-9461-4e76-a90e-2e5eacdcafbc","ios":"levelo://app?vid=ae101444-9461-4e76-a90e-2e5eacdcafbc"},"vehicle_type_id":"4","last_reported":1742069376,"current_range_meters":8000,"station_id":"","pricing_plan_id":"cebpf4jnsgd1na2vs0mg"},{"bike_id":"eee9e6c5-63d8-49c8-aa5c-0d859e6ce3bf","system_id":"levelo_inurba_marseille","lat":43.306274,"lon":5.382933,"is_reserved":false,"is_disabled":false,"rental_uris":{"android":"levelo://app?vid=eee9e6c5-63d8-49c8-aa5c-0d859e6ce3bf","ios":"levelo://app?vid=eee9e6c5-63d8-49c8-aa5c-0d859e6ce3bf"},"vehicle_type_id":"4","last_reported":1742069376,"current_range_meters":7200,"station_id":"ce4bgg92rcd13ifvqb30","pricing_plan_id":"cebpf4jnsgd1na2vs0mg"},{"bike_id":"e8b620da-339c-4c2c-a448-2717c84006d1","system_id":"levelo_inurba_marseille","lat":43.30927,"lon":5.40145,"is_reserved":false,"is_disabled":false,"rental_uris":{"android":"levelo://app?vid=e8b620da-339c-4c2c-a448-2717c84006d1","ios":"levelo://app?vid=e8b620da-339c-4c2c-a448-2717c84006d1"},"vehicle_type_id":"4","last_reported":1742069376,"current_range_meters":8000,"station_id":"ce4bgvp2rcd13ifvqct0","pricing_plan_id":"cebpf4jnsgd1na2vs0mg"},{"bike_id":"74d04e7e-29ca-4cf3-b82a-9775acfeb45e","system_id":"levelo_inurba_marseille","lat":43.29034,"lon":5.38622,"is_reserved":false,"is_disabled":false,"rental_uris":{"android":"levelo://app?vid=74d04e7e-29ca-4cf3-b82a-9775acfeb45e","ios":"levelo://app?vid=74d04e7e-29ca-4cf3-b82a-9775acfeb45e"},"vehicle_type_id":"4","last_reported":1742069376,"current_range_meters":8000,"station_id":"ce4bh4p2rcd13ifvqe0g","pricing_plan_id":"cebpf4jnsgd1na2vs0mg"},{"bike_id":"1396ca5c-869d-40ee-a7d8-a33d21f909b1","system_id":"levelo_inurba_marseille","lat":43.25118,"lon":5.4032,"is_reserved":false,"is_disabled":false,"rental_uris":{"android":"levelo://app?vid=1396ca5c-869d-40ee-a7d8-a33d21f909b1","ios":"levelo://app?vid=1396ca5c-869d-40ee-a7d8-a33d21f909b1"},"vehicle_type_id":"4","last_reported":1742069376,"current_range_meters":8000,"station_id":"ce4bhlh2rcd13ifvqgig","pricing_plan_id":"cebpf4jnsgd1na2vs0mg"},{"bike_id":"86f8a338-fbb0-4e3c-b6c5-e5f52fee66b9","system_id":"levelo_inurba_marseille","lat":43.2961,"lon":5.38104,"is_reserved":false,"is_disabled":false,"rental_uris":{"android":"levelo://app?vid=86f8a338-fbb0-4e3c-b6c5-e5f52fee66b9","ios":"levelo://app?vid=86f8a338-fbb0-4e3c-b6c5-e5f52fee66b9"},"vehicle_type_id":"4","last_reported":1742069376,"current_range_meters":8000,"station_id":"ce4bgl12rcd13ifvqbo0","pricing_plan_id":"cebpf4jnsgd1na2vs0mg"},{"bike_id":"a75b9f2f-f1c1-4b6d-ac8f-577368a4e69b","system_id":"levelo_inurba_marseille","lat":43.26957,"lon":5.40266,"is_reserved":false,"is_disabled":false,"rental_uris":{"android":"levelo://app?vid=a75b9f2f-f1c1-4b6d-ac8f-577368a4e69b","ios":"levelo://app?vid=a75b9f2f-f1c1-4b6d-ac8f-577368a4e69b"},"vehicle_type_id":"4","last_reported":1742069376,"current_range_meters":8400,"station_id":"cjm6bp8fraef2m0cb0m0","pricing_plan_id":"cebpf4jnsgd1na2vs0mg"},{"bike_id":"2cdf3b18-0a82-4018-b15a-9fa6067e63d4","system_id":"levelo_inurba_marseille","lat":43.28957,"lon":5.36634,"is_reserved":false,"is_disabled":false,"rental_uris":{"android":"levelo://app?vid=2cdf3b18-0a82-4018-b15a-9fa6067e63d4","ios":"levelo://app?vid=2cdf3b18-0a82-4018-b15a-9fa6067e63d4"},"vehicle_type_id":"4","last_reported":1742069376,"current_range_meters":8400,"station_id":"ce4bhap2rcd13ifvqek0","pricing_plan_id":"cebpf4jnsgd1na2vs0mg"},{"bike_id":"b79fb99a-9a33-46ce-be17-95ffa87072bc","system_id":"levelo_inurba_marseille","lat":43.28928,"lon":5.38401,"is_reserved":false,"is_disabled":false,"rental_uris":{"android":"levelo://app?vid=b79fb99a-9a33-46ce-be17-95ffa87072bc","ios":"levelo://app?vid=b79fb99a-9a33-46ce-be17-95ffa87072bc"},"vehicle_type_id":"4","last_reported":1742069376,"current_range_meters":8400,"station_id":"ce4bh612rcd13ifvqe6g","pricing_plan_id":"cebpf4jnsgd1na2vs0mg"},{"bike_id":"77ff1956-e3fe-42ae-b360-8d558895275b","system_id":"levelo_inurba_marseille","lat":43.2903,"lon":5.38647,"is_reserved":false,"is_disabled":false,"rental_uris":{"android":"levelo://app?vid=77ff1956-e3fe-42ae-b360-8d558895275b","ios":"levelo://app?vid=77ff1956-e3fe-42ae-b360-8d558895275b"},"vehicle_type_id":"4","last_reported":1742069376,"current_range_meters":8400,"station_id":"ce4bh4p2rcd13ifvqe0g","pricing_plan_id":"cebpf4jnsgd1na2vs0mg"},{"bike_id":"58597d51-988a-4b3e-81aa-b36cb11be1eb","system_id":"levelo_inurba_marseille","lat":43.28699,"lon":5.37398,"is_reserved":false,"is_disabled":false,"rental_uris":{"android":"levelo://app?vid=58597d51-988a-4b3e-81aa-b36cb11be1eb","ios":"levelo://app?vid=58597d51-988a-4b3e-81aa-b36cb11be1eb"},"vehicle_type_id":"4","last_reported":1742069376,"current_range_meters":8400,"station_id":"ce4bh3p2rcd13ifvqdq0","pricing_plan_id":"cebpf4jnsgd1na2vs0mg"},{"bike_id":"11877a08-1209-410f-8a57-ef814c57a390","system_id":"levelo_inurba_marseille","lat":43.24157,"lon":5.36402,"is_reserved":false,"is_disabled":false,"rental_uris":{"android":"levelo://app?vid=11877a08-1209-410f-8a57-ef814c57a390","ios":"levelo://app?vid=11877a08-1209-410f-8a57-ef814c57a390"},"vehicle_type_id":"4","last_reported":1742069376,"current_range_meters":8400,"station_id":"cpo36qri1sfpv3e86is0","pricing_plan_id":"cebpf4jnsgd1na2vs0mg"},{"bike_id":"99388530-3199-4a9b-85e9-15b56e29535b","system_id":"levelo_inurba_marseille","lat":43.31293,"lon":5.37323,"is_reserved":false,"is_disabled":false,"rental_uris":{"android":"levelo://app?vid=99388530-3199-4a9b-85e9-15b56e29535b","ios":"levelo://app?vid=99388530-3199-4a9b-85e9-15b56e29535b"},"vehicle_type_id":"4","last_reported":1742069376,"current_range_meters":8400,"station_id":"","pricing_plan_id":"cebpf4jnsgd1na2vs0mg"},{"bike_id":"385ae15c-2c3c-4490-a507-5eb20fb883a5","system_id":"levelo_inurba_marseille","lat":43.25933,"lon":5.40909,"is_reserved":false,"is_disabled":false,"rental_uris":{"android":"levelo://app?vid=385ae15c-2c3c-4490-a507-5eb20fb883a5","ios":"levelo://app?vid=385ae15c-2c3c-4490-a507-5eb20fb883a5"},"vehicle_type_id":"4","last_reported":1742069376,"current_range_meters":8400,"station_id":"ce4bhm92rcd13ifvqglg","pricing_plan_id":"cebpf4jnsgd1na2vs0mg"},{"bike_id":"19d40a31-db0e-48ce-a3c7-b7e217247c29","system_id":"levelo_inurba_marseille","lat":43.2926,"lon":5.3763,"is_reserved":false,"is_disabled":false,"rental_uris":{"android":"levelo://app?vid=19d40a31-db0e-48ce-a3c7-b7e217247c29","ios":"levelo://app?vid=19d40a31-db0e-48ce-a3c7-b7e217247c29"},"vehicle_type_id":"4","last_reported":1742069376,"current_range_meters":8400,"station_id":"ce4bgi12rcd13ifvqb80","pricing_plan_id":"cebpf4jnsgd1na2vs0mg"},{"bike_id":"74c8f1ef-49b4-49b3-937a-3ab552ca570e","system_id":"levelo_inurba_marseille","lat":43.27944,"lon":5.41048,"is_reserved":false,"is_disabled":false,"rental_uris":{"android":"levelo://app?vid=74c8f1ef-49b4-49b3-937a-3ab552ca570e","ios":"levelo://app?vid=74c8f1ef-49b4-49b3-937a-3ab552ca570e"},"vehicle_type_id":"4","last_reported":1742069376,"current_range_meters":8400,"station_id":"ce4bhnp2rcd13ifvqh0g","pricing_plan_id":"cebpf4jnsgd1na2vs0mg"},{"bike_id":"832d4ee6-23fb-4c75-9bc5-6a2d919c8c55","system_id":"levelo_inurba_marseille","lat":43.25914,"lon":5.40842,"is_reserved":false,"is_disabled":false,"rental_uris":{"android":"levelo://app?vid=832d4ee6-23fb-4c75-9bc5-6a2d919c8c55","ios":"levelo://app?vid=832d4ee6-23fb-4c75-9bc5-6a2d919c8c55"},"vehicle_type_id":"4","last_reported":1742069376,"current_range_meters":8400,"station_id":"ce4bhm92rcd13ifvqglg","pricing_plan_id":"cebpf4jnsgd1na2vs0mg"},{"bike_id":"7c343263-7230-4668-8572-17b3aea81ff3","system_id":"levelo_inurba_marseille","lat":43.2951,"lon":5.39045,"is_reserved":false,"is_disabled":false,"rental_uris":{"android":"levelo://app?vid=7c343263-7230-4668-8572-17b3aea81ff3","ios":"levelo://app?vid=7c343263-7230-4668-8572-17b3aea81ff3"},"vehicle_type_id":"4","last_reported":1742069376,"current_range_meters":8800,"station_id":"ce4bh3p2rcd13ifvqdp0","pricing_plan_id":"cebpf4jnsgd1na2vs0mg"},{"bike_id":"1ac0ebad-6828-4242-99b2-14a9f8209f79","system_id":"levelo_inurba_marseille","lat":43.23235,"lon":5.35578,"is_reserved":false,"is_disabled":false,"rental_uris":{"android":"levelo://app?vid=1ac0ebad-6828-4242-99b2-14a9f8209f79","ios":"levelo://app?vid=1ac0ebad-6828-4242-99b2-14a9f8209f79"},"vehicle_type_id":"4","last_reported":1742069376,"current_range_meters":8800,"station_id":"ce4bhu92rcd13ifvqi70","pricing_plan_id":"cebpf4jnsgd1na2vs0mg"},{"bike_id":"676e66c6-8e50-404c-b512-5f94c7d6a8fc","system_id":"levelo_inurba_marseille","lat":43.24174,"lon":5.36447,"is_reserved":false,"is_disabled":false,"rental_uris":{"android":"levelo://app?vid=676e66c6-8e50-404c-b512-5f94c7d6a8fc","ios":"levelo://app?vid=676e66c6-8e50-404c-b512-5f94c7d6a8fc"},"vehicle_type_id":"4","last_reported":1742069376,"current_range_meters":8800,"station_id":"cpo36qri1sfpv3e86is0","pricing_plan_id":"cebpf4jnsgd1na2vs0mg"},{"bike_id":"82c14a4c-8246-444d-8fd7-9aebbe8f5ae4","system_id":"levelo_inurba_marseille","lat":43.27622,"lon":5.36111,"is_reserved":false,"is_disabled":false,"rental_uris":{"android":"levelo://app?vid=82c14a4c-8246-444d-8fd7-9aebbe8f5ae4","ios":"levelo://app?vid=82c14a4c-8246-444d-8fd7-9aebbe8f5ae4"},"vehicle_type_id":"4","last_reported":1742069376,"current_range_meters":8800,"station_id":"ce4bgj92rcd13ifvqbe0","pricing_plan_id":"cebpf4jnsgd1na2vs0mg"},{"bike_id":"a51e83ee-53b4-4965-b5bb-694ae883e860","system_id":"levelo_inurba_marseille","lat":43.26235,"lon":5.37482,"is_reserved":false,"is_disabled":true,"rental_uris":{"android":"levelo://app?vid=a51e83ee-53b4-4965-b5bb-694ae883e860","ios":"levelo://app?vid=a51e83ee-53b4-4965-b5bb-694ae883e860"},"vehicle_type_id":"4","last_reported":1742069376,"current_range_meters":8800,"station_id":"","pricing_plan_id":"cebpf4jnsgd1na2vs0mg"},{"bike_id":"aa795381-5174-4265-abe3-ddbff84516c8","system_id":"levelo_inurba_marseille","lat":43.30143,"lon":5.37409,"is_reserved":false,"is_disabled":true,"rental_uris":{"android":"levelo://app?vid=aa795381-5174-4265-abe3-ddbff84516c8","ios":"levelo://app?vid=aa795381-5174-4265-abe3-ddbff84516c8"},"vehicle_type_id":"4","last_reported":1742069376,"current_range_meters":8800,"station_id":"ce4bgs92rcd13ifvqcc0","pricing_plan_id":"cebpf4jnsgd1na2vs0mg"},{"bike_id":"8cbf15c7-c7f2-4661-8343-593a912e8332","system_id":"levelo_inurba_marseille","lat":43.3211,"lon":5.3677,"is_reserved":false,"is_disabled":false,"rental_uris":{"android":"levelo://app?vid=8cbf15c7-c7f2-4661-8343-593a912e8332","ios":"levelo://app?vid=8cbf15c7-c7f2-4661-8343-593a912e8332"},"vehicle_type_id":"4","last_reported":1742069376,"current_range_meters":8800,"station_id":"ce4bhrh2rcd13ifvqhug","pricing_plan_id":"cebpf4jnsgd1na2vs0mg"},{"bike_id":"652dce0b-cbc5-442d-a755-f53d357d6fee","system_id":"levelo_inurba_marseille","lat":43.25582,"lon":5.38234,"is_reserved":false,"is_disabled":false,"rental_uris":{"android":"levelo://app?vid=652dce0b-cbc5-442d-a755-f53d357d6fee","ios":"levelo://app?vid=652dce0b-cbc5-442d-a755-f53d357d6fee"},"vehicle_type_id":"4","last_reported":1742069376,"current_range_meters":8800,"station_id":"ce4bhih2rcd13ifvqfs0","pricing_plan_id":"cebpf4jnsgd1na2vs0mg"},{"bike_id":"1617e1d5-ec59-46d1-832a-23fcba57c45a","system_id":"levelo_inurba_marseille","lat":43.26228,"lon":5.40452,"is_reserved":false,"is_disabled":false,"rental_uris":{"android":"levelo://app?vid=1617e1d5-ec59-46d1-832a-23fcba57c45a","ios":"levelo://app?vid=1617e1d5-ec59-46d1-832a-23fcba57c45a"},"vehicle_type_id":"4","last_reported":1742069376,"current_range_meters":8800,"station_id":"ce4bhmh2rcd13ifvqgmg","pricing_plan_id":"cebpf4jnsgd1na2vs0mg"},{"bike_id":"fce291b7-ea10-4d8e-ada9-0a02184bf6fd","system_id":"levelo_inurba_marseille","lat":43.25093,"lon":5.3953,"is_reserved":false,"is_disabled":false,"rental_uris":{"android":"levelo://app?vid=fce291b7-ea10-4d8e-ada9-0a02184bf6fd","ios":"levelo://app?vid=fce291b7-ea10-4d8e-ada9-0a02184bf6fd"},"vehicle_type_id":"4","last_reported":1742069376,"current_range_meters":8800,"station_id":"ce4bhm12rcd13ifvqgkg","pricing_plan_id":"cebpf4jnsgd1na2vs0mg"},{"bike_id":"50c97caa-ca8a-4b03-99d5-4678c955e14d","system_id":"levelo_inurba_marseille","lat":43.24815,"lon":5.3747,"is_reserved":false,"is_disabled":false,"rental_uris":{"android":"levelo://app?vid=50c97caa-ca8a-4b03-99d5-4678c955e14d","ios":"levelo://app?vid=50c97caa-ca8a-4b03-99d5-4678c955e14d"},"vehicle_type_id":"4","last_reported":1742069376,"current_range_meters":8800,"station_id":"ce4bhgh2rcd13ifvqfb0","pricing_plan_id":"cebpf4jnsgd1na2vs0mg"},{"bike_id":"2ada218c-4e3e-433b-a33e-91e0fed6090b","system_id":"levelo_inurba_marseille","lat":43.29455,"lon":5.39772,"is_reserved":false,"is_disabled":true,"rental_uris":{"android":"levelo://app?vid=2ada218c-4e3e-433b-a33e-91e0fed6090b","ios":"levelo://app?vid=2ada218c-4e3e-433b-a33e-91e0fed6090b"},"vehicle_type_id":"4","last_reported":1742069376,"current_range_meters":8800,"station_id":"ce4bh3h2rcd13ifvqdo0","pricing_plan_id":"cebpf4jnsgd1na2vs0mg"},{"bike_id":"1999cecf-f38c-4961-9580-ef6a50d3e0be","system_id":"levelo_inurba_marseille","lat":43.24165,"lon":5.36416,"is_reserved":false,"is_disabled":false,"rental_uris":{"android":"levelo://app?vid=1999cecf-f38c-4961-9580-ef6a50d3e0be","ios":"levelo://app?vid=1999cecf-f38c-4961-9580-ef6a50d3e0be"},"vehicle_type_id":"4","last_reported":1742069376,"current_range_meters":8800,"station_id":"cpo36qri1sfpv3e86is0","pricing_plan_id":"cebpf4jnsgd1na2vs0mg"},{"bike_id":"9c5ae768-cbb7-4ea2-a3cf-2363815d5dd2","system_id":"levelo_inurba_marseille","lat":43.2909,"lon":5.38146,"is_reserved":false,"is_disabled":false,"rental_uris":{"android":"levelo://app?vid=9c5ae768-cbb7-4ea2-a3cf-2363815d5dd2","ios":"levelo://app?vid=9c5ae768-cbb7-4ea2-a3cf-2363815d5dd2"},"vehicle_type_id":"4","last_reported":1742069376,"current_range_meters":8800,"station_id":"ce4bh512rcd13ifvqe2g","pricing_plan_id":"cebpf4jnsgd1na2vs0mg"},{"bike_id":"e0834956-e6d7-4bc3-862d-e76e3f887cbb","system_id":"levelo_inurba_marseille","lat":43.23079,"lon":5.35509,"is_reserved":false,"is_disabled":false,"rental_uris":{"android":"levelo://app?vid=e0834956-e6d7-4bc3-862d-e76e3f887cbb","ios":"levelo://app?vid=e0834956-e6d7-4bc3-862d-e76e3f887cbb"},"vehicle_type_id":"4","last_reported":1742069376,"current_range_meters":8800,"station_id":"cpo3342slgdg3j2ifvpg","pricing_plan_id":"cebpf4jnsgd1na2vs0mg"},{"bike_id":"92bd2e8f-197b-47ad-8530-ee4394b2ecce","system_id":"levelo_inurba_marseille","lat":43.24187,"lon":5.36426,"is_reserved":false,"is_disabled":false,"rental_uris":{"android":"levelo://app?vid=92bd2e8f-197b-47ad-8530-ee4394b2ecce","ios":"levelo://app?vid=92bd2e8f-197b-47ad-8530-ee4394b2ecce"},"vehicle_type_id":"4","last_reported":1742069376,"current_range_meters":8800,"station_id":"cpo36qri1sfpv3e86is0","pricing_plan_id":"cebpf4jnsgd1na2vs0mg"},{"bike_id":"4a1bbf96-65e1-4a39-ace7-b5a98c8befe0","system_id":"levelo_inurba_marseille","lat":43.29971,"lon":5.3848,"is_reserved":false,"is_disabled":false,"rental_uris":{"android":"levelo://app?vid=4a1bbf96-65e1-4a39-ace7-b5a98c8befe0","ios":"levelo://app?vid=4a1bbf96-65e1-4a39-ace7-b5a98c8befe0"},"vehicle_type_id":"4","last_reported":1742069376,"current_range_meters":8800,"station_id":"ce4bgj92rcd13ifvqbd0","pricing_plan_id":"cebpf4jnsgd1na2vs0mg"},{"bike_id":"34b41436-20a2-4524-9e2f-27bd05d93b21","system_id":"levelo_inurba_marseille","lat":43.31685,"lon":5.40469,"is_reserved":false,"is_disabled":false,"rental_uris":{"android":"levelo://app?vid=34b41436-20a2-4524-9e2f-27bd05d93b21","ios":"levelo://app?vid=34b41436-20a2-4524-9e2f-27bd05d93b21"},"vehicle_type_id":"4","last_reported":1742069376,"current_range_meters":8800,"station_id":"ce4bh012rcd13ifvqd00","pricing_plan_id":"cebpf4jnsgd1na2vs0mg"},{"bike_id":"6f143c5b-933e-4a51-97d8-72a3705988b8","system_id":"levelo_inurba_marseille","lat":43.32202,"lon":5.37881,"is_reserved":false,"is_disabled":false,"rental_uris":{"android":"levelo://app?vid=6f143c5b-933e-4a51-97d8-72a3705988b8","ios":"levelo://app?vid=6f143c5b-933e-4a51-97d8-72a3705988b8"},"vehicle_type_id":"4","last_reported":1742069376,"current_range_meters":8800,"station_id":"","pricing_plan_id":"cebpf4jnsgd1na2vs0mg"},{"bike_id":"85d10f39-4b49-477c-b6e3-e96eb6cda2fc","system_id":"levelo_inurba_marseille","lat":43.27619,"lon":5.36104,"is_reserved":false,"is_disabled":false,"rental_uris":{"android":"levelo://app?vid=85d10f39-4b49-477c-b6e3-e96eb6cda2fc","ios":"levelo://app?vid=85d10f39-4b49-477c-b6e3-e96eb6cda2fc"},"vehicle_type_id":"4","last_reported":1742069376,"current_range_meters":9200,"station_id":"ce4bgj92rcd13ifvqbe0","pricing_plan_id":"cebpf4jnsgd1na2vs0mg"},{"bike_id":"b614f100-11d7-4ef9-8f84-7c5dea0b786b","system_id":"levelo_inurba_marseille","lat":43.26964,"lon":5.40311,"is_reserved":false,"is_disabled":false,"rental_uris":{"android":"levelo://app?vid=b614f100-11d7-4ef9-8f84-7c5dea0b786b","ios":"levelo://app?vid=b614f100-11d7-4ef9-8f84-7c5dea0b786b"},"vehicle_type_id":"4","last_reported":1742069376,"current_range_meters":9200,"station_id":"cjm6bp8fraef2m0cb0m0","pricing_plan_id":"cebpf4jnsgd1na2vs0mg"},{"bike_id":"3034db0c-7cfa-4361-a8e5-85d8b0635402","system_id":"levelo_inurba_marseille","lat":43.23961,"lon":5.36649,"is_reserved":false,"is_disabled":false,"rental_uris":{"android":"levelo://app?vid=3034db0c-7cfa-4361-a8e5-85d8b0635402","ios":"levelo://app?vid=3034db0c-7cfa-4361-a8e5-85d8b0635402"},"vehicle_type_id":"4","last_reported":1742069376,"current_range_meters":9200,"station_id":"ce4bhi12rcd13ifvqfp0","pricing_plan_id":"cebpf4jnsgd1na2vs0mg"},{"bike_id":"75beec41-4a88-4024-bcbf-fdcd1b863557","system_id":"levelo_inurba_marseille","lat":43.29598,"lon":5.38107,"is_reserved":false,"is_disabled":false,"rental_uris":{"android":"levelo://app?vid=75beec41-4a88-4024-bcbf-fdcd1b863557","ios":"levelo://app?vid=75beec41-4a88-4024-bcbf-fdcd1b863557"},"vehicle_type_id":"4","last_reported":1742069376,"current_range_meters":9200,"station_id":"ce4bgl12rcd13ifvqbo0","pricing_plan_id":"cebpf4jnsgd1na2vs0mg"},{"bike_id":"5b11d238-4115-4238-b343-5a01412da5fe","system_id":"levelo_inurba_marseille","lat":43.29372,"lon":5.37838,"is_reserved":false,"is_disabled":false,"rental_uris":{"android":"levelo://app?vid=5b11d238-4115-4238-b343-5a01412da5fe","ios":"levelo://app?vid=5b11d238-4115-4238-b343-5a01412da5fe"},"vehicle_type_id":"4","last_reported":1742069376,"current_range_meters":9200,"station_id":"ce4bgjh2rcd13ifvqbf0","pricing_plan_id":"cebpf4jnsgd1na2vs0mg"},{"bike_id":"a4c1e1b0-9ebd-4927-86d9-53a0fce4e886","system_id":"levelo_inurba_marseille","lat":43.29607,"lon":5.38109,"is_reserved":false,"is_disabled":false,"rental_uris":{"android":"levelo://app?vid=a4c1e1b0-9ebd-4927-86d9-53a0fce4e886","ios":"levelo://app?vid=a4c1e1b0-9ebd-4927-86d9-53a0fce4e886"},"vehicle_type_id":"4","last_reported":1742069376,"current_range_meters":9200,"station_id":"ce4bgl12rcd13ifvqbo0","pricing_plan_id":"cebpf4jnsgd1na2vs0mg"},{"bike_id":"efb53dda-871b-483c-8dec-e716116f9234","system_id":"levelo_inurba_marseille","lat":43.31153,"lon":5.36802,"is_reserved":false,"is_disabled":false,"rental_uris":{"android":"levelo://app?vid=efb53dda-871b-483c-8dec-e716116f9234","ios":"levelo://app?vid=efb53dda-871b-483c-8dec-e716116f9234"},"vehicle_type_id":"4","last_reported":1742069376,"current_range_meters":9200,"station_id":"","pricing_plan_id":"cebpf4jnsgd1na2vs0mg"},{"bike_id":"f6b3a511-92bb-49b4-ad08-ada46b8c21af","system_id":"levelo_inurba_marseille","lat":43.2934,"lon":5.37215,"is_reserved":false,"is_disabled":false,"rental_uris":{"android":"levelo://app?vid=f6b3a511-92bb-49b4-ad08-ada46b8c21af","ios":"levelo://app?vid=f6b3a511-92bb-49b4-ad08-ada46b8c21af"},"vehicle_type_id":"4","last_reported":1742069376,"current_range_meters":9200,"station_id":"ce4bgh92rcd13ifvqb40","pricing_plan_id":"cebpf4jnsgd1na2vs0mg"},{"bike_id":"430bf857-94e6-41fe-9c0f-6b6c716199c5","system_id":"levelo_inurba_marseille","lat":43.30786,"lon":5.37655,"is_reserved":false,"is_disabled":false,"rental_uris":{"android":"levelo://app?vid=430bf857-94e6-41fe-9c0f-6b6c716199c5","ios":"levelo://app?vid=430bf857-94e6-41fe-9c0f-6b6c716199c5"},"vehicle_type_id":"4","last_reported":1742069376,"current_range_meters":9600,"station_id":"ce4bgv92rcd13ifvqcq0","pricing_plan_id":"cebpf4jnsgd1na2vs0mg"},{"bike_id":"0b7bfdb8-fd03-4687-9225-8085184f929c","system_id":"levelo_inurba_marseille","lat":43.32364,"lon":5.36783,"is_reserved":false,"is_disabled":false,"rental_uris":{"android":"levelo://app?vid=0b7bfdb8-fd03-4687-9225-8085184f929c","ios":"levelo://app?vid=0b7bfdb8-fd03-4687-9225-8085184f929c"},"vehicle_type_id":"4","last_reported":1742069376,"current_range_meters":9600,"station_id":"ce4bhsh2rcd13ifvqi2g","pricing_plan_id":"cebpf4jnsgd1na2vs0mg"},{"bike_id":"63cfaea5-f172-409c-93d3-875ff9136d61","system_id":"levelo_inurba_marseille","lat":43.24657,"lon":5.38167,"is_reserved":false,"is_disabled":false,"rental_uris":{"android":"levelo://app?vid=63cfaea5-f172-409c-93d3-875ff9136d61","ios":"levelo://app?vid=63cfaea5-f172-409c-93d3-875ff9136d61"},"vehicle_type_id":"4","last_reported":1742069376,"current_range_meters":9600,"station_id":"ce4bhih2rcd13ifvqfr0","pricing_plan_id":"cebpf4jnsgd1na2vs0mg"},{"bike_id":"f086f384-feec-4968-a0b6-7828464e346f","system_id":"levelo_inurba_marseille","lat":43.284149,"lon":5.375148,"is_reserved":false,"is_disabled":false,"rental_uris":{"android":"levelo://app?vid=f086f384-feec-4968-a0b6-7828464e346f","ios":"levelo://app?vid=f086f384-feec-4968-a0b6-7828464e346f"},"vehicle_type_id":"4","last_reported":1742069376,"current_range_meters":9600,"station_id":"ce4bh412rcd13ifvqds0","pricing_plan_id":"cebpf4jnsgd1na2vs0mg"},{"bike_id":"e52b41b5-52df-4c67-a85c-3cebb3bf7504","system_id":"levelo_inurba_marseille","lat":43.32382,"lon":5.36772,"is_reserved":false,"is_disabled":false,"rental_uris":{"android":"levelo://app?vid=e52b41b5-52df-4c67-a85c-3cebb3bf7504","ios":"levelo://app?vid=e52b41b5-52df-4c67-a85c-3cebb3bf7504"},"vehicle_type_id":"4","last_reported":1742069376,"current_range_meters":9600,"station_id":"ce4bhsh2rcd13ifvqi2g","pricing_plan_id":"cebpf4jnsgd1na2vs0mg"},{"bike_id":"91cb9d70-b79b-4df4-8b4b-1738ec0fd951","system_id":"levelo_inurba_marseille","lat":43.29043,"lon":5.38656,"is_reserved":false,"is_disabled":false,"rental_uris":{"android":"levelo://app?vid=91cb9d70-b79b-4df4-8b4b-1738ec0fd951","ios":"levelo://app?vid=91cb9d70-b79b-4df4-8b4b-1738ec0fd951"},"vehicle_type_id":"4","last_reported":1742069376,"current_range_meters":9600,"station_id":"ce4bh4p2rcd13ifvqe0g","pricing_plan_id":"cebpf4jnsgd1na2vs0mg"},{"bike_id":"9625f194-a853-4767-bda8-0eedb08b2cb3","system_id":"levelo_inurba_marseille","lat":43.28739,"lon":5.39979,"is_reserved":false,"is_disabled":true,"rental_uris":{"android":"levelo://app?vid=9625f194-a853-4767-bda8-0eedb08b2cb3","ios":"levelo://app?vid=9625f194-a853-4767-bda8-0eedb08b2cb3"},"vehicle_type_id":"4","last_reported":1742069376,"current_range_meters":9600,"station_id":"ce4bho92rcd13ifvqh3g","pricing_plan_id":"cebpf4jnsgd1na2vs0mg"},{"bike_id":"2888920d-5337-4dad-b80c-b748fa94c0d3","system_id":"levelo_inurba_marseille","lat":43.24645,"lon":5.38904,"is_reserved":false,"is_disabled":false,"rental_uris":{"android":"levelo://app?vid=2888920d-5337-4dad-b80c-b748fa94c0d3","ios":"levelo://app?vid=2888920d-5337-4dad-b80c-b748fa94c0d3"},"vehicle_type_id":"4","last_reported":1742069376,"current_range_meters":9600,"station_id":"ce4bhg12rcd13ifvqf60","pricing_plan_id":"cebpf4jnsgd1na2vs0mg"},{"bike_id":"122d3c0b-8ce7-4d45-b19c-631c20d2088e","system_id":"levelo_inurba_marseille","lat":43.2905,"lon":5.38638,"is_reserved":false,"is_disabled":false,"rental_uris":{"android":"levelo://app?vid=122d3c0b-8ce7-4d45-b19c-631c20d2088e","ios":"levelo://app?vid=122d3c0b-8ce7-4d45-b19c-631c20d2088e"},"vehicle_type_id":"4","last_reported":1742069376,"current_range_meters":9600,"station_id":"ce4bh4p2rcd13ifvqe0g","pricing_plan_id":"cebpf4jnsgd1na2vs0mg"},{"bike_id":"c491e804-fc87-4c1d-bae5-12449e8e3260","system_id":"levelo_inurba_marseille","lat":43.29983,"lon":5.38497,"is_reserved":false,"is_disabled":false,"rental_uris":{"android":"levelo://app?vid=c491e804-fc87-4c1d-bae5-12449e8e3260","ios":"levelo://app?vid=c491e804-fc87-4c1d-bae5-12449e8e3260"},"vehicle_type_id":"4","last_reported":1742069376,"current_range_meters":9600,"station_id":"ce4bgj92rcd13ifvqbd0","pricing_plan_id":"cebpf4jnsgd1na2vs0mg"},{"bike_id":"2e57b3a3-b0f7-46e9-8467-c545170db7fe","system_id":"levelo_inurba_marseille","lat":43.29501,"lon":5.39039,"is_reserved":false,"is_disabled":false,"rental_uris":{"android":"levelo://app?vid=2e57b3a3-b0f7-46e9-8467-c545170db7fe","ios":"levelo://app?vid=2e57b3a3-b0f7-46e9-8467-c545170db7fe"},"vehicle_type_id":"4","last_reported":1742069376,"current_range_meters":10000,"station_id":"ce4bh3p2rcd13ifvqdp0","pricing_plan_id":"cebpf4jnsgd1na2vs0mg"},{"bike_id":"393d5e0c-b0b1-4362-abc5-3dff5cc16a82","system_id":"levelo_inurba_marseille","lat":43.29216,"lon":5.39332,"is_reserved":false,"is_disabled":false,"rental_uris":{"android":"levelo://app?vid=393d5e0c-b0b1-4362-abc5-3dff5cc16a82","ios":"levelo://app?vid=393d5e0c-b0b1-4362-abc5-3dff5cc16a82"},"vehicle_type_id":"4","last_reported":1742069376,"current_range_meters":10000,"station_id":"ce4bh192rcd13ifvqdd0","pricing_plan_id":"cebpf4jnsgd1na2vs0mg"},{"bike_id":"328af8a3-4fb0-4e47-944b-bf366e3aa7cc","system_id":"levelo_inurba_marseille","lat":43.29303,"lon":5.37446,"is_reserved":false,"is_disabled":false,"rental_uris":{"android":"levelo://app?vid=328af8a3-4fb0-4e47-944b-bf366e3aa7cc","ios":"levelo://app?vid=328af8a3-4fb0-4e47-944b-bf366e3aa7cc"},"vehicle_type_id":"4","last_reported":1742069376,"current_range_meters":10000,"station_id":"ce4bgi12rcd13ifvqb70","pricing_plan_id":"cebpf4jnsgd1na2vs0mg"},{"bike_id":"3e397e17-6d64-4ec3-9972-a2d52bd4f897","system_id":"levelo_inurba_marseille","lat":43.28941,"lon":5.36635,"is_reserved":false,"is_disabled":false,"rental_uris":{"android":"levelo://app?vid=3e397e17-6d64-4ec3-9972-a2d52bd4f897","ios":"levelo://app?vid=3e397e17-6d64-4ec3-9972-a2d52bd4f897"},"vehicle_type_id":"4","last_reported":1742069376,"current_range_meters":10000,"station_id":"ce4bhap2rcd13ifvqek0","pricing_plan_id":"cebpf4jnsgd1na2vs0mg"},{"bike_id":"71d6b220-48b3-44b0-9feb-d7bbfca6b232","system_id":"levelo_inurba_marseille","lat":43.25502,"lon":5.37679,"is_reserved":false,"is_disabled":true,"rental_uris":{"android":"levelo://app?vid=71d6b220-48b3-44b0-9feb-d7bbfca6b232","ios":"levelo://app?vid=71d6b220-48b3-44b0-9feb-d7bbfca6b232"},"vehicle_type_id":"4","last_reported":1742069376,"current_range_meters":10000,"station_id":"ce4bhh12rcd13ifvqff0","pricing_plan_id":"cebpf4jnsgd1na2vs0mg"},{"bike_id":"ac28eb0b-f9e3-454d-8eb6-b1f5cccb5d84","system_id":"levelo_inurba_marseille","lat":43.29986,"lon":5.38521,"is_reserved":false,"is_disabled":false,"rental_uris":{"android":"levelo://app?vid=ac28eb0b-f9e3-454d-8eb6-b1f5cccb5d84","ios":"levelo://app?vid=ac28eb0b-f9e3-454d-8eb6-b1f5cccb5d84"},"vehicle_type_id":"4","last_reported":1742069376,"current_range_meters":10000,"station_id":"ce4bgj92rcd13ifvqbd0","pricing_plan_id":"cebpf4jnsgd1na2vs0mg"},{"bike_id":"074a0552-5108-4fea-85de-6c701636960b","system_id":"levelo_inurba_marseille","lat":43.30892,"lon":5.39658,"is_reserved":false,"is_disabled":false,"rental_uris":{"android":"levelo://app?vid=074a0552-5108-4fea-85de-6c701636960b","ios":"levelo://app?vid=074a0552-5108-4fea-85de-6c701636960b"},"vehicle_type_id":"4","last_reported":1742069376,"current_range_meters":9600,"station_id":"ce4bh012rcd13ifvqcv0","pricing_plan_id":"cebpf4jnsgd1na2vs0mg"},{"bike_id":"a7c61189-d39b-4cf7-a782-bd9ecbf9bfa4","system_id":"levelo_inurba_marseille","lat":43.29517,"lon":5.39064,"is_reserved":false,"is_disabled":false,"rental_uris":{"android":"levelo://app?vid=a7c61189-d39b-4cf7-a782-bd9ecbf9bfa4","ios":"levelo://app?vid=a7c61189-d39b-4cf7-a782-bd9ecbf9bfa4"},"vehicle_type_id":"4","last_reported":1742069376,"current_range_meters":10000,"station_id":"ce4bh3p2rcd13ifvqdp0","pricing_plan_id":"cebpf4jnsgd1na2vs0mg"},{"bike_id":"2bc050d9-2120-4b33-8309-3a17da1a8770","system_id":"levelo_inurba_marseille","lat":43.2893,"lon":5.38404,"is_reserved":false,"is_disabled":false,"rental_uris":{"android":"levelo://app?vid=2bc050d9-2120-4b33-8309-3a17da1a8770","ios":"levelo://app?vid=2bc050d9-2120-4b33-8309-3a17da1a8770"},"vehicle_type_id":"4","last_reported":1742069376,"current_range_meters":10800,"station_id":"ce4bh612rcd13ifvqe6g","pricing_plan_id":"cebpf4jnsgd1na2vs0mg"},{"bike_id":"5f7f03a2-add7-44f0-9ebb-8428c5f0e58a","system_id":"levelo_inurba_marseille","lat":43.25812,"lon":5.40723,"is_reserved":false,"is_disabled":false,"rental_uris":{"android":"levelo://app?vid=5f7f03a2-add7-44f0-9ebb-8428c5f0e58a","ios":"levelo://app?vid=5f7f03a2-add7-44f0-9ebb-8428c5f0e58a"},"vehicle_type_id":"4","last_reported":1742069376,"current_range_meters":10800,"station_id":"","pricing_plan_id":"cebpf4jnsgd1na2vs0mg"},{"bike_id":"b017039e-a41c-4a9c-8009-3c57bed44ca2","system_id":"levelo_inurba_marseille","lat":43.29026,"lon":5.38646,"is_reserved":false,"is_disabled":false,"rental_uris":{"android":"levelo://app?vid=b017039e-a41c-4a9c-8009-3c57bed44ca2","ios":"levelo://app?vid=b017039e-a41c-4a9c-8009-3c57bed44ca2"},"vehicle_type_id":"4","last_reported":1742069376,"current_range_meters":10800,"station_id":"ce4bh4p2rcd13ifvqe0g","pricing_plan_id":"cebpf4jnsgd1na2vs0mg"},{"bike_id":"3f51f1f5-7a39-4364-adc9-c4c0ef6e90b0","system_id":"levelo_inurba_marseille","lat":43.28613,"lon":5.35106,"is_reserved":false,"is_disabled":false,"rental_uris":{"android":"levelo://app?vid=3f51f1f5-7a39-4364-adc9-c4c0ef6e90b0","ios":"levelo://app?vid=3f51f1f5-7a39-4364-adc9-c4c0ef6e90b0"},"vehicle_type_id":"4","last_reported":1742069376,"current_range_meters":10800,"station_id":"ce4bhch2rcd13ifvqeug","pricing_plan_id":"cebpf4jnsgd1na2vs0mg"},{"bike_id":"c589cfd5-1049-4ddc-8198-c7ffde6cc729","system_id":"levelo_inurba_marseille","lat":43.2962,"lon":5.37157,"is_reserved":false,"is_disabled":false,"rental_uris":{"android":"levelo://app?vid=c589cfd5-1049-4ddc-8198-c7ffde6cc729","ios":"levelo://app?vid=c589cfd5-1049-4ddc-8198-c7ffde6cc729"},"vehicle_type_id":"4","last_reported":1742069376,"current_range_meters":10800,"station_id":"ce4bgnh2rcd13ifvqc0g","pricing_plan_id":"cebpf4jnsgd1na2vs0mg"},{"bike_id":"2127c283-3bf3-4081-9791-ba201cf5a542","system_id":"levelo_inurba_marseille","lat":43.3014,"lon":5.37426,"is_reserved":false,"is_disabled":false,"rental_uris":{"android":"levelo://app?vid=2127c283-3bf3-4081-9791-ba201cf5a542","ios":"levelo://app?vid=2127c283-3bf3-4081-9791-ba201cf5a542"},"vehicle_type_id":"4","last_reported":1742069376,"current_range_meters":10000,"station_id":"ce4bgs92rcd13ifvqcc0","pricing_plan_id":"cebpf4jnsgd1na2vs0mg"},{"bike_id":"a159b65b-688c-4675-afbe-cdb2041dfb71","system_id":"levelo_inurba_marseille","lat":43.29942,"lon":5.36554,"is_reserved":false,"is_disabled":false,"rental_uris":{"android":"levelo://app?vid=a159b65b-688c-4675-afbe-cdb2041dfb71","ios":"levelo://app?vid=a159b65b-688c-4675-afbe-cdb2041dfb71"},"vehicle_type_id":"4","last_reported":1742069376,"current_range_meters":10800,"station_id":"ce4bgm92rcd13ifvqbr0","pricing_plan_id":"cebpf4jnsgd1na2vs0mg"},{"bike_id":"1ce69257-9fdb-4677-84b5-31d22ae86b4f","system_id":"levelo_inurba_marseille","lat":43.29304,"lon":5.37468,"is_reserved":false,"is_disabled":false,"rental_uris":{"android":"levelo://app?vid=1ce69257-9fdb-4677-84b5-31d22ae86b4f","ios":"levelo://app?vid=1ce69257-9fdb-4677-84b5-31d22ae86b4f"},"vehicle_type_id":"4","last_reported":1742069376,"current_range_meters":10800,"station_id":"ce4bgi12rcd13ifvqb70","pricing_plan_id":"cebpf4jnsgd1na2vs0mg"},{"bike_id":"743c9fbf-42df-4986-bc8c-9b4a2bc386be","system_id":"levelo_inurba_marseille","lat":43.24074,"lon":5.37766,"is_reserved":false,"is_disabled":false,"rental_uris":{"android":"levelo://app?vid=743c9fbf-42df-4986-bc8c-9b4a2bc386be","ios":"levelo://app?vid=743c9fbf-42df-4986-bc8c-9b4a2bc386be"},"vehicle_type_id":"4","last_reported":1742069376,"current_range_meters":10800,"station_id":"ce4bhnp2rcd13ifvqgvg","pricing_plan_id":"cebpf4jnsgd1na2vs0mg"},{"bike_id":"8051c7a9-0a60-414c-b7fa-755e910cd3b8","system_id":"levelo_inurba_marseille","lat":43.29183,"lon":5.38449,"is_reserved":false,"is_disabled":false,"rental_uris":{"android":"levelo://app?vid=8051c7a9-0a60-414c-b7fa-755e910cd3b8","ios":"levelo://app?vid=8051c7a9-0a60-414c-b7fa-755e910cd3b8"},"vehicle_type_id":"4","last_reported":1742069376,"current_range_meters":10800,"station_id":"","pricing_plan_id":"cebpf4jnsgd1na2vs0mg"},{"bike_id":"3a766561-d5df-4bb1-accb-85c347f27a70","system_id":"levelo_inurba_marseille","lat":43.33736,"lon":5.39185,"is_reserved":false,"is_disabled":false,"rental_uris":{"android":"levelo://app?vid=3a766561-d5df-4bb1-accb-85c347f27a70","ios":"levelo://app?vid=3a766561-d5df-4bb1-accb-85c347f27a70"},"vehicle_type_id":"4","last_reported":1742069376,"current_range_meters":10800,"station_id":"ce4bhr92rcd13ifvqhsg","pricing_plan_id":"cebpf4jnsgd1na2vs0mg"},{"bike_id":"8473bf4e-bce4-4915-beac-ba58d56310a4","system_id":"levelo_inurba_marseille","lat":43.29607,"lon":5.38092,"is_reserved":false,"is_disabled":false,"rental_uris":{"android":"levelo://app?vid=8473bf4e-bce4-4915-beac-ba58d56310a4","ios":"levelo://app?vid=8473bf4e-bce4-4915-beac-ba58d56310a4"},"vehicle_type_id":"4","last_reported":1742069376,"current_range_meters":10800,"station_id":"ce4bgl12rcd13ifvqbo0","pricing_plan_id":"cebpf4jnsgd1na2vs0mg"},{"bike_id":"8b318299-e693-4d36-91e2-a846a64317c2","system_id":"levelo_inurba_marseille","lat":43.29261,"lon":5.4092,"is_reserved":false,"is_disabled":false,"rental_uris":{"android":"levelo://app?vid=8b318299-e693-4d36-91e2-a846a64317c2","ios":"levelo://app?vid=8b318299-e693-4d36-91e2-a846a64317c2"},"vehicle_type_id":"4","last_reported":1742069376,"current_range_meters":10800,"station_id":"ce4bh192rcd13ifvqdc0","pricing_plan_id":"cebpf4jnsgd1na2vs0mg"},{"bike_id":"96d453a3-aff9-4fc3-b8dd-218908957286","system_id":"levelo_inurba_marseille","lat":43.29096,"lon":5.38154,"is_reserved":false,"is_disabled":false,"rental_uris":{"android":"levelo://app?vid=96d453a3-aff9-4fc3-b8dd-218908957286","ios":"levelo://app?vid=96d453a3-aff9-4fc3-b8dd-218908957286"},"vehicle_type_id":"4","last_reported":1742069376,"current_range_meters":10800,"station_id":"ce4bh512rcd13ifvqe2g","pricing_plan_id":"cebpf4jnsgd1na2vs0mg"},{"bike_id":"0d8be06c-e0c1-437e-a2c4-31102fec5024","system_id":"levelo_inurba_marseille","lat":43.27812,"lon":5.40713,"is_reserved":false,"is_disabled":false,"rental_uris":{"android":"levelo://app?vid=0d8be06c-e0c1-437e-a2c4-31102fec5024","ios":"levelo://app?vid=0d8be06c-e0c1-437e-a2c4-31102fec5024"},"vehicle_type_id":"4","last_reported":1742069376,"current_range_meters":10800,"station_id":"ce4bhnh2rcd13ifvqgtg","pricing_plan_id":"cebpf4jnsgd1na2vs0mg"},{"bike_id":"051f8d0f-3233-4330-b3cc-3f3cb6e82ba6","system_id":"levelo_inurba_marseille","lat":43.28622,"lon":5.35105,"is_reserved":false,"is_disabled":false,"rental_uris":{"android":"levelo://app?vid=051f8d0f-3233-4330-b3cc-3f3cb6e82ba6","ios":"levelo://app?vid=051f8d0f-3233-4330-b3cc-3f3cb6e82ba6"},"vehicle_type_id":"4","last_reported":1742069376,"current_range_meters":10800,"station_id":"ce4bhch2rcd13ifvqeug","pricing_plan_id":"cebpf4jnsgd1na2vs0mg"},{"bike_id":"31710fca-ccfa-43a5-ac6f-5ec923018ebf","system_id":"levelo_inurba_marseille","lat":43.27404,"lon":5.42064,"is_reserved":false,"is_disabled":false,"rental_uris":{"android":"levelo://app?vid=31710fca-ccfa-43a5-ac6f-5ec923018ebf","ios":"levelo://app?vid=31710fca-ccfa-43a5-ac6f-5ec923018ebf"},"vehicle_type_id":"4","last_reported":1742069376,"current_range_meters":10800,"station_id":"","pricing_plan_id":"cebpf4jnsgd1na2vs0mg"},{"bike_id":"33bebc78-59e6-4ca2-a2ef-6c7554b85cf4","system_id":"levelo_inurba_marseille","lat":43.29384,"lon":5.37873,"is_reserved":false,"is_disabled":false,"rental_uris":{"android":"levelo://app?vid=33bebc78-59e6-4ca2-a2ef-6c7554b85cf4","ios":"levelo://app?vid=33bebc78-59e6-4ca2-a2ef-6c7554b85cf4"},"vehicle_type_id":"4","last_reported":1742069376,"current_range_meters":11200,"station_id":"ce4bgjh2rcd13ifvqbf0","pricing_plan_id":"cebpf4jnsgd1na2vs0mg"},{"bike_id":"d42219f3-8e55-4fc6-a0b8-66df6e2e70b1","system_id":"levelo_inurba_marseille","lat":43.23956,"lon":5.36631,"is_reserved":false,"is_disabled":false,"rental_uris":{"android":"levelo://app?vid=d42219f3-8e55-4fc6-a0b8-66df6e2e70b1","ios":"levelo://app?vid=d42219f3-8e55-4fc6-a0b8-66df6e2e70b1"},"vehicle_type_id":"4","last_reported":1742069376,"current_range_meters":11200,"station_id":"ce4bhi12rcd13ifvqfp0","pricing_plan_id":"cebpf4jnsgd1na2vs0mg"},{"bike_id":"6582e7c2-5aa5-4e6a-abc5-fa241e74aeb6","system_id":"levelo_inurba_marseille","lat":43.29899,"lon":5.43663,"is_reserved":false,"is_disabled":false,"rental_uris":{"android":"levelo://app?vid=6582e7c2-5aa5-4e6a-abc5-fa241e74aeb6","ios":"levelo://app?vid=6582e7c2-5aa5-4e6a-abc5-fa241e74aeb6"},"vehicle_type_id":"4","last_reported":1742069376,"current_range_meters":11200,"station_id":"ce4bhpp2rcd13ifvqhfg","pricing_plan_id":"cebpf4jnsgd1na2vs0mg"},{"bike_id":"b5313bd0-43dd-4d0d-8d27-81c44b44dac4","system_id":"levelo_inurba_marseille","lat":43.3027,"lon":5.40079,"is_reserved":false,"is_disabled":false,"rental_uris":{"android":"levelo://app?vid=b5313bd0-43dd-4d0d-8d27-81c44b44dac4","ios":"levelo://app?vid=b5313bd0-43dd-4d0d-8d27-81c44b44dac4"},"vehicle_type_id":"4","last_reported":1742069376,"current_range_meters":11200,"station_id":"ce4bgvh2rcd13ifvqcs0","pricing_plan_id":"cebpf4jnsgd1na2vs0mg"},{"bike_id":"20fb1480-f038-46d0-a972-0f8a739c0e49","system_id":"levelo_inurba_marseille","lat":43.29919,"lon":5.38169,"is_reserved":false,"is_disabled":false,"rental_uris":{"android":"levelo://app?vid=20fb1480-f038-46d0-a972-0f8a739c0e49","ios":"levelo://app?vid=20fb1480-f038-46d0-a972-0f8a739c0e49"},"vehicle_type_id":"4","last_reported":1742069376,"current_range_meters":11200,"station_id":"ce4bgj12rcd13ifvqbc0","pricing_plan_id":"cebpf4jnsgd1na2vs0mg"},{"bike_id":"5ad832b9-7feb-4983-82bd-dc05ba84c635","system_id":"levelo_inurba_marseille","lat":43.31125,"lon":5.37783,"is_reserved":false,"is_disabled":false,"rental_uris":{"android":"levelo://app?vid=5ad832b9-7feb-4983-82bd-dc05ba84c635","ios":"levelo://app?vid=5ad832b9-7feb-4983-82bd-dc05ba84c635"},"vehicle_type_id":"4","last_reported":1742069376,"current_range_meters":11200,"station_id":"ce4bgt92rcd13ifvqcg0","pricing_plan_id":"cebpf4jnsgd1na2vs0mg"},{"bike_id":"b723aca3-8e78-42dc-aea3-2292da138d59","system_id":"levelo_inurba_marseille","lat":43.23064,"lon":5.35518,"is_reserved":false,"is_disabled":false,"rental_uris":{"android":"levelo://app?vid=b723aca3-8e78-42dc-aea3-2292da138d59","ios":"levelo://app?vid=b723aca3-8e78-42dc-aea3-2292da138d59"},"vehicle_type_id":"4","last_reported":1742069376,"current_range_meters":11200,"station_id":"cpo3342slgdg3j2ifvpg","pricing_plan_id":"cebpf4jnsgd1na2vs0mg"},{"bike_id":"507244de-4e13-40b8-9480-baeef5dca29d","system_id":"levelo_inurba_marseille","lat":43.29317,"lon":5.37172,"is_reserved":false,"is_disabled":false,"rental_uris":{"android":"levelo://app?vid=507244de-4e13-40b8-9480-baeef5dca29d","ios":"levelo://app?vid=507244de-4e13-40b8-9480-baeef5dca29d"},"vehicle_type_id":"4","last_reported":1742069376,"current_range_meters":11200,"station_id":"ce4bgh92rcd13ifvqb40","pricing_plan_id":"cebpf4jnsgd1na2vs0mg"},{"bike_id":"cbc2a1a6-8021-435f-b723-2c875b2d4856","system_id":"levelo_inurba_marseille","lat":43.30428,"lon":5.38897,"is_reserved":false,"is_disabled":false,"rental_uris":{"android":"levelo://app?vid=cbc2a1a6-8021-435f-b723-2c875b2d4856","ios":"levelo://app?vid=cbc2a1a6-8021-435f-b723-2c875b2d4856"},"vehicle_type_id":"4","last_reported":1742069376,"current_range_meters":11600,"station_id":"ce4bgk12rcd13ifvqbi0","pricing_plan_id":"cebpf4jnsgd1na2vs0mg"},{"bike_id":"10044722-9baa-416e-a6f1-7ac67f5372b1","system_id":"levelo_inurba_marseille","lat":43.29609,"lon":5.3772,"is_reserved":false,"is_disabled":true,"rental_uris":{"android":"levelo://app?vid=10044722-9baa-416e-a6f1-7ac67f5372b1","ios":"levelo://app?vid=10044722-9baa-416e-a6f1-7ac67f5372b1"},"vehicle_type_id":"4","last_reported":1742069376,"current_range_meters":11600,"station_id":"ce4bgi92rcd13ifvqb90","pricing_plan_id":"cebpf4jnsgd1na2vs0mg"},{"bike_id":"e2eeef0a-6097-43b2-ac9f-071e43b60347","system_id":"levelo_inurba_marseille","lat":43.28428,"lon":5.37531,"is_reserved":false,"is_disabled":false,"rental_uris":{"android":"levelo://app?vid=e2eeef0a-6097-43b2-ac9f-071e43b60347","ios":"levelo://app?vid=e2eeef0a-6097-43b2-ac9f-071e43b60347"},"vehicle_type_id":"4","last_reported":1742069376,"current_range_meters":11600,"station_id":"ce4bh412rcd13ifvqds0","pricing_plan_id":"cebpf4jnsgd1na2vs0mg"},{"bike_id":"12cd47b6-831c-4be3-a80a-d667867c3711","system_id":"levelo_inurba_marseille","lat":43.26498,"lon":5.39561,"is_reserved":false,"is_disabled":false,"rental_uris":{"android":"levelo://app?vid=12cd47b6-831c-4be3-a80a-d667867c3711","ios":"levelo://app?vid=12cd47b6-831c-4be3-a80a-d667867c3711"},"vehicle_type_id":"4","last_reported":1742069376,"current_range_meters":11200,"station_id":"ce4bhi12rcd13ifvqfq0","pricing_plan_id":"cebpf4jnsgd1na2vs0mg"},{"bike_id":"741cb384-440e-429d-8d00-64db83124bfc","system_id":"levelo_inurba_marseille","lat":43.29053,"lon":5.38627,"is_reserved":false,"is_disabled":false,"rental_uris":{"android":"levelo://app?vid=741cb384-440e-429d-8d00-64db83124bfc","ios":"levelo://app?vid=741cb384-440e-429d-8d00-64db83124bfc"},"vehicle_type_id":"4","last_reported":1742069376,"current_range_meters":11600,"station_id":"ce4bh4p2rcd13ifvqe0g","pricing_plan_id":"cebpf4jnsgd1na2vs0mg"},{"bike_id":"59fabd73-c806-41b6-bcf9-f66a2e415d54","system_id":"levelo_inurba_marseille","lat":43.26222,"lon":5.40448,"is_reserved":false,"is_disabled":false,"rental_uris":{"android":"levelo://app?vid=59fabd73-c806-41b6-bcf9-f66a2e415d54","ios":"levelo://app?vid=59fabd73-c806-41b6-bcf9-f66a2e415d54"},"vehicle_type_id":"4","last_reported":1742069376,"current_range_meters":11600,"station_id":"ce4bhmh2rcd13ifvqgmg","pricing_plan_id":"cebpf4jnsgd1na2vs0mg"},{"bike_id":"fdabb14a-65b0-4892-aa95-5c7ece066bef","system_id":"levelo_inurba_marseille","lat":43.26788,"lon":5.39415,"is_reserved":false,"is_disabled":false,"rental_uris":{"android":"levelo://app?vid=fdabb14a-65b0-4892-aa95-5c7ece066bef","ios":"levelo://app?vid=fdabb14a-65b0-4892-aa95-5c7ece066bef"},"vehicle_type_id":"4","last_reported":1742069376,"current_range_meters":11600,"station_id":"ce4bhh12rcd13ifvqfg0","pricing_plan_id":"cebpf4jnsgd1na2vs0mg"},{"bike_id":"9c153339-ffc3-4e73-9dd4-5e83c5bb119e","system_id":"levelo_inurba_marseille","lat":43.2319,"lon":5.39991,"is_reserved":false,"is_disabled":false,"rental_uris":{"android":"levelo://app?vid=9c153339-ffc3-4e73-9dd4-5e83c5bb119e","ios":"levelo://app?vid=9c153339-ffc3-4e73-9dd4-5e83c5bb119e"},"vehicle_type_id":"4","last_reported":1742069376,"current_range_meters":11600,"station_id":"ce4bhn12rcd13ifvqgqg","pricing_plan_id":"cebpf4jnsgd1na2vs0mg"},{"bike_id":"8778d468-9b6c-4224-a814-764b272e2d1b","system_id":"levelo_inurba_marseille","lat":43.29489,"lon":5.39022,"is_reserved":false,"is_disabled":false,"rental_uris":{"android":"levelo://app?vid=8778d468-9b6c-4224-a814-764b272e2d1b","ios":"levelo://app?vid=8778d468-9b6c-4224-a814-764b272e2d1b"},"vehicle_type_id":"4","last_reported":1742069376,"current_range_meters":11600,"station_id":"ce4bh3p2rcd13ifvqdp0","pricing_plan_id":"cebpf4jnsgd1na2vs0mg"},{"bike_id":"0102a975-ca16-4d1e-8694-d919e87a2584","system_id":"levelo_inurba_marseille","lat":43.29563,"lon":5.42291,"is_reserved":false,"is_disabled":false,"rental_uris":{"android":"levelo://app?vid=0102a975-ca16-4d1e-8694-d919e87a2584","ios":"levelo://app?vid=0102a975-ca16-4d1e-8694-d919e87a2584"},"vehicle_type_id":"4","last_reported":1742069376,"current_range_meters":12000,"station_id":"ce4bhph2rcd13ifvqhdg","pricing_plan_id":"cebpf4jnsgd1na2vs0mg"},{"bike_id":"90c707aa-0edc-4e94-a911-252e6bd4d4c2","system_id":"levelo_inurba_marseille","lat":43.2864,"lon":5.35098,"is_reserved":false,"is_disabled":false,"rental_uris":{"android":"levelo://app?vid=90c707aa-0edc-4e94-a911-252e6bd4d4c2","ios":"levelo://app?vid=90c707aa-0edc-4e94-a911-252e6bd4d4c2"},"vehicle_type_id":"4","last_reported":1742069376,"current_range_meters":12000,"station_id":"ce4bhch2rcd13ifvqeug","pricing_plan_id":"cebpf4jnsgd1na2vs0mg"},{"bike_id":"fc071de1-2cc0-488a-a43e-f8037a5a9a49","system_id":"levelo_inurba_marseille","lat":43.23085,"lon":5.35468,"is_reserved":false,"is_disabled":false,"rental_uris":{"android":"levelo://app?vid=fc071de1-2cc0-488a-a43e-f8037a5a9a49","ios":"levelo://app?vid=fc071de1-2cc0-488a-a43e-f8037a5a9a49"},"vehicle_type_id":"4","last_reported":1742069376,"current_range_meters":12000,"station_id":"cpo3342slgdg3j2ifvpg","pricing_plan_id":"cebpf4jnsgd1na2vs0mg"},{"bike_id":"b7cb0b7b-a52e-4992-b1ef-18fcece38eab","system_id":"levelo_inurba_marseille","lat":43.29044,"lon":5.38676,"is_reserved":false,"is_disabled":false,"rental_uris":{"android":"levelo://app?vid=b7cb0b7b-a52e-4992-b1ef-18fcece38eab","ios":"levelo://app?vid=b7cb0b7b-a52e-4992-b1ef-18fcece38eab"},"vehicle_type_id":"4","last_reported":1742069376,"current_range_meters":12000,"station_id":"ce4bh4p2rcd13ifvqe0g","pricing_plan_id":"cebpf4jnsgd1na2vs0mg"},{"bike_id":"174c9c66-b172-484e-b7f9-5752aa18aabf","system_id":"levelo_inurba_marseille","lat":43.23068,"lon":5.35495,"is_reserved":false,"is_disabled":false,"rental_uris":{"android":"levelo://app?vid=174c9c66-b172-484e-b7f9-5752aa18aabf","ios":"levelo://app?vid=174c9c66-b172-484e-b7f9-5752aa18aabf"},"vehicle_type_id":"4","last_reported":1742069376,"current_range_meters":12000,"station_id":"cpo3342slgdg3j2ifvpg","pricing_plan_id":"cebpf4jnsgd1na2vs0mg"},{"bike_id":"557bac85-8d64-458b-9a44-6fde55b3f074","system_id":"levelo_inurba_marseille","lat":43.2571,"lon":5.41122,"is_reserved":false,"is_disabled":false,"rental_uris":{"android":"levelo://app?vid=557bac85-8d64-458b-9a44-6fde55b3f074","ios":"levelo://app?vid=557bac85-8d64-458b-9a44-6fde55b3f074"},"vehicle_type_id":"4","last_reported":1742069376,"current_range_meters":12000,"station_id":"ce4bhkp2rcd13ifvqgd0","pricing_plan_id":"cebpf4jnsgd1na2vs0mg"},{"bike_id":"efe00df5-f061-4d9e-9a8f-68d6a77e3d96","system_id":"levelo_inurba_marseille","lat":43.32658,"lon":5.40997,"is_reserved":false,"is_disabled":false,"rental_uris":{"android":"levelo://app?vid=efe00df5-f061-4d9e-9a8f-68d6a77e3d96","ios":"levelo://app?vid=efe00df5-f061-4d9e-9a8f-68d6a77e3d96"},"vehicle_type_id":"4","last_reported":1742069376,"current_range_meters":10000,"station_id":"ce4bhpp2rcd13ifvqhgg","pricing_plan_id":"cebpf4jnsgd1na2vs0mg"},{"bike_id":"b13c83ce-5089-4b9c-ba5c-9505d62705c8","system_id":"levelo_inurba_marseille","lat":43.29251,"lon":5.37421,"is_reserved":false,"is_disabled":false,"rental_uris":{"android":"levelo://app?vid=b13c83ce-5089-4b9c-ba5c-9505d62705c8","ios":"levelo://app?vid=b13c83ce-5089-4b9c-ba5c-9505d62705c8"},"vehicle_type_id":"4","last_reported":1742069376,"current_range_meters":12000,"station_id":"","pricing_plan_id":"cebpf4jnsgd1na2vs0mg"},{"bike_id":"b5f7302e-c954-4ca3-a38e-30a1e58f6874","system_id":"levelo_inurba_marseille","lat":43.29525,"lon":5.39037,"is_reserved":false,"is_disabled":false,"rental_uris":{"android":"levelo://app?vid=b5f7302e-c954-4ca3-a38e-30a1e58f6874","ios":"levelo://app?vid=b5f7302e-c954-4ca3-a38e-30a1e58f6874"},"vehicle_type_id":"4","last_reported":1742069376,"current_range_meters":12000,"station_id":"ce4bh3p2rcd13ifvqdp0","pricing_plan_id":"cebpf4jnsgd1na2vs0mg"},{"bike_id":"b9422668-130f-441b-a14d-c9cdf1872cce","system_id":"levelo_inurba_marseille","lat":43.28143,"lon":5.42645,"is_reserved":false,"is_disabled":false,"rental_uris":{"android":"levelo://app?vid=b9422668-130f-441b-a14d-c9cdf1872cce","ios":"levelo://app?vid=b9422668-130f-441b-a14d-c9cdf1872cce"},"vehicle_type_id":"4","last_reported":1742069376,"current_range_meters":12000,"station_id":"ce4bhnh2rcd13ifvqgug","pricing_plan_id":"cebpf4jnsgd1na2vs0mg"},{"bike_id":"7fc2703c-4fbb-417b-9ba3-7377e1a72bb5","system_id":"levelo_inurba_marseille","lat":43.29096,"lon":5.38154,"is_reserved":false,"is_disabled":false,"rental_uris":{"android":"levelo://app?vid=7fc2703c-4fbb-417b-9ba3-7377e1a72bb5","ios":"levelo://app?vid=7fc2703c-4fbb-417b-9ba3-7377e1a72bb5"},"vehicle_type_id":"4","last_reported":1742069376,"current_range_meters":12400,"station_id":"ce4bh512rcd13ifvqe2g","pricing_plan_id":"cebpf4jnsgd1na2vs0mg"},{"bike_id":"45e64157-60d6-4bb8-89de-24b046c27447","system_id":"levelo_inurba_marseille","lat":43.296,"lon":5.38106,"is_reserved":false,"is_disabled":false,"rental_uris":{"android":"levelo://app?vid=45e64157-60d6-4bb8-89de-24b046c27447","ios":"levelo://app?vid=45e64157-60d6-4bb8-89de-24b046c27447"},"vehicle_type_id":"4","last_reported":1742069376,"current_range_meters":12400,"station_id":"ce4bgl12rcd13ifvqbo0","pricing_plan_id":"cebpf4jnsgd1na2vs0mg"},{"bike_id":"dd3cd798-787d-4c31-b0e6-37631fe69a4a","system_id":"levelo_inurba_marseille","lat":43.27792,"lon":5.40712,"is_reserved":false,"is_disabled":false,"rental_uris":{"android":"levelo://app?vid=dd3cd798-787d-4c31-b0e6-37631fe69a4a","ios":"levelo://app?vid=dd3cd798-787d-4c31-b0e6-37631fe69a4a"},"vehicle_type_id":"4","last_reported":1742069376,"current_range_meters":12400,"station_id":"ce4bhnh2rcd13ifvqgtg","pricing_plan_id":"cebpf4jnsgd1na2vs0mg"},{"bike_id":"71b342b8-694b-40d5-99e8-310baf77a970","system_id":"levelo_inurba_marseille","lat":43.23089,"lon":5.3552,"is_reserved":false,"is_disabled":false,"rental_uris":{"android":"levelo://app?vid=71b342b8-694b-40d5-99e8-310baf77a970","ios":"levelo://app?vid=71b342b8-694b-40d5-99e8-310baf77a970"},"vehicle_type_id":"4","last_reported":1742069376,"current_range_meters":12400,"station_id":"cpo3342slgdg3j2ifvpg","pricing_plan_id":"cebpf4jnsgd1na2vs0mg"},{"bike_id":"c79bb127-8198-4096-96ea-1444569e00c1","system_id":"levelo_inurba_marseille","lat":43.23954,"lon":5.36636,"is_reserved":false,"is_disabled":true,"rental_uris":{"android":"levelo://app?vid=c79bb127-8198-4096-96ea-1444569e00c1","ios":"levelo://app?vid=c79bb127-8198-4096-96ea-1444569e00c1"},"vehicle_type_id":"4","last_reported":1742069376,"current_range_meters":12400,"station_id":"ce4bhi12rcd13ifvqfp0","pricing_plan_id":"cebpf4jnsgd1na2vs0mg"},{"bike_id":"0162ff87-7148-49d2-82e1-db37eca7d49d","system_id":"levelo_inurba_marseille","lat":43.28623,"lon":5.35091,"is_reserved":false,"is_disabled":false,"rental_uris":{"android":"levelo://app?vid=0162ff87-7148-49d2-82e1-db37eca7d49d","ios":"levelo://app?vid=0162ff87-7148-49d2-82e1-db37eca7d49d"},"vehicle_type_id":"4","last_reported":1742069376,"current_range_meters":12400,"station_id":"ce4bhch2rcd13ifvqeug","pricing_plan_id":"cebpf4jnsgd1na2vs0mg"},{"bike_id":"8de1c418-c1ee-4859-b361-f1234012f1a2","system_id":"levelo_inurba_marseille","lat":43.30173,"lon":5.36631,"is_reserved":false,"is_disabled":false,"rental_uris":{"android":"levelo://app?vid=8de1c418-c1ee-4859-b361-f1234012f1a2","ios":"levelo://app?vid=8de1c418-c1ee-4859-b361-f1234012f1a2"},"vehicle_type_id":"4","last_reported":1742069376,"current_range_meters":12400,"station_id":"ce4bgrh2rcd13ifvqc8g","pricing_plan_id":"cebpf4jnsgd1na2vs0mg"},{"bike_id":"084e9cd0-ba7b-4410-911b-bd29122b16f6","system_id":"levelo_inurba_marseille","lat":43.24173,"lon":5.36432,"is_reserved":false,"is_disabled":false,"rental_uris":{"android":"levelo://app?vid=084e9cd0-ba7b-4410-911b-bd29122b16f6","ios":"levelo://app?vid=084e9cd0-ba7b-4410-911b-bd29122b16f6"},"vehicle_type_id":"4","last_reported":1742069376,"current_range_meters":12400,"station_id":"cpo36qri1sfpv3e86is0","pricing_plan_id":"cebpf4jnsgd1na2vs0mg"},{"bike_id":"001f1fad-8233-4cb7-ade3-8cc7ce262441","system_id":"levelo_inurba_marseille","lat":43.29281,"lon":5.37443,"is_reserved":false,"is_disabled":false,"rental_uris":{"android":"levelo://app?vid=001f1fad-8233-4cb7-ade3-8cc7ce262441","ios":"levelo://app?vid=001f1fad-8233-4cb7-ade3-8cc7ce262441"},"vehicle_type_id":"4","last_reported":1742069376,"current_range_meters":12800,"station_id":"ce4bgi12rcd13ifvqb70","pricing_plan_id":"cebpf4jnsgd1na2vs0mg"},{"bike_id":"dabc5740-01e5-4dfd-b5c3-33816c157c08","system_id":"levelo_inurba_marseille","lat":43.230993,"lon":5.354783,"is_reserved":false,"is_disabled":false,"rental_uris":{"android":"levelo://app?vid=dabc5740-01e5-4dfd-b5c3-33816c157c08","ios":"levelo://app?vid=dabc5740-01e5-4dfd-b5c3-33816c157c08"},"vehicle_type_id":"4","last_reported":1742069376,"current_range_meters":12800,"station_id":"","pricing_plan_id":"cebpf4jnsgd1na2vs0mg"},{"bike_id":"1d94c08b-8f2b-46ba-a293-11c24d682e4e","system_id":"levelo_inurba_marseille","lat":43.28441,"lon":5.37562,"is_reserved":false,"is_disabled":false,"rental_uris":{"android":"levelo://app?vid=1d94c08b-8f2b-46ba-a293-11c24d682e4e","ios":"levelo://app?vid=1d94c08b-8f2b-46ba-a293-11c24d682e4e"},"vehicle_type_id":"4","last_reported":1742069376,"current_range_meters":12800,"station_id":"","pricing_plan_id":"cebpf4jnsgd1na2vs0mg"},{"bike_id":"e45b0fd7-4e87-4303-b524-8302e30de230","system_id":"levelo_inurba_marseille","lat":43.24674,"lon":5.38157,"is_reserved":false,"is_disabled":false,"rental_uris":{"android":"levelo://app?vid=e45b0fd7-4e87-4303-b524-8302e30de230","ios":"levelo://app?vid=e45b0fd7-4e87-4303-b524-8302e30de230"},"vehicle_type_id":"4","last_reported":1742069376,"current_range_meters":12800,"station_id":"ce4bhih2rcd13ifvqfr0","pricing_plan_id":"cebpf4jnsgd1na2vs0mg"},{"bike_id":"7f085ede-3dd3-4648-a4bc-68694d0dbf60","system_id":"levelo_inurba_marseille","lat":43.29972,"lon":5.38486,"is_reserved":false,"is_disabled":false,"rental_uris":{"android":"levelo://app?vid=7f085ede-3dd3-4648-a4bc-68694d0dbf60","ios":"levelo://app?vid=7f085ede-3dd3-4648-a4bc-68694d0dbf60"},"vehicle_type_id":"4","last_reported":1742069376,"current_range_meters":12800,"station_id":"ce4bgj92rcd13ifvqbd0","pricing_plan_id":"cebpf4jnsgd1na2vs0mg"},{"bike_id":"d29954b9-94a9-4d4b-8f2a-4f834cdcd24e","system_id":"levelo_inurba_marseille","lat":43.30654,"lon":5.40146,"is_reserved":false,"is_disabled":false,"rental_uris":{"android":"levelo://app?vid=d29954b9-94a9-4d4b-8f2a-4f834cdcd24e","ios":"levelo://app?vid=d29954b9-94a9-4d4b-8f2a-4f834cdcd24e"},"vehicle_type_id":"4","last_reported":1742069376,"current_range_meters":12800,"station_id":"ce4bh112rcd13ifvqda0","pricing_plan_id":"cebpf4jnsgd1na2vs0mg"},{"bike_id":"6888d166-61cd-43ad-b993-c1eed371e615","system_id":"levelo_inurba_marseille","lat":43.2927,"lon":5.38457,"is_reserved":false,"is_disabled":false,"rental_uris":{"android":"levelo://app?vid=6888d166-61cd-43ad-b993-c1eed371e615","ios":"levelo://app?vid=6888d166-61cd-43ad-b993-c1eed371e615"},"vehicle_type_id":"4","last_reported":1742069376,"current_range_meters":12800,"station_id":"","pricing_plan_id":"cebpf4jnsgd1na2vs0mg"},{"bike_id":"70a814d3-4cde-4074-b4cb-eb620bb0cbc9","system_id":"levelo_inurba_marseille","lat":43.32373,"lon":5.38904,"is_reserved":false,"is_disabled":false,"rental_uris":{"android":"levelo://app?vid=70a814d3-4cde-4074-b4cb-eb620bb0cbc9","ios":"levelo://app?vid=70a814d3-4cde-4074-b4cb-eb620bb0cbc9"},"vehicle_type_id":"4","last_reported":1742069376,"current_range_meters":13600,"station_id":"ce4bhqp2rcd13ifvqhog","pricing_plan_id":"cebpf4jnsgd1na2vs0mg"},{"bike_id":"457ac819-f080-441f-910a-cb8e5598ba49","system_id":"levelo_inurba_marseille","lat":43.29025,"lon":5.38644,"is_reserved":false,"is_disabled":false,"rental_uris":{"android":"levelo://app?vid=457ac819-f080-441f-910a-cb8e5598ba49","ios":"levelo://app?vid=457ac819-f080-441f-910a-cb8e5598ba49"},"vehicle_type_id":"4","last_reported":1742069376,"current_range_meters":12800,"station_id":"ce4bh4p2rcd13ifvqe0g","pricing_plan_id":"cebpf4jnsgd1na2vs0mg"},{"bike_id":"3469c16f-c3f4-4fc2-9fa9-119d3fda6227","system_id":"levelo_inurba_marseille","lat":43.27999,"lon":5.41667,"is_reserved":false,"is_disabled":false,"rental_uris":{"android":"levelo://app?vid=3469c16f-c3f4-4fc2-9fa9-119d3fda6227","ios":"levelo://app?vid=3469c16f-c3f4-4fc2-9fa9-119d3fda6227"},"vehicle_type_id":"4","last_reported":1742069376,"current_range_meters":12800,"station_id":"ce4bho12rcd13ifvqh1g","pricing_plan_id":"cebpf4jnsgd1na2vs0mg"},{"bike_id":"8f834772-de54-433a-b9c5-04b6550e4230","system_id":"levelo_inurba_marseille","lat":43.29204,"lon":5.39343,"is_reserved":false,"is_disabled":false,"rental_uris":{"android":"levelo://app?vid=8f834772-de54-433a-b9c5-04b6550e4230","ios":"levelo://app?vid=8f834772-de54-433a-b9c5-04b6550e4230"},"vehicle_type_id":"4","last_reported":1742069376,"current_range_meters":12800,"station_id":"ce4bh192rcd13ifvqdd0","pricing_plan_id":"cebpf4jnsgd1na2vs0mg"},{"bike_id":"56a08f96-c0b2-4620-8216-26cf3547df12","system_id":"levelo_inurba_marseille","lat":43.292572,"lon":5.384379,"is_reserved":false,"is_disabled":false,"rental_uris":{"android":"levelo://app?vid=56a08f96-c0b2-4620-8216-26cf3547df12","ios":"levelo://app?vid=56a08f96-c0b2-4620-8216-26cf3547df12"},"vehicle_type_id":"4","last_reported":1742069376,"current_range_meters":12800,"station_id":"","pricing_plan_id":"cebpf4jnsgd1na2vs0mg"},{"bike_id":"b3373fba-b2a2-499c-bb14-6d349c03382e","system_id":"levelo_inurba_marseille","lat":43.30153,"lon":5.3742,"is_reserved":false,"is_disabled":false,"rental_uris":{"android":"levelo://app?vid=b3373fba-b2a2-499c-bb14-6d349c03382e","ios":"levelo://app?vid=b3373fba-b2a2-499c-bb14-6d349c03382e"},"vehicle_type_id":"4","last_reported":1742069376,"current_range_meters":12800,"station_id":"ce4bgs92rcd13ifvqcc0","pricing_plan_id":"cebpf4jnsgd1na2vs0mg"},{"bike_id":"3a131a81-9b17-4aa5-9d09-f59b52ffa80d","system_id":"levelo_inurba_marseille","lat":43.29081,"lon":5.37161,"is_reserved":false,"is_disabled":false,"rental_uris":{"android":"levelo://app?vid=3a131a81-9b17-4aa5-9d09-f59b52ffa80d","ios":"levelo://app?vid=3a131a81-9b17-4aa5-9d09-f59b52ffa80d"},"vehicle_type_id":"4","last_reported":1742069376,"current_range_meters":12800,"station_id":"ce4bh5p2rcd13ifvqe4g","pricing_plan_id":"cebpf4jnsgd1na2vs0mg"},{"bike_id":"fda98d16-ab08-4429-a59b-fe867b07dc13","system_id":"levelo_inurba_marseille","lat":43.29305,"lon":5.37176,"is_reserved":false,"is_disabled":false,"rental_uris":{"android":"levelo://app?vid=fda98d16-ab08-4429-a59b-fe867b07dc13","ios":"levelo://app?vid=fda98d16-ab08-4429-a59b-fe867b07dc13"},"vehicle_type_id":"4","last_reported":1742069376,"current_range_meters":13600,"station_id":"ce4bgh92rcd13ifvqb40","pricing_plan_id":"cebpf4jnsgd1na2vs0mg"},{"bike_id":"41970761-c71f-4a6f-a944-2cf61e38d29f","system_id":"levelo_inurba_marseille","lat":43.25087,"lon":5.39521,"is_reserved":false,"is_disabled":false,"rental_uris":{"android":"levelo://app?vid=41970761-c71f-4a6f-a944-2cf61e38d29f","ios":"levelo://app?vid=41970761-c71f-4a6f-a944-2cf61e38d29f"},"vehicle_type_id":"4","last_reported":1742069376,"current_range_meters":13600,"station_id":"ce4bhm12rcd13ifvqgkg","pricing_plan_id":"cebpf4jnsgd1na2vs0mg"},{"bike_id":"3f3e844d-8056-4826-a519-e24eec72528f","system_id":"levelo_inurba_marseille","lat":43.306725,"lon":5.365453,"is_reserved":false,"is_disabled":false,"rental_uris":{"android":"levelo://app?vid=3f3e844d-8056-4826-a519-e24eec72528f","ios":"levelo://app?vid=3f3e844d-8056-4826-a519-e24eec72528f"},