{"last_updated":1758701627,"ttl":60,"version":"2.2","data":{"bikes":[{"bike_id":"f0e15e0f-bcc2-41e3-bafc-e48153ca0f7e","system_id":"levelo_inurba_marseille","lat":43.28698,"lon":5.39971,"is_reserved":false,"is_disabled":false,"rental_uris":{"android":"levelo://app?vid=f0e15e0f-bcc2-41e3-bafc-e48153ca0f7e","ios":"levelo://app?vid=f0e15e0f-bcc2-41e3-bafc-e48153ca0f7e"},"vehicle_type_id":"4","last_reported":1758701628,"current_range_meters":2800,"station_id":"ce4bho92rcd13ifvqh3g","pricing_plan_id":"cebpf4jnsgd1na2vs0mg"},{"bike_id":"cf5cdce1-5e74-49cf-be34-3f3ca15a37f4","system_id":"levelo_inurba_marseille","lat":43.24067,"lon":5.37762,"is_reserved":false,"is_disabled":false,"rental_uris":{"android":"levelo://app?vid=cf5cdce1-5e74-49cf-be34-3f3ca15a37f4","ios":"levelo://app?vid=cf5cdce1-5e74-49cf-be34-3f3ca15a37f4"},"vehicle_type_id":"4","last_reported":1758701628,"current_range_meters":2800,"station_id":"ce4bhnp2rcd13ifvqgvg","pricing_plan_id":"cebpf4jnsgd1na2vs0mg"},{"bike_id":"3581191c-c16f-4550-84d2-848021cdb9f1","system_id":"levelo_inurba_marseille","lat":43.288462,"lon":5.393024,"is_reserved":false,"is_disabled":false,"rental_uris":{"android":"levelo://app?vid=3581191c-c16f-4550-84d2-848021cdb9f1","ios":"levelo://app?vid=3581191c-c16f-4550-84d2-848021cdb9f1"},"vehicle_type_id":"4","last_reported":1758701628,"current_range_meters":2800,"station_id":"ce4bh4p2rcd13ifvqe0g","pricing_plan_id":"cebpf4jnsgd1na2vs0mg"},{"bike_id":"c716fcad-073f-46ec-8e04-5623801a6998","system_id":"levelo_inurba_marseille","lat":43.24176,"lon":5.397188,"is_reserved":false,"is_disabled":false,"rental_uris":{"android":"levelo://app?vid=c716fcad-073f-46ec-8e04-5623801a6998","ios":"levelo://app?vid=c716fcad-073f-46ec-8e04-5623801a6998"},"vehicle_type_id":"4","last_reported":1758701628,"current_range_meters":2800,"station_id":"ce4bhn12rcd13ifvqgpg","pricing_plan_id":"cebpf4jnsgd1na2vs0mg"},{"bike_id":"f09f3b1b-e2bf-491c-9415-62c57c4b1ebb","system_id":"levelo_inurba_marseille","lat":43.301467,"lon":5.380752,"is_reserved":false,"is_disabled":false,"rental_uris":{"android":"levelo://app?vid=f09f3b1b-e2bf-491c-9415-62c57c4b1ebb","ios":"levelo://app?vid=f09f3b1b-e2bf-491c-9415-62c57c4b1ebb"},"vehicle_type_id":"4","last_reported":1758701628,"current_range_meters":3600,"station_id":"ce4bgjp2rcd13ifvqbh0","pricing_plan_id":"cebpf4jnsgd1na2vs0mg"},{"bike_id":"886f4530-4d44-4b26-bac7-485c876b7d5d","system_id":"levelo_inurba_marseille","lat":43.29966,"lon":5.384852,"is_reserved":false,"is_disabled":false,"rental_uris":{"android":"levelo://app?vid=886f4530-4d44-4b26-bac7-485c876b7d5d","ios":"levelo://app?vid=886f4530-4d44-4b26-bac7-485c876b7d5d"},"vehicle_type_id":"4","last_reported":1758701628,"current_range_meters":3600,"station_id":"","pricing_plan_id":"cebpf4jnsgd1na2vs0mg"},{"bike_id":"f8c6f268-7a79-497b-b274-a7a5797fecaa","system_id":"levelo_inurba_marseille","lat":43.30136,"lon":5.3809,"is_reserved":false,"is_disabled":false,"rental_uris":{"android":"levelo://app?vid=f8c6f268-7a79-497b-b274-a7a5797fecaa","ios":"levelo://app?vid=f8c6f268-7a79-497b-b274-a7a5797fecaa"},"vehicle_type_id":"4","last_reported":1758701628,"current_range_meters":3600,"station_id":"ce4bgjp2rcd13ifvqbh0","pricing_plan_id":"cebpf4jnsgd1na2vs0mg"},{"bike_id":"7fd14ad2-a454-423d-bbfa-04d2678cc6ac","system_id":"levelo_inurba_marseille","lat":43.2977,"lon":5.38142,"is_reserved":false,"is_disabled":false,"rental_uris":{"android":"levelo://app?vid=7fd14ad2-a454-423d-bbfa-04d2678cc6ac","ios":"levelo://app?vid=7fd14ad2-a454-423d-bbfa-04d2678cc6ac"},"vehicle_type_id":"4","last_reported":1758701628,"current_range_meters":4000,"station_id":"ce4bgip2rcd13ifvqbb0","pricing_plan_id":"cebpf4jnsgd1na2vs0mg"},{"bike_id":"96c6691c-1404-49c1-a63a-bde42460087b","system_id":"levelo_inurba_marseille","lat":43.27807,"lon":5.40736,"is_reserved":false,"is_disabled":false,"rental_uris":{"android":"levelo://app?vid=96c6691c-1404-49c1-a63a-bde42460087b","ios":"levelo://app?vid=96c6691c-1404-49c1-a63a-bde42460087b"},"vehicle_type_id":"4","last_reported":1758701628,"current_range_meters":3600,"station_id":"ce4bhnh2rcd13ifvqgtg","pricing_plan_id":"cebpf4jnsgd1na2vs0mg"},{"bike_id":"7a49baae-1192-4d9e-9454-3b7dc1b5cd97","system_id":"levelo_inurba_marseille","lat":43.30141,"lon":5.37414,"is_reserved":false,"is_disabled":false,"rental_uris":{"android":"levelo://app?vid=7a49baae-1192-4d9e-9454-3b7dc1b5cd97","ios":"levelo://app?vid=7a49baae-1192-4d9e-9454-3b7dc1b5cd97"},"vehicle_type_id":"4","last_reported":1758701628,"current_range_meters":4000,"station_id":"ce4bgs92rcd13ifvqcc0","pricing_plan_id":"cebpf4jnsgd1na2vs0mg"},{"bike_id":"372819e3-6005-4832-906f-6c93a1b7064d","system_id":"levelo_inurba_marseille","lat":43.26227,"lon":5.40449,"is_reserved":false,"is_disabled":false,"rental_uris":{"android":"levelo://app?vid=372819e3-6005-4832-906f-6c93a1b7064d","ios":"levelo://app?vid=372819e3-6005-4832-906f-6c93a1b7064d"},"vehicle_type_id":"4","last_reported":1758701628,"current_range_meters":4000,"station_id":"ce4bhmh2rcd13ifvqgmg","pricing_plan_id":"cebpf4jnsgd1na2vs0mg"},{"bike_id":"213937f4-0cd9-48b8-9d64-0b73c37bc721","system_id":"levelo_inurba_marseille","lat":43.29558,"lon":5.38174,"is_reserved":false,"is_disabled":false,"rental_uris":{"android":"levelo://app?vid=213937f4-0cd9-48b8-9d64-0b73c37bc721","ios":"levelo://app?vid=213937f4-0cd9-48b8-9d64-0b73c37bc721"},"vehicle_type_id":"4","last_reported":1758701628,"current_range_meters":4400,"station_id":"","pricing_plan_id":"cebpf4jnsgd1na2vs0mg"},{"bike_id":"c0167dbd-7d57-40b4-a0c8-7c0f1db69283","system_id":"levelo_inurba_marseille","lat":43.275647,"lon":5.384345,"is_reserved":false,"is_disabled":false,"rental_uris":{"android":"levelo://app?vid=c0167dbd-7d57-40b4-a0c8-7c0f1db69283","ios":"levelo://app?vid=c0167dbd-7d57-40b4-a0c8-7c0f1db69283"},"vehicle_type_id":"4","last_reported":1758701628,"current_range_meters":4400,"station_id":"ce4bhh92rcd13ifvqfi0","pricing_plan_id":"cebpf4jnsgd1na2vs0mg"},{"bike_id":"bbab8ae7-549a-4765-8a28-6599b0fda88b","system_id":"levelo_inurba_marseille","lat":43.29981,"lon":5.38506,"is_reserved":false,"is_disabled":false,"rental_uris":{"android":"levelo://app?vid=bbab8ae7-549a-4765-8a28-6599b0fda88b","ios":"levelo://app?vid=bbab8ae7-549a-4765-8a28-6599b0fda88b"},"vehicle_type_id":"4","last_reported":1758701628,"current_range_meters":4400,"station_id":"ce4bgj92rcd13ifvqbd0","pricing_plan_id":"cebpf4jnsgd1na2vs0mg"},{"bike_id":"1efddf8d-578f-4e4c-8c3f-e3a8bd592ba4","system_id":"levelo_inurba_marseille","lat":43.29985,"lon":5.37426,"is_reserved":false,"is_disabled":false,"rental_uris":{"android":"levelo://app?vid=1efddf8d-578f-4e4c-8c3f-e3a8bd592ba4","ios":"levelo://app?vid=1efddf8d-578f-4e4c-8c3f-e3a8bd592ba4"},"vehicle_type_id":"4","last_reported":1758701628,"current_range_meters":4800,"station_id":"","pricing_plan_id":"cebpf4jnsgd1na2vs0mg"},{"bike_id":"3230d781-beb2-4b71-b528-b5574d3a8148","system_id":"levelo_inurba_marseille","lat":43.29364,"lon":5.3786,"is_reserved":false,"is_disabled":false,"rental_uris":{"android":"levelo://app?vid=3230d781-beb2-4b71-b528-b5574d3a8148","ios":"levelo://app?vid=3230d781-beb2-4b71-b528-b5574d3a8148"},"vehicle_type_id":"4","last_reported":1758701628,"current_range_meters":4800,"station_id":"ce4bgjh2rcd13ifvqbf0","pricing_plan_id":"cebpf4jnsgd1na2vs0mg"},{"bike_id":"0a1ab1a5-b85e-4ac3-936e-fe171b7ebe82","system_id":"levelo_inurba_marseille","lat":43.296295,"lon":5.381289,"is_reserved":false,"is_disabled":false,"rental_uris":{"android":"levelo://app?vid=0a1ab1a5-b85e-4ac3-936e-fe171b7ebe82","ios":"levelo://app?vid=0a1ab1a5-b85e-4ac3-936e-fe171b7ebe82"},"vehicle_type_id":"4","last_reported":1758701628,"current_range_meters":4800,"station_id":"","pricing_plan_id":"cebpf4jnsgd1na2vs0mg"},{"bike_id":"141a9d3a-0b93-48fe-ab24-a5e32d9694e8","system_id":"levelo_inurba_marseille","lat":43.24403,"lon":5.3706,"is_reserved":false,"is_disabled":false,"rental_uris":{"android":"levelo://app?vid=141a9d3a-0b93-48fe-ab24-a5e32d9694e8","ios":"levelo://app?vid=141a9d3a-0b93-48fe-ab24-a5e32d9694e8"},"vehicle_type_id":"4","last_reported":1758701628,"current_range_meters":5600,"station_id":"ce4bhhh2rcd13ifvqfk0","pricing_plan_id":"cebpf4jnsgd1na2vs0mg"},{"bike_id":"c7fdeddd-9aca-469e-b16b-fd53de09d5fa","system_id":"levelo_inurba_marseille","lat":43.241745,"lon":5.397156,"is_reserved":false,"is_disabled":false,"rental_uris":{"android":"levelo://app?vid=c7fdeddd-9aca-469e-b16b-fd53de09d5fa","ios":"levelo://app?vid=c7fdeddd-9aca-469e-b16b-fd53de09d5fa"},"vehicle_type_id":"4","last_reported":1758701628,"current_range_meters":5600,"station_id":"ce4bhn12rcd13ifvqgpg","pricing_plan_id":"cebpf4jnsgd1na2vs0mg"},{"bike_id":"c3ee3c67-e86f-4186-a273-bb504811cc1c","system_id":"levelo_inurba_marseille","lat":43.30946,"lon":5.3903,"is_reserved":false,"is_disabled":false,"rental_uris":{"android":"levelo://app?vid=c3ee3c67-e86f-4186-a273-bb504811cc1c","ios":"levelo://app?vid=c3ee3c67-e86f-4186-a273-bb504811cc1c"},"vehicle_type_id":"4","last_reported":1758701628,"current_range_meters":5600,"station_id":"ce4bgup2rcd13ifvqco0","pricing_plan_id":"cebpf4jnsgd1na2vs0mg"},{"bike_id":"82304ba4-71d4-444b-a52b-5e234edb762c","system_id":"levelo_inurba_marseille","lat":43.22945,"lon":5.35374,"is_reserved":false,"is_disabled":false,"rental_uris":{"android":"levelo://app?vid=82304ba4-71d4-444b-a52b-5e234edb762c","ios":"levelo://app?vid=82304ba4-71d4-444b-a52b-5e234edb762c"},"vehicle_type_id":"4","last_reported":1758701628,"current_range_meters":5600,"station_id":"","pricing_plan_id":"cebpf4jnsgd1na2vs0mg"},{"bike_id":"5096dd44-bb08-49f1-8f58-9d9dfb1faf50","system_id":"levelo_inurba_marseille","lat":43.334121,"lon":5.400681,"is_reserved":false,"is_disabled":false,"rental_uris":{"android":"levelo://app?vid=5096dd44-bb08-49f1-8f58-9d9dfb1faf50","ios":"levelo://app?vid=5096dd44-bb08-49f1-8f58-9d9dfb1faf50"},"vehicle_type_id":"4","last_reported":1758701628,"current_range_meters":6000,"station_id":"","pricing_plan_id":"cebpf4jnsgd1na2vs0mg"},{"bike_id":"698a1659-1be4-4464-8e40-0054e6845364","system_id":"levelo_inurba_marseille","lat":43.29394,"lon":5.40366,"is_reserved":false,"is_disabled":false,"rental_uris":{"android":"levelo://app?vid=698a1659-1be4-4464-8e40-0054e6845364","ios":"levelo://app?vid=698a1659-1be4-4464-8e40-0054e6845364"},"vehicle_type_id":"4","last_reported":1758701628,"current_range_meters":6400,"station_id":"","pricing_plan_id":"cebpf4jnsgd1na2vs0mg"},{"bike_id":"962b15bf-a341-4469-9450-c0428eb337e2","system_id":"levelo_inurba_marseille","lat":43.23135,"lon":5.43718,"is_reserved":false,"is_disabled":true,"rental_uris":{"android":"levelo://app?vid=962b15bf-a341-4469-9450-c0428eb337e2","ios":"levelo://app?vid=962b15bf-a341-4469-9450-c0428eb337e2"},"vehicle_type_id":"4","last_reported":1758701628,"current_range_meters":6400,"station_id":"ce4bhmp2rcd13ifvqgog","pricing_plan_id":"cebpf4jnsgd1na2vs0mg"},{"bike_id":"cb6bf7d2-2ed1-47c4-b0a7-9c935f0ebf1a","system_id":"levelo_inurba_marseille","lat":43.26857,"lon":5.40687,"is_reserved":false,"is_disabled":false,"rental_uris":{"android":"levelo://app?vid=cb6bf7d2-2ed1-47c4-b0a7-9c935f0ebf1a","ios":"levelo://app?vid=cb6bf7d2-2ed1-47c4-b0a7-9c935f0ebf1a"},"vehicle_type_id":"4","last_reported":1758701628,"current_range_meters":6400,"station_id":"","pricing_plan_id":"cebpf4jnsgd1na2vs0mg"},{"bike_id":"97bf8ce5-4076-4221-8caf-700957603d7d","system_id":"levelo_inurba_marseille","lat":43.30606,"lon":5.39354,"is_reserved":false,"is_disabled":false,"rental_uris":{"android":"levelo://app?vid=97bf8ce5-4076-4221-8caf-700957603d7d","ios":"levelo://app?vid=97bf8ce5-4076-4221-8caf-700957603d7d"},"vehicle_type_id":"4","last_reported":1758701628,"current_range_meters":6400,"station_id":"ce4bh0p2rcd13ifvqd80","pricing_plan_id":"cebpf4jnsgd1na2vs0mg"},{"bike_id":"832faa96-ac73-416a-ad73-654525bce345","system_id":"levelo_inurba_marseille","lat":43.305445,"lon":5.367145,"is_reserved":false,"is_disabled":false,"rental_uris":{"android":"levelo://app?vid=832faa96-ac73-416a-ad73-654525bce345","ios":"levelo://app?vid=832faa96-ac73-416a-ad73-654525bce345"},"vehicle_type_id":"4","last_reported":1758701628,"current_range_meters":6400,"station_id":"ce4bgrp2rcd13ifvqc9g","pricing_plan_id":"cebpf4jnsgd1na2vs0mg"},{"bike_id":"023538a4-c74d-41b7-b52d-a9cf1f022cec","system_id":"levelo_inurba_marseille","lat":43.3093,"lon":5.37889,"is_reserved":false,"is_disabled":false,"rental_uris":{"android":"levelo://app?vid=023538a4-c74d-41b7-b52d-a9cf1f022cec","ios":"levelo://app?vid=023538a4-c74d-41b7-b52d-a9cf1f022cec"},"vehicle_type_id":"4","last_reported":1758701628,"current_range_meters":6400,"station_id":"","pricing_plan_id":"cebpf4jnsgd1na2vs0mg"},{"bike_id":"1f08633a-8f55-4a9e-9496-b83ccb92dd6d","system_id":"levelo_inurba_marseille","lat":43.27068,"lon":5.42268,"is_reserved":false,"is_disabled":false,"rental_uris":{"android":"levelo://app?vid=1f08633a-8f55-4a9e-9496-b83ccb92dd6d","ios":"levelo://app?vid=1f08633a-8f55-4a9e-9496-b83ccb92dd6d"},"vehicle_type_id":"4","last_reported":1758701628,"current_range_meters":6400,"station_id":"ce4bhk92rcd13ifvqgb0","pricing_plan_id":"cebpf4jnsgd1na2vs0mg"},{"bike_id":"22a44c64-2f1a-4740-b0a8-4bd8b16ef200","system_id":"levelo_inurba_marseille","lat":43.28226,"lon":5.3907,"is_reserved":false,"is_disabled":false,"rental_uris":{"android":"levelo://app?vid=22a44c64-2f1a-4740-b0a8-4bd8b16ef200","ios":"levelo://app?vid=22a44c64-2f1a-4740-b0a8-4bd8b16ef200"},"vehicle_type_id":"4","last_reported":1758701628,"current_range_meters":7200,"station_id":"ce4bhn92rcd13ifvqgsg","pricing_plan_id":"cebpf4jnsgd1na2vs0mg"},{"bike_id":"c95e0c05-dd94-491f-8092-9c7978400114","system_id":"levelo_inurba_marseille","lat":43.33506,"lon":5.36256,"is_reserved":false,"is_disabled":false,"rental_uris":{"android":"levelo://app?vid=c95e0c05-dd94-491f-8092-9c7978400114","ios":"levelo://app?vid=c95e0c05-dd94-491f-8092-9c7978400114"},"vehicle_type_id":"4","last_reported":1758701628,"current_range_meters":7200,"station_id":"ce4bhs12rcd13ifvqhvg","pricing_plan_id":"cebpf4jnsgd1na2vs0mg"},{"bike_id":"b1689afa-a291-4ac7-b0fb-1b97df7b3ece","system_id":"levelo_inurba_marseille","lat":43.30136,"lon":5.38786,"is_reserved":false,"is_disabled":false,"rental_uris":{"android":"levelo://app?vid=b1689afa-a291-4ac7-b0fb-1b97df7b3ece","ios":"levelo://app?vid=b1689afa-a291-4ac7-b0fb-1b97df7b3ece"},"vehicle_type_id":"4","last_reported":1758701628,"current_range_meters":7200,"station_id":"ce4bghh2rcd13ifvqb60","pricing_plan_id":"cebpf4jnsgd1na2vs0mg"},{"bike_id":"486278b2-fad3-4ea1-9b77-40709f8579c9","system_id":"levelo_inurba_marseille","lat":43.24998,"lon":5.38932,"is_reserved":false,"is_disabled":false,"rental_uris":{"android":"levelo://app?vid=486278b2-fad3-4ea1-9b77-40709f8579c9","ios":"levelo://app?vid=486278b2-fad3-4ea1-9b77-40709f8579c9"},"vehicle_type_id":"4","last_reported":1758701628,"current_range_meters":7200,"station_id":"ce4bhgp2rcd13ifvqfd0","pricing_plan_id":"cebpf4jnsgd1na2vs0mg"},{"bike_id":"1a9d75ad-5d8f-4bc1-b2ae-eb17fcad697c","system_id":"levelo_inurba_marseille","lat":43.30448,"lon":5.37915,"is_reserved":false,"is_disabled":false,"rental_uris":{"android":"levelo://app?vid=1a9d75ad-5d8f-4bc1-b2ae-eb17fcad697c","ios":"levelo://app?vid=1a9d75ad-5d8f-4bc1-b2ae-eb17fcad697c"},"vehicle_type_id":"4","last_reported":1758701628,"current_range_meters":7200,"station_id":"ce4bgup2rcd13ifvqcn0","pricing_plan_id":"cebpf4jnsgd1na2vs0mg"},{"bike_id":"df9ecab4-6056-44cc-a720-250479e09d7c","system_id":"levelo_inurba_marseille","lat":43.272237,"lon":5.391538,"is_reserved":false,"is_disabled":false,"rental_uris":{"android":"levelo://app?vid=df9ecab4-6056-44cc-a720-250479e09d7c","ios":"levelo://app?vid=df9ecab4-6056-44cc-a720-250479e09d7c"},"vehicle_type_id":"4","last_reported":1758701628,"current_range_meters":7200,"station_id":"ce4bhhp2rcd13ifvqfm0","pricing_plan_id":"cebpf4jnsgd1na2vs0mg"},{"bike_id":"8955f19f-4c21-4fdf-88b6-14a50a9f9214","system_id":"levelo_inurba_marseille","lat":43.27975,"lon":5.38732,"is_reserved":false,"is_disabled":false,"rental_uris":{"android":"levelo://app?vid=8955f19f-4c21-4fdf-88b6-14a50a9f9214","ios":"levelo://app?vid=8955f19f-4c21-4fdf-88b6-14a50a9f9214"},"vehicle_type_id":"4","last_reported":1758701628,"current_range_meters":8000,"station_id":"ce4bhg12rcd13ifvqf80","pricing_plan_id":"cebpf4jnsgd1na2vs0mg"},{"bike_id":"8d243e83-cc74-44d3-bf18-f20421549672","system_id":"levelo_inurba_marseille","lat":43.28933,"lon":5.35928,"is_reserved":false,"is_disabled":false,"rental_uris":{"android":"levelo://app?vid=8d243e83-cc74-44d3-bf18-f20421549672","ios":"levelo://app?vid=8d243e83-cc74-44d3-bf18-f20421549672"},"vehicle_type_id":"4","last_reported":1758701628,"current_range_meters":8000,"station_id":"","pricing_plan_id":"cebpf4jnsgd1na2vs0mg"},{"bike_id":"227ae520-26bb-49dd-abd9-3a8e1a78287c","system_id":"levelo_inurba_marseille","lat":43.24163,"lon":5.36401,"is_reserved":false,"is_disabled":false,"rental_uris":{"android":"levelo://app?vid=227ae520-26bb-49dd-abd9-3a8e1a78287c","ios":"levelo://app?vid=227ae520-26bb-49dd-abd9-3a8e1a78287c"},"vehicle_type_id":"4","last_reported":1758701628,"current_range_meters":8400,"station_id":"cpo36qri1sfpv3e86is0","pricing_plan_id":"cebpf4jnsgd1na2vs0mg"},{"bike_id":"cb1b4c5f-17e2-4e48-9c56-3a0f9c4ca173","system_id":"levelo_inurba_marseille","lat":43.28695,"lon":5.38636,"is_reserved":false,"is_disabled":false,"rental_uris":{"android":"levelo://app?vid=cb1b4c5f-17e2-4e48-9c56-3a0f9c4ca173","ios":"levelo://app?vid=cb1b4c5f-17e2-4e48-9c56-3a0f9c4ca173"},"vehicle_type_id":"4","last_reported":1758701628,"current_range_meters":8800,"station_id":"","pricing_plan_id":"cebpf4jnsgd1na2vs0mg"},{"bike_id":"5831c095-df14-45e5-a8ab-be880ef9780a","system_id":"levelo_inurba_marseille","lat":43.266873,"lon":5.382671,"is_reserved":false,"is_disabled":false,"rental_uris":{"android":"levelo://app?vid=5831c095-df14-45e5-a8ab-be880ef9780a","ios":"levelo://app?vid=5831c095-df14-45e5-a8ab-be880ef9780a"},"vehicle_type_id":"4","last_reported":1758701628,"current_range_meters":8800,"station_id":"ce4bhg92rcd13ifvqf90","pricing_plan_id":"cebpf4jnsgd1na2vs0mg"},{"bike_id":"d2e2ea66-6f46-4ee7-b631-44b8b418585b","system_id":"levelo_inurba_marseille","lat":43.3013,"lon":5.39864,"is_reserved":false,"is_disabled":false,"rental_uris":{"android":"levelo://app?vid=d2e2ea66-6f46-4ee7-b631-44b8b418585b","ios":"levelo://app?vid=d2e2ea66-6f46-4ee7-b631-44b8b418585b"},"vehicle_type_id":"4","last_reported":1758701628,"current_range_meters":8400,"station_id":"ce4bh0h2rcd13ifvqd40","pricing_plan_id":"cebpf4jnsgd1na2vs0mg"},{"bike_id":"4cabf13e-70d3-46c5-8d1e-119d522aa974","system_id":"levelo_inurba_marseille","lat":43.26934,"lon":5.38915,"is_reserved":false,"is_disabled":false,"rental_uris":{"android":"levelo://app?vid=4cabf13e-70d3-46c5-8d1e-119d522aa974","ios":"levelo://app?vid=4cabf13e-70d3-46c5-8d1e-119d522aa974"},"vehicle_type_id":"4","last_reported":1758701628,"current_range_meters":8800,"station_id":"ce4bhhh2rcd13ifvqfl0","pricing_plan_id":"cebpf4jnsgd1na2vs0mg"},{"bike_id":"2b2d2957-4ea1-4f3c-9033-199ffef0f900","system_id":"levelo_inurba_marseille","lat":43.28357,"lon":5.38103,"is_reserved":false,"is_disabled":false,"rental_uris":{"android":"levelo://app?vid=2b2d2957-4ea1-4f3c-9033-199ffef0f900","ios":"levelo://app?vid=2b2d2957-4ea1-4f3c-9033-199ffef0f900"},"vehicle_type_id":"4","last_reported":1758701628,"current_range_meters":8800,"station_id":"ce4bh412rcd13ifvqdr0","pricing_plan_id":"cebpf4jnsgd1na2vs0mg"},{"bike_id":"678428c9-ff4a-4e84-94c6-984b513e137f","system_id":"levelo_inurba_marseille","lat":43.290386,"lon":5.375789,"is_reserved":false,"is_disabled":false,"rental_uris":{"android":"levelo://app?vid=678428c9-ff4a-4e84-94c6-984b513e137f","ios":"levelo://app?vid=678428c9-ff4a-4e84-94c6-984b513e137f"},"vehicle_type_id":"4","last_reported":1758701628,"current_range_meters":9200,"station_id":"ce4bh692rcd13ifvqe90","pricing_plan_id":"cebpf4jnsgd1na2vs0mg"},{"bike_id":"0ef9083f-93f3-4169-8290-adb876a45ae0","system_id":"levelo_inurba_marseille","lat":43.26944,"lon":5.402488,"is_reserved":false,"is_disabled":false,"rental_uris":{"android":"levelo://app?vid=0ef9083f-93f3-4169-8290-adb876a45ae0","ios":"levelo://app?vid=0ef9083f-93f3-4169-8290-adb876a45ae0"},"vehicle_type_id":"4","last_reported":1758701628,"current_range_meters":9200,"station_id":"cjm6bp8fraef2m0cb0m0","pricing_plan_id":"cebpf4jnsgd1na2vs0mg"},{"bike_id":"bbab97ef-5a76-4096-a4f4-1d33aec9e6d4","system_id":"levelo_inurba_marseille","lat":43.279405,"lon":5.388805,"is_reserved":false,"is_disabled":false,"rental_uris":{"android":"levelo://app?vid=bbab97ef-5a76-4096-a4f4-1d33aec9e6d4","ios":"levelo://app?vid=bbab97ef-5a76-4096-a4f4-1d33aec9e6d4"},"vehicle_type_id":"4","last_reported":1758701628,"current_range_meters":9200,"station_id":"ce4bhg12rcd13ifvqf80","pricing_plan_id":"cebpf4jnsgd1na2vs0mg"},{"bike_id":"5066d309-8216-451d-a4ad-b99cfce50b61","system_id":"levelo_inurba_marseille","lat":43.30532,"lon":5.36722,"is_reserved":false,"is_disabled":false,"rental_uris":{"android":"levelo://app?vid=5066d309-8216-451d-a4ad-b99cfce50b61","ios":"levelo://app?vid=5066d309-8216-451d-a4ad-b99cfce50b61"},"vehicle_type_id":"4","last_reported":1758701628,"current_range_meters":9600,"station_id":"ce4bgrp2rcd13ifvqc9g","pricing_plan_id":"cebpf4jnsgd1na2vs0mg"},{"bike_id":"5fcbbafe-b7e7-4fec-b1c7-a7b3c72a3d7a","system_id":"levelo_inurba_marseille","lat":43.24078,"lon":5.37762,"is_reserved":false,"is_disabled":false,"rental_uris":{"android":"levelo://app?vid=5fcbbafe-b7e7-4fec-b1c7-a7b3c72a3d7a","ios":"levelo://app?vid=5fcbbafe-b7e7-4fec-b1c7-a7b3c72a3d7a"},"vehicle_type_id":"4","last_reported":1758701628,"current_range_meters":9600,"station_id":"ce4bhnp2rcd13ifvqgvg","pricing_plan_id":"cebpf4jnsgd1na2vs0mg"},{"bike_id":"5be70df9-4c7c-47b4-bad1-6e83ee9eabe7","system_id":"levelo_inurba_marseille","lat":43.24996,"lon":5.38929,"is_reserved":false,"is_disabled":false,"rental_uris":{"android":"levelo://app?vid=5be70df9-4c7c-47b4-bad1-6e83ee9eabe7","ios":"levelo://app?vid=5be70df9-4c7c-47b4-bad1-6e83ee9eabe7"},"vehicle_type_id":"4","last_reported":1758701628,"current_range_meters":9600,"station_id":"ce4bhgp2rcd13ifvqfd0","pricing_plan_id":"cebpf4jnsgd1na2vs0mg"},{"bike_id":"ba5db9ed-0955-44e1-bfbc-a138fae16e15","system_id":"levelo_inurba_marseille","lat":43.23961,"lon":5.36638,"is_reserved":false,"is_disabled":false,"rental_uris":{"android":"levelo://app?vid=ba5db9ed-0955-44e1-bfbc-a138fae16e15","ios":"levelo://app?vid=ba5db9ed-0955-44e1-bfbc-a138fae16e15"},"vehicle_type_id":"4","last_reported":1758701628,"current_range_meters":10000,"station_id":"ce4bhi12rcd13ifvqfp0","pricing_plan_id":"cebpf4jnsgd1na2vs0mg"},{"bike_id":"08ffd931-e17f-4442-9575-cf4dfdcd5276","system_id":"levelo_inurba_marseille","lat":43.28284,"lon":5.35082,"is_reserved":false,"is_disabled":false,"rental_uris":{"android":"levelo://app?vid=08ffd931-e17f-4442-9575-cf4dfdcd5276","ios":"levelo://app?vid=08ffd931-e17f-4442-9575-cf4dfdcd5276"},"vehicle_type_id":"4","last_reported":1758701628,"current_range_meters":10000,"station_id":"ce4bhbp2rcd13ifvqerg","pricing_plan_id":"cebpf4jnsgd1na2vs0mg"},{"bike_id":"4ce67155-9f15-4130-9400-f86685d8ecda","system_id":"levelo_inurba_marseille","lat":43.29766,"lon":5.3651,"is_reserved":false,"is_disabled":false,"rental_uris":{"android":"levelo://app?vid=4ce67155-9f15-4130-9400-f86685d8ecda","ios":"levelo://app?vid=4ce67155-9f15-4130-9400-f86685d8ecda"},"vehicle_type_id":"4","last_reported":1758701628,"current_range_meters":10000,"station_id":"","pricing_plan_id":"cebpf4jnsgd1na2vs0mg"},{"bike_id":"8a36147f-971f-4bf9-a3b3-6c83949ca6a6","system_id":"levelo_inurba_marseille","lat":43.32109,"lon":5.36775,"is_reserved":false,"is_disabled":false,"rental_uris":{"android":"levelo://app?vid=8a36147f-971f-4bf9-a3b3-6c83949ca6a6","ios":"levelo://app?vid=8a36147f-971f-4bf9-a3b3-6c83949ca6a6"},"vehicle_type_id":"4","last_reported":1758701628,"current_range_meters":10000,"station_id":"ce4bhrh2rcd13ifvqhug","pricing_plan_id":"cebpf4jnsgd1na2vs0mg"},{"bike_id":"17a93b55-3a62-4419-ab50-3eb9214f913e","system_id":"levelo_inurba_marseille","lat":43.30135,"lon":5.37428,"is_reserved":false,"is_disabled":false,"rental_uris":{"android":"levelo://app?vid=17a93b55-3a62-4419-ab50-3eb9214f913e","ios":"levelo://app?vid=17a93b55-3a62-4419-ab50-3eb9214f913e"},"vehicle_type_id":"4","last_reported":1758701628,"current_range_meters":10000,"station_id":"ce4bgs92rcd13ifvqcc0","pricing_plan_id":"cebpf4jnsgd1na2vs0mg"},{"bike_id":"81a6e9d9-77b3-4262-8273-6a19d3ea6b76","system_id":"levelo_inurba_marseille","lat":43.24806,"lon":5.37456,"is_reserved":false,"is_disabled":false,"rental_uris":{"android":"levelo://app?vid=81a6e9d9-77b3-4262-8273-6a19d3ea6b76","ios":"levelo://app?vid=81a6e9d9-77b3-4262-8273-6a19d3ea6b76"},"vehicle_type_id":"4","last_reported":1758701628,"current_range_meters":10000,"station_id":"ce4bhgh2rcd13ifvqfb0","pricing_plan_id":"cebpf4jnsgd1na2vs0mg"},{"bike_id":"91ee6cb3-660f-4570-a5cd-df394f17d522","system_id":"levelo_inurba_marseille","lat":43.29308,"lon":5.37179,"is_reserved":false,"is_disabled":false,"rental_uris":{"android":"levelo://app?vid=91ee6cb3-660f-4570-a5cd-df394f17d522","ios":"levelo://app?vid=91ee6cb3-660f-4570-a5cd-df394f17d522"},"vehicle_type_id":"4","last_reported":1758701628,"current_range_meters":10800,"station_id":"ce4bgh92rcd13ifvqb40","pricing_plan_id":"cebpf4jnsgd1na2vs0mg"},{"bike_id":"edade4de-eb90-41df-bddf-508a7e4d485a","system_id":"levelo_inurba_marseille","lat":43.24177,"lon":5.36395,"is_reserved":false,"is_disabled":false,"rental_uris":{"android":"levelo://app?vid=edade4de-eb90-41df-bddf-508a7e4d485a","ios":"levelo://app?vid=edade4de-eb90-41df-bddf-508a7e4d485a"},"vehicle_type_id":"4","last_reported":1758701628,"current_range_meters":10800,"station_id":"cpo36qri1sfpv3e86is0","pricing_plan_id":"cebpf4jnsgd1na2vs0mg"},{"bike_id":"ee324131-7f1e-4c44-8cd4-8facf81a76e2","system_id":"levelo_inurba_marseille","lat":43.27988,"lon":5.40013,"is_reserved":false,"is_disabled":false,"rental_uris":{"android":"levelo://app?vid=ee324131-7f1e-4c44-8cd4-8facf81a76e2","ios":"levelo://app?vid=ee324131-7f1e-4c44-8cd4-8facf81a76e2"},"vehicle_type_id":"4","last_reported":1758701628,"current_range_meters":10800,"station_id":"ce4bho92rcd13ifvqh4g","pricing_plan_id":"cebpf4jnsgd1na2vs0mg"},{"bike_id":"656842cc-a161-4dc0-9ff7-c7c70d498686","system_id":"levelo_inurba_marseille","lat":43.29616,"lon":5.37157,"is_reserved":false,"is_disabled":false,"rental_uris":{"android":"levelo://app?vid=656842cc-a161-4dc0-9ff7-c7c70d498686","ios":"levelo://app?vid=656842cc-a161-4dc0-9ff7-c7c70d498686"},"vehicle_type_id":"4","last_reported":1758701628,"current_range_meters":10800,"station_id":"ce4bgnh2rcd13ifvqc0g","pricing_plan_id":"cebpf4jnsgd1na2vs0mg"},{"bike_id":"bcb71d7d-9f90-4495-a001-e0f5211c472c","system_id":"levelo_inurba_marseille","lat":43.29746,"lon":5.3767,"is_reserved":false,"is_disabled":false,"rental_uris":{"android":"levelo://app?vid=bcb71d7d-9f90-4495-a001-e0f5211c472c","ios":"levelo://app?vid=bcb71d7d-9f90-4495-a001-e0f5211c472c"},"vehicle_type_id":"4","last_reported":1758701628,"current_range_meters":10800,"station_id":"ce4bgkh2rcd13ifvqbl0","pricing_plan_id":"cebpf4jnsgd1na2vs0mg"},{"bike_id":"6328a373-4637-4cad-b70a-68e5687281f7","system_id":"levelo_inurba_marseille","lat":43.26784,"lon":5.39413,"is_reserved":false,"is_disabled":false,"rental_uris":{"android":"levelo://app?vid=6328a373-4637-4cad-b70a-68e5687281f7","ios":"levelo://app?vid=6328a373-4637-4cad-b70a-68e5687281f7"},"vehicle_type_id":"4","last_reported":1758701628,"current_range_meters":10800,"station_id":"ce4bhh12rcd13ifvqfg0","pricing_plan_id":"cebpf4jnsgd1na2vs0mg"},{"bike_id":"43d57fd4-047e-4ac8-97e5-ec9b96239472","system_id":"levelo_inurba_marseille","lat":43.33231,"lon":5.39821,"is_reserved":false,"is_disabled":false,"rental_uris":{"android":"levelo://app?vid=43d57fd4-047e-4ac8-97e5-ec9b96239472","ios":"levelo://app?vid=43d57fd4-047e-4ac8-97e5-ec9b96239472"},"vehicle_type_id":"4","last_reported":1758701628,"current_range_meters":10800,"station_id":"","pricing_plan_id":"cebpf4jnsgd1na2vs0mg"},{"bike_id":"e7a19603-697e-4f34-bf6e-d21cb8ee387e","system_id":"levelo_inurba_marseille","lat":43.26069,"lon":5.39398,"is_reserved":false,"is_disabled":true,"rental_uris":{"android":"levelo://app?vid=e7a19603-697e-4f34-bf6e-d21cb8ee387e","ios":"levelo://app?vid=e7a19603-697e-4f34-bf6e-d21cb8ee387e"},"vehicle_type_id":"4","last_reported":1758701628,"current_range_meters":11200,"station_id":"ce4bhh92rcd13ifvqfj0","pricing_plan_id":"cebpf4jnsgd1na2vs0mg"},{"bike_id":"7c0482c3-9253-4d1b-b4f3-be55cdb7721d","system_id":"levelo_inurba_marseille","lat":43.33757,"lon":5.37466,"is_reserved":false,"is_disabled":false,"rental_uris":{"android":"levelo://app?vid=7c0482c3-9253-4d1b-b4f3-be55cdb7721d","ios":"levelo://app?vid=7c0482c3-9253-4d1b-b4f3-be55cdb7721d"},"vehicle_type_id":"4","last_reported":1758701628,"current_range_meters":11200,"station_id":"","pricing_plan_id":"cebpf4jnsgd1na2vs0mg"},{"bike_id":"05c71d1b-93ca-41b5-9e26-6b92b9d131f5","system_id":"levelo_inurba_marseille","lat":43.30541,"lon":5.36539,"is_reserved":false,"is_disabled":false,"rental_uris":{"android":"levelo://app?vid=05c71d1b-93ca-41b5-9e26-6b92b9d131f5","ios":"levelo://app?vid=05c71d1b-93ca-41b5-9e26-6b92b9d131f5"},"vehicle_type_id":"4","last_reported":1758701628,"current_range_meters":11200,"station_id":"ce4bgs12rcd13ifvqcag","pricing_plan_id":"cebpf4jnsgd1na2vs0mg"},{"bike_id":"d438a7f3-977a-45af-8dca-ef2d933780b8","system_id":"levelo_inurba_marseille","lat":43.287037,"lon":5.399952,"is_reserved":false,"is_disabled":true,"rental_uris":{"android":"levelo://app?vid=d438a7f3-977a-45af-8dca-ef2d933780b8","ios":"levelo://app?vid=d438a7f3-977a-45af-8dca-ef2d933780b8"},"vehicle_type_id":"4","last_reported":1758701628,"current_range_meters":11200,"station_id":"ce4bho92rcd13ifvqh3g","pricing_plan_id":"cebpf4jnsgd1na2vs0mg"},{"bike_id":"4c0b651b-953c-4759-a0f7-0074f59a45eb","system_id":"levelo_inurba_marseille","lat":43.2579,"lon":5.39277,"is_reserved":false,"is_disabled":false,"rental_uris":{"android":"levelo://app?vid=4c0b651b-953c-4759-a0f7-0074f59a45eb","ios":"levelo://app?vid=4c0b651b-953c-4759-a0f7-0074f59a45eb"},"vehicle_type_id":"4","last_reported":1758701628,"current_range_meters":11200,"station_id":"","pricing_plan_id":"cebpf4jnsgd1na2vs0mg"},{"bike_id":"b3ec3379-5c3f-4624-9266-6edb4f07b01e","system_id":"levelo_inurba_marseille","lat":43.30276,"lon":5.377,"is_reserved":false,"is_disabled":false,"rental_uris":{"android":"levelo://app?vid=b3ec3379-5c3f-4624-9266-6edb4f07b01e","ios":"levelo://app?vid=b3ec3379-5c3f-4624-9266-6edb4f07b01e"},"vehicle_type_id":"4","last_reported":1758701628,"current_range_meters":11200,"station_id":"ce4bguh2rcd13ifvqcj0","pricing_plan_id":"cebpf4jnsgd1na2vs0mg"},{"bike_id":"e35dc3d8-0dfe-4bd4-87f7-5d3ca8bee4e5","system_id":"levelo_inurba_marseille","lat":43.25038,"lon":5.42638,"is_reserved":false,"is_disabled":false,"rental_uris":{"android":"levelo://app?vid=e35dc3d8-0dfe-4bd4-87f7-5d3ca8bee4e5","ios":"levelo://app?vid=e35dc3d8-0dfe-4bd4-87f7-5d3ca8bee4e5"},"vehicle_type_id":"4","last_reported":1758701628,"current_range_meters":11200,"station_id":"","pricing_plan_id":"cebpf4jnsgd1na2vs0mg"},{"bike_id":"a96e0b24-5191-4e51-a3f6-3395c66ee3ad","system_id":"levelo_inurba_marseille","lat":43.3016,"lon":5.38072,"is_reserved":false,"is_disabled":false,"rental_uris":{"android":"levelo://app?vid=a96e0b24-5191-4e51-a3f6-3395c66ee3ad","ios":"levelo://app?vid=a96e0b24-5191-4e51-a3f6-3395c66ee3ad"},"vehicle_type_id":"4","last_reported":1758701628,"current_range_meters":11600,"station_id":"ce4bgjp2rcd13ifvqbh0","pricing_plan_id":"cebpf4jnsgd1na2vs0mg"},{"bike_id":"6525b626-b24a-4c74-82db-2b623d012498","system_id":"levelo_inurba_marseille","lat":43.2707,"lon":5.42277,"is_reserved":false,"is_disabled":false,"rental_uris":{"android":"levelo://app?vid=6525b626-b24a-4c74-82db-2b623d012498","ios":"levelo://app?vid=6525b626-b24a-4c74-82db-2b623d012498"},"vehicle_type_id":"4","last_reported":1758701628,"current_range_meters":11600,"station_id":"ce4bhk92rcd13ifvqgb0","pricing_plan_id":"cebpf4jnsgd1na2vs0mg"},{"bike_id":"06a24bce-028d-4b4a-b4a3-d45296145db5","system_id":"levelo_inurba_marseille","lat":43.28425,"lon":5.34991,"is_reserved":false,"is_disabled":true,"rental_uris":{"android":"levelo://app?vid=06a24bce-028d-4b4a-b4a3-d45296145db5","ios":"levelo://app?vid=06a24bce-028d-4b4a-b4a3-d45296145db5"},"vehicle_type_id":"4","last_reported":1758701628,"current_range_meters":11600,"station_id":"ce4bhch2rcd13ifvqeug","pricing_plan_id":"cebpf4jnsgd1na2vs0mg"},{"bike_id":"a962e30f-ee6b-4077-a702-66853b2744b8","system_id":"levelo_inurba_marseille","lat":43.31345,"lon":5.36721,"is_reserved":false,"is_disabled":false,"rental_uris":{"android":"levelo://app?vid=a962e30f-ee6b-4077-a702-66853b2744b8","ios":"levelo://app?vid=a962e30f-ee6b-4077-a702-66853b2744b8"},"vehicle_type_id":"4","last_reported":1758701628,"current_range_meters":11600,"station_id":"ce4bgr92rcd13ifvqc6g","pricing_plan_id":"cebpf4jnsgd1na2vs0mg"},{"bike_id":"4d0b8f85-b504-4f80-8186-7b2d85e1d61f","system_id":"levelo_inurba_marseille","lat":43.24052,"lon":5.3776,"is_reserved":false,"is_disabled":false,"rental_uris":{"android":"levelo://app?vid=4d0b8f85-b504-4f80-8186-7b2d85e1d61f","ios":"levelo://app?vid=4d0b8f85-b504-4f80-8186-7b2d85e1d61f"},"vehicle_type_id":"4","last_reported":1758701628,"current_range_meters":11600,"station_id":"ce4bhnp2rcd13ifvqgvg","pricing_plan_id":"cebpf4jnsgd1na2vs0mg"},{"bike_id":"ff363bf3-8d67-4f85-a90b-d63b35c9e259","system_id":"levelo_inurba_marseille","lat":43.27358,"lon":5.42389,"is_reserved":false,"is_disabled":false,"rental_uris":{"android":"levelo://app?vid=ff363bf3-8d67-4f85-a90b-d63b35c9e259","ios":"levelo://app?vid=ff363bf3-8d67-4f85-a90b-d63b35c9e259"},"vehicle_type_id":"4","last_reported":1758701628,"current_range_meters":11600,"station_id":"","pricing_plan_id":"cebpf4jnsgd1na2vs0mg"},{"bike_id":"3e645b17-f69b-40e0-b5da-d1984328c924","system_id":"levelo_inurba_marseille","lat":43.211908,"lon":5.35069,"is_reserved":false,"is_disabled":false,"rental_uris":{"android":"levelo://app?vid=3e645b17-f69b-40e0-b5da-d1984328c924","ios":"levelo://app?vid=3e645b17-f69b-40e0-b5da-d1984328c924"},"vehicle_type_id":"4","last_reported":1758701628,"current_range_meters":12000,"station_id":"st_cvj6sg6p6f1abm77japg","pricing_plan_id":"cebpf4jnsgd1na2vs0mg"},{"bike_id":"a3837653-9d7f-44bd-bde0-e88fb18c4e1f","system_id":"levelo_inurba_marseille","lat":43.27208,"lon":5.39184,"is_reserved":false,"is_disabled":false,"rental_uris":{"android":"levelo://app?vid=a3837653-9d7f-44bd-bde0-e88fb18c4e1f","ios":"levelo://app?vid=a3837653-9d7f-44bd-bde0-e88fb18c4e1f"},"vehicle_type_id":"4","last_reported":1758701628,"current_range_meters":12000,"station_id":"ce4bhhp2rcd13ifvqfm0","pricing_plan_id":"cebpf4jnsgd1na2vs0mg"},{"bike_id":"2884e01e-e8e5-4f64-839a-a54c238e1ae3","system_id":"levelo_inurba_marseille","lat":43.22537,"lon":5.34828,"is_reserved":false,"is_disabled":false,"rental_uris":{"android":"levelo://app?vid=2884e01e-e8e5-4f64-839a-a54c238e1ae3","ios":"levelo://app?vid=2884e01e-e8e5-4f64-839a-a54c238e1ae3"},"vehicle_type_id":"4","last_reported":1758701628,"current_range_meters":12000,"station_id":"","pricing_plan_id":"cebpf4jnsgd1na2vs0mg"},{"bike_id":"fd35e7ea-939c-4ab1-9fa1-b7f8a31a6ca3","system_id":"levelo_inurba_marseille","lat":43.29521,"lon":5.39043,"is_reserved":false,"is_disabled":false,"rental_uris":{"android":"levelo://app?vid=fd35e7ea-939c-4ab1-9fa1-b7f8a31a6ca3","ios":"levelo://app?vid=fd35e7ea-939c-4ab1-9fa1-b7f8a31a6ca3"},"vehicle_type_id":"4","last_reported":1758701628,"current_range_meters":11600,"station_id":"ce4bh3p2rcd13ifvqdp0","pricing_plan_id":"cebpf4jnsgd1na2vs0mg"},{"bike_id":"f746730a-01df-4aaf-8b03-2432ec0f5a0e","system_id":"levelo_inurba_marseille","lat":43.25933,"lon":5.40899,"is_reserved":false,"is_disabled":false,"rental_uris":{"android":"levelo://app?vid=f746730a-01df-4aaf-8b03-2432ec0f5a0e","ios":"levelo://app?vid=f746730a-01df-4aaf-8b03-2432ec0f5a0e"},"vehicle_type_id":"4","last_reported":1758701628,"current_range_meters":12000,"station_id":"ce4bhm92rcd13ifvqglg","pricing_plan_id":"cebpf4jnsgd1na2vs0mg"},{"bike_id":"dddca5ef-4a33-499b-936a-6d8e6136a417","system_id":"levelo_inurba_marseille","lat":43.229355,"lon":5.353771,"is_reserved":false,"is_disabled":false,"rental_uris":{"android":"levelo://app?vid=dddca5ef-4a33-499b-936a-6d8e6136a417","ios":"levelo://app?vid=dddca5ef-4a33-499b-936a-6d8e6136a417"},"vehicle_type_id":"4","last_reported":1758701628,"current_range_meters":12000,"station_id":"cpo3532slgdg3j2ikp40","pricing_plan_id":"cebpf4jnsgd1na2vs0mg"},{"bike_id":"a60abba9-f9b8-477b-8786-175fc2b6218b","system_id":"levelo_inurba_marseille","lat":43.30866,"lon":5.37169,"is_reserved":false,"is_disabled":false,"rental_uris":{"android":"levelo://app?vid=a60abba9-f9b8-477b-8786-175fc2b6218b","ios":"levelo://app?vid=a60abba9-f9b8-477b-8786-175fc2b6218b"},"vehicle_type_id":"4","last_reported":1758701628,"current_range_meters":12400,"station_id":"ce4bguh2rcd13ifvqckg","pricing_plan_id":"cebpf4jnsgd1na2vs0mg"},{"bike_id":"e64d045f-976b-42e6-ba63-29e9d1ee10ee","system_id":"levelo_inurba_marseille","lat":43.25924,"lon":5.40886,"is_reserved":false,"is_disabled":false,"rental_uris":{"android":"levelo://app?vid=e64d045f-976b-42e6-ba63-29e9d1ee10ee","ios":"levelo://app?vid=e64d045f-976b-42e6-ba63-29e9d1ee10ee"},"vehicle_type_id":"4","last_reported":1758701628,"current_range_meters":12400,"station_id":"ce4bhm92rcd13ifvqglg","pricing_plan_id":"cebpf4jnsgd1na2vs0mg"},{"bike_id":"3bb6b3f9-6dc7-4ebd-b626-fcd46965bb1f","system_id":"levelo_inurba_marseille","lat":43.24066,"lon":5.37727,"is_reserved":false,"is_disabled":false,"rental_uris":{"android":"levelo://app?vid=3bb6b3f9-6dc7-4ebd-b626-fcd46965bb1f","ios":"levelo://app?vid=3bb6b3f9-6dc7-4ebd-b626-fcd46965bb1f"},"vehicle_type_id":"4","last_reported":1758701628,"current_range_meters":12400,"station_id":"ce4bhnp2rcd13ifvqgvg","pricing_plan_id":"cebpf4jnsgd1na2vs0mg"},{"bike_id":"b96fdeac-4ccd-436d-9761-b092972e32fc","system_id":"levelo_inurba_marseille","lat":43.29845,"lon":5.36272,"is_reserved":false,"is_disabled":false,"rental_uris":{"android":"levelo://app?vid=b96fdeac-4ccd-436d-9761-b092972e32fc","ios":"levelo://app?vid=b96fdeac-4ccd-436d-9761-b092972e32fc"},"vehicle_type_id":"4","last_reported":1758701628,"current_range_meters":12400,"station_id":"ce4bgpp2rcd13ifvqc3g","pricing_plan_id":"cebpf4jnsgd1na2vs0mg"},{"bike_id":"2ed7add6-6469-4c05-be99-776a0c3ab2d7","system_id":"levelo_inurba_marseille","lat":43.24151,"lon":5.36401,"is_reserved":false,"is_disabled":false,"rental_uris":{"android":"levelo://app?vid=2ed7add6-6469-4c05-be99-776a0c3ab2d7","ios":"levelo://app?vid=2ed7add6-6469-4c05-be99-776a0c3ab2d7"},"vehicle_type_id":"4","last_reported":1758701628,"current_range_meters":12400,"station_id":"cpo36qri1sfpv3e86is0","pricing_plan_id":"cebpf4jnsgd1na2vs0mg"},{"bike_id":"f62a7afc-e429-4926-8f54-988dfe10fe93","system_id":"levelo_inurba_marseille","lat":43.28343,"lon":5.38105,"is_reserved":false,"is_disabled":false,"rental_uris":{"android":"levelo://app?vid=f62a7afc-e429-4926-8f54-988dfe10fe93","ios":"levelo://app?vid=f62a7afc-e429-4926-8f54-988dfe10fe93"},"vehicle_type_id":"4","last_reported":1758701628,"current_range_meters":12400,"station_id":"ce4bh412rcd13ifvqdr0","pricing_plan_id":"cebpf4jnsgd1na2vs0mg"},{"bike_id":"a04f532b-be84-4c11-9077-287abe980682","system_id":"levelo_inurba_marseille","lat":43.29619,"lon":5.37154,"is_reserved":false,"is_disabled":false,"rental_uris":{"android":"levelo://app?vid=a04f532b-be84-4c11-9077-287abe980682","ios":"levelo://app?vid=a04f532b-be84-4c11-9077-287abe980682"},"vehicle_type_id":"4","last_reported":1758701628,"current_range_meters":12800,"station_id":"ce4bgnh2rcd13ifvqc0g","pricing_plan_id":"cebpf4jnsgd1na2vs0mg"},{"bike_id":"878212e1-9f3a-4147-b86c-65eaf928a45d","system_id":"levelo_inurba_marseille","lat":43.21747,"lon":5.34604,"is_reserved":false,"is_disabled":false,"rental_uris":{"android":"levelo://app?vid=878212e1-9f3a-4147-b86c-65eaf928a45d","ios":"levelo://app?vid=878212e1-9f3a-4147-b86c-65eaf928a45d"},"vehicle_type_id":"4","last_reported":1758701628,"current_range_meters":12800,"station_id":"","pricing_plan_id":"cebpf4jnsgd1na2vs0mg"},{"bike_id":"3a0c8035-19a1-4fb2-99e2-9f5d599da4a4","system_id":"levelo_inurba_marseille","lat":43.33606,"lon":5.41035,"is_reserved":false,"is_disabled":false,"rental_uris":{"android":"levelo://app?vid=3a0c8035-19a1-4fb2-99e2-9f5d599da4a4","ios":"levelo://app?vid=3a0c8035-19a1-4fb2-99e2-9f5d599da4a4"},"vehicle_type_id":"4","last_reported":1758701628,"current_range_meters":12400,"station_id":"ce4bhqh2rcd13ifvqhmg","pricing_plan_id":"cebpf4jnsgd1na2vs0mg"},{"bike_id":"d45e55fd-bdef-4148-a4fe-c963d9428301","system_id":"levelo_inurba_marseille","lat":43.2592,"lon":5.40908,"is_reserved":false,"is_disabled":false,"rental_uris":{"android":"levelo://app?vid=d45e55fd-bdef-4148-a4fe-c963d9428301","ios":"levelo://app?vid=d45e55fd-bdef-4148-a4fe-c963d9428301"},"vehicle_type_id":"4","last_reported":1758701628,"current_range_meters":12800,"station_id":"ce4bhm92rcd13ifvqglg","pricing_plan_id":"cebpf4jnsgd1na2vs0mg"},{"bike_id":"9fb8c14b-8b8a-49fb-8484-c1e5b93105cb","system_id":"levelo_inurba_marseille","lat":43.341384,"lon":5.409045,"is_reserved":false,"is_disabled":false,"rental_uris":{"android":"levelo://app?vid=9fb8c14b-8b8a-49fb-8484-c1e5b93105cb","ios":"levelo://app?vid=9fb8c14b-8b8a-49fb-8484-c1e5b93105cb"},"vehicle_type_id":"4","last_reported":1758701628,"current_range_meters":12400,"station_id":"ce4bhqh2rcd13ifvqhlg","pricing_plan_id":"cebpf4jnsgd1na2vs0mg"},{"bike_id":"9feb0e0f-24fa-4463-b0f3-30472830c043","system_id":"levelo_inurba_marseille","lat":43.31757,"lon":5.39002,"is_reserved":false,"is_disabled":false,"rental_uris":{"android":"levelo://app?vid=9feb0e0f-24fa-4463-b0f3-30472830c043","ios":"levelo://app?vid=9feb0e0f-24fa-4463-b0f3-30472830c043"},"vehicle_type_id":"4","last_reported":1758701628,"current_range_meters":13600,"station_id":"ce4bhqp2rcd13ifvqhng","pricing_plan_id":"cebpf4jnsgd1na2vs0mg"},{"bike_id":"7b249b2c-8346-4ea6-9809-7a5be1f664ea","system_id":"levelo_inurba_marseille","lat":43.24069,"lon":5.37758,"is_reserved":false,"is_disabled":false,"rental_uris":{"android":"levelo://app?vid=7b249b2c-8346-4ea6-9809-7a5be1f664ea","ios":"levelo://app?vid=7b249b2c-8346-4ea6-9809-7a5be1f664ea"},"vehicle_type_id":"4","last_reported":1758701628,"current_range_meters":13600,"station_id":"ce4bhnp2rcd13ifvqgvg","pricing_plan_id":"cebpf4jnsgd1na2vs0mg"},{"bike_id":"775d2ad5-89ec-4ca2-aad6-292d6d92b011","system_id":"levelo_inurba_marseille","lat":43.32475,"lon":5.36575,"is_reserved":false,"is_disabled":false,"rental_uris":{"android":"levelo://app?vid=775d2ad5-89ec-4ca2-aad6-292d6d92b011","ios":"levelo://app?vid=775d2ad5-89ec-4ca2-aad6-292d6d92b011"},"vehicle_type_id":"4","last_reported":1758701628,"current_range_meters":13600,"station_id":"ce4bhs12rcd13ifvqhvg","pricing_plan_id":"cebpf4jnsgd1na2vs0mg"},{"bike_id":"d184006b-6edf-430f-a427-b6017c3480db","system_id":"levelo_inurba_marseille","lat":43.272,"lon":5.39165,"is_reserved":false,"is_disabled":false,"rental_uris":{"android":"levelo://app?vid=d184006b-6edf-430f-a427-b6017c3480db","ios":"levelo://app?vid=d184006b-6edf-430f-a427-b6017c3480db"},"vehicle_type_id":"4","last_reported":1758701628,"current_range_meters":12800,"station_id":"ce4bhhp2rcd13ifvqfm0","pricing_plan_id":"cebpf4jnsgd1na2vs0mg"},{"bike_id":"a8eeeee3-1a8d-4e86-ba77-f84ac5ee6aba","system_id":"levelo_inurba_marseille","lat":43.291988,"lon":5.393192,"is_reserved":false,"is_disabled":true,"rental_uris":{"android":"levelo://app?vid=a8eeeee3-1a8d-4e86-ba77-f84ac5ee6aba","ios":"levelo://app?vid=a8eeeee3-1a8d-4e86-ba77-f84ac5ee6aba"},"vehicle_type_id":"4","last_reported":1758701628,"current_range_meters":13600,"station_id":"ce4bh192rcd13ifvqdd0","pricing_plan_id":"cebpf4jnsgd1na2vs0mg"},{"bike_id":"ac84aaae-c3eb-4db9-972a-fd754e485c90","system_id":"levelo_inurba_marseille","lat":43.320515,"lon":5.415791,"is_reserved":false,"is_disabled":false,"rental_uris":{"android":"levelo://app?vid=ac84aaae-c3eb-4db9-972a-fd754e485c90","ios":"levelo://app?vid=ac84aaae-c3eb-4db9-972a-fd754e485c90"},"vehicle_type_id":"4","last_reported":1758701628,"current_range_meters":13600,"station_id":"ce4bhq92rcd13ifvqhkg","pricing_plan_id":"cebpf4jnsgd1na2vs0mg"},{"bike_id":"438ead59-de14-4fa0-a61d-03a70a4122ae","system_id":"levelo_inurba_marseille","lat":43.97269,"lon":4.89111,"is_reserved":false,"is_disabled":true,"rental_uris":{"android":"levelo://app?vid=438ead59-de14-4fa0-a61d-03a70a4122ae","ios":"levelo://app?vid=438ead59-de14-4fa0-a61d-03a70a4122ae"},"vehicle_type_id":"4","last_reported":1758701628,"current_range_meters":13600,"station_id":"","pricing_plan_id":"cebpf4jnsgd1na2vs0mg"},{"bike_id":"95519ac6-0a49-4d29-8d56-2b90d94e5728","system_id":"levelo_inurba_marseille","lat":43.256922,"lon":5.382781,"is_reserved":false,"is_disabled":false,"rental_uris":{"android":"levelo://app?vid=95519ac6-0a49-4d29-8d56-2b90d94e5728","ios":"levelo://app?vid=95519ac6-0a49-4d29-8d56-2b90d94e5728"},"vehicle_type_id":"4","last_reported":1758701628,"current_range_meters":13600,"station_id":"ce4bhih2rcd13ifvqfs0","pricing_plan_id":"cebpf4jnsgd1na2vs0mg"},{"bike_id":"4ea71d83-c74b-45e0-95a5-e4c77af55e88","system_id":"levelo_inurba_marseille","lat":43.321075,"lon":5.36762,"is_reserved":false,"is_disabled":false,"rental_uris":{"android":"levelo://app?vid=4ea71d83-c74b-45e0-95a5-e4c77af55e88","ios":"levelo://app?vid=4ea71d83-c74b-45e0-95a5-e4c77af55e88"},"vehicle_type_id":"4","last_reported":1758701628,"current_range_meters":14000,"station_id":"ce4bhrh2rcd13ifvqhug","pricing_plan_id":"cebpf4jnsgd1na2vs0mg"},{"bike_id":"e3485370-4267-40d2-baa1-aac3126cd3bd","system_id":"levelo_inurba_marseille","lat":43.25709,"lon":5.41089,"is_reserved":false,"is_disabled":false,"rental_uris":{"android":"levelo://app?vid=e3485370-4267-40d2-baa1-aac3126cd3bd","ios":"levelo://app?vid=e3485370-4267-40d2-baa1-aac3126cd3bd"},"vehicle_type_id":"4","last_reported":1758701628,"current_range_meters":14000,"station_id":"ce4bhkp2rcd13ifvqgd0","pricing_plan_id":"cebpf4jnsgd1na2vs0mg"},{"bike_id":"b5097eea-9912-4be2-9cf9-14c224c5fab6","system_id":"levelo_inurba_marseille","lat":43.23185,"lon":5.35554,"is_reserved":false,"is_disabled":false,"rental_uris":{"android":"levelo://app?vid=b5097eea-9912-4be2-9cf9-14c224c5fab6","ios":"levelo://app?vid=b5097eea-9912-4be2-9cf9-14c224c5fab6"},"vehicle_type_id":"4","last_reported":1758701628,"current_range_meters":14000,"station_id":"ce4bhu92rcd13ifvqi70","pricing_plan_id":"cebpf4jnsgd1na2vs0mg"},{"bike_id":"24f1c4f0-9fd4-4fe7-808c-93dd959e3a6e","system_id":"levelo_inurba_marseille","lat":43.33021,"lon":5.39015,"is_reserved":false,"is_disabled":false,"rental_uris":{"android":"levelo://app?vid=24f1c4f0-9fd4-4fe7-808c-93dd959e3a6e","ios":"levelo://app?vid=24f1c4f0-9fd4-4fe7-808c-93dd959e3a6e"},"vehicle_type_id":"4","last_reported":1758701628,"current_range_meters":14000,"station_id":"ce4bhr92rcd13ifvqhrg","pricing_plan_id":"cebpf4jnsgd1na2vs0mg"},{"bike_id":"06c10839-75c7-457b-804b-f341157fb4f3","system_id":"levelo_inurba_marseille","lat":43.25078,"lon":5.40359,"is_reserved":false,"is_disabled":false,"rental_uris":{"android":"levelo://app?vid=06c10839-75c7-457b-804b-f341157fb4f3","ios":"levelo://app?vid=06c10839-75c7-457b-804b-f341157fb4f3"},"vehicle_type_id":"4","last_reported":1758701628,"current_range_meters":14000,"station_id":"ce4bhlh2rcd13ifvqgig","pricing_plan_id":"cebpf4jnsgd1na2vs0mg"},{"bike_id":"4f60849d-7e41-47e4-a340-7c7f445d6859","system_id":"levelo_inurba_marseille","lat":43.317546,"lon":5.390145,"is_reserved":false,"is_disabled":false,"rental_uris":{"android":"levelo://app?vid=4f60849d-7e41-47e4-a340-7c7f445d6859","ios":"levelo://app?vid=4f60849d-7e41-47e4-a340-7c7f445d6859"},"vehicle_type_id":"4","last_reported":1758701628,"current_range_meters":14000,"station_id":"ce4bhqp2rcd13ifvqhng","pricing_plan_id":"cebpf4jnsgd1na2vs0mg"},{"bike_id":"81550a7a-b471-48dc-bc67-404dc9eac132","system_id":"levelo_inurba_marseille","lat":43.2956,"lon":5.3752,"is_reserved":false,"is_disabled":false,"rental_uris":{"android":"levelo://app?vid=81550a7a-b471-48dc-bc67-404dc9eac132","ios":"levelo://app?vid=81550a7a-b471-48dc-bc67-404dc9eac132"},"vehicle_type_id":"4","last_reported":1758701628,"current_range_meters":14000,"station_id":"ce4bgh92rcd13ifvqb50","pricing_plan_id":"cebpf4jnsgd1na2vs0mg"},{"bike_id":"3f9b1775-5d55-481e-be79-078d38b09814","system_id":"levelo_inurba_marseille","lat":43.25726,"lon":5.41123,"is_reserved":false,"is_disabled":false,"rental_uris":{"android":"levelo://app?vid=3f9b1775-5d55-481e-be79-078d38b09814","ios":"levelo://app?vid=3f9b1775-5d55-481e-be79-078d38b09814"},"vehicle_type_id":"4","last_reported":1758701628,"current_range_meters":14000,"station_id":"ce4bhkp2rcd13ifvqgd0","pricing_plan_id":"cebpf4jnsgd1na2vs0mg"},{"bike_id":"7e7bac88-d3fa-4495-8aa3-a3a28aec43cb","system_id":"levelo_inurba_marseille","lat":43.30946,"lon":5.39022,"is_reserved":false,"is_disabled":false,"rental_uris":{"android":"levelo://app?vid=7e7bac88-d3fa-4495-8aa3-a3a28aec43cb","ios":"levelo://app?vid=7e7bac88-d3fa-4495-8aa3-a3a28aec43cb"},"vehicle_type_id":"4","last_reported":1758701628,"current_range_meters":13600,"station_id":"ce4bgup2rcd13ifvqco0","pricing_plan_id":"cebpf4jnsgd1na2vs0mg"},{"bike_id":"cdb840f3-312e-40e5-b10f-6c6dab22efa8","system_id":"levelo_inurba_marseille","lat":43.30464,"lon":5.37901,"is_reserved":false,"is_disabled":false,"rental_uris":{"android":"levelo://app?vid=cdb840f3-312e-40e5-b10f-6c6dab22efa8","ios":"levelo://app?vid=cdb840f3-312e-40e5-b10f-6c6dab22efa8"},"vehicle_type_id":"4","last_reported":1758701628,"current_range_meters":14000,"station_id":"ce4bgup2rcd13ifvqcn0","pricing_plan_id":"cebpf4jnsgd1na2vs0mg"},{"bike_id":"c2de3646-1146-49ab-a3e8-f7695fa47dd0","system_id":"levelo_inurba_marseille","lat":43.2656,"lon":5.39015,"is_reserved":false,"is_disabled":false,"rental_uris":{"android":"levelo://app?vid=c2de3646-1146-49ab-a3e8-f7695fa47dd0","ios":"levelo://app?vid=c2de3646-1146-49ab-a3e8-f7695fa47dd0"},"vehicle_type_id":"4","last_reported":1758701628,"current_range_meters":14000,"station_id":"ce4bhe12rcd13ifvqf30","pricing_plan_id":"cebpf4jnsgd1na2vs0mg"},{"bike_id":"84b33905-4d68-45d1-b964-55917d8b1533","system_id":"levelo_inurba_marseille","lat":43.27836,"lon":5.387694,"is_reserved":false,"is_disabled":false,"rental_uris":{"android":"levelo://app?vid=84b33905-4d68-45d1-b964-55917d8b1533","ios":"levelo://app?vid=84b33905-4d68-45d1-b964-55917d8b1533"},"vehicle_type_id":"4","last_reported":1758701628,"current_range_meters":14400,"station_id":"ce4bhi12rcd13ifvqfo0","pricing_plan_id":"cebpf4jnsgd1na2vs0mg"},{"bike_id":"58a0969c-63eb-4156-9c62-24f3d51e6018","system_id":"levelo_inurba_marseille","lat":43.28154,"lon":5.4264,"is_reserved":false,"is_disabled":false,"rental_uris":{"android":"levelo://app?vid=58a0969c-63eb-4156-9c62-24f3d51e6018","ios":"levelo://app?vid=58a0969c-63eb-4156-9c62-24f3d51e6018"},"vehicle_type_id":"4","last_reported":1758701628,"current_range_meters":14400,"station_id":"ce4bhnh2rcd13ifvqgug","pricing_plan_id":"cebpf4jnsgd1na2vs0mg"},{"bike_id":"d68b9cdd-055c-48e6-b5c7-c6c683b923e5","system_id":"levelo_inurba_marseille","lat":43.28603,"lon":5.35108,"is_reserved":false,"is_disabled":true,"rental_uris":{"android":"levelo://app?vid=d68b9cdd-055c-48e6-b5c7-c6c683b923e5","ios":"levelo://app?vid=d68b9cdd-055c-48e6-b5c7-c6c683b923e5"},"vehicle_type_id":"4","last_reported":1758701628,"current_range_meters":14400,"station_id":"ce4bhch2rcd13ifvqeug","pricing_plan_id":"cebpf4jnsgd1na2vs0mg"},{"bike_id":"14cb3714-bd70-449a-824d-c7562573d422","system_id":"levelo_inurba_marseille","lat":43.28477,"lon":5.38559,"is_reserved":false,"is_disabled":false,"rental_uris":{"android":"levelo://app?vid=14cb3714-bd70-449a-824d-c7562573d422","ios":"levelo://app?vid=14cb3714-bd70-449a-824d-c7562573d422"},"vehicle_type_id":"4","last_reported":1758701628,"current_range_meters":14400,"station_id":"ce4bh8p2rcd13ifvqeb0","pricing_plan_id":"cebpf4jnsgd1na2vs0mg"},{"bike_id":"4826cf17-435e-4c1b-ab91-9b86fafcb84f","system_id":"levelo_inurba_marseille","lat":43.27308,"lon":5.3909,"is_reserved":false,"is_disabled":false,"rental_uris":{"android":"levelo://app?vid=4826cf17-435e-4c1b-ab91-9b86fafcb84f","ios":"levelo://app?vid=4826cf17-435e-4c1b-ab91-9b86fafcb84f"},"vehicle_type_id":"4","last_reported":1758701628,"current_range_meters":14400,"station_id":"ce4bhgp2rcd13ifvqfe0","pricing_plan_id":"cebpf4jnsgd1na2vs0mg"},{"bike_id":"8c0227e3-55e8-4994-aa0c-9b6ee99b7e26","system_id":"levelo_inurba_marseille","lat":43.23051,"lon":5.35464,"is_reserved":false,"is_disabled":false,"rental_uris":{"android":"levelo://app?vid=8c0227e3-55e8-4994-aa0c-9b6ee99b7e26","ios":"levelo://app?vid=8c0227e3-55e8-4994-aa0c-9b6ee99b7e26"},"vehicle_type_id":"4","last_reported":1758701628,"current_range_meters":14800,"station_id":"cpo3342slgdg3j2ifvpg","pricing_plan_id":"cebpf4jnsgd1na2vs0mg"},{"bike_id":"2d4006e7-21c9-43f0-a094-fcaaa7f929b9","system_id":"levelo_inurba_marseille","lat":43.305401,"lon":5.365578,"is_reserved":false,"is_disabled":false,"rental_uris":{"android":"levelo://app?vid=2d4006e7-21c9-43f0-a094-fcaaa7f929b9","ios":"levelo://app?vid=2d4006e7-21c9-43f0-a094-fcaaa7f929b9"},"vehicle_type_id":"4","last_reported":1758701628,"current_range_meters":14800,"station_id":"ce4bgs12rcd13ifvqcag","pricing_plan_id":"cebpf4jnsgd1na2vs0mg"},{"bike_id":"4999d5dd-23a6-4c17-bf5c-a04545d8752f","system_id":"levelo_inurba_marseille","lat":43.26036,"lon":5.37533,"is_reserved":false,"is_disabled":false,"rental_uris":{"android":"levelo://app?vid=4999d5dd-23a6-4c17-bf5c-a04545d8752f","ios":"levelo://app?vid=4999d5dd-23a6-4c17-bf5c-a04545d8752f"},"vehicle_type_id":"4","last_reported":1758701628,"current_range_meters":14800,"station_id":"ce4bhgh2rcd13ifvqfa0","pricing_plan_id":"cebpf4jnsgd1na2vs0mg"},{"bike_id":"e36b8523-28d4-4650-bb1a-56482550ea8b","system_id":"levelo_inurba_marseille","lat":43.29785,"lon":5.38122,"is_reserved":false,"is_disabled":true,"rental_uris":{"android":"levelo://app?vid=e36b8523-28d4-4650-bb1a-56482550ea8b","ios":"levelo://app?vid=e36b8523-28d4-4650-bb1a-56482550ea8b"},"vehicle_type_id":"4","last_reported":1758701628,"current_range_meters":14800,"station_id":"ce4bgip2rcd13ifvqbb0","pricing_plan_id":"cebpf4jnsgd1na2vs0mg"},{"bike_id":"d0ebaeb4-0509-4e9f-a02a-c09b9a9e066b","system_id":"levelo_inurba_marseille","lat":43.26678,"lon":5.38268,"is_reserved":false,"is_disabled":false,"rental_uris":{"android":"levelo://app?vid=d0ebaeb4-0509-4e9f-a02a-c09b9a9e066b","ios":"levelo://app?vid=d0ebaeb4-0509-4e9f-a02a-c09b9a9e066b"},"vehicle_type_id":"4","last_reported":1758701628,"current_range_meters":14800,"station_id":"ce4bhg92rcd13ifvqf90","pricing_plan_id":"cebpf4jnsgd1na2vs0mg"},{"bike_id":"b48e70b2-53f1-4641-819c-a53cac59b8ed","system_id":"levelo_inurba_marseille","lat":43.258241,"lon":5.39439,"is_reserved":false,"is_disabled":false,"rental_uris":{"android":"levelo://app?vid=b48e70b2-53f1-4641-819c-a53cac59b8ed","ios":"levelo://app?vid=b48e70b2-53f1-4641-819c-a53cac59b8ed"},"vehicle_type_id":"4","last_reported":1758701628,"current_range_meters":14800,"station_id":"ce4bhip2rcd13ifvqft0","pricing_plan_id":"cebpf4jnsgd1na2vs0mg"},{"bike_id":"36b070bb-df09-4433-b99c-aab79ada22d5","system_id":"levelo_inurba_marseille","lat":43.29287,"lon":5.3744,"is_reserved":false,"is_disabled":false,"rental_uris":{"android":"levelo://app?vid=36b070bb-df09-4433-b99c-aab79ada22d5","ios":"levelo://app?vid=36b070bb-df09-4433-b99c-aab79ada22d5"},"vehicle_type_id":"4","last_reported":1758701628,"current_range_meters":14800,"station_id":"","pricing_plan_id":"cebpf4jnsgd1na2vs0mg"},{"bike_id":"8353488b-27d1-4657-88aa-31403d6b0301","system_id":"levelo_inurba_marseille","lat":43.30601,"lon":5.37215,"is_reserved":false,"is_disabled":false,"rental_uris":{"android":"levelo://app?vid=8353488b-27d1-4657-88aa-31403d6b0301","ios":"levelo://app?vid=8353488b-27d1-4657-88aa-31403d6b0301"},"vehicle_type_id":"4","last_reported":1758701628,"current_range_meters":14800,"station_id":"ce4bgqh2rcd13ifvqc4g","pricing_plan_id":"cebpf4jnsgd1na2vs0mg"},{"bike_id":"ef00c611-56e3-4d87-83a8-6fad9627913a","system_id":"levelo_inurba_marseille","lat":43.308894,"lon":5.371943,"is_reserved":false,"is_disabled":false,"rental_uris":{"android":"levelo://app?vid=ef00c611-56e3-4d87-83a8-6fad9627913a","ios":"levelo://app?vid=ef00c611-56e3-4d87-83a8-6fad9627913a"},"vehicle_type_id":"4","last_reported":1758701628,"current_range_meters":15200,"station_id":"ce4bguh2rcd13ifvqckg","pricing_plan_id":"cebpf4jnsgd1na2vs0mg"},{"bike_id":"fa32ac66-1868-4621-9603-33ed57153ba3","system_id":"levelo_inurba_marseille","lat":43.29991,"lon":5.40109,"is_reserved":false,"is_disabled":false,"rental_uris":{"android":"levelo://app?vid=fa32ac66-1868-4621-9603-33ed57153ba3","ios":"levelo://app?vid=fa32ac66-1868-4621-9603-33ed57153ba3"},"vehicle_type_id":"4","last_reported":1758701628,"current_range_meters":15200,"station_id":"","pricing_plan_id":"cebpf4jnsgd1na2vs0mg"},{"bike_id":"92411527-c260-462a-8567-994c044d5af6","system_id":"levelo_inurba_marseille","lat":43.24385,"lon":5.37051,"is_reserved":false,"is_disabled":false,"rental_uris":{"android":"levelo://app?vid=92411527-c260-462a-8567-994c044d5af6","ios":"levelo://app?vid=92411527-c260-462a-8567-994c044d5af6"},"vehicle_type_id":"4","last_reported":1758701628,"current_range_meters":14800,"station_id":"ce4bhhh2rcd13ifvqfk0","pricing_plan_id":"cebpf4jnsgd1na2vs0mg"},{"bike_id":"36dcdecf-882a-4614-8011-250ef8957d92","system_id":"levelo_inurba_marseille","lat":43.217529,"lon":5.346181,"is_reserved":false,"is_disabled":false,"rental_uris":{"android":"levelo://app?vid=36dcdecf-882a-4614-8011-250ef8957d92","ios":"levelo://app?vid=36dcdecf-882a-4614-8011-250ef8957d92"},"vehicle_type_id":"4","last_reported":1758701628,"current_range_meters":15200,"station_id":"st_cvj6r9ubvosntc0bgbag","pricing_plan_id":"cebpf4jnsgd1na2vs0mg"},{"bike_id":"fb5f1a1b-b00f-437f-a12d-0b94f5629d5e","system_id":"levelo_inurba_marseille","lat":43.295325,"lon":5.38548,"is_reserved":false,"is_disabled":false,"rental_uris":{"android":"levelo://app?vid=fb5f1a1b-b00f-437f-a12d-0b94f5629d5e","ios":"levelo://app?vid=fb5f1a1b-b00f-437f-a12d-0b94f5629d5e"},"vehicle_type_id":"4","last_reported":1758701628,"current_range_meters":15200,"station_id":"ce4bgih2rcd13ifvqba0","pricing_plan_id":"cebpf4jnsgd1na2vs0mg"},{"bike_id":"a851cae0-b395-441e-9dd1-21300baf3396","system_id":"levelo_inurba_marseille","lat":43.31512,"lon":5.3871,"is_reserved":false,"is_disabled":false,"rental_uris":{"android":"levelo://app?vid=a851cae0-b395-441e-9dd1-21300baf3396","ios":"levelo://app?vid=a851cae0-b395-441e-9dd1-21300baf3396"},"vehicle_type_id":"4","last_reported":1758701628,"current_range_meters":16000,"station_id":"","pricing_plan_id":"cebpf4jnsgd1na2vs0mg"},{"bike_id":"d2be082e-bd73-4203-addb-18871b3a9587","system_id":"levelo_inurba_marseille","lat":43.29415,"lon":5.37474,"is_reserved":false,"is_disabled":false,"rental_uris":{"android":"levelo://app?vid=d2be082e-bd73-4203-addb-18871b3a9587","ios":"levelo://app?vid=d2be082e-bd73-4203-addb-18871b3a9587"},"vehicle_type_id":"4","last_reported":1758701628,"current_range_meters":16000,"station_id":"","pricing_plan_id":"cebpf4jnsgd1na2vs0mg"},{"bike_id":"e2017298-7010-4fcc-9644-9ccfb0f46125","system_id":"levelo_inurba_marseille","lat":43.30088,"lon":5.41534,"is_reserved":false,"is_disabled":false,"rental_uris":{"android":"levelo://app?vid=e2017298-7010-4fcc-9644-9ccfb0f46125","ios":"levelo://app?vid=e2017298-7010-4fcc-9644-9ccfb0f46125"},"vehicle_type_id":"4","last_reported":1758701628,"current_range_meters":16000,"station_id":"","pricing_plan_id":"cebpf4jnsgd1na2vs0mg"},{"bike_id":"df72fb9c-3e0e-4f38-868c-350b5f80d3b6","system_id":"levelo_inurba_marseille","lat":43.29628,"lon":5.37149,"is_reserved":false,"is_disabled":false,"rental_uris":{"android":"levelo://app?vid=df72fb9c-3e0e-4f38-868c-350b5f80d3b6","ios":"levelo://app?vid=df72fb9c-3e0e-4f38-868c-350b5f80d3b6"},"vehicle_type_id":"4","last_reported":1758701628,"current_range_meters":16400,"station_id":"ce4bgnh2rcd13ifvqc0g","pricing_plan_id":"cebpf4jnsgd1na2vs0mg"},{"bike_id":"5a005ed0-eba5-47f7-8ee1-4ee07db8ed5d","system_id":"levelo_inurba_marseille","lat":43.24387,"lon":5.37064,"is_reserved":false,"is_disabled":false,"rental_uris":{"android":"levelo://app?vid=5a005ed0-eba5-47f7-8ee1-4ee07db8ed5d","ios":"levelo://app?vid=5a005ed0-eba5-47f7-8ee1-4ee07db8ed5d"},"vehicle_type_id":"4","last_reported":1758701628,"current_range_meters":16400,"station_id":"ce4bhhh2rcd13ifvqfk0","pricing_plan_id":"cebpf4jnsgd1na2vs0mg"},{"bike_id":"3cb1dae7-6bcd-41e5-b1b7-c1d25c751a99","system_id":"levelo_inurba_marseille","lat":43.337594,"lon":5.374419,"is_reserved":false,"is_disabled":false,"rental_uris":{"android":"levelo://app?vid=3cb1dae7-6bcd-41e5-b1b7-c1d25c751a99","ios":"levelo://app?vid=3cb1dae7-6bcd-41e5-b1b7-c1d25c751a99"},"vehicle_type_id":"4","last_reported":1758701628,"current_range_meters":16400,"station_id":"","pricing_plan_id":"cebpf4jnsgd1na2vs0mg"},{"bike_id":"57b14c92-2a17-45b3-beb1-cbb460ef441b","system_id":"levelo_inurba_marseille","lat":43.23205,"lon":5.39981,"is_reserved":false,"is_disabled":false,"rental_uris":{"android":"levelo://app?vid=57b14c92-2a17-45b3-beb1-cbb460ef441b","ios":"levelo://app?vid=57b14c92-2a17-45b3-beb1-cbb460ef441b"},"vehicle_type_id":"4","last_reported":1758701628,"current_range_meters":16400,"station_id":"ce4bhn12rcd13ifvqgqg","pricing_plan_id":"cebpf4jnsgd1na2vs0mg"},{"bike_id":"c7ca8eea-f3b9-4019-960b-1342560ce53c","system_id":"levelo_inurba_marseille","lat":43.306046,"lon":5.372322,"is_reserved":false,"is_disabled":false,"rental_uris":{"android":"levelo://app?vid=c7ca8eea-f3b9-4019-960b-1342560ce53c","ios":"levelo://app?vid=c7ca8eea-f3b9-4019-960b-1342560ce53c"},"vehicle_type_id":"4","last_reported":1758701628,"current_range_meters":16000,"station_id":"ce4bgqh2rcd13ifvqc4g","pricing_plan_id":"cebpf4jnsgd1na2vs0mg"},{"bike_id":"c60b9a79-e695-446b-aedb-c4a66c1391b2","system_id":"levelo_inurba_marseille","lat":43.30586,"lon":5.37201,"is_reserved":false,"is_disabled":false,"rental_uris":{"android":"levelo://app?vid=c60b9a79-e695-446b-aedb-c4a66c1391b2","ios":"levelo://app?vid=c60b9a79-e695-446b-aedb-c4a66c1391b2"},"vehicle_type_id":"4","last_reported":1758701628,"current_range_meters":16400,"station_id":"ce4bgqh2rcd13ifvqc4g","pricing_plan_id":"cebpf4jnsgd1na2vs0mg"},{"bike_id":"e19472f1-87e0-4943-97f3-e785d2a10054","system_id":"levelo_inurba_marseille","lat":43.28842,"lon":5.42526,"is_reserved":false,"is_disabled":false,"rental_uris":{"android":"levelo://app?vid=e19472f1-87e0-4943-97f3-e785d2a10054","ios":"levelo://app?vid=e19472f1-87e0-4943-97f3-e785d2a10054"},"vehicle_type_id":"4","last_reported":1758701628,"current_range_meters":16400,"station_id":"","pricing_plan_id":"cebpf4jnsgd1na2vs0mg"},{"bike_id":"933b8929-c48d-4c87-90f2-6f4b1b2e0ed3","system_id":"levelo_inurba_marseille","lat":43.2695,"lon":5.38629,"is_reserved":false,"is_disabled":false,"rental_uris":{"android":"levelo://app?vid=933b8929-c48d-4c87-90f2-6f4b1b2e0ed3","ios":"levelo://app?vid=933b8929-c48d-4c87-90f2-6f4b1b2e0ed3"},"vehicle_type_id":"4","last_reported":1758701628,"current_range_meters":16800,"station_id":"ce4bhh92rcd13ifvqfh0","pricing_plan_id":"cebpf4jnsgd1na2vs0mg"},{"bike_id":"9aa94c4f-da7c-4770-9081-a8dca3f600f4","system_id":"levelo_inurba_marseille","lat":43.27488,"lon":5.42455,"is_reserved":false,"is_disabled":false,"rental_uris":{"android":"levelo://app?vid=9aa94c4f-da7c-4770-9081-a8dca3f600f4","ios":"levelo://app?vid=9aa94c4f-da7c-4770-9081-a8dca3f600f4"},"vehicle_type_id":"4","last_reported":1758701628,"current_range_meters":16800,"station_id":"ce4bhn92rcd13ifvqgrg","pricing_plan_id":"cebpf4jnsgd1na2vs0mg"},{"bike_id":"522e656d-cb38-4e13-871c-d08bf441ce6b","system_id":"levelo_inurba_marseille","lat":43.3253,"lon":5.41433,"is_reserved":false,"is_disabled":false,"rental_uris":{"android":"levelo://app?vid=522e656d-cb38-4e13-871c-d08bf441ce6b","ios":"levelo://app?vid=522e656d-cb38-4e13-871c-d08bf441ce6b"},"vehicle_type_id":"4","last_reported":1758701628,"current_range_meters":16800,"station_id":"ce4bhq12rcd13ifvqhhg","pricing_plan_id":"cebpf4jnsgd1na2vs0mg"},{"bike_id":"80a97168-041d-40ef-9891-424003b66bc7","system_id":"levelo_inurba_marseille","lat":43.23149,"lon":5.43725,"is_reserved":false,"is_disabled":false,"rental_uris":{"android":"levelo://app?vid=80a97168-041d-40ef-9891-424003b66bc7","ios":"levelo://app?vid=80a97168-041d-40ef-9891-424003b66bc7"},"vehicle_type_id":"4","last_reported":1758701628,"current_range_meters":16800,"station_id":"ce4bhmp2rcd13ifvqgog","pricing_plan_id":"cebpf4jnsgd1na2vs0mg"},{"bike_id":"178af37d-dd54-4cf7-b80a-b996e0f2a163","system_id":"levelo_inurba_marseille","lat":43.21183,"lon":5.35078,"is_reserved":false,"is_disabled":false,"rental_uris":{"android":"levelo://app?vid=178af37d-dd54-4cf7-b80a-b996e0f2a163","ios":"levelo://app?vid=178af37d-dd54-4cf7-b80a-b996e0f2a163"},"vehicle_type_id":"4","last_reported":1758701628,"current_range_meters":16800,"station_id":"st_cvj6sg6p6f1abm77japg","pricing_plan_id":"cebpf4jnsgd1na2vs0mg"},{"bike_id":"e758b01b-ca98-467a-bdcc-b51ccfc96ed6","system_id":"levelo_inurba_marseille","lat":43.33736,"lon":5.37423,"is_reserved":false,"is_disabled":false,"rental_uris":{"android":"levelo://app?vid=e758b01b-ca98-467a-bdcc-b51ccfc96ed6","ios":"levelo://app?vid=e758b01b-ca98-467a-bdcc-b51ccfc96ed6"},"vehicle_type_id":"4","last_reported":1758701628,"current_range_meters":16800,"station_id":"","pricing_plan_id":"cebpf4jnsgd1na2vs0mg"},{"bike_id":"6e333c64-cd57-4f22-9a64-70ab259f5a5b","system_id":"levelo_inurba_marseille","lat":43.29272,"lon":5.36849,"is_reserved":false,"is_disabled":false,"rental_uris":{"android":"levelo://app?vid=6e333c64-cd57-4f22-9a64-70ab259f5a5b","ios":"levelo://app?vid=6e333c64-cd57-4f22-9a64-70ab259f5a5b"},"vehicle_type_id":"4","last_reported":1758701628,"current_range_meters":16800,"station_id":"ce4bhbp2rcd13ifvqesg","pricing_plan_id":"cebpf4jnsgd1na2vs0mg"},{"bike_id":"c7f6a08b-c655-4213-b2ba-7d02e7f382fe","system_id":"levelo_inurba_marseille","lat":43.27976,"lon":5.39468,"is_reserved":false,"is_disabled":false,"rental_uris":{"android":"levelo://app?vid=c7f6a08b-c655-4213-b2ba-7d02e7f382fe","ios":"levelo://app?vid=c7f6a08b-c655-4213-b2ba-7d02e7f382fe"},"vehicle_type_id":"4","last_reported":1758701628,"current_range_meters":16800,"station_id":"","pricing_plan_id":"cebpf4jnsgd1na2vs0mg"},{"bike_id":"55043fb7-0957-4299-af2e-bd2e83515f00","system_id":"levelo_inurba_marseille","lat":43.29775,"lon":5.38126,"is_reserved":false,"is_disabled":false,"rental_uris":{"android":"levelo://app?vid=55043fb7-0957-4299-af2e-bd2e83515f00","ios":"levelo://app?vid=55043fb7-0957-4299-af2e-bd2e83515f00"},"vehicle_type_id":"4","last_reported":1758701628,"current_range_meters":16800,"station_id":"ce4bgip2rcd13ifvqbb0","pricing_plan_id":"cebpf4jnsgd1na2vs0mg"},{"bike_id":"5fb726be-412e-4b65-b587-9d991ba40c42","system_id":"levelo_inurba_marseille","lat":43.21193,"lon":5.35074,"is_reserved":false,"is_disabled":false,"rental_uris":{"android":"levelo://app?vid=5fb726be-412e-4b65-b587-9d991ba40c42","ios":"levelo://app?vid=5fb726be-412e-4b65-b587-9d991ba40c42"},"vehicle_type_id":"4","last_reported":1758701628,"current_range_meters":16800,"station_id":"ce4bhi12rcd13ifvqfp0","pricing_plan_id":"cebpf4jnsgd1na2vs0mg"},{"bike_id":"0d0c93a1-14ed-4e3e-a45d-cf08d8aa0d39","system_id":"levelo_inurba_marseille","lat":43.2594,"lon":5.40903,"is_reserved":false,"is_disabled":false,"rental_uris":{"android":"levelo://app?vid=0d0c93a1-14ed-4e3e-a45d-cf08d8aa0d39","ios":"levelo://app?vid=0d0c93a1-14ed-4e3e-a45d-cf08d8aa0d39"},"vehicle_type_id":"4","last_reported":1758701628,"current_range_meters":17200,"station_id":"ce4bhm92rcd13ifvqglg","pricing_plan_id":"cebpf4jnsgd1na2vs0mg"},{"bike_id":"8c29ed20-d3eb-4ff9-b2fb-332a4c6e32f4","system_id":"levelo_inurba_marseille","lat":43.26689,"lon":5.38268,"is_reserved":false,"is_disabled":false,"rental_uris":{"android":"levelo://app?vid=8c29ed20-d3eb-4ff9-b2fb-332a4c6e32f4","ios":"levelo://app?vid=8c29ed20-d3eb-4ff9-b2fb-332a4c6e32f4"},"vehicle_type_id":"4","last_reported":1758701628,"current_range_meters":17200,"station_id":"ce4bhg92rcd13ifvqf90","pricing_plan_id":"cebpf4jnsgd1na2vs0mg"},{"bike_id":"6cb05574-f336-4856-8c1f-01fa32c73f39","system_id":"levelo_inurba_marseille","lat":43.30304,"lon":5.39217,"is_reserved":false,"is_disabled":true,"rental_uris":{"android":"levelo://app?vid=6cb05574-f336-4856-8c1f-01fa32c73f39","ios":"levelo://app?vid=6cb05574-f336-4856-8c1f-01fa32c73f39"},"vehicle_type_id":"4","last_reported":1758701628,"current_range_meters":17200,"station_id":"ce4bgkh2rcd13ifvqbk0","pricing_plan_id":"cebpf4jnsgd1na2vs0mg"},{"bike_id":"fb009b43-3f01-462f-b4c8-df9f7af2e199","system_id":"levelo_inurba_marseille","lat":43.30149,"lon":5.38077,"is_reserved":false,"is_disabled":false,"rental_uris":{"android":"levelo://app?vid=fb009b43-3f01-462f-b4c8-df9f7af2e199","ios":"levelo://app?vid=fb009b43-3f01-462f-b4c8-df9f7af2e199"},"vehicle_type_id":"4","last_reported":1758701628,"current_range_meters":17200,"station_id":"ce4bgjp2rcd13ifvqbh0","pricing_plan_id":"cebpf4jnsgd1na2vs0mg"},{"bike_id":"8eae954c-dab6-4303-94f5-569e1c483f62","system_id":"levelo_inurba_marseille","lat":43.29456,"lon":5.40755,"is_reserved":false,"is_disabled":false,"rental_uris":{"android":"levelo://app?vid=8eae954c-dab6-4303-94f5-569e1c483f62","ios":"levelo://app?vid=8eae954c-dab6-4303-94f5-569e1c483f62"},"vehicle_type_id":"4","last_reported":1758701628,"current_range_meters":17200,"station_id":"","pricing_plan_id":"cebpf4jnsgd1na2vs0mg"},{"bike_id":"452b9061-67e3-47b2-8dd9-90082f869ec5","system_id":"levelo_inurba_marseille","lat":43.21189,"lon":5.35079,"is_reserved":false,"is_disabled":false,"rental_uris":{"android":"levelo://app?vid=452b9061-67e3-47b2-8dd9-90082f869ec5","ios":"levelo://app?vid=452b9061-67e3-47b2-8dd9-90082f869ec5"},"vehicle_type_id":"4","last_reported":1758701628,"current_range_meters":17200,"station_id":"","pricing_plan_id":"cebpf4jnsgd1na2vs0mg"},{"bike_id":"0e9ca394-4351-4bf8-a641-f4e5215baf20","system_id":"levelo_inurba_marseille","lat":43.28274,"lon":5.35071,"is_reserved":false,"is_disabled":false,"rental_uris":{"android":"levelo://app?vid=0e9ca394-4351-4bf8-a641-f4e5215baf20","ios":"levelo://app?vid=0e9ca394-4351-4bf8-a641-f4e5215baf20"},"vehicle_type_id":"4","last_reported":1758701628,"current_range_meters":17200,"station_id":"ce4bhbp2rcd13ifvqerg","pricing_plan_id":"cebpf4jnsgd1na2vs0mg"},{"bike_id":"129c8450-4cca-4e9f-b9f6-538b0080ad49","system_id":"levelo_inurba_marseille","lat":43.32542,"lon":5.38944,"is_reserved":false,"is_disabled":false,"rental_uris":{"android":"levelo://app?vid=129c8450-4cca-4e9f-b9f6-538b0080ad49","ios":"levelo://app?vid=129c8450-4cca-4e9f-b9f6-538b0080ad49"},"vehicle_type_id":"4","last_reported":1758701628,"current_range_meters":17200,"station_id":"","pricing_plan_id":"cebpf4jnsgd1na2vs0mg"},{"bike_id":"16a3e31e-14e7-462a-a681-b9bd4b981754","system_id":"levelo_inurba_marseille","lat":43.30548,"lon":5.365203,"is_reserved":false,"is_disabled":false,"rental_uris":{"android":"levelo://app?vid=16a3e31e-14e7-462a-a681-b9bd4b981754","ios":"levelo://app?vid=16a3e31e-14e7-462a-a681-b9bd4b981754"},"vehicle_type_id":"4","last_reported":1758701628,"current_range_meters":17200,"station_id":"ce4bgs12rcd13ifvqcag","pricing_plan_id":"cebpf4jnsgd1na2vs0mg"},{"bike_id":"9daac5d3-61aa-4838-867b-05177cf139a4","system_id":"levelo_inurba_marseille","lat":43.22571,"lon":5.41624,"is_reserved":false,"is_disabled":false,"rental_uris":{"android":"levelo://app?vid=9daac5d3-61aa-4838-867b-05177cf139a4","ios":"levelo://app?vid=9daac5d3-61aa-4838-867b-05177cf139a4"},"vehicle_type_id":"4","last_reported":1758701628,"current_range_meters":17200,"station_id":"st_d2o4gvlbi1j2169b742g","pricing_plan_id":"cebpf4jnsgd1na2vs0mg"},{"bike_id":"a6e34ff3-eb30-431d-92d6-c50ebfd8c6a8","system_id":"levelo_inurba_marseille","lat":43.26212,"lon":5.37441,"is_reserved":false,"is_disabled":false,"rental_uris":{"android":"levelo://app?vid=a6e34ff3-eb30-431d-92d6-c50ebfd8c6a8","ios":"levelo://app?vid=a6e34ff3-eb30-431d-92d6-c50ebfd8c6a8"},"vehicle_type_id":"4","last_reported":1758701628,"current_range_meters":17600,"station_id":"ce4bhgp2rcd13ifvqfc0","pricing_plan_id":"cebpf4jnsgd1na2vs0mg"},{"bike_id":"165fcf0a-b650-4ad9-bdd4-323be1ddaa20","system_id":"levelo_inurba_marseille","lat":43.34147,"lon":5.40897,"is_reserved":false,"is_disabled":false,"rental_uris":{"android":"levelo://app?vid=165fcf0a-b650-4ad9-bdd4-323be1ddaa20","ios":"levelo://app?vid=165fcf0a-b650-4ad9-bdd4-323be1ddaa20"},"vehicle_type_id":"4","last_reported":1758701628,"current_range_meters":17600,"station_id":"ce4bhqh2rcd13ifvqhlg","pricing_plan_id":"cebpf4jnsgd1na2vs0mg"},{"bike_id":"b1526fed-1ee9-42ee-b38f-a0552451c74c","system_id":"levelo_inurba_marseille","lat":43.30268,"lon":5.37709,"is_reserved":false,"is_disabled":false,"rental_uris":{"android":"levelo://app?vid=b1526fed-1ee9-42ee-b38f-a0552451c74c","ios":"levelo://app?vid=b1526fed-1ee9-42ee-b38f-a0552451c74c"},"vehicle_type_id":"4","last_reported":1758701628,"current_range_meters":17600,"station_id":"ce4bguh2rcd13ifvqcj0","pricing_plan_id":"cebpf4jnsgd1na2vs0mg"},{"bike_id":"bed7bcf4-39ca-4610-8d64-a50e40de1738","system_id":"levelo_inurba_marseille","lat":43.283492,"lon":5.381018,"is_reserved":false,"is_disabled":false,"rental_uris":{"android":"levelo://app?vid=bed7bcf4-39ca-4610-8d64-a50e40de1738","ios":"levelo://app?vid=bed7bcf4-39ca-4610-8d64-a50e40de1738"},"vehicle_type_id":"4","last_reported":1758701628,"current_range_meters":18000,"station_id":"ce4bh412rcd13ifvqdr0","pricing_plan_id":"cebpf4jnsgd1na2vs0mg"},{"bike_id":"67e63637-48d5-4c5a-be76-c75a56ece116","system_id":"levelo_inurba_marseille","lat":43.26683,"lon":5.38255,"is_reserved":false,"is_disabled":false,"rental_uris":{"android":"levelo://app?vid=67e63637-48d5-4c5a-be76-c75a56ece116","ios":"levelo://app?vid=67e63637-48d5-4c5a-be76-c75a56ece116"},"vehicle_type_id":"4","last_reported":1758701628,"current_range_meters":18000,"station_id":"ce4bhg92rcd13ifvqf90","pricing_plan_id":"cebpf4jnsgd1na2vs0mg"},{"bike_id":"8a828295-28e2-4f47-bc01-1374c80f32a1","system_id":"levelo_inurba_marseille","lat":43.23964,"lon":5.36635,"is_reserved":false,"is_disabled":false,"rental_uris":{"android":"levelo://app?vid=8a828295-28e2-4f47-bc01-1374c80f32a1","ios":"levelo://app?vid=8a828295-28e2-4f47-bc01-1374c80f32a1"},"vehicle_type_id":"4","last_reported":1758701628,"current_range_meters":18000,"station_id":"ce4bhi12rcd13ifvqfp0","pricing_plan_id":"cebpf4jnsgd1na2vs0mg"},{"bike_id":"6e28c473-43c7-4359-9768-11e494b67b04","system_id":"levelo_inurba_marseille","lat":43.27066,"lon":5.42287,"is_reserved":false,"is_disabled":false,"rental_uris":{"android":"levelo://app?vid=6e28c473-43c7-4359-9768-11e494b67b04","ios":"levelo://app?vid=6e28c473-43c7-4359-9768-11e494b67b04"},"vehicle_type_id":"4","last_reported":1758701628,"current_range_meters":18000,"station_id":"ce4bhk92rcd13ifvqgb0","pricing_plan_id":"cebpf4jnsgd1na2vs0mg"},{"bike_id":"cdd9250b-20c0-48e2-b45b-56204b8135aa","system_id":"levelo_inurba_marseille","lat":43.30279,"lon":5.37684,"is_reserved":false,"is_disabled":false,"rental_uris":{"android":"levelo://app?vid=cdd9250b-20c0-48e2-b45b-56204b8135aa","ios":"levelo://app?vid=cdd9250b-20c0-48e2-b45b-56204b8135aa"},"vehicle_type_id":"4","last_reported":1758701628,"current_range_meters":18000,"station_id":"ce4bguh2rcd13ifvqcj0","pricing_plan_id":"cebpf4jnsgd1na2vs0mg"},{"bike_id":"2bd2a176-8590-4e06-8b8c-a96b49b7b36a","system_id":"levelo_inurba_marseille","lat":43.262237,"lon":5.404538,"is_reserved":false,"is_disabled":false,"rental_uris":{"android":"levelo://app?vid=2bd2a176-8590-4e06-8b8c-a96b49b7b36a","ios":"levelo://app?vid=2bd2a176-8590-4e06-8b8c-a96b49b7b36a"},"vehicle_type_id":"4","last_reported":1758701628,"current_range_meters":18000,"station_id":"","pricing_plan_id":"cebpf4jnsgd1na2vs0mg"},{"bike_id":"6ce97256-6e29-4ee4-b817-ac92bdd5aea1","system_id":"levelo_inurba_marseille","lat":43.22534,"lon":5.34835,"is_reserved":false,"is_disabled":false,"rental_uris":{"android":"levelo://app?vid=6ce97256-6e29-4ee4-b817-ac92bdd5aea1","ios":"levelo://app?vid=6ce97256-6e29-4ee4-b817-ac92bdd5aea1"},"vehicle_type_id":"4","last_reported":1758701628,"current_range_meters":18000,"station_id":"","pricing_plan_id":"cebpf4jnsgd1na2vs0mg"},{"bike_id":"16d9a464-95f6-4241-939a-8d28eb548d4d","system_id":"levelo_inurba_marseille","lat":43.286139,"lon":5.350997,"is_reserved":false,"is_disabled":true,"rental_uris":{"android":"levelo://app?vid=16d9a464-95f6-4241-939a-8d28eb548d4d","ios":"levelo://app?vid=16d9a464-95f6-4241-939a-8d28eb548d4d"},"vehicle_type_id":"4","last_reported":1758701628,"current_range_meters":18000,"station_id":"ce4bhch2rcd13ifvqeug","pricing_plan_id":"cebpf4jnsgd1na2vs0mg"},{"bike_id":"4b84934a-be5c-42f8-a460-9492da2a37a0","system_id":"levelo_inurba_marseille","lat":43.27308,"lon":5.39122,"is_reserved":false,"is_disabled":false,"rental_uris":{"android":"levelo://app?vid=4b84934a-be5c-42f8-a460-9492da2a37a0","ios":"levelo://app?vid=4b84934a-be5c-42f8-a460-9492da2a37a0"},"vehicle_type_id":"4","last_reported":1758701628,"current_range_meters":18000,"station_id":"ce4bhgp2rcd13ifvqfe0","pricing_plan_id":"cebpf4jnsgd1na2vs0mg"},{"bike_id":"a6ad0c6c-868d-42f3-ba54-573e1a175a36","system_id":"levelo_inurba_marseille","lat":43.26255,"lon":5.41301,"is_reserved":false,"is_disabled":false,"rental_uris":{"android":"levelo://app?vid=a6ad0c6c-868d-42f3-ba54-573e1a175a36","ios":"levelo://app?vid=a6ad0c6c-868d-42f3-ba54-573e1a175a36"},"vehicle_type_id":"4","last_reported":1758701628,"current_range_meters":18000,"station_id":"","pricing_plan_id":"cebpf4jnsgd1na2vs0mg"},{"bike_id":"003515e8-8117-44bb-979d-5f47e8d50fda","system_id":"levelo_inurba_marseille","lat":43.30622,"lon":5.37571,"is_reserved":false,"is_disabled":false,"rental_uris":{"android":"levelo://app?vid=003515e8-8117-44bb-979d-5f47e8d50fda","ios":"levelo://app?vid=003515e8-8117-44bb-979d-5f47e8d50fda"},"vehicle_type_id":"4","last_reported":1758701628,"current_range_meters":18800,"station_id":"","pricing_plan_id":"cebpf4jnsgd1na2vs0mg"},{"bike_id":"aa15ea6c-dcc6-4259-98b3-fa939764aacd","system_id":"levelo_inurba_marseille","lat":43.2678,"lon":5.3941,"is_reserved":false,"is_disabled":false,"rental_uris":{"android":"levelo://app?vid=aa15ea6c-dcc6-4259-98b3-fa939764aacd","ios":"levelo://app?vid=aa15ea6c-dcc6-4259-98b3-fa939764aacd"},"vehicle_type_id":"4","last_reported":1758701628,"current_range_meters":18800,"station_id":"ce4bhh12rcd13ifvqfg0","pricing_plan_id":"cebpf4jnsgd1na2vs0mg"},{"bike_id":"9b8594a3-99e1-4726-bdfc-f0facee3c557","system_id":"levelo_inurba_marseille","lat":43.30915,"lon":5.3685,"is_reserved":false,"is_disabled":false,"rental_uris":{"android":"levelo://app?vid=9b8594a3-99e1-4726-bdfc-f0facee3c557","ios":"levelo://app?vid=9b8594a3-99e1-4726-bdfc-f0facee3c557"},"vehicle_type_id":"4","last_reported":1758701628,"current_range_meters":18800,"station_id":"ce4bgn92rcd13ifvqbvg","pricing_plan_id":"cebpf4jnsgd1na2vs0mg"},{"bike_id":"a25b12c3-337f-4835-a9ae-b042ddb7b42d","system_id":"levelo_inurba_marseille","lat":43.24387,"lon":5.370592,"is_reserved":false,"is_disabled":false,"rental_uris":{"android":"levelo://app?vid=a25b12c3-337f-4835-a9ae-b042ddb7b42d","ios":"levelo://app?vid=a25b12c3-337f-4835-a9ae-b042ddb7b42d"},"vehicle_type_id":"4","last_reported":1758701628,"current_range_meters":18800,"station_id":"ce4bhhh2rcd13ifvqfk0","pricing_plan_id":"cebpf4jnsgd1na2vs0mg"},{"bike_id":"ff898cc4-e357-4e75-a6cb-dc3f7c91f054","system_id":"levelo_inurba_marseille","lat":43.21743,"lon":5.34614,"is_reserved":false,"is_disabled":true,"rental_uris":{"android":"levelo://app?vid=ff898cc4-e357-4e75-a6cb-dc3f7c91f054","ios":"levelo://app?vid=ff898cc4-e357-4e75-a6cb-dc3f7c91f054"},"vehicle_type_id":"4","last_reported":1758701628,"current_range_meters":18800,"station_id":"st_cvj6r9ubvosntc0bgbag","pricing_plan_id":"cebpf4jnsgd1na2vs0mg"},{"bike_id":"cbffa1ac-98d6-4cc2-87a0-04642a871cda","system_id":"levelo_inurba_marseille","lat":43.30136,"lon":5.37426,"is_reserved":false,"is_disabled":false,"rental_uris":{"android":"levelo://app?vid=cbffa1ac-98d6-4cc2-87a0-04642a871cda","ios":"levelo://app?vid=cbffa1ac-98d6-4cc2-87a0-04642a871cda"},"vehicle_type_id":"4","last_reported":1758701628,"current_range_meters":18800,"station_id":"ce4bgs92rcd13ifvqcc0","pricing_plan_id":"cebpf4jnsgd1na2vs0mg"},{"bike_id":"54c36a04-b54d-444b-a74c-0b16d14cba7a","system_id":"levelo_inurba_marseille","lat":43.30276,"lon":5.37426,"is_reserved":false,"is_disabled":true,"rental_uris":{"android":"levelo://app?vid=54c36a04-b54d-444b-a74c-0b16d14cba7a","ios":"levelo://app?vid=54c36a04-b54d-444b-a74c-0b16d14cba7a"},"vehicle_type_id":"4","last_reported":1758701628,"current_range_meters":18800,"station_id":"","pricing_plan_id":"cebpf4jnsgd1na2vs0mg"},{"bike_id":"b906b83d-796b-4739-b977-75758ab4985c","system_id":"levelo_inurba_marseille","lat":43.26552,"lon":5.37282,"is_reserved":false,"is_disabled":false,"rental_uris":{"android":"levelo://app?vid=b906b83d-796b-4739-b977-75758ab4985c","ios":"levelo://app?vid=b906b83d-796b-4739-b977-75758ab4985c"},"vehicle_type_id":"4","last_reported":1758701628,"current_range_meters":18800,"station_id":"ce4bhg12rcd13ifvqf70","pricing_plan_id":"cebpf4jnsgd1na2vs0mg"},{"bike_id":"7f79a55b-a52c-47a5-9005-976488ac4b56","system_id":"levelo_inurba_marseille","lat":43.26789,"lon":5.39405,"is_reserved":false,"is_disabled":false,"rental_uris":{"android":"levelo://app?vid=7f79a55b-a52c-47a5-9005-976488ac4b56","ios":"levelo://app?vid=7f79a55b-a52c-47a5-9005-976488ac4b56"},"vehicle_type_id":"4","last_reported":1758701628,"current_range_meters":19200,"station_id":"ce4bhh12rcd13ifvqfg0","pricing_plan_id":"cebpf4jnsgd1na2vs0mg"},{"bike_id":"429b97eb-f7cc-4d35-b219-e8e26e3f47e0","system_id":"levelo_inurba_marseille","lat":43.25913,"lon":5.40904,"is_reserved":false,"is_disabled":false,"rental_uris":{"android":"levelo://app?vid=429b97eb-f7cc-4d35-b219-e8e26e3f47e0","ios":"levelo://app?vid=429b97eb-f7cc-4d35-b219-e8e26e3f47e0"},"vehicle_type_id":"4","last_reported":1758701628,"current_range_meters":19200,"station_id":"ce4bhm92rcd13ifvqglg","pricing_plan_id":"cebpf4jnsgd1na2vs0mg"},{"bike_id":"5b2e4301-8a04-44b6-bb74-5f97ee4e1633","system_id":"levelo_inurba_marseille","lat":43.25941,"lon":5.40897,"is_reserved":false,"is_disabled":false,"rental_uris":{"android":"levelo://app?vid=5b2e4301-8a04-44b6-bb74-5f97ee4e1633","ios":"levelo://app?vid=5b2e4301-8a04-44b6-bb74-5f97ee4e1633"},"vehicle_type_id":"4","last_reported":1758701628,"current_range_meters":19200,"station_id":"ce4bhm92rcd13ifvqglg","pricing_plan_id":"cebpf4jnsgd1na2vs0mg"},{"bike_id":"e8e0a80f-25dc-47ab-ae8b-3cbce8fbad61","system_id":"levelo_inurba_marseille","lat":43.24174,"lon":5.397182,"is_reserved":false,"is_disabled":false,"rental_uris":{"android":"levelo://app?vid=e8e0a80f-25dc-47ab-ae8b-3cbce8fbad61","ios":"levelo://app?vid=e8e0a80f-25dc-47ab-ae8b-3cbce8fbad61"},"vehicle_type_id":"4","last_reported":1758701628,"current_range_meters":19200,"station_id":"ce4bhn12rcd13ifvqgpg","pricing_plan_id":"cebpf4jnsgd1na2vs0mg"},{"bike_id":"1b2be77f-ea8c-4b25-b9e0-134c4220d9b9","system_id":"levelo_inurba_marseille","lat":43.26056,"lon":5.39402,"is_reserved":false,"is_disabled":false,"rental_uris":{"android":"levelo://app?vid=1b2be77f-ea8c-4b25-b9e0-134c4220d9b9","ios":"levelo://app?vid=1b2be77f-ea8c-4b25-b9e0-134c4220d9b9"},"vehicle_type_id":"4","last_reported":1758701628,"current_range_meters":19200,"station_id":"ce4bhh92rcd13ifvqfj0","pricing_plan_id":"cebpf4jnsgd1na2vs0mg"},{"bike_id":"c5e35d50-1334-4251-9e23-b568a1a449ad","system_id":"levelo_inurba_marseille","lat":43.30285,"lon":5.37702,"is_reserved":false,"is_disabled":false,"rental_uris":{"android":"levelo://app?vid=c5e35d50-1334-4251-9e23-b568a1a449ad","ios":"levelo://app?vid=c5e35d50-1334-4251-9e23-b568a1a449ad"},"vehicle_type_id":"4","last_reported":1758701628,"current_range_meters":19200,"station_id":"ce4bguh2rcd13ifvqcj0","pricing_plan_id":"cebpf4jnsgd1na2vs0mg"},{"bike_id":"942c48de-c56c-48fe-85de-fbd6e81eab59","system_id":"levelo_inurba_marseille","lat":43.28717,"lon":5.37924,"is_reserved":false,"is_disabled":false,"rental_uris":{"android":"levelo://app?vid=942c48de-c56c-48fe-85de-fbd6e81eab59","ios":"levelo://app?vid=942c48de-c56c-48fe-85de-fbd6e81eab59"},"vehicle_type_id":"4","last_reported":1758701628,"current_range_meters":19200,"station_id":"ce4bh9p2rcd13ifvqec0","pricing_plan_id":"cebpf4jnsgd1na2vs0mg"},{"bike_id":"dd46f0fc-41a4-484e-8bad-7d537dbffb11","system_id":"levelo_inurba_marseille","lat":43.32488,"lon":5.36572,"is_reserved":false,"is_disabled":false,"rental_uris":{"android":"levelo://app?vid=dd46f0fc-41a4-484e-8bad-7d537dbffb11","ios":"levelo://app?vid=dd46f0fc-41a4-484e-8bad-7d537dbffb11"},"vehicle_type_id":"4","last_reported":1758701628,"current_range_meters":19200,"station_id":"ce4bhs12rcd13ifvqhvg","pricing_plan_id":"cebpf4jnsgd1na2vs0mg"},{"bike_id":"327c041e-5c9e-4b0d-a97c-a2dbaab036ae","system_id":"levelo_inurba_marseille","lat":43.32798,"lon":5.41112,"is_reserved":false,"is_disabled":false,"rental_uris":{"android":"levelo://app?vid=327c041e-5c9e-4b0d-a97c-a2dbaab036ae","ios":"levelo://app?vid=327c041e-5c9e-4b0d-a97c-a2dbaab036ae"},"vehicle_type_id":"4","last_reported":1758701628,"current_range_meters":19600,"station_id":"","pricing_plan_id":"cebpf4jnsgd1na2vs0mg"},{"bike_id":"53812b58-9ac3-431d-9ae0-cf5a2600f457","system_id":"levelo_inurba_marseille","lat":43.27487,"lon":5.42501,"is_reserved":false,"is_disabled":false,"rental_uris":{"android":"levelo://app?vid=53812b58-9ac3-431d-9ae0-cf5a2600f457","ios":"levelo://app?vid=53812b58-9ac3-431d-9ae0-cf5a2600f457"},"vehicle_type_id":"4","last_reported":1758701628,"current_range_meters":19600,"station_id":"ce4bhn92rcd13ifvqgrg","pricing_plan_id":"cebpf4jnsgd1na2vs0mg"},{"bike_id":"d087f77a-406c-4d5a-be43-4950dac65ee4","system_id":"levelo_inurba_marseille","lat":43.24387,"lon":5.37064,"is_reserved":false,"is_disabled":false,"rental_uris":{"android":"levelo://app?vid=d087f77a-406c-4d5a-be43-4950dac65ee4","ios":"levelo://app?vid=d087f77a-406c-4d5a-be43-4950dac65ee4"},"vehicle_type_id":"4","last_reported":1758701628,"current_range_meters":19600,"station_id":"ce4bhhh2rcd13ifvqfk0","pricing_plan_id":"cebpf4jnsgd1na2vs0mg"},{"bike_id":"b2953d3c-1961-4bcc-9df7-b9ce6d3450b4","system_id":"levelo_inurba_marseille","lat":43.29355,"lon":5.37839,"is_reserved":false,"is_disabled":false,"rental_uris":{"android":"levelo://app?vid=b2953d3c-1961-4bcc-9df7-b9ce6d3450b4","ios":"levelo://app?vid=b2953d3c-1961-4bcc-9df7-b9ce6d3450b4"},"vehicle_type_id":"4","last_reported":1758701628,"current_range_meters":19600,"station_id":"ce4bgjh2rcd13ifvqbf0","pricing_plan_id":"cebpf4jnsgd1na2vs0mg"},{"bike_id":"b33afcb9-323b-4b25-b34a-d7ff770bee10","system_id":"levelo_inurba_marseille","lat":43.25927,"lon":5.40903,"is_reserved":false,"is_disabled":false,"rental_uris":{"android":"levelo://app?vid=b33afcb9-323b-4b25-b34a-d7ff770bee10","ios":"levelo://app?vid=b33afcb9-323b-4b25-b34a-d7ff770bee10"},"vehicle_type_id":"4","last_reported":1758701628,"current_range_meters":19600,"station_id":"ce4bhm92rcd13ifvqglg","pricing_plan_id":"cebpf4jnsgd1na2vs0mg"},{"bike_id":"2b644e71-e910-47c3-bc22-6ae07a295fb4","system_id":"levelo_inurba_marseille","lat":43.292603,"lon":5.376415,"is_reserved":false,"is_disabled":false,"rental_uris":{"android":"levelo://app?vid=2b644e71-e910-47c3-bc22-6ae07a295fb4","ios":"levelo://app?vid=2b644e71-e910-47c3-bc22-6ae07a295fb4"},"vehicle_type_id":"4","last_reported":1758701628,"current_range_meters":19600,"station_id":"ce4bgi12rcd13ifvqb80","pricing_plan_id":"cebpf4jnsgd1na2vs0mg"},{"bike_id":"a18e322d-fd1b-4845-af86-bddb5255e783","system_id":"levelo_inurba_marseille","lat":43.32551,"lon":5.41392,"is_reserved":false,"is_disabled":false,"rental_uris":{"android":"levelo://app?vid=a18e322d-fd1b-4845-af86-bddb5255e783","ios":"levelo://app?vid=a18e322d-fd1b-4845-af86-bddb5255e783"},"vehicle_type_id":"4","last_reported":1758701628,"current_range_meters":19600,"station_id":"ce4bhq12rcd13ifvqhhg","pricing_plan_id":"cebpf4jnsgd1na2vs0mg"},{"bike_id":"9ad67f25-172f-4562-8f8e-dcc023c41300","system_id":"levelo_inurba_marseille","lat":43.3094,"lon":5.39056,"is_reserved":false,"is_disabled":false,"rental_uris":{"android":"levelo://app?vid=9ad67f25-172f-4562-8f8e-dcc023c41300","ios":"levelo://app?vid=9ad67f25-172f-4562-8f8e-dcc023c41300"},"vehicle_type_id":"4","last_reported":1758701628,"current_range_meters":19600,"station_id":"ce4bgup2rcd13ifvqco0","pricing_plan_id":"cebpf4jnsgd1na2vs0mg"},{"bike_id":"3ab51c63-3635-4439-9b9f-7ba5f66e8858","system_id":"levelo_inurba_marseille","lat":43.27205,"lon":5.39191,"is_reserved":false,"is_disabled":false,"rental_uris":{"android":"levelo://app?vid=3ab51c63-3635-4439-9b9f-7ba5f66e8858","ios":"levelo://app?vid=3ab51c63-3635-4439-9b9f-7ba5f66e8858"},"vehicle_type_id":"4","last_reported":1758701628,"current_range_meters":19200,"station_id":"ce4bhhp2rcd13ifvqfm0","pricing_plan_id":"cebpf4jnsgd1na2vs0mg"},{"bike_id":"28c88dbd-9da7-4de2-8d6f-292480000a32","system_id":"levelo_inurba_marseille","lat":43.31069,"lon":5.3835,"is_reserved":false,"is_disabled":true,"rental_uris":{"android":"levelo://app?vid=28c88dbd-9da7-4de2-8d6f-292480000a32","ios":"levelo://app?vid=28c88dbd-9da7-4de2-8d6f-292480000a32"},"vehicle_type_id":"4","last_reported":1758701628,"current_range_meters":20000,"station_id":"ce4bgv92rcd13ifvqcr0","pricing_plan_id":"cebpf4jnsgd1na2vs0mg"},{"bike_id":"6803ca3c-a64e-44c1-bb73-852abd0a4df3","system_id":"levelo_inurba_marseille","lat":43.26679,"lon":5.38276,"is_reserved":false,"is_disabled":false,"rental_uris":{"android":"levelo://app?vid=6803ca3c-a64e-44c1-bb73-852abd0a4df3","ios":"levelo://app?vid=6803ca3c-a64e-44c1-bb73-852abd0a4df3"},"vehicle_type_id":"4","last_reported":1758701628,"current_range_meters":19600,"station_id":"ce4bhg92rcd13ifvqf90","pricing_plan_id":"cebpf4jnsgd1na2vs0mg"},{"bike_id":"1df49bbf-3961-4fe5-b358-8ab4ccaa4d93","system_id":"levelo_inurba_marseille","lat":43.27653,"lon":5.38871,"is_reserved":false,"is_disabled":false,"rental_uris":{"android":"levelo://app?vid=1df49bbf-3961-4fe5-b358-8ab4ccaa4d93","ios":"levelo://app?vid=1df49bbf-3961-4fe5-b358-8ab4ccaa4d93"},"vehicle_type_id":"4","last_reported":1758701628,"current_range_meters":19600,"station_id":"ce4bhi12rcd13ifvqfo0","pricing_plan_id":"cebpf4jnsgd1na2vs0mg"},{"bike_id":"069f627d-5744-4b66-999c-aac1acd75827","system_id":"levelo_inurba_marseille","lat":43.30536,"lon":5.36541,"is_reserved":false,"is_disabled":false,"rental_uris":{"android":"levelo://app?vid=069f627d-5744-4b66-999c-aac1acd75827","ios":"levelo://app?vid=069f627d-5744-4b66-999c-aac1acd75827"},"vehicle_type_id":"4","last_reported":1758701628,"current_range_meters":19600,"station_id":"ce4bgs12rcd13ifvqcag","pricing_plan_id":"cebpf4jnsgd1na2vs0mg"},{"bike_id":"d4b33841-be4c-4864-91b8-475aaf9a7f71","system_id":"levelo_inurba_marseille","lat":43.26688,"lon":5.38257,"is_reserved":false,"is_disabled":false,"rental_uris":{"android":"levelo://app?vid=d4b33841-be4c-4864-91b8-475aaf9a7f71","ios":"levelo://app?vid=d4b33841-be4c-4864-91b8-475aaf9a7f71"},"vehicle_type_id":"4","last_reported":1758701628,"current_range_meters":19600,"station_id":"ce4bhg92rcd13ifvqf90","pricing_plan_id":"cebpf4jnsgd1na2vs0mg"},{"bike_id":"028b7ed6-f3f9-4174-b7c6-25b8c3a9d163","system_id":"levelo_inurba_marseille","lat":43.24185,"lon":5.39723,"is_reserved":false,"is_disabled":false,"rental_uris":{"android":"levelo://app?vid=028b7ed6-f3f9-4174-b7c6-25b8c3a9d163","ios":"levelo://app?vid=028b7ed6-f3f9-4174-b7c6-25b8c3a9d163"},"vehicle_type_id":"4","last_reported":1758701628,"current_range_meters":19600,"station_id":"ce4bhn12rcd13ifvqgpg","pricing_plan_id":"cebpf4jnsgd1na2vs0mg"},{"bike_id":"9e85b6e2-b5d5-4bc4-ad07-84105817ab79","system_id":"levelo_inurba_marseille","lat":43.25334,"lon":5.42177,"is_reserved":false,"is_disabled":false,"rental_uris":{"android":"levelo://app?vid=9e85b6e2-b5d5-4bc4-ad07-84105817ab79","ios":"levelo://app?vid=9e85b6e2-b5d5-4bc4-ad07-84105817ab79"},"vehicle_type_id":"4","last_reported":1758701628,"current_range_meters":20000,"station_id":"st_d2m65c5bi1j21697t3ng","pricing_plan_id":"cebpf4jnsgd1na2vs0mg"},{"bike_id":"175760d5-253d-4692-91bd-1ac0c3f225e0","system_id":"levelo_inurba_marseille","lat":43.30888,"lon":5.39638,"is_reserved":false,"is_disabled":false,"rental_uris":{"android":"levelo://app?vid=175760d5-253d-4692-91bd-1ac0c3f225e0","ios":"levelo://app?vid=175760d5-253d-4692-91bd-1ac0c3f225e0"},"vehicle_type_id":"4","last_reported":1758701628,"current_range_meters":20000,"station_id":"ce4bh012rcd13ifvqcv0","pricing_plan_id":"cebpf4jnsgd1na2vs0mg"},{"bike_id":"17d72311-2f67-4a8e-81ee-d4cc7df27eed","system_id":"levelo_inurba_marseille","lat":43.28939,"lon":5.3664,"is_reserved":false,"is_disabled":false,"rental_uris":{"android":"levelo://app?vid=17d72311-2f67-4a8e-81ee-d4cc7df27eed","ios":"levelo://app?vid=17d72311-2f67-4a8e-81ee-d4cc7df27eed"},"vehicle_type_id":"4","last_reported":1758701628,"current_range_meters":20000,"station_id":"ce4bhap2rcd13ifvqek0","pricing_plan_id":"cebpf4jnsgd1na2vs0mg"},{"bike_id":"4e5369d9-d9b4-43bb-8951-69c1e73e3442","system_id":"levelo_inurba_marseille","lat":43.31347,"lon":5.38461,"is_reserved":false,"is_disabled":false,"rental_uris":{"android":"levelo://app?vid=4e5369d9-d9b4-43bb-8951-69c1e73e3442","ios":"levelo://app?vid=4e5369d9-d9b4-43bb-8951-69c1e73e3442"},"vehicle_type_id":"4","last_reported":1758701628,"current_range_meters":20000,"station_id":"ce4bgt92rcd13ifvqcf0","pricing_plan_id":"cebpf4jnsgd1na2vs0mg"},{"bike_id":"d7291183-dc83-473b-8c7c-d50495d20db0","system_id":"levelo_inurba_marseille","lat":43.29804,"lon":5.3817,"is_reserved":false,"is_disabled":true,"rental_uris":{"android":"levelo://app?vid=d7291183-dc83-473b-8c7c-d50495d20db0","ios":"levelo://app?vid=d7291183-dc83-473b-8c7c-d50495d20db0"},"vehicle_type_id":"4","last_reported":1758701628,"current_range_meters":20000,"station_id":"","pricing_plan_id":"cebpf4jnsgd1na2vs0mg"},{"bike_id":"de7aeffc-afdb-4b62-83cc-44186676ec68","system_id":"levelo_inurba_marseille","lat":43.28355,"lon":5.38104,"is_reserved":false,"is_disabled":false,"rental_uris":{"android":"levelo://app?vid=de7aeffc-afdb-4b62-83cc-44186676ec68","ios":"levelo://app?vid=de7aeffc-afdb-4b62-83cc-44186676ec68"},"vehicle_type_id":"4","last_reported":1758701628,"current_range_meters":20000,"station_id":"ce4bh412rcd13ifvqdr0","pricing_plan_id":"cebpf4jnsgd1na2vs0mg"},{"bike_id":"5f63e484-f816-49a1-af39-fe076067eee2","system_id":"levelo_inurba_marseille","lat":43.30131,"lon":5.37415,"is_reserved":false,"is_disabled":false,"rental_uris":{"android":"levelo://app?vid=5f63e484-f816-49a1-af39-fe076067eee2","ios":"levelo://app?vid=5f63e484-f816-49a1-af39-fe076067eee2"},"vehicle_type_id":"4","last_reported":1758701628,"current_range_meters":20000,"station_id":"ce4bgs92rcd13ifvqcc0","pricing_plan_id":"cebpf4jnsgd1na2vs0mg"},{"bike_id":"1c6c7dff-d51e-4682-af68-70dac21111a1","system_id":"levelo_inurba_marseille","lat":43.28434,"lon":5.39193,"is_reserved":false,"is_disabled":false,"rental_uris":{"android":"levelo://app?vid=1c6c7dff-d51e-4682-af68-70dac21111a1","ios":"levelo://app?vid=1c6c7dff-d51e-4682-af68-70dac21111a1"},"vehicle_type_id":"4","last_reported":1758701628,"current_range_meters":20000,"station_id":"ce4bhoh2rcd13ifvqh5g","pricing_plan_id":"cebpf4jnsgd1na2vs0mg"},{"bike_id":"d31d856a-933d-49cf-948f-ce03657dfc74","system_id":"levelo_inurba_marseille","lat":43.284194,"lon":5.349759,"is_reserved":false,"is_disabled":false,"rental_uris":{"android":"levelo://app?vid=d31d856a-933d-49cf-948f-ce03657dfc74","ios":"levelo://app?vid=d31d856a-933d-49cf-948f-ce03657dfc74"},"vehicle_type_id":"4","last_reported":1758701628,"current_range_meters":20000,"station_id":"ce4bhbh2rcd13ifvqepg","pricing_plan_id":"cebpf4jnsgd1na2vs0mg"},{"bike_id":"21e43a77-c757-4773-8b05-956702f92169","system_id":"levelo_inurba_marseille","lat":43.26703,"lon":5.38147,"is_reserved":false,"is_disabled":false,"rental_uris":{"android":"levelo://app?vid=21e43a77-c757-4773-8b05-956702f92169","ios":"levelo://app?vid=21e43a77-c757-4773-8b05-956702f92169"},"vehicle_type_id":"4","last_reported":1758701628,"current_range_meters":20000,"station_id":"","pricing_plan_id":"cebpf4jnsgd1na2vs0mg"},{"bike_id":"344f590f-c240-4165-9441-6ca9ff3a0e6f","system_id":"levelo_inurba_marseille","lat":43.30544,"lon":5.36709,"is_reserved":false,"is_disabled":false,"rental_uris":{"android":"levelo://app?vid=344f590f-c240-4165-9441-6ca9ff3a0e6f","ios":"levelo://app?vid=344f590f-c240-4165-9441-6ca9ff3a0e6f"},"vehicle_type_id":"4","last_reported":1758701628,"current_range_meters":20400,"station_id":"ce4bgrp2rcd13ifvqc9g","pricing_plan_id":"cebpf4jnsgd1na2vs0mg"},{"bike_id":"d55f7cff-ce18-4107-992e-8cb8fb12b05f","system_id":"levelo_inurba_marseille","lat":43.23168,"lon":5.35591,"is_reserved":false,"is_disabled":false,"rental_uris":{"android":"levelo://app?vid=d55f7cff-ce18-4107-992e-8cb8fb12b05f","ios":"levelo://app?vid=d55f7cff-ce18-4107-992e-8cb8fb12b05f"},"vehicle_type_id":"4","last_reported":1758701628,"current_range_meters":20400,"station_id":"ce4bhu92rcd13ifvqi70","pricing_plan_id":"cebpf4jnsgd1na2vs0mg"},{"bike_id":"725b1ff1-3894-44f1-a38e-91bc39cbab7e","system_id":"levelo_inurba_marseille","lat":43.24635,"lon":5.43145,"is_reserved":false,"is_disabled":false,"rental_uris":{"android":"levelo://app?vid=725b1ff1-3894-44f1-a38e-91bc39cbab7e","ios":"levelo://app?vid=725b1ff1-3894-44f1-a38e-91bc39cbab7e"},"vehicle_type_id":"4","last_reported":1758701628,"current_range_meters":20400,"station_id":"st_d2m6c4gdas8pm72e190g","pricing_plan_id":"cebpf4jnsgd1na2vs0mg"},{"bike_id":"b2502a34-eef3-461c-876c-61ebcba97e4f","system_id":"levelo_inurba_marseille","lat":43.262014,"lon":5.379282,"is_reserved":false,"is_disabled":true,"rental_uris":{"android":"levelo://app?vid=b2502a34-eef3-461c-876c-61ebcba97e4f","ios":"levelo://app?vid=b2502a34-eef3-461c-876c-61ebcba97e4f"},"vehicle_type_id":"4","last_reported":1758701628,"current_range_meters":20400,"station_id":"","pricing_plan_id":"cebpf4jnsgd1na2vs0mg"},{"bike_id":"35f578b1-c8fb-4cae-904d-defbd257c272","system_id":"levelo_inurba_marseille","lat":43.27967,"lon":5.38742,"is_reserved":false,"is_disabled":false,"rental_uris":{"android":"levelo://app?vid=35f578b1-c8fb-4cae-904d-defbd257c272","ios":"levelo://app?vid=35f578b1-c8fb-4cae-904d-defbd257c272"},"vehicle_type_id":"4","last_reported":1758701628,"current_range_meters":20400,"station_id":"ce4bhg12rcd13ifvqf80","pricing_plan_id":"cebpf4jnsgd1na2vs0mg"},{"bike_id":"cf9b93b2-9da6-42c3-9b39-b5e9da60a2f8","system_id":"levelo_inurba_marseille","lat":43.32475,"lon":5.36573,"is_reserved":false,"is_disabled":false,"rental_uris":{"android":"levelo://app?vid=cf9b93b2-9da6-42c3-9b39-b5e9da60a2f8","ios":"levelo://app?vid=cf9b93b2-9da6-42c3-9b39-b5e9da60a2f8"},"vehicle_type_id":"4","last_reported":1758701628,"current_range_meters":20400,"station_id":"ce4bhs12rcd13ifvqhvg","pricing_plan_id":"cebpf4jnsgd1na2vs0mg"},{"bike_id":"89ab370d-5bba-4eef-aa52-d5fcaccc41fb","system_id":"levelo_inurba_marseille","lat":43.24075,"lon":5.37759,"is_reserved":false,"is_disabled":false,"rental_uris":{"android":"levelo://app?vid=89ab370d-5bba-4eef-aa52-d5fcaccc41fb","ios":"levelo://app?vid=89ab370d-5bba-4eef-aa52-d5fcaccc41fb"},"vehicle_type_id":"4","last_reported":1758701628,"current_range_meters":20800,"station_id":"ce4bhnp2rcd13ifvqgvg","pricing_plan_id":"cebpf4jnsgd1na2vs0mg"},