{"last_updated":1751289996,"ttl":60,"version":"2.2","data":{"bikes":[{"bike_id":"3da29fb8-fc97-44c6-b9ac-31dd456b2fd4","system_id":"levelo_inurba_marseille","lat":43.33771,"lon":5.37424,"is_reserved":false,"is_disabled":true,"rental_uris":{"android":"levelo://app?vid=3da29fb8-fc97-44c6-b9ac-31dd456b2fd4","ios":"levelo://app?vid=3da29fb8-fc97-44c6-b9ac-31dd456b2fd4"},"vehicle_type_id":"4","last_reported":1751289996,"current_range_meters":0,"station_id":"","pricing_plan_id":"cebpf4jnsgd1na2vs0mg"},{"bike_id":"01861ad8-a8d7-4be6-816e-651927c87584","system_id":"levelo_inurba_marseille","lat":43.33751,"lon":5.37456,"is_reserved":false,"is_disabled":true,"rental_uris":{"android":"levelo://app?vid=01861ad8-a8d7-4be6-816e-651927c87584","ios":"levelo://app?vid=01861ad8-a8d7-4be6-816e-651927c87584"},"vehicle_type_id":"4","last_reported":1751289996,"current_range_meters":0,"station_id":"","pricing_plan_id":"cebpf4jnsgd1na2vs0mg"},{"bike_id":"f1483ff6-ae8a-4286-a635-7d40887e3e92","system_id":"levelo_inurba_marseille","lat":43.2699,"lon":5.36654,"is_reserved":false,"is_disabled":true,"rental_uris":{"android":"levelo://app?vid=f1483ff6-ae8a-4286-a635-7d40887e3e92","ios":"levelo://app?vid=f1483ff6-ae8a-4286-a635-7d40887e3e92"},"vehicle_type_id":"4","last_reported":1751289996,"current_range_meters":0,"station_id":"","pricing_plan_id":"cebpf4jnsgd1na2vs0mg"},{"bike_id":"764f406e-b080-4f4e-a9e5-96f205f8e436","system_id":"levelo_inurba_marseille","lat":43.31369,"lon":5.36738,"is_reserved":false,"is_disabled":true,"rental_uris":{"android":"levelo://app?vid=764f406e-b080-4f4e-a9e5-96f205f8e436","ios":"levelo://app?vid=764f406e-b080-4f4e-a9e5-96f205f8e436"},"vehicle_type_id":"4","last_reported":1751289996,"current_range_meters":0,"station_id":"ce4bgr92rcd13ifvqc6g","pricing_plan_id":"cebpf4jnsgd1na2vs0mg"},{"bike_id":"199a17da-25f6-4810-a842-5f62525d3513","system_id":"levelo_inurba_marseille","lat":43.28267,"lon":5.35057,"is_reserved":false,"is_disabled":true,"rental_uris":{"android":"levelo://app?vid=199a17da-25f6-4810-a842-5f62525d3513","ios":"levelo://app?vid=199a17da-25f6-4810-a842-5f62525d3513"},"vehicle_type_id":"4","last_reported":1751289996,"current_range_meters":0,"station_id":"ce4bhbp2rcd13ifvqerg","pricing_plan_id":"cebpf4jnsgd1na2vs0mg"},{"bike_id":"dfd383cf-5ae8-4e3f-a61e-af80f3574d29","system_id":"levelo_inurba_marseille","lat":43.286072,"lon":5.351133,"is_reserved":false,"is_disabled":true,"rental_uris":{"android":"levelo://app?vid=dfd383cf-5ae8-4e3f-a61e-af80f3574d29","ios":"levelo://app?vid=dfd383cf-5ae8-4e3f-a61e-af80f3574d29"},"vehicle_type_id":"4","last_reported":1751289996,"current_range_meters":0,"station_id":"ce4bhch2rcd13ifvqeug","pricing_plan_id":"cebpf4jnsgd1na2vs0mg"},{"bike_id":"1694722d-e479-422d-bdba-f608058ad419","system_id":"levelo_inurba_marseille","lat":43.26575,"lon":5.39034,"is_reserved":false,"is_disabled":true,"rental_uris":{"android":"levelo://app?vid=1694722d-e479-422d-bdba-f608058ad419","ios":"levelo://app?vid=1694722d-e479-422d-bdba-f608058ad419"},"vehicle_type_id":"4","last_reported":1751289996,"current_range_meters":0,"station_id":"ce4bhe12rcd13ifvqf30","pricing_plan_id":"cebpf4jnsgd1na2vs0mg"},{"bike_id":"6d1c82d4-8882-4bd7-ae3a-fff550adc053","system_id":"levelo_inurba_marseille","lat":43.266841,"lon":5.382712,"is_reserved":false,"is_disabled":true,"rental_uris":{"android":"levelo://app?vid=6d1c82d4-8882-4bd7-ae3a-fff550adc053","ios":"levelo://app?vid=6d1c82d4-8882-4bd7-ae3a-fff550adc053"},"vehicle_type_id":"4","last_reported":1751289996,"current_range_meters":0,"station_id":"ce4bhgp2rcd13ifvqfc0","pricing_plan_id":"cebpf4jnsgd1na2vs0mg"},{"bike_id":"5688c70e-b940-4145-9e4a-e736f5d45ded","system_id":"levelo_inurba_marseille","lat":43.26259,"lon":5.40448,"is_reserved":false,"is_disabled":true,"rental_uris":{"android":"levelo://app?vid=5688c70e-b940-4145-9e4a-e736f5d45ded","ios":"levelo://app?vid=5688c70e-b940-4145-9e4a-e736f5d45ded"},"vehicle_type_id":"4","last_reported":1751289996,"current_range_meters":0,"station_id":"ce4bhmh2rcd13ifvqgmg","pricing_plan_id":"cebpf4jnsgd1na2vs0mg"},{"bike_id":"bb39be11-6860-4117-92d0-cb1a60e34edc","system_id":"levelo_inurba_marseille","lat":43.23185,"lon":5.39993,"is_reserved":false,"is_disabled":true,"rental_uris":{"android":"levelo://app?vid=bb39be11-6860-4117-92d0-cb1a60e34edc","ios":"levelo://app?vid=bb39be11-6860-4117-92d0-cb1a60e34edc"},"vehicle_type_id":"4","last_reported":1751289996,"current_range_meters":0,"station_id":"ce4bhn12rcd13ifvqgqg","pricing_plan_id":"cebpf4jnsgd1na2vs0mg"},{"bike_id":"b7d0d8a1-c5dd-4278-8b3b-f5786872fe32","system_id":"levelo_inurba_marseille","lat":43.32127,"lon":5.36734,"is_reserved":false,"is_disabled":true,"rental_uris":{"android":"levelo://app?vid=b7d0d8a1-c5dd-4278-8b3b-f5786872fe32","ios":"levelo://app?vid=b7d0d8a1-c5dd-4278-8b3b-f5786872fe32"},"vehicle_type_id":"4","last_reported":1751289996,"current_range_meters":0,"station_id":"ce4bhrh2rcd13ifvqhug","pricing_plan_id":"cebpf4jnsgd1na2vs0mg"},{"bike_id":"da05b185-b7d5-4eba-abec-e013c42f87d4","system_id":"levelo_inurba_marseille","lat":43.28462,"lon":5.35884,"is_reserved":false,"is_disabled":true,"rental_uris":{"android":"levelo://app?vid=da05b185-b7d5-4eba-abec-e013c42f87d4","ios":"levelo://app?vid=da05b185-b7d5-4eba-abec-e013c42f87d4"},"vehicle_type_id":"4","last_reported":1751289996,"current_range_meters":400,"station_id":"ce4bhah2rcd13ifvqei0","pricing_plan_id":"cebpf4jnsgd1na2vs0mg"},{"bike_id":"4c2e4a45-a2f3-43a5-82e9-750d53490fbf","system_id":"levelo_inurba_marseille","lat":43.28421,"lon":5.34998,"is_reserved":false,"is_disabled":true,"rental_uris":{"android":"levelo://app?vid=4c2e4a45-a2f3-43a5-82e9-750d53490fbf","ios":"levelo://app?vid=4c2e4a45-a2f3-43a5-82e9-750d53490fbf"},"vehicle_type_id":"4","last_reported":1751289996,"current_range_meters":400,"station_id":"ce4bhbh2rcd13ifvqepg","pricing_plan_id":"cebpf4jnsgd1na2vs0mg"},{"bike_id":"29e697ca-26a6-4412-8107-f2c74b259edc","system_id":"levelo_inurba_marseille","lat":43.24188,"lon":5.38417,"is_reserved":false,"is_disabled":true,"rental_uris":{"android":"levelo://app?vid=29e697ca-26a6-4412-8107-f2c74b259edc","ios":"levelo://app?vid=29e697ca-26a6-4412-8107-f2c74b259edc"},"vehicle_type_id":"4","last_reported":1751289996,"current_range_meters":800,"station_id":"","pricing_plan_id":"cebpf4jnsgd1na2vs0mg"},{"bike_id":"85eb80f1-fdf8-4910-9983-416402de22ff","system_id":"levelo_inurba_marseille","lat":43.27694,"lon":5.4156,"is_reserved":false,"is_disabled":true,"rental_uris":{"android":"levelo://app?vid=85eb80f1-fdf8-4910-9983-416402de22ff","ios":"levelo://app?vid=85eb80f1-fdf8-4910-9983-416402de22ff"},"vehicle_type_id":"4","last_reported":1751289996,"current_range_meters":800,"station_id":"","pricing_plan_id":"cebpf4jnsgd1na2vs0mg"},{"bike_id":"05e2a4f9-c12a-45dd-8837-4a9f2d8837c1","system_id":"levelo_inurba_marseille","lat":43.288361,"lon":5.392929,"is_reserved":false,"is_disabled":true,"rental_uris":{"android":"levelo://app?vid=05e2a4f9-c12a-45dd-8837-4a9f2d8837c1","ios":"levelo://app?vid=05e2a4f9-c12a-45dd-8837-4a9f2d8837c1"},"vehicle_type_id":"4","last_reported":1751289996,"current_range_meters":800,"station_id":"ce4bh2p2rcd13ifvqdi0","pricing_plan_id":"cebpf4jnsgd1na2vs0mg"},{"bike_id":"4bb4a733-a9bd-4772-9320-a8c7885ff73b","system_id":"levelo_inurba_marseille","lat":43.27793,"lon":5.3558,"is_reserved":false,"is_disabled":true,"rental_uris":{"android":"levelo://app?vid=4bb4a733-a9bd-4772-9320-a8c7885ff73b","ios":"levelo://app?vid=4bb4a733-a9bd-4772-9320-a8c7885ff73b"},"vehicle_type_id":"4","last_reported":1751289996,"current_range_meters":1200,"station_id":"","pricing_plan_id":"cebpf4jnsgd1na2vs0mg"},{"bike_id":"24c2734e-8f13-46b5-ab15-4dd68fc9dac0","system_id":"levelo_inurba_marseille","lat":43.30965,"lon":5.39052,"is_reserved":false,"is_disabled":false,"rental_uris":{"android":"levelo://app?vid=24c2734e-8f13-46b5-ab15-4dd68fc9dac0","ios":"levelo://app?vid=24c2734e-8f13-46b5-ab15-4dd68fc9dac0"},"vehicle_type_id":"4","last_reported":1751289996,"current_range_meters":1200,"station_id":"ce4bgup2rcd13ifvqco0","pricing_plan_id":"cebpf4jnsgd1na2vs0mg"},{"bike_id":"250a7c54-17b2-49fe-a5a3-027ca515e2f3","system_id":"levelo_inurba_marseille","lat":43.29032,"lon":5.38659,"is_reserved":false,"is_disabled":true,"rental_uris":{"android":"levelo://app?vid=250a7c54-17b2-49fe-a5a3-027ca515e2f3","ios":"levelo://app?vid=250a7c54-17b2-49fe-a5a3-027ca515e2f3"},"vehicle_type_id":"4","last_reported":1751289996,"current_range_meters":1200,"station_id":"ce4bh4p2rcd13ifvqe0g","pricing_plan_id":"cebpf4jnsgd1na2vs0mg"},{"bike_id":"3db000d3-b5cc-4dac-8c9e-d5c4439eb1f4","system_id":"levelo_inurba_marseille","lat":43.23175,"lon":5.35555,"is_reserved":false,"is_disabled":true,"rental_uris":{"android":"levelo://app?vid=3db000d3-b5cc-4dac-8c9e-d5c4439eb1f4","ios":"levelo://app?vid=3db000d3-b5cc-4dac-8c9e-d5c4439eb1f4"},"vehicle_type_id":"4","last_reported":1751289996,"current_range_meters":1200,"station_id":"ce4bhu92rcd13ifvqi70","pricing_plan_id":"cebpf4jnsgd1na2vs0mg"},{"bike_id":"11180de0-5719-4a97-8d06-f8b2dcebd822","system_id":"levelo_inurba_marseille","lat":43.22934,"lon":5.35376,"is_reserved":false,"is_disabled":true,"rental_uris":{"android":"levelo://app?vid=11180de0-5719-4a97-8d06-f8b2dcebd822","ios":"levelo://app?vid=11180de0-5719-4a97-8d06-f8b2dcebd822"},"vehicle_type_id":"4","last_reported":1751289996,"current_range_meters":1200,"station_id":"cpo3532slgdg3j2ikp40","pricing_plan_id":"cebpf4jnsgd1na2vs0mg"},{"bike_id":"7c99f23e-af25-4439-98c3-6ca7850e346b","system_id":"levelo_inurba_marseille","lat":43.29962,"lon":5.38509,"is_reserved":false,"is_disabled":true,"rental_uris":{"android":"levelo://app?vid=7c99f23e-af25-4439-98c3-6ca7850e346b","ios":"levelo://app?vid=7c99f23e-af25-4439-98c3-6ca7850e346b"},"vehicle_type_id":"4","last_reported":1751289996,"current_range_meters":1600,"station_id":"ce4bgj92rcd13ifvqbd0","pricing_plan_id":"cebpf4jnsgd1na2vs0mg"},{"bike_id":"cff78932-c0e8-482b-8e27-864682d9658c","system_id":"levelo_inurba_marseille","lat":43.2937,"lon":5.37847,"is_reserved":false,"is_disabled":true,"rental_uris":{"android":"levelo://app?vid=cff78932-c0e8-482b-8e27-864682d9658c","ios":"levelo://app?vid=cff78932-c0e8-482b-8e27-864682d9658c"},"vehicle_type_id":"4","last_reported":1751289996,"current_range_meters":1600,"station_id":"ce4bgjh2rcd13ifvqbf0","pricing_plan_id":"cebpf4jnsgd1na2vs0mg"},{"bike_id":"65fc1e2f-e29f-45f4-a100-72d7eb31bbb1","system_id":"levelo_inurba_marseille","lat":43.30963,"lon":5.39028,"is_reserved":false,"is_disabled":false,"rental_uris":{"android":"levelo://app?vid=65fc1e2f-e29f-45f4-a100-72d7eb31bbb1","ios":"levelo://app?vid=65fc1e2f-e29f-45f4-a100-72d7eb31bbb1"},"vehicle_type_id":"4","last_reported":1751289996,"current_range_meters":1600,"station_id":"ce4bgup2rcd13ifvqco0","pricing_plan_id":"cebpf4jnsgd1na2vs0mg"},{"bike_id":"8d728f76-bf83-4ec0-a784-05f14b8689a8","system_id":"levelo_inurba_marseille","lat":43.24167,"lon":5.36388,"is_reserved":false,"is_disabled":true,"rental_uris":{"android":"levelo://app?vid=8d728f76-bf83-4ec0-a784-05f14b8689a8","ios":"levelo://app?vid=8d728f76-bf83-4ec0-a784-05f14b8689a8"},"vehicle_type_id":"4","last_reported":1751289996,"current_range_meters":1600,"station_id":"cpo36qri1sfpv3e86is0","pricing_plan_id":"cebpf4jnsgd1na2vs0mg"},{"bike_id":"a37e8def-144c-4d8d-aabf-950aca51f939","system_id":"levelo_inurba_marseille","lat":43.297702,"lon":5.38121,"is_reserved":false,"is_disabled":true,"rental_uris":{"android":"levelo://app?vid=a37e8def-144c-4d8d-aabf-950aca51f939","ios":"levelo://app?vid=a37e8def-144c-4d8d-aabf-950aca51f939"},"vehicle_type_id":"4","last_reported":1751289996,"current_range_meters":2000,"station_id":"","pricing_plan_id":"cebpf4jnsgd1na2vs0mg"},{"bike_id":"fc14e6ce-abef-4f3f-9b83-8385fa618e69","system_id":"levelo_inurba_marseille","lat":43.30612,"lon":5.37224,"is_reserved":false,"is_disabled":true,"rental_uris":{"android":"levelo://app?vid=fc14e6ce-abef-4f3f-9b83-8385fa618e69","ios":"levelo://app?vid=fc14e6ce-abef-4f3f-9b83-8385fa618e69"},"vehicle_type_id":"4","last_reported":1751289996,"current_range_meters":2000,"station_id":"ce4bgqh2rcd13ifvqc4g","pricing_plan_id":"cebpf4jnsgd1na2vs0mg"},{"bike_id":"934bda46-d070-4f28-b029-586b37248b86","system_id":"levelo_inurba_marseille","lat":43.31702,"lon":5.37731,"is_reserved":false,"is_disabled":true,"rental_uris":{"android":"levelo://app?vid=934bda46-d070-4f28-b029-586b37248b86","ios":"levelo://app?vid=934bda46-d070-4f28-b029-586b37248b86"},"vehicle_type_id":"4","last_reported":1751289996,"current_range_meters":2000,"station_id":"ce4bgth2rcd13ifvqch0","pricing_plan_id":"cebpf4jnsgd1na2vs0mg"},{"bike_id":"1e76de82-2b67-440f-857f-f485c0f83de9","system_id":"levelo_inurba_marseille","lat":43.31694,"lon":5.40447,"is_reserved":false,"is_disabled":true,"rental_uris":{"android":"levelo://app?vid=1e76de82-2b67-440f-857f-f485c0f83de9","ios":"levelo://app?vid=1e76de82-2b67-440f-857f-f485c0f83de9"},"vehicle_type_id":"4","last_reported":1751289996,"current_range_meters":2000,"station_id":"ce4bh012rcd13ifvqd00","pricing_plan_id":"cebpf4jnsgd1na2vs0mg"},{"bike_id":"9e163c86-36ef-4269-bcd8-6c9e6f4075a0","system_id":"levelo_inurba_marseille","lat":43.30297,"lon":5.37145,"is_reserved":false,"is_disabled":false,"rental_uris":{"android":"levelo://app?vid=9e163c86-36ef-4269-bcd8-6c9e6f4075a0","ios":"levelo://app?vid=9e163c86-36ef-4269-bcd8-6c9e6f4075a0"},"vehicle_type_id":"4","last_reported":1751289996,"current_range_meters":2800,"station_id":"","pricing_plan_id":"cebpf4jnsgd1na2vs0mg"},{"bike_id":"149e40ad-8b1c-4ab2-9d82-442dcd1bcff0","system_id":"levelo_inurba_marseille","lat":43.30954,"lon":5.39028,"is_reserved":false,"is_disabled":false,"rental_uris":{"android":"levelo://app?vid=149e40ad-8b1c-4ab2-9d82-442dcd1bcff0","ios":"levelo://app?vid=149e40ad-8b1c-4ab2-9d82-442dcd1bcff0"},"vehicle_type_id":"4","last_reported":1751289996,"current_range_meters":2800,"station_id":"ce4bgup2rcd13ifvqco0","pricing_plan_id":"cebpf4jnsgd1na2vs0mg"},{"bike_id":"e8e861f4-0c62-4f30-a7f4-8425ff29e7c1","system_id":"levelo_inurba_marseille","lat":43.30257,"lon":5.40056,"is_reserved":false,"is_disabled":false,"rental_uris":{"android":"levelo://app?vid=e8e861f4-0c62-4f30-a7f4-8425ff29e7c1","ios":"levelo://app?vid=e8e861f4-0c62-4f30-a7f4-8425ff29e7c1"},"vehicle_type_id":"4","last_reported":1751289996,"current_range_meters":2800,"station_id":"ce4bgvh2rcd13ifvqcs0","pricing_plan_id":"cebpf4jnsgd1na2vs0mg"},{"bike_id":"3edb2afe-dac2-4b58-8a1d-2016912a6c6d","system_id":"levelo_inurba_marseille","lat":43.284138,"lon":5.349964,"is_reserved":false,"is_disabled":false,"rental_uris":{"android":"levelo://app?vid=3edb2afe-dac2-4b58-8a1d-2016912a6c6d","ios":"levelo://app?vid=3edb2afe-dac2-4b58-8a1d-2016912a6c6d"},"vehicle_type_id":"4","last_reported":1751289996,"current_range_meters":2800,"station_id":"ce4bhbh2rcd13ifvqepg","pricing_plan_id":"cebpf4jnsgd1na2vs0mg"},{"bike_id":"6445cc03-f0ad-4833-bf37-aec5b859b6be","system_id":"levelo_inurba_marseille","lat":43.26336,"lon":5.40001,"is_reserved":false,"is_disabled":false,"rental_uris":{"android":"levelo://app?vid=6445cc03-f0ad-4833-bf37-aec5b859b6be","ios":"levelo://app?vid=6445cc03-f0ad-4833-bf37-aec5b859b6be"},"vehicle_type_id":"4","last_reported":1751289996,"current_range_meters":3200,"station_id":"","pricing_plan_id":"cebpf4jnsgd1na2vs0mg"},{"bike_id":"d5b5bc74-aaeb-40c0-b979-fb1a262527de","system_id":"levelo_inurba_marseille","lat":43.33276,"lon":5.359,"is_reserved":false,"is_disabled":false,"rental_uris":{"android":"levelo://app?vid=d5b5bc74-aaeb-40c0-b979-fb1a262527de","ios":"levelo://app?vid=d5b5bc74-aaeb-40c0-b979-fb1a262527de"},"vehicle_type_id":"4","last_reported":1751289996,"current_range_meters":3600,"station_id":"","pricing_plan_id":"cebpf4jnsgd1na2vs0mg"},{"bike_id":"1392b63b-f116-45ff-a253-d2ae42bfcfb3","system_id":"levelo_inurba_marseille","lat":43.27376,"lon":5.3626,"is_reserved":false,"is_disabled":false,"rental_uris":{"android":"levelo://app?vid=1392b63b-f116-45ff-a253-d2ae42bfcfb3","ios":"levelo://app?vid=1392b63b-f116-45ff-a253-d2ae42bfcfb3"},"vehicle_type_id":"4","last_reported":1751289996,"current_range_meters":3600,"station_id":"ce4bhbh2rcd13ifvqeo0","pricing_plan_id":"cebpf4jnsgd1na2vs0mg"},{"bike_id":"14d9fd99-9b30-4153-ba8e-87760ef8d31a","system_id":"levelo_inurba_marseille","lat":43.27014,"lon":5.38748,"is_reserved":false,"is_disabled":false,"rental_uris":{"android":"levelo://app?vid=14d9fd99-9b30-4153-ba8e-87760ef8d31a","ios":"levelo://app?vid=14d9fd99-9b30-4153-ba8e-87760ef8d31a"},"vehicle_type_id":"4","last_reported":1751289996,"current_range_meters":4000,"station_id":"","pricing_plan_id":"cebpf4jnsgd1na2vs0mg"},{"bike_id":"c4201fb0-3a57-4af3-9348-238d7a700575","system_id":"levelo_inurba_marseille","lat":43.29721,"lon":5.37696,"is_reserved":false,"is_disabled":false,"rental_uris":{"android":"levelo://app?vid=c4201fb0-3a57-4af3-9348-238d7a700575","ios":"levelo://app?vid=c4201fb0-3a57-4af3-9348-238d7a700575"},"vehicle_type_id":"4","last_reported":1751289996,"current_range_meters":4000,"station_id":"ce4bgkh2rcd13ifvqbl0","pricing_plan_id":"cebpf4jnsgd1na2vs0mg"},{"bike_id":"2ff54923-0f05-4d07-aacc-d62577cdd530","system_id":"levelo_inurba_marseille","lat":43.33613,"lon":5.41037,"is_reserved":false,"is_disabled":false,"rental_uris":{"android":"levelo://app?vid=2ff54923-0f05-4d07-aacc-d62577cdd530","ios":"levelo://app?vid=2ff54923-0f05-4d07-aacc-d62577cdd530"},"vehicle_type_id":"4","last_reported":1751289996,"current_range_meters":4400,"station_id":"ce4bhqh2rcd13ifvqhmg","pricing_plan_id":"cebpf4jnsgd1na2vs0mg"},{"bike_id":"e2bf11c0-f36e-45f1-819a-c52bfec498f9","system_id":"levelo_inurba_marseille","lat":43.3043,"lon":5.3889,"is_reserved":false,"is_disabled":false,"rental_uris":{"android":"levelo://app?vid=e2bf11c0-f36e-45f1-819a-c52bfec498f9","ios":"levelo://app?vid=e2bf11c0-f36e-45f1-819a-c52bfec498f9"},"vehicle_type_id":"4","last_reported":1751289996,"current_range_meters":4800,"station_id":"ce4bgk12rcd13ifvqbi0","pricing_plan_id":"cebpf4jnsgd1na2vs0mg"},{"bike_id":"9976d630-087d-4040-a306-8079efcee7af","system_id":"levelo_inurba_marseille","lat":43.296312,"lon":5.371761,"is_reserved":false,"is_disabled":false,"rental_uris":{"android":"levelo://app?vid=9976d630-087d-4040-a306-8079efcee7af","ios":"levelo://app?vid=9976d630-087d-4040-a306-8079efcee7af"},"vehicle_type_id":"4","last_reported":1751289996,"current_range_meters":4800,"station_id":"ce4bgnh2rcd13ifvqc0g","pricing_plan_id":"cebpf4jnsgd1na2vs0mg"},{"bike_id":"0fccd848-719e-476d-8ad1-21378dd8bf90","system_id":"levelo_inurba_marseille","lat":43.28464,"lon":5.35888,"is_reserved":false,"is_disabled":false,"rental_uris":{"android":"levelo://app?vid=0fccd848-719e-476d-8ad1-21378dd8bf90","ios":"levelo://app?vid=0fccd848-719e-476d-8ad1-21378dd8bf90"},"vehicle_type_id":"4","last_reported":1751289996,"current_range_meters":4800,"station_id":"ce4bhah2rcd13ifvqei0","pricing_plan_id":"cebpf4jnsgd1na2vs0mg"},{"bike_id":"12f4e51f-cdc9-4779-9d6b-bcb51afab2b2","system_id":"levelo_inurba_marseille","lat":43.28462,"lon":5.35887,"is_reserved":false,"is_disabled":false,"rental_uris":{"android":"levelo://app?vid=12f4e51f-cdc9-4779-9d6b-bcb51afab2b2","ios":"levelo://app?vid=12f4e51f-cdc9-4779-9d6b-bcb51afab2b2"},"vehicle_type_id":"4","last_reported":1751289996,"current_range_meters":4800,"station_id":"ce4bhah2rcd13ifvqei0","pricing_plan_id":"cebpf4jnsgd1na2vs0mg"},{"bike_id":"0d8dd271-bac5-445a-b6a1-0408ae89ab16","system_id":"levelo_inurba_marseille","lat":43.28669,"lon":5.36357,"is_reserved":false,"is_disabled":false,"rental_uris":{"android":"levelo://app?vid=0d8dd271-bac5-445a-b6a1-0408ae89ab16","ios":"levelo://app?vid=0d8dd271-bac5-445a-b6a1-0408ae89ab16"},"vehicle_type_id":"4","last_reported":1751289996,"current_range_meters":4800,"station_id":"ce4bhah2rcd13ifvqej0","pricing_plan_id":"cebpf4jnsgd1na2vs0mg"},{"bike_id":"8cc085b8-adf2-4edc-bd9c-9e3fa20f6d48","system_id":"levelo_inurba_marseille","lat":43.2842,"lon":5.35,"is_reserved":false,"is_disabled":false,"rental_uris":{"android":"levelo://app?vid=8cc085b8-adf2-4edc-bd9c-9e3fa20f6d48","ios":"levelo://app?vid=8cc085b8-adf2-4edc-bd9c-9e3fa20f6d48"},"vehicle_type_id":"4","last_reported":1751289996,"current_range_meters":4800,"station_id":"ce4bhbh2rcd13ifvqepg","pricing_plan_id":"cebpf4jnsgd1na2vs0mg"},{"bike_id":"87985e62-2823-4157-8a35-599ee9a377ab","system_id":"levelo_inurba_marseille","lat":43.21188,"lon":5.35085,"is_reserved":false,"is_disabled":false,"rental_uris":{"android":"levelo://app?vid=87985e62-2823-4157-8a35-599ee9a377ab","ios":"levelo://app?vid=87985e62-2823-4157-8a35-599ee9a377ab"},"vehicle_type_id":"4","last_reported":1751289996,"current_range_meters":4800,"station_id":"st_cvj6sg6p6f1abm77japg","pricing_plan_id":"cebpf4jnsgd1na2vs0mg"},{"bike_id":"2469ec5a-eaf4-4553-8f87-357fc10896d7","system_id":"levelo_inurba_marseille","lat":43.29033,"lon":5.38646,"is_reserved":false,"is_disabled":false,"rental_uris":{"android":"levelo://app?vid=2469ec5a-eaf4-4553-8f87-357fc10896d7","ios":"levelo://app?vid=2469ec5a-eaf4-4553-8f87-357fc10896d7"},"vehicle_type_id":"4","last_reported":1751289996,"current_range_meters":5600,"station_id":"ce4bh4p2rcd13ifvqe0g","pricing_plan_id":"cebpf4jnsgd1na2vs0mg"},{"bike_id":"a2b72d98-6108-469a-ae51-877e869e722e","system_id":"levelo_inurba_marseille","lat":43.29316,"lon":5.37173,"is_reserved":false,"is_disabled":false,"rental_uris":{"android":"levelo://app?vid=a2b72d98-6108-469a-ae51-877e869e722e","ios":"levelo://app?vid=a2b72d98-6108-469a-ae51-877e869e722e"},"vehicle_type_id":"4","last_reported":1751289996,"current_range_meters":6000,"station_id":"ce4bgh92rcd13ifvqb40","pricing_plan_id":"cebpf4jnsgd1na2vs0mg"},{"bike_id":"fee0ea49-1eff-4259-8e9d-7af99d134204","system_id":"levelo_inurba_marseille","lat":43.28936,"lon":5.36639,"is_reserved":false,"is_disabled":false,"rental_uris":{"android":"levelo://app?vid=fee0ea49-1eff-4259-8e9d-7af99d134204","ios":"levelo://app?vid=fee0ea49-1eff-4259-8e9d-7af99d134204"},"vehicle_type_id":"4","last_reported":1751289996,"current_range_meters":6000,"station_id":"ce4bhap2rcd13ifvqek0","pricing_plan_id":"cebpf4jnsgd1na2vs0mg"},{"bike_id":"29389f56-8253-45b2-9a17-2715414cfbe3","system_id":"levelo_inurba_marseille","lat":43.261973,"lon":5.374494,"is_reserved":false,"is_disabled":false,"rental_uris":{"android":"levelo://app?vid=29389f56-8253-45b2-9a17-2715414cfbe3","ios":"levelo://app?vid=29389f56-8253-45b2-9a17-2715414cfbe3"},"vehicle_type_id":"4","last_reported":1751289996,"current_range_meters":6000,"station_id":"ce4bhgp2rcd13ifvqfc0","pricing_plan_id":"cebpf4jnsgd1na2vs0mg"},{"bike_id":"0aecbe1c-846f-4a24-88fb-3b0bc61da336","system_id":"levelo_inurba_marseille","lat":43.2794,"lon":5.41038,"is_reserved":false,"is_disabled":false,"rental_uris":{"android":"levelo://app?vid=0aecbe1c-846f-4a24-88fb-3b0bc61da336","ios":"levelo://app?vid=0aecbe1c-846f-4a24-88fb-3b0bc61da336"},"vehicle_type_id":"4","last_reported":1751289996,"current_range_meters":6000,"station_id":"ce4bhnp2rcd13ifvqh0g","pricing_plan_id":"cebpf4jnsgd1na2vs0mg"},{"bike_id":"983a43e6-41cb-4ffe-9fc3-9cd6d96bdd2a","system_id":"levelo_inurba_marseille","lat":43.31213,"lon":5.36899,"is_reserved":false,"is_disabled":false,"rental_uris":{"android":"levelo://app?vid=983a43e6-41cb-4ffe-9fc3-9cd6d96bdd2a","ios":"levelo://app?vid=983a43e6-41cb-4ffe-9fc3-9cd6d96bdd2a"},"vehicle_type_id":"4","last_reported":1751289996,"current_range_meters":6400,"station_id":"ce4bgl92rcd13ifvqbq0","pricing_plan_id":"cebpf4jnsgd1na2vs0mg"},{"bike_id":"d9f9e1e9-3db9-4f8a-9bd5-e18a088b5bf8","system_id":"levelo_inurba_marseille","lat":43.28254,"lon":5.35073,"is_reserved":false,"is_disabled":false,"rental_uris":{"android":"levelo://app?vid=d9f9e1e9-3db9-4f8a-9bd5-e18a088b5bf8","ios":"levelo://app?vid=d9f9e1e9-3db9-4f8a-9bd5-e18a088b5bf8"},"vehicle_type_id":"4","last_reported":1751289996,"current_range_meters":6400,"station_id":"ce4bhbp2rcd13ifvqerg","pricing_plan_id":"cebpf4jnsgd1na2vs0mg"},{"bike_id":"d8d8844d-b835-41fb-a5a2-df7d4c7d0557","system_id":"levelo_inurba_marseille","lat":43.24167,"lon":5.36386,"is_reserved":false,"is_disabled":false,"rental_uris":{"android":"levelo://app?vid=d8d8844d-b835-41fb-a5a2-df7d4c7d0557","ios":"levelo://app?vid=d8d8844d-b835-41fb-a5a2-df7d4c7d0557"},"vehicle_type_id":"4","last_reported":1751289996,"current_range_meters":6400,"station_id":"cpo36qri1sfpv3e86is0","pricing_plan_id":"cebpf4jnsgd1na2vs0mg"},{"bike_id":"360cb72f-7cec-423b-b304-7f8da672b6d7","system_id":"levelo_inurba_marseille","lat":43.2978,"lon":5.37116,"is_reserved":false,"is_disabled":false,"rental_uris":{"android":"levelo://app?vid=360cb72f-7cec-423b-b304-7f8da672b6d7","ios":"levelo://app?vid=360cb72f-7cec-423b-b304-7f8da672b6d7"},"vehicle_type_id":"4","last_reported":1751289996,"current_range_meters":6800,"station_id":"ce4bgop2rcd13ifvqc1g","pricing_plan_id":"cebpf4jnsgd1na2vs0mg"},{"bike_id":"70801fc4-b3c2-43ad-b08f-01d36e19fcdb","system_id":"levelo_inurba_marseille","lat":43.284119,"lon":5.375064,"is_reserved":false,"is_disabled":false,"rental_uris":{"android":"levelo://app?vid=70801fc4-b3c2-43ad-b08f-01d36e19fcdb","ios":"levelo://app?vid=70801fc4-b3c2-43ad-b08f-01d36e19fcdb"},"vehicle_type_id":"4","last_reported":1751289996,"current_range_meters":6800,"station_id":"ce4bh412rcd13ifvqds0","pricing_plan_id":"cebpf4jnsgd1na2vs0mg"},{"bike_id":"c55c286f-5c9b-48d4-8f68-d7a169141ef3","system_id":"levelo_inurba_marseille","lat":43.29623,"lon":5.37156,"is_reserved":false,"is_disabled":false,"rental_uris":{"android":"levelo://app?vid=c55c286f-5c9b-48d4-8f68-d7a169141ef3","ios":"levelo://app?vid=c55c286f-5c9b-48d4-8f68-d7a169141ef3"},"vehicle_type_id":"4","last_reported":1751289996,"current_range_meters":7200,"station_id":"ce4bgnh2rcd13ifvqc0g","pricing_plan_id":"cebpf4jnsgd1na2vs0mg"},{"bike_id":"a75058c6-fe34-40d8-984f-d721d8adf298","system_id":"levelo_inurba_marseille","lat":43.30607,"lon":5.37216,"is_reserved":false,"is_disabled":false,"rental_uris":{"android":"levelo://app?vid=a75058c6-fe34-40d8-984f-d721d8adf298","ios":"levelo://app?vid=a75058c6-fe34-40d8-984f-d721d8adf298"},"vehicle_type_id":"4","last_reported":1751289996,"current_range_meters":7200,"station_id":"ce4bgqh2rcd13ifvqc4g","pricing_plan_id":"cebpf4jnsgd1na2vs0mg"},{"bike_id":"6765dee0-770a-4bfd-a80a-3fa36da7ede5","system_id":"levelo_inurba_marseille","lat":43.30949,"lon":5.39053,"is_reserved":false,"is_disabled":false,"rental_uris":{"android":"levelo://app?vid=6765dee0-770a-4bfd-a80a-3fa36da7ede5","ios":"levelo://app?vid=6765dee0-770a-4bfd-a80a-3fa36da7ede5"},"vehicle_type_id":"4","last_reported":1751289996,"current_range_meters":7200,"station_id":"ce4bgup2rcd13ifvqco0","pricing_plan_id":"cebpf4jnsgd1na2vs0mg"},{"bike_id":"b875df27-a820-47d0-980e-08e014eb2d1b","system_id":"levelo_inurba_marseille","lat":43.27387,"lon":5.36286,"is_reserved":false,"is_disabled":false,"rental_uris":{"android":"levelo://app?vid=b875df27-a820-47d0-980e-08e014eb2d1b","ios":"levelo://app?vid=b875df27-a820-47d0-980e-08e014eb2d1b"},"vehicle_type_id":"4","last_reported":1751289996,"current_range_meters":7200,"station_id":"ce4bhbh2rcd13ifvqeo0","pricing_plan_id":"cebpf4jnsgd1na2vs0mg"},{"bike_id":"42cf7d6e-0461-49b7-8935-e2b16e8cba60","system_id":"levelo_inurba_marseille","lat":43.262088,"lon":5.374442,"is_reserved":false,"is_disabled":false,"rental_uris":{"android":"levelo://app?vid=42cf7d6e-0461-49b7-8935-e2b16e8cba60","ios":"levelo://app?vid=42cf7d6e-0461-49b7-8935-e2b16e8cba60"},"vehicle_type_id":"4","last_reported":1751289996,"current_range_meters":7200,"station_id":"ce4bhgp2rcd13ifvqfc0","pricing_plan_id":"cebpf4jnsgd1na2vs0mg"},{"bike_id":"7b28ebac-3c6a-43aa-aca9-7bd954b07205","system_id":"levelo_inurba_marseille","lat":43.29663,"lon":5.37968,"is_reserved":false,"is_disabled":false,"rental_uris":{"android":"levelo://app?vid=7b28ebac-3c6a-43aa-aca9-7bd954b07205","ios":"levelo://app?vid=7b28ebac-3c6a-43aa-aca9-7bd954b07205"},"vehicle_type_id":"4","last_reported":1751289996,"current_range_meters":8000,"station_id":"","pricing_plan_id":"cebpf4jnsgd1na2vs0mg"},{"bike_id":"cbe8cf16-ee4d-44dc-af26-2dea0d93d494","system_id":"levelo_inurba_marseille","lat":43.337444,"lon":5.374475,"is_reserved":false,"is_disabled":false,"rental_uris":{"android":"levelo://app?vid=cbe8cf16-ee4d-44dc-af26-2dea0d93d494","ios":"levelo://app?vid=cbe8cf16-ee4d-44dc-af26-2dea0d93d494"},"vehicle_type_id":"4","last_reported":1751289996,"current_range_meters":8000,"station_id":"","pricing_plan_id":"cebpf4jnsgd1na2vs0mg"},{"bike_id":"ca192d60-e1cb-4367-85ff-2f709cc60af9","system_id":"levelo_inurba_marseille","lat":43.28675,"lon":5.38665,"is_reserved":false,"is_disabled":false,"rental_uris":{"android":"levelo://app?vid=ca192d60-e1cb-4367-85ff-2f709cc60af9","ios":"levelo://app?vid=ca192d60-e1cb-4367-85ff-2f709cc60af9"},"vehicle_type_id":"4","last_reported":1751289996,"current_range_meters":8000,"station_id":"ce4bh492rcd13ifvqdug","pricing_plan_id":"cebpf4jnsgd1na2vs0mg"},{"bike_id":"4c377735-eefc-4f58-915e-263535044396","system_id":"levelo_inurba_marseille","lat":43.284145,"lon":5.349798,"is_reserved":false,"is_disabled":false,"rental_uris":{"android":"levelo://app?vid=4c377735-eefc-4f58-915e-263535044396","ios":"levelo://app?vid=4c377735-eefc-4f58-915e-263535044396"},"vehicle_type_id":"4","last_reported":1751289996,"current_range_meters":8000,"station_id":"ce4bhbh2rcd13ifvqepg","pricing_plan_id":"cebpf4jnsgd1na2vs0mg"},{"bike_id":"ad03fcb5-0dc2-426c-be7d-b75eefed7d5c","system_id":"levelo_inurba_marseille","lat":43.262247,"lon":5.404538,"is_reserved":false,"is_disabled":false,"rental_uris":{"android":"levelo://app?vid=ad03fcb5-0dc2-426c-be7d-b75eefed7d5c","ios":"levelo://app?vid=ad03fcb5-0dc2-426c-be7d-b75eefed7d5c"},"vehicle_type_id":"4","last_reported":1751289996,"current_range_meters":8000,"station_id":"ce4bhmh2rcd13ifvqgmg","pricing_plan_id":"cebpf4jnsgd1na2vs0mg"},{"bike_id":"f8261652-1b5b-4e36-ad10-abf2d59a5eed","system_id":"levelo_inurba_marseille","lat":43.24164,"lon":5.36398,"is_reserved":false,"is_disabled":false,"rental_uris":{"android":"levelo://app?vid=f8261652-1b5b-4e36-ad10-abf2d59a5eed","ios":"levelo://app?vid=f8261652-1b5b-4e36-ad10-abf2d59a5eed"},"vehicle_type_id":"4","last_reported":1751289996,"current_range_meters":8000,"station_id":"cpo36qri1sfpv3e86is0","pricing_plan_id":"cebpf4jnsgd1na2vs0mg"},{"bike_id":"9fc6b39a-5532-40ac-8f58-975bced56a19","system_id":"levelo_inurba_marseille","lat":43.32586,"lon":5.40498,"is_reserved":false,"is_disabled":false,"rental_uris":{"android":"levelo://app?vid=9fc6b39a-5532-40ac-8f58-975bced56a19","ios":"levelo://app?vid=9fc6b39a-5532-40ac-8f58-975bced56a19"},"vehicle_type_id":"4","last_reported":1751289996,"current_range_meters":8400,"station_id":"","pricing_plan_id":"cebpf4jnsgd1na2vs0mg"},{"bike_id":"d308c658-b19c-49c0-8014-5506ff26f69a","system_id":"levelo_inurba_marseille","lat":43.23079,"lon":5.40523,"is_reserved":false,"is_disabled":false,"rental_uris":{"android":"levelo://app?vid=d308c658-b19c-49c0-8014-5506ff26f69a","ios":"levelo://app?vid=d308c658-b19c-49c0-8014-5506ff26f69a"},"vehicle_type_id":"4","last_reported":1751289996,"current_range_meters":8400,"station_id":"","pricing_plan_id":"cebpf4jnsgd1na2vs0mg"},{"bike_id":"2749225c-f214-4d1b-9962-af82a742d7a9","system_id":"levelo_inurba_marseille","lat":43.29868,"lon":5.39734,"is_reserved":false,"is_disabled":false,"rental_uris":{"android":"levelo://app?vid=2749225c-f214-4d1b-9962-af82a742d7a9","ios":"levelo://app?vid=2749225c-f214-4d1b-9962-af82a742d7a9"},"vehicle_type_id":"4","last_reported":1751289996,"current_range_meters":8400,"station_id":"ce4bh0h2rcd13ifvqd50","pricing_plan_id":"cebpf4jnsgd1na2vs0mg"},{"bike_id":"d7d64aa7-3f1c-401a-afb1-2a560f7861c0","system_id":"levelo_inurba_marseille","lat":43.27385,"lon":5.36254,"is_reserved":false,"is_disabled":false,"rental_uris":{"android":"levelo://app?vid=d7d64aa7-3f1c-401a-afb1-2a560f7861c0","ios":"levelo://app?vid=d7d64aa7-3f1c-401a-afb1-2a560f7861c0"},"vehicle_type_id":"4","last_reported":1751289996,"current_range_meters":8400,"station_id":"ce4bhbh2rcd13ifvqeo0","pricing_plan_id":"cebpf4jnsgd1na2vs0mg"},{"bike_id":"e219543a-880e-4c38-aff0-63dd83878c8b","system_id":"levelo_inurba_marseille","lat":43.321053,"lon":5.368007,"is_reserved":false,"is_disabled":false,"rental_uris":{"android":"levelo://app?vid=e219543a-880e-4c38-aff0-63dd83878c8b","ios":"levelo://app?vid=e219543a-880e-4c38-aff0-63dd83878c8b"},"vehicle_type_id":"4","last_reported":1751289996,"current_range_meters":8400,"station_id":"ce4bhrh2rcd13ifvqhug","pricing_plan_id":"cebpf4jnsgd1na2vs0mg"},{"bike_id":"4fd4a907-5d2c-42e2-ada8-60cb1191fbae","system_id":"levelo_inurba_marseille","lat":43.29921,"lon":5.37478,"is_reserved":false,"is_disabled":false,"rental_uris":{"android":"levelo://app?vid=4fd4a907-5d2c-42e2-ada8-60cb1191fbae","ios":"levelo://app?vid=4fd4a907-5d2c-42e2-ada8-60cb1191fbae"},"vehicle_type_id":"4","last_reported":1751289996,"current_range_meters":8800,"station_id":"ce4bgjh2rcd13ifvqbg0","pricing_plan_id":"cebpf4jnsgd1na2vs0mg"},{"bike_id":"2630b0d7-8518-44a1-b41d-4305f5c2b588","system_id":"levelo_inurba_marseille","lat":43.288553,"lon":5.393204,"is_reserved":false,"is_disabled":false,"rental_uris":{"android":"levelo://app?vid=2630b0d7-8518-44a1-b41d-4305f5c2b588","ios":"levelo://app?vid=2630b0d7-8518-44a1-b41d-4305f5c2b588"},"vehicle_type_id":"4","last_reported":1751289996,"current_range_meters":8800,"station_id":"ce4bh492rcd13ifvqdug","pricing_plan_id":"cebpf4jnsgd1na2vs0mg"},{"bike_id":"c595d0e1-c778-4abe-9c79-a9dd74f54e27","system_id":"levelo_inurba_marseille","lat":43.24491,"lon":5.37229,"is_reserved":false,"is_disabled":false,"rental_uris":{"android":"levelo://app?vid=c595d0e1-c778-4abe-9c79-a9dd74f54e27","ios":"levelo://app?vid=c595d0e1-c778-4abe-9c79-a9dd74f54e27"},"vehicle_type_id":"4","last_reported":1751289996,"current_range_meters":9200,"station_id":"","pricing_plan_id":"cebpf4jnsgd1na2vs0mg"},{"bike_id":"ed355fd6-f93c-4e0d-b339-1f2c109c601a","system_id":"levelo_inurba_marseille","lat":43.30809,"lon":5.38163,"is_reserved":false,"is_disabled":false,"rental_uris":{"android":"levelo://app?vid=ed355fd6-f93c-4e0d-b339-1f2c109c601a","ios":"levelo://app?vid=ed355fd6-f93c-4e0d-b339-1f2c109c601a"},"vehicle_type_id":"4","last_reported":1751289996,"current_range_meters":9200,"station_id":"ce4bgt12rcd13ifvqce0","pricing_plan_id":"cebpf4jnsgd1na2vs0mg"},{"bike_id":"f6ddcf6a-20c1-460e-9faa-29ff8537caaf","system_id":"levelo_inurba_marseille","lat":43.28973,"lon":5.37835,"is_reserved":false,"is_disabled":false,"rental_uris":{"android":"levelo://app?vid=f6ddcf6a-20c1-460e-9faa-29ff8537caaf","ios":"levelo://app?vid=f6ddcf6a-20c1-460e-9faa-29ff8537caaf"},"vehicle_type_id":"4","last_reported":1751289996,"current_range_meters":9200,"station_id":"ce4bh9p2rcd13ifvqed0","pricing_plan_id":"cebpf4jnsgd1na2vs0mg"},{"bike_id":"0d10c7b0-b29b-4e59-bfb4-72d6e66b7aa6","system_id":"levelo_inurba_marseille","lat":43.2804,"lon":5.3695,"is_reserved":false,"is_disabled":false,"rental_uris":{"android":"levelo://app?vid=0d10c7b0-b29b-4e59-bfb4-72d6e66b7aa6","ios":"levelo://app?vid=0d10c7b0-b29b-4e59-bfb4-72d6e66b7aa6"},"vehicle_type_id":"4","last_reported":1751289996,"current_range_meters":9200,"station_id":"ce4bha12rcd13ifvqef0","pricing_plan_id":"cebpf4jnsgd1na2vs0mg"},{"bike_id":"73f15934-f1d5-4ee2-ab7c-ead31ca49576","system_id":"levelo_inurba_marseille","lat":43.25018,"lon":5.38888,"is_reserved":false,"is_disabled":false,"rental_uris":{"android":"levelo://app?vid=73f15934-f1d5-4ee2-ab7c-ead31ca49576","ios":"levelo://app?vid=73f15934-f1d5-4ee2-ab7c-ead31ca49576"},"vehicle_type_id":"4","last_reported":1751289996,"current_range_meters":9200,"station_id":"ce4bhgp2rcd13ifvqfd0","pricing_plan_id":"cebpf4jnsgd1na2vs0mg"},{"bike_id":"b879504e-c85b-45ea-ab13-dce989cb130f","system_id":"levelo_inurba_marseille","lat":43.32372,"lon":5.3677,"is_reserved":false,"is_disabled":false,"rental_uris":{"android":"levelo://app?vid=b879504e-c85b-45ea-ab13-dce989cb130f","ios":"levelo://app?vid=b879504e-c85b-45ea-ab13-dce989cb130f"},"vehicle_type_id":"4","last_reported":1751289996,"current_range_meters":9200,"station_id":"ce4bhsh2rcd13ifvqi2g","pricing_plan_id":"cebpf4jnsgd1na2vs0mg"},{"bike_id":"99bfe58d-afb2-4aca-bf08-fb4a4b977428","system_id":"levelo_inurba_marseille","lat":43.22957,"lon":5.35381,"is_reserved":false,"is_disabled":false,"rental_uris":{"android":"levelo://app?vid=99bfe58d-afb2-4aca-bf08-fb4a4b977428","ios":"levelo://app?vid=99bfe58d-afb2-4aca-bf08-fb4a4b977428"},"vehicle_type_id":"4","last_reported":1751289996,"current_range_meters":9200,"station_id":"cpo3532slgdg3j2ikp40","pricing_plan_id":"cebpf4jnsgd1na2vs0mg"},{"bike_id":"05d3d448-235e-4ac7-88df-050f15d5a616","system_id":"levelo_inurba_marseille","lat":43.279155,"lon":5.422241,"is_reserved":false,"is_disabled":false,"rental_uris":{"android":"levelo://app?vid=05d3d448-235e-4ac7-88df-050f15d5a616","ios":"levelo://app?vid=05d3d448-235e-4ac7-88df-050f15d5a616"},"vehicle_type_id":"4","last_reported":1751289996,"current_range_meters":9600,"station_id":"","pricing_plan_id":"cebpf4jnsgd1na2vs0mg"},{"bike_id":"4589d54a-0b37-456f-b9d8-c73fc1dadefc","system_id":"levelo_inurba_marseille","lat":43.30541,"lon":5.3656,"is_reserved":false,"is_disabled":false,"rental_uris":{"android":"levelo://app?vid=4589d54a-0b37-456f-b9d8-c73fc1dadefc","ios":"levelo://app?vid=4589d54a-0b37-456f-b9d8-c73fc1dadefc"},"vehicle_type_id":"4","last_reported":1751289996,"current_range_meters":9600,"station_id":"ce4bgs12rcd13ifvqcag","pricing_plan_id":"cebpf4jnsgd1na2vs0mg"},{"bike_id":"5dd58a21-6b6b-4f26-829a-cc7598700bb3","system_id":"levelo_inurba_marseille","lat":43.29232,"lon":5.36069,"is_reserved":false,"is_disabled":false,"rental_uris":{"android":"levelo://app?vid=5dd58a21-6b6b-4f26-829a-cc7598700bb3","ios":"levelo://app?vid=5dd58a21-6b6b-4f26-829a-cc7598700bb3"},"vehicle_type_id":"4","last_reported":1751289996,"current_range_meters":9600,"station_id":"ce4bhbh2rcd13ifvqeqg","pricing_plan_id":"cebpf4jnsgd1na2vs0mg"},{"bike_id":"7c20f540-06e0-42f4-a6cf-8357cb8cad05","system_id":"levelo_inurba_marseille","lat":43.25108,"lon":5.4033,"is_reserved":false,"is_disabled":false,"rental_uris":{"android":"levelo://app?vid=7c20f540-06e0-42f4-a6cf-8357cb8cad05","ios":"levelo://app?vid=7c20f540-06e0-42f4-a6cf-8357cb8cad05"},"vehicle_type_id":"4","last_reported":1751289996,"current_range_meters":9600,"station_id":"ce4bhlh2rcd13ifvqgig","pricing_plan_id":"cebpf4jnsgd1na2vs0mg"},{"bike_id":"120036e1-945c-4ddf-ba61-047361af53a6","system_id":"levelo_inurba_marseille","lat":43.21208,"lon":5.35103,"is_reserved":false,"is_disabled":false,"rental_uris":{"android":"levelo://app?vid=120036e1-945c-4ddf-ba61-047361af53a6","ios":"levelo://app?vid=120036e1-945c-4ddf-ba61-047361af53a6"},"vehicle_type_id":"4","last_reported":1751289996,"current_range_meters":9600,"station_id":"st_cvj6sg6p6f1abm77japg","pricing_plan_id":"cebpf4jnsgd1na2vs0mg"},{"bike_id":"69c15efa-aeb8-4947-9bef-7b2f1acff67b","system_id":"levelo_inurba_marseille","lat":43.337444,"lon":5.374475,"is_reserved":false,"is_disabled":false,"rental_uris":{"android":"levelo://app?vid=69c15efa-aeb8-4947-9bef-7b2f1acff67b","ios":"levelo://app?vid=69c15efa-aeb8-4947-9bef-7b2f1acff67b"},"vehicle_type_id":"4","last_reported":1751289996,"current_range_meters":10000,"station_id":"","pricing_plan_id":"cebpf4jnsgd1na2vs0mg"},{"bike_id":"3035be0e-7c3d-4f7d-a1cb-7a1af59e497b","system_id":"levelo_inurba_marseille","lat":43.29675,"lon":5.36015,"is_reserved":false,"is_disabled":false,"rental_uris":{"android":"levelo://app?vid=3035be0e-7c3d-4f7d-a1cb-7a1af59e497b","ios":"levelo://app?vid=3035be0e-7c3d-4f7d-a1cb-7a1af59e497b"},"vehicle_type_id":"4","last_reported":1751289996,"current_range_meters":10000,"station_id":"","pricing_plan_id":"cebpf4jnsgd1na2vs0mg"},{"bike_id":"6ca45d85-724d-46a1-81a2-c6ea453808e9","system_id":"levelo_inurba_marseille","lat":43.305435,"lon":5.367131,"is_reserved":false,"is_disabled":false,"rental_uris":{"android":"levelo://app?vid=6ca45d85-724d-46a1-81a2-c6ea453808e9","ios":"levelo://app?vid=6ca45d85-724d-46a1-81a2-c6ea453808e9"},"vehicle_type_id":"4","last_reported":1751289996,"current_range_meters":10000,"station_id":"ce4bgrp2rcd13ifvqc9g","pricing_plan_id":"cebpf4jnsgd1na2vs0mg"},{"bike_id":"ba6dbaca-f68c-49b6-8815-dea70e3ae785","system_id":"levelo_inurba_marseille","lat":43.28455,"lon":5.35882,"is_reserved":false,"is_disabled":false,"rental_uris":{"android":"levelo://app?vid=ba6dbaca-f68c-49b6-8815-dea70e3ae785","ios":"levelo://app?vid=ba6dbaca-f68c-49b6-8815-dea70e3ae785"},"vehicle_type_id":"4","last_reported":1751289996,"current_range_meters":10000,"station_id":"ce4bhah2rcd13ifvqei0","pricing_plan_id":"cebpf4jnsgd1na2vs0mg"},{"bike_id":"a0228c66-07ee-4925-a497-abfea7544ad2","system_id":"levelo_inurba_marseille","lat":43.3038,"lon":5.42489,"is_reserved":false,"is_disabled":false,"rental_uris":{"android":"levelo://app?vid=a0228c66-07ee-4925-a497-abfea7544ad2","ios":"levelo://app?vid=a0228c66-07ee-4925-a497-abfea7544ad2"},"vehicle_type_id":"4","last_reported":1751289996,"current_range_meters":10000,"station_id":"ce4bhoh2rcd13ifvqh6g","pricing_plan_id":"cebpf4jnsgd1na2vs0mg"},{"bike_id":"ea20e7e8-87e2-46c1-9e60-0dd9e7f27430","system_id":"levelo_inurba_marseille","lat":43.30419,"lon":5.41285,"is_reserved":false,"is_disabled":false,"rental_uris":{"android":"levelo://app?vid=ea20e7e8-87e2-46c1-9e60-0dd9e7f27430","ios":"levelo://app?vid=ea20e7e8-87e2-46c1-9e60-0dd9e7f27430"},"vehicle_type_id":"4","last_reported":1751289996,"current_range_meters":10000,"station_id":"ce4bhop2rcd13ifvqh8g","pricing_plan_id":"cebpf4jnsgd1na2vs0mg"},{"bike_id":"78284af2-bf69-4fd5-b7d0-bf87d4b01869","system_id":"levelo_inurba_marseille","lat":43.31229,"lon":5.36901,"is_reserved":false,"is_disabled":false,"rental_uris":{"android":"levelo://app?vid=78284af2-bf69-4fd5-b7d0-bf87d4b01869","ios":"levelo://app?vid=78284af2-bf69-4fd5-b7d0-bf87d4b01869"},"vehicle_type_id":"4","last_reported":1751289996,"current_range_meters":10800,"station_id":"ce4bgl92rcd13ifvqbq0","pricing_plan_id":"cebpf4jnsgd1na2vs0mg"},{"bike_id":"f8c06bdf-49c7-493b-87d0-4d974e3b060b","system_id":"levelo_inurba_marseille","lat":43.27394,"lon":5.3626,"is_reserved":false,"is_disabled":false,"rental_uris":{"android":"levelo://app?vid=f8c06bdf-49c7-493b-87d0-4d974e3b060b","ios":"levelo://app?vid=f8c06bdf-49c7-493b-87d0-4d974e3b060b"},"vehicle_type_id":"4","last_reported":1751289996,"current_range_meters":10800,"station_id":"ce4bhbh2rcd13ifvqeo0","pricing_plan_id":"cebpf4jnsgd1na2vs0mg"},{"bike_id":"e7b7183a-eb99-4ebd-a76a-39adab39fdaf","system_id":"levelo_inurba_marseille","lat":43.28263,"lon":5.35067,"is_reserved":false,"is_disabled":false,"rental_uris":{"android":"levelo://app?vid=e7b7183a-eb99-4ebd-a76a-39adab39fdaf","ios":"levelo://app?vid=e7b7183a-eb99-4ebd-a76a-39adab39fdaf"},"vehicle_type_id":"4","last_reported":1751289996,"current_range_meters":10800,"station_id":"ce4bhbp2rcd13ifvqerg","pricing_plan_id":"cebpf4jnsgd1na2vs0mg"},{"bike_id":"0462978e-8c52-4b7a-a503-da9b4f73e84f","system_id":"levelo_inurba_marseille","lat":43.26217,"lon":5.40449,"is_reserved":false,"is_disabled":false,"rental_uris":{"android":"levelo://app?vid=0462978e-8c52-4b7a-a503-da9b4f73e84f","ios":"levelo://app?vid=0462978e-8c52-4b7a-a503-da9b4f73e84f"},"vehicle_type_id":"4","last_reported":1751289996,"current_range_meters":10800,"station_id":"ce4bhmh2rcd13ifvqgmg","pricing_plan_id":"cebpf4jnsgd1na2vs0mg"},{"bike_id":"b05ac08d-847b-4f20-ac36-038a0d69d167","system_id":"levelo_inurba_marseille","lat":43.28134,"lon":5.35878,"is_reserved":false,"is_disabled":false,"rental_uris":{"android":"levelo://app?vid=b05ac08d-847b-4f20-ac36-038a0d69d167","ios":"levelo://app?vid=b05ac08d-847b-4f20-ac36-038a0d69d167"},"vehicle_type_id":"4","last_reported":1751289996,"current_range_meters":11200,"station_id":"","pricing_plan_id":"cebpf4jnsgd1na2vs0mg"},{"bike_id":"63b17474-c223-4a73-8b4c-56f8bee6ab57","system_id":"levelo_inurba_marseille","lat":43.3135,"lon":5.36811,"is_reserved":false,"is_disabled":false,"rental_uris":{"android":"levelo://app?vid=63b17474-c223-4a73-8b4c-56f8bee6ab57","ios":"levelo://app?vid=63b17474-c223-4a73-8b4c-56f8bee6ab57"},"vehicle_type_id":"4","last_reported":1751289996,"current_range_meters":11200,"station_id":"","pricing_plan_id":"cebpf4jnsgd1na2vs0mg"},{"bike_id":"174c9070-2748-4ba5-8555-b14a6925a43a","system_id":"levelo_inurba_marseille","lat":43.29311,"lon":5.37175,"is_reserved":false,"is_disabled":false,"rental_uris":{"android":"levelo://app?vid=174c9070-2748-4ba5-8555-b14a6925a43a","ios":"levelo://app?vid=174c9070-2748-4ba5-8555-b14a6925a43a"},"vehicle_type_id":"4","last_reported":1751289996,"current_range_meters":11200,"station_id":"ce4bgh92rcd13ifvqb40","pricing_plan_id":"cebpf4jnsgd1na2vs0mg"},{"bike_id":"acca692d-8d39-459c-a574-7087df4141fc","system_id":"levelo_inurba_marseille","lat":43.31441,"lon":5.37284,"is_reserved":false,"is_disabled":false,"rental_uris":{"android":"levelo://app?vid=acca692d-8d39-459c-a574-7087df4141fc","ios":"levelo://app?vid=acca692d-8d39-459c-a574-7087df4141fc"},"vehicle_type_id":"4","last_reported":1751289996,"current_range_meters":11200,"station_id":"ce4bgt12rcd13ifvqcd0","pricing_plan_id":"cebpf4jnsgd1na2vs0mg"},{"bike_id":"88ace19f-5099-4c38-9beb-02c2db57fc8e","system_id":"levelo_inurba_marseille","lat":43.28283,"lon":5.35091,"is_reserved":false,"is_disabled":false,"rental_uris":{"android":"levelo://app?vid=88ace19f-5099-4c38-9beb-02c2db57fc8e","ios":"levelo://app?vid=88ace19f-5099-4c38-9beb-02c2db57fc8e"},"vehicle_type_id":"4","last_reported":1751289996,"current_range_meters":11200,"station_id":"ce4bhbp2rcd13ifvqerg","pricing_plan_id":"cebpf4jnsgd1na2vs0mg"},{"bike_id":"21b7a841-4e7c-4db3-83ee-859fdeb29179","system_id":"levelo_inurba_marseille","lat":43.28271,"lon":5.35185,"is_reserved":false,"is_disabled":false,"rental_uris":{"android":"levelo://app?vid=21b7a841-4e7c-4db3-83ee-859fdeb29179","ios":"levelo://app?vid=21b7a841-4e7c-4db3-83ee-859fdeb29179"},"vehicle_type_id":"4","last_reported":1751289996,"current_range_meters":11200,"station_id":"ce4bhbp2rcd13ifvqerg","pricing_plan_id":"cebpf4jnsgd1na2vs0mg"},{"bike_id":"5ad89c97-d13e-490d-9775-036d6518236b","system_id":"levelo_inurba_marseille","lat":43.28268,"lon":5.3508,"is_reserved":false,"is_disabled":false,"rental_uris":{"android":"levelo://app?vid=5ad89c97-d13e-490d-9775-036d6518236b","ios":"levelo://app?vid=5ad89c97-d13e-490d-9775-036d6518236b"},"vehicle_type_id":"4","last_reported":1751289996,"current_range_meters":11200,"station_id":"ce4bhbp2rcd13ifvqerg","pricing_plan_id":"cebpf4jnsgd1na2vs0mg"},{"bike_id":"f0e188d0-f2a1-4138-837c-7e343b315bef","system_id":"levelo_inurba_marseille","lat":43.2928,"lon":5.36843,"is_reserved":false,"is_disabled":false,"rental_uris":{"android":"levelo://app?vid=f0e188d0-f2a1-4138-837c-7e343b315bef","ios":"levelo://app?vid=f0e188d0-f2a1-4138-837c-7e343b315bef"},"vehicle_type_id":"4","last_reported":1751289996,"current_range_meters":11200,"station_id":"ce4bhbp2rcd13ifvqesg","pricing_plan_id":"cebpf4jnsgd1na2vs0mg"},{"bike_id":"83d719b8-7401-4b46-aad2-2573411a912e","system_id":"levelo_inurba_marseille","lat":43.26212,"lon":5.37441,"is_reserved":false,"is_disabled":false,"rental_uris":{"android":"levelo://app?vid=83d719b8-7401-4b46-aad2-2573411a912e","ios":"levelo://app?vid=83d719b8-7401-4b46-aad2-2573411a912e"},"vehicle_type_id":"4","last_reported":1751289996,"current_range_meters":11200,"station_id":"ce4bhgp2rcd13ifvqfc0","pricing_plan_id":"cebpf4jnsgd1na2vs0mg"},{"bike_id":"b05733ac-e333-4bae-a385-6c30ebf06450","system_id":"levelo_inurba_marseille","lat":43.275,"lon":5.42458,"is_reserved":false,"is_disabled":false,"rental_uris":{"android":"levelo://app?vid=b05733ac-e333-4bae-a385-6c30ebf06450","ios":"levelo://app?vid=b05733ac-e333-4bae-a385-6c30ebf06450"},"vehicle_type_id":"4","last_reported":1751289996,"current_range_meters":11200,"station_id":"ce4bhn92rcd13ifvqgrg","pricing_plan_id":"cebpf4jnsgd1na2vs0mg"},{"bike_id":"e7641e58-176f-485d-9342-129003cdc52b","system_id":"levelo_inurba_marseille","lat":43.32116,"lon":5.36772,"is_reserved":false,"is_disabled":false,"rental_uris":{"android":"levelo://app?vid=e7641e58-176f-485d-9342-129003cdc52b","ios":"levelo://app?vid=e7641e58-176f-485d-9342-129003cdc52b"},"vehicle_type_id":"4","last_reported":1751289996,"current_range_meters":11200,"station_id":"ce4bhrh2rcd13ifvqhug","pricing_plan_id":"cebpf4jnsgd1na2vs0mg"},{"bike_id":"786f230b-598f-4e58-bbc2-1e0a419e9de2","system_id":"levelo_inurba_marseille","lat":43.26489,"lon":5.39237,"is_reserved":false,"is_disabled":false,"rental_uris":{"android":"levelo://app?vid=786f230b-598f-4e58-bbc2-1e0a419e9de2","ios":"levelo://app?vid=786f230b-598f-4e58-bbc2-1e0a419e9de2"},"vehicle_type_id":"4","last_reported":1751289996,"current_range_meters":11600,"station_id":"","pricing_plan_id":"cebpf4jnsgd1na2vs0mg"},{"bike_id":"7cd73daf-6410-4b72-a872-e5224e9d29ff","system_id":"levelo_inurba_marseille","lat":43.2741,"lon":5.41195,"is_reserved":false,"is_disabled":false,"rental_uris":{"android":"levelo://app?vid=7cd73daf-6410-4b72-a872-e5224e9d29ff","ios":"levelo://app?vid=7cd73daf-6410-4b72-a872-e5224e9d29ff"},"vehicle_type_id":"4","last_reported":1751289996,"current_range_meters":11600,"station_id":"","pricing_plan_id":"cebpf4jnsgd1na2vs0mg"},{"bike_id":"f5c16f07-bc6f-4121-91a7-5ad90eec4f34","system_id":"levelo_inurba_marseille","lat":43.31197,"lon":5.37327,"is_reserved":false,"is_disabled":false,"rental_uris":{"android":"levelo://app?vid=f5c16f07-bc6f-4121-91a7-5ad90eec4f34","ios":"levelo://app?vid=f5c16f07-bc6f-4121-91a7-5ad90eec4f34"},"vehicle_type_id":"4","last_reported":1751289996,"current_range_meters":11600,"station_id":"","pricing_plan_id":"cebpf4jnsgd1na2vs0mg"},{"bike_id":"673a88ab-c78a-4c7c-a98b-d65ce23f2fad","system_id":"levelo_inurba_marseille","lat":43.27374,"lon":5.36241,"is_reserved":false,"is_disabled":false,"rental_uris":{"android":"levelo://app?vid=673a88ab-c78a-4c7c-a98b-d65ce23f2fad","ios":"levelo://app?vid=673a88ab-c78a-4c7c-a98b-d65ce23f2fad"},"vehicle_type_id":"4","last_reported":1751289996,"current_range_meters":11600,"station_id":"ce4bhbh2rcd13ifvqeo0","pricing_plan_id":"cebpf4jnsgd1na2vs0mg"},{"bike_id":"6b6a646f-e1ae-4138-9055-a2e578c870cb","system_id":"levelo_inurba_marseille","lat":43.21744,"lon":5.34607,"is_reserved":false,"is_disabled":false,"rental_uris":{"android":"levelo://app?vid=6b6a646f-e1ae-4138-9055-a2e578c870cb","ios":"levelo://app?vid=6b6a646f-e1ae-4138-9055-a2e578c870cb"},"vehicle_type_id":"4","last_reported":1751289996,"current_range_meters":11600,"station_id":"st_cvj6r9ubvosntc0bgbag","pricing_plan_id":"cebpf4jnsgd1na2vs0mg"},{"bike_id":"7dc148e5-fd7e-4677-bce3-55c94c6ee080","system_id":"levelo_inurba_marseille","lat":43.3072,"lon":5.40937,"is_reserved":false,"is_disabled":false,"rental_uris":{"android":"levelo://app?vid=7dc148e5-fd7e-4677-bce3-55c94c6ee080","ios":"levelo://app?vid=7dc148e5-fd7e-4677-bce3-55c94c6ee080"},"vehicle_type_id":"4","last_reported":1751289996,"current_range_meters":12000,"station_id":"","pricing_plan_id":"cebpf4jnsgd1na2vs0mg"},{"bike_id":"2d98d097-3b22-4959-891b-6c6f77b6196e","system_id":"levelo_inurba_marseille","lat":43.29029,"lon":5.38647,"is_reserved":false,"is_disabled":false,"rental_uris":{"android":"levelo://app?vid=2d98d097-3b22-4959-891b-6c6f77b6196e","ios":"levelo://app?vid=2d98d097-3b22-4959-891b-6c6f77b6196e"},"vehicle_type_id":"4","last_reported":1751289996,"current_range_meters":12000,"station_id":"ce4bh4p2rcd13ifvqe0g","pricing_plan_id":"cebpf4jnsgd1na2vs0mg"},{"bike_id":"b6c522c6-cbef-4d71-a62b-f5594355331f","system_id":"levelo_inurba_marseille","lat":43.26565,"lon":5.39019,"is_reserved":false,"is_disabled":false,"rental_uris":{"android":"levelo://app?vid=b6c522c6-cbef-4d71-a62b-f5594355331f","ios":"levelo://app?vid=b6c522c6-cbef-4d71-a62b-f5594355331f"},"vehicle_type_id":"4","last_reported":1751289996,"current_range_meters":12000,"station_id":"ce4bhe12rcd13ifvqf30","pricing_plan_id":"cebpf4jnsgd1na2vs0mg"},{"bike_id":"08098597-ed49-4e84-a6fe-ac5423b10c0a","system_id":"levelo_inurba_marseille","lat":43.26496,"lon":5.39544,"is_reserved":false,"is_disabled":false,"rental_uris":{"android":"levelo://app?vid=08098597-ed49-4e84-a6fe-ac5423b10c0a","ios":"levelo://app?vid=08098597-ed49-4e84-a6fe-ac5423b10c0a"},"vehicle_type_id":"4","last_reported":1751289996,"current_range_meters":12000,"station_id":"ce4bhi12rcd13ifvqfq0","pricing_plan_id":"cebpf4jnsgd1na2vs0mg"},{"bike_id":"5031ccf9-7dcf-4258-a4a4-0c83bcd30a12","system_id":"levelo_inurba_marseille","lat":43.337444,"lon":5.374475,"is_reserved":false,"is_disabled":false,"rental_uris":{"android":"levelo://app?vid=5031ccf9-7dcf-4258-a4a4-0c83bcd30a12","ios":"levelo://app?vid=5031ccf9-7dcf-4258-a4a4-0c83bcd30a12"},"vehicle_type_id":"4","last_reported":1751289996,"current_range_meters":12400,"station_id":"","pricing_plan_id":"cebpf4jnsgd1na2vs0mg"},{"bike_id":"c2e134cb-ee58-410e-8443-cdf3a592d767","system_id":"levelo_inurba_marseille","lat":43.29571,"lon":5.38733,"is_reserved":false,"is_disabled":false,"rental_uris":{"android":"levelo://app?vid=c2e134cb-ee58-410e-8443-cdf3a592d767","ios":"levelo://app?vid=c2e134cb-ee58-410e-8443-cdf3a592d767"},"vehicle_type_id":"4","last_reported":1751289996,"current_range_meters":12400,"station_id":"","pricing_plan_id":"cebpf4jnsgd1na2vs0mg"},{"bike_id":"2f0b162b-176a-4edb-a2bd-68e73f5c43c6","system_id":"levelo_inurba_marseille","lat":43.30534,"lon":5.3671,"is_reserved":false,"is_disabled":false,"rental_uris":{"android":"levelo://app?vid=2f0b162b-176a-4edb-a2bd-68e73f5c43c6","ios":"levelo://app?vid=2f0b162b-176a-4edb-a2bd-68e73f5c43c6"},"vehicle_type_id":"4","last_reported":1751289996,"current_range_meters":12400,"station_id":"ce4bgrp2rcd13ifvqc9g","pricing_plan_id":"cebpf4jnsgd1na2vs0mg"},{"bike_id":"7b13071e-d3d9-49dd-888b-7688a52f5038","system_id":"levelo_inurba_marseille","lat":43.30543,"lon":5.36536,"is_reserved":false,"is_disabled":false,"rental_uris":{"android":"levelo://app?vid=7b13071e-d3d9-49dd-888b-7688a52f5038","ios":"levelo://app?vid=7b13071e-d3d9-49dd-888b-7688a52f5038"},"vehicle_type_id":"4","last_reported":1751289996,"current_range_meters":12400,"station_id":"ce4bgs12rcd13ifvqcag","pricing_plan_id":"cebpf4jnsgd1na2vs0mg"},{"bike_id":"c1ba7a1b-de2b-4a01-b5d1-16b0aecf608b","system_id":"levelo_inurba_marseille","lat":43.28267,"lon":5.3506,"is_reserved":false,"is_disabled":false,"rental_uris":{"android":"levelo://app?vid=c1ba7a1b-de2b-4a01-b5d1-16b0aecf608b","ios":"levelo://app?vid=c1ba7a1b-de2b-4a01-b5d1-16b0aecf608b"},"vehicle_type_id":"4","last_reported":1751289996,"current_range_meters":12400,"station_id":"ce4bhbp2rcd13ifvqerg","pricing_plan_id":"cebpf4jnsgd1na2vs0mg"},{"bike_id":"b06370fd-57df-4a21-8a70-e1ffee6d1c17","system_id":"levelo_inurba_marseille","lat":43.28249,"lon":5.35039,"is_reserved":false,"is_disabled":false,"rental_uris":{"android":"levelo://app?vid=b06370fd-57df-4a21-8a70-e1ffee6d1c17","ios":"levelo://app?vid=b06370fd-57df-4a21-8a70-e1ffee6d1c17"},"vehicle_type_id":"4","last_reported":1751289996,"current_range_meters":12400,"station_id":"ce4bhbp2rcd13ifvqerg","pricing_plan_id":"cebpf4jnsgd1na2vs0mg"},{"bike_id":"82df44d2-71fa-460c-8cff-8e73d2ef5990","system_id":"levelo_inurba_marseille","lat":43.27211,"lon":5.39177,"is_reserved":false,"is_disabled":false,"rental_uris":{"android":"levelo://app?vid=82df44d2-71fa-460c-8cff-8e73d2ef5990","ios":"levelo://app?vid=82df44d2-71fa-460c-8cff-8e73d2ef5990"},"vehicle_type_id":"4","last_reported":1751289996,"current_range_meters":12400,"station_id":"ce4bhhp2rcd13ifvqfm0","pricing_plan_id":"cebpf4jnsgd1na2vs0mg"},{"bike_id":"09a3885d-2bc1-4762-a1a6-344c4d8231f4","system_id":"levelo_inurba_marseille","lat":43.330246,"lon":5.390353,"is_reserved":false,"is_disabled":false,"rental_uris":{"android":"levelo://app?vid=09a3885d-2bc1-4762-a1a6-344c4d8231f4","ios":"levelo://app?vid=09a3885d-2bc1-4762-a1a6-344c4d8231f4"},"vehicle_type_id":"4","last_reported":1751289996,"current_range_meters":12400,"station_id":"ce4bhr92rcd13ifvqhrg","pricing_plan_id":"cebpf4jnsgd1na2vs0mg"},{"bike_id":"f6a1c1bd-3663-4ab8-bab0-50209b089269","system_id":"levelo_inurba_marseille","lat":43.23198,"lon":5.35556,"is_reserved":false,"is_disabled":false,"rental_uris":{"android":"levelo://app?vid=f6a1c1bd-3663-4ab8-bab0-50209b089269","ios":"levelo://app?vid=f6a1c1bd-3663-4ab8-bab0-50209b089269"},"vehicle_type_id":"4","last_reported":1751289996,"current_range_meters":12400,"station_id":"ce4bhu92rcd13ifvqi70","pricing_plan_id":"cebpf4jnsgd1na2vs0mg"},{"bike_id":"2a7d4522-b0dd-48c1-8653-7a6d0e58cc43","system_id":"levelo_inurba_marseille","lat":43.32092,"lon":5.40139,"is_reserved":false,"is_disabled":false,"rental_uris":{"android":"levelo://app?vid=2a7d4522-b0dd-48c1-8653-7a6d0e58cc43","ios":"levelo://app?vid=2a7d4522-b0dd-48c1-8653-7a6d0e58cc43"},"vehicle_type_id":"4","last_reported":1751289996,"current_range_meters":12800,"station_id":"","pricing_plan_id":"cebpf4jnsgd1na2vs0mg"},{"bike_id":"d97fb146-df52-454f-9826-e3f143dab8fc","system_id":"levelo_inurba_marseille","lat":43.21187,"lon":5.35079,"is_reserved":false,"is_disabled":false,"rental_uris":{"android":"levelo://app?vid=d97fb146-df52-454f-9826-e3f143dab8fc","ios":"levelo://app?vid=d97fb146-df52-454f-9826-e3f143dab8fc"},"vehicle_type_id":"4","last_reported":1751289996,"current_range_meters":12800,"station_id":"st_cvj6sg6p6f1abm77japg","pricing_plan_id":"cebpf4jnsgd1na2vs0mg"},{"bike_id":"5be1a4b5-3e1e-4bcd-9477-5aee0b89f062","system_id":"levelo_inurba_marseille","lat":43.278463,"lon":5.354565,"is_reserved":false,"is_disabled":false,"rental_uris":{"android":"levelo://app?vid=5be1a4b5-3e1e-4bcd-9477-5aee0b89f062","ios":"levelo://app?vid=5be1a4b5-3e1e-4bcd-9477-5aee0b89f062"},"vehicle_type_id":"4","last_reported":1751289996,"current_range_meters":13600,"station_id":"","pricing_plan_id":"cebpf4jnsgd1na2vs0mg"},{"bike_id":"b9463ac1-e3e8-47cd-a605-84035dbbc86a","system_id":"levelo_inurba_marseille","lat":43.30901,"lon":5.39644,"is_reserved":false,"is_disabled":false,"rental_uris":{"android":"levelo://app?vid=b9463ac1-e3e8-47cd-a605-84035dbbc86a","ios":"levelo://app?vid=b9463ac1-e3e8-47cd-a605-84035dbbc86a"},"vehicle_type_id":"4","last_reported":1751289996,"current_range_meters":13600,"station_id":"ce4bh012rcd13ifvqcv0","pricing_plan_id":"cebpf4jnsgd1na2vs0mg"},{"bike_id":"ea3d6cab-de34-4d69-9c23-d3e2b6233884","system_id":"levelo_inurba_marseille","lat":43.26212,"lon":5.37456,"is_reserved":false,"is_disabled":false,"rental_uris":{"android":"levelo://app?vid=ea3d6cab-de34-4d69-9c23-d3e2b6233884","ios":"levelo://app?vid=ea3d6cab-de34-4d69-9c23-d3e2b6233884"},"vehicle_type_id":"4","last_reported":1751289996,"current_range_meters":13600,"station_id":"ce4bhgp2rcd13ifvqfc0","pricing_plan_id":"cebpf4jnsgd1na2vs0mg"},{"bike_id":"ceb818d5-6a0e-45de-8d40-c9c1b19d5e60","system_id":"levelo_inurba_marseille","lat":43.32379,"lon":5.36747,"is_reserved":false,"is_disabled":false,"rental_uris":{"android":"levelo://app?vid=ceb818d5-6a0e-45de-8d40-c9c1b19d5e60","ios":"levelo://app?vid=ceb818d5-6a0e-45de-8d40-c9c1b19d5e60"},"vehicle_type_id":"4","last_reported":1751289996,"current_range_meters":13600,"station_id":"ce4bhsh2rcd13ifvqi2g","pricing_plan_id":"cebpf4jnsgd1na2vs0mg"},{"bike_id":"30beeb03-99f8-4c21-aeda-bd83286c050c","system_id":"levelo_inurba_marseille","lat":43.29549,"lon":5.37499,"is_reserved":false,"is_disabled":false,"rental_uris":{"android":"levelo://app?vid=30beeb03-99f8-4c21-aeda-bd83286c050c","ios":"levelo://app?vid=30beeb03-99f8-4c21-aeda-bd83286c050c"},"vehicle_type_id":"4","last_reported":1751289996,"current_range_meters":14000,"station_id":"ce4bgkp2rcd13ifvqbmg","pricing_plan_id":"cebpf4jnsgd1na2vs0mg"},{"bike_id":"b8ac685b-8ddb-49b5-82ed-f84cf162814e","system_id":"levelo_inurba_marseille","lat":43.28264,"lon":5.35063,"is_reserved":false,"is_disabled":false,"rental_uris":{"android":"levelo://app?vid=b8ac685b-8ddb-49b5-82ed-f84cf162814e","ios":"levelo://app?vid=b8ac685b-8ddb-49b5-82ed-f84cf162814e"},"vehicle_type_id":"4","last_reported":1751289996,"current_range_meters":14000,"station_id":"ce4bhbp2rcd13ifvqerg","pricing_plan_id":"cebpf4jnsgd1na2vs0mg"},{"bike_id":"316d1e18-ab04-4770-adab-4a5c7bab9cd5","system_id":"levelo_inurba_marseille","lat":43.31082,"lon":5.42432,"is_reserved":false,"is_disabled":false,"rental_uris":{"android":"levelo://app?vid=316d1e18-ab04-4770-adab-4a5c7bab9cd5","ios":"levelo://app?vid=316d1e18-ab04-4770-adab-4a5c7bab9cd5"},"vehicle_type_id":"4","last_reported":1751289996,"current_range_meters":14000,"station_id":"ce4bhp92rcd13ifvqhag","pricing_plan_id":"cebpf4jnsgd1na2vs0mg"},{"bike_id":"1ac664aa-f2a4-4b75-879f-dcb93272d133","system_id":"levelo_inurba_marseille","lat":43.32054,"lon":5.40954,"is_reserved":false,"is_disabled":false,"rental_uris":{"android":"levelo://app?vid=1ac664aa-f2a4-4b75-879f-dcb93272d133","ios":"levelo://app?vid=1ac664aa-f2a4-4b75-879f-dcb93272d133"},"vehicle_type_id":"4","last_reported":1751289996,"current_range_meters":14400,"station_id":"","pricing_plan_id":"cebpf4jnsgd1na2vs0mg"},{"bike_id":"b6941871-17ec-4dc8-9dbe-bf1e08f324ad","system_id":"levelo_inurba_marseille","lat":43.31221,"lon":5.36899,"is_reserved":false,"is_disabled":false,"rental_uris":{"android":"levelo://app?vid=b6941871-17ec-4dc8-9dbe-bf1e08f324ad","ios":"levelo://app?vid=b6941871-17ec-4dc8-9dbe-bf1e08f324ad"},"vehicle_type_id":"4","last_reported":1751289996,"current_range_meters":14400,"station_id":"ce4bgl92rcd13ifvqbq0","pricing_plan_id":"cebpf4jnsgd1na2vs0mg"},{"bike_id":"a9835598-2276-4022-80da-0468bafa8f30","system_id":"levelo_inurba_marseille","lat":43.29869,"lon":5.39726,"is_reserved":false,"is_disabled":false,"rental_uris":{"android":"levelo://app?vid=a9835598-2276-4022-80da-0468bafa8f30","ios":"levelo://app?vid=a9835598-2276-4022-80da-0468bafa8f30"},"vehicle_type_id":"4","last_reported":1751289996,"current_range_meters":14400,"station_id":"ce4bh0h2rcd13ifvqd50","pricing_plan_id":"cebpf4jnsgd1na2vs0mg"},{"bike_id":"2dc0c48f-665d-4fd8-a411-8d185c217984","system_id":"levelo_inurba_marseille","lat":43.29519,"lon":5.39426,"is_reserved":false,"is_disabled":false,"rental_uris":{"android":"levelo://app?vid=2dc0c48f-665d-4fd8-a411-8d185c217984","ios":"levelo://app?vid=2dc0c48f-665d-4fd8-a411-8d185c217984"},"vehicle_type_id":"4","last_reported":1751289996,"current_range_meters":14400,"station_id":"ce4bh292rcd13ifvqdf0","pricing_plan_id":"cebpf4jnsgd1na2vs0mg"},{"bike_id":"f773c1a0-a8df-48fe-8729-030631df3612","system_id":"levelo_inurba_marseille","lat":43.29232,"lon":5.36077,"is_reserved":false,"is_disabled":false,"rental_uris":{"android":"levelo://app?vid=f773c1a0-a8df-48fe-8729-030631df3612","ios":"levelo://app?vid=f773c1a0-a8df-48fe-8729-030631df3612"},"vehicle_type_id":"4","last_reported":1751289996,"current_range_meters":14400,"station_id":"ce4bhbh2rcd13ifvqeqg","pricing_plan_id":"cebpf4jnsgd1na2vs0mg"},{"bike_id":"ecda20bd-1c69-43c0-afe9-e93e538fd2c4","system_id":"levelo_inurba_marseille","lat":43.24379,"lon":5.37061,"is_reserved":false,"is_disabled":false,"rental_uris":{"android":"levelo://app?vid=ecda20bd-1c69-43c0-afe9-e93e538fd2c4","ios":"levelo://app?vid=ecda20bd-1c69-43c0-afe9-e93e538fd2c4"},"vehicle_type_id":"4","last_reported":1751289996,"current_range_meters":14400,"station_id":"ce4bhhh2rcd13ifvqfk0","pricing_plan_id":"cebpf4jnsgd1na2vs0mg"},{"bike_id":"0bbacc1b-16a4-4b0f-a6c0-a6651dd5b39c","system_id":"levelo_inurba_marseille","lat":43.24389,"lon":5.37053,"is_reserved":false,"is_disabled":false,"rental_uris":{"android":"levelo://app?vid=0bbacc1b-16a4-4b0f-a6c0-a6651dd5b39c","ios":"levelo://app?vid=0bbacc1b-16a4-4b0f-a6c0-a6651dd5b39c"},"vehicle_type_id":"4","last_reported":1751289996,"current_range_meters":14400,"station_id":"ce4bhhh2rcd13ifvqfk0","pricing_plan_id":"cebpf4jnsgd1na2vs0mg"},{"bike_id":"5e540ccc-ff6f-40fd-92e9-f2d06cb8330a","system_id":"levelo_inurba_marseille","lat":43.25582,"lon":5.38231,"is_reserved":false,"is_disabled":false,"rental_uris":{"android":"levelo://app?vid=5e540ccc-ff6f-40fd-92e9-f2d06cb8330a","ios":"levelo://app?vid=5e540ccc-ff6f-40fd-92e9-f2d06cb8330a"},"vehicle_type_id":"4","last_reported":1751289996,"current_range_meters":14400,"station_id":"ce4bhih2rcd13ifvqfs0","pricing_plan_id":"cebpf4jnsgd1na2vs0mg"},{"bike_id":"c0f858cd-9994-45ef-b627-fda1ff10cf98","system_id":"levelo_inurba_marseille","lat":43.29297,"lon":5.37452,"is_reserved":false,"is_disabled":false,"rental_uris":{"android":"levelo://app?vid=c0f858cd-9994-45ef-b627-fda1ff10cf98","ios":"levelo://app?vid=c0f858cd-9994-45ef-b627-fda1ff10cf98"},"vehicle_type_id":"4","last_reported":1751289996,"current_range_meters":14800,"station_id":"ce4bgi12rcd13ifvqb70","pricing_plan_id":"cebpf4jnsgd1na2vs0mg"},{"bike_id":"8465b3e1-acd3-4178-9e6a-3bd6c5128cf5","system_id":"levelo_inurba_marseille","lat":43.30884,"lon":5.39654,"is_reserved":false,"is_disabled":false,"rental_uris":{"android":"levelo://app?vid=8465b3e1-acd3-4178-9e6a-3bd6c5128cf5","ios":"levelo://app?vid=8465b3e1-acd3-4178-9e6a-3bd6c5128cf5"},"vehicle_type_id":"4","last_reported":1751289996,"current_range_meters":14800,"station_id":"ce4bh012rcd13ifvqcv0","pricing_plan_id":"cebpf4jnsgd1na2vs0mg"},{"bike_id":"7888bab3-6834-49ba-ae22-6d936327d6a0","system_id":"levelo_inurba_marseille","lat":43.25023,"lon":5.38915,"is_reserved":false,"is_disabled":false,"rental_uris":{"android":"levelo://app?vid=7888bab3-6834-49ba-ae22-6d936327d6a0","ios":"levelo://app?vid=7888bab3-6834-49ba-ae22-6d936327d6a0"},"vehicle_type_id":"4","last_reported":1751289996,"current_range_meters":14800,"station_id":"ce4bhgp2rcd13ifvqfd0","pricing_plan_id":"cebpf4jnsgd1na2vs0mg"},{"bike_id":"6b04a8db-f012-4ea9-88f5-d59ff3f24fd9","system_id":"levelo_inurba_marseille","lat":43.29903,"lon":5.43665,"is_reserved":false,"is_disabled":false,"rental_uris":{"android":"levelo://app?vid=6b04a8db-f012-4ea9-88f5-d59ff3f24fd9","ios":"levelo://app?vid=6b04a8db-f012-4ea9-88f5-d59ff3f24fd9"},"vehicle_type_id":"4","last_reported":1751289996,"current_range_meters":14800,"station_id":"ce4bhpp2rcd13ifvqhfg","pricing_plan_id":"cebpf4jnsgd1na2vs0mg"},{"bike_id":"4e47abe4-6598-4756-807d-26ba558e3c39","system_id":"levelo_inurba_marseille","lat":43.29897,"lon":5.43656,"is_reserved":false,"is_disabled":false,"rental_uris":{"android":"levelo://app?vid=4e47abe4-6598-4756-807d-26ba558e3c39","ios":"levelo://app?vid=4e47abe4-6598-4756-807d-26ba558e3c39"},"vehicle_type_id":"4","last_reported":1751289996,"current_range_meters":14800,"station_id":"ce4bhpp2rcd13ifvqhfg","pricing_plan_id":"cebpf4jnsgd1na2vs0mg"},{"bike_id":"c1ba2ce0-7071-4dbc-a194-704b07f03f90","system_id":"levelo_inurba_marseille","lat":43.29909,"lon":5.43646,"is_reserved":false,"is_disabled":false,"rental_uris":{"android":"levelo://app?vid=c1ba2ce0-7071-4dbc-a194-704b07f03f90","ios":"levelo://app?vid=c1ba2ce0-7071-4dbc-a194-704b07f03f90"},"vehicle_type_id":"4","last_reported":1751289996,"current_range_meters":14800,"station_id":"ce4bhpp2rcd13ifvqhfg","pricing_plan_id":"cebpf4jnsgd1na2vs0mg"},{"bike_id":"3791d02f-d23f-4e76-be85-41a9b5e2cbd0","system_id":"levelo_inurba_marseille","lat":43.30546,"lon":5.36537,"is_reserved":false,"is_disabled":false,"rental_uris":{"android":"levelo://app?vid=3791d02f-d23f-4e76-be85-41a9b5e2cbd0","ios":"levelo://app?vid=3791d02f-d23f-4e76-be85-41a9b5e2cbd0"},"vehicle_type_id":"4","last_reported":1751289996,"current_range_meters":15200,"station_id":"ce4bgs12rcd13ifvqcag","pricing_plan_id":"cebpf4jnsgd1na2vs0mg"},{"bike_id":"7e4753a4-9642-407b-b691-0d09d36eb90d","system_id":"levelo_inurba_marseille","lat":43.29519,"lon":5.394062,"is_reserved":false,"is_disabled":false,"rental_uris":{"android":"levelo://app?vid=7e4753a4-9642-407b-b691-0d09d36eb90d","ios":"levelo://app?vid=7e4753a4-9642-407b-b691-0d09d36eb90d"},"vehicle_type_id":"4","last_reported":1751289996,"current_range_meters":15200,"station_id":"ce4bh292rcd13ifvqdf0","pricing_plan_id":"cebpf4jnsgd1na2vs0mg"},{"bike_id":"78dae8e7-33eb-451e-8de8-688b8fcb5794","system_id":"levelo_inurba_marseille","lat":43.25505,"lon":5.37654,"is_reserved":false,"is_disabled":false,"rental_uris":{"android":"levelo://app?vid=78dae8e7-33eb-451e-8de8-688b8fcb5794","ios":"levelo://app?vid=78dae8e7-33eb-451e-8de8-688b8fcb5794"},"vehicle_type_id":"4","last_reported":1751289996,"current_range_meters":15200,"station_id":"ce4bhh12rcd13ifvqff0","pricing_plan_id":"cebpf4jnsgd1na2vs0mg"},{"bike_id":"6531b65e-c323-4552-901b-d44bb8ccf8d7","system_id":"levelo_inurba_marseille","lat":43.3267,"lon":5.41,"is_reserved":false,"is_disabled":false,"rental_uris":{"android":"levelo://app?vid=6531b65e-c323-4552-901b-d44bb8ccf8d7","ios":"levelo://app?vid=6531b65e-c323-4552-901b-d44bb8ccf8d7"},"vehicle_type_id":"4","last_reported":1751289996,"current_range_meters":15200,"station_id":"ce4bhpp2rcd13ifvqhgg","pricing_plan_id":"cebpf4jnsgd1na2vs0mg"},{"bike_id":"aad466d4-9058-4038-a189-895fae6f1c28","system_id":"levelo_inurba_marseille","lat":43.211874,"lon":5.350684,"is_reserved":false,"is_disabled":false,"rental_uris":{"android":"levelo://app?vid=aad466d4-9058-4038-a189-895fae6f1c28","ios":"levelo://app?vid=aad466d4-9058-4038-a189-895fae6f1c28"},"vehicle_type_id":"4","last_reported":1751289996,"current_range_meters":15200,"station_id":"st_cvj6sg6p6f1abm77japg","pricing_plan_id":"cebpf4jnsgd1na2vs0mg"},{"bike_id":"57d6a022-1dd6-4eb5-9917-66e50dd3b7a4","system_id":"levelo_inurba_marseille","lat":43.29313,"lon":5.3718,"is_reserved":false,"is_disabled":false,"rental_uris":{"android":"levelo://app?vid=57d6a022-1dd6-4eb5-9917-66e50dd3b7a4","ios":"levelo://app?vid=57d6a022-1dd6-4eb5-9917-66e50dd3b7a4"},"vehicle_type_id":"4","last_reported":1751289996,"current_range_meters":16000,"station_id":"ce4bgh92rcd13ifvqb40","pricing_plan_id":"cebpf4jnsgd1na2vs0mg"},{"bike_id":"19902b26-1db2-418b-b8f6-5d1724e262de","system_id":"levelo_inurba_marseille","lat":43.30093,"lon":5.39065,"is_reserved":false,"is_disabled":false,"rental_uris":{"android":"levelo://app?vid=19902b26-1db2-418b-b8f6-5d1724e262de","ios":"levelo://app?vid=19902b26-1db2-418b-b8f6-5d1724e262de"},"vehicle_type_id":"4","last_reported":1751289996,"current_range_meters":16000,"station_id":"ce4bh192rcd13ifvqdb0","pricing_plan_id":"cebpf4jnsgd1na2vs0mg"},{"bike_id":"c28e39dc-72cd-4fd8-89b7-00c27c125c16","system_id":"levelo_inurba_marseille","lat":43.28418,"lon":5.34981,"is_reserved":false,"is_disabled":false,"rental_uris":{"android":"levelo://app?vid=c28e39dc-72cd-4fd8-89b7-00c27c125c16","ios":"levelo://app?vid=c28e39dc-72cd-4fd8-89b7-00c27c125c16"},"vehicle_type_id":"4","last_reported":1751289996,"current_range_meters":16000,"station_id":"ce4bhbh2rcd13ifvqepg","pricing_plan_id":"cebpf4jnsgd1na2vs0mg"},{"bike_id":"96e785d3-0c2a-4bec-b011-c91b6e4e90c3","system_id":"levelo_inurba_marseille","lat":43.26205,"lon":5.37443,"is_reserved":false,"is_disabled":false,"rental_uris":{"android":"levelo://app?vid=96e785d3-0c2a-4bec-b011-c91b6e4e90c3","ios":"levelo://app?vid=96e785d3-0c2a-4bec-b011-c91b6e4e90c3"},"vehicle_type_id":"4","last_reported":1751289996,"current_range_meters":16000,"station_id":"ce4bhgp2rcd13ifvqfc0","pricing_plan_id":"cebpf4jnsgd1na2vs0mg"},{"bike_id":"d18872b4-cc39-4e0a-ae9d-ec491242a57c","system_id":"levelo_inurba_marseille","lat":43.27945,"lon":5.41045,"is_reserved":false,"is_disabled":false,"rental_uris":{"android":"levelo://app?vid=d18872b4-cc39-4e0a-ae9d-ec491242a57c","ios":"levelo://app?vid=d18872b4-cc39-4e0a-ae9d-ec491242a57c"},"vehicle_type_id":"4","last_reported":1751289996,"current_range_meters":16000,"station_id":"ce4bhnp2rcd13ifvqh0g","pricing_plan_id":"cebpf4jnsgd1na2vs0mg"},{"bike_id":"27de128b-79d6-4ae4-99ba-8537bd95d5a2","system_id":"levelo_inurba_marseille","lat":43.324826,"lon":5.365704,"is_reserved":false,"is_disabled":false,"rental_uris":{"android":"levelo://app?vid=27de128b-79d6-4ae4-99ba-8537bd95d5a2","ios":"levelo://app?vid=27de128b-79d6-4ae4-99ba-8537bd95d5a2"},"vehicle_type_id":"4","last_reported":1751289996,"current_range_meters":16000,"station_id":"ce4bhs12rcd13ifvqhvg","pricing_plan_id":"cebpf4jnsgd1na2vs0mg"},{"bike_id":"4db1f4d1-cc69-4062-a9a6-1e117a1edb6f","system_id":"levelo_inurba_marseille","lat":43.23198,"lon":5.35552,"is_reserved":false,"is_disabled":false,"rental_uris":{"android":"levelo://app?vid=4db1f4d1-cc69-4062-a9a6-1e117a1edb6f","ios":"levelo://app?vid=4db1f4d1-cc69-4062-a9a6-1e117a1edb6f"},"vehicle_type_id":"4","last_reported":1751289996,"current_range_meters":16000,"station_id":"ce4bhu92rcd13ifvqi70","pricing_plan_id":"cebpf4jnsgd1na2vs0mg"},{"bike_id":"4f97e136-2006-43b5-84b8-8ce28f4647e9","system_id":"levelo_inurba_marseille","lat":43.21191,"lon":5.35072,"is_reserved":false,"is_disabled":false,"rental_uris":{"android":"levelo://app?vid=4f97e136-2006-43b5-84b8-8ce28f4647e9","ios":"levelo://app?vid=4f97e136-2006-43b5-84b8-8ce28f4647e9"},"vehicle_type_id":"4","last_reported":1751289996,"current_range_meters":16000,"station_id":"st_cvj6sg6p6f1abm77japg","pricing_plan_id":"cebpf4jnsgd1na2vs0mg"},{"bike_id":"8ceb2860-ca09-420a-8aab-fcf0c529a0d3","system_id":"levelo_inurba_marseille","lat":43.211886,"lon":5.3507,"is_reserved":false,"is_disabled":false,"rental_uris":{"android":"levelo://app?vid=8ceb2860-ca09-420a-8aab-fcf0c529a0d3","ios":"levelo://app?vid=8ceb2860-ca09-420a-8aab-fcf0c529a0d3"},"vehicle_type_id":"4","last_reported":1751289996,"current_range_meters":16000,"station_id":"st_cvj6sg6p6f1abm77japg","pricing_plan_id":"cebpf4jnsgd1na2vs0mg"},{"bike_id":"10baf240-4eab-407b-96ea-7b95c4e0d1d3","system_id":"levelo_inurba_marseille","lat":43.3095,"lon":5.39048,"is_reserved":false,"is_disabled":false,"rental_uris":{"android":"levelo://app?vid=10baf240-4eab-407b-96ea-7b95c4e0d1d3","ios":"levelo://app?vid=10baf240-4eab-407b-96ea-7b95c4e0d1d3"},"vehicle_type_id":"4","last_reported":1751289996,"current_range_meters":16400,"station_id":"ce4bgup2rcd13ifvqco0","pricing_plan_id":"cebpf4jnsgd1na2vs0mg"},{"bike_id":"1b2aa953-af03-4616-94c0-c911ae55fc7e","system_id":"levelo_inurba_marseille","lat":43.29033,"lon":5.37566,"is_reserved":false,"is_disabled":false,"rental_uris":{"android":"levelo://app?vid=1b2aa953-af03-4616-94c0-c911ae55fc7e","ios":"levelo://app?vid=1b2aa953-af03-4616-94c0-c911ae55fc7e"},"vehicle_type_id":"4","last_reported":1751289996,"current_range_meters":16400,"station_id":"ce4bh692rcd13ifvqe90","pricing_plan_id":"cebpf4jnsgd1na2vs0mg"},{"bike_id":"ea373cba-a5ae-48c2-86b0-38ae1011c0df","system_id":"levelo_inurba_marseille","lat":43.28615,"lon":5.35107,"is_reserved":false,"is_disabled":false,"rental_uris":{"android":"levelo://app?vid=ea373cba-a5ae-48c2-86b0-38ae1011c0df","ios":"levelo://app?vid=ea373cba-a5ae-48c2-86b0-38ae1011c0df"},"vehicle_type_id":"4","last_reported":1751289996,"current_range_meters":16400,"station_id":"ce4bhch2rcd13ifvqeug","pricing_plan_id":"cebpf4jnsgd1na2vs0mg"},{"bike_id":"d8facb10-b967-4a32-9b5c-8cfed4bbd05b","system_id":"levelo_inurba_marseille","lat":43.321158,"lon":5.367705,"is_reserved":false,"is_disabled":false,"rental_uris":{"android":"levelo://app?vid=d8facb10-b967-4a32-9b5c-8cfed4bbd05b","ios":"levelo://app?vid=d8facb10-b967-4a32-9b5c-8cfed4bbd05b"},"vehicle_type_id":"4","last_reported":1751289996,"current_range_meters":16400,"station_id":"ce4bhrh2rcd13ifvqhug","pricing_plan_id":"cebpf4jnsgd1na2vs0mg"},{"bike_id":"68f6f745-bb19-4bd9-82d6-a73b436c598d","system_id":"levelo_inurba_marseille","lat":43.26944,"lon":5.40255,"is_reserved":false,"is_disabled":false,"rental_uris":{"android":"levelo://app?vid=68f6f745-bb19-4bd9-82d6-a73b436c598d","ios":"levelo://app?vid=68f6f745-bb19-4bd9-82d6-a73b436c598d"},"vehicle_type_id":"4","last_reported":1751289996,"current_range_meters":16400,"station_id":"cjm6bp8fraef2m0cb0m0","pricing_plan_id":"cebpf4jnsgd1na2vs0mg"},{"bike_id":"e8f1adbf-1868-4664-9ec6-d9e7450684d3","system_id":"levelo_inurba_marseille","lat":43.30137,"lon":5.39878,"is_reserved":false,"is_disabled":false,"rental_uris":{"android":"levelo://app?vid=e8f1adbf-1868-4664-9ec6-d9e7450684d3","ios":"levelo://app?vid=e8f1adbf-1868-4664-9ec6-d9e7450684d3"},"vehicle_type_id":"4","last_reported":1751289996,"current_range_meters":16800,"station_id":"ce4bh0h2rcd13ifvqd40","pricing_plan_id":"cebpf4jnsgd1na2vs0mg"},{"bike_id":"b9f62be6-feda-472a-97a7-d01fd485328e","system_id":"levelo_inurba_marseille","lat":43.29005,"lon":5.35607,"is_reserved":false,"is_disabled":false,"rental_uris":{"android":"levelo://app?vid=b9f62be6-feda-472a-97a7-d01fd485328e","ios":"levelo://app?vid=b9f62be6-feda-472a-97a7-d01fd485328e"},"vehicle_type_id":"4","last_reported":1751289996,"current_range_meters":16800,"station_id":"ce4bhb92rcd13ifvqen0","pricing_plan_id":"cebpf4jnsgd1na2vs0mg"},{"bike_id":"eecd48d3-83f9-41b4-8653-15bec4148030","system_id":"levelo_inurba_marseille","lat":43.28155,"lon":5.42643,"is_reserved":false,"is_disabled":false,"rental_uris":{"android":"levelo://app?vid=eecd48d3-83f9-41b4-8653-15bec4148030","ios":"levelo://app?vid=eecd48d3-83f9-41b4-8653-15bec4148030"},"vehicle_type_id":"4","last_reported":1751289996,"current_range_meters":16800,"station_id":"ce4bhnh2rcd13ifvqgug","pricing_plan_id":"cebpf4jnsgd1na2vs0mg"},{"bike_id":"048ec6e9-5fd9-4256-ae6a-a72856ab2acf","system_id":"levelo_inurba_marseille","lat":43.21177,"lon":5.35069,"is_reserved":false,"is_disabled":false,"rental_uris":{"android":"levelo://app?vid=048ec6e9-5fd9-4256-ae6a-a72856ab2acf","ios":"levelo://app?vid=048ec6e9-5fd9-4256-ae6a-a72856ab2acf"},"vehicle_type_id":"4","last_reported":1751289996,"current_range_meters":16800,"station_id":"st_cvj6sg6p6f1abm77japg","pricing_plan_id":"cebpf4jnsgd1na2vs0mg"},{"bike_id":"d5da5bd9-7c2a-48e5-92aa-fa21076cad13","system_id":"levelo_inurba_marseille","lat":43.2121,"lon":5.35065,"is_reserved":false,"is_disabled":false,"rental_uris":{"android":"levelo://app?vid=d5da5bd9-7c2a-48e5-92aa-fa21076cad13","ios":"levelo://app?vid=d5da5bd9-7c2a-48e5-92aa-fa21076cad13"},"vehicle_type_id":"4","last_reported":1751289996,"current_range_meters":16800,"station_id":"st_cvj6sg6p6f1abm77japg","pricing_plan_id":"cebpf4jnsgd1na2vs0mg"},{"bike_id":"2b4fa9d6-d55c-459f-b66a-601a052cf300","system_id":"levelo_inurba_marseille","lat":43.31497,"lon":5.37299,"is_reserved":false,"is_disabled":false,"rental_uris":{"android":"levelo://app?vid=2b4fa9d6-d55c-459f-b66a-601a052cf300","ios":"levelo://app?vid=2b4fa9d6-d55c-459f-b66a-601a052cf300"},"vehicle_type_id":"4","last_reported":1751289996,"current_range_meters":17200,"station_id":"ce4bgt12rcd13ifvqcd0","pricing_plan_id":"cebpf4jnsgd1na2vs0mg"},{"bike_id":"28644ea9-7b02-4e91-9dea-210add97a320","system_id":"levelo_inurba_marseille","lat":43.27583,"lon":5.38427,"is_reserved":false,"is_disabled":false,"rental_uris":{"android":"levelo://app?vid=28644ea9-7b02-4e91-9dea-210add97a320","ios":"levelo://app?vid=28644ea9-7b02-4e91-9dea-210add97a320"},"vehicle_type_id":"4","last_reported":1751289996,"current_range_meters":17200,"station_id":"ce4bhh92rcd13ifvqfi0","pricing_plan_id":"cebpf4jnsgd1na2vs0mg"},{"bike_id":"7def622c-1243-44da-af36-4c505b4f00ba","system_id":"levelo_inurba_marseille","lat":43.24185,"lon":5.39746,"is_reserved":false,"is_disabled":false,"rental_uris":{"android":"levelo://app?vid=7def622c-1243-44da-af36-4c505b4f00ba","ios":"levelo://app?vid=7def622c-1243-44da-af36-4c505b4f00ba"},"vehicle_type_id":"4","last_reported":1751289996,"current_range_meters":17200,"station_id":"ce4bhn12rcd13ifvqgpg","pricing_plan_id":"cebpf4jnsgd1na2vs0mg"},{"bike_id":"e89f449d-cc97-4497-a5e4-f39b9257927a","system_id":"levelo_inurba_marseille","lat":43.330227,"lon":5.390453,"is_reserved":false,"is_disabled":false,"rental_uris":{"android":"levelo://app?vid=e89f449d-cc97-4497-a5e4-f39b9257927a","ios":"levelo://app?vid=e89f449d-cc97-4497-a5e4-f39b9257927a"},"vehicle_type_id":"4","last_reported":1751289996,"current_range_meters":17200,"station_id":"ce4bhr92rcd13ifvqhrg","pricing_plan_id":"cebpf4jnsgd1na2vs0mg"},{"bike_id":"204d208f-daa0-4122-81e6-f25addc2ff29","system_id":"levelo_inurba_marseille","lat":43.3249,"lon":5.36564,"is_reserved":false,"is_disabled":false,"rental_uris":{"android":"levelo://app?vid=204d208f-daa0-4122-81e6-f25addc2ff29","ios":"levelo://app?vid=204d208f-daa0-4122-81e6-f25addc2ff29"},"vehicle_type_id":"4","last_reported":1751289996,"current_range_meters":17200,"station_id":"ce4bhs12rcd13ifvqhvg","pricing_plan_id":"cebpf4jnsgd1na2vs0mg"},{"bike_id":"d90daeb2-baa5-4f84-8ba2-ffc1dcd4b96b","system_id":"levelo_inurba_marseille","lat":43.241694,"lon":5.364088,"is_reserved":false,"is_disabled":false,"rental_uris":{"android":"levelo://app?vid=d90daeb2-baa5-4f84-8ba2-ffc1dcd4b96b","ios":"levelo://app?vid=d90daeb2-baa5-4f84-8ba2-ffc1dcd4b96b"},"vehicle_type_id":"4","last_reported":1751289996,"current_range_meters":17200,"station_id":"cpo36qri1sfpv3e86is0","pricing_plan_id":"cebpf4jnsgd1na2vs0mg"},{"bike_id":"e552832c-7ca2-4106-b0f9-92bbabda27d1","system_id":"levelo_inurba_marseille","lat":43.21202,"lon":5.35096,"is_reserved":false,"is_disabled":false,"rental_uris":{"android":"levelo://app?vid=e552832c-7ca2-4106-b0f9-92bbabda27d1","ios":"levelo://app?vid=e552832c-7ca2-4106-b0f9-92bbabda27d1"},"vehicle_type_id":"4","last_reported":1751289996,"current_range_meters":17200,"station_id":"st_cvj6sg6p6f1abm77japg","pricing_plan_id":"cebpf4jnsgd1na2vs0mg"},{"bike_id":"e891d413-f511-44d4-9ddd-90f57509289b","system_id":"levelo_inurba_marseille","lat":43.3169,"lon":5.36756,"is_reserved":false,"is_disabled":false,"rental_uris":{"android":"levelo://app?vid=e891d413-f511-44d4-9ddd-90f57509289b","ios":"levelo://app?vid=e891d413-f511-44d4-9ddd-90f57509289b"},"vehicle_type_id":"4","last_reported":1751289996,"current_range_meters":17600,"station_id":"","pricing_plan_id":"cebpf4jnsgd1na2vs0mg"},{"bike_id":"1c1e0436-c990-4c38-b11e-d6968f287975","system_id":"levelo_inurba_marseille","lat":43.29584,"lon":5.3678,"is_reserved":false,"is_disabled":false,"rental_uris":{"android":"levelo://app?vid=1c1e0436-c990-4c38-b11e-d6968f287975","ios":"levelo://app?vid=1c1e0436-c990-4c38-b11e-d6968f287975"},"vehicle_type_id":"4","last_reported":1751289996,"current_range_meters":17600,"station_id":"ce4bgph2rcd13ifvqc2g","pricing_plan_id":"cebpf4jnsgd1na2vs0mg"},{"bike_id":"405f1163-7aff-4d9a-ab8a-1abc8550e842","system_id":"levelo_inurba_marseille","lat":43.28467,"lon":5.35888,"is_reserved":false,"is_disabled":false,"rental_uris":{"android":"levelo://app?vid=405f1163-7aff-4d9a-ab8a-1abc8550e842","ios":"levelo://app?vid=405f1163-7aff-4d9a-ab8a-1abc8550e842"},"vehicle_type_id":"4","last_reported":1751289996,"current_range_meters":17600,"station_id":"ce4bhah2rcd13ifvqei0","pricing_plan_id":"cebpf4jnsgd1na2vs0mg"},{"bike_id":"5fc8b878-acf2-426f-a83c-07496f99dad0","system_id":"levelo_inurba_marseille","lat":43.29191,"lon":5.35795,"is_reserved":false,"is_disabled":false,"rental_uris":{"android":"levelo://app?vid=5fc8b878-acf2-426f-a83c-07496f99dad0","ios":"levelo://app?vid=5fc8b878-acf2-426f-a83c-07496f99dad0"},"vehicle_type_id":"4","last_reported":1751289996,"current_range_meters":17600,"station_id":"ce4bhb12rcd13ifvqel0","pricing_plan_id":"cebpf4jnsgd1na2vs0mg"},{"bike_id":"75cd3adb-c1a5-4cf8-8691-a6fcebcedce0","system_id":"levelo_inurba_marseille","lat":43.27392,"lon":5.36265,"is_reserved":false,"is_disabled":false,"rental_uris":{"android":"levelo://app?vid=75cd3adb-c1a5-4cf8-8691-a6fcebcedce0","ios":"levelo://app?vid=75cd3adb-c1a5-4cf8-8691-a6fcebcedce0"},"vehicle_type_id":"4","last_reported":1751289996,"current_range_meters":17600,"station_id":"ce4bhbh2rcd13ifvqeo0","pricing_plan_id":"cebpf4jnsgd1na2vs0mg"},{"bike_id":"714e81cc-0a88-4f76-a904-b1c3a28974fe","system_id":"levelo_inurba_marseille","lat":43.28625,"lon":5.35109,"is_reserved":false,"is_disabled":false,"rental_uris":{"android":"levelo://app?vid=714e81cc-0a88-4f76-a904-b1c3a28974fe","ios":"levelo://app?vid=714e81cc-0a88-4f76-a904-b1c3a28974fe"},"vehicle_type_id":"4","last_reported":1751289996,"current_range_meters":17600,"station_id":"ce4bhch2rcd13ifvqeug","pricing_plan_id":"cebpf4jnsgd1na2vs0mg"},{"bike_id":"3bf87def-ccb1-4b95-af7e-668ef0eaa918","system_id":"levelo_inurba_marseille","lat":43.2512,"lon":5.40319,"is_reserved":false,"is_disabled":false,"rental_uris":{"android":"levelo://app?vid=3bf87def-ccb1-4b95-af7e-668ef0eaa918","ios":"levelo://app?vid=3bf87def-ccb1-4b95-af7e-668ef0eaa918"},"vehicle_type_id":"4","last_reported":1751289996,"current_range_meters":17600,"station_id":"ce4bhlh2rcd13ifvqgig","pricing_plan_id":"cebpf4jnsgd1na2vs0mg"},{"bike_id":"0d839b5e-baaf-4b32-8658-bb0d20744629","system_id":"levelo_inurba_marseille","lat":43.211881,"lon":5.350736,"is_reserved":false,"is_disabled":false,"rental_uris":{"android":"levelo://app?vid=0d839b5e-baaf-4b32-8658-bb0d20744629","ios":"levelo://app?vid=0d839b5e-baaf-4b32-8658-bb0d20744629"},"vehicle_type_id":"4","last_reported":1751289996,"current_range_meters":17600,"station_id":"st_cvj6sg6p6f1abm77japg","pricing_plan_id":"cebpf4jnsgd1na2vs0mg"},{"bike_id":"b13877a6-4825-4d82-b46b-67fa8ad66c5d","system_id":"levelo_inurba_marseille","lat":43.211908,"lon":5.350648,"is_reserved":false,"is_disabled":false,"rental_uris":{"android":"levelo://app?vid=b13877a6-4825-4d82-b46b-67fa8ad66c5d","ios":"levelo://app?vid=b13877a6-4825-4d82-b46b-67fa8ad66c5d"},"vehicle_type_id":"4","last_reported":1751289996,"current_range_meters":17600,"station_id":"st_cvj6sg6p6f1abm77japg","pricing_plan_id":"cebpf4jnsgd1na2vs0mg"},{"bike_id":"c2b72fe0-bae6-4c7b-ad48-9e771b203dc8","system_id":"levelo_inurba_marseille","lat":43.31357,"lon":5.38497,"is_reserved":false,"is_disabled":false,"rental_uris":{"android":"levelo://app?vid=c2b72fe0-bae6-4c7b-ad48-9e771b203dc8","ios":"levelo://app?vid=c2b72fe0-bae6-4c7b-ad48-9e771b203dc8"},"vehicle_type_id":"4","last_reported":1751289996,"current_range_meters":18000,"station_id":"ce4bgt92rcd13ifvqcf0","pricing_plan_id":"cebpf4jnsgd1na2vs0mg"},{"bike_id":"35e057b1-28f4-490c-aa92-1b0e44aa45cb","system_id":"levelo_inurba_marseille","lat":43.30924,"lon":5.40136,"is_reserved":false,"is_disabled":false,"rental_uris":{"android":"levelo://app?vid=35e057b1-28f4-490c-aa92-1b0e44aa45cb","ios":"levelo://app?vid=35e057b1-28f4-490c-aa92-1b0e44aa45cb"},"vehicle_type_id":"4","last_reported":1751289996,"current_range_meters":18000,"station_id":"ce4bgvp2rcd13ifvqct0","pricing_plan_id":"cebpf4jnsgd1na2vs0mg"},{"bike_id":"b475ecaf-ae9f-4d83-b3ae-b3723f8bc97b","system_id":"levelo_inurba_marseille","lat":43.28038,"lon":5.36955,"is_reserved":false,"is_disabled":false,"rental_uris":{"android":"levelo://app?vid=b475ecaf-ae9f-4d83-b3ae-b3723f8bc97b","ios":"levelo://app?vid=b475ecaf-ae9f-4d83-b3ae-b3723f8bc97b"},"vehicle_type_id":"4","last_reported":1751289996,"current_range_meters":18000,"station_id":"ce4bha12rcd13ifvqef0","pricing_plan_id":"cebpf4jnsgd1na2vs0mg"},{"bike_id":"5d54e1a3-62d9-44d9-a052-cd8b3b674dd8","system_id":"levelo_inurba_marseille","lat":43.28416,"lon":5.34993,"is_reserved":false,"is_disabled":false,"rental_uris":{"android":"levelo://app?vid=5d54e1a3-62d9-44d9-a052-cd8b3b674dd8","ios":"levelo://app?vid=5d54e1a3-62d9-44d9-a052-cd8b3b674dd8"},"vehicle_type_id":"4","last_reported":1751289996,"current_range_meters":18000,"station_id":"ce4bhbh2rcd13ifvqepg","pricing_plan_id":"cebpf4jnsgd1na2vs0mg"},{"bike_id":"ea26da89-1c4e-4774-856f-64f4ff0845f5","system_id":"levelo_inurba_marseille","lat":43.28263,"lon":5.35079,"is_reserved":false,"is_disabled":false,"rental_uris":{"android":"levelo://app?vid=ea26da89-1c4e-4774-856f-64f4ff0845f5","ios":"levelo://app?vid=ea26da89-1c4e-4774-856f-64f4ff0845f5"},"vehicle_type_id":"4","last_reported":1751289996,"current_range_meters":18000,"station_id":"ce4bhbp2rcd13ifvqerg","pricing_plan_id":"cebpf4jnsgd1na2vs0mg"},{"bike_id":"e25ba395-2bc9-44d2-8b95-073fe9e7fe66","system_id":"levelo_inurba_marseille","lat":43.28658,"lon":5.35078,"is_reserved":false,"is_disabled":false,"rental_uris":{"android":"levelo://app?vid=e25ba395-2bc9-44d2-8b95-073fe9e7fe66","ios":"levelo://app?vid=e25ba395-2bc9-44d2-8b95-073fe9e7fe66"},"vehicle_type_id":"4","last_reported":1751289996,"current_range_meters":18000,"station_id":"ce4bhch2rcd13ifvqeug","pricing_plan_id":"cebpf4jnsgd1na2vs0mg"},{"bike_id":"7575ecbc-b84f-46a3-9219-1f4c3542189c","system_id":"levelo_inurba_marseille","lat":43.28617,"lon":5.35107,"is_reserved":false,"is_disabled":false,"rental_uris":{"android":"levelo://app?vid=7575ecbc-b84f-46a3-9219-1f4c3542189c","ios":"levelo://app?vid=7575ecbc-b84f-46a3-9219-1f4c3542189c"},"vehicle_type_id":"4","last_reported":1751289996,"current_range_meters":18000,"station_id":"ce4bhch2rcd13ifvqeug","pricing_plan_id":"cebpf4jnsgd1na2vs0mg"},{"bike_id":"0e1947be-a168-4a7d-b759-41db26abc88e","system_id":"levelo_inurba_marseille","lat":43.26206,"lon":5.37936,"is_reserved":false,"is_disabled":false,"rental_uris":{"android":"levelo://app?vid=0e1947be-a168-4a7d-b759-41db26abc88e","ios":"levelo://app?vid=0e1947be-a168-4a7d-b759-41db26abc88e"},"vehicle_type_id":"4","last_reported":1751289996,"current_range_meters":18000,"station_id":"ce4bhjp2rcd13ifvqg90","pricing_plan_id":"cebpf4jnsgd1na2vs0mg"},{"bike_id":"ec59dc73-efec-49fb-a623-8c210bcd8f9c","system_id":"levelo_inurba_marseille","lat":43.21756,"lon":5.345974,"is_reserved":false,"is_disabled":false,"rental_uris":{"android":"levelo://app?vid=ec59dc73-efec-49fb-a623-8c210bcd8f9c","ios":"levelo://app?vid=ec59dc73-efec-49fb-a623-8c210bcd8f9c"},"vehicle_type_id":"4","last_reported":1751289996,"current_range_meters":18000,"station_id":"st_cvj6r9ubvosntc0bgbag","pricing_plan_id":"cebpf4jnsgd1na2vs0mg"},{"bike_id":"f603f3aa-5bf7-4a19-a8a1-b47909f854c7","system_id":"levelo_inurba_marseille","lat":43.211879,"lon":5.350777,"is_reserved":false,"is_disabled":false,"rental_uris":{"android":"levelo://app?vid=f603f3aa-5bf7-4a19-a8a1-b47909f854c7","ios":"levelo://app?vid=f603f3aa-5bf7-4a19-a8a1-b47909f854c7"},"vehicle_type_id":"4","last_reported":1751289996,"current_range_meters":18000,"station_id":"st_cvj6sg6p6f1abm77japg","pricing_plan_id":"cebpf4jnsgd1na2vs0mg"},{"bike_id":"f2c7767f-6493-4133-ae70-03a737efd707","system_id":"levelo_inurba_marseille","lat":43.29583,"lon":5.36748,"is_reserved":false,"is_disabled":false,"rental_uris":{"android":"levelo://app?vid=f2c7767f-6493-4133-ae70-03a737efd707","ios":"levelo://app?vid=f2c7767f-6493-4133-ae70-03a737efd707"},"vehicle_type_id":"4","last_reported":1751289996,"current_range_meters":18800,"station_id":"ce4bgph2rcd13ifvqc2g","pricing_plan_id":"cebpf4jnsgd1na2vs0mg"},{"bike_id":"c71a1e96-0dfb-45e6-948f-a7991373f41f","system_id":"levelo_inurba_marseille","lat":43.29042,"lon":5.38163,"is_reserved":false,"is_disabled":false,"rental_uris":{"android":"levelo://app?vid=c71a1e96-0dfb-45e6-948f-a7991373f41f","ios":"levelo://app?vid=c71a1e96-0dfb-45e6-948f-a7991373f41f"},"vehicle_type_id":"4","last_reported":1751289996,"current_range_meters":18800,"station_id":"ce4bh4p2rcd13ifvqe1g","pricing_plan_id":"cebpf4jnsgd1na2vs0mg"},{"bike_id":"54be3de2-df67-4a95-9977-e24f36936837","system_id":"levelo_inurba_marseille","lat":43.28415,"lon":5.34983,"is_reserved":false,"is_disabled":false,"rental_uris":{"android":"levelo://app?vid=54be3de2-df67-4a95-9977-e24f36936837","ios":"levelo://app?vid=54be3de2-df67-4a95-9977-e24f36936837"},"vehicle_type_id":"4","last_reported":1751289996,"current_range_meters":18800,"station_id":"ce4bhbh2rcd13ifvqepg","pricing_plan_id":"cebpf4jnsgd1na2vs0mg"},{"bike_id":"e56fc24a-ab61-412b-a208-b20cf4c3f3e0","system_id":"levelo_inurba_marseille","lat":43.30373,"lon":5.42487,"is_reserved":false,"is_disabled":false,"rental_uris":{"android":"levelo://app?vid=e56fc24a-ab61-412b-a208-b20cf4c3f3e0","ios":"levelo://app?vid=e56fc24a-ab61-412b-a208-b20cf4c3f3e0"},"vehicle_type_id":"4","last_reported":1751289996,"current_range_meters":18800,"station_id":"ce4bhoh2rcd13ifvqh6g","pricing_plan_id":"cebpf4jnsgd1na2vs0mg"},{"bike_id":"a0cef316-ad95-4855-8f78-a31341a2b90e","system_id":"levelo_inurba_marseille","lat":43.330235,"lon":5.390456,"is_reserved":false,"is_disabled":false,"rental_uris":{"android":"levelo://app?vid=a0cef316-ad95-4855-8f78-a31341a2b90e","ios":"levelo://app?vid=a0cef316-ad95-4855-8f78-a31341a2b90e"},"vehicle_type_id":"4","last_reported":1751289996,"current_range_meters":18800,"station_id":"ce4bhr92rcd13ifvqhrg","pricing_plan_id":"cebpf4jnsgd1na2vs0mg"},{"bike_id":"1540b4ec-0ad8-4795-b014-049028ae6cbd","system_id":"levelo_inurba_marseille","lat":43.26937,"lon":5.40275,"is_reserved":false,"is_disabled":false,"rental_uris":{"android":"levelo://app?vid=1540b4ec-0ad8-4795-b014-049028ae6cbd","ios":"levelo://app?vid=1540b4ec-0ad8-4795-b014-049028ae6cbd"},"vehicle_type_id":"4","last_reported":1751289996,"current_range_meters":18800,"station_id":"cjm6bp8fraef2m0cb0m0","pricing_plan_id":"cebpf4jnsgd1na2vs0mg"},{"bike_id":"fa16bbec-3211-49bd-a8b0-90a3ace4afe6","system_id":"levelo_inurba_marseille","lat":43.315968,"lon":5.384608,"is_reserved":false,"is_disabled":false,"rental_uris":{"android":"levelo://app?vid=fa16bbec-3211-49bd-a8b0-90a3ace4afe6","ios":"levelo://app?vid=fa16bbec-3211-49bd-a8b0-90a3ace4afe6"},"vehicle_type_id":"4","last_reported":1751289996,"current_range_meters":19200,"station_id":"","pricing_plan_id":"cebpf4jnsgd1na2vs0mg"},{"bike_id":"35a4732d-5f9d-494c-ac9d-274ed5f4d900","system_id":"levelo_inurba_marseille","lat":43.29405,"lon":5.3784,"is_reserved":false,"is_disabled":false,"rental_uris":{"android":"levelo://app?vid=35a4732d-5f9d-494c-ac9d-274ed5f4d900","ios":"levelo://app?vid=35a4732d-5f9d-494c-ac9d-274ed5f4d900"},"vehicle_type_id":"4","last_reported":1751289996,"current_range_meters":19200,"station_id":"ce4bgjh2rcd13ifvqbf0","pricing_plan_id":"cebpf4jnsgd1na2vs0mg"},{"bike_id":"b8a24f80-0928-4aad-94f6-82e73a80a107","system_id":"levelo_inurba_marseille","lat":43.28421,"lon":5.37502,"is_reserved":false,"is_disabled":false,"rental_uris":{"android":"levelo://app?vid=b8a24f80-0928-4aad-94f6-82e73a80a107","ios":"levelo://app?vid=b8a24f80-0928-4aad-94f6-82e73a80a107"},"vehicle_type_id":"4","last_reported":1751289996,"current_range_meters":19200,"station_id":"ce4bh412rcd13ifvqds0","pricing_plan_id":"cebpf4jnsgd1na2vs0mg"},{"bike_id":"0a24663d-7c62-458e-8d52-c21c6564ba2b","system_id":"levelo_inurba_marseille","lat":43.29212,"lon":5.36058,"is_reserved":false,"is_disabled":false,"rental_uris":{"android":"levelo://app?vid=0a24663d-7c62-458e-8d52-c21c6564ba2b","ios":"levelo://app?vid=0a24663d-7c62-458e-8d52-c21c6564ba2b"},"vehicle_type_id":"4","last_reported":1751289996,"current_range_meters":19200,"station_id":"ce4bhbh2rcd13ifvqeqg","pricing_plan_id":"cebpf4jnsgd1na2vs0mg"},{"bike_id":"44fb9aa8-65c2-49da-9a4c-c7f089b1eee5","system_id":"levelo_inurba_marseille","lat":43.259452,"lon":5.409123,"is_reserved":false,"is_disabled":false,"rental_uris":{"android":"levelo://app?vid=44fb9aa8-65c2-49da-9a4c-c7f089b1eee5","ios":"levelo://app?vid=44fb9aa8-65c2-49da-9a4c-c7f089b1eee5"},"vehicle_type_id":"4","last_reported":1751289996,"current_range_meters":19200,"station_id":"ce4bhm92rcd13ifvqglg","pricing_plan_id":"cebpf4jnsgd1na2vs0mg"},{"bike_id":"3f055629-3057-451d-bd86-7760d89614af","system_id":"levelo_inurba_marseille","lat":43.320533,"lon":5.415537,"is_reserved":false,"is_disabled":false,"rental_uris":{"android":"levelo://app?vid=3f055629-3057-451d-bd86-7760d89614af","ios":"levelo://app?vid=3f055629-3057-451d-bd86-7760d89614af"},"vehicle_type_id":"4","last_reported":1751289996,"current_range_meters":19200,"station_id":"ce4bhq92rcd13ifvqhkg","pricing_plan_id":"cebpf4jnsgd1na2vs0mg"},{"bike_id":"62356331-a304-4ae1-ae69-10136cbd3f1d","system_id":"levelo_inurba_marseille","lat":43.32115,"lon":5.36782,"is_reserved":false,"is_disabled":false,"rental_uris":{"android":"levelo://app?vid=62356331-a304-4ae1-ae69-10136cbd3f1d","ios":"levelo://app?vid=62356331-a304-4ae1-ae69-10136cbd3f1d"},"vehicle_type_id":"4","last_reported":1751289996,"current_range_meters":19200,"station_id":"ce4bhrh2rcd13ifvqhug","pricing_plan_id":"cebpf4jnsgd1na2vs0mg"},{"bike_id":"518354b5-8405-430c-bbfc-0e30bc76b92d","system_id":"levelo_inurba_marseille","lat":43.217455,"lon":5.346083,"is_reserved":false,"is_disabled":false,"rental_uris":{"android":"levelo://app?vid=518354b5-8405-430c-bbfc-0e30bc76b92d","ios":"levelo://app?vid=518354b5-8405-430c-bbfc-0e30bc76b92d"},"vehicle_type_id":"4","last_reported":1751289996,"current_range_meters":19600,"station_id":"","pricing_plan_id":"cebpf4jnsgd1na2vs0mg"},{"bike_id":"792f8a47-2926-4c84-9d27-649b2f623fc5","system_id":"levelo_inurba_marseille","lat":43.31231,"lon":5.36876,"is_reserved":false,"is_disabled":false,"rental_uris":{"android":"levelo://app?vid=792f8a47-2926-4c84-9d27-649b2f623fc5","ios":"levelo://app?vid=792f8a47-2926-4c84-9d27-649b2f623fc5"},"vehicle_type_id":"4","last_reported":1751289996,"current_range_meters":19600,"station_id":"ce4bgl92rcd13ifvqbq0","pricing_plan_id":"cebpf4jnsgd1na2vs0mg"},{"bike_id":"60242169-0442-44d7-9fb1-aefeccdf422b","system_id":"levelo_inurba_marseille","lat":43.295192,"lon":5.394003,"is_reserved":false,"is_disabled":false,"rental_uris":{"android":"levelo://app?vid=60242169-0442-44d7-9fb1-aefeccdf422b","ios":"levelo://app?vid=60242169-0442-44d7-9fb1-aefeccdf422b"},"vehicle_type_id":"4","last_reported":1751289996,"current_range_meters":19600,"station_id":"ce4bh292rcd13ifvqdf0","pricing_plan_id":"cebpf4jnsgd1na2vs0mg"},{"bike_id":"566cdaf1-8ce7-454a-aec9-c370e2c0ae71","system_id":"levelo_inurba_marseille","lat":43.29018,"lon":5.38129,"is_reserved":false,"is_disabled":false,"rental_uris":{"android":"levelo://app?vid=566cdaf1-8ce7-454a-aec9-c370e2c0ae71","ios":"levelo://app?vid=566cdaf1-8ce7-454a-aec9-c370e2c0ae71"},"vehicle_type_id":"4","last_reported":1751289996,"current_range_meters":19600,"station_id":"ce4bh4p2rcd13ifvqe1g","pricing_plan_id":"cebpf4jnsgd1na2vs0mg"},{"bike_id":"d06a5fc4-2c5c-4d7b-a3b3-548c9e5357e3","system_id":"levelo_inurba_marseille","lat":43.288827,"lon":5.359723,"is_reserved":false,"is_disabled":false,"rental_uris":{"android":"levelo://app?vid=d06a5fc4-2c5c-4d7b-a3b3-548c9e5357e3","ios":"levelo://app?vid=d06a5fc4-2c5c-4d7b-a3b3-548c9e5357e3"},"vehicle_type_id":"4","last_reported":1751289996,"current_range_meters":19600,"station_id":"ce4bhb12rcd13ifvqem0","pricing_plan_id":"cebpf4jnsgd1na2vs0mg"},{"bike_id":"b7f9fbca-fef8-4355-bd42-70cd92158416","system_id":"levelo_inurba_marseille","lat":43.28266,"lon":5.35067,"is_reserved":false,"is_disabled":false,"rental_uris":{"android":"levelo://app?vid=b7f9fbca-fef8-4355-bd42-70cd92158416","ios":"levelo://app?vid=b7f9fbca-fef8-4355-bd42-70cd92158416"},"vehicle_type_id":"4","last_reported":1751289996,"current_range_meters":19600,"station_id":"ce4bhbp2rcd13ifvqerg","pricing_plan_id":"cebpf4jnsgd1na2vs0mg"},{"bike_id":"32b88366-784d-4e8e-a740-8d5fe4fcf67c","system_id":"levelo_inurba_marseille","lat":43.28276,"lon":5.3508,"is_reserved":false,"is_disabled":false,"rental_uris":{"android":"levelo://app?vid=32b88366-784d-4e8e-a740-8d5fe4fcf67c","ios":"levelo://app?vid=32b88366-784d-4e8e-a740-8d5fe4fcf67c"},"vehicle_type_id":"4","last_reported":1751289996,"current_range_meters":19600,"station_id":"ce4bhbp2rcd13ifvqerg","pricing_plan_id":"cebpf4jnsgd1na2vs0mg"},{"bike_id":"c86926a4-dfc8-49dc-a366-e03f450765e4","system_id":"levelo_inurba_marseille","lat":43.26488,"lon":5.39535,"is_reserved":false,"is_disabled":false,"rental_uris":{"android":"levelo://app?vid=c86926a4-dfc8-49dc-a366-e03f450765e4","ios":"levelo://app?vid=c86926a4-dfc8-49dc-a366-e03f450765e4"},"vehicle_type_id":"4","last_reported":1751289996,"current_range_meters":19600,"station_id":"ce4bhi12rcd13ifvqfq0","pricing_plan_id":"cebpf4jnsgd1na2vs0mg"},{"bike_id":"52e7090a-2100-4958-b461-e041020d44e3","system_id":"levelo_inurba_marseille","lat":43.30376,"lon":5.42487,"is_reserved":false,"is_disabled":false,"rental_uris":{"android":"levelo://app?vid=52e7090a-2100-4958-b461-e041020d44e3","ios":"levelo://app?vid=52e7090a-2100-4958-b461-e041020d44e3"},"vehicle_type_id":"4","last_reported":1751289996,"current_range_meters":19600,"station_id":"ce4bhoh2rcd13ifvqh6g","pricing_plan_id":"cebpf4jnsgd1na2vs0mg"},