{"last_updated":1730477421,"ttl":60,"version":"2.2","data":{"bikes":[{"bike_id":"8c936dba-74b5-40fc-a946-7b9f75a8f3eb","system_id":"levelo_inurba_marseille","lat":43.26553,"lon":5.37284,"is_reserved":false,"is_disabled":false,"rental_uris":{"android":"levelo://app?vid=8c936dba-74b5-40fc-a946-7b9f75a8f3eb","ios":"levelo://app?vid=8c936dba-74b5-40fc-a946-7b9f75a8f3eb"},"vehicle_type_id":"4","last_reported":1730477422,"current_range_meters":25600,"station_id":"ce4bhg12rcd13ifvqf70","pricing_plan_id":"cebpf4jnsgd1na2vs0mg"},{"bike_id":"cd4c1656-f377-4fe4-8d2b-820e87a037de","system_id":"levelo_inurba_marseille","lat":43.28617,"lon":5.35108,"is_reserved":false,"is_disabled":false,"rental_uris":{"android":"levelo://app?vid=cd4c1656-f377-4fe4-8d2b-820e87a037de","ios":"levelo://app?vid=cd4c1656-f377-4fe4-8d2b-820e87a037de"},"vehicle_type_id":"4","last_reported":1730477422,"current_range_meters":12400,"station_id":"ce4bhch2rcd13ifvqeug","pricing_plan_id":"cebpf4jnsgd1na2vs0mg"},{"bike_id":"dc015d1f-276c-40fe-8a60-f8e4ce96a4c8","system_id":"levelo_inurba_marseille","lat":43.28404,"lon":5.34987,"is_reserved":false,"is_disabled":false,"rental_uris":{"android":"levelo://app?vid=dc015d1f-276c-40fe-8a60-f8e4ce96a4c8","ios":"levelo://app?vid=dc015d1f-276c-40fe-8a60-f8e4ce96a4c8"},"vehicle_type_id":"4","last_reported":1730477422,"current_range_meters":11200,"station_id":"ce4bhbh2rcd13ifvqepg","pricing_plan_id":"cebpf4jnsgd1na2vs0mg"},{"bike_id":"72aeef7b-29fe-46b8-a95f-dcd59fc8c40f","system_id":"levelo_inurba_marseille","lat":43.27073,"lon":5.4228,"is_reserved":false,"is_disabled":false,"rental_uris":{"android":"levelo://app?vid=72aeef7b-29fe-46b8-a95f-dcd59fc8c40f","ios":"levelo://app?vid=72aeef7b-29fe-46b8-a95f-dcd59fc8c40f"},"vehicle_type_id":"4","last_reported":1730477422,"current_range_meters":24400,"station_id":"ce4bhk92rcd13ifvqgb0","pricing_plan_id":"cebpf4jnsgd1na2vs0mg"},{"bike_id":"8682c02d-b75e-4986-bf40-c0b0cf6578e7","system_id":"levelo_inurba_marseille","lat":43.32108,"lon":5.36777,"is_reserved":false,"is_disabled":false,"rental_uris":{"android":"levelo://app?vid=8682c02d-b75e-4986-bf40-c0b0cf6578e7","ios":"levelo://app?vid=8682c02d-b75e-4986-bf40-c0b0cf6578e7"},"vehicle_type_id":"4","last_reported":1730477422,"current_range_meters":12400,"station_id":"ce4bhrh2rcd13ifvqhug","pricing_plan_id":"cebpf4jnsgd1na2vs0mg"},{"bike_id":"7ace59d4-9667-47e5-82cf-28e9c8ebfadd","system_id":"levelo_inurba_marseille","lat":43.28268,"lon":5.35069,"is_reserved":false,"is_disabled":false,"rental_uris":{"android":"levelo://app?vid=7ace59d4-9667-47e5-82cf-28e9c8ebfadd","ios":"levelo://app?vid=7ace59d4-9667-47e5-82cf-28e9c8ebfadd"},"vehicle_type_id":"4","last_reported":1730477422,"current_range_meters":38000,"station_id":"ce4bhbp2rcd13ifvqerg","pricing_plan_id":"cebpf4jnsgd1na2vs0mg"},{"bike_id":"593c91b5-204c-4da6-be51-88ac8457a9ee","system_id":"levelo_inurba_marseille","lat":43.24167,"lon":5.36404,"is_reserved":false,"is_disabled":false,"rental_uris":{"android":"levelo://app?vid=593c91b5-204c-4da6-be51-88ac8457a9ee","ios":"levelo://app?vid=593c91b5-204c-4da6-be51-88ac8457a9ee"},"vehicle_type_id":"4","last_reported":1730477422,"current_range_meters":32800,"station_id":"cpo36qri1sfpv3e86is0","pricing_plan_id":"cebpf4jnsgd1na2vs0mg"},{"bike_id":"bc1199ad-f463-496a-98e6-1349f1f38e44","system_id":"levelo_inurba_marseille","lat":43.23062,"lon":5.35494,"is_reserved":false,"is_disabled":false,"rental_uris":{"android":"levelo://app?vid=bc1199ad-f463-496a-98e6-1349f1f38e44","ios":"levelo://app?vid=bc1199ad-f463-496a-98e6-1349f1f38e44"},"vehicle_type_id":"4","last_reported":1730477422,"current_range_meters":8400,"station_id":"cpo3342slgdg3j2ifvpg","pricing_plan_id":"cebpf4jnsgd1na2vs0mg"},{"bike_id":"512c4bd5-3edb-49b7-a54a-bbe327a08aa0","system_id":"levelo_inurba_marseille","lat":43.25726,"lon":5.41114,"is_reserved":false,"is_disabled":false,"rental_uris":{"android":"levelo://app?vid=512c4bd5-3edb-49b7-a54a-bbe327a08aa0","ios":"levelo://app?vid=512c4bd5-3edb-49b7-a54a-bbe327a08aa0"},"vehicle_type_id":"4","last_reported":1730477422,"current_range_meters":17200,"station_id":"ce4bhkp2rcd13ifvqgd0","pricing_plan_id":"cebpf4jnsgd1na2vs0mg"},{"bike_id":"a4627486-a087-47d1-bdea-e9476cd49986","system_id":"levelo_inurba_marseille","lat":43.23198,"lon":5.35549,"is_reserved":false,"is_disabled":false,"rental_uris":{"android":"levelo://app?vid=a4627486-a087-47d1-bdea-e9476cd49986","ios":"levelo://app?vid=a4627486-a087-47d1-bdea-e9476cd49986"},"vehicle_type_id":"4","last_reported":1730477422,"current_range_meters":30800,"station_id":"ce4bhu92rcd13ifvqi70","pricing_plan_id":"cebpf4jnsgd1na2vs0mg"},{"bike_id":"d4bd2190-c888-45e9-ac4b-1dee8b2d845c","system_id":"levelo_inurba_marseille","lat":43.30549,"lon":5.36546,"is_reserved":false,"is_disabled":false,"rental_uris":{"android":"levelo://app?vid=d4bd2190-c888-45e9-ac4b-1dee8b2d845c","ios":"levelo://app?vid=d4bd2190-c888-45e9-ac4b-1dee8b2d845c"},"vehicle_type_id":"4","last_reported":1730477422,"current_range_meters":31200,"station_id":"ce4bgs12rcd13ifvqcag","pricing_plan_id":"cebpf4jnsgd1na2vs0mg"},{"bike_id":"509a9bdc-ca48-4855-8040-748bb9b3087b","system_id":"levelo_inurba_marseille","lat":43.25942,"lon":5.40902,"is_reserved":false,"is_disabled":false,"rental_uris":{"android":"levelo://app?vid=509a9bdc-ca48-4855-8040-748bb9b3087b","ios":"levelo://app?vid=509a9bdc-ca48-4855-8040-748bb9b3087b"},"vehicle_type_id":"4","last_reported":1730477422,"current_range_meters":26800,"station_id":"ce4bhm92rcd13ifvqglg","pricing_plan_id":"cebpf4jnsgd1na2vs0mg"},{"bike_id":"c6349e91-9caa-4934-a8ae-6e1d497938dd","system_id":"levelo_inurba_marseille","lat":43.28615,"lon":5.35103,"is_reserved":false,"is_disabled":false,"rental_uris":{"android":"levelo://app?vid=c6349e91-9caa-4934-a8ae-6e1d497938dd","ios":"levelo://app?vid=c6349e91-9caa-4934-a8ae-6e1d497938dd"},"vehicle_type_id":"4","last_reported":1730477422,"current_range_meters":38800,"station_id":"ce4bhch2rcd13ifvqeug","pricing_plan_id":"cebpf4jnsgd1na2vs0mg"},{"bike_id":"f90c7233-f112-4411-a745-3ee84b3555db","system_id":"levelo_inurba_marseille","lat":43.27375,"lon":5.36268,"is_reserved":false,"is_disabled":false,"rental_uris":{"android":"levelo://app?vid=f90c7233-f112-4411-a745-3ee84b3555db","ios":"levelo://app?vid=f90c7233-f112-4411-a745-3ee84b3555db"},"vehicle_type_id":"4","last_reported":1730477422,"current_range_meters":37600,"station_id":"ce4bhbh2rcd13ifvqeo0","pricing_plan_id":"cebpf4jnsgd1na2vs0mg"},{"bike_id":"fc2095ca-d28e-46ea-9a51-601b74247bea","system_id":"levelo_inurba_marseille","lat":43.28448,"lon":5.3496,"is_reserved":false,"is_disabled":false,"rental_uris":{"android":"levelo://app?vid=fc2095ca-d28e-46ea-9a51-601b74247bea","ios":"levelo://app?vid=fc2095ca-d28e-46ea-9a51-601b74247bea"},"vehicle_type_id":"4","last_reported":1730477422,"current_range_meters":13600,"station_id":"ce4bhbh2rcd13ifvqepg","pricing_plan_id":"cebpf4jnsgd1na2vs0mg"},{"bike_id":"efbe383f-83c6-4df5-ac1f-ffa8f2e0197b","system_id":"levelo_inurba_marseille","lat":43.31335,"lon":5.39699,"is_reserved":false,"is_disabled":false,"rental_uris":{"android":"levelo://app?vid=efbe383f-83c6-4df5-ac1f-ffa8f2e0197b","ios":"levelo://app?vid=efbe383f-83c6-4df5-ac1f-ffa8f2e0197b"},"vehicle_type_id":"4","last_reported":1730477422,"current_range_meters":9200,"station_id":"ce4bgvp2rcd13ifvqcu0","pricing_plan_id":"cebpf4jnsgd1na2vs0mg"},{"bike_id":"980e7e86-840e-4800-93c7-c5171cc55726","system_id":"levelo_inurba_marseille","lat":43.2306,"lon":5.35488,"is_reserved":false,"is_disabled":false,"rental_uris":{"android":"levelo://app?vid=980e7e86-840e-4800-93c7-c5171cc55726","ios":"levelo://app?vid=980e7e86-840e-4800-93c7-c5171cc55726"},"vehicle_type_id":"4","last_reported":1730477422,"current_range_meters":38800,"station_id":"cpo3342slgdg3j2ifvpg","pricing_plan_id":"cebpf4jnsgd1na2vs0mg"},{"bike_id":"c66daca7-9cf2-41fa-9ea1-35fb38a016dc","system_id":"levelo_inurba_marseille","lat":43.26681,"lon":5.38271,"is_reserved":false,"is_disabled":false,"rental_uris":{"android":"levelo://app?vid=c66daca7-9cf2-41fa-9ea1-35fb38a016dc","ios":"levelo://app?vid=c66daca7-9cf2-41fa-9ea1-35fb38a016dc"},"vehicle_type_id":"4","last_reported":1730477422,"current_range_meters":2000,"station_id":"ce4bhg92rcd13ifvqf90","pricing_plan_id":"cebpf4jnsgd1na2vs0mg"},{"bike_id":"c9c5c33e-64a0-4604-83dc-bfc39bef5388","system_id":"levelo_inurba_marseille","lat":43.29867,"lon":5.3891,"is_reserved":false,"is_disabled":false,"rental_uris":{"android":"levelo://app?vid=c9c5c33e-64a0-4604-83dc-bfc39bef5388","ios":"levelo://app?vid=c9c5c33e-64a0-4604-83dc-bfc39bef5388"},"vehicle_type_id":"4","last_reported":1730477422,"current_range_meters":6800,"station_id":"ce4bh392rcd13ifvqdl0","pricing_plan_id":"cebpf4jnsgd1na2vs0mg"},{"bike_id":"276c9587-13b1-4ed9-a5c3-41b5dd9ac5c5","system_id":"levelo_inurba_marseille","lat":43.25822,"lon":5.39431,"is_reserved":false,"is_disabled":false,"rental_uris":{"android":"levelo://app?vid=276c9587-13b1-4ed9-a5c3-41b5dd9ac5c5","ios":"levelo://app?vid=276c9587-13b1-4ed9-a5c3-41b5dd9ac5c5"},"vehicle_type_id":"4","last_reported":1730477422,"current_range_meters":32000,"station_id":"ce4bhip2rcd13ifvqft0","pricing_plan_id":"cebpf4jnsgd1na2vs0mg"},{"bike_id":"d2b56197-d637-4769-aa53-abc4e4e3ce59","system_id":"levelo_inurba_marseille","lat":43.2656,"lon":5.37289,"is_reserved":false,"is_disabled":false,"rental_uris":{"android":"levelo://app?vid=d2b56197-d637-4769-aa53-abc4e4e3ce59","ios":"levelo://app?vid=d2b56197-d637-4769-aa53-abc4e4e3ce59"},"vehicle_type_id":"4","last_reported":1730477422,"current_range_meters":16400,"station_id":"ce4bhg12rcd13ifvqf70","pricing_plan_id":"cebpf4jnsgd1na2vs0mg"},{"bike_id":"bd33eba0-ef1b-44cd-9180-afbf81d3213c","system_id":"levelo_inurba_marseille","lat":43.29409,"lon":5.37404,"is_reserved":false,"is_disabled":false,"rental_uris":{"android":"levelo://app?vid=bd33eba0-ef1b-44cd-9180-afbf81d3213c","ios":"levelo://app?vid=bd33eba0-ef1b-44cd-9180-afbf81d3213c"},"vehicle_type_id":"4","last_reported":1730477422,"current_range_meters":32000,"station_id":"","pricing_plan_id":"cebpf4jnsgd1na2vs0mg"},{"bike_id":"3a553a2c-e023-4474-9540-63662b8b9562","system_id":"levelo_inurba_marseille","lat":43.2872,"lon":5.37949,"is_reserved":false,"is_disabled":false,"rental_uris":{"android":"levelo://app?vid=3a553a2c-e023-4474-9540-63662b8b9562","ios":"levelo://app?vid=3a553a2c-e023-4474-9540-63662b8b9562"},"vehicle_type_id":"4","last_reported":1730477422,"current_range_meters":30000,"station_id":"ce4bh9p2rcd13ifvqec0","pricing_plan_id":"cebpf4jnsgd1na2vs0mg"},{"bike_id":"8d57ff4a-4527-4b83-9e44-8fa879a3fb58","system_id":"levelo_inurba_marseille","lat":43.28561,"lon":5.395,"is_reserved":false,"is_disabled":false,"rental_uris":{"android":"levelo://app?vid=8d57ff4a-4527-4b83-9e44-8fa879a3fb58","ios":"levelo://app?vid=8d57ff4a-4527-4b83-9e44-8fa879a3fb58"},"vehicle_type_id":"4","last_reported":1730477422,"current_range_meters":16000,"station_id":"ce4bh292rcd13ifvqdg0","pricing_plan_id":"cebpf4jnsgd1na2vs0mg"},{"bike_id":"f0df9324-5e3d-483c-afb3-0f6090c319dd","system_id":"levelo_inurba_marseille","lat":43.275,"lon":5.42449,"is_reserved":false,"is_disabled":false,"rental_uris":{"android":"levelo://app?vid=f0df9324-5e3d-483c-afb3-0f6090c319dd","ios":"levelo://app?vid=f0df9324-5e3d-483c-afb3-0f6090c319dd"},"vehicle_type_id":"4","last_reported":1730477422,"current_range_meters":2000,"station_id":"ce4bhn92rcd13ifvqgrg","pricing_plan_id":"cebpf4jnsgd1na2vs0mg"},{"bike_id":"1a88b521-71e1-497b-9dc0-e8fff05a39b1","system_id":"levelo_inurba_marseille","lat":43.28265,"lon":5.35066,"is_reserved":false,"is_disabled":false,"rental_uris":{"android":"levelo://app?vid=1a88b521-71e1-497b-9dc0-e8fff05a39b1","ios":"levelo://app?vid=1a88b521-71e1-497b-9dc0-e8fff05a39b1"},"vehicle_type_id":"4","last_reported":1730477422,"current_range_meters":32000,"station_id":"ce4bhbp2rcd13ifvqerg","pricing_plan_id":"cebpf4jnsgd1na2vs0mg"},{"bike_id":"f72dba07-91df-45be-a8a3-0c113ce1d814","system_id":"levelo_inurba_marseille","lat":43.27375,"lon":5.36263,"is_reserved":false,"is_disabled":false,"rental_uris":{"android":"levelo://app?vid=f72dba07-91df-45be-a8a3-0c113ce1d814","ios":"levelo://app?vid=f72dba07-91df-45be-a8a3-0c113ce1d814"},"vehicle_type_id":"4","last_reported":1730477422,"current_range_meters":24000,"station_id":"ce4bhbh2rcd13ifvqeo0","pricing_plan_id":"cebpf4jnsgd1na2vs0mg"},{"bike_id":"a7125d65-74ce-495d-817a-4658be7b2ef8","system_id":"levelo_inurba_marseille","lat":43.2869,"lon":5.37398,"is_reserved":false,"is_disabled":false,"rental_uris":{"android":"levelo://app?vid=a7125d65-74ce-495d-817a-4658be7b2ef8","ios":"levelo://app?vid=a7125d65-74ce-495d-817a-4658be7b2ef8"},"vehicle_type_id":"4","last_reported":1730477422,"current_range_meters":21600,"station_id":"ce4bh3p2rcd13ifvqdq0","pricing_plan_id":"cebpf4jnsgd1na2vs0mg"},{"bike_id":"76daf9d0-b47b-40d6-9996-9aa3f3f48bc8","system_id":"levelo_inurba_marseille","lat":43.28407,"lon":5.34994,"is_reserved":false,"is_disabled":false,"rental_uris":{"android":"levelo://app?vid=76daf9d0-b47b-40d6-9996-9aa3f3f48bc8","ios":"levelo://app?vid=76daf9d0-b47b-40d6-9996-9aa3f3f48bc8"},"vehicle_type_id":"4","last_reported":1730477422,"current_range_meters":38800,"station_id":"ce4bhbh2rcd13ifvqepg","pricing_plan_id":"cebpf4jnsgd1na2vs0mg"},{"bike_id":"d5cc3b1a-2d11-43a5-a32b-b3d146f40d91","system_id":"levelo_inurba_marseille","lat":43.29556,"lon":5.42294,"is_reserved":false,"is_disabled":false,"rental_uris":{"android":"levelo://app?vid=d5cc3b1a-2d11-43a5-a32b-b3d146f40d91","ios":"levelo://app?vid=d5cc3b1a-2d11-43a5-a32b-b3d146f40d91"},"vehicle_type_id":"4","last_reported":1730477422,"current_range_meters":29600,"station_id":"ce4bhph2rcd13ifvqhdg","pricing_plan_id":"cebpf4jnsgd1na2vs0mg"},{"bike_id":"7a7abe75-bd11-44c1-979b-06ef3e9f9da8","system_id":"levelo_inurba_marseille","lat":43.24649,"lon":5.38904,"is_reserved":false,"is_disabled":false,"rental_uris":{"android":"levelo://app?vid=7a7abe75-bd11-44c1-979b-06ef3e9f9da8","ios":"levelo://app?vid=7a7abe75-bd11-44c1-979b-06ef3e9f9da8"},"vehicle_type_id":"4","last_reported":1730477422,"current_range_meters":38800,"station_id":"ce4bhg12rcd13ifvqf60","pricing_plan_id":"cebpf4jnsgd1na2vs0mg"},{"bike_id":"5e1cc4f3-b05d-404e-b064-5ed8439a43ea","system_id":"levelo_inurba_marseille","lat":43.25497,"lon":5.37656,"is_reserved":false,"is_disabled":false,"rental_uris":{"android":"levelo://app?vid=5e1cc4f3-b05d-404e-b064-5ed8439a43ea","ios":"levelo://app?vid=5e1cc4f3-b05d-404e-b064-5ed8439a43ea"},"vehicle_type_id":"4","last_reported":1730477422,"current_range_meters":11200,"station_id":"ce4bhh12rcd13ifvqff0","pricing_plan_id":"cebpf4jnsgd1na2vs0mg"},{"bike_id":"71b44894-3df8-451a-bc8d-cf278fbdb6fc","system_id":"levelo_inurba_marseille","lat":43.25503,"lon":5.37648,"is_reserved":false,"is_disabled":false,"rental_uris":{"android":"levelo://app?vid=71b44894-3df8-451a-bc8d-cf278fbdb6fc","ios":"levelo://app?vid=71b44894-3df8-451a-bc8d-cf278fbdb6fc"},"vehicle_type_id":"4","last_reported":1730477422,"current_range_meters":28400,"station_id":"ce4bhh12rcd13ifvqff0","pricing_plan_id":"cebpf4jnsgd1na2vs0mg"},{"bike_id":"9938ebcd-9900-4f33-ae62-087d07b91466","system_id":"levelo_inurba_marseille","lat":43.25735,"lon":5.41114,"is_reserved":false,"is_disabled":false,"rental_uris":{"android":"levelo://app?vid=9938ebcd-9900-4f33-ae62-087d07b91466","ios":"levelo://app?vid=9938ebcd-9900-4f33-ae62-087d07b91466"},"vehicle_type_id":"4","last_reported":1730477422,"current_range_meters":38800,"station_id":"ce4bhkp2rcd13ifvqgd0","pricing_plan_id":"cebpf4jnsgd1na2vs0mg"},{"bike_id":"6e3a070f-08c7-4654-aac0-ca56fc5a8043","system_id":"levelo_inurba_marseille","lat":43.29278,"lon":5.40903,"is_reserved":false,"is_disabled":false,"rental_uris":{"android":"levelo://app?vid=6e3a070f-08c7-4654-aac0-ca56fc5a8043","ios":"levelo://app?vid=6e3a070f-08c7-4654-aac0-ca56fc5a8043"},"vehicle_type_id":"4","last_reported":1730477422,"current_range_meters":11200,"station_id":"ce4bh192rcd13ifvqdc0","pricing_plan_id":"cebpf4jnsgd1na2vs0mg"},{"bike_id":"e960ac30-070e-494a-a9c1-effafcd9c6f4","system_id":"levelo_inurba_marseille","lat":43.29263,"lon":5.39983,"is_reserved":false,"is_disabled":false,"rental_uris":{"android":"levelo://app?vid=e960ac30-070e-494a-a9c1-effafcd9c6f4","ios":"levelo://app?vid=e960ac30-070e-494a-a9c1-effafcd9c6f4"},"vehicle_type_id":"4","last_reported":1730477422,"current_range_meters":24400,"station_id":"","pricing_plan_id":"cebpf4jnsgd1na2vs0mg"},{"bike_id":"066ddc99-8652-4116-9c87-23047adbb87b","system_id":"levelo_inurba_marseille","lat":43.31719,"lon":5.37751,"is_reserved":false,"is_disabled":false,"rental_uris":{"android":"levelo://app?vid=066ddc99-8652-4116-9c87-23047adbb87b","ios":"levelo://app?vid=066ddc99-8652-4116-9c87-23047adbb87b"},"vehicle_type_id":"4","last_reported":1730477422,"current_range_meters":38800,"station_id":"ce4bgth2rcd13ifvqch0","pricing_plan_id":"cebpf4jnsgd1na2vs0mg"},{"bike_id":"c80ab843-a948-43e7-8f4f-9f0503c88ce1","system_id":"levelo_inurba_marseille","lat":43.29714,"lon":5.36625,"is_reserved":false,"is_disabled":false,"rental_uris":{"android":"levelo://app?vid=c80ab843-a948-43e7-8f4f-9f0503c88ce1","ios":"levelo://app?vid=c80ab843-a948-43e7-8f4f-9f0503c88ce1"},"vehicle_type_id":"4","last_reported":1730477422,"current_range_meters":27600,"station_id":"ce4bgn12rcd13ifvqbt0","pricing_plan_id":"cebpf4jnsgd1na2vs0mg"},{"bike_id":"05b66808-27ba-48de-8c25-fa6353c85930","system_id":"levelo_inurba_marseille","lat":43.27117,"lon":5.40413,"is_reserved":false,"is_disabled":false,"rental_uris":{"android":"levelo://app?vid=05b66808-27ba-48de-8c25-fa6353c85930","ios":"levelo://app?vid=05b66808-27ba-48de-8c25-fa6353c85930"},"vehicle_type_id":"4","last_reported":1730477422,"current_range_meters":9600,"station_id":"ce4bhjp2rcd13ifvqga0","pricing_plan_id":"cebpf4jnsgd1na2vs0mg"},{"bike_id":"a63b9fb5-56f7-422f-b390-b53b9a4eff8b","system_id":"levelo_inurba_marseille","lat":43.23174,"lon":5.40033,"is_reserved":false,"is_disabled":false,"rental_uris":{"android":"levelo://app?vid=a63b9fb5-56f7-422f-b390-b53b9a4eff8b","ios":"levelo://app?vid=a63b9fb5-56f7-422f-b390-b53b9a4eff8b"},"vehicle_type_id":"4","last_reported":1730477422,"current_range_meters":9600,"station_id":"ce4bhn12rcd13ifvqgqg","pricing_plan_id":"cebpf4jnsgd1na2vs0mg"},{"bike_id":"bd4e2b20-1aa1-479f-bd96-ad4e0572a62c","system_id":"levelo_inurba_marseille","lat":43.32486,"lon":5.365626,"is_reserved":false,"is_disabled":false,"rental_uris":{"android":"levelo://app?vid=bd4e2b20-1aa1-479f-bd96-ad4e0572a62c","ios":"levelo://app?vid=bd4e2b20-1aa1-479f-bd96-ad4e0572a62c"},"vehicle_type_id":"4","last_reported":1730477422,"current_range_meters":30000,"station_id":"ce4bhs12rcd13ifvqhvg","pricing_plan_id":"cebpf4jnsgd1na2vs0mg"},{"bike_id":"7471bc9b-f984-44e8-a6de-2b1222eeead0","system_id":"levelo_inurba_marseille","lat":43.2417,"lon":5.36401,"is_reserved":false,"is_disabled":false,"rental_uris":{"android":"levelo://app?vid=7471bc9b-f984-44e8-a6de-2b1222eeead0","ios":"levelo://app?vid=7471bc9b-f984-44e8-a6de-2b1222eeead0"},"vehicle_type_id":"4","last_reported":1730477422,"current_range_meters":4800,"station_id":"cpo36qri1sfpv3e86is0","pricing_plan_id":"cebpf4jnsgd1na2vs0mg"},{"bike_id":"6a19aa39-dad6-4d7a-a85b-a09f53d49f67","system_id":"levelo_inurba_marseille","lat":43.28419,"lon":5.34991,"is_reserved":false,"is_disabled":false,"rental_uris":{"android":"levelo://app?vid=6a19aa39-dad6-4d7a-a85b-a09f53d49f67","ios":"levelo://app?vid=6a19aa39-dad6-4d7a-a85b-a09f53d49f67"},"vehicle_type_id":"4","last_reported":1730477422,"current_range_meters":17600,"station_id":"ce4bhbh2rcd13ifvqepg","pricing_plan_id":"cebpf4jnsgd1na2vs0mg"},{"bike_id":"fcd45cc4-a0e9-43bd-a022-fb30ef298065","system_id":"levelo_inurba_marseille","lat":43.30594,"lon":5.39354,"is_reserved":false,"is_disabled":false,"rental_uris":{"android":"levelo://app?vid=fcd45cc4-a0e9-43bd-a022-fb30ef298065","ios":"levelo://app?vid=fcd45cc4-a0e9-43bd-a022-fb30ef298065"},"vehicle_type_id":"4","last_reported":1730477422,"current_range_meters":39200,"station_id":"ce4bh0p2rcd13ifvqd80","pricing_plan_id":"cebpf4jnsgd1na2vs0mg"},{"bike_id":"537aeee8-4c41-4428-ac9e-ae35bc28457f","system_id":"levelo_inurba_marseille","lat":43.28924,"lon":5.38396,"is_reserved":false,"is_disabled":false,"rental_uris":{"android":"levelo://app?vid=537aeee8-4c41-4428-ac9e-ae35bc28457f","ios":"levelo://app?vid=537aeee8-4c41-4428-ac9e-ae35bc28457f"},"vehicle_type_id":"4","last_reported":1730477422,"current_range_meters":8800,"station_id":"ce4bh612rcd13ifvqe6g","pricing_plan_id":"cebpf4jnsgd1na2vs0mg"},{"bike_id":"658dacf4-7ef3-4634-8126-9bbd88e5a6eb","system_id":"levelo_inurba_marseille","lat":43.23207,"lon":5.35555,"is_reserved":false,"is_disabled":false,"rental_uris":{"android":"levelo://app?vid=658dacf4-7ef3-4634-8126-9bbd88e5a6eb","ios":"levelo://app?vid=658dacf4-7ef3-4634-8126-9bbd88e5a6eb"},"vehicle_type_id":"4","last_reported":1730477422,"current_range_meters":24400,"station_id":"ce4bhu92rcd13ifvqi70","pricing_plan_id":"cebpf4jnsgd1na2vs0mg"},{"bike_id":"e62e38a9-284c-4b15-bfe8-8b214b98f04b","system_id":"levelo_inurba_marseille","lat":43.23056,"lon":5.35494,"is_reserved":false,"is_disabled":false,"rental_uris":{"android":"levelo://app?vid=e62e38a9-284c-4b15-bfe8-8b214b98f04b","ios":"levelo://app?vid=e62e38a9-284c-4b15-bfe8-8b214b98f04b"},"vehicle_type_id":"4","last_reported":1730477422,"current_range_meters":26000,"station_id":"cpo3342slgdg3j2ifvpg","pricing_plan_id":"cebpf4jnsgd1na2vs0mg"},{"bike_id":"32fbdd10-ae98-45ac-9d07-8889707b4b8d","system_id":"levelo_inurba_marseille","lat":43.29276,"lon":5.38438,"is_reserved":false,"is_disabled":false,"rental_uris":{"android":"levelo://app?vid=32fbdd10-ae98-45ac-9d07-8889707b4b8d","ios":"levelo://app?vid=32fbdd10-ae98-45ac-9d07-8889707b4b8d"},"vehicle_type_id":"4","last_reported":1730477422,"current_range_meters":1600,"station_id":"ce4bh692rcd13ifvqea0","pricing_plan_id":"cebpf4jnsgd1na2vs0mg"},{"bike_id":"b890158d-4cc0-42ea-b1b1-cf934d08cc8a","system_id":"levelo_inurba_marseille","lat":43.32363,"lon":5.38885,"is_reserved":false,"is_disabled":false,"rental_uris":{"android":"levelo://app?vid=b890158d-4cc0-42ea-b1b1-cf934d08cc8a","ios":"levelo://app?vid=b890158d-4cc0-42ea-b1b1-cf934d08cc8a"},"vehicle_type_id":"4","last_reported":1730477422,"current_range_meters":32400,"station_id":"ce4bhqp2rcd13ifvqhog","pricing_plan_id":"cebpf4jnsgd1na2vs0mg"},{"bike_id":"3c0ad324-2ab0-4247-9792-da6b82aa28f6","system_id":"levelo_inurba_marseille","lat":43.29603,"lon":5.37732,"is_reserved":false,"is_disabled":false,"rental_uris":{"android":"levelo://app?vid=3c0ad324-2ab0-4247-9792-da6b82aa28f6","ios":"levelo://app?vid=3c0ad324-2ab0-4247-9792-da6b82aa28f6"},"vehicle_type_id":"4","last_reported":1730477422,"current_range_meters":19600,"station_id":"ce4bgi92rcd13ifvqb90","pricing_plan_id":"cebpf4jnsgd1na2vs0mg"},{"bike_id":"d5d63a0b-afd8-4937-bb8b-0578ebfa0f60","system_id":"levelo_inurba_marseille","lat":43.29224,"lon":5.36423,"is_reserved":false,"is_disabled":false,"rental_uris":{"android":"levelo://app?vid=d5d63a0b-afd8-4937-bb8b-0578ebfa0f60","ios":"levelo://app?vid=d5d63a0b-afd8-4937-bb8b-0578ebfa0f60"},"vehicle_type_id":"4","last_reported":1730477422,"current_range_meters":38800,"station_id":"ce4bgr92rcd13ifvqc7g","pricing_plan_id":"cebpf4jnsgd1na2vs0mg"},{"bike_id":"205d74b9-4188-436c-8520-a69986be2fad","system_id":"levelo_inurba_marseille","lat":43.28413,"lon":5.34991,"is_reserved":false,"is_disabled":false,"rental_uris":{"android":"levelo://app?vid=205d74b9-4188-436c-8520-a69986be2fad","ios":"levelo://app?vid=205d74b9-4188-436c-8520-a69986be2fad"},"vehicle_type_id":"4","last_reported":1730477422,"current_range_meters":36800,"station_id":"ce4bhbh2rcd13ifvqepg","pricing_plan_id":"cebpf4jnsgd1na2vs0mg"},{"bike_id":"6a0c8005-9604-4532-97a5-bf0c496901c7","system_id":"levelo_inurba_marseille","lat":43.3236,"lon":5.38887,"is_reserved":false,"is_disabled":false,"rental_uris":{"android":"levelo://app?vid=6a0c8005-9604-4532-97a5-bf0c496901c7","ios":"levelo://app?vid=6a0c8005-9604-4532-97a5-bf0c496901c7"},"vehicle_type_id":"4","last_reported":1730477422,"current_range_meters":38800,"station_id":"ce4bhqp2rcd13ifvqhog","pricing_plan_id":"cebpf4jnsgd1na2vs0mg"},{"bike_id":"b74eb7a5-adc0-435c-867d-736c91b604f1","system_id":"levelo_inurba_marseille","lat":43.27942,"lon":5.4105,"is_reserved":false,"is_disabled":false,"rental_uris":{"android":"levelo://app?vid=b74eb7a5-adc0-435c-867d-736c91b604f1","ios":"levelo://app?vid=b74eb7a5-adc0-435c-867d-736c91b604f1"},"vehicle_type_id":"4","last_reported":1730477422,"current_range_meters":20000,"station_id":"ce4bhnp2rcd13ifvqh0g","pricing_plan_id":"cebpf4jnsgd1na2vs0mg"},{"bike_id":"5e952f6b-9aee-4257-81cc-27b4ae171e24","system_id":"levelo_inurba_marseille","lat":43.22936,"lon":5.35377,"is_reserved":false,"is_disabled":false,"rental_uris":{"android":"levelo://app?vid=5e952f6b-9aee-4257-81cc-27b4ae171e24","ios":"levelo://app?vid=5e952f6b-9aee-4257-81cc-27b4ae171e24"},"vehicle_type_id":"4","last_reported":1730477422,"current_range_meters":39200,"station_id":"cpo3532slgdg3j2ikp40","pricing_plan_id":"cebpf4jnsgd1na2vs0mg"},{"bike_id":"81eaa22b-96f5-47dd-9220-ed8909709108","system_id":"levelo_inurba_marseille","lat":43.28407,"lon":5.34989,"is_reserved":false,"is_disabled":false,"rental_uris":{"android":"levelo://app?vid=81eaa22b-96f5-47dd-9220-ed8909709108","ios":"levelo://app?vid=81eaa22b-96f5-47dd-9220-ed8909709108"},"vehicle_type_id":"4","last_reported":1730477422,"current_range_meters":39200,"station_id":"ce4bhbh2rcd13ifvqepg","pricing_plan_id":"cebpf4jnsgd1na2vs0mg"},{"bike_id":"b78358b5-6367-41e5-ba39-c1e7f2cfb5cc","system_id":"levelo_inurba_marseille","lat":43.29185,"lon":5.35805,"is_reserved":false,"is_disabled":false,"rental_uris":{"android":"levelo://app?vid=b78358b5-6367-41e5-ba39-c1e7f2cfb5cc","ios":"levelo://app?vid=b78358b5-6367-41e5-ba39-c1e7f2cfb5cc"},"vehicle_type_id":"4","last_reported":1730477422,"current_range_meters":3600,"station_id":"ce4bhb12rcd13ifvqel0","pricing_plan_id":"cebpf4jnsgd1na2vs0mg"},{"bike_id":"c7ec20dc-0182-48c1-9100-ba99ab816943","system_id":"levelo_inurba_marseille","lat":43.28614,"lon":5.35113,"is_reserved":false,"is_disabled":false,"rental_uris":{"android":"levelo://app?vid=c7ec20dc-0182-48c1-9100-ba99ab816943","ios":"levelo://app?vid=c7ec20dc-0182-48c1-9100-ba99ab816943"},"vehicle_type_id":"4","last_reported":1730477422,"current_range_meters":8400,"station_id":"ce4bhch2rcd13ifvqeug","pricing_plan_id":"cebpf4jnsgd1na2vs0mg"},{"bike_id":"e9b6cb43-9892-4496-89b8-b59ca1356feb","system_id":"levelo_inurba_marseille","lat":43.28335,"lon":5.38088,"is_reserved":false,"is_disabled":false,"rental_uris":{"android":"levelo://app?vid=e9b6cb43-9892-4496-89b8-b59ca1356feb","ios":"levelo://app?vid=e9b6cb43-9892-4496-89b8-b59ca1356feb"},"vehicle_type_id":"4","last_reported":1730477422,"current_range_meters":12000,"station_id":"ce4bh412rcd13ifvqdr0","pricing_plan_id":"cebpf4jnsgd1na2vs0mg"},{"bike_id":"6ab2facd-51e6-496f-a643-b4f136867326","system_id":"levelo_inurba_marseille","lat":43.3325,"lon":5.41799,"is_reserved":false,"is_disabled":false,"rental_uris":{"android":"levelo://app?vid=6ab2facd-51e6-496f-a643-b4f136867326","ios":"levelo://app?vid=6ab2facd-51e6-496f-a643-b4f136867326"},"vehicle_type_id":"4","last_reported":1730477422,"current_range_meters":6000,"station_id":"","pricing_plan_id":"cebpf4jnsgd1na2vs0mg"},{"bike_id":"3507c972-4ca6-4a87-b029-7914a8b5de0a","system_id":"levelo_inurba_marseille","lat":43.29586,"lon":5.37508,"is_reserved":false,"is_disabled":false,"rental_uris":{"android":"levelo://app?vid=3507c972-4ca6-4a87-b029-7914a8b5de0a","ios":"levelo://app?vid=3507c972-4ca6-4a87-b029-7914a8b5de0a"},"vehicle_type_id":"4","last_reported":1730477422,"current_range_meters":39200,"station_id":"ce4bgh92rcd13ifvqb50","pricing_plan_id":"cebpf4jnsgd1na2vs0mg"},{"bike_id":"399844a4-6199-48f5-b1b1-4cad8d6ff103","system_id":"levelo_inurba_marseille","lat":43.254974,"lon":5.376477,"is_reserved":false,"is_disabled":false,"rental_uris":{"android":"levelo://app?vid=399844a4-6199-48f5-b1b1-4cad8d6ff103","ios":"levelo://app?vid=399844a4-6199-48f5-b1b1-4cad8d6ff103"},"vehicle_type_id":"4","last_reported":1730477422,"current_range_meters":30400,"station_id":"ce4bhh12rcd13ifvqff0","pricing_plan_id":"cebpf4jnsgd1na2vs0mg"},{"bike_id":"548401b2-b5c6-4776-a81f-3a42a1c1e3d5","system_id":"levelo_inurba_marseille","lat":43.27808,"lon":5.40712,"is_reserved":false,"is_disabled":false,"rental_uris":{"android":"levelo://app?vid=548401b2-b5c6-4776-a81f-3a42a1c1e3d5","ios":"levelo://app?vid=548401b2-b5c6-4776-a81f-3a42a1c1e3d5"},"vehicle_type_id":"4","last_reported":1730477422,"current_range_meters":23200,"station_id":"ce4bhnh2rcd13ifvqgtg","pricing_plan_id":"cebpf4jnsgd1na2vs0mg"},{"bike_id":"d3e1031d-5971-4d39-b357-cb59855ed522","system_id":"levelo_inurba_marseille","lat":43.25822,"lon":5.39435,"is_reserved":false,"is_disabled":false,"rental_uris":{"android":"levelo://app?vid=d3e1031d-5971-4d39-b357-cb59855ed522","ios":"levelo://app?vid=d3e1031d-5971-4d39-b357-cb59855ed522"},"vehicle_type_id":"4","last_reported":1730477422,"current_range_meters":5600,"station_id":"ce4bhip2rcd13ifvqft0","pricing_plan_id":"cebpf4jnsgd1na2vs0mg"},{"bike_id":"e21335a2-4c03-4d87-bf65-f92d0169b049","system_id":"levelo_inurba_marseille","lat":43.23192,"lon":5.35556,"is_reserved":false,"is_disabled":false,"rental_uris":{"android":"levelo://app?vid=e21335a2-4c03-4d87-bf65-f92d0169b049","ios":"levelo://app?vid=e21335a2-4c03-4d87-bf65-f92d0169b049"},"vehicle_type_id":"4","last_reported":1730477422,"current_range_meters":16000,"station_id":"ce4bhu92rcd13ifvqi70","pricing_plan_id":"cebpf4jnsgd1na2vs0mg"},{"bike_id":"a8a0fb52-bd35-44df-bee9-47987ca6fea0","system_id":"levelo_inurba_marseille","lat":43.28407,"lon":5.34988,"is_reserved":false,"is_disabled":false,"rental_uris":{"android":"levelo://app?vid=a8a0fb52-bd35-44df-bee9-47987ca6fea0","ios":"levelo://app?vid=a8a0fb52-bd35-44df-bee9-47987ca6fea0"},"vehicle_type_id":"4","last_reported":1730477422,"current_range_meters":8800,"station_id":"ce4bhbh2rcd13ifvqepg","pricing_plan_id":"cebpf4jnsgd1na2vs0mg"},{"bike_id":"a2fc7985-0688-4a02-9379-0492d56aec5c","system_id":"levelo_inurba_marseille","lat":43.28151,"lon":5.42647,"is_reserved":false,"is_disabled":false,"rental_uris":{"android":"levelo://app?vid=a2fc7985-0688-4a02-9379-0492d56aec5c","ios":"levelo://app?vid=a2fc7985-0688-4a02-9379-0492d56aec5c"},"vehicle_type_id":"4","last_reported":1730477422,"current_range_meters":9200,"station_id":"ce4bhnh2rcd13ifvqgug","pricing_plan_id":"cebpf4jnsgd1na2vs0mg"},{"bike_id":"18402065-9e87-476b-95ad-30853de181a0","system_id":"levelo_inurba_marseille","lat":43.32447,"lon":5.45554,"is_reserved":false,"is_disabled":false,"rental_uris":{"android":"levelo://app?vid=18402065-9e87-476b-95ad-30853de181a0","ios":"levelo://app?vid=18402065-9e87-476b-95ad-30853de181a0"},"vehicle_type_id":"4","last_reported":1730477422,"current_range_meters":10800,"station_id":"","pricing_plan_id":"cebpf4jnsgd1na2vs0mg"},{"bike_id":"fd5158b7-a775-46e1-9b5c-0e580acefe7a","system_id":"levelo_inurba_marseille","lat":43.303,"lon":5.39198,"is_reserved":false,"is_disabled":false,"rental_uris":{"android":"levelo://app?vid=fd5158b7-a775-46e1-9b5c-0e580acefe7a","ios":"levelo://app?vid=fd5158b7-a775-46e1-9b5c-0e580acefe7a"},"vehicle_type_id":"4","last_reported":1730477422,"current_range_meters":16000,"station_id":"ce4bgkh2rcd13ifvqbk0","pricing_plan_id":"cebpf4jnsgd1na2vs0mg"},{"bike_id":"f639eb92-509e-4052-8835-e15d5e9042f8","system_id":"levelo_inurba_marseille","lat":43.25081,"lon":5.3952,"is_reserved":false,"is_disabled":false,"rental_uris":{"android":"levelo://app?vid=f639eb92-509e-4052-8835-e15d5e9042f8","ios":"levelo://app?vid=f639eb92-509e-4052-8835-e15d5e9042f8"},"vehicle_type_id":"4","last_reported":1730477422,"current_range_meters":16000,"station_id":"ce4bhm12rcd13ifvqgkg","pricing_plan_id":"cebpf4jnsgd1na2vs0mg"},{"bike_id":"ef8a3dd0-a226-438e-8379-aa279fca8109","system_id":"levelo_inurba_marseille","lat":43.24393,"lon":5.37061,"is_reserved":false,"is_disabled":false,"rental_uris":{"android":"levelo://app?vid=ef8a3dd0-a226-438e-8379-aa279fca8109","ios":"levelo://app?vid=ef8a3dd0-a226-438e-8379-aa279fca8109"},"vehicle_type_id":"4","last_reported":1730477422,"current_range_meters":25200,"station_id":"ce4bhhh2rcd13ifvqfk0","pricing_plan_id":"cebpf4jnsgd1na2vs0mg"},{"bike_id":"4e4e17f7-8a40-41d0-b503-28bfbcae5c24","system_id":"levelo_inurba_marseille","lat":43.28616,"lon":5.35103,"is_reserved":false,"is_disabled":false,"rental_uris":{"android":"levelo://app?vid=4e4e17f7-8a40-41d0-b503-28bfbcae5c24","ios":"levelo://app?vid=4e4e17f7-8a40-41d0-b503-28bfbcae5c24"},"vehicle_type_id":"4","last_reported":1730477422,"current_range_meters":35600,"station_id":"ce4bhch2rcd13ifvqeug","pricing_plan_id":"cebpf4jnsgd1na2vs0mg"},{"bike_id":"fe198506-445a-4fd4-ad81-1c93c83826aa","system_id":"levelo_inurba_marseille","lat":43.28619,"lon":5.35103,"is_reserved":false,"is_disabled":false,"rental_uris":{"android":"levelo://app?vid=fe198506-445a-4fd4-ad81-1c93c83826aa","ios":"levelo://app?vid=fe198506-445a-4fd4-ad81-1c93c83826aa"},"vehicle_type_id":"4","last_reported":1730477422,"current_range_meters":38800,"station_id":"ce4bhch2rcd13ifvqeug","pricing_plan_id":"cebpf4jnsgd1na2vs0mg"},{"bike_id":"1cc62db7-b37d-48af-84f9-3047f76e6408","system_id":"levelo_inurba_marseille","lat":43.30537,"lon":5.36564,"is_reserved":false,"is_disabled":false,"rental_uris":{"android":"levelo://app?vid=1cc62db7-b37d-48af-84f9-3047f76e6408","ios":"levelo://app?vid=1cc62db7-b37d-48af-84f9-3047f76e6408"},"vehicle_type_id":"4","last_reported":1730477422,"current_range_meters":4800,"station_id":"ce4bgs12rcd13ifvqcag","pricing_plan_id":"cebpf4jnsgd1na2vs0mg"},{"bike_id":"777b245f-3014-486c-a03d-24b1fc7dab82","system_id":"levelo_inurba_marseille","lat":43.3111,"lon":5.37772,"is_reserved":false,"is_disabled":false,"rental_uris":{"android":"levelo://app?vid=777b245f-3014-486c-a03d-24b1fc7dab82","ios":"levelo://app?vid=777b245f-3014-486c-a03d-24b1fc7dab82"},"vehicle_type_id":"4","last_reported":1730477422,"current_range_meters":31200,"station_id":"ce4bgt92rcd13ifvqcg0","pricing_plan_id":"cebpf4jnsgd1na2vs0mg"},{"bike_id":"c3892579-34c0-4f4d-b3e9-6b40091087e9","system_id":"levelo_inurba_marseille","lat":43.28396,"lon":5.34993,"is_reserved":false,"is_disabled":false,"rental_uris":{"android":"levelo://app?vid=c3892579-34c0-4f4d-b3e9-6b40091087e9","ios":"levelo://app?vid=c3892579-34c0-4f4d-b3e9-6b40091087e9"},"vehicle_type_id":"4","last_reported":1730477422,"current_range_meters":12800,"station_id":"ce4bhbh2rcd13ifvqepg","pricing_plan_id":"cebpf4jnsgd1na2vs0mg"},{"bike_id":"f7cd2e11-9116-45d3-91bc-6140ce51beb9","system_id":"levelo_inurba_marseille","lat":43.28401,"lon":5.34998,"is_reserved":false,"is_disabled":false,"rental_uris":{"android":"levelo://app?vid=f7cd2e11-9116-45d3-91bc-6140ce51beb9","ios":"levelo://app?vid=f7cd2e11-9116-45d3-91bc-6140ce51beb9"},"vehicle_type_id":"4","last_reported":1730477422,"current_range_meters":31200,"station_id":"ce4bhbh2rcd13ifvqepg","pricing_plan_id":"cebpf4jnsgd1na2vs0mg"},{"bike_id":"6e0dd521-c0d5-458a-bac1-822d3ae76bce","system_id":"levelo_inurba_marseille","lat":43.27676,"lon":5.38878,"is_reserved":false,"is_disabled":false,"rental_uris":{"android":"levelo://app?vid=6e0dd521-c0d5-458a-bac1-822d3ae76bce","ios":"levelo://app?vid=6e0dd521-c0d5-458a-bac1-822d3ae76bce"},"vehicle_type_id":"4","last_reported":1730477422,"current_range_meters":26800,"station_id":"ce4bhi12rcd13ifvqfo0","pricing_plan_id":"cebpf4jnsgd1na2vs0mg"},{"bike_id":"af4e9ea9-0a7b-461e-a196-6a3fb6b64b49","system_id":"levelo_inurba_marseille","lat":43.23191,"lon":5.35563,"is_reserved":false,"is_disabled":false,"rental_uris":{"android":"levelo://app?vid=af4e9ea9-0a7b-461e-a196-6a3fb6b64b49","ios":"levelo://app?vid=af4e9ea9-0a7b-461e-a196-6a3fb6b64b49"},"vehicle_type_id":"4","last_reported":1730477422,"current_range_meters":28400,"station_id":"ce4bhu92rcd13ifvqi70","pricing_plan_id":"cebpf4jnsgd1na2vs0mg"},{"bike_id":"1d2f8f52-b8de-4975-bf84-4965927ee900","system_id":"levelo_inurba_marseille","lat":43.3137,"lon":5.385,"is_reserved":false,"is_disabled":false,"rental_uris":{"android":"levelo://app?vid=1d2f8f52-b8de-4975-bf84-4965927ee900","ios":"levelo://app?vid=1d2f8f52-b8de-4975-bf84-4965927ee900"},"vehicle_type_id":"4","last_reported":1730477422,"current_range_meters":24000,"station_id":"ce4bgt92rcd13ifvqcf0","pricing_plan_id":"cebpf4jnsgd1na2vs0mg"},{"bike_id":"5cdc1805-18c6-4324-84d5-2fd185f784e4","system_id":"levelo_inurba_marseille","lat":43.28618,"lon":5.35116,"is_reserved":false,"is_disabled":false,"rental_uris":{"android":"levelo://app?vid=5cdc1805-18c6-4324-84d5-2fd185f784e4","ios":"levelo://app?vid=5cdc1805-18c6-4324-84d5-2fd185f784e4"},"vehicle_type_id":"4","last_reported":1730477422,"current_range_meters":26000,"station_id":"ce4bhch2rcd13ifvqeug","pricing_plan_id":"cebpf4jnsgd1na2vs0mg"},{"bike_id":"61246084-3ca7-4f32-a1a4-cdbfcf8347ff","system_id":"levelo_inurba_marseille","lat":43.287017,"lon":5.373795,"is_reserved":false,"is_disabled":false,"rental_uris":{"android":"levelo://app?vid=61246084-3ca7-4f32-a1a4-cdbfcf8347ff","ios":"levelo://app?vid=61246084-3ca7-4f32-a1a4-cdbfcf8347ff"},"vehicle_type_id":"4","last_reported":1730477422,"current_range_meters":12000,"station_id":"ce4bh3p2rcd13ifvqdq0","pricing_plan_id":"cebpf4jnsgd1na2vs0mg"},{"bike_id":"dadbc061-ed0a-419c-96de-cadb1f45f85f","system_id":"levelo_inurba_marseille","lat":43.25495,"lon":5.37649,"is_reserved":false,"is_disabled":false,"rental_uris":{"android":"levelo://app?vid=dadbc061-ed0a-419c-96de-cadb1f45f85f","ios":"levelo://app?vid=dadbc061-ed0a-419c-96de-cadb1f45f85f"},"vehicle_type_id":"4","last_reported":1730477422,"current_range_meters":27200,"station_id":"ce4bhh12rcd13ifvqff0","pricing_plan_id":"cebpf4jnsgd1na2vs0mg"},{"bike_id":"5b1beb29-08c3-4517-96e1-89c4b727e0c3","system_id":"levelo_inurba_marseille","lat":43.23197,"lon":5.35549,"is_reserved":false,"is_disabled":false,"rental_uris":{"android":"levelo://app?vid=5b1beb29-08c3-4517-96e1-89c4b727e0c3","ios":"levelo://app?vid=5b1beb29-08c3-4517-96e1-89c4b727e0c3"},"vehicle_type_id":"4","last_reported":1730477422,"current_range_meters":28400,"station_id":"ce4bhu92rcd13ifvqi70","pricing_plan_id":"cebpf4jnsgd1na2vs0mg"},{"bike_id":"184436cc-2283-4849-99ff-4cf3cfcbd0b4","system_id":"levelo_inurba_marseille","lat":43.27366,"lon":5.36257,"is_reserved":false,"is_disabled":false,"rental_uris":{"android":"levelo://app?vid=184436cc-2283-4849-99ff-4cf3cfcbd0b4","ios":"levelo://app?vid=184436cc-2283-4849-99ff-4cf3cfcbd0b4"},"vehicle_type_id":"4","last_reported":1730477422,"current_range_meters":12800,"station_id":"ce4bhbh2rcd13ifvqeo0","pricing_plan_id":"cebpf4jnsgd1na2vs0mg"},{"bike_id":"9ae8408a-8753-41da-bb11-f77ebfa1a760","system_id":"levelo_inurba_marseille","lat":43.2621,"lon":5.37443,"is_reserved":false,"is_disabled":false,"rental_uris":{"android":"levelo://app?vid=9ae8408a-8753-41da-bb11-f77ebfa1a760","ios":"levelo://app?vid=9ae8408a-8753-41da-bb11-f77ebfa1a760"},"vehicle_type_id":"4","last_reported":1730477422,"current_range_meters":38800,"station_id":"ce4bhgp2rcd13ifvqfc0","pricing_plan_id":"cebpf4jnsgd1na2vs0mg"},{"bike_id":"5705adb0-f774-43f6-858e-ffffb2b77653","system_id":"levelo_inurba_marseille","lat":43.27554,"lon":5.38439,"is_reserved":false,"is_disabled":false,"rental_uris":{"android":"levelo://app?vid=5705adb0-f774-43f6-858e-ffffb2b77653","ios":"levelo://app?vid=5705adb0-f774-43f6-858e-ffffb2b77653"},"vehicle_type_id":"4","last_reported":1730477422,"current_range_meters":38000,"station_id":"ce4bhh92rcd13ifvqfi0","pricing_plan_id":"cebpf4jnsgd1na2vs0mg"},{"bike_id":"f99547b6-e0b7-4a86-b4bb-f600f8ca5cb2","system_id":"levelo_inurba_marseille","lat":43.24171,"lon":5.36398,"is_reserved":false,"is_disabled":false,"rental_uris":{"android":"levelo://app?vid=f99547b6-e0b7-4a86-b4bb-f600f8ca5cb2","ios":"levelo://app?vid=f99547b6-e0b7-4a86-b4bb-f600f8ca5cb2"},"vehicle_type_id":"4","last_reported":1730477422,"current_range_meters":6000,"station_id":"cpo36qri1sfpv3e86is0","pricing_plan_id":"cebpf4jnsgd1na2vs0mg"},{"bike_id":"0ed68df8-f16b-48e1-8dca-3de2c5a2efd8","system_id":"levelo_inurba_marseille","lat":43.29114,"lon":5.41745,"is_reserved":false,"is_disabled":false,"rental_uris":{"android":"levelo://app?vid=0ed68df8-f16b-48e1-8dca-3de2c5a2efd8","ios":"levelo://app?vid=0ed68df8-f16b-48e1-8dca-3de2c5a2efd8"},"vehicle_type_id":"4","last_reported":1730477422,"current_range_meters":18000,"station_id":"","pricing_plan_id":"cebpf4jnsgd1na2vs0mg"},{"bike_id":"e6a6d45a-e190-43cb-8101-dd964c389a88","system_id":"levelo_inurba_marseille","lat":43.28398,"lon":5.34979,"is_reserved":false,"is_disabled":false,"rental_uris":{"android":"levelo://app?vid=e6a6d45a-e190-43cb-8101-dd964c389a88","ios":"levelo://app?vid=e6a6d45a-e190-43cb-8101-dd964c389a88"},"vehicle_type_id":"4","last_reported":1730477422,"current_range_meters":38800,"station_id":"ce4bhbh2rcd13ifvqepg","pricing_plan_id":"cebpf4jnsgd1na2vs0mg"},{"bike_id":"8fa1110a-fa4b-46bc-99d4-d3c579d8e890","system_id":"levelo_inurba_marseille","lat":43.288605,"lon":5.35936,"is_reserved":false,"is_disabled":false,"rental_uris":{"android":"levelo://app?vid=8fa1110a-fa4b-46bc-99d4-d3c579d8e890","ios":"levelo://app?vid=8fa1110a-fa4b-46bc-99d4-d3c579d8e890"},"vehicle_type_id":"4","last_reported":1730477422,"current_range_meters":19600,"station_id":"","pricing_plan_id":"cebpf4jnsgd1na2vs0mg"},{"bike_id":"e136f05c-4173-4d3a-8465-ffde765b804b","system_id":"levelo_inurba_marseille","lat":43.26561,"lon":5.39019,"is_reserved":false,"is_disabled":false,"rental_uris":{"android":"levelo://app?vid=e136f05c-4173-4d3a-8465-ffde765b804b","ios":"levelo://app?vid=e136f05c-4173-4d3a-8465-ffde765b804b"},"vehicle_type_id":"4","last_reported":1730477422,"current_range_meters":36000,"station_id":"ce4bhe12rcd13ifvqf30","pricing_plan_id":"cebpf4jnsgd1na2vs0mg"},{"bike_id":"794d23c0-def7-4557-a69a-112ea268f585","system_id":"levelo_inurba_marseille","lat":43.2319,"lon":5.35558,"is_reserved":false,"is_disabled":false,"rental_uris":{"android":"levelo://app?vid=794d23c0-def7-4557-a69a-112ea268f585","ios":"levelo://app?vid=794d23c0-def7-4557-a69a-112ea268f585"},"vehicle_type_id":"4","last_reported":1730477422,"current_range_meters":38800,"station_id":"ce4bhu92rcd13ifvqi70","pricing_plan_id":"cebpf4jnsgd1na2vs0mg"},{"bike_id":"384cd52b-e98d-4af7-b94b-aa4ffcc6f6c3","system_id":"levelo_inurba_marseille","lat":43.26192,"lon":5.37456,"is_reserved":false,"is_disabled":false,"rental_uris":{"android":"levelo://app?vid=384cd52b-e98d-4af7-b94b-aa4ffcc6f6c3","ios":"levelo://app?vid=384cd52b-e98d-4af7-b94b-aa4ffcc6f6c3"},"vehicle_type_id":"4","last_reported":1730477422,"current_range_meters":17200,"station_id":"ce4bhgp2rcd13ifvqfc0","pricing_plan_id":"cebpf4jnsgd1na2vs0mg"},{"bike_id":"c9fe9305-e5b5-403a-8ac6-ee784523647c","system_id":"levelo_inurba_marseille","lat":43.23423,"lon":5.35935,"is_reserved":false,"is_disabled":false,"rental_uris":{"android":"levelo://app?vid=c9fe9305-e5b5-403a-8ac6-ee784523647c","ios":"levelo://app?vid=c9fe9305-e5b5-403a-8ac6-ee784523647c"},"vehicle_type_id":"4","last_reported":1730477422,"current_range_meters":22400,"station_id":"","pricing_plan_id":"cebpf4jnsgd1na2vs0mg"},{"bike_id":"2893ad26-c076-482e-9d45-7841ad8090e7","system_id":"levelo_inurba_marseille","lat":43.279461,"lon":5.38762,"is_reserved":false,"is_disabled":false,"rental_uris":{"android":"levelo://app?vid=2893ad26-c076-482e-9d45-7841ad8090e7","ios":"levelo://app?vid=2893ad26-c076-482e-9d45-7841ad8090e7"},"vehicle_type_id":"4","last_reported":1730477422,"current_range_meters":36800,"station_id":"ce4bhg12rcd13ifvqf80","pricing_plan_id":"cebpf4jnsgd1na2vs0mg"},{"bike_id":"1457e520-5f81-4350-8a0e-59a53e77d12a","system_id":"levelo_inurba_marseille","lat":43.28411,"lon":5.34991,"is_reserved":false,"is_disabled":false,"rental_uris":{"android":"levelo://app?vid=1457e520-5f81-4350-8a0e-59a53e77d12a","ios":"levelo://app?vid=1457e520-5f81-4350-8a0e-59a53e77d12a"},"vehicle_type_id":"4","last_reported":1730477422,"current_range_meters":32400,"station_id":"ce4bhbh2rcd13ifvqepg","pricing_plan_id":"cebpf4jnsgd1na2vs0mg"},{"bike_id":"659d006a-9137-470a-a780-ed5d1116479b","system_id":"levelo_inurba_marseille","lat":43.28714,"lon":5.37932,"is_reserved":false,"is_disabled":false,"rental_uris":{"android":"levelo://app?vid=659d006a-9137-470a-a780-ed5d1116479b","ios":"levelo://app?vid=659d006a-9137-470a-a780-ed5d1116479b"},"vehicle_type_id":"4","last_reported":1730477422,"current_range_meters":28000,"station_id":"ce4bh9p2rcd13ifvqec0","pricing_plan_id":"cebpf4jnsgd1na2vs0mg"},{"bike_id":"8fbacf44-3257-404c-a81e-573a832c6a9f","system_id":"levelo_inurba_marseille","lat":43.29035,"lon":5.37478,"is_reserved":false,"is_disabled":false,"rental_uris":{"android":"levelo://app?vid=8fbacf44-3257-404c-a81e-573a832c6a9f","ios":"levelo://app?vid=8fbacf44-3257-404c-a81e-573a832c6a9f"},"vehicle_type_id":"4","last_reported":1730477422,"current_range_meters":20400,"station_id":"","pricing_plan_id":"cebpf4jnsgd1na2vs0mg"},{"bike_id":"6ed9443b-e4ec-4b63-bd3e-b6eadab01a96","system_id":"levelo_inurba_marseille","lat":43.28459,"lon":5.35888,"is_reserved":false,"is_disabled":false,"rental_uris":{"android":"levelo://app?vid=6ed9443b-e4ec-4b63-bd3e-b6eadab01a96","ios":"levelo://app?vid=6ed9443b-e4ec-4b63-bd3e-b6eadab01a96"},"vehicle_type_id":"4","last_reported":1730477422,"current_range_meters":30000,"station_id":"ce4bhah2rcd13ifvqei0","pricing_plan_id":"cebpf4jnsgd1na2vs0mg"},{"bike_id":"4d54dee4-abc6-458f-99a7-45ce50c413d1","system_id":"levelo_inurba_marseille","lat":43.28617,"lon":5.35098,"is_reserved":false,"is_disabled":false,"rental_uris":{"android":"levelo://app?vid=4d54dee4-abc6-458f-99a7-45ce50c413d1","ios":"levelo://app?vid=4d54dee4-abc6-458f-99a7-45ce50c413d1"},"vehicle_type_id":"4","last_reported":1730477422,"current_range_meters":38000,"station_id":"ce4bhch2rcd13ifvqeug","pricing_plan_id":"cebpf4jnsgd1na2vs0mg"},{"bike_id":"9371ec22-28e8-4a60-ad3e-a03e315b6981","system_id":"levelo_inurba_marseille","lat":43.26683,"lon":5.38271,"is_reserved":false,"is_disabled":false,"rental_uris":{"android":"levelo://app?vid=9371ec22-28e8-4a60-ad3e-a03e315b6981","ios":"levelo://app?vid=9371ec22-28e8-4a60-ad3e-a03e315b6981"},"vehicle_type_id":"4","last_reported":1730477422,"current_range_meters":38800,"station_id":"ce4bhg92rcd13ifvqf90","pricing_plan_id":"cebpf4jnsgd1na2vs0mg"},{"bike_id":"e28f4cf4-aaa0-4089-94fb-a26e49eaf87d","system_id":"levelo_inurba_marseille","lat":43.23182,"lon":5.39994,"is_reserved":false,"is_disabled":false,"rental_uris":{"android":"levelo://app?vid=e28f4cf4-aaa0-4089-94fb-a26e49eaf87d","ios":"levelo://app?vid=e28f4cf4-aaa0-4089-94fb-a26e49eaf87d"},"vehicle_type_id":"4","last_reported":1730477422,"current_range_meters":5600,"station_id":"ce4bhn12rcd13ifvqgqg","pricing_plan_id":"cebpf4jnsgd1na2vs0mg"},{"bike_id":"b82e46bd-dd93-438e-8032-253c0ff00e77","system_id":"levelo_inurba_marseille","lat":43.28616,"lon":5.35107,"is_reserved":false,"is_disabled":false,"rental_uris":{"android":"levelo://app?vid=b82e46bd-dd93-438e-8032-253c0ff00e77","ios":"levelo://app?vid=b82e46bd-dd93-438e-8032-253c0ff00e77"},"vehicle_type_id":"4","last_reported":1730477422,"current_range_meters":33200,"station_id":"ce4bhch2rcd13ifvqeug","pricing_plan_id":"cebpf4jnsgd1na2vs0mg"},{"bike_id":"367151e3-d9d1-496e-afc3-1d3ad14f98c6","system_id":"levelo_inurba_marseille","lat":43.32362,"lon":5.38898,"is_reserved":false,"is_disabled":false,"rental_uris":{"android":"levelo://app?vid=367151e3-d9d1-496e-afc3-1d3ad14f98c6","ios":"levelo://app?vid=367151e3-d9d1-496e-afc3-1d3ad14f98c6"},"vehicle_type_id":"4","last_reported":1730477422,"current_range_meters":36800,"station_id":"ce4bhqp2rcd13ifvqhog","pricing_plan_id":"cebpf4jnsgd1na2vs0mg"},{"bike_id":"48a56e26-bba6-444e-9d90-8e1cdfb9bdf3","system_id":"levelo_inurba_marseille","lat":43.295304,"lon":5.385417,"is_reserved":false,"is_disabled":false,"rental_uris":{"android":"levelo://app?vid=48a56e26-bba6-444e-9d90-8e1cdfb9bdf3","ios":"levelo://app?vid=48a56e26-bba6-444e-9d90-8e1cdfb9bdf3"},"vehicle_type_id":"4","last_reported":1730477422,"current_range_meters":28400,"station_id":"ce4bgih2rcd13ifvqba0","pricing_plan_id":"cebpf4jnsgd1na2vs0mg"},{"bike_id":"707604b6-c6b3-46a1-a0b3-4a69400962f8","system_id":"levelo_inurba_marseille","lat":43.27494,"lon":5.42449,"is_reserved":false,"is_disabled":false,"rental_uris":{"android":"levelo://app?vid=707604b6-c6b3-46a1-a0b3-4a69400962f8","ios":"levelo://app?vid=707604b6-c6b3-46a1-a0b3-4a69400962f8"},"vehicle_type_id":"4","last_reported":1730477422,"current_range_meters":31200,"station_id":"ce4bhn92rcd13ifvqgrg","pricing_plan_id":"cebpf4jnsgd1na2vs0mg"},{"bike_id":"6345230e-f6a0-407f-8be7-e1e90f767494","system_id":"levelo_inurba_marseille","lat":43.27373,"lon":5.36277,"is_reserved":false,"is_disabled":false,"rental_uris":{"android":"levelo://app?vid=6345230e-f6a0-407f-8be7-e1e90f767494","ios":"levelo://app?vid=6345230e-f6a0-407f-8be7-e1e90f767494"},"vehicle_type_id":"4","last_reported":1730477422,"current_range_meters":24800,"station_id":"ce4bhbh2rcd13ifvqeo0","pricing_plan_id":"cebpf4jnsgd1na2vs0mg"},{"bike_id":"76728138-a0ca-4f4a-b849-38a4ff45a9c5","system_id":"levelo_inurba_marseille","lat":43.27987,"lon":5.41664,"is_reserved":false,"is_disabled":false,"rental_uris":{"android":"levelo://app?vid=76728138-a0ca-4f4a-b849-38a4ff45a9c5","ios":"levelo://app?vid=76728138-a0ca-4f4a-b849-38a4ff45a9c5"},"vehicle_type_id":"4","last_reported":1730477422,"current_range_meters":38800,"station_id":"ce4bho12rcd13ifvqh1g","pricing_plan_id":"cebpf4jnsgd1na2vs0mg"},{"bike_id":"5b56874c-c7a1-46f2-acff-a7978e67ef45","system_id":"levelo_inurba_marseille","lat":43.24394,"lon":5.3707,"is_reserved":false,"is_disabled":false,"rental_uris":{"android":"levelo://app?vid=5b56874c-c7a1-46f2-acff-a7978e67ef45","ios":"levelo://app?vid=5b56874c-c7a1-46f2-acff-a7978e67ef45"},"vehicle_type_id":"4","last_reported":1730477422,"current_range_meters":22800,"station_id":"ce4bhhh2rcd13ifvqfk0","pricing_plan_id":"cebpf4jnsgd1na2vs0mg"},{"bike_id":"57d18951-2001-4003-92d2-aa5cb684af8c","system_id":"levelo_inurba_marseille","lat":43.27103,"lon":5.3945,"is_reserved":false,"is_disabled":false,"rental_uris":{"android":"levelo://app?vid=57d18951-2001-4003-92d2-aa5cb684af8c","ios":"levelo://app?vid=57d18951-2001-4003-92d2-aa5cb684af8c"},"vehicle_type_id":"4","last_reported":1730477422,"current_range_meters":22000,"station_id":"","pricing_plan_id":"cebpf4jnsgd1na2vs0mg"},{"bike_id":"a38055d3-a8a4-4cc5-9582-e0b88d50198c","system_id":"levelo_inurba_marseille","lat":43.25101,"lon":5.38241,"is_reserved":false,"is_disabled":false,"rental_uris":{"android":"levelo://app?vid=a38055d3-a8a4-4cc5-9582-e0b88d50198c","ios":"levelo://app?vid=a38055d3-a8a4-4cc5-9582-e0b88d50198c"},"vehicle_type_id":"4","last_reported":1730477422,"current_range_meters":18000,"station_id":"ce4bhnp2rcd13ifvqgvg","pricing_plan_id":"cebpf4jnsgd1na2vs0mg"},{"bike_id":"b1efd151-f49c-4bcf-b1b1-adcfb7803d0b","system_id":"levelo_inurba_marseille","lat":43.28938,"lon":5.36398,"is_reserved":false,"is_disabled":false,"rental_uris":{"android":"levelo://app?vid=b1efd151-f49c-4bcf-b1b1-adcfb7803d0b","ios":"levelo://app?vid=b1efd151-f49c-4bcf-b1b1-adcfb7803d0b"},"vehicle_type_id":"4","last_reported":1730477422,"current_range_meters":14400,"station_id":"ce4bhc92rcd13ifvqetg","pricing_plan_id":"cebpf4jnsgd1na2vs0mg"},{"bike_id":"e8bb2e43-06e1-4662-9540-13b29d948ad5","system_id":"levelo_inurba_marseille","lat":43.33725,"lon":5.39187,"is_reserved":false,"is_disabled":false,"rental_uris":{"android":"levelo://app?vid=e8bb2e43-06e1-4662-9540-13b29d948ad5","ios":"levelo://app?vid=e8bb2e43-06e1-4662-9540-13b29d948ad5"},"vehicle_type_id":"4","last_reported":1730477422,"current_range_meters":8400,"station_id":"ce4bhr92rcd13ifvqhsg","pricing_plan_id":"cebpf4jnsgd1na2vs0mg"},{"bike_id":"8c785fa7-a809-421e-bda6-ec0412aa3912","system_id":"levelo_inurba_marseille","lat":43.29606,"lon":5.38077,"is_reserved":false,"is_disabled":false,"rental_uris":{"android":"levelo://app?vid=8c785fa7-a809-421e-bda6-ec0412aa3912","ios":"levelo://app?vid=8c785fa7-a809-421e-bda6-ec0412aa3912"},"vehicle_type_id":"4","last_reported":1730477422,"current_range_meters":23200,"station_id":"ce4bgl12rcd13ifvqbo0","pricing_plan_id":"cebpf4jnsgd1na2vs0mg"},{"bike_id":"90d23f24-0910-4067-b74c-b06670da762e","system_id":"levelo_inurba_marseille","lat":43.25721,"lon":5.41113,"is_reserved":false,"is_disabled":false,"rental_uris":{"android":"levelo://app?vid=90d23f24-0910-4067-b74c-b06670da762e","ios":"levelo://app?vid=90d23f24-0910-4067-b74c-b06670da762e"},"vehicle_type_id":"4","last_reported":1730477422,"current_range_meters":2000,"station_id":"ce4bhkp2rcd13ifvqgd0","pricing_plan_id":"cebpf4jnsgd1na2vs0mg"},{"bike_id":"519ed868-bf2d-403e-82a3-e650632e4ae9","system_id":"levelo_inurba_marseille","lat":43.28616,"lon":5.35109,"is_reserved":false,"is_disabled":false,"rental_uris":{"android":"levelo://app?vid=519ed868-bf2d-403e-82a3-e650632e4ae9","ios":"levelo://app?vid=519ed868-bf2d-403e-82a3-e650632e4ae9"},"vehicle_type_id":"4","last_reported":1730477422,"current_range_meters":24800,"station_id":"ce4bhch2rcd13ifvqeug","pricing_plan_id":"cebpf4jnsgd1na2vs0mg"},{"bike_id":"94279a57-03c0-47b7-abe3-7226e86fd3b0","system_id":"levelo_inurba_marseille","lat":43.27608,"lon":5.36118,"is_reserved":false,"is_disabled":false,"rental_uris":{"android":"levelo://app?vid=94279a57-03c0-47b7-abe3-7226e86fd3b0","ios":"levelo://app?vid=94279a57-03c0-47b7-abe3-7226e86fd3b0"},"vehicle_type_id":"4","last_reported":1730477422,"current_range_meters":25200,"station_id":"ce4bgj92rcd13ifvqbe0","pricing_plan_id":"cebpf4jnsgd1na2vs0mg"},{"bike_id":"337f7b68-5195-45c7-9921-8e8597bed8ca","system_id":"levelo_inurba_marseille","lat":43.29608,"lon":5.37092,"is_reserved":false,"is_disabled":false,"rental_uris":{"android":"levelo://app?vid=337f7b68-5195-45c7-9921-8e8597bed8ca","ios":"levelo://app?vid=337f7b68-5195-45c7-9921-8e8597bed8ca"},"vehicle_type_id":"4","last_reported":1730477422,"current_range_meters":21600,"station_id":"ce4bgih2rcd13ifvqba0","pricing_plan_id":"cebpf4jnsgd1na2vs0mg"},{"bike_id":"075a9b24-064f-4687-8f31-ecc829471959","system_id":"levelo_inurba_marseille","lat":43.3302,"lon":5.39049,"is_reserved":false,"is_disabled":false,"rental_uris":{"android":"levelo://app?vid=075a9b24-064f-4687-8f31-ecc829471959","ios":"levelo://app?vid=075a9b24-064f-4687-8f31-ecc829471959"},"vehicle_type_id":"4","last_reported":1730477422,"current_range_meters":14800,"station_id":"ce4bhr92rcd13ifvqhrg","pricing_plan_id":"cebpf4jnsgd1na2vs0mg"},{"bike_id":"488158da-5b84-4ac2-abf3-bd6eb0aebd68","system_id":"levelo_inurba_marseille","lat":43.29866,"lon":5.39729,"is_reserved":false,"is_disabled":false,"rental_uris":{"android":"levelo://app?vid=488158da-5b84-4ac2-abf3-bd6eb0aebd68","ios":"levelo://app?vid=488158da-5b84-4ac2-abf3-bd6eb0aebd68"},"vehicle_type_id":"4","last_reported":1730477422,"current_range_meters":10000,"station_id":"ce4bh0h2rcd13ifvqd50","pricing_plan_id":"cebpf4jnsgd1na2vs0mg"},{"bike_id":"c9a15019-9b0e-4b0e-a077-d2a167f536f9","system_id":"levelo_inurba_marseille","lat":43.28001,"lon":5.40023,"is_reserved":false,"is_disabled":false,"rental_uris":{"android":"levelo://app?vid=c9a15019-9b0e-4b0e-a077-d2a167f536f9","ios":"levelo://app?vid=c9a15019-9b0e-4b0e-a077-d2a167f536f9"},"vehicle_type_id":"4","last_reported":1730477422,"current_range_meters":32000,"station_id":"ce4bho92rcd13ifvqh4g","pricing_plan_id":"cebpf4jnsgd1na2vs0mg"},{"bike_id":"ef6dafdf-ebc3-4dcc-a8e2-0ac9a2c99375","system_id":"levelo_inurba_marseille","lat":43.26487,"lon":5.37353,"is_reserved":false,"is_disabled":false,"rental_uris":{"android":"levelo://app?vid=ef6dafdf-ebc3-4dcc-a8e2-0ac9a2c99375","ios":"levelo://app?vid=ef6dafdf-ebc3-4dcc-a8e2-0ac9a2c99375"},"vehicle_type_id":"4","last_reported":1730477422,"current_range_meters":9200,"station_id":"","pricing_plan_id":"cebpf4jnsgd1na2vs0mg"},{"bike_id":"87a039bf-de16-4503-81c2-5d1153a40963","system_id":"levelo_inurba_marseille","lat":43.24811,"lon":5.37464,"is_reserved":false,"is_disabled":false,"rental_uris":{"android":"levelo://app?vid=87a039bf-de16-4503-81c2-5d1153a40963","ios":"levelo://app?vid=87a039bf-de16-4503-81c2-5d1153a40963"},"vehicle_type_id":"4","last_reported":1730477422,"current_range_meters":10800,"station_id":"ce4bhgh2rcd13ifvqfb0","pricing_plan_id":"cebpf4jnsgd1na2vs0mg"},{"bike_id":"ce7a9679-1309-4337-a277-05901a838b7d","system_id":"levelo_inurba_marseille","lat":43.29355,"lon":5.43434,"is_reserved":false,"is_disabled":false,"rental_uris":{"android":"levelo://app?vid=ce7a9679-1309-4337-a277-05901a838b7d","ios":"levelo://app?vid=ce7a9679-1309-4337-a277-05901a838b7d"},"vehicle_type_id":"4","last_reported":1730477422,"current_range_meters":16400,"station_id":"","pricing_plan_id":"cebpf4jnsgd1na2vs0mg"},{"bike_id":"62cc4766-8c4f-4c68-b806-619b96217818","system_id":"levelo_inurba_marseille","lat":43.25118,"lon":5.40322,"is_reserved":false,"is_disabled":false,"rental_uris":{"android":"levelo://app?vid=62cc4766-8c4f-4c68-b806-619b96217818","ios":"levelo://app?vid=62cc4766-8c4f-4c68-b806-619b96217818"},"vehicle_type_id":"4","last_reported":1730477422,"current_range_meters":9200,"station_id":"ce4bhlh2rcd13ifvqgig","pricing_plan_id":"cebpf4jnsgd1na2vs0mg"},{"bike_id":"1fe219b2-8626-414e-8d61-0586c316f82f","system_id":"levelo_inurba_marseille","lat":43.2549,"lon":5.37646,"is_reserved":false,"is_disabled":false,"rental_uris":{"android":"levelo://app?vid=1fe219b2-8626-414e-8d61-0586c316f82f","ios":"levelo://app?vid=1fe219b2-8626-414e-8d61-0586c316f82f"},"vehicle_type_id":"4","last_reported":1730477422,"current_range_meters":8400,"station_id":"ce4bhh12rcd13ifvqff0","pricing_plan_id":"cebpf4jnsgd1na2vs0mg"},{"bike_id":"b80b378e-3bb4-4aec-8abb-d55c8fe2be02","system_id":"levelo_inurba_marseille","lat":43.279449,"lon":5.415464,"is_reserved":false,"is_disabled":false,"rental_uris":{"android":"levelo://app?vid=b80b378e-3bb4-4aec-8abb-d55c8fe2be02","ios":"levelo://app?vid=b80b378e-3bb4-4aec-8abb-d55c8fe2be02"},"vehicle_type_id":"4","last_reported":1730477422,"current_range_meters":20000,"station_id":"ce4bho12rcd13ifvqh1g","pricing_plan_id":"cebpf4jnsgd1na2vs0mg"},{"bike_id":"bacb5ea5-efe1-4e05-a13e-c778d568fc88","system_id":"levelo_inurba_marseille","lat":43.28461,"lon":5.35894,"is_reserved":false,"is_disabled":false,"rental_uris":{"android":"levelo://app?vid=bacb5ea5-efe1-4e05-a13e-c778d568fc88","ios":"levelo://app?vid=bacb5ea5-efe1-4e05-a13e-c778d568fc88"},"vehicle_type_id":"4","last_reported":1730477422,"current_range_meters":2000,"station_id":"ce4bhah2rcd13ifvqei0","pricing_plan_id":"cebpf4jnsgd1na2vs0mg"},{"bike_id":"be128202-10c2-49b1-b1dc-d769f31f1074","system_id":"levelo_inurba_marseille","lat":43.27992,"lon":5.40023,"is_reserved":false,"is_disabled":false,"rental_uris":{"android":"levelo://app?vid=be128202-10c2-49b1-b1dc-d769f31f1074","ios":"levelo://app?vid=be128202-10c2-49b1-b1dc-d769f31f1074"},"vehicle_type_id":"4","last_reported":1730477422,"current_range_meters":6000,"station_id":"ce4bho92rcd13ifvqh4g","pricing_plan_id":"cebpf4jnsgd1na2vs0mg"},{"bike_id":"bd6a7da4-414c-4f67-a401-ea89588c6516","system_id":"levelo_inurba_marseille","lat":43.23056,"lon":5.35493,"is_reserved":false,"is_disabled":false,"rental_uris":{"android":"levelo://app?vid=bd6a7da4-414c-4f67-a401-ea89588c6516","ios":"levelo://app?vid=bd6a7da4-414c-4f67-a401-ea89588c6516"},"vehicle_type_id":"4","last_reported":1730477422,"current_range_meters":22000,"station_id":"cpo3342slgdg3j2ifvpg","pricing_plan_id":"cebpf4jnsgd1na2vs0mg"},{"bike_id":"7bc366cb-4f7c-4b77-8f9f-ad65ba71f27c","system_id":"levelo_inurba_marseille","lat":43.2827,"lon":5.35062,"is_reserved":false,"is_disabled":false,"rental_uris":{"android":"levelo://app?vid=7bc366cb-4f7c-4b77-8f9f-ad65ba71f27c","ios":"levelo://app?vid=7bc366cb-4f7c-4b77-8f9f-ad65ba71f27c"},"vehicle_type_id":"4","last_reported":1730477422,"current_range_meters":38800,"station_id":"ce4bhbp2rcd13ifvqerg","pricing_plan_id":"cebpf4jnsgd1na2vs0mg"},{"bike_id":"adf0a568-b210-4d8d-a616-1be5a3c57b8f","system_id":"levelo_inurba_marseille","lat":43.24815,"lon":5.37461,"is_reserved":false,"is_disabled":false,"rental_uris":{"android":"levelo://app?vid=adf0a568-b210-4d8d-a616-1be5a3c57b8f","ios":"levelo://app?vid=adf0a568-b210-4d8d-a616-1be5a3c57b8f"},"vehicle_type_id":"4","last_reported":1730477422,"current_range_meters":15200,"station_id":"ce4bhgh2rcd13ifvqfb0","pricing_plan_id":"cebpf4jnsgd1na2vs0mg"},{"bike_id":"0da6368d-bb38-499d-9741-47b35413a4b6","system_id":"levelo_inurba_marseille","lat":43.3266,"lon":5.40999,"is_reserved":false,"is_disabled":false,"rental_uris":{"android":"levelo://app?vid=0da6368d-bb38-499d-9741-47b35413a4b6","ios":"levelo://app?vid=0da6368d-bb38-499d-9741-47b35413a4b6"},"vehicle_type_id":"4","last_reported":1730477422,"current_range_meters":10800,"station_id":"ce4bhpp2rcd13ifvqhgg","pricing_plan_id":"cebpf4jnsgd1na2vs0mg"},{"bike_id":"ffcea463-c3ed-497e-8095-385644b9476c","system_id":"levelo_inurba_marseille","lat":43.28406,"lon":5.34986,"is_reserved":false,"is_disabled":false,"rental_uris":{"android":"levelo://app?vid=ffcea463-c3ed-497e-8095-385644b9476c","ios":"levelo://app?vid=ffcea463-c3ed-497e-8095-385644b9476c"},"vehicle_type_id":"4","last_reported":1730477422,"current_range_meters":39200,"station_id":"ce4bhbh2rcd13ifvqepg","pricing_plan_id":"cebpf4jnsgd1na2vs0mg"},{"bike_id":"c6ae9f52-9981-46a5-8b6d-246531f5e830","system_id":"levelo_inurba_marseille","lat":43.3079,"lon":5.38148,"is_reserved":false,"is_disabled":false,"rental_uris":{"android":"levelo://app?vid=c6ae9f52-9981-46a5-8b6d-246531f5e830","ios":"levelo://app?vid=c6ae9f52-9981-46a5-8b6d-246531f5e830"},"vehicle_type_id":"4","last_reported":1730477422,"current_range_meters":9200,"station_id":"ce4bgt12rcd13ifvqce0","pricing_plan_id":"cebpf4jnsgd1na2vs0mg"},{"bike_id":"2ee2a88b-a6ed-4ad6-8c7d-dd4f12ab4040","system_id":"levelo_inurba_marseille","lat":43.30273,"lon":5.37728,"is_reserved":false,"is_disabled":false,"rental_uris":{"android":"levelo://app?vid=2ee2a88b-a6ed-4ad6-8c7d-dd4f12ab4040","ios":"levelo://app?vid=2ee2a88b-a6ed-4ad6-8c7d-dd4f12ab4040"},"vehicle_type_id":"4","last_reported":1730477422,"current_range_meters":6800,"station_id":"ce4bguh2rcd13ifvqcj0","pricing_plan_id":"cebpf4jnsgd1na2vs0mg"},{"bike_id":"cb71782b-d8ef-4b58-97f2-1dab4f06b2cb","system_id":"levelo_inurba_marseille","lat":43.28931,"lon":5.36643,"is_reserved":false,"is_disabled":false,"rental_uris":{"android":"levelo://app?vid=cb71782b-d8ef-4b58-97f2-1dab4f06b2cb","ios":"levelo://app?vid=cb71782b-d8ef-4b58-97f2-1dab4f06b2cb"},"vehicle_type_id":"4","last_reported":1730477422,"current_range_meters":3600,"station_id":"ce4bhap2rcd13ifvqek0","pricing_plan_id":"cebpf4jnsgd1na2vs0mg"},{"bike_id":"b6ca96b4-f9a8-4076-a4b4-422d7a45bea7","system_id":"levelo_inurba_marseille","lat":43.3266,"lon":5.40993,"is_reserved":false,"is_disabled":false,"rental_uris":{"android":"levelo://app?vid=b6ca96b4-f9a8-4076-a4b4-422d7a45bea7","ios":"levelo://app?vid=b6ca96b4-f9a8-4076-a4b4-422d7a45bea7"},"vehicle_type_id":"4","last_reported":1730477422,"current_range_meters":37600,"station_id":"ce4bhpp2rcd13ifvqhgg","pricing_plan_id":"cebpf4jnsgd1na2vs0mg"},{"bike_id":"7e657ec5-322b-4323-81ae-f72a8c66668a","system_id":"levelo_inurba_marseille","lat":43.306039,"lon":5.372447,"is_reserved":false,"is_disabled":false,"rental_uris":{"android":"levelo://app?vid=7e657ec5-322b-4323-81ae-f72a8c66668a","ios":"levelo://app?vid=7e657ec5-322b-4323-81ae-f72a8c66668a"},"vehicle_type_id":"4","last_reported":1730477422,"current_range_meters":9600,"station_id":"ce4bgqh2rcd13ifvqc4g","pricing_plan_id":"cebpf4jnsgd1na2vs0mg"},{"bike_id":"df929ed3-557f-4e11-9511-f0d001c9bb7d","system_id":"levelo_inurba_marseille","lat":43.28412,"lon":5.34995,"is_reserved":false,"is_disabled":false,"rental_uris":{"android":"levelo://app?vid=df929ed3-557f-4e11-9511-f0d001c9bb7d","ios":"levelo://app?vid=df929ed3-557f-4e11-9511-f0d001c9bb7d"},"vehicle_type_id":"4","last_reported":1730477422,"current_range_meters":38000,"station_id":"ce4bhbh2rcd13ifvqepg","pricing_plan_id":"cebpf4jnsgd1na2vs0mg"},{"bike_id":"41d47d69-979b-4480-8fb6-135de4b1e8ff","system_id":"levelo_inurba_marseille","lat":43.2572,"lon":5.41112,"is_reserved":false,"is_disabled":false,"rental_uris":{"android":"levelo://app?vid=41d47d69-979b-4480-8fb6-135de4b1e8ff","ios":"levelo://app?vid=41d47d69-979b-4480-8fb6-135de4b1e8ff"},"vehicle_type_id":"4","last_reported":1730477422,"current_range_meters":38800,"station_id":"ce4bhkp2rcd13ifvqgd0","pricing_plan_id":"cebpf4jnsgd1na2vs0mg"},{"bike_id":"06680b63-9402-4c2d-bd8c-d5881e972d8b","system_id":"levelo_inurba_marseille","lat":43.24392,"lon":5.3706,"is_reserved":false,"is_disabled":false,"rental_uris":{"android":"levelo://app?vid=06680b63-9402-4c2d-bd8c-d5881e972d8b","ios":"levelo://app?vid=06680b63-9402-4c2d-bd8c-d5881e972d8b"},"vehicle_type_id":"4","last_reported":1730477422,"current_range_meters":35200,"station_id":"ce4bhhh2rcd13ifvqfk0","pricing_plan_id":"cebpf4jnsgd1na2vs0mg"},{"bike_id":"9d5363f8-92e3-49bf-9534-e7b2bcc5c7bd","system_id":"levelo_inurba_marseille","lat":43.29278,"lon":5.36847,"is_reserved":false,"is_disabled":false,"rental_uris":{"android":"levelo://app?vid=9d5363f8-92e3-49bf-9534-e7b2bcc5c7bd","ios":"levelo://app?vid=9d5363f8-92e3-49bf-9534-e7b2bcc5c7bd"},"vehicle_type_id":"4","last_reported":1730477422,"current_range_meters":12000,"station_id":"ce4bhbp2rcd13ifvqesg","pricing_plan_id":"cebpf4jnsgd1na2vs0mg"},{"bike_id":"b56dd439-7cd9-4a63-877e-eb33ccda4390","system_id":"levelo_inurba_marseille","lat":43.285278,"lon":5.350442,"is_reserved":false,"is_disabled":false,"rental_uris":{"android":"levelo://app?vid=b56dd439-7cd9-4a63-877e-eb33ccda4390","ios":"levelo://app?vid=b56dd439-7cd9-4a63-877e-eb33ccda4390"},"vehicle_type_id":"4","last_reported":1730477422,"current_range_meters":38800,"station_id":"","pricing_plan_id":"cebpf4jnsgd1na2vs0mg"},{"bike_id":"dae0c9cf-6c25-4c9f-87eb-185cb2d82dcf","system_id":"levelo_inurba_marseille","lat":43.29873,"lon":5.39724,"is_reserved":false,"is_disabled":false,"rental_uris":{"android":"levelo://app?vid=dae0c9cf-6c25-4c9f-87eb-185cb2d82dcf","ios":"levelo://app?vid=dae0c9cf-6c25-4c9f-87eb-185cb2d82dcf"},"vehicle_type_id":"4","last_reported":1730477422,"current_range_meters":19600,"station_id":"ce4bh0h2rcd13ifvqd50","pricing_plan_id":"cebpf4jnsgd1na2vs0mg"},{"bike_id":"0844af7d-a7ed-4a2b-84d0-ef6a84179012","system_id":"levelo_inurba_marseille","lat":43.31263,"lon":5.40166,"is_reserved":false,"is_disabled":false,"rental_uris":{"android":"levelo://app?vid=0844af7d-a7ed-4a2b-84d0-ef6a84179012","ios":"levelo://app?vid=0844af7d-a7ed-4a2b-84d0-ef6a84179012"},"vehicle_type_id":"4","last_reported":1730477422,"current_range_meters":20000,"station_id":"ce4bh092rcd13ifvqd30","pricing_plan_id":"cebpf4jnsgd1na2vs0mg"},{"bike_id":"5c9ecfba-5e8e-41dc-a637-8779235e83ba","system_id":"levelo_inurba_marseille","lat":43.29265,"lon":5.38436,"is_reserved":false,"is_disabled":false,"rental_uris":{"android":"levelo://app?vid=5c9ecfba-5e8e-41dc-a637-8779235e83ba","ios":"levelo://app?vid=5c9ecfba-5e8e-41dc-a637-8779235e83ba"},"vehicle_type_id":"4","last_reported":1730477422,"current_range_meters":22000,"station_id":"ce4bh692rcd13ifvqea0","pricing_plan_id":"cebpf4jnsgd1na2vs0mg"},{"bike_id":"2e679aa2-6222-4666-94d2-8febbbac34cf","system_id":"levelo_inurba_marseille","lat":43.309282,"lon":5.401336,"is_reserved":false,"is_disabled":false,"rental_uris":{"android":"levelo://app?vid=2e679aa2-6222-4666-94d2-8febbbac34cf","ios":"levelo://app?vid=2e679aa2-6222-4666-94d2-8febbbac34cf"},"vehicle_type_id":"4","last_reported":1730477422,"current_range_meters":6400,"station_id":"ce4bgvp2rcd13ifvqct0","pricing_plan_id":"cebpf4jnsgd1na2vs0mg"},{"bike_id":"ca511e41-cf65-4db9-8553-830b3978d1a6","system_id":"levelo_inurba_marseille","lat":43.296358,"lon":5.405973,"is_reserved":false,"is_disabled":false,"rental_uris":{"android":"levelo://app?vid=ca511e41-cf65-4db9-8553-830b3978d1a6","ios":"levelo://app?vid=ca511e41-cf65-4db9-8553-830b3978d1a6"},"vehicle_type_id":"4","last_reported":1730477422,"current_range_meters":24400,"station_id":"ce4bh0h2rcd13ifvqd60","pricing_plan_id":"cebpf4jnsgd1na2vs0mg"},{"bike_id":"a2b24b7e-5aba-4c80-bdb5-7c03d8640965","system_id":"levelo_inurba_marseille","lat":43.26024,"lon":5.37548,"is_reserved":false,"is_disabled":false,"rental_uris":{"android":"levelo://app?vid=a2b24b7e-5aba-4c80-bdb5-7c03d8640965","ios":"levelo://app?vid=a2b24b7e-5aba-4c80-bdb5-7c03d8640965"},"vehicle_type_id":"4","last_reported":1730477422,"current_range_meters":33600,"station_id":"ce4bhgh2rcd13ifvqfa0","pricing_plan_id":"cebpf4jnsgd1na2vs0mg"},{"bike_id":"0597baac-0976-4b01-ac18-b7c5f29d68f4","system_id":"levelo_inurba_marseille","lat":43.28718,"lon":5.37926,"is_reserved":false,"is_disabled":false,"rental_uris":{"android":"levelo://app?vid=0597baac-0976-4b01-ac18-b7c5f29d68f4","ios":"levelo://app?vid=0597baac-0976-4b01-ac18-b7c5f29d68f4"},"vehicle_type_id":"4","last_reported":1730477422,"current_range_meters":24000,"station_id":"ce4bh9p2rcd13ifvqec0","pricing_plan_id":"cebpf4jnsgd1na2vs0mg"},{"bike_id":"b75c5775-8ea4-49e3-89f1-e8dab689dbf8","system_id":"levelo_inurba_marseille","lat":43.28614,"lon":5.35104,"is_reserved":false,"is_disabled":false,"rental_uris":{"android":"levelo://app?vid=b75c5775-8ea4-49e3-89f1-e8dab689dbf8","ios":"levelo://app?vid=b75c5775-8ea4-49e3-89f1-e8dab689dbf8"},"vehicle_type_id":"4","last_reported":1730477422,"current_range_meters":14400,"station_id":"ce4bhch2rcd13ifvqeug","pricing_plan_id":"cebpf4jnsgd1na2vs0mg"},{"bike_id":"1dca45a8-0336-4041-83cb-7a06ca40420d","system_id":"levelo_inurba_marseille","lat":43.2319,"lon":5.35559,"is_reserved":false,"is_disabled":false,"rental_uris":{"android":"levelo://app?vid=1dca45a8-0336-4041-83cb-7a06ca40420d","ios":"levelo://app?vid=1dca45a8-0336-4041-83cb-7a06ca40420d"},"vehicle_type_id":"4","last_reported":1730477422,"current_range_meters":8400,"station_id":"ce4bhu92rcd13ifvqi70","pricing_plan_id":"cebpf4jnsgd1na2vs0mg"},{"bike_id":"5804714d-ac69-4ae7-864c-bc5e2f8291c8","system_id":"levelo_inurba_marseille","lat":43.28469,"lon":5.38425,"is_reserved":false,"is_disabled":false,"rental_uris":{"android":"levelo://app?vid=5804714d-ac69-4ae7-864c-bc5e2f8291c8","ios":"levelo://app?vid=5804714d-ac69-4ae7-864c-bc5e2f8291c8"},"vehicle_type_id":"4","last_reported":1730477422,"current_range_meters":16000,"station_id":"ce4bh512rcd13ifvqe3g","pricing_plan_id":"cebpf4jnsgd1na2vs0mg"},{"bike_id":"9ad95078-3593-4686-b1d4-06970138b95b","system_id":"levelo_inurba_marseille","lat":43.31133,"lon":5.37766,"is_reserved":false,"is_disabled":false,"rental_uris":{"android":"levelo://app?vid=9ad95078-3593-4686-b1d4-06970138b95b","ios":"levelo://app?vid=9ad95078-3593-4686-b1d4-06970138b95b"},"vehicle_type_id":"4","last_reported":1730477422,"current_range_meters":7200,"station_id":"ce4bgt92rcd13ifvqcg0","pricing_plan_id":"cebpf4jnsgd1na2vs0mg"},{"bike_id":"a3c57bd6-e07d-4582-9d62-c6ca0fc42e13","system_id":"levelo_inurba_marseille","lat":43.28464,"lon":5.35889,"is_reserved":false,"is_disabled":false,"rental_uris":{"android":"levelo://app?vid=a3c57bd6-e07d-4582-9d62-c6ca0fc42e13","ios":"levelo://app?vid=a3c57bd6-e07d-4582-9d62-c6ca0fc42e13"},"vehicle_type_id":"4","last_reported":1730477422,"current_range_meters":16800,"station_id":"ce4bhah2rcd13ifvqei0","pricing_plan_id":"cebpf4jnsgd1na2vs0mg"},{"bike_id":"0af87e38-8c6f-43cf-a185-325cb7908ca9","system_id":"levelo_inurba_marseille","lat":43.29188,"lon":5.35809,"is_reserved":false,"is_disabled":false,"rental_uris":{"android":"levelo://app?vid=0af87e38-8c6f-43cf-a185-325cb7908ca9","ios":"levelo://app?vid=0af87e38-8c6f-43cf-a185-325cb7908ca9"},"vehicle_type_id":"4","last_reported":1730477422,"current_range_meters":30400,"station_id":"ce4bhb12rcd13ifvqel0","pricing_plan_id":"cebpf4jnsgd1na2vs0mg"},{"bike_id":"84aee467-31c1-4346-abdd-abf886ea598f","system_id":"levelo_inurba_marseille","lat":43.280513,"lon":5.369001,"is_reserved":false,"is_disabled":false,"rental_uris":{"android":"levelo://app?vid=84aee467-31c1-4346-abdd-abf886ea598f","ios":"levelo://app?vid=84aee467-31c1-4346-abdd-abf886ea598f"},"vehicle_type_id":"4","last_reported":1730477422,"current_range_meters":10800,"station_id":"ce4bha12rcd13ifvqef0","pricing_plan_id":"cebpf4jnsgd1na2vs0mg"},{"bike_id":"ed279d38-b7eb-4b14-96b9-94c615824290","system_id":"levelo_inurba_marseille","lat":43.23197,"lon":5.35549,"is_reserved":false,"is_disabled":false,"rental_uris":{"android":"levelo://app?vid=ed279d38-b7eb-4b14-96b9-94c615824290","ios":"levelo://app?vid=ed279d38-b7eb-4b14-96b9-94c615824290"},"vehicle_type_id":"4","last_reported":1730477422,"current_range_meters":14000,"station_id":"ce4bhu92rcd13ifvqi70","pricing_plan_id":"cebpf4jnsgd1na2vs0mg"},{"bike_id":"d6a7a92c-1c5f-4411-bb1e-2f73648eb9d8","system_id":"levelo_inurba_marseille","lat":43.300903,"lon":5.390804,"is_reserved":false,"is_disabled":false,"rental_uris":{"android":"levelo://app?vid=d6a7a92c-1c5f-4411-bb1e-2f73648eb9d8","ios":"levelo://app?vid=d6a7a92c-1c5f-4411-bb1e-2f73648eb9d8"},"vehicle_type_id":"4","last_reported":1730477422,"current_range_meters":28000,"station_id":"ce4bh192rcd13ifvqdb0","pricing_plan_id":"cebpf4jnsgd1na2vs0mg"},{"bike_id":"43696823-ec85-43a1-892d-54413b95bdce","system_id":"levelo_inurba_marseille","lat":43.22928,"lon":5.3538,"is_reserved":false,"is_disabled":false,"rental_uris":{"android":"levelo://app?vid=43696823-ec85-43a1-892d-54413b95bdce","ios":"levelo://app?vid=43696823-ec85-43a1-892d-54413b95bdce"},"vehicle_type_id":"4","last_reported":1730477422,"current_range_meters":28400,"station_id":"cpo3532slgdg3j2ikp40","pricing_plan_id":"cebpf4jnsgd1na2vs0mg"},{"bike_id":"ea65eb4d-cb99-42f4-9ce0-28b06945a086","system_id":"levelo_inurba_marseille","lat":43.26059,"lon":5.393996,"is_reserved":false,"is_disabled":false,"rental_uris":{"android":"levelo://app?vid=ea65eb4d-cb99-42f4-9ce0-28b06945a086","ios":"levelo://app?vid=ea65eb4d-cb99-42f4-9ce0-28b06945a086"},"vehicle_type_id":"4","last_reported":1730477422,"current_range_meters":22400,"station_id":"ce4bhh92rcd13ifvqfj0","pricing_plan_id":"cebpf4jnsgd1na2vs0mg"},{"bike_id":"938ad7a8-faf1-44f3-ac73-aa1b4d76edf4","system_id":"levelo_inurba_marseille","lat":43.24394,"lon":5.37069,"is_reserved":false,"is_disabled":false,"rental_uris":{"android":"levelo://app?vid=938ad7a8-faf1-44f3-ac73-aa1b4d76edf4","ios":"levelo://app?vid=938ad7a8-faf1-44f3-ac73-aa1b4d76edf4"},"vehicle_type_id":"4","last_reported":1730477422,"current_range_meters":25600,"station_id":"ce4bhhh2rcd13ifvqfk0","pricing_plan_id":"cebpf4jnsgd1na2vs0mg"},{"bike_id":"3b2a9487-b68b-4248-a759-ce972c4b44f0","system_id":"levelo_inurba_marseille","lat":43.24073,"lon":5.37754,"is_reserved":false,"is_disabled":false,"rental_uris":{"android":"levelo://app?vid=3b2a9487-b68b-4248-a759-ce972c4b44f0","ios":"levelo://app?vid=3b2a9487-b68b-4248-a759-ce972c4b44f0"},"vehicle_type_id":"4","last_reported":1730477422,"current_range_meters":28400,"station_id":"ce4bhnp2rcd13ifvqgvg","pricing_plan_id":"cebpf4jnsgd1na2vs0mg"},{"bike_id":"829cc812-f370-4c22-be3b-083c8fefeb58","system_id":"levelo_inurba_marseille","lat":43.27172,"lon":5.40993,"is_reserved":false,"is_disabled":false,"rental_uris":{"android":"levelo://app?vid=829cc812-f370-4c22-be3b-083c8fefeb58","ios":"levelo://app?vid=829cc812-f370-4c22-be3b-083c8fefeb58"},"vehicle_type_id":"4","last_reported":1730477422,"current_range_meters":16000,"station_id":"ce4bhl12rcd13ifvqgf0","pricing_plan_id":"cebpf4jnsgd1na2vs0mg"},{"bike_id":"c576ea2d-3112-4836-b90b-b1223b4aeaa4","system_id":"levelo_inurba_marseille","lat":43.29055,"lon":5.37168,"is_reserved":false,"is_disabled":false,"rental_uris":{"android":"levelo://app?vid=c576ea2d-3112-4836-b90b-b1223b4aeaa4","ios":"levelo://app?vid=c576ea2d-3112-4836-b90b-b1223b4aeaa4"},"vehicle_type_id":"4","last_reported":1730477422,"current_range_meters":17600,"station_id":"ce4bh5p2rcd13ifvqe4g","pricing_plan_id":"cebpf4jnsgd1na2vs0mg"},{"bike_id":"2dcee28c-68ab-4712-aba5-2a99a1274f74","system_id":"levelo_inurba_marseille","lat":43.24804,"lon":5.37456,"is_reserved":false,"is_disabled":false,"rental_uris":{"android":"levelo://app?vid=2dcee28c-68ab-4712-aba5-2a99a1274f74","ios":"levelo://app?vid=2dcee28c-68ab-4712-aba5-2a99a1274f74"},"vehicle_type_id":"4","last_reported":1730477422,"current_range_meters":9200,"station_id":"ce4bhgh2rcd13ifvqfb0","pricing_plan_id":"cebpf4jnsgd1na2vs0mg"},{"bike_id":"f78f641d-3198-4252-ac20-84a511193400","system_id":"levelo_inurba_marseille","lat":43.303362,"lon":5.365853,"is_reserved":false,"is_disabled":false,"rental_uris":{"android":"levelo://app?vid=f78f641d-3198-4252-ac20-84a511193400","ios":"levelo://app?vid=f78f641d-3198-4252-ac20-84a511193400"},"vehicle_type_id":"4","last_reported":1730477422,"current_range_meters":25600,"station_id":"","pricing_plan_id":"cebpf4jnsgd1na2vs0mg"},{"bike_id":"55d57c35-2798-44bd-b340-e44ab4f96ac1","system_id":"levelo_inurba_marseille","lat":43.337444,"lon":5.374475,"is_reserved":false,"is_disabled":false,"rental_uris":{"android":"levelo://app?vid=55d57c35-2798-44bd-b340-e44ab4f96ac1","ios":"levelo://app?vid=55d57c35-2798-44bd-b340-e44ab4f96ac1"},"vehicle_type_id":"4","last_reported":1730477422,"current_range_meters":36800,"station_id":"","pricing_plan_id":"cebpf4jnsgd1na2vs0mg"},{"bike_id":"ef44195b-c8ae-4f49-920e-b0ee5c3c7f53","system_id":"levelo_inurba_marseille","lat":43.273683,"lon":5.362577,"is_reserved":false,"is_disabled":false,"rental_uris":{"android":"levelo://app?vid=ef44195b-c8ae-4f49-920e-b0ee5c3c7f53","ios":"levelo://app?vid=ef44195b-c8ae-4f49-920e-b0ee5c3c7f53"},"vehicle_type_id":"4","last_reported":1730477422,"current_range_meters":16000,"station_id":"ce4bhbh2rcd13ifvqeo0","pricing_plan_id":"cebpf4jnsgd1na2vs0mg"},{"bike_id":"1cc5c728-9d28-421b-942f-791af153fb4c","system_id":"levelo_inurba_marseille","lat":43.29891,"lon":5.38895,"is_reserved":false,"is_disabled":false,"rental_uris":{"android":"levelo://app?vid=1cc5c728-9d28-421b-942f-791af153fb4c","ios":"levelo://app?vid=1cc5c728-9d28-421b-942f-791af153fb4c"},"vehicle_type_id":"4","last_reported":1730477422,"current_range_meters":10000,"station_id":"ce4bh392rcd13ifvqdl0","pricing_plan_id":"cebpf4jnsgd1na2vs0mg"},{"bike_id":"f8cd3598-2530-48cd-86f4-47ca26266b9e","system_id":"levelo_inurba_marseille","lat":43.24549,"lon":5.39526,"is_reserved":false,"is_disabled":false,"rental_uris":{"android":"levelo://app?vid=f8cd3598-2530-48cd-86f4-47ca26266b9e","ios":"levelo://app?vid=f8cd3598-2530-48cd-86f4-47ca26266b9e"},"vehicle_type_id":"4","last_reported":1730477422,"current_range_meters":17600,"station_id":"ce4bhlp2rcd13ifvqgjg","pricing_plan_id":"cebpf4jnsgd1na2vs0mg"},{"bike_id":"0d4e0479-d8a2-45f2-91e0-dd87823320fe","system_id":"levelo_inurba_marseille","lat":43.33777,"lon":5.37469,"is_reserved":false,"is_disabled":false,"rental_uris":{"android":"levelo://app?vid=0d4e0479-d8a2-45f2-91e0-dd87823320fe","ios":"levelo://app?vid=0d4e0479-d8a2-45f2-91e0-dd87823320fe"},"vehicle_type_id":"4","last_reported":1730477422,"current_range_meters":25200,"station_id":"","pricing_plan_id":"cebpf4jnsgd1na2vs0mg"},{"bike_id":"b45f9ea5-ada2-4e65-9848-6f98c078b1cf","system_id":"levelo_inurba_marseille","lat":43.292542,"lon":5.394207,"is_reserved":false,"is_disabled":false,"rental_uris":{"android":"levelo://app?vid=b45f9ea5-ada2-4e65-9848-6f98c078b1cf","ios":"levelo://app?vid=b45f9ea5-ada2-4e65-9848-6f98c078b1cf"},"vehicle_type_id":"4","last_reported":1730477422,"current_range_meters":24800,"station_id":"ce4bh192rcd13ifvqdd0","pricing_plan_id":"cebpf4jnsgd1na2vs0mg"},{"bike_id":"67110620-ff45-4af6-bd82-c51a14567c1b","system_id":"levelo_inurba_marseille","lat":43.27502,"lon":5.42456,"is_reserved":false,"is_disabled":false,"rental_uris":{"android":"levelo://app?vid=67110620-ff45-4af6-bd82-c51a14567c1b","ios":"levelo://app?vid=67110620-ff45-4af6-bd82-c51a14567c1b"},"vehicle_type_id":"4","last_reported":1730477422,"current_range_meters":38800,"station_id":"ce4bhn92rcd13ifvqgrg","pricing_plan_id":"cebpf4jnsgd1na2vs0mg"},{"bike_id":"d3dfadd6-074a-43ee-9df9-8b7c57af7893","system_id":"levelo_inurba_marseille","lat":43.27372,"lon":5.36259,"is_reserved":false,"is_disabled":false,"rental_uris":{"android":"levelo://app?vid=d3dfadd6-074a-43ee-9df9-8b7c57af7893","ios":"levelo://app?vid=d3dfadd6-074a-43ee-9df9-8b7c57af7893"},"vehicle_type_id":"4","last_reported":1730477422,"current_range_meters":38000,"station_id":"ce4bhbh2rcd13ifvqeo0","pricing_plan_id":"cebpf4jnsgd1na2vs0mg"},{"bike_id":"c094828f-e5fd-4e12-9637-5da6f8941c15","system_id":"levelo_inurba_marseille","lat":43.24164,"lon":5.36412,"is_reserved":false,"is_disabled":false,"rental_uris":{"android":"levelo://app?vid=c094828f-e5fd-4e12-9637-5da6f8941c15","ios":"levelo://app?vid=c094828f-e5fd-4e12-9637-5da6f8941c15"},"vehicle_type_id":"4","last_reported":1730477422,"current_range_meters":24400,"station_id":"cpo36qri1sfpv3e86is0","pricing_plan_id":"cebpf4jnsgd1na2vs0mg"},{"bike_id":"d9e43dc3-5cdd-4665-ba2d-da6bf31686bf","system_id":"levelo_inurba_marseille","lat":43.23062,"lon":5.35494,"is_reserved":false,"is_disabled":false,"rental_uris":{"android":"levelo://app?vid=d9e43dc3-5cdd-4665-ba2d-da6bf31686bf","ios":"levelo://app?vid=d9e43dc3-5cdd-4665-ba2d-da6bf31686bf"},"vehicle_type_id":"4","last_reported":1730477422,"current_range_meters":38000,"station_id":"cpo3342slgdg3j2ifvpg","pricing_plan_id":"cebpf4jnsgd1na2vs0mg"},{"bike_id":"7c499999-9817-4582-8c58-aa9ef8aca44a","system_id":"levelo_inurba_marseille","lat":43.28344,"lon":5.38115,"is_reserved":false,"is_disabled":false,"rental_uris":{"android":"levelo://app?vid=7c499999-9817-4582-8c58-aa9ef8aca44a","ios":"levelo://app?vid=7c499999-9817-4582-8c58-aa9ef8aca44a"},"vehicle_type_id":"4","last_reported":1730477422,"current_range_meters":14000,"station_id":"ce4bh412rcd13ifvqdr0","pricing_plan_id":"cebpf4jnsgd1na2vs0mg"},{"bike_id":"c9fa2ee5-72c0-4f9d-b128-eb7b996a3347","system_id":"levelo_inurba_marseille","lat":43.32542,"lon":5.41424,"is_reserved":false,"is_disabled":false,"rental_uris":{"android":"levelo://app?vid=c9fa2ee5-72c0-4f9d-b128-eb7b996a3347","ios":"levelo://app?vid=c9fa2ee5-72c0-4f9d-b128-eb7b996a3347"},"vehicle_type_id":"4","last_reported":1730477422,"current_range_meters":28000,"station_id":"ce4bhq12rcd13ifvqhhg","pricing_plan_id":"cebpf4jnsgd1na2vs0mg"},{"bike_id":"3040547d-7cac-4ac8-a811-2d6932ea8c51","system_id":"levelo_inurba_marseille","lat":43.28367,"lon":5.38632,"is_reserved":false,"is_disabled":false,"rental_uris":{"android":"levelo://app?vid=3040547d-7cac-4ac8-a811-2d6932ea8c51","ios":"levelo://app?vid=3040547d-7cac-4ac8-a811-2d6932ea8c51"},"vehicle_type_id":"4","last_reported":1730477422,"current_range_meters":37600,"station_id":"ce4bh492rcd13ifvqdvg","pricing_plan_id":"cebpf4jnsgd1na2vs0mg"},{"bike_id":"dfd4f07f-74d7-4807-887d-874808b0ed30","system_id":"levelo_inurba_marseille","lat":43.26552,"lon":5.37285,"is_reserved":false,"is_disabled":false,"rental_uris":{"android":"levelo://app?vid=dfd4f07f-74d7-4807-887d-874808b0ed30","ios":"levelo://app?vid=dfd4f07f-74d7-4807-887d-874808b0ed30"},"vehicle_type_id":"4","last_reported":1730477422,"current_range_meters":38800,"station_id":"ce4bhg12rcd13ifvqf70","pricing_plan_id":"cebpf4jnsgd1na2vs0mg"},{"bike_id":"20165b09-0c90-49b2-904c-9e1201ac730e","system_id":"levelo_inurba_marseille","lat":43.29341,"lon":5.37143,"is_reserved":false,"is_disabled":false,"rental_uris":{"android":"levelo://app?vid=20165b09-0c90-49b2-904c-9e1201ac730e","ios":"levelo://app?vid=20165b09-0c90-49b2-904c-9e1201ac730e"},"vehicle_type_id":"4","last_reported":1730477422,"current_range_meters":38800,"station_id":"ce4bgh92rcd13ifvqb40","pricing_plan_id":"cebpf4jnsgd1na2vs0mg"},{"bike_id":"dcc3412c-7336-4d5e-a8cb-a4954fb1723f","system_id":"levelo_inurba_marseille","lat":43.23068,"lon":5.35495,"is_reserved":false,"is_disabled":false,"rental_uris":{"android":"levelo://app?vid=dcc3412c-7336-4d5e-a8cb-a4954fb1723f","ios":"levelo://app?vid=dcc3412c-7336-4d5e-a8cb-a4954fb1723f"},"vehicle_type_id":"4","last_reported":1730477422,"current_range_meters":7200,"station_id":"cpo3342slgdg3j2ifvpg","pricing_plan_id":"cebpf4jnsgd1na2vs0mg"},{"bike_id":"5b845125-d7b7-4639-81e5-d2c32492bd25","system_id":"levelo_inurba_marseille","lat":43.24652,"lon":5.38896,"is_reserved":false,"is_disabled":false,"rental_uris":{"android":"levelo://app?vid=5b845125-d7b7-4639-81e5-d2c32492bd25","ios":"levelo://app?vid=5b845125-d7b7-4639-81e5-d2c32492bd25"},"vehicle_type_id":"4","last_reported":1730477422,"current_range_meters":38800,"station_id":"ce4bhg12rcd13ifvqf60","pricing_plan_id":"cebpf4jnsgd1na2vs0mg"},{"bike_id":"c027a1d1-29c5-4b58-bdbc-c8a102380aac","system_id":"levelo_inurba_marseille","lat":43.28474,"lon":5.38409,"is_reserved":false,"is_disabled":false,"rental_uris":{"android":"levelo://app?vid=c027a1d1-29c5-4b58-bdbc-c8a102380aac","ios":"levelo://app?vid=c027a1d1-29c5-4b58-bdbc-c8a102380aac"},"vehicle_type_id":"4","last_reported":1730477422,"current_range_meters":24000,"station_id":"ce4bh512rcd13ifvqe3g","pricing_plan_id":"cebpf4jnsgd1na2vs0mg"},{"bike_id":"e777b0ba-4271-4943-a3b6-096dc3d28497","system_id":"levelo_inurba_marseille","lat":43.25487,"lon":5.37651,"is_reserved":false,"is_disabled":false,"rental_uris":{"android":"levelo://app?vid=e777b0ba-4271-4943-a3b6-096dc3d28497","ios":"levelo://app?vid=e777b0ba-4271-4943-a3b6-096dc3d28497"},"vehicle_type_id":"4","last_reported":1730477422,"current_range_meters":26000,"station_id":"ce4bhh12rcd13ifvqff0","pricing_plan_id":"cebpf4jnsgd1na2vs0mg"},{"bike_id":"2e20294e-71e8-498c-b8aa-4ce33315c9fa","system_id":"levelo_inurba_marseille","lat":43.292328,"lon":5.36055,"is_reserved":false,"is_disabled":false,"rental_uris":{"android":"levelo://app?vid=2e20294e-71e8-498c-b8aa-4ce33315c9fa","ios":"levelo://app?vid=2e20294e-71e8-498c-b8aa-4ce33315c9fa"},"vehicle_type_id":"4","last_reported":1730477422,"current_range_meters":4400,"station_id":"ce4bhbh2rcd13ifvqeqg","pricing_plan_id":"cebpf4jnsgd1na2vs0mg"},{"bike_id":"6eebaa63-3150-485e-aa8f-063147b7db12","system_id":"levelo_inurba_marseille","lat":43.28334,"lon":5.38099,"is_reserved":false,"is_disabled":false,"rental_uris":{"android":"levelo://app?vid=6eebaa63-3150-485e-aa8f-063147b7db12","ios":"levelo://app?vid=6eebaa63-3150-485e-aa8f-063147b7db12"},"vehicle_type_id":"4","last_reported":1730477422,"current_range_meters":9600,"station_id":"ce4bh412rcd13ifvqdr0","pricing_plan_id":"cebpf4jnsgd1na2vs0mg"},{"bike_id":"11ccc3a0-1f3f-417c-afc1-afb9f621f46e","system_id":"levelo_inurba_marseille","lat":43.30357,"lon":5.41881,"is_reserved":false,"is_disabled":false,"rental_uris":{"android":"levelo://app?vid=11ccc3a0-1f3f-417c-afc1-afb9f621f46e","ios":"levelo://app?vid=11ccc3a0-1f3f-417c-afc1-afb9f621f46e"},"vehicle_type_id":"4","last_reported":1730477422,"current_range_meters":6400,"station_id":"ce4bhop2rcd13ifvqh7g","pricing_plan_id":"cebpf4jnsgd1na2vs0mg"},{"bike_id":"1c62fdf8-e503-4b95-8f16-2a315f2889e0","system_id":"levelo_inurba_marseille","lat":43.279083,"lon":5.380136,"is_reserved":false,"is_disabled":false,"rental_uris":{"android":"levelo://app?vid=1c62fdf8-e503-4b95-8f16-2a315f2889e0","ios":"levelo://app?vid=1c62fdf8-e503-4b95-8f16-2a315f2889e0"},"vehicle_type_id":"4","last_reported":1730477422,"current_range_meters":14800,"station_id":"ce4bhf92rcd13ifvqf50","pricing_plan_id":"cebpf4jnsgd1na2vs0mg"},{"bike_id":"4e86b0fe-9b57-4b58-a63b-bd7eba9b7b50","system_id":"levelo_inurba_marseille","lat":43.22936,"lon":5.35376,"is_reserved":false,"is_disabled":false,"rental_uris":{"android":"levelo://app?vid=4e86b0fe-9b57-4b58-a63b-bd7eba9b7b50","ios":"levelo://app?vid=4e86b0fe-9b57-4b58-a63b-bd7eba9b7b50"},"vehicle_type_id":"4","last_reported":1730477422,"current_range_meters":24400,"station_id":"cpo3532slgdg3j2ikp40","pricing_plan_id":"cebpf4jnsgd1na2vs0mg"},{"bike_id":"373587c4-db2a-420d-a0cd-7c78653edf99","system_id":"levelo_inurba_marseille","lat":43.304714,"lon":5.378901,"is_reserved":false,"is_disabled":false,"rental_uris":{"android":"levelo://app?vid=373587c4-db2a-420d-a0cd-7c78653edf99","ios":"levelo://app?vid=373587c4-db2a-420d-a0cd-7c78653edf99"},"vehicle_type_id":"4","last_reported":1730477422,"current_range_meters":35600,"station_id":"ce4bgup2rcd13ifvqcn0","pricing_plan_id":"cebpf4jnsgd1na2vs0mg"},{"bike_id":"aedd613a-3e0e-48bc-bcce-01db4dfff1e5","system_id":"levelo_inurba_marseille","lat":43.27066,"lon":5.42283,"is_reserved":false,"is_disabled":false,"rental_uris":{"android":"levelo://app?vid=aedd613a-3e0e-48bc-bcce-01db4dfff1e5","ios":"levelo://app?vid=aedd613a-3e0e-48bc-bcce-01db4dfff1e5"},"vehicle_type_id":"4","last_reported":1730477422,"current_range_meters":28800,"station_id":"ce4bhk92rcd13ifvqgb0","pricing_plan_id":"cebpf4jnsgd1na2vs0mg"},{"bike_id":"53287389-7194-49c0-b7e0-078f14cd1a7e","system_id":"levelo_inurba_marseille","lat":43.29256,"lon":5.38447,"is_reserved":false,"is_disabled":false,"rental_uris":{"android":"levelo://app?vid=53287389-7194-49c0-b7e0-078f14cd1a7e","ios":"levelo://app?vid=53287389-7194-49c0-b7e0-078f14cd1a7e"},"vehicle_type_id":"4","last_reported":1730477422,"current_range_meters":20400,"station_id":"ce4bh692rcd13ifvqea0","pricing_plan_id":"cebpf4jnsgd1na2vs0mg"},{"bike_id":"bd95dc30-8740-459a-925b-11d03e37dc4f","system_id":"levelo_inurba_marseille","lat":43.32263,"lon":5.38277,"is_reserved":false,"is_disabled":false,"rental_uris":{"android":"levelo://app?vid=bd95dc30-8740-459a-925b-11d03e37dc4f","ios":"levelo://app?vid=bd95dc30-8740-459a-925b-11d03e37dc4f"},"vehicle_type_id":"4","last_reported":1730477422,"current_range_meters":37600,"station_id":"ce4bhr12rcd13ifvqhqg","pricing_plan_id":"cebpf4jnsgd1na2vs0mg"},{"bike_id":"1ecde62b-d5ba-4230-bbb2-e554691f86d8","system_id":"levelo_inurba_marseille","lat":43.27378,"lon":5.36249,"is_reserved":false,"is_disabled":false,"rental_uris":{"android":"levelo://app?vid=1ecde62b-d5ba-4230-bbb2-e554691f86d8","ios":"levelo://app?vid=1ecde62b-d5ba-4230-bbb2-e554691f86d8"},"vehicle_type_id":"4","last_reported":1730477422,"current_range_meters":10000,"station_id":"ce4bhbh2rcd13ifvqeo0","pricing_plan_id":"cebpf4jnsgd1na2vs0mg"},{"bike_id":"5eebc6dd-a25f-4c50-8aea-6cc28b647d39","system_id":"levelo_inurba_marseille","lat":43.24545,"lon":5.39526,"is_reserved":false,"is_disabled":false,"rental_uris":{"android":"levelo://app?vid=5eebc6dd-a25f-4c50-8aea-6cc28b647d39","ios":"levelo://app?vid=5eebc6dd-a25f-4c50-8aea-6cc28b647d39"},"vehicle_type_id":"4","last_reported":1730477422,"current_range_meters":30800,"station_id":"ce4bhlp2rcd13ifvqgjg","pricing_plan_id":"cebpf4jnsgd1na2vs0mg"},{"bike_id":"157aa4dd-2aea-4be4-8d20-c2f89a2ab2e2","system_id":"levelo_inurba_marseille","lat":43.28403,"lon":5.37527,"is_reserved":false,"is_disabled":false,"rental_uris":{"android":"levelo://app?vid=157aa4dd-2aea-4be4-8d20-c2f89a2ab2e2","ios":"levelo://app?vid=157aa4dd-2aea-4be4-8d20-c2f89a2ab2e2"},"vehicle_type_id":"4","last_reported":1730477422,"current_range_meters":10800,"station_id":"ce4bh412rcd13ifvqds0","pricing_plan_id":"cebpf4jnsgd1na2vs0mg"},{"bike_id":"f8a84d14-1cc5-4663-8160-851f476a1a3f","system_id":"levelo_inurba_marseille","lat":43.25483,"lon":5.3766,"is_reserved":false,"is_disabled":false,"rental_uris":{"android":"levelo://app?vid=f8a84d14-1cc5-4663-8160-851f476a1a3f","ios":"levelo://app?vid=f8a84d14-1cc5-4663-8160-851f476a1a3f"},"vehicle_type_id":"4","last_reported":1730477422,"current_range_meters":37600,"station_id":"ce4bhh12rcd13ifvqff0","pricing_plan_id":"cebpf4jnsgd1na2vs0mg"},{"bike_id":"fb2784d6-115f-41de-bd08-ab406ac6ef55","system_id":"levelo_inurba_marseille","lat":43.28417,"lon":5.34988,"is_reserved":false,"is_disabled":false,"rental_uris":{"android":"levelo://app?vid=fb2784d6-115f-41de-bd08-ab406ac6ef55","ios":"levelo://app?vid=fb2784d6-115f-41de-bd08-ab406ac6ef55"},"vehicle_type_id":"4","last_reported":1730477422,"current_range_meters":38400,"station_id":"ce4bhbh2rcd13ifvqepg","pricing_plan_id":"cebpf4jnsgd1na2vs0mg"},{"bike_id":"a1bba212-3e35-4a56-9a21-e6f88f1033e3","system_id":"levelo_inurba_marseille","lat":43.284,"lon":5.34991,"is_reserved":false,"is_disabled":false,"rental_uris":{"android":"levelo://app?vid=a1bba212-3e35-4a56-9a21-e6f88f1033e3","ios":"levelo://app?vid=a1bba212-3e35-4a56-9a21-e6f88f1033e3"},"vehicle_type_id":"4","last_reported":1730477422,"current_range_meters":30400,"station_id":"ce4bhbh2rcd13ifvqepg","pricing_plan_id":"cebpf4jnsgd1na2vs0mg"},{"bike_id":"cb5ea47a-3798-4077-b904-e0e749807094","system_id":"levelo_inurba_marseille","lat":43.29596,"lon":5.38097,"is_reserved":false,"is_disabled":false,"rental_uris":{"android":"levelo://app?vid=cb5ea47a-3798-4077-b904-e0e749807094","ios":"levelo://app?vid=cb5ea47a-3798-4077-b904-e0e749807094"},"vehicle_type_id":"4","last_reported":1730477422,"current_range_meters":22400,"station_id":"ce4bgl12rcd13ifvqbo0","pricing_plan_id":"cebpf4jnsgd1na2vs0mg"},{"bike_id":"a696439e-f62d-4248-b1f2-a49381375f34","system_id":"levelo_inurba_marseille","lat":43.2794,"lon":5.41049,"is_reserved":false,"is_disabled":false,"rental_uris":{"android":"levelo://app?vid=a696439e-f62d-4248-b1f2-a49381375f34","ios":"levelo://app?vid=a696439e-f62d-4248-b1f2-a49381375f34"},"vehicle_type_id":"4","last_reported":1730477422,"current_range_meters":23200,"station_id":"ce4bhnp2rcd13ifvqh0g","pricing_plan_id":"cebpf4jnsgd1na2vs0mg"},{"bike_id":"ad092866-3ea0-416b-8831-c867ec16cab7","system_id":"levelo_inurba_marseille","lat":43.3211,"lon":5.38051,"is_reserved":false,"is_disabled":false,"rental_uris":{"android":"levelo://app?vid=ad092866-3ea0-416b-8831-c867ec16cab7","ios":"levelo://app?vid=ad092866-3ea0-416b-8831-c867ec16cab7"},"vehicle_type_id":"4","last_reported":1730477422,"current_range_meters":36800,"station_id":"","pricing_plan_id":"cebpf4jnsgd1na2vs0mg"},{"bike_id":"1adb0e87-ba18-427a-8951-b7e77fe03c2b","system_id":"levelo_inurba_marseille","lat":43.24387,"lon":5.37065,"is_reserved":false,"is_disabled":false,"rental_uris":{"android":"levelo://app?vid=1adb0e87-ba18-427a-8951-b7e77fe03c2b","ios":"levelo://app?vid=1adb0e87-ba18-427a-8951-b7e77fe03c2b"},"vehicle_type_id":"4","last_reported":1730477422,"current_range_meters":8400,"station_id":"ce4bhhh2rcd13ifvqfk0","pricing_plan_id":"cebpf4jnsgd1na2vs0mg"},{"bike_id":"b6711a1c-b5a2-49fc-bab6-7bba754cc594","system_id":"levelo_inurba_marseille","lat":43.23055,"lon":5.35501,"is_reserved":false,"is_disabled":false,"rental_uris":{"android":"levelo://app?vid=b6711a1c-b5a2-49fc-bab6-7bba754cc594","ios":"levelo://app?vid=b6711a1c-b5a2-49fc-bab6-7bba754cc594"},"vehicle_type_id":"4","last_reported":1730477422,"current_range_meters":22800,"station_id":"cpo3342slgdg3j2ifvpg","pricing_plan_id":"cebpf4jnsgd1na2vs0mg"},{"bike_id":"24e15223-6f81-496d-a873-748522c7905f","system_id":"levelo_inurba_marseille","lat":43.27612,"lon":5.36118,"is_reserved":false,"is_disabled":false,"rental_uris":{"android":"levelo://app?vid=24e15223-6f81-496d-a873-748522c7905f","ios":"levelo://app?vid=24e15223-6f81-496d-a873-748522c7905f"},"vehicle_type_id":"4","last_reported":1730477422,"current_range_meters":4800,"station_id":"ce4bgj92rcd13ifvqbe0","pricing_plan_id":"cebpf4jnsgd1na2vs0mg"},{"bike_id":"4e2ffa40-a8dc-4981-8e4a-e0261170f179","system_id":"levelo_inurba_marseille","lat":43.26552,"lon":5.37291,"is_reserved":false,"is_disabled":false,"rental_uris":{"android":"levelo://app?vid=4e2ffa40-a8dc-4981-8e4a-e0261170f179","ios":"levelo://app?vid=4e2ffa40-a8dc-4981-8e4a-e0261170f179"},"vehicle_type_id":"4","last_reported":1730477422,"current_range_meters":8400,"station_id":"ce4bhg12rcd13ifvqf70","pricing_plan_id":"cebpf4jnsgd1na2vs0mg"},{"bike_id":"a1fe673a-2526-4f10-9b38-3bca229cef5c","system_id":"levelo_inurba_marseille","lat":43.27069,"lon":5.42277,"is_reserved":false,"is_disabled":false,"rental_uris":{"android":"levelo://app?vid=a1fe673a-2526-4f10-9b38-3bca229cef5c","ios":"levelo://app?vid=a1fe673a-2526-4f10-9b38-3bca229cef5c"},"vehicle_type_id":"4","last_reported":1730477422,"current_range_meters":24000,"station_id":"ce4bhk92rcd13ifvqgb0","pricing_plan_id":"cebpf4jnsgd1na2vs0mg"},{"bike_id":"4728f5da-d828-4219-942d-e88acc2dcccb","system_id":"levelo_inurba_marseille","lat":43.28406,"lon":5.34991,"is_reserved":false,"is_disabled":false,"rental_uris":{"android":"levelo://app?vid=4728f5da-d828-4219-942d-e88acc2dcccb","ios":"levelo://app?vid=4728f5da-d828-4219-942d-e88acc2dcccb"},"vehicle_type_id":"4","last_reported":1730477422,"current_range_meters":38800,"station_id":"ce4bhbh2rcd13ifvqepg","pricing_plan_id":"cebpf4jnsgd1na2vs0mg"},{"bike_id":"8c3eb03b-3703-4566-b325-1f65304fd9a7","system_id":"levelo_inurba_marseille","lat":43.29931,"lon":5.3655,"is_reserved":false,"is_disabled":false,"rental_uris":{"android":"levelo://app?vid=8c3eb03b-3703-4566-b325-1f65304fd9a7","ios":"levelo://app?vid=8c3eb03b-3703-4566-b325-1f65304fd9a7"},"vehicle_type_id":"4","last_reported":1730477422,"current_range_meters":21600,"station_id":"ce4bgm92rcd13ifvqbr0","pricing_plan_id":"cebpf4jnsgd1na2vs0mg"},{"bike_id":"bc46e3c1-f3f0-4442-9086-e401785320db","system_id":"levelo_inurba_marseille","lat":43.24078,"lon":5.37759,"is_reserved":false,"is_disabled":false,"rental_uris":{"android":"levelo://app?vid=bc46e3c1-f3f0-4442-9086-e401785320db","ios":"levelo://app?vid=bc46e3c1-f3f0-4442-9086-e401785320db"},"vehicle_type_id":"4","last_reported":1730477422,"current_range_meters":27600,"station_id":"ce4bhnp2rcd13ifvqgvg","pricing_plan_id":"cebpf4jnsgd1na2vs0mg"},{"bike_id":"aaf79e15-489a-44fc-b11d-712cb8679820","system_id":"levelo_inurba_marseille","lat":43.28411,"lon":5.3499,"is_reserved":false,"is_disabled":false,"rental_uris":{"android":"levelo://app?vid=aaf79e15-489a-44fc-b11d-712cb8679820","ios":"levelo://app?vid=aaf79e15-489a-44fc-b11d-712cb8679820"},"vehicle_type_id":"4","last_reported":1730477422,"current_range_meters":37600,"station_id":"ce4bhbh2rcd13ifvqepg","pricing_plan_id":"cebpf4jnsgd1na2vs0mg"},{"bike_id":"cb0a3c79-54fa-4556-8624-42e76d6c5de4","system_id":"levelo_inurba_marseille","lat":43.25718,"lon":5.41122,"is_reserved":false,"is_disabled":false,"rental_uris":{"android":"levelo://app?vid=cb0a3c79-54fa-4556-8624-42e76d6c5de4","ios":"levelo://app?vid=cb0a3c79-54fa-4556-8624-42e76d6c5de4"},"vehicle_type_id":"4","last_reported":1730477422,"current_range_meters":33200,"station_id":"ce4bhkp2rcd13ifvqgd0","pricing_plan_id":"cebpf4jnsgd1na2vs0mg"},{"bike_id":"ae66f370-7173-4eef-8c94-55d4e0fe624d","system_id":"levelo_inurba_marseille","lat":43.28419,"lon":5.34983,"is_reserved":false,"is_disabled":false,"rental_uris":{"android":"levelo://app?vid=ae66f370-7173-4eef-8c94-55d4e0fe624d","ios":"levelo://app?vid=ae66f370-7173-4eef-8c94-55d4e0fe624d"},"vehicle_type_id":"4","last_reported":1730477422,"current_range_meters":25600,"station_id":"ce4bhbh2rcd13ifvqepg","pricing_plan_id":"cebpf4jnsgd1na2vs0mg"},{"bike_id":"b8bccd8e-73b9-4fa4-a820-046f07d9ac1f","system_id":"levelo_inurba_marseille","lat":43.32113,"lon":5.36769,"is_reserved":false,"is_disabled":false,"rental_uris":{"android":"levelo://app?vid=b8bccd8e-73b9-4fa4-a820-046f07d9ac1f","ios":"levelo://app?vid=b8bccd8e-73b9-4fa4-a820-046f07d9ac1f"},"vehicle_type_id":"4","last_reported":1730477422,"current_range_meters":36800,"station_id":"ce4bhrh2rcd13ifvqhug","pricing_plan_id":"cebpf4jnsgd1na2vs0mg"},{"bike_id":"154b8201-1767-443d-8540-22ce6b394098","system_id":"levelo_inurba_marseille","lat":43.28152,"lon":5.42648,"is_reserved":false,"is_disabled":false,"rental_uris":{"android":"levelo://app?vid=154b8201-1767-443d-8540-22ce6b394098","ios":"levelo://app?vid=154b8201-1767-443d-8540-22ce6b394098"},"vehicle_type_id":"4","last_reported":1730477422,"current_range_meters":3200,"station_id":"ce4bhnh2rcd13ifvqgug","pricing_plan_id":"cebpf4jnsgd1na2vs0mg"},