{"last_updated":1718230099,"ttl":30,"version":"2.2","data":{"bikes":[{"bike_id":"672ff9db-e22a-476b-9de1-6b3dc403a1a3","system_id":"levelo_inurba_marseille","lat":43.31341,"lon":5.367098,"is_reserved":false,"is_disabled":false,"rental_uris":{"android":"levelo://app?vid=672ff9db-e22a-476b-9de1-6b3dc403a1a3","ios":"levelo://app?vid=672ff9db-e22a-476b-9de1-6b3dc403a1a3"},"vehicle_type_id":"4","last_reported":1718230099,"current_range_meters":20800,"station_id":"ce4bgr92rcd13ifvqc6g","pricing_plan_id":"cebpf4jnsgd1na2vs0mg"},{"bike_id":"e1c3eaaa-295f-4f12-b394-48549dc1031a","system_id":"levelo_inurba_marseille","lat":43.31341,"lon":5.367098,"is_reserved":false,"is_disabled":false,"rental_uris":{"android":"levelo://app?vid=e1c3eaaa-295f-4f12-b394-48549dc1031a","ios":"levelo://app?vid=e1c3eaaa-295f-4f12-b394-48549dc1031a"},"vehicle_type_id":"4","last_reported":1718230099,"current_range_meters":8000,"station_id":"ce4bgr92rcd13ifvqc6g","pricing_plan_id":"cebpf4jnsgd1na2vs0mg"},{"bike_id":"4937e417-e34a-4f0f-b213-33d9c2d0b2f4","system_id":"levelo_inurba_marseille","lat":43.313545,"lon":5.367017,"is_reserved":false,"is_disabled":false,"rental_uris":{"android":"levelo://app?vid=4937e417-e34a-4f0f-b213-33d9c2d0b2f4","ios":"levelo://app?vid=4937e417-e34a-4f0f-b213-33d9c2d0b2f4"},"vehicle_type_id":"4","last_reported":1718230099,"current_range_meters":17200,"station_id":"","pricing_plan_id":"cebpf4jnsgd1na2vs0mg"},{"bike_id":"e76b4330-5299-4580-a87e-12841f9186ae","system_id":"levelo_inurba_marseille","lat":43.312239,"lon":5.368562,"is_reserved":false,"is_disabled":false,"rental_uris":{"android":"levelo://app?vid=e76b4330-5299-4580-a87e-12841f9186ae","ios":"levelo://app?vid=e76b4330-5299-4580-a87e-12841f9186ae"},"vehicle_type_id":"4","last_reported":1718230099,"current_range_meters":23600,"station_id":"ce4bgl92rcd13ifvqbq0","pricing_plan_id":"cebpf4jnsgd1na2vs0mg"},{"bike_id":"cf963e52-64d4-471b-a816-cce111390b8e","system_id":"levelo_inurba_marseille","lat":43.312239,"lon":5.368562,"is_reserved":false,"is_disabled":false,"rental_uris":{"android":"levelo://app?vid=cf963e52-64d4-471b-a816-cce111390b8e","ios":"levelo://app?vid=cf963e52-64d4-471b-a816-cce111390b8e"},"vehicle_type_id":"4","last_reported":1718230099,"current_range_meters":2400,"station_id":"ce4bgl92rcd13ifvqbq0","pricing_plan_id":"cebpf4jnsgd1na2vs0mg"},{"bike_id":"3186d6d4-98df-4951-a9cd-71ed8138e0cc","system_id":"levelo_inurba_marseille","lat":43.309076,"lon":5.368465,"is_reserved":false,"is_disabled":false,"rental_uris":{"android":"levelo://app?vid=3186d6d4-98df-4951-a9cd-71ed8138e0cc","ios":"levelo://app?vid=3186d6d4-98df-4951-a9cd-71ed8138e0cc"},"vehicle_type_id":"4","last_reported":1718230099,"current_range_meters":26400,"station_id":"ce4bgn92rcd13ifvqbvg","pricing_plan_id":"cebpf4jnsgd1na2vs0mg"},{"bike_id":"a6f24a86-6baa-4b68-8410-d69ef8b52941","system_id":"levelo_inurba_marseille","lat":43.309076,"lon":5.368465,"is_reserved":false,"is_disabled":false,"rental_uris":{"android":"levelo://app?vid=a6f24a86-6baa-4b68-8410-d69ef8b52941","ios":"levelo://app?vid=a6f24a86-6baa-4b68-8410-d69ef8b52941"},"vehicle_type_id":"4","last_reported":1718230099,"current_range_meters":28400,"station_id":"ce4bgn92rcd13ifvqbvg","pricing_plan_id":"cebpf4jnsgd1na2vs0mg"},{"bike_id":"1937acfd-48f9-4c56-9a2f-2f5d9ed485e1","system_id":"levelo_inurba_marseille","lat":43.309076,"lon":5.368465,"is_reserved":false,"is_disabled":false,"rental_uris":{"android":"levelo://app?vid=1937acfd-48f9-4c56-9a2f-2f5d9ed485e1","ios":"levelo://app?vid=1937acfd-48f9-4c56-9a2f-2f5d9ed485e1"},"vehicle_type_id":"4","last_reported":1718230099,"current_range_meters":26400,"station_id":"ce4bgn92rcd13ifvqbvg","pricing_plan_id":"cebpf4jnsgd1na2vs0mg"},{"bike_id":"00951305-50c4-4bc0-be62-5ca8f61db59e","system_id":"levelo_inurba_marseille","lat":43.309076,"lon":5.368465,"is_reserved":false,"is_disabled":false,"rental_uris":{"android":"levelo://app?vid=00951305-50c4-4bc0-be62-5ca8f61db59e","ios":"levelo://app?vid=00951305-50c4-4bc0-be62-5ca8f61db59e"},"vehicle_type_id":"4","last_reported":1718230099,"current_range_meters":22000,"station_id":"ce4bgn92rcd13ifvqbvg","pricing_plan_id":"cebpf4jnsgd1na2vs0mg"},{"bike_id":"de27f82e-81d6-42cc-9854-7ad08b628ee0","system_id":"levelo_inurba_marseille","lat":43.3151,"lon":5.37119,"is_reserved":false,"is_disabled":false,"rental_uris":{"android":"levelo://app?vid=de27f82e-81d6-42cc-9854-7ad08b628ee0","ios":"levelo://app?vid=de27f82e-81d6-42cc-9854-7ad08b628ee0"},"vehicle_type_id":"4","last_reported":1718230099,"current_range_meters":19200,"station_id":"","pricing_plan_id":"cebpf4jnsgd1na2vs0mg"},{"bike_id":"019f3658-ba91-434e-abfa-4088bddec24e","system_id":"levelo_inurba_marseille","lat":43.314811,"lon":5.373104,"is_reserved":false,"is_disabled":false,"rental_uris":{"android":"levelo://app?vid=019f3658-ba91-434e-abfa-4088bddec24e","ios":"levelo://app?vid=019f3658-ba91-434e-abfa-4088bddec24e"},"vehicle_type_id":"4","last_reported":1718230099,"current_range_meters":6400,"station_id":"ce4bgt12rcd13ifvqcd0","pricing_plan_id":"cebpf4jnsgd1na2vs0mg"},{"bike_id":"554767a1-961e-4337-8546-592cd82b3f15","system_id":"levelo_inurba_marseille","lat":43.314811,"lon":5.373104,"is_reserved":false,"is_disabled":false,"rental_uris":{"android":"levelo://app?vid=554767a1-961e-4337-8546-592cd82b3f15","ios":"levelo://app?vid=554767a1-961e-4337-8546-592cd82b3f15"},"vehicle_type_id":"4","last_reported":1718230099,"current_range_meters":10800,"station_id":"ce4bgt12rcd13ifvqcd0","pricing_plan_id":"cebpf4jnsgd1na2vs0mg"},{"bike_id":"2b1b5c2c-d81d-450b-a23f-e90083e078bc","system_id":"levelo_inurba_marseille","lat":43.30886,"lon":5.37203,"is_reserved":false,"is_disabled":false,"rental_uris":{"android":"levelo://app?vid=2b1b5c2c-d81d-450b-a23f-e90083e078bc","ios":"levelo://app?vid=2b1b5c2c-d81d-450b-a23f-e90083e078bc"},"vehicle_type_id":"4","last_reported":1718230099,"current_range_meters":21600,"station_id":"ce4bguh2rcd13ifvqckg","pricing_plan_id":"cebpf4jnsgd1na2vs0mg"},{"bike_id":"4de603ee-be95-42e3-ab6c-3cb09d7c5e47","system_id":"levelo_inurba_marseille","lat":43.305368,"lon":5.367343,"is_reserved":false,"is_disabled":false,"rental_uris":{"android":"levelo://app?vid=4de603ee-be95-42e3-ab6c-3cb09d7c5e47","ios":"levelo://app?vid=4de603ee-be95-42e3-ab6c-3cb09d7c5e47"},"vehicle_type_id":"4","last_reported":1718230099,"current_range_meters":18000,"station_id":"ce4bgrp2rcd13ifvqc9g","pricing_plan_id":"cebpf4jnsgd1na2vs0mg"},{"bike_id":"8d3dcb1d-b074-4ad3-aa77-1d111dc0adb1","system_id":"levelo_inurba_marseille","lat":43.305989,"lon":5.37225,"is_reserved":false,"is_disabled":false,"rental_uris":{"android":"levelo://app?vid=8d3dcb1d-b074-4ad3-aa77-1d111dc0adb1","ios":"levelo://app?vid=8d3dcb1d-b074-4ad3-aa77-1d111dc0adb1"},"vehicle_type_id":"4","last_reported":1718230099,"current_range_meters":6000,"station_id":"ce4bgqh2rcd13ifvqc4g","pricing_plan_id":"cebpf4jnsgd1na2vs0mg"},{"bike_id":"a43df324-04da-4771-8101-368510db4e61","system_id":"levelo_inurba_marseille","lat":43.305989,"lon":5.37225,"is_reserved":false,"is_disabled":false,"rental_uris":{"android":"levelo://app?vid=a43df324-04da-4771-8101-368510db4e61","ios":"levelo://app?vid=a43df324-04da-4771-8101-368510db4e61"},"vehicle_type_id":"4","last_reported":1718230099,"current_range_meters":17600,"station_id":"ce4bgqh2rcd13ifvqc4g","pricing_plan_id":"cebpf4jnsgd1na2vs0mg"},{"bike_id":"3a95ba2c-7eb9-4faa-bcad-9aba1c848fe7","system_id":"levelo_inurba_marseille","lat":43.31123,"lon":5.37754,"is_reserved":false,"is_disabled":false,"rental_uris":{"android":"levelo://app?vid=3a95ba2c-7eb9-4faa-bcad-9aba1c848fe7","ios":"levelo://app?vid=3a95ba2c-7eb9-4faa-bcad-9aba1c848fe7"},"vehicle_type_id":"4","last_reported":1718230099,"current_range_meters":19600,"station_id":"ce4bgt92rcd13ifvqcg0","pricing_plan_id":"cebpf4jnsgd1na2vs0mg"},{"bike_id":"7306bf08-3432-4489-92a5-6d447d70cc8e","system_id":"levelo_inurba_marseille","lat":43.311125,"lon":5.377624,"is_reserved":false,"is_disabled":false,"rental_uris":{"android":"levelo://app?vid=7306bf08-3432-4489-92a5-6d447d70cc8e","ios":"levelo://app?vid=7306bf08-3432-4489-92a5-6d447d70cc8e"},"vehicle_type_id":"4","last_reported":1718230099,"current_range_meters":22400,"station_id":"ce4bgt92rcd13ifvqcg0","pricing_plan_id":"cebpf4jnsgd1na2vs0mg"},{"bike_id":"8ccb5a13-82a1-423d-8fc0-ccc4270626b7","system_id":"levelo_inurba_marseille","lat":43.311125,"lon":5.377624,"is_reserved":false,"is_disabled":false,"rental_uris":{"android":"levelo://app?vid=8ccb5a13-82a1-423d-8fc0-ccc4270626b7","ios":"levelo://app?vid=8ccb5a13-82a1-423d-8fc0-ccc4270626b7"},"vehicle_type_id":"4","last_reported":1718230099,"current_range_meters":6400,"station_id":"ce4bgt92rcd13ifvqcg0","pricing_plan_id":"cebpf4jnsgd1na2vs0mg"},{"bike_id":"d1a84b74-397c-462b-9c36-a60eb184e244","system_id":"levelo_inurba_marseille","lat":43.3112,"lon":5.37763,"is_reserved":false,"is_disabled":false,"rental_uris":{"android":"levelo://app?vid=d1a84b74-397c-462b-9c36-a60eb184e244","ios":"levelo://app?vid=d1a84b74-397c-462b-9c36-a60eb184e244"},"vehicle_type_id":"4","last_reported":1718230099,"current_range_meters":1600,"station_id":"ce4bgt92rcd13ifvqcg0","pricing_plan_id":"cebpf4jnsgd1na2vs0mg"},{"bike_id":"8af9978d-c286-4ffa-8992-34093fde2aaf","system_id":"levelo_inurba_marseille","lat":43.311125,"lon":5.377624,"is_reserved":false,"is_disabled":false,"rental_uris":{"android":"levelo://app?vid=8af9978d-c286-4ffa-8992-34093fde2aaf","ios":"levelo://app?vid=8af9978d-c286-4ffa-8992-34093fde2aaf"},"vehicle_type_id":"4","last_reported":1718230099,"current_range_meters":3600,"station_id":"ce4bgt92rcd13ifvqcg0","pricing_plan_id":"cebpf4jnsgd1na2vs0mg"},{"bike_id":"2828d5c9-6f93-4563-9b81-4650d3831d65","system_id":"levelo_inurba_marseille","lat":43.31115,"lon":5.37767,"is_reserved":false,"is_disabled":false,"rental_uris":{"android":"levelo://app?vid=2828d5c9-6f93-4563-9b81-4650d3831d65","ios":"levelo://app?vid=2828d5c9-6f93-4563-9b81-4650d3831d65"},"vehicle_type_id":"4","last_reported":1718230099,"current_range_meters":10000,"station_id":"ce4bgt92rcd13ifvqcg0","pricing_plan_id":"cebpf4jnsgd1na2vs0mg"},{"bike_id":"4d59f3aa-694e-41ed-bd8e-d762e9550d2f","system_id":"levelo_inurba_marseille","lat":43.31117,"lon":5.37768,"is_reserved":false,"is_disabled":false,"rental_uris":{"android":"levelo://app?vid=4d59f3aa-694e-41ed-bd8e-d762e9550d2f","ios":"levelo://app?vid=4d59f3aa-694e-41ed-bd8e-d762e9550d2f"},"vehicle_type_id":"4","last_reported":1718230099,"current_range_meters":9600,"station_id":"ce4bgt92rcd13ifvqcg0","pricing_plan_id":"cebpf4jnsgd1na2vs0mg"},{"bike_id":"40781843-2b41-44b7-87f3-8b498a17859d","system_id":"levelo_inurba_marseille","lat":43.31112,"lon":5.3777,"is_reserved":false,"is_disabled":false,"rental_uris":{"android":"levelo://app?vid=40781843-2b41-44b7-87f3-8b498a17859d","ios":"levelo://app?vid=40781843-2b41-44b7-87f3-8b498a17859d"},"vehicle_type_id":"4","last_reported":1718230099,"current_range_meters":11200,"station_id":"ce4bgt92rcd13ifvqcg0","pricing_plan_id":"cebpf4jnsgd1na2vs0mg"},{"bike_id":"8de686bc-4872-4b7e-b407-e27259e619ea","system_id":"levelo_inurba_marseille","lat":43.311125,"lon":5.377624,"is_reserved":false,"is_disabled":false,"rental_uris":{"android":"levelo://app?vid=8de686bc-4872-4b7e-b407-e27259e619ea","ios":"levelo://app?vid=8de686bc-4872-4b7e-b407-e27259e619ea"},"vehicle_type_id":"4","last_reported":1718230099,"current_range_meters":17600,"station_id":"ce4bgt92rcd13ifvqcg0","pricing_plan_id":"cebpf4jnsgd1na2vs0mg"},{"bike_id":"7647cd4f-f7fd-443a-b7d1-28ea6fd04084","system_id":"levelo_inurba_marseille","lat":43.307945,"lon":5.376487,"is_reserved":false,"is_disabled":false,"rental_uris":{"android":"levelo://app?vid=7647cd4f-f7fd-443a-b7d1-28ea6fd04084","ios":"levelo://app?vid=7647cd4f-f7fd-443a-b7d1-28ea6fd04084"},"vehicle_type_id":"4","last_reported":1718230099,"current_range_meters":23600,"station_id":"ce4bgv92rcd13ifvqcq0","pricing_plan_id":"cebpf4jnsgd1na2vs0mg"},{"bike_id":"49827a69-3e56-4f5f-a7d0-baf533abc61d","system_id":"levelo_inurba_marseille","lat":43.307945,"lon":5.376487,"is_reserved":false,"is_disabled":false,"rental_uris":{"android":"levelo://app?vid=49827a69-3e56-4f5f-a7d0-baf533abc61d","ios":"levelo://app?vid=49827a69-3e56-4f5f-a7d0-baf533abc61d"},"vehicle_type_id":"4","last_reported":1718230099,"current_range_meters":17200,"station_id":"ce4bgv92rcd13ifvqcq0","pricing_plan_id":"cebpf4jnsgd1na2vs0mg"},{"bike_id":"41d8ac08-bfe5-4cc4-858c-8b49fb282e64","system_id":"levelo_inurba_marseille","lat":43.307945,"lon":5.376487,"is_reserved":false,"is_disabled":false,"rental_uris":{"android":"levelo://app?vid=41d8ac08-bfe5-4cc4-858c-8b49fb282e64","ios":"levelo://app?vid=41d8ac08-bfe5-4cc4-858c-8b49fb282e64"},"vehicle_type_id":"4","last_reported":1718230099,"current_range_meters":24800,"station_id":"ce4bgv92rcd13ifvqcq0","pricing_plan_id":"cebpf4jnsgd1na2vs0mg"},{"bike_id":"bfb352c8-3aa8-45ca-9a0b-e1c5d96c5b80","system_id":"levelo_inurba_marseille","lat":43.307945,"lon":5.376487,"is_reserved":false,"is_disabled":false,"rental_uris":{"android":"levelo://app?vid=bfb352c8-3aa8-45ca-9a0b-e1c5d96c5b80","ios":"levelo://app?vid=bfb352c8-3aa8-45ca-9a0b-e1c5d96c5b80"},"vehicle_type_id":"4","last_reported":1718230099,"current_range_meters":2000,"station_id":"ce4bgv92rcd13ifvqcq0","pricing_plan_id":"cebpf4jnsgd1na2vs0mg"},{"bike_id":"c1da5626-d0d0-499d-a1e8-28b5f98bb0e6","system_id":"levelo_inurba_marseille","lat":43.307945,"lon":5.376487,"is_reserved":false,"is_disabled":false,"rental_uris":{"android":"levelo://app?vid=c1da5626-d0d0-499d-a1e8-28b5f98bb0e6","ios":"levelo://app?vid=c1da5626-d0d0-499d-a1e8-28b5f98bb0e6"},"vehicle_type_id":"4","last_reported":1718230099,"current_range_meters":13600,"station_id":"ce4bgv92rcd13ifvqcq0","pricing_plan_id":"cebpf4jnsgd1na2vs0mg"},{"bike_id":"cbe4226c-8520-468a-91f1-072bcbe32553","system_id":"levelo_inurba_marseille","lat":43.31863,"lon":5.37535,"is_reserved":false,"is_disabled":false,"rental_uris":{"android":"levelo://app?vid=cbe4226c-8520-468a-91f1-072bcbe32553","ios":"levelo://app?vid=cbe4226c-8520-468a-91f1-072bcbe32553"},"vehicle_type_id":"4","last_reported":1718230099,"current_range_meters":3200,"station_id":"","pricing_plan_id":"cebpf4jnsgd1na2vs0mg"},{"bike_id":"46bc9aba-151c-4e97-8674-32afe202af45","system_id":"levelo_inurba_marseille","lat":43.307945,"lon":5.376487,"is_reserved":false,"is_disabled":false,"rental_uris":{"android":"levelo://app?vid=46bc9aba-151c-4e97-8674-32afe202af45","ios":"levelo://app?vid=46bc9aba-151c-4e97-8674-32afe202af45"},"vehicle_type_id":"4","last_reported":1718230099,"current_range_meters":8400,"station_id":"ce4bgv92rcd13ifvqcq0","pricing_plan_id":"cebpf4jnsgd1na2vs0mg"},{"bike_id":"2038536e-f1b5-4384-98b4-9e453cba8236","system_id":"levelo_inurba_marseille","lat":43.307945,"lon":5.376487,"is_reserved":false,"is_disabled":false,"rental_uris":{"android":"levelo://app?vid=2038536e-f1b5-4384-98b4-9e453cba8236","ios":"levelo://app?vid=2038536e-f1b5-4384-98b4-9e453cba8236"},"vehicle_type_id":"4","last_reported":1718230099,"current_range_meters":6800,"station_id":"ce4bgv92rcd13ifvqcq0","pricing_plan_id":"cebpf4jnsgd1na2vs0mg"},{"bike_id":"52600a79-b477-4e6e-b106-66d4e198f699","system_id":"levelo_inurba_marseille","lat":43.307945,"lon":5.376487,"is_reserved":false,"is_disabled":false,"rental_uris":{"android":"levelo://app?vid=52600a79-b477-4e6e-b106-66d4e198f699","ios":"levelo://app?vid=52600a79-b477-4e6e-b106-66d4e198f699"},"vehicle_type_id":"4","last_reported":1718230099,"current_range_meters":10400,"station_id":"ce4bgv92rcd13ifvqcq0","pricing_plan_id":"cebpf4jnsgd1na2vs0mg"},{"bike_id":"5253b248-853d-45fa-99db-04863562e7db","system_id":"levelo_inurba_marseille","lat":43.307945,"lon":5.376487,"is_reserved":false,"is_disabled":false,"rental_uris":{"android":"levelo://app?vid=5253b248-853d-45fa-99db-04863562e7db","ios":"levelo://app?vid=5253b248-853d-45fa-99db-04863562e7db"},"vehicle_type_id":"4","last_reported":1718230099,"current_range_meters":4800,"station_id":"ce4bgv92rcd13ifvqcq0","pricing_plan_id":"cebpf4jnsgd1na2vs0mg"},{"bike_id":"a0c95956-3767-48ce-a33b-a7d817d7589d","system_id":"levelo_inurba_marseille","lat":43.307945,"lon":5.376487,"is_reserved":false,"is_disabled":false,"rental_uris":{"android":"levelo://app?vid=a0c95956-3767-48ce-a33b-a7d817d7589d","ios":"levelo://app?vid=a0c95956-3767-48ce-a33b-a7d817d7589d"},"vehicle_type_id":"4","last_reported":1718230099,"current_range_meters":9200,"station_id":"ce4bgv92rcd13ifvqcq0","pricing_plan_id":"cebpf4jnsgd1na2vs0mg"},{"bike_id":"eca8da1c-57c2-42b1-99e9-2a602cd04909","system_id":"levelo_inurba_marseille","lat":43.307945,"lon":5.376487,"is_reserved":false,"is_disabled":false,"rental_uris":{"android":"levelo://app?vid=eca8da1c-57c2-42b1-99e9-2a602cd04909","ios":"levelo://app?vid=eca8da1c-57c2-42b1-99e9-2a602cd04909"},"vehicle_type_id":"4","last_reported":1718230099,"current_range_meters":26000,"station_id":"ce4bgv92rcd13ifvqcq0","pricing_plan_id":"cebpf4jnsgd1na2vs0mg"},{"bike_id":"781c4e0d-4ab6-442e-b572-726176da832b","system_id":"levelo_inurba_marseille","lat":43.307945,"lon":5.376487,"is_reserved":false,"is_disabled":false,"rental_uris":{"android":"levelo://app?vid=781c4e0d-4ab6-442e-b572-726176da832b","ios":"levelo://app?vid=781c4e0d-4ab6-442e-b572-726176da832b"},"vehicle_type_id":"4","last_reported":1718230099,"current_range_meters":20000,"station_id":"ce4bgv92rcd13ifvqcq0","pricing_plan_id":"cebpf4jnsgd1na2vs0mg"},{"bike_id":"bb622baf-8b8f-44c1-8412-bf1b651781b8","system_id":"levelo_inurba_marseille","lat":43.307945,"lon":5.376487,"is_reserved":false,"is_disabled":false,"rental_uris":{"android":"levelo://app?vid=bb622baf-8b8f-44c1-8412-bf1b651781b8","ios":"levelo://app?vid=bb622baf-8b8f-44c1-8412-bf1b651781b8"},"vehicle_type_id":"4","last_reported":1718230099,"current_range_meters":25200,"station_id":"ce4bgv92rcd13ifvqcq0","pricing_plan_id":"cebpf4jnsgd1na2vs0mg"},{"bike_id":"32f10e1a-7169-49d0-81b7-074b66c4bfe6","system_id":"levelo_inurba_marseille","lat":43.307945,"lon":5.376487,"is_reserved":false,"is_disabled":false,"rental_uris":{"android":"levelo://app?vid=32f10e1a-7169-49d0-81b7-074b66c4bfe6","ios":"levelo://app?vid=32f10e1a-7169-49d0-81b7-074b66c4bfe6"},"vehicle_type_id":"4","last_reported":1718230099,"current_range_meters":20800,"station_id":"ce4bgv92rcd13ifvqcq0","pricing_plan_id":"cebpf4jnsgd1na2vs0mg"},{"bike_id":"eece1f80-1710-40d0-b039-a181a70ff36d","system_id":"levelo_inurba_marseille","lat":43.303046,"lon":5.368981,"is_reserved":false,"is_disabled":false,"rental_uris":{"android":"levelo://app?vid=eece1f80-1710-40d0-b039-a181a70ff36d","ios":"levelo://app?vid=eece1f80-1710-40d0-b039-a181a70ff36d"},"vehicle_type_id":"4","last_reported":1718230099,"current_range_meters":4400,"station_id":"ce4bgqh2rcd13ifvqc5g","pricing_plan_id":"cebpf4jnsgd1na2vs0mg"},{"bike_id":"11be6e87-174a-4b2f-a561-cf0bb7d88c55","system_id":"levelo_inurba_marseille","lat":43.303046,"lon":5.368981,"is_reserved":false,"is_disabled":false,"rental_uris":{"android":"levelo://app?vid=11be6e87-174a-4b2f-a561-cf0bb7d88c55","ios":"levelo://app?vid=11be6e87-174a-4b2f-a561-cf0bb7d88c55"},"vehicle_type_id":"4","last_reported":1718230099,"current_range_meters":24000,"station_id":"ce4bgqh2rcd13ifvqc5g","pricing_plan_id":"cebpf4jnsgd1na2vs0mg"},{"bike_id":"799070db-9f6d-4c8c-a7f5-34255457aeda","system_id":"levelo_inurba_marseille","lat":43.30304,"lon":5.368987,"is_reserved":false,"is_disabled":false,"rental_uris":{"android":"levelo://app?vid=799070db-9f6d-4c8c-a7f5-34255457aeda","ios":"levelo://app?vid=799070db-9f6d-4c8c-a7f5-34255457aeda"},"vehicle_type_id":"4","last_reported":1718230099,"current_range_meters":30800,"station_id":"ce4bgqh2rcd13ifvqc5g","pricing_plan_id":"cebpf4jnsgd1na2vs0mg"},{"bike_id":"e82c4d3c-899a-47eb-9647-feb1ca0b88c6","system_id":"levelo_inurba_marseille","lat":43.30304,"lon":5.368987,"is_reserved":false,"is_disabled":false,"rental_uris":{"android":"levelo://app?vid=e82c4d3c-899a-47eb-9647-feb1ca0b88c6","ios":"levelo://app?vid=e82c4d3c-899a-47eb-9647-feb1ca0b88c6"},"vehicle_type_id":"4","last_reported":1718230099,"current_range_meters":14000,"station_id":"ce4bgqh2rcd13ifvqc5g","pricing_plan_id":"cebpf4jnsgd1na2vs0mg"},{"bike_id":"48a747df-f9a4-4c4f-ace4-eeceeac9ec69","system_id":"levelo_inurba_marseille","lat":43.315289,"lon":5.380349,"is_reserved":false,"is_disabled":false,"rental_uris":{"android":"levelo://app?vid=48a747df-f9a4-4c4f-ace4-eeceeac9ec69","ios":"levelo://app?vid=48a747df-f9a4-4c4f-ace4-eeceeac9ec69"},"vehicle_type_id":"4","last_reported":1718230099,"current_range_meters":25600,"station_id":"ce4bhsp2rcd13ifvqi50","pricing_plan_id":"cebpf4jnsgd1na2vs0mg"},{"bike_id":"67211061-2036-4f8b-a763-963b7c5e72f7","system_id":"levelo_inurba_marseille","lat":43.315289,"lon":5.380349,"is_reserved":false,"is_disabled":false,"rental_uris":{"android":"levelo://app?vid=67211061-2036-4f8b-a763-963b7c5e72f7","ios":"levelo://app?vid=67211061-2036-4f8b-a763-963b7c5e72f7"},"vehicle_type_id":"4","last_reported":1718230099,"current_range_meters":20000,"station_id":"ce4bhsp2rcd13ifvqi50","pricing_plan_id":"cebpf4jnsgd1na2vs0mg"},{"bike_id":"e0534e14-e635-466e-a3fb-d3c0946cbb42","system_id":"levelo_inurba_marseille","lat":43.301939,"lon":5.366286,"is_reserved":false,"is_disabled":false,"rental_uris":{"android":"levelo://app?vid=e0534e14-e635-466e-a3fb-d3c0946cbb42","ios":"levelo://app?vid=e0534e14-e635-466e-a3fb-d3c0946cbb42"},"vehicle_type_id":"4","last_reported":1718230099,"current_range_meters":29600,"station_id":"ce4bgrh2rcd13ifvqc8g","pricing_plan_id":"cebpf4jnsgd1na2vs0mg"},{"bike_id":"bacb81ed-d577-41d8-be08-a7fe0f2a01ae","system_id":"levelo_inurba_marseille","lat":43.308012,"lon":5.381511,"is_reserved":false,"is_disabled":false,"rental_uris":{"android":"levelo://app?vid=bacb81ed-d577-41d8-be08-a7fe0f2a01ae","ios":"levelo://app?vid=bacb81ed-d577-41d8-be08-a7fe0f2a01ae"},"vehicle_type_id":"4","last_reported":1718230099,"current_range_meters":31600,"station_id":"ce4bgt12rcd13ifvqce0","pricing_plan_id":"cebpf4jnsgd1na2vs0mg"},{"bike_id":"58b50ade-2ab8-4dc1-bfee-626cce0f80aa","system_id":"levelo_inurba_marseille","lat":43.308012,"lon":5.381511,"is_reserved":false,"is_disabled":false,"rental_uris":{"android":"levelo://app?vid=58b50ade-2ab8-4dc1-bfee-626cce0f80aa","ios":"levelo://app?vid=58b50ade-2ab8-4dc1-bfee-626cce0f80aa"},"vehicle_type_id":"4","last_reported":1718230099,"current_range_meters":15600,"station_id":"ce4bgt12rcd13ifvqce0","pricing_plan_id":"cebpf4jnsgd1na2vs0mg"},{"bike_id":"de75e8d9-d421-45ac-a5ae-e9c5ec233211","system_id":"levelo_inurba_marseille","lat":43.308012,"lon":5.381511,"is_reserved":false,"is_disabled":false,"rental_uris":{"android":"levelo://app?vid=de75e8d9-d421-45ac-a5ae-e9c5ec233211","ios":"levelo://app?vid=de75e8d9-d421-45ac-a5ae-e9c5ec233211"},"vehicle_type_id":"4","last_reported":1718230099,"current_range_meters":12800,"station_id":"ce4bgt12rcd13ifvqce0","pricing_plan_id":"cebpf4jnsgd1na2vs0mg"},{"bike_id":"78ee317f-b291-42c7-8da3-e4a9d0c952b0","system_id":"levelo_inurba_marseille","lat":43.308012,"lon":5.381511,"is_reserved":false,"is_disabled":false,"rental_uris":{"android":"levelo://app?vid=78ee317f-b291-42c7-8da3-e4a9d0c952b0","ios":"levelo://app?vid=78ee317f-b291-42c7-8da3-e4a9d0c952b0"},"vehicle_type_id":"4","last_reported":1718230099,"current_range_meters":23600,"station_id":"ce4bgt12rcd13ifvqce0","pricing_plan_id":"cebpf4jnsgd1na2vs0mg"},{"bike_id":"a946d423-4bc7-4b3c-8f22-d565a3ced087","system_id":"levelo_inurba_marseille","lat":43.308012,"lon":5.381511,"is_reserved":false,"is_disabled":false,"rental_uris":{"android":"levelo://app?vid=a946d423-4bc7-4b3c-8f22-d565a3ced087","ios":"levelo://app?vid=a946d423-4bc7-4b3c-8f22-d565a3ced087"},"vehicle_type_id":"4","last_reported":1718230099,"current_range_meters":18000,"station_id":"ce4bgt12rcd13ifvqce0","pricing_plan_id":"cebpf4jnsgd1na2vs0mg"},{"bike_id":"181ce59b-5b2e-41dc-99b8-b4e3b2565e00","system_id":"levelo_inurba_marseille","lat":43.308012,"lon":5.381511,"is_reserved":false,"is_disabled":false,"rental_uris":{"android":"levelo://app?vid=181ce59b-5b2e-41dc-99b8-b4e3b2565e00","ios":"levelo://app?vid=181ce59b-5b2e-41dc-99b8-b4e3b2565e00"},"vehicle_type_id":"4","last_reported":1718230099,"current_range_meters":23600,"station_id":"ce4bgt12rcd13ifvqce0","pricing_plan_id":"cebpf4jnsgd1na2vs0mg"},{"bike_id":"5fe60115-a7cd-432a-9b7c-33432e115e5d","system_id":"levelo_inurba_marseille","lat":43.308012,"lon":5.381511,"is_reserved":false,"is_disabled":false,"rental_uris":{"android":"levelo://app?vid=5fe60115-a7cd-432a-9b7c-33432e115e5d","ios":"levelo://app?vid=5fe60115-a7cd-432a-9b7c-33432e115e5d"},"vehicle_type_id":"4","last_reported":1718230099,"current_range_meters":20400,"station_id":"ce4bgt12rcd13ifvqce0","pricing_plan_id":"cebpf4jnsgd1na2vs0mg"},{"bike_id":"e999de4f-5b9e-4f98-9066-bcd422d1b91c","system_id":"levelo_inurba_marseille","lat":43.308012,"lon":5.381511,"is_reserved":false,"is_disabled":false,"rental_uris":{"android":"levelo://app?vid=e999de4f-5b9e-4f98-9066-bcd422d1b91c","ios":"levelo://app?vid=e999de4f-5b9e-4f98-9066-bcd422d1b91c"},"vehicle_type_id":"4","last_reported":1718230099,"current_range_meters":27200,"station_id":"ce4bgt12rcd13ifvqce0","pricing_plan_id":"cebpf4jnsgd1na2vs0mg"},{"bike_id":"893ebe95-9973-428b-8162-c3ee3a967122","system_id":"levelo_inurba_marseille","lat":43.308012,"lon":5.381511,"is_reserved":false,"is_disabled":false,"rental_uris":{"android":"levelo://app?vid=893ebe95-9973-428b-8162-c3ee3a967122","ios":"levelo://app?vid=893ebe95-9973-428b-8162-c3ee3a967122"},"vehicle_type_id":"4","last_reported":1718230099,"current_range_meters":20400,"station_id":"ce4bgt12rcd13ifvqce0","pricing_plan_id":"cebpf4jnsgd1na2vs0mg"},{"bike_id":"e3ee38f1-9e85-477a-8bc7-4c3ebc8869d3","system_id":"levelo_inurba_marseille","lat":43.308012,"lon":5.381511,"is_reserved":false,"is_disabled":false,"rental_uris":{"android":"levelo://app?vid=e3ee38f1-9e85-477a-8bc7-4c3ebc8869d3","ios":"levelo://app?vid=e3ee38f1-9e85-477a-8bc7-4c3ebc8869d3"},"vehicle_type_id":"4","last_reported":1718230099,"current_range_meters":22800,"station_id":"ce4bgt12rcd13ifvqce0","pricing_plan_id":"cebpf4jnsgd1na2vs0mg"},{"bike_id":"7b8b6397-2e3e-4d95-90d0-f3edc0359cc9","system_id":"levelo_inurba_marseille","lat":43.308012,"lon":5.381511,"is_reserved":false,"is_disabled":false,"rental_uris":{"android":"levelo://app?vid=7b8b6397-2e3e-4d95-90d0-f3edc0359cc9","ios":"levelo://app?vid=7b8b6397-2e3e-4d95-90d0-f3edc0359cc9"},"vehicle_type_id":"4","last_reported":1718230099,"current_range_meters":7600,"station_id":"ce4bgt12rcd13ifvqce0","pricing_plan_id":"cebpf4jnsgd1na2vs0mg"},{"bike_id":"53e6e246-e209-4288-8a98-7d37475b9b8a","system_id":"levelo_inurba_marseille","lat":43.308012,"lon":5.381511,"is_reserved":false,"is_disabled":false,"rental_uris":{"android":"levelo://app?vid=53e6e246-e209-4288-8a98-7d37475b9b8a","ios":"levelo://app?vid=53e6e246-e209-4288-8a98-7d37475b9b8a"},"vehicle_type_id":"4","last_reported":1718230099,"current_range_meters":7200,"station_id":"ce4bgt12rcd13ifvqce0","pricing_plan_id":"cebpf4jnsgd1na2vs0mg"},{"bike_id":"bdd2f36d-c69e-46a8-8512-52273e43d4db","system_id":"levelo_inurba_marseille","lat":43.308012,"lon":5.381511,"is_reserved":false,"is_disabled":false,"rental_uris":{"android":"levelo://app?vid=bdd2f36d-c69e-46a8-8512-52273e43d4db","ios":"levelo://app?vid=bdd2f36d-c69e-46a8-8512-52273e43d4db"},"vehicle_type_id":"4","last_reported":1718230099,"current_range_meters":17600,"station_id":"ce4bgt12rcd13ifvqce0","pricing_plan_id":"cebpf4jnsgd1na2vs0mg"},{"bike_id":"da6f72e2-0dc3-4c9a-a122-bd3e88959ce4","system_id":"levelo_inurba_marseille","lat":43.308012,"lon":5.381511,"is_reserved":false,"is_disabled":false,"rental_uris":{"android":"levelo://app?vid=da6f72e2-0dc3-4c9a-a122-bd3e88959ce4","ios":"levelo://app?vid=da6f72e2-0dc3-4c9a-a122-bd3e88959ce4"},"vehicle_type_id":"4","last_reported":1718230099,"current_range_meters":10000,"station_id":"ce4bgt12rcd13ifvqce0","pricing_plan_id":"cebpf4jnsgd1na2vs0mg"},{"bike_id":"6abf7cc4-8205-48b6-b625-9cee5cf20640","system_id":"levelo_inurba_marseille","lat":43.308012,"lon":5.381511,"is_reserved":false,"is_disabled":false,"rental_uris":{"android":"levelo://app?vid=6abf7cc4-8205-48b6-b625-9cee5cf20640","ios":"levelo://app?vid=6abf7cc4-8205-48b6-b625-9cee5cf20640"},"vehicle_type_id":"4","last_reported":1718230099,"current_range_meters":21200,"station_id":"ce4bgt12rcd13ifvqce0","pricing_plan_id":"cebpf4jnsgd1na2vs0mg"},{"bike_id":"0b10ed5c-b5c4-4cac-9db6-f0c709beb0e6","system_id":"levelo_inurba_marseille","lat":43.324771,"lon":5.36557,"is_reserved":false,"is_disabled":false,"rental_uris":{"android":"levelo://app?vid=0b10ed5c-b5c4-4cac-9db6-f0c709beb0e6","ios":"levelo://app?vid=0b10ed5c-b5c4-4cac-9db6-f0c709beb0e6"},"vehicle_type_id":"4","last_reported":1718230099,"current_range_meters":2000,"station_id":"ce4bhs12rcd13ifvqhvg","pricing_plan_id":"cebpf4jnsgd1na2vs0mg"},{"bike_id":"0c069bd8-68c5-45d8-9805-43bcad7ac4d4","system_id":"levelo_inurba_marseille","lat":43.324771,"lon":5.36557,"is_reserved":false,"is_disabled":false,"rental_uris":{"android":"levelo://app?vid=0c069bd8-68c5-45d8-9805-43bcad7ac4d4","ios":"levelo://app?vid=0c069bd8-68c5-45d8-9805-43bcad7ac4d4"},"vehicle_type_id":"4","last_reported":1718230099,"current_range_meters":10400,"station_id":"ce4bhs12rcd13ifvqhvg","pricing_plan_id":"cebpf4jnsgd1na2vs0mg"},{"bike_id":"0270aab2-49de-4394-bed5-70d2997b3f7e","system_id":"levelo_inurba_marseille","lat":43.32478,"lon":5.36559,"is_reserved":false,"is_disabled":false,"rental_uris":{"android":"levelo://app?vid=0270aab2-49de-4394-bed5-70d2997b3f7e","ios":"levelo://app?vid=0270aab2-49de-4394-bed5-70d2997b3f7e"},"vehicle_type_id":"4","last_reported":1718230099,"current_range_meters":3200,"station_id":"ce4bhs12rcd13ifvqhvg","pricing_plan_id":"cebpf4jnsgd1na2vs0mg"},{"bike_id":"df4790ac-6bb7-435d-ac4c-fb9801450066","system_id":"levelo_inurba_marseille","lat":43.324771,"lon":5.36557,"is_reserved":false,"is_disabled":false,"rental_uris":{"android":"levelo://app?vid=df4790ac-6bb7-435d-ac4c-fb9801450066","ios":"levelo://app?vid=df4790ac-6bb7-435d-ac4c-fb9801450066"},"vehicle_type_id":"4","last_reported":1718230099,"current_range_meters":1200,"station_id":"ce4bhs12rcd13ifvqhvg","pricing_plan_id":"cebpf4jnsgd1na2vs0mg"},{"bike_id":"9d708d7c-b7c6-4bfc-a304-093fb44408dd","system_id":"levelo_inurba_marseille","lat":43.316243,"lon":5.382987,"is_reserved":false,"is_disabled":false,"rental_uris":{"android":"levelo://app?vid=9d708d7c-b7c6-4bfc-a304-093fb44408dd","ios":"levelo://app?vid=9d708d7c-b7c6-4bfc-a304-093fb44408dd"},"vehicle_type_id":"4","last_reported":1718230099,"current_range_meters":10000,"station_id":"","pricing_plan_id":"cebpf4jnsgd1na2vs0mg"},{"bike_id":"10528ba9-1863-4898-8c40-6c4a29873f3f","system_id":"levelo_inurba_marseille","lat":43.310804,"lon":5.38359,"is_reserved":false,"is_disabled":false,"rental_uris":{"android":"levelo://app?vid=10528ba9-1863-4898-8c40-6c4a29873f3f","ios":"levelo://app?vid=10528ba9-1863-4898-8c40-6c4a29873f3f"},"vehicle_type_id":"4","last_reported":1718230099,"current_range_meters":1600,"station_id":"ce4bgv92rcd13ifvqcr0","pricing_plan_id":"cebpf4jnsgd1na2vs0mg"},{"bike_id":"76eb573c-651d-47e1-8824-b45f45dfde79","system_id":"levelo_inurba_marseille","lat":43.310804,"lon":5.38359,"is_reserved":false,"is_disabled":false,"rental_uris":{"android":"levelo://app?vid=76eb573c-651d-47e1-8824-b45f45dfde79","ios":"levelo://app?vid=76eb573c-651d-47e1-8824-b45f45dfde79"},"vehicle_type_id":"4","last_reported":1718230099,"current_range_meters":2800,"station_id":"ce4bgv92rcd13ifvqcr0","pricing_plan_id":"cebpf4jnsgd1na2vs0mg"},{"bike_id":"7f314ece-12ff-4320-9a37-315e81d1ac4c","system_id":"levelo_inurba_marseille","lat":43.310804,"lon":5.38359,"is_reserved":false,"is_disabled":false,"rental_uris":{"android":"levelo://app?vid=7f314ece-12ff-4320-9a37-315e81d1ac4c","ios":"levelo://app?vid=7f314ece-12ff-4320-9a37-315e81d1ac4c"},"vehicle_type_id":"4","last_reported":1718230099,"current_range_meters":0,"station_id":"ce4bgv92rcd13ifvqcr0","pricing_plan_id":"cebpf4jnsgd1na2vs0mg"},{"bike_id":"6579dd63-7c14-483d-8c08-8dc4868b151e","system_id":"levelo_inurba_marseille","lat":43.310804,"lon":5.38359,"is_reserved":false,"is_disabled":false,"rental_uris":{"android":"levelo://app?vid=6579dd63-7c14-483d-8c08-8dc4868b151e","ios":"levelo://app?vid=6579dd63-7c14-483d-8c08-8dc4868b151e"},"vehicle_type_id":"4","last_reported":1718230099,"current_range_meters":800,"station_id":"ce4bgv92rcd13ifvqcr0","pricing_plan_id":"cebpf4jnsgd1na2vs0mg"},{"bike_id":"32137fd2-511d-44ad-b329-5a2a802ed770","system_id":"levelo_inurba_marseille","lat":43.310804,"lon":5.38359,"is_reserved":false,"is_disabled":false,"rental_uris":{"android":"levelo://app?vid=32137fd2-511d-44ad-b329-5a2a802ed770","ios":"levelo://app?vid=32137fd2-511d-44ad-b329-5a2a802ed770"},"vehicle_type_id":"4","last_reported":1718230099,"current_range_meters":12000,"station_id":"ce4bgv92rcd13ifvqcr0","pricing_plan_id":"cebpf4jnsgd1na2vs0mg"},{"bike_id":"e4d4b9a4-17d0-489e-be01-3172bc75c04c","system_id":"levelo_inurba_marseille","lat":43.302784,"lon":5.377158,"is_reserved":false,"is_disabled":false,"rental_uris":{"android":"levelo://app?vid=e4d4b9a4-17d0-489e-be01-3172bc75c04c","ios":"levelo://app?vid=e4d4b9a4-17d0-489e-be01-3172bc75c04c"},"vehicle_type_id":"4","last_reported":1718230099,"current_range_meters":23600,"station_id":"ce4bguh2rcd13ifvqcj0","pricing_plan_id":"cebpf4jnsgd1na2vs0mg"},{"bike_id":"a3c82646-9e76-4ede-b4b4-a916160bc259","system_id":"levelo_inurba_marseille","lat":43.30143,"lon":5.37413,"is_reserved":false,"is_disabled":false,"rental_uris":{"android":"levelo://app?vid=a3c82646-9e76-4ede-b4b4-a916160bc259","ios":"levelo://app?vid=a3c82646-9e76-4ede-b4b4-a916160bc259"},"vehicle_type_id":"4","last_reported":1718230099,"current_range_meters":5200,"station_id":"ce4bgs92rcd13ifvqcc0","pricing_plan_id":"cebpf4jnsgd1na2vs0mg"},{"bike_id":"00b50843-4a7f-4213-b491-02fc5b3f6d78","system_id":"levelo_inurba_marseille","lat":43.302784,"lon":5.377158,"is_reserved":false,"is_disabled":false,"rental_uris":{"android":"levelo://app?vid=00b50843-4a7f-4213-b491-02fc5b3f6d78","ios":"levelo://app?vid=00b50843-4a7f-4213-b491-02fc5b3f6d78"},"vehicle_type_id":"4","last_reported":1718230099,"current_range_meters":18400,"station_id":"ce4bguh2rcd13ifvqcj0","pricing_plan_id":"cebpf4jnsgd1na2vs0mg"},{"bike_id":"6f17ae84-005c-4f99-bcf0-2d874837fb9c","system_id":"levelo_inurba_marseille","lat":43.30143,"lon":5.37413,"is_reserved":false,"is_disabled":false,"rental_uris":{"android":"levelo://app?vid=6f17ae84-005c-4f99-bcf0-2d874837fb9c","ios":"levelo://app?vid=6f17ae84-005c-4f99-bcf0-2d874837fb9c"},"vehicle_type_id":"4","last_reported":1718230099,"current_range_meters":28000,"station_id":"ce4bgs92rcd13ifvqcc0","pricing_plan_id":"cebpf4jnsgd1na2vs0mg"},{"bike_id":"17b09139-3b7a-4d69-8b37-742d48be6af4","system_id":"levelo_inurba_marseille","lat":43.301429,"lon":5.37413,"is_reserved":false,"is_disabled":false,"rental_uris":{"android":"levelo://app?vid=17b09139-3b7a-4d69-8b37-742d48be6af4","ios":"levelo://app?vid=17b09139-3b7a-4d69-8b37-742d48be6af4"},"vehicle_type_id":"4","last_reported":1718230099,"current_range_meters":12400,"station_id":"ce4bgs92rcd13ifvqcc0","pricing_plan_id":"cebpf4jnsgd1na2vs0mg"},{"bike_id":"0b5bef83-7ce5-4b59-ba06-9ffb2ff4343f","system_id":"levelo_inurba_marseille","lat":43.319935,"lon":5.381699,"is_reserved":false,"is_disabled":false,"rental_uris":{"android":"levelo://app?vid=0b5bef83-7ce5-4b59-ba06-9ffb2ff4343f","ios":"levelo://app?vid=0b5bef83-7ce5-4b59-ba06-9ffb2ff4343f"},"vehicle_type_id":"4","last_reported":1718230099,"current_range_meters":21200,"station_id":"ce4bhr12rcd13ifvqhpg","pricing_plan_id":"cebpf4jnsgd1na2vs0mg"},{"bike_id":"6c8496a8-1fd4-46d4-9960-7a0026c34fc5","system_id":"levelo_inurba_marseille","lat":43.319935,"lon":5.381699,"is_reserved":false,"is_disabled":false,"rental_uris":{"android":"levelo://app?vid=6c8496a8-1fd4-46d4-9960-7a0026c34fc5","ios":"levelo://app?vid=6c8496a8-1fd4-46d4-9960-7a0026c34fc5"},"vehicle_type_id":"4","last_reported":1718230099,"current_range_meters":10800,"station_id":"ce4bhr12rcd13ifvqhpg","pricing_plan_id":"cebpf4jnsgd1na2vs0mg"},{"bike_id":"3792d2f0-e70f-44af-b88c-2898546cb996","system_id":"levelo_inurba_marseille","lat":43.31997,"lon":5.38156,"is_reserved":false,"is_disabled":false,"rental_uris":{"android":"levelo://app?vid=3792d2f0-e70f-44af-b88c-2898546cb996","ios":"levelo://app?vid=3792d2f0-e70f-44af-b88c-2898546cb996"},"vehicle_type_id":"4","last_reported":1718230099,"current_range_meters":10800,"station_id":"ce4bhr12rcd13ifvqhpg","pricing_plan_id":"cebpf4jnsgd1na2vs0mg"},{"bike_id":"0ed5ef63-18b1-4669-920e-0b7f9a2dccf9","system_id":"levelo_inurba_marseille","lat":43.313571,"lon":5.384829,"is_reserved":false,"is_disabled":false,"rental_uris":{"android":"levelo://app?vid=0ed5ef63-18b1-4669-920e-0b7f9a2dccf9","ios":"levelo://app?vid=0ed5ef63-18b1-4669-920e-0b7f9a2dccf9"},"vehicle_type_id":"4","last_reported":1718230099,"current_range_meters":24400,"station_id":"ce4bgt92rcd13ifvqcf0","pricing_plan_id":"cebpf4jnsgd1na2vs0mg"},{"bike_id":"a3b549af-2924-4003-8e54-fdfaa2800827","system_id":"levelo_inurba_marseille","lat":43.313571,"lon":5.384829,"is_reserved":false,"is_disabled":false,"rental_uris":{"android":"levelo://app?vid=a3b549af-2924-4003-8e54-fdfaa2800827","ios":"levelo://app?vid=a3b549af-2924-4003-8e54-fdfaa2800827"},"vehicle_type_id":"4","last_reported":1718230099,"current_range_meters":6400,"station_id":"ce4bgt92rcd13ifvqcf0","pricing_plan_id":"cebpf4jnsgd1na2vs0mg"},{"bike_id":"53b354f8-b2ea-4ede-b601-c0c1155eda11","system_id":"levelo_inurba_marseille","lat":43.313571,"lon":5.384829,"is_reserved":false,"is_disabled":false,"rental_uris":{"android":"levelo://app?vid=53b354f8-b2ea-4ede-b601-c0c1155eda11","ios":"levelo://app?vid=53b354f8-b2ea-4ede-b601-c0c1155eda11"},"vehicle_type_id":"4","last_reported":1718230099,"current_range_meters":10000,"station_id":"ce4bgt92rcd13ifvqcf0","pricing_plan_id":"cebpf4jnsgd1na2vs0mg"},{"bike_id":"b0fb9e6d-f80f-4615-8b4c-07feecfd11a8","system_id":"levelo_inurba_marseille","lat":43.31353,"lon":5.38492,"is_reserved":false,"is_disabled":false,"rental_uris":{"android":"levelo://app?vid=b0fb9e6d-f80f-4615-8b4c-07feecfd11a8","ios":"levelo://app?vid=b0fb9e6d-f80f-4615-8b4c-07feecfd11a8"},"vehicle_type_id":"4","last_reported":1718230099,"current_range_meters":5200,"station_id":"ce4bgt92rcd13ifvqcf0","pricing_plan_id":"cebpf4jnsgd1na2vs0mg"},{"bike_id":"231b8946-6e96-4819-bf53-86e13dec95c2","system_id":"levelo_inurba_marseille","lat":43.313571,"lon":5.384829,"is_reserved":false,"is_disabled":false,"rental_uris":{"android":"levelo://app?vid=231b8946-6e96-4819-bf53-86e13dec95c2","ios":"levelo://app?vid=231b8946-6e96-4819-bf53-86e13dec95c2"},"vehicle_type_id":"4","last_reported":1718230099,"current_range_meters":6000,"station_id":"ce4bgt92rcd13ifvqcf0","pricing_plan_id":"cebpf4jnsgd1na2vs0mg"},{"bike_id":"d4ac25ba-7175-4ce6-8ea9-1cc084d8009d","system_id":"levelo_inurba_marseille","lat":43.313571,"lon":5.384829,"is_reserved":false,"is_disabled":false,"rental_uris":{"android":"levelo://app?vid=d4ac25ba-7175-4ce6-8ea9-1cc084d8009d","ios":"levelo://app?vid=d4ac25ba-7175-4ce6-8ea9-1cc084d8009d"},"vehicle_type_id":"4","last_reported":1718230099,"current_range_meters":21600,"station_id":"ce4bgt92rcd13ifvqcf0","pricing_plan_id":"cebpf4jnsgd1na2vs0mg"},{"bike_id":"8e7f0ce2-f91b-4f3a-82f9-37575545b83e","system_id":"levelo_inurba_marseille","lat":43.313571,"lon":5.384829,"is_reserved":false,"is_disabled":false,"rental_uris":{"android":"levelo://app?vid=8e7f0ce2-f91b-4f3a-82f9-37575545b83e","ios":"levelo://app?vid=8e7f0ce2-f91b-4f3a-82f9-37575545b83e"},"vehicle_type_id":"4","last_reported":1718230099,"current_range_meters":3600,"station_id":"ce4bgt92rcd13ifvqcf0","pricing_plan_id":"cebpf4jnsgd1na2vs0mg"},{"bike_id":"488bc4f6-191b-41f1-9a46-b22535bfb4cc","system_id":"levelo_inurba_marseille","lat":43.313571,"lon":5.384829,"is_reserved":false,"is_disabled":false,"rental_uris":{"android":"levelo://app?vid=488bc4f6-191b-41f1-9a46-b22535bfb4cc","ios":"levelo://app?vid=488bc4f6-191b-41f1-9a46-b22535bfb4cc"},"vehicle_type_id":"4","last_reported":1718230099,"current_range_meters":13600,"station_id":"ce4bgt92rcd13ifvqcf0","pricing_plan_id":"cebpf4jnsgd1na2vs0mg"},{"bike_id":"588e0ac7-c574-49e3-8ff2-02cd6ad9b884","system_id":"levelo_inurba_marseille","lat":43.313571,"lon":5.384829,"is_reserved":false,"is_disabled":false,"rental_uris":{"android":"levelo://app?vid=588e0ac7-c574-49e3-8ff2-02cd6ad9b884","ios":"levelo://app?vid=588e0ac7-c574-49e3-8ff2-02cd6ad9b884"},"vehicle_type_id":"4","last_reported":1718230099,"current_range_meters":13600,"station_id":"ce4bgt92rcd13ifvqcf0","pricing_plan_id":"cebpf4jnsgd1na2vs0mg"},{"bike_id":"b48be7ed-426a-405a-8c5e-44c3c3c73551","system_id":"levelo_inurba_marseille","lat":43.29976,"lon":5.37175,"is_reserved":false,"is_disabled":false,"rental_uris":{"android":"levelo://app?vid=b48be7ed-426a-405a-8c5e-44c3c3c73551","ios":"levelo://app?vid=b48be7ed-426a-405a-8c5e-44c3c3c73551"},"vehicle_type_id":"4","last_reported":1718230099,"current_range_meters":19600,"station_id":"ce4bgr92rcd13ifvqc7g","pricing_plan_id":"cebpf4jnsgd1na2vs0mg"},{"bike_id":"303c79d3-9069-4540-8109-1f2dcb9131a6","system_id":"levelo_inurba_marseille","lat":43.299724,"lon":5.371829,"is_reserved":false,"is_disabled":false,"rental_uris":{"android":"levelo://app?vid=303c79d3-9069-4540-8109-1f2dcb9131a6","ios":"levelo://app?vid=303c79d3-9069-4540-8109-1f2dcb9131a6"},"vehicle_type_id":"4","last_reported":1718230099,"current_range_meters":28800,"station_id":"ce4bgr92rcd13ifvqc7g","pricing_plan_id":"cebpf4jnsgd1na2vs0mg"},{"bike_id":"01ca70b6-4e2c-42cb-9aed-a8b80d5ea29c","system_id":"levelo_inurba_marseille","lat":43.30542,"lon":5.383677,"is_reserved":false,"is_disabled":false,"rental_uris":{"android":"levelo://app?vid=01ca70b6-4e2c-42cb-9aed-a8b80d5ea29c","ios":"levelo://app?vid=01ca70b6-4e2c-42cb-9aed-a8b80d5ea29c"},"vehicle_type_id":"4","last_reported":1718230099,"current_range_meters":7200,"station_id":"ce4bgg92rcd13ifvqb30","pricing_plan_id":"cebpf4jnsgd1na2vs0mg"},{"bike_id":"a0067420-93ec-41db-9ed6-202cf3c59f70","system_id":"levelo_inurba_marseille","lat":43.298433,"lon":5.362774,"is_reserved":false,"is_disabled":false,"rental_uris":{"android":"levelo://app?vid=a0067420-93ec-41db-9ed6-202cf3c59f70","ios":"levelo://app?vid=a0067420-93ec-41db-9ed6-202cf3c59f70"},"vehicle_type_id":"4","last_reported":1718230099,"current_range_meters":14400,"station_id":"ce4bgpp2rcd13ifvqc3g","pricing_plan_id":"cebpf4jnsgd1na2vs0mg"},{"bike_id":"5cf23952-a89c-452a-94f4-de377299768a","system_id":"levelo_inurba_marseille","lat":43.298433,"lon":5.362774,"is_reserved":false,"is_disabled":false,"rental_uris":{"android":"levelo://app?vid=5cf23952-a89c-452a-94f4-de377299768a","ios":"levelo://app?vid=5cf23952-a89c-452a-94f4-de377299768a"},"vehicle_type_id":"4","last_reported":1718230099,"current_range_meters":26400,"station_id":"ce4bgpp2rcd13ifvqc3g","pricing_plan_id":"cebpf4jnsgd1na2vs0mg"},{"bike_id":"bdd3a2fd-417d-4979-997f-5eeec324d139","system_id":"levelo_inurba_marseille","lat":43.31176,"lon":5.38702,"is_reserved":false,"is_disabled":false,"rental_uris":{"android":"levelo://app?vid=bdd3a2fd-417d-4979-997f-5eeec324d139","ios":"levelo://app?vid=bdd3a2fd-417d-4979-997f-5eeec324d139"},"vehicle_type_id":"4","last_reported":1718230099,"current_range_meters":31200,"station_id":"ce4bgv12rcd13ifvqcp0","pricing_plan_id":"cebpf4jnsgd1na2vs0mg"},{"bike_id":"b5124d0a-2bf3-449f-8d43-ebfaca91a74c","system_id":"levelo_inurba_marseille","lat":43.311722,"lon":5.387247,"is_reserved":false,"is_disabled":false,"rental_uris":{"android":"levelo://app?vid=b5124d0a-2bf3-449f-8d43-ebfaca91a74c","ios":"levelo://app?vid=b5124d0a-2bf3-449f-8d43-ebfaca91a74c"},"vehicle_type_id":"4","last_reported":1718230099,"current_range_meters":5600,"station_id":"ce4bgv12rcd13ifvqcp0","pricing_plan_id":"cebpf4jnsgd1na2vs0mg"},{"bike_id":"4b429a91-aeff-43d6-a37a-079f6a82c6aa","system_id":"levelo_inurba_marseille","lat":43.311722,"lon":5.387247,"is_reserved":false,"is_disabled":false,"rental_uris":{"android":"levelo://app?vid=4b429a91-aeff-43d6-a37a-079f6a82c6aa","ios":"levelo://app?vid=4b429a91-aeff-43d6-a37a-079f6a82c6aa"},"vehicle_type_id":"4","last_reported":1718230099,"current_range_meters":7600,"station_id":"ce4bgv12rcd13ifvqcp0","pricing_plan_id":"cebpf4jnsgd1na2vs0mg"},{"bike_id":"f699bdc4-9dd6-4691-ab98-fd7d988b854f","system_id":"levelo_inurba_marseille","lat":43.311722,"lon":5.387247,"is_reserved":false,"is_disabled":false,"rental_uris":{"android":"levelo://app?vid=f699bdc4-9dd6-4691-ab98-fd7d988b854f","ios":"levelo://app?vid=f699bdc4-9dd6-4691-ab98-fd7d988b854f"},"vehicle_type_id":"4","last_reported":1718230099,"current_range_meters":26400,"station_id":"ce4bgv12rcd13ifvqcp0","pricing_plan_id":"cebpf4jnsgd1na2vs0mg"},{"bike_id":"f384134b-bfc4-4af9-abe0-797f860aa8bd","system_id":"levelo_inurba_marseille","lat":43.311722,"lon":5.387247,"is_reserved":false,"is_disabled":false,"rental_uris":{"android":"levelo://app?vid=f384134b-bfc4-4af9-abe0-797f860aa8bd","ios":"levelo://app?vid=f384134b-bfc4-4af9-abe0-797f860aa8bd"},"vehicle_type_id":"4","last_reported":1718230099,"current_range_meters":27200,"station_id":"ce4bgv12rcd13ifvqcp0","pricing_plan_id":"cebpf4jnsgd1na2vs0mg"},{"bike_id":"41152940-4bdf-462f-b72c-ab14064eaf99","system_id":"levelo_inurba_marseille","lat":43.311722,"lon":5.387247,"is_reserved":false,"is_disabled":false,"rental_uris":{"android":"levelo://app?vid=41152940-4bdf-462f-b72c-ab14064eaf99","ios":"levelo://app?vid=41152940-4bdf-462f-b72c-ab14064eaf99"},"vehicle_type_id":"4","last_reported":1718230099,"current_range_meters":2400,"station_id":"ce4bgv12rcd13ifvqcp0","pricing_plan_id":"cebpf4jnsgd1na2vs0mg"},{"bike_id":"8e490928-60c3-419b-bae1-1aff34583692","system_id":"levelo_inurba_marseille","lat":43.299243,"lon":5.374807,"is_reserved":false,"is_disabled":false,"rental_uris":{"android":"levelo://app?vid=8e490928-60c3-419b-bae1-1aff34583692","ios":"levelo://app?vid=8e490928-60c3-419b-bae1-1aff34583692"},"vehicle_type_id":"4","last_reported":1718230099,"current_range_meters":18000,"station_id":"ce4bgjh2rcd13ifvqbg0","pricing_plan_id":"cebpf4jnsgd1na2vs0mg"},{"bike_id":"04bbb28f-771b-4e95-b7f2-36f6447b61d6","system_id":"levelo_inurba_marseille","lat":43.311722,"lon":5.387247,"is_reserved":false,"is_disabled":false,"rental_uris":{"android":"levelo://app?vid=04bbb28f-771b-4e95-b7f2-36f6447b61d6","ios":"levelo://app?vid=04bbb28f-771b-4e95-b7f2-36f6447b61d6"},"vehicle_type_id":"4","last_reported":1718230099,"current_range_meters":13200,"station_id":"ce4bgv12rcd13ifvqcp0","pricing_plan_id":"cebpf4jnsgd1na2vs0mg"},{"bike_id":"4724ace2-c8fa-4e2a-a0ea-0a3df197f679","system_id":"levelo_inurba_marseille","lat":43.311722,"lon":5.387247,"is_reserved":false,"is_disabled":false,"rental_uris":{"android":"levelo://app?vid=4724ace2-c8fa-4e2a-a0ea-0a3df197f679","ios":"levelo://app?vid=4724ace2-c8fa-4e2a-a0ea-0a3df197f679"},"vehicle_type_id":"4","last_reported":1718230099,"current_range_meters":21200,"station_id":"ce4bgv12rcd13ifvqcp0","pricing_plan_id":"cebpf4jnsgd1na2vs0mg"},{"bike_id":"461ba997-1d21-49a7-96a3-8f78815bf0f1","system_id":"levelo_inurba_marseille","lat":43.299243,"lon":5.37481,"is_reserved":false,"is_disabled":false,"rental_uris":{"android":"levelo://app?vid=461ba997-1d21-49a7-96a3-8f78815bf0f1","ios":"levelo://app?vid=461ba997-1d21-49a7-96a3-8f78815bf0f1"},"vehicle_type_id":"4","last_reported":1718230099,"current_range_meters":28000,"station_id":"ce4bgjh2rcd13ifvqbg0","pricing_plan_id":"cebpf4jnsgd1na2vs0mg"},{"bike_id":"28b65bbb-6cbd-43c9-8e99-c677abc75f45","system_id":"levelo_inurba_marseille","lat":43.311722,"lon":5.387247,"is_reserved":false,"is_disabled":false,"rental_uris":{"android":"levelo://app?vid=28b65bbb-6cbd-43c9-8e99-c677abc75f45","ios":"levelo://app?vid=28b65bbb-6cbd-43c9-8e99-c677abc75f45"},"vehicle_type_id":"4","last_reported":1718230099,"current_range_meters":23200,"station_id":"ce4bgv12rcd13ifvqcp0","pricing_plan_id":"cebpf4jnsgd1na2vs0mg"},{"bike_id":"261b15df-1f90-4eaf-8d41-87334cad7836","system_id":"levelo_inurba_marseille","lat":43.311722,"lon":5.387247,"is_reserved":false,"is_disabled":false,"rental_uris":{"android":"levelo://app?vid=261b15df-1f90-4eaf-8d41-87334cad7836","ios":"levelo://app?vid=261b15df-1f90-4eaf-8d41-87334cad7836"},"vehicle_type_id":"4","last_reported":1718230099,"current_range_meters":6800,"station_id":"ce4bgv12rcd13ifvqcp0","pricing_plan_id":"cebpf4jnsgd1na2vs0mg"},{"bike_id":"fe596353-de56-426e-af43-aa3533297794","system_id":"levelo_inurba_marseille","lat":43.311722,"lon":5.387247,"is_reserved":false,"is_disabled":false,"rental_uris":{"android":"levelo://app?vid=fe596353-de56-426e-af43-aa3533297794","ios":"levelo://app?vid=fe596353-de56-426e-af43-aa3533297794"},"vehicle_type_id":"4","last_reported":1718230099,"current_range_meters":10000,"station_id":"ce4bgv12rcd13ifvqcp0","pricing_plan_id":"cebpf4jnsgd1na2vs0mg"},{"bike_id":"4009a81a-edc1-4b11-a451-34b4d32c9bf3","system_id":"levelo_inurba_marseille","lat":43.3117,"lon":5.38711,"is_reserved":false,"is_disabled":false,"rental_uris":{"android":"levelo://app?vid=4009a81a-edc1-4b11-a451-34b4d32c9bf3","ios":"levelo://app?vid=4009a81a-edc1-4b11-a451-34b4d32c9bf3"},"vehicle_type_id":"4","last_reported":1718230099,"current_range_meters":17600,"station_id":"ce4bgv12rcd13ifvqcp0","pricing_plan_id":"cebpf4jnsgd1na2vs0mg"},{"bike_id":"79f8539a-e4a7-474b-9d74-db416cbee8f9","system_id":"levelo_inurba_marseille","lat":43.311722,"lon":5.387247,"is_reserved":false,"is_disabled":false,"rental_uris":{"android":"levelo://app?vid=79f8539a-e4a7-474b-9d74-db416cbee8f9","ios":"levelo://app?vid=79f8539a-e4a7-474b-9d74-db416cbee8f9"},"vehicle_type_id":"4","last_reported":1718230099,"current_range_meters":400,"station_id":"ce4bgv12rcd13ifvqcp0","pricing_plan_id":"cebpf4jnsgd1na2vs0mg"},{"bike_id":"819c7cd0-8a20-4444-8120-0a97fcb62f8e","system_id":"levelo_inurba_marseille","lat":43.311722,"lon":5.387247,"is_reserved":false,"is_disabled":false,"rental_uris":{"android":"levelo://app?vid=819c7cd0-8a20-4444-8120-0a97fcb62f8e","ios":"levelo://app?vid=819c7cd0-8a20-4444-8120-0a97fcb62f8e"},"vehicle_type_id":"4","last_reported":1718230099,"current_range_meters":22400,"station_id":"ce4bgv12rcd13ifvqcp0","pricing_plan_id":"cebpf4jnsgd1na2vs0mg"},{"bike_id":"40749a21-49e4-4cb2-8fe0-73bde530f9e0","system_id":"levelo_inurba_marseille","lat":43.311658,"lon":5.387123,"is_reserved":false,"is_disabled":false,"rental_uris":{"android":"levelo://app?vid=40749a21-49e4-4cb2-8fe0-73bde530f9e0","ios":"levelo://app?vid=40749a21-49e4-4cb2-8fe0-73bde530f9e0"},"vehicle_type_id":"4","last_reported":1718230099,"current_range_meters":31200,"station_id":"ce4bgv12rcd13ifvqcp0","pricing_plan_id":"cebpf4jnsgd1na2vs0mg"},{"bike_id":"549b5301-8a66-4f8d-8eff-8c4c2087a9fc","system_id":"levelo_inurba_marseille","lat":43.311722,"lon":5.387247,"is_reserved":false,"is_disabled":false,"rental_uris":{"android":"levelo://app?vid=549b5301-8a66-4f8d-8eff-8c4c2087a9fc","ios":"levelo://app?vid=549b5301-8a66-4f8d-8eff-8c4c2087a9fc"},"vehicle_type_id":"4","last_reported":1718230099,"current_range_meters":11600,"station_id":"ce4bgv12rcd13ifvqcp0","pricing_plan_id":"cebpf4jnsgd1na2vs0mg"},{"bike_id":"33ce233b-1be7-43e7-862d-9368dafaab48","system_id":"levelo_inurba_marseille","lat":43.29911,"lon":5.37467,"is_reserved":false,"is_disabled":false,"rental_uris":{"android":"levelo://app?vid=33ce233b-1be7-43e7-862d-9368dafaab48","ios":"levelo://app?vid=33ce233b-1be7-43e7-862d-9368dafaab48"},"vehicle_type_id":"4","last_reported":1718230099,"current_range_meters":0,"station_id":"ce4bgjh2rcd13ifvqbg0","pricing_plan_id":"cebpf4jnsgd1na2vs0mg"},{"bike_id":"c4a083bd-6c2d-48fb-b5f4-4bd32c526d49","system_id":"levelo_inurba_marseille","lat":43.311722,"lon":5.387247,"is_reserved":false,"is_disabled":false,"rental_uris":{"android":"levelo://app?vid=c4a083bd-6c2d-48fb-b5f4-4bd32c526d49","ios":"levelo://app?vid=c4a083bd-6c2d-48fb-b5f4-4bd32c526d49"},"vehicle_type_id":"4","last_reported":1718230099,"current_range_meters":8800,"station_id":"ce4bgv12rcd13ifvqcp0","pricing_plan_id":"cebpf4jnsgd1na2vs0mg"},{"bike_id":"e2732ac8-ac68-4d01-8828-2b060f396ea6","system_id":"levelo_inurba_marseille","lat":43.31163,"lon":5.38717,"is_reserved":false,"is_disabled":false,"rental_uris":{"android":"levelo://app?vid=e2732ac8-ac68-4d01-8828-2b060f396ea6","ios":"levelo://app?vid=e2732ac8-ac68-4d01-8828-2b060f396ea6"},"vehicle_type_id":"4","last_reported":1718230099,"current_range_meters":5200,"station_id":"ce4bgv12rcd13ifvqcp0","pricing_plan_id":"cebpf4jnsgd1na2vs0mg"},{"bike_id":"f238b6a2-8b8f-4730-adcc-8eac7acd4c24","system_id":"levelo_inurba_marseille","lat":43.299243,"lon":5.37481,"is_reserved":false,"is_disabled":false,"rental_uris":{"android":"levelo://app?vid=f238b6a2-8b8f-4730-adcc-8eac7acd4c24","ios":"levelo://app?vid=f238b6a2-8b8f-4730-adcc-8eac7acd4c24"},"vehicle_type_id":"4","last_reported":1718230099,"current_range_meters":20400,"station_id":"ce4bgjh2rcd13ifvqbg0","pricing_plan_id":"cebpf4jnsgd1na2vs0mg"},{"bike_id":"45dde682-3d53-49f7-be7e-29e1c3a5373e","system_id":"levelo_inurba_marseille","lat":43.31163,"lon":5.38719,"is_reserved":false,"is_disabled":false,"rental_uris":{"android":"levelo://app?vid=45dde682-3d53-49f7-be7e-29e1c3a5373e","ios":"levelo://app?vid=45dde682-3d53-49f7-be7e-29e1c3a5373e"},"vehicle_type_id":"4","last_reported":1718230099,"current_range_meters":12000,"station_id":"ce4bgv12rcd13ifvqcp0","pricing_plan_id":"cebpf4jnsgd1na2vs0mg"},{"bike_id":"cbd455fd-a387-4915-94f8-4bc7c1b4d22b","system_id":"levelo_inurba_marseille","lat":43.311722,"lon":5.387247,"is_reserved":false,"is_disabled":false,"rental_uris":{"android":"levelo://app?vid=cbd455fd-a387-4915-94f8-4bc7c1b4d22b","ios":"levelo://app?vid=cbd455fd-a387-4915-94f8-4bc7c1b4d22b"},"vehicle_type_id":"4","last_reported":1718230099,"current_range_meters":23600,"station_id":"ce4bgv12rcd13ifvqcp0","pricing_plan_id":"cebpf4jnsgd1na2vs0mg"},{"bike_id":"9e4047c7-1cf1-4cad-b662-95c70dda4420","system_id":"levelo_inurba_marseille","lat":43.31189,"lon":5.38725,"is_reserved":false,"is_disabled":false,"rental_uris":{"android":"levelo://app?vid=9e4047c7-1cf1-4cad-b662-95c70dda4420","ios":"levelo://app?vid=9e4047c7-1cf1-4cad-b662-95c70dda4420"},"vehicle_type_id":"4","last_reported":1718230099,"current_range_meters":12400,"station_id":"ce4bgv12rcd13ifvqcp0","pricing_plan_id":"cebpf4jnsgd1na2vs0mg"},{"bike_id":"f83b441e-ea9c-4c69-98ca-798e28b99861","system_id":"levelo_inurba_marseille","lat":43.31165,"lon":5.38729,"is_reserved":false,"is_disabled":false,"rental_uris":{"android":"levelo://app?vid=f83b441e-ea9c-4c69-98ca-798e28b99861","ios":"levelo://app?vid=f83b441e-ea9c-4c69-98ca-798e28b99861"},"vehicle_type_id":"4","last_reported":1718230099,"current_range_meters":24400,"station_id":"ce4bgv12rcd13ifvqcp0","pricing_plan_id":"cebpf4jnsgd1na2vs0mg"},{"bike_id":"ffd92292-0632-462f-99c5-89cdeca8a683","system_id":"levelo_inurba_marseille","lat":43.311722,"lon":5.387247,"is_reserved":false,"is_disabled":false,"rental_uris":{"android":"levelo://app?vid=ffd92292-0632-462f-99c5-89cdeca8a683","ios":"levelo://app?vid=ffd92292-0632-462f-99c5-89cdeca8a683"},"vehicle_type_id":"4","last_reported":1718230099,"current_range_meters":30400,"station_id":"ce4bgv12rcd13ifvqcp0","pricing_plan_id":"cebpf4jnsgd1na2vs0mg"},{"bike_id":"5ad299bc-7194-4685-8b19-1ea7d3bc1717","system_id":"levelo_inurba_marseille","lat":43.29823,"lon":5.37274,"is_reserved":false,"is_disabled":false,"rental_uris":{"android":"levelo://app?vid=5ad299bc-7194-4685-8b19-1ea7d3bc1717","ios":"levelo://app?vid=5ad299bc-7194-4685-8b19-1ea7d3bc1717"},"vehicle_type_id":"4","last_reported":1718230099,"current_range_meters":24800,"station_id":"","pricing_plan_id":"cebpf4jnsgd1na2vs0mg"},{"bike_id":"2da36980-0f47-404a-80e4-cc61c882313e","system_id":"levelo_inurba_marseille","lat":43.297774,"lon":5.370875,"is_reserved":false,"is_disabled":false,"rental_uris":{"android":"levelo://app?vid=2da36980-0f47-404a-80e4-cc61c882313e","ios":"levelo://app?vid=2da36980-0f47-404a-80e4-cc61c882313e"},"vehicle_type_id":"4","last_reported":1718230099,"current_range_meters":24000,"station_id":"ce4bgop2rcd13ifvqc1g","pricing_plan_id":"cebpf4jnsgd1na2vs0mg"},{"bike_id":"967f9e80-38fd-46d4-beeb-77f1735c1657","system_id":"levelo_inurba_marseille","lat":43.297774,"lon":5.370875,"is_reserved":false,"is_disabled":false,"rental_uris":{"android":"levelo://app?vid=967f9e80-38fd-46d4-beeb-77f1735c1657","ios":"levelo://app?vid=967f9e80-38fd-46d4-beeb-77f1735c1657"},"vehicle_type_id":"4","last_reported":1718230099,"current_range_meters":20000,"station_id":"ce4bgop2rcd13ifvqc1g","pricing_plan_id":"cebpf4jnsgd1na2vs0mg"},{"bike_id":"f16cc06f-1098-40f3-a6a1-a8a5004aec9e","system_id":"levelo_inurba_marseille","lat":43.324771,"lon":5.36557,"is_reserved":false,"is_disabled":false,"rental_uris":{"android":"levelo://app?vid=f16cc06f-1098-40f3-a6a1-a8a5004aec9e","ios":"levelo://app?vid=f16cc06f-1098-40f3-a6a1-a8a5004aec9e"},"vehicle_type_id":"4","last_reported":1718230099,"current_range_meters":5200,"station_id":"ce4bhs12rcd13ifvqhvg","pricing_plan_id":"cebpf4jnsgd1na2vs0mg"},{"bike_id":"65d3454a-708f-4293-89b7-38811dc320a6","system_id":"levelo_inurba_marseille","lat":43.32288,"lon":5.38261,"is_reserved":false,"is_disabled":false,"rental_uris":{"android":"levelo://app?vid=65d3454a-708f-4293-89b7-38811dc320a6","ios":"levelo://app?vid=65d3454a-708f-4293-89b7-38811dc320a6"},"vehicle_type_id":"4","last_reported":1718230099,"current_range_meters":0,"station_id":"ce4bhr12rcd13ifvqhqg","pricing_plan_id":"cebpf4jnsgd1na2vs0mg"},{"bike_id":"56ae48b9-cb8d-4d94-966b-b3be837fb22c","system_id":"levelo_inurba_marseille","lat":43.322897,"lon":5.382626,"is_reserved":false,"is_disabled":false,"rental_uris":{"android":"levelo://app?vid=56ae48b9-cb8d-4d94-966b-b3be837fb22c","ios":"levelo://app?vid=56ae48b9-cb8d-4d94-966b-b3be837fb22c"},"vehicle_type_id":"4","last_reported":1718230099,"current_range_meters":2000,"station_id":"ce4bhr12rcd13ifvqhqg","pricing_plan_id":"cebpf4jnsgd1na2vs0mg"},{"bike_id":"376fa2a0-cde1-45a6-b499-c911de54c8c9","system_id":"levelo_inurba_marseille","lat":43.322872,"lon":5.382756,"is_reserved":false,"is_disabled":false,"rental_uris":{"android":"levelo://app?vid=376fa2a0-cde1-45a6-b499-c911de54c8c9","ios":"levelo://app?vid=376fa2a0-cde1-45a6-b499-c911de54c8c9"},"vehicle_type_id":"4","last_reported":1718230099,"current_range_meters":18800,"station_id":"ce4bhr12rcd13ifvqhqg","pricing_plan_id":"cebpf4jnsgd1na2vs0mg"},{"bike_id":"f7d3e57f-85c1-4dd2-a2e9-8941bda67830","system_id":"levelo_inurba_marseille","lat":43.322872,"lon":5.382756,"is_reserved":false,"is_disabled":false,"rental_uris":{"android":"levelo://app?vid=f7d3e57f-85c1-4dd2-a2e9-8941bda67830","ios":"levelo://app?vid=f7d3e57f-85c1-4dd2-a2e9-8941bda67830"},"vehicle_type_id":"4","last_reported":1718230099,"current_range_meters":6400,"station_id":"ce4bhr12rcd13ifvqhqg","pricing_plan_id":"cebpf4jnsgd1na2vs0mg"},{"bike_id":"61b59230-8c90-4027-9003-b0426fd8b79d","system_id":"levelo_inurba_marseille","lat":43.297163,"lon":5.365866,"is_reserved":false,"is_disabled":false,"rental_uris":{"android":"levelo://app?vid=61b59230-8c90-4027-9003-b0426fd8b79d","ios":"levelo://app?vid=61b59230-8c90-4027-9003-b0426fd8b79d"},"vehicle_type_id":"4","last_reported":1718230099,"current_range_meters":25200,"station_id":"ce4bgn12rcd13ifvqbt0","pricing_plan_id":"cebpf4jnsgd1na2vs0mg"},{"bike_id":"0164e223-52b1-42b6-920a-b973b4d25ac0","system_id":"levelo_inurba_marseille","lat":43.297163,"lon":5.365866,"is_reserved":false,"is_disabled":false,"rental_uris":{"android":"levelo://app?vid=0164e223-52b1-42b6-920a-b973b4d25ac0","ios":"levelo://app?vid=0164e223-52b1-42b6-920a-b973b4d25ac0"},"vehicle_type_id":"4","last_reported":1718230099,"current_range_meters":28000,"station_id":"ce4bgn12rcd13ifvqbt0","pricing_plan_id":"cebpf4jnsgd1na2vs0mg"},{"bike_id":"6bec8dae-26a0-47cf-bf46-c2d5c2cb8e59","system_id":"levelo_inurba_marseille","lat":43.297163,"lon":5.365866,"is_reserved":false,"is_disabled":false,"rental_uris":{"android":"levelo://app?vid=6bec8dae-26a0-47cf-bf46-c2d5c2cb8e59","ios":"levelo://app?vid=6bec8dae-26a0-47cf-bf46-c2d5c2cb8e59"},"vehicle_type_id":"4","last_reported":1718230099,"current_range_meters":18800,"station_id":"ce4bgn12rcd13ifvqbt0","pricing_plan_id":"cebpf4jnsgd1na2vs0mg"},{"bike_id":"3206ae81-5352-4dfc-bcaf-f1154c218d36","system_id":"levelo_inurba_marseille","lat":43.297163,"lon":5.365866,"is_reserved":false,"is_disabled":false,"rental_uris":{"android":"levelo://app?vid=3206ae81-5352-4dfc-bcaf-f1154c218d36","ios":"levelo://app?vid=3206ae81-5352-4dfc-bcaf-f1154c218d36"},"vehicle_type_id":"4","last_reported":1718230099,"current_range_meters":24800,"station_id":"ce4bgn12rcd13ifvqbt0","pricing_plan_id":"cebpf4jnsgd1na2vs0mg"},{"bike_id":"55703661-bd90-4f7d-a4e6-5e998dd537e7","system_id":"levelo_inurba_marseille","lat":43.305364,"lon":5.384119,"is_reserved":false,"is_disabled":false,"rental_uris":{"android":"levelo://app?vid=55703661-bd90-4f7d-a4e6-5e998dd537e7","ios":"levelo://app?vid=55703661-bd90-4f7d-a4e6-5e998dd537e7"},"vehicle_type_id":"4","last_reported":1718230099,"current_range_meters":15600,"station_id":"ce4bgg92rcd13ifvqb30","pricing_plan_id":"cebpf4jnsgd1na2vs0mg"},{"bike_id":"3342ee91-5ed1-4e88-921f-6a85027a4a13","system_id":"levelo_inurba_marseille","lat":43.29651,"lon":5.372618,"is_reserved":false,"is_disabled":false,"rental_uris":{"android":"levelo://app?vid=3342ee91-5ed1-4e88-921f-6a85027a4a13","ios":"levelo://app?vid=3342ee91-5ed1-4e88-921f-6a85027a4a13"},"vehicle_type_id":"4","last_reported":1718230099,"current_range_meters":0,"station_id":"ce4bgk12rcd13ifvqbj0","pricing_plan_id":"cebpf4jnsgd1na2vs0mg"},{"bike_id":"f12fe903-e430-4a5b-854f-91048e026aaf","system_id":"levelo_inurba_marseille","lat":43.32953,"lon":5.36553,"is_reserved":false,"is_disabled":false,"rental_uris":{"android":"levelo://app?vid=f12fe903-e430-4a5b-854f-91048e026aaf","ios":"levelo://app?vid=f12fe903-e430-4a5b-854f-91048e026aaf"},"vehicle_type_id":"4","last_reported":1718230099,"current_range_meters":5200,"station_id":"","pricing_plan_id":"cebpf4jnsgd1na2vs0mg"},{"bike_id":"f1a90db1-7f80-457e-8688-79dc197496ff","system_id":"levelo_inurba_marseille","lat":43.29573,"lon":5.367355,"is_reserved":false,"is_disabled":false,"rental_uris":{"android":"levelo://app?vid=f1a90db1-7f80-457e-8688-79dc197496ff","ios":"levelo://app?vid=f1a90db1-7f80-457e-8688-79dc197496ff"},"vehicle_type_id":"4","last_reported":1718230099,"current_range_meters":30800,"station_id":"ce4bgph2rcd13ifvqc2g","pricing_plan_id":"cebpf4jnsgd1na2vs0mg"},{"bike_id":"ac05418d-0f1b-4830-a5d7-1954fdf0cbde","system_id":"levelo_inurba_marseille","lat":43.29573,"lon":5.367355,"is_reserved":false,"is_disabled":false,"rental_uris":{"android":"levelo://app?vid=ac05418d-0f1b-4830-a5d7-1954fdf0cbde","ios":"levelo://app?vid=ac05418d-0f1b-4830-a5d7-1954fdf0cbde"},"vehicle_type_id":"4","last_reported":1718230099,"current_range_meters":19600,"station_id":"ce4bgph2rcd13ifvqc2g","pricing_plan_id":"cebpf4jnsgd1na2vs0mg"},{"bike_id":"e624fd8b-dfd7-45fb-8792-3ef3957ac5d4","system_id":"levelo_inurba_marseille","lat":43.296935,"lon":5.376544,"is_reserved":false,"is_disabled":false,"rental_uris":{"android":"levelo://app?vid=e624fd8b-dfd7-45fb-8792-3ef3957ac5d4","ios":"levelo://app?vid=e624fd8b-dfd7-45fb-8792-3ef3957ac5d4"},"vehicle_type_id":"4","last_reported":1718230099,"current_range_meters":13600,"station_id":"ce4bgkh2rcd13ifvqbl0","pricing_plan_id":"cebpf4jnsgd1na2vs0mg"},{"bike_id":"fc5d9bac-883e-4eef-be8a-99267af2967d","system_id":"levelo_inurba_marseille","lat":43.317557,"lon":5.390173,"is_reserved":false,"is_disabled":false,"rental_uris":{"android":"levelo://app?vid=fc5d9bac-883e-4eef-be8a-99267af2967d","ios":"levelo://app?vid=fc5d9bac-883e-4eef-be8a-99267af2967d"},"vehicle_type_id":"4","last_reported":1718230099,"current_range_meters":10800,"station_id":"ce4bhqp2rcd13ifvqhng","pricing_plan_id":"cebpf4jnsgd1na2vs0mg"},{"bike_id":"5f3ebbe0-f2a4-4310-907d-48d065d90b25","system_id":"levelo_inurba_marseille","lat":43.317557,"lon":5.390173,"is_reserved":false,"is_disabled":false,"rental_uris":{"android":"levelo://app?vid=5f3ebbe0-f2a4-4310-907d-48d065d90b25","ios":"levelo://app?vid=5f3ebbe0-f2a4-4310-907d-48d065d90b25"},"vehicle_type_id":"4","last_reported":1718230099,"current_range_meters":27600,"station_id":"ce4bhqp2rcd13ifvqhng","pricing_plan_id":"cebpf4jnsgd1na2vs0mg"},{"bike_id":"37a6d915-902b-4742-bc88-8e837cca0fd9","system_id":"levelo_inurba_marseille","lat":43.298037,"lon":5.381066,"is_reserved":false,"is_disabled":false,"rental_uris":{"android":"levelo://app?vid=37a6d915-902b-4742-bc88-8e837cca0fd9","ios":"levelo://app?vid=37a6d915-902b-4742-bc88-8e837cca0fd9"},"vehicle_type_id":"4","last_reported":1718230099,"current_range_meters":11600,"station_id":"ce4bgip2rcd13ifvqbb0","pricing_plan_id":"cebpf4jnsgd1na2vs0mg"},{"bike_id":"1c43a192-d2c5-43c0-b479-53d44aeb78e1","system_id":"levelo_inurba_marseille","lat":43.295748,"lon":5.37522,"is_reserved":false,"is_disabled":false,"rental_uris":{"android":"levelo://app?vid=1c43a192-d2c5-43c0-b479-53d44aeb78e1","ios":"levelo://app?vid=1c43a192-d2c5-43c0-b479-53d44aeb78e1"},"vehicle_type_id":"4","last_reported":1718230099,"current_range_meters":1200,"station_id":"ce4bgh92rcd13ifvqb50","pricing_plan_id":"cebpf4jnsgd1na2vs0mg"},{"bike_id":"51311dfd-70f2-4050-8994-4d1890952260","system_id":"levelo_inurba_marseille","lat":43.304274,"lon":5.388873,"is_reserved":false,"is_disabled":false,"rental_uris":{"android":"levelo://app?vid=51311dfd-70f2-4050-8994-4d1890952260","ios":"levelo://app?vid=51311dfd-70f2-4050-8994-4d1890952260"},"vehicle_type_id":"4","last_reported":1718230099,"current_range_meters":30000,"station_id":"ce4bgk12rcd13ifvqbi0","pricing_plan_id":"cebpf4jnsgd1na2vs0mg"},{"bike_id":"945beab3-d7bf-4e2a-9e6f-adfe26aa69af","system_id":"levelo_inurba_marseille","lat":43.304278,"lon":5.388868,"is_reserved":false,"is_disabled":false,"rental_uris":{"android":"levelo://app?vid=945beab3-d7bf-4e2a-9e6f-adfe26aa69af","ios":"levelo://app?vid=945beab3-d7bf-4e2a-9e6f-adfe26aa69af"},"vehicle_type_id":"4","last_reported":1718230099,"current_range_meters":31200,"station_id":"ce4bgk12rcd13ifvqbi0","pricing_plan_id":"cebpf4jnsgd1na2vs0mg"},{"bike_id":"b38b447d-6874-444c-915c-a8d6b877f8fa","system_id":"levelo_inurba_marseille","lat":43.304274,"lon":5.388873,"is_reserved":false,"is_disabled":false,"rental_uris":{"android":"levelo://app?vid=b38b447d-6874-444c-915c-a8d6b877f8fa","ios":"levelo://app?vid=b38b447d-6874-444c-915c-a8d6b877f8fa"},"vehicle_type_id":"4","last_reported":1718230099,"current_range_meters":24800,"station_id":"ce4bgk12rcd13ifvqbi0","pricing_plan_id":"cebpf4jnsgd1na2vs0mg"},{"bike_id":"00221f65-e268-4604-b34f-8fd091a21037","system_id":"levelo_inurba_marseille","lat":43.304274,"lon":5.388873,"is_reserved":false,"is_disabled":false,"rental_uris":{"android":"levelo://app?vid=00221f65-e268-4604-b34f-8fd091a21037","ios":"levelo://app?vid=00221f65-e268-4604-b34f-8fd091a21037"},"vehicle_type_id":"4","last_reported":1718230099,"current_range_meters":24000,"station_id":"ce4bgk12rcd13ifvqbi0","pricing_plan_id":"cebpf4jnsgd1na2vs0mg"},{"bike_id":"d51789ea-eb04-4e0b-b0d1-a567aa1af80c","system_id":"levelo_inurba_marseille","lat":43.304606,"lon":5.379026,"is_reserved":false,"is_disabled":false,"rental_uris":{"android":"levelo://app?vid=d51789ea-eb04-4e0b-b0d1-a567aa1af80c","ios":"levelo://app?vid=d51789ea-eb04-4e0b-b0d1-a567aa1af80c"},"vehicle_type_id":"4","last_reported":1718230099,"current_range_meters":8800,"station_id":"ce4bgup2rcd13ifvqcn0","pricing_plan_id":"cebpf4jnsgd1na2vs0mg"},{"bike_id":"13a153c6-0143-4257-b3c2-845ce5e6e581","system_id":"levelo_inurba_marseille","lat":43.304274,"lon":5.388873,"is_reserved":false,"is_disabled":false,"rental_uris":{"android":"levelo://app?vid=13a153c6-0143-4257-b3c2-845ce5e6e581","ios":"levelo://app?vid=13a153c6-0143-4257-b3c2-845ce5e6e581"},"vehicle_type_id":"4","last_reported":1718230099,"current_range_meters":6400,"station_id":"ce4bgk12rcd13ifvqbi0","pricing_plan_id":"cebpf4jnsgd1na2vs0mg"},{"bike_id":"01c6c720-5258-4a50-8f4a-ea1a31bb29df","system_id":"levelo_inurba_marseille","lat":43.30429,"lon":5.3889,"is_reserved":false,"is_disabled":false,"rental_uris":{"android":"levelo://app?vid=01c6c720-5258-4a50-8f4a-ea1a31bb29df","ios":"levelo://app?vid=01c6c720-5258-4a50-8f4a-ea1a31bb29df"},"vehicle_type_id":"4","last_reported":1718230099,"current_range_meters":24400,"station_id":"ce4bgk12rcd13ifvqbi0","pricing_plan_id":"cebpf4jnsgd1na2vs0mg"},{"bike_id":"50f4d496-2e22-4433-a366-46bd843bf263","system_id":"levelo_inurba_marseille","lat":43.295279,"lon":5.375048,"is_reserved":false,"is_disabled":false,"rental_uris":{"android":"levelo://app?vid=50f4d496-2e22-4433-a366-46bd843bf263","ios":"levelo://app?vid=50f4d496-2e22-4433-a366-46bd843bf263"},"vehicle_type_id":"4","last_reported":1718230099,"current_range_meters":25200,"station_id":"ce4bgkp2rcd13ifvqbmg","pricing_plan_id":"cebpf4jnsgd1na2vs0mg"},{"bike_id":"7ab012fb-fd6e-407e-9629-f09b85dc307b","system_id":"levelo_inurba_marseille","lat":43.295279,"lon":5.375048,"is_reserved":false,"is_disabled":false,"rental_uris":{"android":"levelo://app?vid=7ab012fb-fd6e-407e-9629-f09b85dc307b","ios":"levelo://app?vid=7ab012fb-fd6e-407e-9629-f09b85dc307b"},"vehicle_type_id":"4","last_reported":1718230099,"current_range_meters":22800,"station_id":"ce4bgkp2rcd13ifvqbmg","pricing_plan_id":"cebpf4jnsgd1na2vs0mg"},{"bike_id":"67fbc337-0fce-48b8-a4f4-8ce6883cd73a","system_id":"levelo_inurba_marseille","lat":43.295279,"lon":5.375048,"is_reserved":false,"is_disabled":false,"rental_uris":{"android":"levelo://app?vid=67fbc337-0fce-48b8-a4f4-8ce6883cd73a","ios":"levelo://app?vid=67fbc337-0fce-48b8-a4f4-8ce6883cd73a"},"vehicle_type_id":"4","last_reported":1718230099,"current_range_meters":8400,"station_id":"ce4bgkp2rcd13ifvqbmg","pricing_plan_id":"cebpf4jnsgd1na2vs0mg"},{"bike_id":"def32e2b-3263-42a7-8614-8d436ff006d0","system_id":"levelo_inurba_marseille","lat":43.29651,"lon":5.37907,"is_reserved":false,"is_disabled":false,"rental_uris":{"android":"levelo://app?vid=def32e2b-3263-42a7-8614-8d436ff006d0","ios":"levelo://app?vid=def32e2b-3263-42a7-8614-8d436ff006d0"},"vehicle_type_id":"4","last_reported":1718230099,"current_range_meters":2400,"station_id":"","pricing_plan_id":"cebpf4jnsgd1na2vs0mg"},{"bike_id":"7866eb20-af18-4e36-a6aa-5b8120df916f","system_id":"levelo_inurba_marseille","lat":43.299717,"lon":5.384845,"is_reserved":false,"is_disabled":false,"rental_uris":{"android":"levelo://app?vid=7866eb20-af18-4e36-a6aa-5b8120df916f","ios":"levelo://app?vid=7866eb20-af18-4e36-a6aa-5b8120df916f"},"vehicle_type_id":"4","last_reported":1718230099,"current_range_meters":8800,"station_id":"ce4bgj92rcd13ifvqbd0","pricing_plan_id":"cebpf4jnsgd1na2vs0mg"},{"bike_id":"5d217b16-5bfd-465c-a373-6549a7a1da4e","system_id":"levelo_inurba_marseille","lat":43.32367,"lon":5.388836,"is_reserved":false,"is_disabled":false,"rental_uris":{"android":"levelo://app?vid=5d217b16-5bfd-465c-a373-6549a7a1da4e","ios":"levelo://app?vid=5d217b16-5bfd-465c-a373-6549a7a1da4e"},"vehicle_type_id":"4","last_reported":1718230099,"current_range_meters":31200,"station_id":"ce4bhqp2rcd13ifvqhog","pricing_plan_id":"cebpf4jnsgd1na2vs0mg"},{"bike_id":"d4dd3d7a-9bef-483c-a60b-88617163048c","system_id":"levelo_inurba_marseille","lat":43.32367,"lon":5.388836,"is_reserved":false,"is_disabled":false,"rental_uris":{"android":"levelo://app?vid=d4dd3d7a-9bef-483c-a60b-88617163048c","ios":"levelo://app?vid=d4dd3d7a-9bef-483c-a60b-88617163048c"},"vehicle_type_id":"4","last_reported":1718230099,"current_range_meters":31200,"station_id":"ce4bhqp2rcd13ifvqhog","pricing_plan_id":"cebpf4jnsgd1na2vs0mg"},{"bike_id":"be044c13-9595-46a2-a6e1-02d71d12a95b","system_id":"levelo_inurba_marseille","lat":43.32367,"lon":5.388836,"is_reserved":false,"is_disabled":false,"rental_uris":{"android":"levelo://app?vid=be044c13-9595-46a2-a6e1-02d71d12a95b","ios":"levelo://app?vid=be044c13-9595-46a2-a6e1-02d71d12a95b"},"vehicle_type_id":"4","last_reported":1718230099,"current_range_meters":22400,"station_id":"ce4bhqp2rcd13ifvqhog","pricing_plan_id":"cebpf4jnsgd1na2vs0mg"},{"bike_id":"97420346-f724-47f3-8309-866f39a9acae","system_id":"levelo_inurba_marseille","lat":43.32367,"lon":5.388836,"is_reserved":false,"is_disabled":false,"rental_uris":{"android":"levelo://app?vid=97420346-f724-47f3-8309-866f39a9acae","ios":"levelo://app?vid=97420346-f724-47f3-8309-866f39a9acae"},"vehicle_type_id":"4","last_reported":1718230099,"current_range_meters":22800,"station_id":"ce4bhqp2rcd13ifvqhog","pricing_plan_id":"cebpf4jnsgd1na2vs0mg"},{"bike_id":"07fadfff-c572-4234-b142-b67975660912","system_id":"levelo_inurba_marseille","lat":43.32369,"lon":5.38886,"is_reserved":false,"is_disabled":false,"rental_uris":{"android":"levelo://app?vid=07fadfff-c572-4234-b142-b67975660912","ios":"levelo://app?vid=07fadfff-c572-4234-b142-b67975660912"},"vehicle_type_id":"4","last_reported":1718230099,"current_range_meters":31200,"station_id":"ce4bhqp2rcd13ifvqhog","pricing_plan_id":"cebpf4jnsgd1na2vs0mg"},{"bike_id":"3091db33-17ab-4793-b223-cec22614392f","system_id":"levelo_inurba_marseille","lat":43.32367,"lon":5.388836,"is_reserved":false,"is_disabled":false,"rental_uris":{"android":"levelo://app?vid=3091db33-17ab-4793-b223-cec22614392f","ios":"levelo://app?vid=3091db33-17ab-4793-b223-cec22614392f"},"vehicle_type_id":"4","last_reported":1718230099,"current_range_meters":31200,"station_id":"ce4bhqp2rcd13ifvqhog","pricing_plan_id":"cebpf4jnsgd1na2vs0mg"},{"bike_id":"724d0d29-2088-4145-9f0a-53ba694ceb46","system_id":"levelo_inurba_marseille","lat":43.32367,"lon":5.388836,"is_reserved":false,"is_disabled":false,"rental_uris":{"android":"levelo://app?vid=724d0d29-2088-4145-9f0a-53ba694ceb46","ios":"levelo://app?vid=724d0d29-2088-4145-9f0a-53ba694ceb46"},"vehicle_type_id":"4","last_reported":1718230099,"current_range_meters":17200,"station_id":"ce4bhqp2rcd13ifvqhog","pricing_plan_id":"cebpf4jnsgd1na2vs0mg"},{"bike_id":"f0e66573-3087-464c-845c-bbad563319f4","system_id":"levelo_inurba_marseille","lat":43.312874,"lon":5.393537,"is_reserved":false,"is_disabled":false,"rental_uris":{"android":"levelo://app?vid=f0e66573-3087-464c-845c-bbad563319f4","ios":"levelo://app?vid=f0e66573-3087-464c-845c-bbad563319f4"},"vehicle_type_id":"4","last_reported":1718230099,"current_range_meters":12800,"station_id":"ce4bhm12rcd13ifvqgkg","pricing_plan_id":"cebpf4jnsgd1na2vs0mg"},{"bike_id":"de5357c5-0323-4ce4-940c-f2ab7b183f48","system_id":"levelo_inurba_marseille","lat":43.293259,"lon":5.371586,"is_reserved":false,"is_disabled":false,"rental_uris":{"android":"levelo://app?vid=de5357c5-0323-4ce4-940c-f2ab7b183f48","ios":"levelo://app?vid=de5357c5-0323-4ce4-940c-f2ab7b183f48"},"vehicle_type_id":"4","last_reported":1718230099,"current_range_meters":0,"station_id":"ce4bgh92rcd13ifvqb40","pricing_plan_id":"cebpf4jnsgd1na2vs0mg"},{"bike_id":"2a752627-d824-4aee-b879-2686e3c473f3","system_id":"levelo_inurba_marseille","lat":43.292345,"lon":5.368338,"is_reserved":false,"is_disabled":false,"rental_uris":{"android":"levelo://app?vid=2a752627-d824-4aee-b879-2686e3c473f3","ios":"levelo://app?vid=2a752627-d824-4aee-b879-2686e3c473f3"},"vehicle_type_id":"4","last_reported":1718230099,"current_range_meters":8000,"station_id":"ce4bhbp2rcd13ifvqesg","pricing_plan_id":"cebpf4jnsgd1na2vs0mg"},{"bike_id":"9d1efcf7-d4de-44c2-a8c9-baf15468e8d3","system_id":"levelo_inurba_marseille","lat":43.293009,"lon":5.374584,"is_reserved":false,"is_disabled":false,"rental_uris":{"android":"levelo://app?vid=9d1efcf7-d4de-44c2-a8c9-baf15468e8d3","ios":"levelo://app?vid=9d1efcf7-d4de-44c2-a8c9-baf15468e8d3"},"vehicle_type_id":"4","last_reported":1718230099,"current_range_meters":29600,"station_id":"ce4bgi12rcd13ifvqb70","pricing_plan_id":"cebpf4jnsgd1na2vs0mg"},{"bike_id":"2b31e502-7785-428f-a96d-14a965fd8385","system_id":"levelo_inurba_marseille","lat":43.305994,"lon":5.393687,"is_reserved":false,"is_disabled":false,"rental_uris":{"android":"levelo://app?vid=2b31e502-7785-428f-a96d-14a965fd8385","ios":"levelo://app?vid=2b31e502-7785-428f-a96d-14a965fd8385"},"vehicle_type_id":"4","last_reported":1718230099,"current_range_meters":8800,"station_id":"ce4bh0p2rcd13ifvqd80","pricing_plan_id":"cebpf4jnsgd1na2vs0mg"},{"bike_id":"a1be19dc-91b4-4625-8225-0d491be0b42e","system_id":"levelo_inurba_marseille","lat":43.305994,"lon":5.393687,"is_reserved":false,"is_disabled":false,"rental_uris":{"android":"levelo://app?vid=a1be19dc-91b4-4625-8225-0d491be0b42e","ios":"levelo://app?vid=a1be19dc-91b4-4625-8225-0d491be0b42e"},"vehicle_type_id":"4","last_reported":1718230099,"current_range_meters":8000,"station_id":"ce4bh0p2rcd13ifvqd80","pricing_plan_id":"cebpf4jnsgd1na2vs0mg"},{"bike_id":"262b0051-aa0f-4e5b-9d5c-e3276b486171","system_id":"levelo_inurba_marseille","lat":43.305994,"lon":5.393687,"is_reserved":false,"is_disabled":false,"rental_uris":{"android":"levelo://app?vid=262b0051-aa0f-4e5b-9d5c-e3276b486171","ios":"levelo://app?vid=262b0051-aa0f-4e5b-9d5c-e3276b486171"},"vehicle_type_id":"4","last_reported":1718230099,"current_range_meters":28800,"station_id":"ce4bh0p2rcd13ifvqd80","pricing_plan_id":"cebpf4jnsgd1na2vs0mg"},{"bike_id":"61d68a8d-f119-4ee1-a845-8479c785ab07","system_id":"levelo_inurba_marseille","lat":43.2936,"lon":5.37835,"is_reserved":false,"is_disabled":false,"rental_uris":{"android":"levelo://app?vid=61d68a8d-f119-4ee1-a845-8479c785ab07","ios":"levelo://app?vid=61d68a8d-f119-4ee1-a845-8479c785ab07"},"vehicle_type_id":"4","last_reported":1718230099,"current_range_meters":31600,"station_id":"ce4bgjh2rcd13ifvqbf0","pricing_plan_id":"cebpf4jnsgd1na2vs0mg"},{"bike_id":"98fc32e0-6e38-4fde-bff4-e0dc3ae88cc6","system_id":"levelo_inurba_marseille","lat":43.30085,"lon":5.390856,"is_reserved":false,"is_disabled":false,"rental_uris":{"android":"levelo://app?vid=98fc32e0-6e38-4fde-bff4-e0dc3ae88cc6","ios":"levelo://app?vid=98fc32e0-6e38-4fde-bff4-e0dc3ae88cc6"},"vehicle_type_id":"4","last_reported":1718230099,"current_range_meters":24400,"station_id":"ce4bh192rcd13ifvqdb0","pricing_plan_id":"cebpf4jnsgd1na2vs0mg"},{"bike_id":"b10c9653-ca4e-45d0-a2f3-c98335d53f81","system_id":"levelo_inurba_marseille","lat":43.30085,"lon":5.390856,"is_reserved":false,"is_disabled":false,"rental_uris":{"android":"levelo://app?vid=b10c9653-ca4e-45d0-a2f3-c98335d53f81","ios":"levelo://app?vid=b10c9653-ca4e-45d0-a2f3-c98335d53f81"},"vehicle_type_id":"4","last_reported":1718230099,"current_range_meters":14000,"station_id":"ce4bh192rcd13ifvqdb0","pricing_plan_id":"cebpf4jnsgd1na2vs0mg"},{"bike_id":"49dc5f94-61b7-4ea5-a4fe-9cb9c11b0cdd","system_id":"levelo_inurba_marseille","lat":43.308839,"lon":5.396194,"is_reserved":false,"is_disabled":false,"rental_uris":{"android":"levelo://app?vid=49dc5f94-61b7-4ea5-a4fe-9cb9c11b0cdd","ios":"levelo://app?vid=49dc5f94-61b7-4ea5-a4fe-9cb9c11b0cdd"},"vehicle_type_id":"4","last_reported":1718230099,"current_range_meters":14400,"station_id":"ce4bh012rcd13ifvqcv0","pricing_plan_id":"cebpf4jnsgd1na2vs0mg"},{"bike_id":"a82a4ebc-c511-42c2-b9c1-fac7af19fc45","system_id":"levelo_inurba_marseille","lat":43.309038,"lon":5.396546,"is_reserved":false,"is_disabled":false,"rental_uris":{"android":"levelo://app?vid=a82a4ebc-c511-42c2-b9c1-fac7af19fc45","ios":"levelo://app?vid=a82a4ebc-c511-42c2-b9c1-fac7af19fc45"},"vehicle_type_id":"4","last_reported":1718230099,"current_range_meters":20400,"station_id":"ce4bh012rcd13ifvqcv0","pricing_plan_id":"cebpf4jnsgd1na2vs0mg"},{"bike_id":"f711bcba-9f31-413d-a703-fa16a8af1753","system_id":"levelo_inurba_marseille","lat":43.309038,"lon":5.396546,"is_reserved":false,"is_disabled":false,"rental_uris":{"android":"levelo://app?vid=f711bcba-9f31-413d-a703-fa16a8af1753","ios":"levelo://app?vid=f711bcba-9f31-413d-a703-fa16a8af1753"},"vehicle_type_id":"4","last_reported":1718230099,"current_range_meters":32000,"station_id":"ce4bh012rcd13ifvqcv0","pricing_plan_id":"cebpf4jnsgd1na2vs0mg"},{"bike_id":"444d3d9a-9cad-4833-ae49-38909374368f","system_id":"levelo_inurba_marseille","lat":43.309038,"lon":5.396546,"is_reserved":false,"is_disabled":false,"rental_uris":{"android":"levelo://app?vid=444d3d9a-9cad-4833-ae49-38909374368f","ios":"levelo://app?vid=444d3d9a-9cad-4833-ae49-38909374368f"},"vehicle_type_id":"4","last_reported":1718230099,"current_range_meters":22000,"station_id":"ce4bh012rcd13ifvqcv0","pricing_plan_id":"cebpf4jnsgd1na2vs0mg"},{"bike_id":"2a5ff82f-3fd0-48e0-bb1e-a547bccfeb62","system_id":"levelo_inurba_marseille","lat":43.30886,"lon":5.396283,"is_reserved":false,"is_disabled":false,"rental_uris":{"android":"levelo://app?vid=2a5ff82f-3fd0-48e0-bb1e-a547bccfeb62","ios":"levelo://app?vid=2a5ff82f-3fd0-48e0-bb1e-a547bccfeb62"},"vehicle_type_id":"4","last_reported":1718230099,"current_range_meters":19600,"station_id":"ce4bh012rcd13ifvqcv0","pricing_plan_id":"cebpf4jnsgd1na2vs0mg"},{"bike_id":"4badb878-f7fe-40d2-ac09-ab732fd35b54","system_id":"levelo_inurba_marseille","lat":43.309047,"lon":5.396551,"is_reserved":false,"is_disabled":false,"rental_uris":{"android":"levelo://app?vid=4badb878-f7fe-40d2-ac09-ab732fd35b54","ios":"levelo://app?vid=4badb878-f7fe-40d2-ac09-ab732fd35b54"},"vehicle_type_id":"4","last_reported":1718230099,"current_range_meters":27600,"station_id":"ce4bh012rcd13ifvqcv0","pricing_plan_id":"cebpf4jnsgd1na2vs0mg"},{"bike_id":"f202a986-8148-4233-91ac-9a63c42bf4ef","system_id":"levelo_inurba_marseille","lat":43.313291,"lon":5.396838,"is_reserved":false,"is_disabled":false,"rental_uris":{"android":"levelo://app?vid=f202a986-8148-4233-91ac-9a63c42bf4ef","ios":"levelo://app?vid=f202a986-8148-4233-91ac-9a63c42bf4ef"},"vehicle_type_id":"4","last_reported":1718230099,"current_range_meters":30000,"station_id":"ce4bgvp2rcd13ifvqcu0","pricing_plan_id":"cebpf4jnsgd1na2vs0mg"},{"bike_id":"037d2563-7c0c-43a9-8dd6-2173afe72cd3","system_id":"levelo_inurba_marseille","lat":43.30895,"lon":5.39631,"is_reserved":false,"is_disabled":false,"rental_uris":{"android":"levelo://app?vid=037d2563-7c0c-43a9-8dd6-2173afe72cd3","ios":"levelo://app?vid=037d2563-7c0c-43a9-8dd6-2173afe72cd3"},"vehicle_type_id":"4","last_reported":1718230099,"current_range_meters":8000,"station_id":"ce4bh012rcd13ifvqcv0","pricing_plan_id":"cebpf4jnsgd1na2vs0mg"},{"bike_id":"2787c238-a0ec-471e-a79e-d9139d86a0a3","system_id":"levelo_inurba_marseille","lat":43.309038,"lon":5.396546,"is_reserved":false,"is_disabled":false,"rental_uris":{"android":"levelo://app?vid=2787c238-a0ec-471e-a79e-d9139d86a0a3","ios":"levelo://app?vid=2787c238-a0ec-471e-a79e-d9139d86a0a3"},"vehicle_type_id":"4","last_reported":1718230099,"current_range_meters":19600,"station_id":"ce4bh012rcd13ifvqcv0","pricing_plan_id":"cebpf4jnsgd1na2vs0mg"},{"bike_id":"3f1d4d45-a430-42f7-b15d-a2afbe17e67e","system_id":"levelo_inurba_marseille","lat":43.309038,"lon":5.396546,"is_reserved":false,"is_disabled":false,"rental_uris":{"android":"levelo://app?vid=3f1d4d45-a430-42f7-b15d-a2afbe17e67e","ios":"levelo://app?vid=3f1d4d45-a430-42f7-b15d-a2afbe17e67e"},"vehicle_type_id":"4","last_reported":1718230099,"current_range_meters":21200,"station_id":"ce4bh012rcd13ifvqcv0","pricing_plan_id":"cebpf4jnsgd1na2vs0mg"},{"bike_id":"39963f3d-196c-4f1d-8530-b5f587752cd2","system_id":"levelo_inurba_marseille","lat":43.30888,"lon":5.396358,"is_reserved":false,"is_disabled":false,"rental_uris":{"android":"levelo://app?vid=39963f3d-196c-4f1d-8530-b5f587752cd2","ios":"levelo://app?vid=39963f3d-196c-4f1d-8530-b5f587752cd2"},"vehicle_type_id":"4","last_reported":1718230099,"current_range_meters":21600,"station_id":"ce4bh012rcd13ifvqcv0","pricing_plan_id":"cebpf4jnsgd1na2vs0mg"},{"bike_id":"041c0fb3-0197-49d0-9328-3c4f8eb328d8","system_id":"levelo_inurba_marseille","lat":43.309038,"lon":5.396546,"is_reserved":false,"is_disabled":false,"rental_uris":{"android":"levelo://app?vid=041c0fb3-0197-49d0-9328-3c4f8eb328d8","ios":"levelo://app?vid=041c0fb3-0197-49d0-9328-3c4f8eb328d8"},"vehicle_type_id":"4","last_reported":1718230099,"current_range_meters":24800,"station_id":"ce4bh012rcd13ifvqcv0","pricing_plan_id":"cebpf4jnsgd1na2vs0mg"},{"bike_id":"64c254b0-5407-41d2-8e11-f71a1e9ef6c6","system_id":"levelo_inurba_marseille","lat":43.309047,"lon":5.396551,"is_reserved":false,"is_disabled":false,"rental_uris":{"android":"levelo://app?vid=64c254b0-5407-41d2-8e11-f71a1e9ef6c6","ios":"levelo://app?vid=64c254b0-5407-41d2-8e11-f71a1e9ef6c6"},"vehicle_type_id":"4","last_reported":1718230099,"current_range_meters":19200,"station_id":"ce4bh012rcd13ifvqcv0","pricing_plan_id":"cebpf4jnsgd1na2vs0mg"},{"bike_id":"c09de6b5-ca56-4d03-a65c-5da1cdbd2934","system_id":"levelo_inurba_marseille","lat":43.313291,"lon":5.396838,"is_reserved":false,"is_disabled":false,"rental_uris":{"android":"levelo://app?vid=c09de6b5-ca56-4d03-a65c-5da1cdbd2934","ios":"levelo://app?vid=c09de6b5-ca56-4d03-a65c-5da1cdbd2934"},"vehicle_type_id":"4","last_reported":1718230099,"current_range_meters":14000,"station_id":"ce4bgvp2rcd13ifvqcu0","pricing_plan_id":"cebpf4jnsgd1na2vs0mg"},{"bike_id":"fb69aa4e-f81f-4b1f-b080-f8ac39695f5b","system_id":"levelo_inurba_marseille","lat":43.309038,"lon":5.396546,"is_reserved":false,"is_disabled":false,"rental_uris":{"android":"levelo://app?vid=fb69aa4e-f81f-4b1f-b080-f8ac39695f5b","ios":"levelo://app?vid=fb69aa4e-f81f-4b1f-b080-f8ac39695f5b"},"vehicle_type_id":"4","last_reported":1718230099,"current_range_meters":24800,"station_id":"ce4bh012rcd13ifvqcv0","pricing_plan_id":"cebpf4jnsgd1na2vs0mg"},{"bike_id":"c7fe245c-6dd9-443f-9e4f-6aa3e739692e","system_id":"levelo_inurba_marseille","lat":43.309038,"lon":5.396546,"is_reserved":false,"is_disabled":false,"rental_uris":{"android":"levelo://app?vid=c7fe245c-6dd9-443f-9e4f-6aa3e739692e","ios":"levelo://app?vid=c7fe245c-6dd9-443f-9e4f-6aa3e739692e"},"vehicle_type_id":"4","last_reported":1718230099,"current_range_meters":20800,"station_id":"ce4bh012rcd13ifvqcv0","pricing_plan_id":"cebpf4jnsgd1na2vs0mg"},{"bike_id":"66d3ce27-2899-4357-af54-7f9087beba47","system_id":"levelo_inurba_marseille","lat":43.30881,"lon":5.39638,"is_reserved":false,"is_disabled":false,"rental_uris":{"android":"levelo://app?vid=66d3ce27-2899-4357-af54-7f9087beba47","ios":"levelo://app?vid=66d3ce27-2899-4357-af54-7f9087beba47"},"vehicle_type_id":"4","last_reported":1718230099,"current_range_meters":20000,"station_id":"ce4bh012rcd13ifvqcv0","pricing_plan_id":"cebpf4jnsgd1na2vs0mg"},{"bike_id":"97e51d94-3278-4a7b-a82b-cfe2300de94d","system_id":"levelo_inurba_marseille","lat":43.313291,"lon":5.396838,"is_reserved":false,"is_disabled":false,"rental_uris":{"android":"levelo://app?vid=97e51d94-3278-4a7b-a82b-cfe2300de94d","ios":"levelo://app?vid=97e51d94-3278-4a7b-a82b-cfe2300de94d"},"vehicle_type_id":"4","last_reported":1718230099,"current_range_meters":15200,"station_id":"ce4bgvp2rcd13ifvqcu0","pricing_plan_id":"cebpf4jnsgd1na2vs0mg"},{"bike_id":"fad1f035-7e82-4ca9-b33b-158249f7aec5","system_id":"levelo_inurba_marseille","lat":43.309038,"lon":5.396546,"is_reserved":false,"is_disabled":false,"rental_uris":{"android":"levelo://app?vid=fad1f035-7e82-4ca9-b33b-158249f7aec5","ios":"levelo://app?vid=fad1f035-7e82-4ca9-b33b-158249f7aec5"},"vehicle_type_id":"4","last_reported":1718230099,"current_range_meters":31200,"station_id":"ce4bh012rcd13ifvqcv0","pricing_plan_id":"cebpf4jnsgd1na2vs0mg"},{"bike_id":"6e88d2fd-9dd7-4fec-8091-be8cd06a464a","system_id":"levelo_inurba_marseille","lat":43.30889,"lon":5.39642,"is_reserved":false,"is_disabled":false,"rental_uris":{"android":"levelo://app?vid=6e88d2fd-9dd7-4fec-8091-be8cd06a464a","ios":"levelo://app?vid=6e88d2fd-9dd7-4fec-8091-be8cd06a464a"},"vehicle_type_id":"4","last_reported":1718230099,"current_range_meters":22400,"station_id":"ce4bh012rcd13ifvqcv0","pricing_plan_id":"cebpf4jnsgd1na2vs0mg"},{"bike_id":"e56131e0-f692-42bf-83d5-a2f859c31563","system_id":"levelo_inurba_marseille","lat":43.313291,"lon":5.396838,"is_reserved":false,"is_disabled":false,"rental_uris":{"android":"levelo://app?vid=e56131e0-f692-42bf-83d5-a2f859c31563","ios":"levelo://app?vid=e56131e0-f692-42bf-83d5-a2f859c31563"},"vehicle_type_id":"4","last_reported":1718230099,"current_range_meters":19200,"station_id":"ce4bgvp2rcd13ifvqcu0","pricing_plan_id":"cebpf4jnsgd1na2vs0mg"},{"bike_id":"e2505d2f-457d-48f2-8e0b-53c53e3433c0","system_id":"levelo_inurba_marseille","lat":43.313291,"lon":5.396838,"is_reserved":false,"is_disabled":false,"rental_uris":{"android":"levelo://app?vid=e2505d2f-457d-48f2-8e0b-53c53e3433c0","ios":"levelo://app?vid=e2505d2f-457d-48f2-8e0b-53c53e3433c0"},"vehicle_type_id":"4","last_reported":1718230099,"current_range_meters":21600,"station_id":"ce4bgvp2rcd13ifvqcu0","pricing_plan_id":"cebpf4jnsgd1na2vs0mg"},{"bike_id":"dd4e7b61-5d2a-47e8-b8ca-6dbaf04724d0","system_id":"levelo_inurba_marseille","lat":43.313291,"lon":5.396838,"is_reserved":false,"is_disabled":false,"rental_uris":{"android":"levelo://app?vid=dd4e7b61-5d2a-47e8-b8ca-6dbaf04724d0","ios":"levelo://app?vid=dd4e7b61-5d2a-47e8-b8ca-6dbaf04724d0"},"vehicle_type_id":"4","last_reported":1718230099,"current_range_meters":15600,"station_id":"ce4bgvp2rcd13ifvqcu0","pricing_plan_id":"cebpf4jnsgd1na2vs0mg"},{"bike_id":"bec668b2-4964-4750-890c-a52886ec3d9b","system_id":"levelo_inurba_marseille","lat":43.313291,"lon":5.396838,"is_reserved":false,"is_disabled":false,"rental_uris":{"android":"levelo://app?vid=bec668b2-4964-4750-890c-a52886ec3d9b","ios":"levelo://app?vid=bec668b2-4964-4750-890c-a52886ec3d9b"},"vehicle_type_id":"4","last_reported":1718230099,"current_range_meters":31200,"station_id":"ce4bgvp2rcd13ifvqcu0","pricing_plan_id":"cebpf4jnsgd1na2vs0mg"},{"bike_id":"ff00be3d-843f-40d7-a9b4-3ba85a788dab","system_id":"levelo_inurba_marseille","lat":43.313291,"lon":5.396838,"is_reserved":false,"is_disabled":false,"rental_uris":{"android":"levelo://app?vid=ff00be3d-843f-40d7-a9b4-3ba85a788dab","ios":"levelo://app?vid=ff00be3d-843f-40d7-a9b4-3ba85a788dab"},"vehicle_type_id":"4","last_reported":1718230099,"current_range_meters":31200,"station_id":"ce4bgvp2rcd13ifvqcu0","pricing_plan_id":"cebpf4jnsgd1na2vs0mg"},{"bike_id":"0bf2e1ca-68f1-4c76-a9bf-9af37335f229","system_id":"levelo_inurba_marseille","lat":43.313291,"lon":5.396838,"is_reserved":false,"is_disabled":false,"rental_uris":{"android":"levelo://app?vid=0bf2e1ca-68f1-4c76-a9bf-9af37335f229","ios":"levelo://app?vid=0bf2e1ca-68f1-4c76-a9bf-9af37335f229"},"vehicle_type_id":"4","last_reported":1718230099,"current_range_meters":30800,"station_id":"ce4bgvp2rcd13ifvqcu0","pricing_plan_id":"cebpf4jnsgd1na2vs0mg"},{"bike_id":"a8a788aa-2cb1-4545-b115-e13ff01282d8","system_id":"levelo_inurba_marseille","lat":43.313291,"lon":5.396838,"is_reserved":false,"is_disabled":false,"rental_uris":{"android":"levelo://app?vid=a8a788aa-2cb1-4545-b115-e13ff01282d8","ios":"levelo://app?vid=a8a788aa-2cb1-4545-b115-e13ff01282d8"},"vehicle_type_id":"4","last_reported":1718230099,"current_range_meters":31200,"station_id":"ce4bgvp2rcd13ifvqcu0","pricing_plan_id":"cebpf4jnsgd1na2vs0mg"},{"bike_id":"ed7f7da0-58d3-445e-bd08-c09ab888da12","system_id":"levelo_inurba_marseille","lat":43.31323,"lon":5.39697,"is_reserved":false,"is_disabled":false,"rental_uris":{"android":"levelo://app?vid=ed7f7da0-58d3-445e-bd08-c09ab888da12","ios":"levelo://app?vid=ed7f7da0-58d3-445e-bd08-c09ab888da12"},"vehicle_type_id":"4","last_reported":1718230099,"current_range_meters":31200,"station_id":"ce4bgvp2rcd13ifvqcu0","pricing_plan_id":"cebpf4jnsgd1na2vs0mg"},{"bike_id":"a743105d-ab50-4e92-860b-8dd7dc340ff1","system_id":"levelo_inurba_marseille","lat":43.313291,"lon":5.396838,"is_reserved":false,"is_disabled":false,"rental_uris":{"android":"levelo://app?vid=a743105d-ab50-4e92-860b-8dd7dc340ff1","ios":"levelo://app?vid=a743105d-ab50-4e92-860b-8dd7dc340ff1"},"vehicle_type_id":"4","last_reported":1718230099,"current_range_meters":18400,"station_id":"ce4bgvp2rcd13ifvqcu0","pricing_plan_id":"cebpf4jnsgd1na2vs0mg"},{"bike_id":"bf880932-cd02-49c5-be59-af0e460f64b4","system_id":"levelo_inurba_marseille","lat":43.30884,"lon":5.39659,"is_reserved":false,"is_disabled":false,"rental_uris":{"android":"levelo://app?vid=bf880932-cd02-49c5-be59-af0e460f64b4","ios":"levelo://app?vid=bf880932-cd02-49c5-be59-af0e460f64b4"},"vehicle_type_id":"4","last_reported":1718230099,"current_range_meters":4400,"station_id":"ce4bh012rcd13ifvqcv0","pricing_plan_id":"cebpf4jnsgd1na2vs0mg"},{"bike_id":"850071a2-868e-4cff-8c42-6c7bdbe804b2","system_id":"levelo_inurba_marseille","lat":43.30889,"lon":5.39661,"is_reserved":false,"is_disabled":false,"rental_uris":{"android":"levelo://app?vid=850071a2-868e-4cff-8c42-6c7bdbe804b2","ios":"levelo://app?vid=850071a2-868e-4cff-8c42-6c7bdbe804b2"},"vehicle_type_id":"4","last_reported":1718230099,"current_range_meters":0,"station_id":"ce4bh012rcd13ifvqcv0","pricing_plan_id":"cebpf4jnsgd1na2vs0mg"},{"bike_id":"adbad2b2-dfc1-4f78-aff7-6d0324e8ab2c","system_id":"levelo_inurba_marseille","lat":43.309038,"lon":5.396546,"is_reserved":false,"is_disabled":false,"rental_uris":{"android":"levelo://app?vid=adbad2b2-dfc1-4f78-aff7-6d0324e8ab2c","ios":"levelo://app?vid=adbad2b2-dfc1-4f78-aff7-6d0324e8ab2c"},"vehicle_type_id":"4","last_reported":1718230099,"current_range_meters":20400,"station_id":"ce4bh012rcd13ifvqcv0","pricing_plan_id":"cebpf4jnsgd1na2vs0mg"},{"bike_id":"e658987a-9605-4f9a-a82c-dac1453ef2d7","system_id":"levelo_inurba_marseille","lat":43.309038,"lon":5.396546,"is_reserved":false,"is_disabled":false,"rental_uris":{"android":"levelo://app?vid=e658987a-9605-4f9a-a82c-dac1453ef2d7","ios":"levelo://app?vid=e658987a-9605-4f9a-a82c-dac1453ef2d7"},"vehicle_type_id":"4","last_reported":1718230099,"current_range_meters":0,"station_id":"ce4bh012rcd13ifvqcv0","pricing_plan_id":"cebpf4jnsgd1na2vs0mg"},{"bike_id":"0f2074cd-143a-42b3-9352-ff3d40d496f0","system_id":"levelo_inurba_marseille","lat":43.326898,"lon":5.390198,"is_reserved":false,"is_disabled":false,"rental_uris":{"android":"levelo://app?vid=0f2074cd-143a-42b3-9352-ff3d40d496f0","ios":"levelo://app?vid=0f2074cd-143a-42b3-9352-ff3d40d496f0"},"vehicle_type_id":"4","last_reported":1718230099,"current_range_meters":0,"station_id":"","pricing_plan_id":"cebpf4jnsgd1na2vs0mg"},{"bike_id":"fa5485c8-7abb-4a57-99ec-8cb59659ab42","system_id":"levelo_inurba_marseille","lat":43.30255,"lon":5.39407,"is_reserved":false,"is_disabled":false,"rental_uris":{"android":"levelo://app?vid=fa5485c8-7abb-4a57-99ec-8cb59659ab42","ios":"levelo://app?vid=fa5485c8-7abb-4a57-99ec-8cb59659ab42"},"vehicle_type_id":"4","last_reported":1718230099,"current_range_meters":25600,"station_id":"","pricing_plan_id":"cebpf4jnsgd1na2vs0mg"},{"bike_id":"a676323b-9048-4589-98ea-7716ef5b02b2","system_id":"levelo_inurba_marseille","lat":43.290779,"lon":5.371482,"is_reserved":false,"is_disabled":false,"rental_uris":{"android":"levelo://app?vid=a676323b-9048-4589-98ea-7716ef5b02b2","ios":"levelo://app?vid=a676323b-9048-4589-98ea-7716ef5b02b2"},"vehicle_type_id":"4","last_reported":1718230099,"current_range_meters":18000,"station_id":"ce4bh5p2rcd13ifvqe4g","pricing_plan_id":"cebpf4jnsgd1na2vs0mg"},{"bike_id":"3eb70916-9b6e-493f-bc9d-67e2a0f45956","system_id":"levelo_inurba_marseille","lat":43.290779,"lon":5.371482,"is_reserved":false,"is_disabled":false,"rental_uris":{"android":"levelo://app?vid=3eb70916-9b6e-493f-bc9d-67e2a0f45956","ios":"levelo://app?vid=3eb70916-9b6e-493f-bc9d-67e2a0f45956"},"vehicle_type_id":"4","last_reported":1718230099,"current_range_meters":28800,"station_id":"ce4bh5p2rcd13ifvqe4g","pricing_plan_id":"cebpf4jnsgd1na2vs0mg"},{"bike_id":"b9c2521c-ab6b-4898-b2bc-fb7f98b09b21","system_id":"levelo_inurba_marseille","lat":43.290624,"lon":5.359245,"is_reserved":false,"is_disabled":false,"rental_uris":{"android":"levelo://app?vid=b9c2521c-ab6b-4898-b2bc-fb7f98b09b21","ios":"levelo://app?vid=b9c2521c-ab6b-4898-b2bc-fb7f98b09b21"},"vehicle_type_id":"4","last_reported":1718230099,"current_range_meters":22400,"station_id":"ce4bha92rcd13ifvqeg0","pricing_plan_id":"cebpf4jnsgd1na2vs0mg"},{"bike_id":"721f7798-543f-43f2-80a4-2d50e62f3e3a","system_id":"levelo_inurba_marseille","lat":43.293236,"lon":5.383704,"is_reserved":false,"is_disabled":false,"rental_uris":{"android":"levelo://app?vid=721f7798-543f-43f2-80a4-2d50e62f3e3a","ios":"levelo://app?vid=721f7798-543f-43f2-80a4-2d50e62f3e3a"},"vehicle_type_id":"4","last_reported":1718230099,"current_range_meters":11200,"station_id":"","pricing_plan_id":"cebpf4jnsgd1na2vs0mg"},{"bike_id":"deee16cb-9cba-4909-990e-db42eeeeb585","system_id":"levelo_inurba_marseille","lat":43.290327,"lon":5.375711,"is_reserved":false,"is_disabled":false,"rental_uris":{"android":"levelo://app?vid=deee16cb-9cba-4909-990e-db42eeeeb585","ios":"levelo://app?vid=deee16cb-9cba-4909-990e-db42eeeeb585"},"vehicle_type_id":"4","last_reported":1718230099,"current_range_meters":0,"station_id":"ce4bh692rcd13ifvqe90","pricing_plan_id":"cebpf4jnsgd1na2vs0mg"},{"bike_id":"28e09f72-c9aa-4130-a070-e0cd0301b3c5","system_id":"levelo_inurba_marseille","lat":43.290327,"lon":5.375711,"is_reserved":false,"is_disabled":false,"rental_uris":{"android":"levelo://app?vid=28e09f72-c9aa-4130-a070-e0cd0301b3c5","ios":"levelo://app?vid=28e09f72-c9aa-4130-a070-e0cd0301b3c5"},"vehicle_type_id":"4","last_reported":1718230099,"current_range_meters":0,"station_id":"ce4bh692rcd13ifvqe90","pricing_plan_id":"cebpf4jnsgd1na2vs0mg"},{"bike_id":"f9c3bd74-6fe1-49a5-b7e0-cf5b41f85b00","system_id":"levelo_inurba_marseille","lat":43.289468,"lon":5.363719,"is_reserved":false,"is_disabled":false,"rental_uris":{"android":"levelo://app?vid=f9c3bd74-6fe1-49a5-b7e0-cf5b41f85b00","ios":"levelo://app?vid=f9c3bd74-6fe1-49a5-b7e0-cf5b41f85b00"},"vehicle_type_id":"4","last_reported":1718230099,"current_range_meters":21600,"station_id":"ce4bhc92rcd13ifvqetg","pricing_plan_id":"cebpf4jnsgd1na2vs0mg"},{"bike_id":"9750d305-ac38-4574-9b4d-e8d45e873712","system_id":"levelo_inurba_marseille","lat":43.29415,"lon":5.38624,"is_reserved":false,"is_disabled":false,"rental_uris":{"android":"levelo://app?vid=9750d305-ac38-4574-9b4d-e8d45e873712","ios":"levelo://app?vid=9750d305-ac38-4574-9b4d-e8d45e873712"},"vehicle_type_id":"4","last_reported":1718230099,"current_range_meters":0,"station_id":"ce4bh2h2rcd13ifvqdh0","pricing_plan_id":"cebpf4jnsgd1na2vs0mg"},{"bike_id":"98d2a566-bf59-4c8a-abfc-07461f8379c7","system_id":"levelo_inurba_marseille","lat":43.28941,"lon":5.3662,"is_reserved":false,"is_disabled":false,"rental_uris":{"android":"levelo://app?vid=98d2a566-bf59-4c8a-abfc-07461f8379c7","ios":"levelo://app?vid=98d2a566-bf59-4c8a-abfc-07461f8379c7"},"vehicle_type_id":"4","last_reported":1718230099,"current_range_meters":800,"station_id":"","pricing_plan_id":"cebpf4jnsgd1na2vs0mg"},{"bike_id":"f5a8b91a-a302-46b9-b45b-611b02dbe191","system_id":"levelo_inurba_marseille","lat":43.289184,"lon":5.366408,"is_reserved":false,"is_disabled":false,"rental_uris":{"android":"levelo://app?vid=f5a8b91a-a302-46b9-b45b-611b02dbe191","ios":"levelo://app?vid=f5a8b91a-a302-46b9-b45b-611b02dbe191"},"vehicle_type_id":"4","last_reported":1718230099,"current_range_meters":17600,"station_id":"ce4bhap2rcd13ifvqek0","pricing_plan_id":"cebpf4jnsgd1na2vs0mg"},{"bike_id":"60b1d95a-8b51-4e25-a0b7-5d4607181172","system_id":"levelo_inurba_marseille","lat":43.289184,"lon":5.366408,"is_reserved":false,"is_disabled":false,"rental_uris":{"android":"levelo://app?vid=60b1d95a-8b51-4e25-a0b7-5d4607181172","ios":"levelo://app?vid=60b1d95a-8b51-4e25-a0b7-5d4607181172"},"vehicle_type_id":"4","last_reported":1718230099,"current_range_meters":12000,"station_id":"ce4bhap2rcd13ifvqek0","pricing_plan_id":"cebpf4jnsgd1na2vs0mg"},