{"last_updated":1718899838,"ttl":30,"version":"2.2","data":{"bikes":[{"bike_id":"427aef2c-c1b3-4fcc-a0ff-87ef2d5d54ba","system_id":"levelo_inurba_marseille","lat":43.31224,"lon":5.3686,"is_reserved":false,"is_disabled":false,"rental_uris":{"android":"levelo://app?vid=427aef2c-c1b3-4fcc-a0ff-87ef2d5d54ba","ios":"levelo://app?vid=427aef2c-c1b3-4fcc-a0ff-87ef2d5d54ba"},"vehicle_type_id":"4","last_reported":1718899838,"current_range_meters":0,"station_id":"ce4bgl92rcd13ifvqbq0","pricing_plan_id":"cebpf4jnsgd1na2vs0mg"},{"bike_id":"2bb74573-5462-4421-8953-a6c4a4aa2ee4","system_id":"levelo_inurba_marseille","lat":43.312307,"lon":5.368747,"is_reserved":false,"is_disabled":false,"rental_uris":{"android":"levelo://app?vid=2bb74573-5462-4421-8953-a6c4a4aa2ee4","ios":"levelo://app?vid=2bb74573-5462-4421-8953-a6c4a4aa2ee4"},"vehicle_type_id":"4","last_reported":1718899838,"current_range_meters":0,"station_id":"ce4bgl92rcd13ifvqbq0","pricing_plan_id":"cebpf4jnsgd1na2vs0mg"},{"bike_id":"2caeeda0-8e6b-41a5-8f47-94be9e3efaf8","system_id":"levelo_inurba_marseille","lat":43.314811,"lon":5.373103,"is_reserved":false,"is_disabled":false,"rental_uris":{"android":"levelo://app?vid=2caeeda0-8e6b-41a5-8f47-94be9e3efaf8","ios":"levelo://app?vid=2caeeda0-8e6b-41a5-8f47-94be9e3efaf8"},"vehicle_type_id":"4","last_reported":1718899838,"current_range_meters":26800,"station_id":"ce4bgt12rcd13ifvqcd0","pricing_plan_id":"cebpf4jnsgd1na2vs0mg"},{"bike_id":"b1464667-63cf-42ea-952c-a60cce3c1224","system_id":"levelo_inurba_marseille","lat":43.30887,"lon":5.37191,"is_reserved":false,"is_disabled":false,"rental_uris":{"android":"levelo://app?vid=b1464667-63cf-42ea-952c-a60cce3c1224","ios":"levelo://app?vid=b1464667-63cf-42ea-952c-a60cce3c1224"},"vehicle_type_id":"4","last_reported":1718899838,"current_range_meters":0,"station_id":"ce4bguh2rcd13ifvqckg","pricing_plan_id":"cebpf4jnsgd1na2vs0mg"},{"bike_id":"f97aff80-c409-4a9e-ab7f-ef76505025aa","system_id":"levelo_inurba_marseille","lat":43.31427,"lon":5.37411,"is_reserved":false,"is_disabled":false,"rental_uris":{"android":"levelo://app?vid=f97aff80-c409-4a9e-ab7f-ef76505025aa","ios":"levelo://app?vid=f97aff80-c409-4a9e-ab7f-ef76505025aa"},"vehicle_type_id":"4","last_reported":1718899838,"current_range_meters":30400,"station_id":"","pricing_plan_id":"cebpf4jnsgd1na2vs0mg"},{"bike_id":"9f343050-7df0-4de3-9996-a3657976266e","system_id":"levelo_inurba_marseille","lat":43.316906,"lon":5.372806,"is_reserved":false,"is_disabled":false,"rental_uris":{"android":"levelo://app?vid=9f343050-7df0-4de3-9996-a3657976266e","ios":"levelo://app?vid=9f343050-7df0-4de3-9996-a3657976266e"},"vehicle_type_id":"4","last_reported":1718899838,"current_range_meters":25200,"station_id":"","pricing_plan_id":"cebpf4jnsgd1na2vs0mg"},{"bike_id":"20f31c62-307b-4c16-93b6-6fcc5accd677","system_id":"levelo_inurba_marseille","lat":43.30576,"lon":5.36557,"is_reserved":false,"is_disabled":false,"rental_uris":{"android":"levelo://app?vid=20f31c62-307b-4c16-93b6-6fcc5accd677","ios":"levelo://app?vid=20f31c62-307b-4c16-93b6-6fcc5accd677"},"vehicle_type_id":"4","last_reported":1718899838,"current_range_meters":16400,"station_id":"ce4bgs12rcd13ifvqcag","pricing_plan_id":"cebpf4jnsgd1na2vs0mg"},{"bike_id":"d95ed3f7-4f66-43a5-b342-64a5c6ad9c56","system_id":"levelo_inurba_marseille","lat":43.30543,"lon":5.36701,"is_reserved":false,"is_disabled":false,"rental_uris":{"android":"levelo://app?vid=d95ed3f7-4f66-43a5-b342-64a5c6ad9c56","ios":"levelo://app?vid=d95ed3f7-4f66-43a5-b342-64a5c6ad9c56"},"vehicle_type_id":"4","last_reported":1718899838,"current_range_meters":0,"station_id":"ce4bgrp2rcd13ifvqc9g","pricing_plan_id":"cebpf4jnsgd1na2vs0mg"},{"bike_id":"097a1174-0227-4ff0-b4e5-77508ec41947","system_id":"levelo_inurba_marseille","lat":43.305706,"lon":5.365654,"is_reserved":false,"is_disabled":false,"rental_uris":{"android":"levelo://app?vid=097a1174-0227-4ff0-b4e5-77508ec41947","ios":"levelo://app?vid=097a1174-0227-4ff0-b4e5-77508ec41947"},"vehicle_type_id":"4","last_reported":1718899838,"current_range_meters":0,"station_id":"ce4bgs12rcd13ifvqcag","pricing_plan_id":"cebpf4jnsgd1na2vs0mg"},{"bike_id":"7aaa1cfc-793d-4cd6-b1a4-1332ff398aab","system_id":"levelo_inurba_marseille","lat":43.305989,"lon":5.37225,"is_reserved":false,"is_disabled":false,"rental_uris":{"android":"levelo://app?vid=7aaa1cfc-793d-4cd6-b1a4-1332ff398aab","ios":"levelo://app?vid=7aaa1cfc-793d-4cd6-b1a4-1332ff398aab"},"vehicle_type_id":"4","last_reported":1718899838,"current_range_meters":0,"station_id":"ce4bgqh2rcd13ifvqc4g","pricing_plan_id":"cebpf4jnsgd1na2vs0mg"},{"bike_id":"1bfeb289-a7dd-4f9f-bec1-cee3daf2000f","system_id":"levelo_inurba_marseille","lat":43.30593,"lon":5.37233,"is_reserved":false,"is_disabled":false,"rental_uris":{"android":"levelo://app?vid=1bfeb289-a7dd-4f9f-bec1-cee3daf2000f","ios":"levelo://app?vid=1bfeb289-a7dd-4f9f-bec1-cee3daf2000f"},"vehicle_type_id":"4","last_reported":1718899838,"current_range_meters":24400,"station_id":"ce4bgqh2rcd13ifvqc4g","pricing_plan_id":"cebpf4jnsgd1na2vs0mg"},{"bike_id":"52b453c0-6fd8-4199-8aae-08ca1550ed65","system_id":"levelo_inurba_marseille","lat":43.311131,"lon":5.377651,"is_reserved":false,"is_disabled":false,"rental_uris":{"android":"levelo://app?vid=52b453c0-6fd8-4199-8aae-08ca1550ed65","ios":"levelo://app?vid=52b453c0-6fd8-4199-8aae-08ca1550ed65"},"vehicle_type_id":"4","last_reported":1718899838,"current_range_meters":14800,"station_id":"ce4bgt92rcd13ifvqcg0","pricing_plan_id":"cebpf4jnsgd1na2vs0mg"},{"bike_id":"47ca6406-c9e6-428b-afa3-55dd76db3059","system_id":"levelo_inurba_marseille","lat":43.311131,"lon":5.377651,"is_reserved":false,"is_disabled":false,"rental_uris":{"android":"levelo://app?vid=47ca6406-c9e6-428b-afa3-55dd76db3059","ios":"levelo://app?vid=47ca6406-c9e6-428b-afa3-55dd76db3059"},"vehicle_type_id":"4","last_reported":1718899838,"current_range_meters":4400,"station_id":"ce4bgt92rcd13ifvqcg0","pricing_plan_id":"cebpf4jnsgd1na2vs0mg"},{"bike_id":"e49e6dc0-ce43-4c84-b5f2-6d918ef0cf1c","system_id":"levelo_inurba_marseille","lat":43.31097,"lon":5.37769,"is_reserved":false,"is_disabled":false,"rental_uris":{"android":"levelo://app?vid=e49e6dc0-ce43-4c84-b5f2-6d918ef0cf1c","ios":"levelo://app?vid=e49e6dc0-ce43-4c84-b5f2-6d918ef0cf1c"},"vehicle_type_id":"4","last_reported":1718899838,"current_range_meters":0,"station_id":"ce4bgt92rcd13ifvqcg0","pricing_plan_id":"cebpf4jnsgd1na2vs0mg"},{"bike_id":"e721a822-c927-4558-b7c6-2eb261d00621","system_id":"levelo_inurba_marseille","lat":43.311131,"lon":5.377651,"is_reserved":false,"is_disabled":false,"rental_uris":{"android":"levelo://app?vid=e721a822-c927-4558-b7c6-2eb261d00621","ios":"levelo://app?vid=e721a822-c927-4558-b7c6-2eb261d00621"},"vehicle_type_id":"4","last_reported":1718899838,"current_range_meters":17600,"station_id":"ce4bgt92rcd13ifvqcg0","pricing_plan_id":"cebpf4jnsgd1na2vs0mg"},{"bike_id":"b6f10990-fba0-4570-b7d1-0d2850241f6c","system_id":"levelo_inurba_marseille","lat":43.311125,"lon":5.377624,"is_reserved":false,"is_disabled":false,"rental_uris":{"android":"levelo://app?vid=b6f10990-fba0-4570-b7d1-0d2850241f6c","ios":"levelo://app?vid=b6f10990-fba0-4570-b7d1-0d2850241f6c"},"vehicle_type_id":"4","last_reported":1718899838,"current_range_meters":1200,"station_id":"ce4bgt92rcd13ifvqcg0","pricing_plan_id":"cebpf4jnsgd1na2vs0mg"},{"bike_id":"84270348-143d-45df-98c7-bd464cc88c86","system_id":"levelo_inurba_marseille","lat":43.31109,"lon":5.37778,"is_reserved":false,"is_disabled":false,"rental_uris":{"android":"levelo://app?vid=84270348-143d-45df-98c7-bd464cc88c86","ios":"levelo://app?vid=84270348-143d-45df-98c7-bd464cc88c86"},"vehicle_type_id":"4","last_reported":1718899838,"current_range_meters":9600,"station_id":"ce4bgt92rcd13ifvqcg0","pricing_plan_id":"cebpf4jnsgd1na2vs0mg"},{"bike_id":"059a2d61-7719-4640-a8ca-83de8bd337e2","system_id":"levelo_inurba_marseille","lat":43.30787,"lon":5.37658,"is_reserved":false,"is_disabled":false,"rental_uris":{"android":"levelo://app?vid=059a2d61-7719-4640-a8ca-83de8bd337e2","ios":"levelo://app?vid=059a2d61-7719-4640-a8ca-83de8bd337e2"},"vehicle_type_id":"4","last_reported":1718899838,"current_range_meters":31200,"station_id":"ce4bgv92rcd13ifvqcq0","pricing_plan_id":"cebpf4jnsgd1na2vs0mg"},{"bike_id":"946f227d-b481-4cae-969a-a997f610d847","system_id":"levelo_inurba_marseille","lat":43.307945,"lon":5.376487,"is_reserved":false,"is_disabled":false,"rental_uris":{"android":"levelo://app?vid=946f227d-b481-4cae-969a-a997f610d847","ios":"levelo://app?vid=946f227d-b481-4cae-969a-a997f610d847"},"vehicle_type_id":"4","last_reported":1718899838,"current_range_meters":1200,"station_id":"ce4bgv92rcd13ifvqcq0","pricing_plan_id":"cebpf4jnsgd1na2vs0mg"},{"bike_id":"7d6f3434-5758-4df6-877f-cf72fba6038d","system_id":"levelo_inurba_marseille","lat":43.317075,"lon":5.377367,"is_reserved":false,"is_disabled":false,"rental_uris":{"android":"levelo://app?vid=7d6f3434-5758-4df6-877f-cf72fba6038d","ios":"levelo://app?vid=7d6f3434-5758-4df6-877f-cf72fba6038d"},"vehicle_type_id":"4","last_reported":1718899838,"current_range_meters":23600,"station_id":"ce4bgth2rcd13ifvqch0","pricing_plan_id":"cebpf4jnsgd1na2vs0mg"},{"bike_id":"d47b702c-0c72-4fd5-91be-fcbad7819215","system_id":"levelo_inurba_marseille","lat":43.31538,"lon":5.3803,"is_reserved":false,"is_disabled":false,"rental_uris":{"android":"levelo://app?vid=d47b702c-0c72-4fd5-91be-fcbad7819215","ios":"levelo://app?vid=d47b702c-0c72-4fd5-91be-fcbad7819215"},"vehicle_type_id":"4","last_reported":1718899838,"current_range_meters":29200,"station_id":"ce4bhsp2rcd13ifvqi50","pricing_plan_id":"cebpf4jnsgd1na2vs0mg"},{"bike_id":"22b3dbde-496a-4157-bd1a-ddf8a6b5c649","system_id":"levelo_inurba_marseille","lat":43.3153,"lon":5.38034,"is_reserved":false,"is_disabled":false,"rental_uris":{"android":"levelo://app?vid=22b3dbde-496a-4157-bd1a-ddf8a6b5c649","ios":"levelo://app?vid=22b3dbde-496a-4157-bd1a-ddf8a6b5c649"},"vehicle_type_id":"4","last_reported":1718899838,"current_range_meters":3200,"station_id":"ce4bhsp2rcd13ifvqi50","pricing_plan_id":"cebpf4jnsgd1na2vs0mg"},{"bike_id":"783c636f-7b40-4293-810c-fb884d06e322","system_id":"levelo_inurba_marseille","lat":43.308012,"lon":5.381511,"is_reserved":false,"is_disabled":false,"rental_uris":{"android":"levelo://app?vid=783c636f-7b40-4293-810c-fb884d06e322","ios":"levelo://app?vid=783c636f-7b40-4293-810c-fb884d06e322"},"vehicle_type_id":"4","last_reported":1718899838,"current_range_meters":7200,"station_id":"ce4bgt12rcd13ifvqce0","pricing_plan_id":"cebpf4jnsgd1na2vs0mg"},{"bike_id":"27adb19d-20dc-48c7-92a2-1f9e1bf07375","system_id":"levelo_inurba_marseille","lat":43.30461,"lon":5.37899,"is_reserved":false,"is_disabled":false,"rental_uris":{"android":"levelo://app?vid=27adb19d-20dc-48c7-92a2-1f9e1bf07375","ios":"levelo://app?vid=27adb19d-20dc-48c7-92a2-1f9e1bf07375"},"vehicle_type_id":"4","last_reported":1718899838,"current_range_meters":0,"station_id":"ce4bgup2rcd13ifvqcn0","pricing_plan_id":"cebpf4jnsgd1na2vs0mg"},{"bike_id":"6b448435-06fc-49cd-992c-aaf4fc826f6c","system_id":"levelo_inurba_marseille","lat":43.324771,"lon":5.36557,"is_reserved":false,"is_disabled":false,"rental_uris":{"android":"levelo://app?vid=6b448435-06fc-49cd-992c-aaf4fc826f6c","ios":"levelo://app?vid=6b448435-06fc-49cd-992c-aaf4fc826f6c"},"vehicle_type_id":"4","last_reported":1718899838,"current_range_meters":8000,"station_id":"ce4bhs12rcd13ifvqhvg","pricing_plan_id":"cebpf4jnsgd1na2vs0mg"},{"bike_id":"cfaa6e1d-3fa1-4764-a63a-5202cd61cdcc","system_id":"levelo_inurba_marseille","lat":43.324836,"lon":5.365718,"is_reserved":false,"is_disabled":false,"rental_uris":{"android":"levelo://app?vid=cfaa6e1d-3fa1-4764-a63a-5202cd61cdcc","ios":"levelo://app?vid=cfaa6e1d-3fa1-4764-a63a-5202cd61cdcc"},"vehicle_type_id":"4","last_reported":1718899838,"current_range_meters":0,"station_id":"ce4bhs12rcd13ifvqhvg","pricing_plan_id":"cebpf4jnsgd1na2vs0mg"},{"bike_id":"2e4eedb6-9f53-4953-9163-a76b1ba2d868","system_id":"levelo_inurba_marseille","lat":43.324771,"lon":5.36557,"is_reserved":false,"is_disabled":false,"rental_uris":{"android":"levelo://app?vid=2e4eedb6-9f53-4953-9163-a76b1ba2d868","ios":"levelo://app?vid=2e4eedb6-9f53-4953-9163-a76b1ba2d868"},"vehicle_type_id":"4","last_reported":1718899838,"current_range_meters":18800,"station_id":"ce4bhs12rcd13ifvqhvg","pricing_plan_id":"cebpf4jnsgd1na2vs0mg"},{"bike_id":"c0dcf0b4-440e-4022-a259-1139d270e182","system_id":"levelo_inurba_marseille","lat":43.324771,"lon":5.36557,"is_reserved":false,"is_disabled":false,"rental_uris":{"android":"levelo://app?vid=c0dcf0b4-440e-4022-a259-1139d270e182","ios":"levelo://app?vid=c0dcf0b4-440e-4022-a259-1139d270e182"},"vehicle_type_id":"4","last_reported":1718899838,"current_range_meters":14000,"station_id":"ce4bhs12rcd13ifvqhvg","pricing_plan_id":"cebpf4jnsgd1na2vs0mg"},{"bike_id":"4ede33de-6ab2-4768-afef-1094ff40f64b","system_id":"levelo_inurba_marseille","lat":43.30284,"lon":5.377,"is_reserved":false,"is_disabled":false,"rental_uris":{"android":"levelo://app?vid=4ede33de-6ab2-4768-afef-1094ff40f64b","ios":"levelo://app?vid=4ede33de-6ab2-4768-afef-1094ff40f64b"},"vehicle_type_id":"4","last_reported":1718899838,"current_range_meters":0,"station_id":"ce4bguh2rcd13ifvqcj0","pricing_plan_id":"cebpf4jnsgd1na2vs0mg"},{"bike_id":"aefe324f-1b91-4613-959f-9aa484d3459a","system_id":"levelo_inurba_marseille","lat":43.310804,"lon":5.38359,"is_reserved":false,"is_disabled":false,"rental_uris":{"android":"levelo://app?vid=aefe324f-1b91-4613-959f-9aa484d3459a","ios":"levelo://app?vid=aefe324f-1b91-4613-959f-9aa484d3459a"},"vehicle_type_id":"4","last_reported":1718899838,"current_range_meters":6000,"station_id":"ce4bgv92rcd13ifvqcr0","pricing_plan_id":"cebpf4jnsgd1na2vs0mg"},{"bike_id":"9077a156-a1a2-482e-ac47-00817bf9463b","system_id":"levelo_inurba_marseille","lat":43.30143,"lon":5.37413,"is_reserved":false,"is_disabled":false,"rental_uris":{"android":"levelo://app?vid=9077a156-a1a2-482e-ac47-00817bf9463b","ios":"levelo://app?vid=9077a156-a1a2-482e-ac47-00817bf9463b"},"vehicle_type_id":"4","last_reported":1718899838,"current_range_meters":0,"station_id":"ce4bgs92rcd13ifvqcc0","pricing_plan_id":"cebpf4jnsgd1na2vs0mg"},{"bike_id":"646f8658-d111-41c2-8b45-e4b502958d75","system_id":"levelo_inurba_marseille","lat":43.313571,"lon":5.384829,"is_reserved":false,"is_disabled":false,"rental_uris":{"android":"levelo://app?vid=646f8658-d111-41c2-8b45-e4b502958d75","ios":"levelo://app?vid=646f8658-d111-41c2-8b45-e4b502958d75"},"vehicle_type_id":"4","last_reported":1718899838,"current_range_meters":22000,"station_id":"ce4bgt92rcd13ifvqcf0","pricing_plan_id":"cebpf4jnsgd1na2vs0mg"},{"bike_id":"52edd9b1-9bc7-4311-bf10-05bd045b3937","system_id":"levelo_inurba_marseille","lat":43.299724,"lon":5.371829,"is_reserved":false,"is_disabled":false,"rental_uris":{"android":"levelo://app?vid=52edd9b1-9bc7-4311-bf10-05bd045b3937","ios":"levelo://app?vid=52edd9b1-9bc7-4311-bf10-05bd045b3937"},"vehicle_type_id":"4","last_reported":1718899838,"current_range_meters":12800,"station_id":"ce4bgr92rcd13ifvqc7g","pricing_plan_id":"cebpf4jnsgd1na2vs0mg"},{"bike_id":"a0de98cc-6fe4-4f9f-9aac-58a29e15943b","system_id":"levelo_inurba_marseille","lat":43.299222,"lon":5.365554,"is_reserved":false,"is_disabled":false,"rental_uris":{"android":"levelo://app?vid=a0de98cc-6fe4-4f9f-9aac-58a29e15943b","ios":"levelo://app?vid=a0de98cc-6fe4-4f9f-9aac-58a29e15943b"},"vehicle_type_id":"4","last_reported":1718899838,"current_range_meters":16800,"station_id":"ce4bgm92rcd13ifvqbr0","pricing_plan_id":"cebpf4jnsgd1na2vs0mg"},{"bike_id":"1ff47a86-5660-4e97-859c-4cdbe63c2cf8","system_id":"levelo_inurba_marseille","lat":43.32692,"lon":5.36364,"is_reserved":false,"is_disabled":false,"rental_uris":{"android":"levelo://app?vid=1ff47a86-5660-4e97-859c-4cdbe63c2cf8","ios":"levelo://app?vid=1ff47a86-5660-4e97-859c-4cdbe63c2cf8"},"vehicle_type_id":"4","last_reported":1718899838,"current_range_meters":26000,"station_id":"","pricing_plan_id":"cebpf4jnsgd1na2vs0mg"},{"bike_id":"be0507b6-abae-42a1-8a74-dec47321b2a2","system_id":"levelo_inurba_marseille","lat":43.298433,"lon":5.362774,"is_reserved":false,"is_disabled":false,"rental_uris":{"android":"levelo://app?vid=be0507b6-abae-42a1-8a74-dec47321b2a2","ios":"levelo://app?vid=be0507b6-abae-42a1-8a74-dec47321b2a2"},"vehicle_type_id":"4","last_reported":1718899838,"current_range_meters":28800,"station_id":"ce4bgpp2rcd13ifvqc3g","pricing_plan_id":"cebpf4jnsgd1na2vs0mg"},{"bike_id":"37a55efb-d569-469c-b909-2f0f7417f2ec","system_id":"levelo_inurba_marseille","lat":43.305364,"lon":5.384119,"is_reserved":false,"is_disabled":false,"rental_uris":{"android":"levelo://app?vid=37a55efb-d569-469c-b909-2f0f7417f2ec","ios":"levelo://app?vid=37a55efb-d569-469c-b909-2f0f7417f2ec"},"vehicle_type_id":"4","last_reported":1718899838,"current_range_meters":800,"station_id":"ce4bgg92rcd13ifvqb30","pricing_plan_id":"cebpf4jnsgd1na2vs0mg"},{"bike_id":"c1513b1a-4568-4f9e-9685-dcf346b48c27","system_id":"levelo_inurba_marseille","lat":43.305364,"lon":5.384119,"is_reserved":false,"is_disabled":false,"rental_uris":{"android":"levelo://app?vid=c1513b1a-4568-4f9e-9685-dcf346b48c27","ios":"levelo://app?vid=c1513b1a-4568-4f9e-9685-dcf346b48c27"},"vehicle_type_id":"4","last_reported":1718899838,"current_range_meters":24800,"station_id":"ce4bgg92rcd13ifvqb30","pricing_plan_id":"cebpf4jnsgd1na2vs0mg"},{"bike_id":"2f31150f-34b1-4b08-b85b-40cfa305afda","system_id":"levelo_inurba_marseille","lat":43.305364,"lon":5.384119,"is_reserved":false,"is_disabled":false,"rental_uris":{"android":"levelo://app?vid=2f31150f-34b1-4b08-b85b-40cfa305afda","ios":"levelo://app?vid=2f31150f-34b1-4b08-b85b-40cfa305afda"},"vehicle_type_id":"4","last_reported":1718899838,"current_range_meters":29200,"station_id":"ce4bgg92rcd13ifvqb30","pricing_plan_id":"cebpf4jnsgd1na2vs0mg"},{"bike_id":"88222886-f430-48e9-8f8c-eb6e82e048f8","system_id":"levelo_inurba_marseille","lat":43.311722,"lon":5.387247,"is_reserved":false,"is_disabled":false,"rental_uris":{"android":"levelo://app?vid=88222886-f430-48e9-8f8c-eb6e82e048f8","ios":"levelo://app?vid=88222886-f430-48e9-8f8c-eb6e82e048f8"},"vehicle_type_id":"4","last_reported":1718899838,"current_range_meters":9600,"station_id":"ce4bgv12rcd13ifvqcp0","pricing_plan_id":"cebpf4jnsgd1na2vs0mg"},{"bike_id":"20208526-ac7d-46b3-83a5-f65d4b51d9b9","system_id":"levelo_inurba_marseille","lat":43.311722,"lon":5.387247,"is_reserved":false,"is_disabled":false,"rental_uris":{"android":"levelo://app?vid=20208526-ac7d-46b3-83a5-f65d4b51d9b9","ios":"levelo://app?vid=20208526-ac7d-46b3-83a5-f65d4b51d9b9"},"vehicle_type_id":"4","last_reported":1718899838,"current_range_meters":12400,"station_id":"ce4bgv12rcd13ifvqcp0","pricing_plan_id":"cebpf4jnsgd1na2vs0mg"},{"bike_id":"e8e1e62f-37a0-4b49-8dd1-296cccce035e","system_id":"levelo_inurba_marseille","lat":43.311722,"lon":5.387247,"is_reserved":false,"is_disabled":false,"rental_uris":{"android":"levelo://app?vid=e8e1e62f-37a0-4b49-8dd1-296cccce035e","ios":"levelo://app?vid=e8e1e62f-37a0-4b49-8dd1-296cccce035e"},"vehicle_type_id":"4","last_reported":1718899838,"current_range_meters":30800,"station_id":"ce4bgv12rcd13ifvqcp0","pricing_plan_id":"cebpf4jnsgd1na2vs0mg"},{"bike_id":"a8b410e7-161c-4d53-90bb-dfa014b25901","system_id":"levelo_inurba_marseille","lat":43.297774,"lon":5.370875,"is_reserved":false,"is_disabled":false,"rental_uris":{"android":"levelo://app?vid=a8b410e7-161c-4d53-90bb-dfa014b25901","ios":"levelo://app?vid=a8b410e7-161c-4d53-90bb-dfa014b25901"},"vehicle_type_id":"4","last_reported":1718899838,"current_range_meters":16800,"station_id":"ce4bgop2rcd13ifvqc1g","pricing_plan_id":"cebpf4jnsgd1na2vs0mg"},{"bike_id":"cb9ab90b-4fc1-4a4e-a461-1fd4877e5825","system_id":"levelo_inurba_marseille","lat":43.297163,"lon":5.365866,"is_reserved":false,"is_disabled":false,"rental_uris":{"android":"levelo://app?vid=cb9ab90b-4fc1-4a4e-a461-1fd4877e5825","ios":"levelo://app?vid=cb9ab90b-4fc1-4a4e-a461-1fd4877e5825"},"vehicle_type_id":"4","last_reported":1718899838,"current_range_meters":17600,"station_id":"ce4bgn12rcd13ifvqbt0","pricing_plan_id":"cebpf4jnsgd1na2vs0mg"},{"bike_id":"c338f681-00b5-44a8-af61-64c06e93dc52","system_id":"levelo_inurba_marseille","lat":43.30326,"lon":5.38556,"is_reserved":false,"is_disabled":false,"rental_uris":{"android":"levelo://app?vid=c338f681-00b5-44a8-af61-64c06e93dc52","ios":"levelo://app?vid=c338f681-00b5-44a8-af61-64c06e93dc52"},"vehicle_type_id":"4","last_reported":1718899838,"current_range_meters":25600,"station_id":"","pricing_plan_id":"cebpf4jnsgd1na2vs0mg"},{"bike_id":"7b08a228-37a9-4cef-8bfb-42b0272367e9","system_id":"levelo_inurba_marseille","lat":43.29529,"lon":5.385581,"is_reserved":false,"is_disabled":false,"rental_uris":{"android":"levelo://app?vid=7b08a228-37a9-4cef-8bfb-42b0272367e9","ios":"levelo://app?vid=7b08a228-37a9-4cef-8bfb-42b0272367e9"},"vehicle_type_id":"4","last_reported":1718899838,"current_range_meters":6800,"station_id":"ce4bgih2rcd13ifvqba0","pricing_plan_id":"cebpf4jnsgd1na2vs0mg"},{"bike_id":"8b5436b1-66c7-4612-bcab-40c23ac0d179","system_id":"levelo_inurba_marseille","lat":43.296131,"lon":5.370791,"is_reserved":false,"is_disabled":false,"rental_uris":{"android":"levelo://app?vid=8b5436b1-66c7-4612-bcab-40c23ac0d179","ios":"levelo://app?vid=8b5436b1-66c7-4612-bcab-40c23ac0d179"},"vehicle_type_id":"4","last_reported":1718899838,"current_range_meters":6000,"station_id":"ce4bgnh2rcd13ifvqc0g","pricing_plan_id":"cebpf4jnsgd1na2vs0mg"},{"bike_id":"966bd79e-91e1-4e3c-be80-037d20e17067","system_id":"levelo_inurba_marseille","lat":43.296131,"lon":5.370773,"is_reserved":false,"is_disabled":false,"rental_uris":{"android":"levelo://app?vid=966bd79e-91e1-4e3c-be80-037d20e17067","ios":"levelo://app?vid=966bd79e-91e1-4e3c-be80-037d20e17067"},"vehicle_type_id":"4","last_reported":1718899838,"current_range_meters":5600,"station_id":"ce4bgnh2rcd13ifvqc0g","pricing_plan_id":"cebpf4jnsgd1na2vs0mg"},{"bike_id":"c1556506-9352-4310-8f2a-04e03617d74f","system_id":"levelo_inurba_marseille","lat":43.296129,"lon":5.370777,"is_reserved":false,"is_disabled":false,"rental_uris":{"android":"levelo://app?vid=c1556506-9352-4310-8f2a-04e03617d74f","ios":"levelo://app?vid=c1556506-9352-4310-8f2a-04e03617d74f"},"vehicle_type_id":"4","last_reported":1718899838,"current_range_meters":18800,"station_id":"ce4bgnh2rcd13ifvqc0g","pricing_plan_id":"cebpf4jnsgd1na2vs0mg"},{"bike_id":"80a86e34-7158-4ea6-8c94-e79ebc0499e4","system_id":"levelo_inurba_marseille","lat":43.29901,"lon":5.38147,"is_reserved":false,"is_disabled":false,"rental_uris":{"android":"levelo://app?vid=80a86e34-7158-4ea6-8c94-e79ebc0499e4","ios":"levelo://app?vid=80a86e34-7158-4ea6-8c94-e79ebc0499e4"},"vehicle_type_id":"4","last_reported":1718899838,"current_range_meters":18000,"station_id":"ce4bgj12rcd13ifvqbc0","pricing_plan_id":"cebpf4jnsgd1na2vs0mg"},{"bike_id":"3e998d07-e44a-4bc9-9cad-5ce89fcd7300","system_id":"levelo_inurba_marseille","lat":43.296921,"lon":5.376579,"is_reserved":false,"is_disabled":false,"rental_uris":{"android":"levelo://app?vid=3e998d07-e44a-4bc9-9cad-5ce89fcd7300","ios":"levelo://app?vid=3e998d07-e44a-4bc9-9cad-5ce89fcd7300"},"vehicle_type_id":"4","last_reported":1718899838,"current_range_meters":22800,"station_id":"ce4bgkh2rcd13ifvqbl0","pricing_plan_id":"cebpf4jnsgd1na2vs0mg"},{"bike_id":"5b42708e-b6d9-4bd7-9fb5-97848402d879","system_id":"levelo_inurba_marseille","lat":43.309589,"lon":5.390258,"is_reserved":false,"is_disabled":false,"rental_uris":{"android":"levelo://app?vid=5b42708e-b6d9-4bd7-9fb5-97848402d879","ios":"levelo://app?vid=5b42708e-b6d9-4bd7-9fb5-97848402d879"},"vehicle_type_id":"4","last_reported":1718899838,"current_range_meters":12400,"station_id":"ce4bgup2rcd13ifvqco0","pricing_plan_id":"cebpf4jnsgd1na2vs0mg"},{"bike_id":"6213e183-3148-40c8-8714-2c49e5d6b723","system_id":"levelo_inurba_marseille","lat":43.317557,"lon":5.390173,"is_reserved":false,"is_disabled":false,"rental_uris":{"android":"levelo://app?vid=6213e183-3148-40c8-8714-2c49e5d6b723","ios":"levelo://app?vid=6213e183-3148-40c8-8714-2c49e5d6b723"},"vehicle_type_id":"4","last_reported":1718899838,"current_range_meters":24000,"station_id":"ce4bhqp2rcd13ifvqhng","pricing_plan_id":"cebpf4jnsgd1na2vs0mg"},{"bike_id":"6683fb64-2e54-4190-a2ee-1aa2a7d83dc4","system_id":"levelo_inurba_marseille","lat":43.298037,"lon":5.381066,"is_reserved":false,"is_disabled":false,"rental_uris":{"android":"levelo://app?vid=6683fb64-2e54-4190-a2ee-1aa2a7d83dc4","ios":"levelo://app?vid=6683fb64-2e54-4190-a2ee-1aa2a7d83dc4"},"vehicle_type_id":"4","last_reported":1718899838,"current_range_meters":13600,"station_id":"ce4bgip2rcd13ifvqbb0","pricing_plan_id":"cebpf4jnsgd1na2vs0mg"},{"bike_id":"be44e030-4c44-430e-94b1-f0629b31c084","system_id":"levelo_inurba_marseille","lat":43.304274,"lon":5.388873,"is_reserved":false,"is_disabled":false,"rental_uris":{"android":"levelo://app?vid=be44e030-4c44-430e-94b1-f0629b31c084","ios":"levelo://app?vid=be44e030-4c44-430e-94b1-f0629b31c084"},"vehicle_type_id":"4","last_reported":1718899838,"current_range_meters":13200,"station_id":"ce4bgk12rcd13ifvqbi0","pricing_plan_id":"cebpf4jnsgd1na2vs0mg"},{"bike_id":"7720a3d7-d890-42e3-b36e-37a701489197","system_id":"levelo_inurba_marseille","lat":43.304274,"lon":5.388873,"is_reserved":false,"is_disabled":false,"rental_uris":{"android":"levelo://app?vid=7720a3d7-d890-42e3-b36e-37a701489197","ios":"levelo://app?vid=7720a3d7-d890-42e3-b36e-37a701489197"},"vehicle_type_id":"4","last_reported":1718899838,"current_range_meters":22400,"station_id":"ce4bgk12rcd13ifvqbi0","pricing_plan_id":"cebpf4jnsgd1na2vs0mg"},{"bike_id":"0eec549c-bae5-4d71-abbb-a6272449f4ff","system_id":"levelo_inurba_marseille","lat":43.296277,"lon":5.377108,"is_reserved":false,"is_disabled":false,"rental_uris":{"android":"levelo://app?vid=0eec549c-bae5-4d71-abbb-a6272449f4ff","ios":"levelo://app?vid=0eec549c-bae5-4d71-abbb-a6272449f4ff"},"vehicle_type_id":"4","last_reported":1718899838,"current_range_meters":6000,"station_id":"ce4bgi92rcd13ifvqb90","pricing_plan_id":"cebpf4jnsgd1na2vs0mg"},{"bike_id":"5658eb09-ae40-48ac-b580-958432d3b08c","system_id":"levelo_inurba_marseille","lat":43.296,"lon":5.37716,"is_reserved":false,"is_disabled":false,"rental_uris":{"android":"levelo://app?vid=5658eb09-ae40-48ac-b580-958432d3b08c","ios":"levelo://app?vid=5658eb09-ae40-48ac-b580-958432d3b08c"},"vehicle_type_id":"4","last_reported":1718899838,"current_range_meters":0,"station_id":"ce4bgi92rcd13ifvqb90","pricing_plan_id":"cebpf4jnsgd1na2vs0mg"},{"bike_id":"e056b4d6-5737-4be0-8a13-02b3a8201468","system_id":"levelo_inurba_marseille","lat":43.295279,"lon":5.375048,"is_reserved":false,"is_disabled":false,"rental_uris":{"android":"levelo://app?vid=e056b4d6-5737-4be0-8a13-02b3a8201468","ios":"levelo://app?vid=e056b4d6-5737-4be0-8a13-02b3a8201468"},"vehicle_type_id":"4","last_reported":1718899838,"current_range_meters":13200,"station_id":"ce4bgkp2rcd13ifvqbmg","pricing_plan_id":"cebpf4jnsgd1na2vs0mg"},{"bike_id":"5b9eb460-118e-4bde-9633-47d46362b9a3","system_id":"levelo_inurba_marseille","lat":43.295279,"lon":5.375048,"is_reserved":false,"is_disabled":false,"rental_uris":{"android":"levelo://app?vid=5b9eb460-118e-4bde-9633-47d46362b9a3","ios":"levelo://app?vid=5b9eb460-118e-4bde-9633-47d46362b9a3"},"vehicle_type_id":"4","last_reported":1718899838,"current_range_meters":22000,"station_id":"ce4bgkp2rcd13ifvqbmg","pricing_plan_id":"cebpf4jnsgd1na2vs0mg"},{"bike_id":"202fb2e5-89ca-4538-8bb7-cdb63339fd18","system_id":"levelo_inurba_marseille","lat":43.29369,"lon":5.37211,"is_reserved":false,"is_disabled":false,"rental_uris":{"android":"levelo://app?vid=202fb2e5-89ca-4538-8bb7-cdb63339fd18","ios":"levelo://app?vid=202fb2e5-89ca-4538-8bb7-cdb63339fd18"},"vehicle_type_id":"4","last_reported":1718899838,"current_range_meters":31200,"station_id":"","pricing_plan_id":"cebpf4jnsgd1na2vs0mg"},{"bike_id":"ca3145eb-0e76-458c-9fad-d6bcd1f70d6e","system_id":"levelo_inurba_marseille","lat":43.29342,"lon":5.37131,"is_reserved":false,"is_disabled":false,"rental_uris":{"android":"levelo://app?vid=ca3145eb-0e76-458c-9fad-d6bcd1f70d6e","ios":"levelo://app?vid=ca3145eb-0e76-458c-9fad-d6bcd1f70d6e"},"vehicle_type_id":"4","last_reported":1718899838,"current_range_meters":20800,"station_id":"","pricing_plan_id":"cebpf4jnsgd1na2vs0mg"},{"bike_id":"d8e3270f-d83f-4c3c-998e-7a7fb2f87c4c","system_id":"levelo_inurba_marseille","lat":43.29602,"lon":5.381084,"is_reserved":false,"is_disabled":false,"rental_uris":{"android":"levelo://app?vid=d8e3270f-d83f-4c3c-998e-7a7fb2f87c4c","ios":"levelo://app?vid=d8e3270f-d83f-4c3c-998e-7a7fb2f87c4c"},"vehicle_type_id":"4","last_reported":1718899838,"current_range_meters":3600,"station_id":"ce4bgl12rcd13ifvqbo0","pricing_plan_id":"cebpf4jnsgd1na2vs0mg"},{"bike_id":"3f2f2b65-5aa1-4f62-ad38-7566cc6d327a","system_id":"levelo_inurba_marseille","lat":43.2928,"lon":5.36853,"is_reserved":false,"is_disabled":false,"rental_uris":{"android":"levelo://app?vid=3f2f2b65-5aa1-4f62-ad38-7566cc6d327a","ios":"levelo://app?vid=3f2f2b65-5aa1-4f62-ad38-7566cc6d327a"},"vehicle_type_id":"4","last_reported":1718899838,"current_range_meters":19600,"station_id":"ce4bhbp2rcd13ifvqesg","pricing_plan_id":"cebpf4jnsgd1na2vs0mg"},{"bike_id":"f944c8dd-6d82-4828-a433-19c54edcf72e","system_id":"levelo_inurba_marseille","lat":43.293259,"lon":5.371586,"is_reserved":false,"is_disabled":false,"rental_uris":{"android":"levelo://app?vid=f944c8dd-6d82-4828-a433-19c54edcf72e","ios":"levelo://app?vid=f944c8dd-6d82-4828-a433-19c54edcf72e"},"vehicle_type_id":"4","last_reported":1718899838,"current_range_meters":13200,"station_id":"ce4bgh92rcd13ifvqb40","pricing_plan_id":"cebpf4jnsgd1na2vs0mg"},{"bike_id":"f6a4409f-f544-4c7f-918c-8dcba496b9ef","system_id":"levelo_inurba_marseille","lat":43.293249,"lon":5.371578,"is_reserved":false,"is_disabled":false,"rental_uris":{"android":"levelo://app?vid=f6a4409f-f544-4c7f-918c-8dcba496b9ef","ios":"levelo://app?vid=f6a4409f-f544-4c7f-918c-8dcba496b9ef"},"vehicle_type_id":"4","last_reported":1718899838,"current_range_meters":18000,"station_id":"ce4bgh92rcd13ifvqb40","pricing_plan_id":"cebpf4jnsgd1na2vs0mg"},{"bike_id":"ecbffdf4-4258-4593-8e4c-457af705cba9","system_id":"levelo_inurba_marseille","lat":43.292749,"lon":5.368402,"is_reserved":false,"is_disabled":false,"rental_uris":{"android":"levelo://app?vid=ecbffdf4-4258-4593-8e4c-457af705cba9","ios":"levelo://app?vid=ecbffdf4-4258-4593-8e4c-457af705cba9"},"vehicle_type_id":"4","last_reported":1718899838,"current_range_meters":0,"station_id":"ce4bhbp2rcd13ifvqesg","pricing_plan_id":"cebpf4jnsgd1na2vs0mg"},{"bike_id":"4260a5ce-0da5-41f4-a42c-23b6f0c0ec7d","system_id":"levelo_inurba_marseille","lat":43.293259,"lon":5.371586,"is_reserved":false,"is_disabled":false,"rental_uris":{"android":"levelo://app?vid=4260a5ce-0da5-41f4-a42c-23b6f0c0ec7d","ios":"levelo://app?vid=4260a5ce-0da5-41f4-a42c-23b6f0c0ec7d"},"vehicle_type_id":"4","last_reported":1718899838,"current_range_meters":0,"station_id":"ce4bgh92rcd13ifvqb40","pricing_plan_id":"cebpf4jnsgd1na2vs0mg"},{"bike_id":"a04f81bd-49f5-45a0-962e-f197e50de866","system_id":"levelo_inurba_marseille","lat":43.293249,"lon":5.371578,"is_reserved":false,"is_disabled":false,"rental_uris":{"android":"levelo://app?vid=a04f81bd-49f5-45a0-962e-f197e50de866","ios":"levelo://app?vid=a04f81bd-49f5-45a0-962e-f197e50de866"},"vehicle_type_id":"4","last_reported":1718899838,"current_range_meters":31200,"station_id":"ce4bgh92rcd13ifvqb40","pricing_plan_id":"cebpf4jnsgd1na2vs0mg"},{"bike_id":"3e45fa16-bcf3-4ee1-aac7-3a5e4f15df04","system_id":"levelo_inurba_marseille","lat":43.313291,"lon":5.396838,"is_reserved":false,"is_disabled":false,"rental_uris":{"android":"levelo://app?vid=3e45fa16-bcf3-4ee1-aac7-3a5e4f15df04","ios":"levelo://app?vid=3e45fa16-bcf3-4ee1-aac7-3a5e4f15df04"},"vehicle_type_id":"4","last_reported":1718899838,"current_range_meters":7600,"station_id":"ce4bgvp2rcd13ifvqcu0","pricing_plan_id":"cebpf4jnsgd1na2vs0mg"},{"bike_id":"28186e11-e7db-49b5-ac70-d0c9be4fb24a","system_id":"levelo_inurba_marseille","lat":43.30599,"lon":5.39365,"is_reserved":false,"is_disabled":false,"rental_uris":{"android":"levelo://app?vid=28186e11-e7db-49b5-ac70-d0c9be4fb24a","ios":"levelo://app?vid=28186e11-e7db-49b5-ac70-d0c9be4fb24a"},"vehicle_type_id":"4","last_reported":1718899838,"current_range_meters":0,"station_id":"ce4bh0p2rcd13ifvqd80","pricing_plan_id":"cebpf4jnsgd1na2vs0mg"},{"bike_id":"6c472638-8c02-4e44-bce7-ceeee554a504","system_id":"levelo_inurba_marseille","lat":43.293009,"lon":5.374584,"is_reserved":false,"is_disabled":false,"rental_uris":{"android":"levelo://app?vid=6c472638-8c02-4e44-bce7-ceeee554a504","ios":"levelo://app?vid=6c472638-8c02-4e44-bce7-ceeee554a504"},"vehicle_type_id":"4","last_reported":1718899838,"current_range_meters":10800,"station_id":"ce4bgi12rcd13ifvqb70","pricing_plan_id":"cebpf4jnsgd1na2vs0mg"},{"bike_id":"8c51d11d-3f10-44da-8a0b-56c2ea69c7b6","system_id":"levelo_inurba_marseille","lat":43.30306,"lon":5.39218,"is_reserved":false,"is_disabled":false,"rental_uris":{"android":"levelo://app?vid=8c51d11d-3f10-44da-8a0b-56c2ea69c7b6","ios":"levelo://app?vid=8c51d11d-3f10-44da-8a0b-56c2ea69c7b6"},"vehicle_type_id":"4","last_reported":1718899838,"current_range_meters":22800,"station_id":"ce4bgkh2rcd13ifvqbk0","pricing_plan_id":"cebpf4jnsgd1na2vs0mg"},{"bike_id":"afed13b4-4362-4f30-a664-79de6aa85618","system_id":"levelo_inurba_marseille","lat":43.302992,"lon":5.392136,"is_reserved":false,"is_disabled":false,"rental_uris":{"android":"levelo://app?vid=afed13b4-4362-4f30-a664-79de6aa85618","ios":"levelo://app?vid=afed13b4-4362-4f30-a664-79de6aa85618"},"vehicle_type_id":"4","last_reported":1718899838,"current_range_meters":19200,"station_id":"ce4bgkh2rcd13ifvqbk0","pricing_plan_id":"cebpf4jnsgd1na2vs0mg"},{"bike_id":"1270da5b-1d98-4b85-b033-86ae27dd66e4","system_id":"levelo_inurba_marseille","lat":43.302992,"lon":5.392136,"is_reserved":false,"is_disabled":false,"rental_uris":{"android":"levelo://app?vid=1270da5b-1d98-4b85-b033-86ae27dd66e4","ios":"levelo://app?vid=1270da5b-1d98-4b85-b033-86ae27dd66e4"},"vehicle_type_id":"4","last_reported":1718899838,"current_range_meters":16000,"station_id":"ce4bgkh2rcd13ifvqbk0","pricing_plan_id":"cebpf4jnsgd1na2vs0mg"},{"bike_id":"f1ad932c-1582-4000-9ea5-b182650293ec","system_id":"levelo_inurba_marseille","lat":43.303002,"lon":5.392142,"is_reserved":false,"is_disabled":false,"rental_uris":{"android":"levelo://app?vid=f1ad932c-1582-4000-9ea5-b182650293ec","ios":"levelo://app?vid=f1ad932c-1582-4000-9ea5-b182650293ec"},"vehicle_type_id":"4","last_reported":1718899838,"current_range_meters":3200,"station_id":"ce4bgkh2rcd13ifvqbk0","pricing_plan_id":"cebpf4jnsgd1na2vs0mg"},{"bike_id":"6d56967e-4c02-44de-8b0a-022d901eb480","system_id":"levelo_inurba_marseille","lat":43.292311,"lon":5.360731,"is_reserved":false,"is_disabled":false,"rental_uris":{"android":"levelo://app?vid=6d56967e-4c02-44de-8b0a-022d901eb480","ios":"levelo://app?vid=6d56967e-4c02-44de-8b0a-022d901eb480"},"vehicle_type_id":"4","last_reported":1718899838,"current_range_meters":0,"station_id":"ce4bhbh2rcd13ifvqeqg","pricing_plan_id":"cebpf4jnsgd1na2vs0mg"},{"bike_id":"aa75f16d-77e4-412e-bc63-4e4cc711b01e","system_id":"levelo_inurba_marseille","lat":43.292311,"lon":5.360731,"is_reserved":false,"is_disabled":false,"rental_uris":{"android":"levelo://app?vid=aa75f16d-77e4-412e-bc63-4e4cc711b01e","ios":"levelo://app?vid=aa75f16d-77e4-412e-bc63-4e4cc711b01e"},"vehicle_type_id":"4","last_reported":1718899838,"current_range_meters":2000,"station_id":"ce4bhbh2rcd13ifvqeqg","pricing_plan_id":"cebpf4jnsgd1na2vs0mg"},{"bike_id":"a89d4e7d-950d-4407-a6fc-db954d9e8dfd","system_id":"levelo_inurba_marseille","lat":43.29228,"lon":5.36053,"is_reserved":false,"is_disabled":false,"rental_uris":{"android":"levelo://app?vid=a89d4e7d-950d-4407-a6fc-db954d9e8dfd","ios":"levelo://app?vid=a89d4e7d-950d-4407-a6fc-db954d9e8dfd"},"vehicle_type_id":"4","last_reported":1718899838,"current_range_meters":0,"station_id":"ce4bhbh2rcd13ifvqeqg","pricing_plan_id":"cebpf4jnsgd1na2vs0mg"},{"bike_id":"f1d3648d-f16c-4250-bf03-8cb6a43b626c","system_id":"levelo_inurba_marseille","lat":43.29224,"lon":5.36069,"is_reserved":false,"is_disabled":false,"rental_uris":{"android":"levelo://app?vid=f1d3648d-f16c-4250-bf03-8cb6a43b626c","ios":"levelo://app?vid=f1d3648d-f16c-4250-bf03-8cb6a43b626c"},"vehicle_type_id":"4","last_reported":1718899838,"current_range_meters":0,"station_id":"ce4bhbh2rcd13ifvqeqg","pricing_plan_id":"cebpf4jnsgd1na2vs0mg"},{"bike_id":"98392ce9-b7a1-4e1e-807a-63670493af64","system_id":"levelo_inurba_marseille","lat":43.30085,"lon":5.390856,"is_reserved":false,"is_disabled":false,"rental_uris":{"android":"levelo://app?vid=98392ce9-b7a1-4e1e-807a-63670493af64","ios":"levelo://app?vid=98392ce9-b7a1-4e1e-807a-63670493af64"},"vehicle_type_id":"4","last_reported":1718899838,"current_range_meters":8400,"station_id":"ce4bh192rcd13ifvqdb0","pricing_plan_id":"cebpf4jnsgd1na2vs0mg"},{"bike_id":"48736190-c316-4250-8945-9051f6b34510","system_id":"levelo_inurba_marseille","lat":43.30085,"lon":5.390856,"is_reserved":false,"is_disabled":false,"rental_uris":{"android":"levelo://app?vid=48736190-c316-4250-8945-9051f6b34510","ios":"levelo://app?vid=48736190-c316-4250-8945-9051f6b34510"},"vehicle_type_id":"4","last_reported":1718899838,"current_range_meters":11200,"station_id":"ce4bh192rcd13ifvqdb0","pricing_plan_id":"cebpf4jnsgd1na2vs0mg"},{"bike_id":"dec3bd39-71d4-48b1-98f0-4a3f4ed80e24","system_id":"levelo_inurba_marseille","lat":43.298764,"lon":5.388973,"is_reserved":false,"is_disabled":false,"rental_uris":{"android":"levelo://app?vid=dec3bd39-71d4-48b1-98f0-4a3f4ed80e24","ios":"levelo://app?vid=dec3bd39-71d4-48b1-98f0-4a3f4ed80e24"},"vehicle_type_id":"4","last_reported":1718899838,"current_range_meters":17200,"station_id":"ce4bh392rcd13ifvqdl0","pricing_plan_id":"cebpf4jnsgd1na2vs0mg"},{"bike_id":"492d0e15-5d0d-45fb-b654-ff7af648b4ae","system_id":"levelo_inurba_marseille","lat":43.29875,"lon":5.38905,"is_reserved":false,"is_disabled":false,"rental_uris":{"android":"levelo://app?vid=492d0e15-5d0d-45fb-b654-ff7af648b4ae","ios":"levelo://app?vid=492d0e15-5d0d-45fb-b654-ff7af648b4ae"},"vehicle_type_id":"4","last_reported":1718899838,"current_range_meters":5200,"station_id":"ce4bh392rcd13ifvqdl0","pricing_plan_id":"cebpf4jnsgd1na2vs0mg"},{"bike_id":"723a2656-e9bf-42af-bdff-07e71699ba3d","system_id":"levelo_inurba_marseille","lat":43.29876,"lon":5.38907,"is_reserved":false,"is_disabled":false,"rental_uris":{"android":"levelo://app?vid=723a2656-e9bf-42af-bdff-07e71699ba3d","ios":"levelo://app?vid=723a2656-e9bf-42af-bdff-07e71699ba3d"},"vehicle_type_id":"4","last_reported":1718899838,"current_range_meters":19200,"station_id":"ce4bh392rcd13ifvqdl0","pricing_plan_id":"cebpf4jnsgd1na2vs0mg"},{"bike_id":"5f40f8cf-bb29-45ea-8212-c67d5e6bc44b","system_id":"levelo_inurba_marseille","lat":43.298764,"lon":5.388973,"is_reserved":false,"is_disabled":false,"rental_uris":{"android":"levelo://app?vid=5f40f8cf-bb29-45ea-8212-c67d5e6bc44b","ios":"levelo://app?vid=5f40f8cf-bb29-45ea-8212-c67d5e6bc44b"},"vehicle_type_id":"4","last_reported":1718899838,"current_range_meters":31200,"station_id":"ce4bh392rcd13ifvqdl0","pricing_plan_id":"cebpf4jnsgd1na2vs0mg"},{"bike_id":"50aa7455-b348-4d8e-93ae-c6cf8b80fc1a","system_id":"levelo_inurba_marseille","lat":43.29204,"lon":5.35799,"is_reserved":false,"is_disabled":false,"rental_uris":{"android":"levelo://app?vid=50aa7455-b348-4d8e-93ae-c6cf8b80fc1a","ios":"levelo://app?vid=50aa7455-b348-4d8e-93ae-c6cf8b80fc1a"},"vehicle_type_id":"4","last_reported":1718899838,"current_range_meters":1200,"station_id":"ce4bhb12rcd13ifvqel0","pricing_plan_id":"cebpf4jnsgd1na2vs0mg"},{"bike_id":"012c9682-ba07-406a-98fb-d09e32d8c69e","system_id":"levelo_inurba_marseille","lat":43.292005,"lon":5.357875,"is_reserved":false,"is_disabled":false,"rental_uris":{"android":"levelo://app?vid=012c9682-ba07-406a-98fb-d09e32d8c69e","ios":"levelo://app?vid=012c9682-ba07-406a-98fb-d09e32d8c69e"},"vehicle_type_id":"4","last_reported":1718899838,"current_range_meters":22400,"station_id":"ce4bhb12rcd13ifvqel0","pricing_plan_id":"cebpf4jnsgd1na2vs0mg"},{"bike_id":"b524c248-0132-4f17-a9c3-fe41a9d0fb2b","system_id":"levelo_inurba_marseille","lat":43.291998,"lon":5.358083,"is_reserved":false,"is_disabled":false,"rental_uris":{"android":"levelo://app?vid=b524c248-0132-4f17-a9c3-fe41a9d0fb2b","ios":"levelo://app?vid=b524c248-0132-4f17-a9c3-fe41a9d0fb2b"},"vehicle_type_id":"4","last_reported":1718899838,"current_range_meters":800,"station_id":"","pricing_plan_id":"cebpf4jnsgd1na2vs0mg"},{"bike_id":"5bb83235-4abb-42f4-a9b5-dd559b6e5602","system_id":"levelo_inurba_marseille","lat":43.292005,"lon":5.357875,"is_reserved":false,"is_disabled":false,"rental_uris":{"android":"levelo://app?vid=5bb83235-4abb-42f4-a9b5-dd559b6e5602","ios":"levelo://app?vid=5bb83235-4abb-42f4-a9b5-dd559b6e5602"},"vehicle_type_id":"4","last_reported":1718899838,"current_range_meters":0,"station_id":"ce4bhb12rcd13ifvqel0","pricing_plan_id":"cebpf4jnsgd1na2vs0mg"},{"bike_id":"66124b79-9464-42d0-8191-3499b0fc47bf","system_id":"levelo_inurba_marseille","lat":43.29199,"lon":5.35797,"is_reserved":false,"is_disabled":false,"rental_uris":{"android":"levelo://app?vid=66124b79-9464-42d0-8191-3499b0fc47bf","ios":"levelo://app?vid=66124b79-9464-42d0-8191-3499b0fc47bf"},"vehicle_type_id":"4","last_reported":1718899838,"current_range_meters":8800,"station_id":"ce4bhb12rcd13ifvqel0","pricing_plan_id":"cebpf4jnsgd1na2vs0mg"},{"bike_id":"55713592-b9b6-4cee-9917-976a1d6c102e","system_id":"levelo_inurba_marseille","lat":43.309038,"lon":5.396546,"is_reserved":false,"is_disabled":false,"rental_uris":{"android":"levelo://app?vid=55713592-b9b6-4cee-9917-976a1d6c102e","ios":"levelo://app?vid=55713592-b9b6-4cee-9917-976a1d6c102e"},"vehicle_type_id":"4","last_reported":1718899838,"current_range_meters":18800,"station_id":"ce4bh012rcd13ifvqcv0","pricing_plan_id":"cebpf4jnsgd1na2vs0mg"},{"bike_id":"9aec08e2-c98c-4a6e-8b0b-885f11ebff3c","system_id":"levelo_inurba_marseille","lat":43.292005,"lon":5.357875,"is_reserved":false,"is_disabled":false,"rental_uris":{"android":"levelo://app?vid=9aec08e2-c98c-4a6e-8b0b-885f11ebff3c","ios":"levelo://app?vid=9aec08e2-c98c-4a6e-8b0b-885f11ebff3c"},"vehicle_type_id":"4","last_reported":1718899838,"current_range_meters":10000,"station_id":"ce4bhb12rcd13ifvqel0","pricing_plan_id":"cebpf4jnsgd1na2vs0mg"},{"bike_id":"e1ff6e11-aa39-4148-8742-014fe5acd8cd","system_id":"levelo_inurba_marseille","lat":43.309038,"lon":5.396546,"is_reserved":false,"is_disabled":false,"rental_uris":{"android":"levelo://app?vid=e1ff6e11-aa39-4148-8742-014fe5acd8cd","ios":"levelo://app?vid=e1ff6e11-aa39-4148-8742-014fe5acd8cd"},"vehicle_type_id":"4","last_reported":1718899838,"current_range_meters":9600,"station_id":"ce4bh012rcd13ifvqcv0","pricing_plan_id":"cebpf4jnsgd1na2vs0mg"},{"bike_id":"d4c453d0-4e05-4e14-bf2c-bbca72445e44","system_id":"levelo_inurba_marseille","lat":43.31332,"lon":5.39687,"is_reserved":false,"is_disabled":false,"rental_uris":{"android":"levelo://app?vid=d4c453d0-4e05-4e14-bf2c-bbca72445e44","ios":"levelo://app?vid=d4c453d0-4e05-4e14-bf2c-bbca72445e44"},"vehicle_type_id":"4","last_reported":1718899838,"current_range_meters":800,"station_id":"ce4bgvp2rcd13ifvqcu0","pricing_plan_id":"cebpf4jnsgd1na2vs0mg"},{"bike_id":"fdbbaad0-f459-48ca-bd3c-e22bbe923d17","system_id":"levelo_inurba_marseille","lat":43.291994,"lon":5.357886,"is_reserved":false,"is_disabled":false,"rental_uris":{"android":"levelo://app?vid=fdbbaad0-f459-48ca-bd3c-e22bbe923d17","ios":"levelo://app?vid=fdbbaad0-f459-48ca-bd3c-e22bbe923d17"},"vehicle_type_id":"4","last_reported":1718899838,"current_range_meters":16000,"station_id":"ce4bhb12rcd13ifvqel0","pricing_plan_id":"cebpf4jnsgd1na2vs0mg"},{"bike_id":"797226b6-2925-41c1-b928-b88caed9c4dd","system_id":"levelo_inurba_marseille","lat":43.309038,"lon":5.396546,"is_reserved":false,"is_disabled":false,"rental_uris":{"android":"levelo://app?vid=797226b6-2925-41c1-b928-b88caed9c4dd","ios":"levelo://app?vid=797226b6-2925-41c1-b928-b88caed9c4dd"},"vehicle_type_id":"4","last_reported":1718899838,"current_range_meters":0,"station_id":"ce4bh012rcd13ifvqcv0","pricing_plan_id":"cebpf4jnsgd1na2vs0mg"},{"bike_id":"e00c7ffe-ab0f-4990-abb3-4f62ab02c109","system_id":"levelo_inurba_marseille","lat":43.309038,"lon":5.396546,"is_reserved":false,"is_disabled":false,"rental_uris":{"android":"levelo://app?vid=e00c7ffe-ab0f-4990-abb3-4f62ab02c109","ios":"levelo://app?vid=e00c7ffe-ab0f-4990-abb3-4f62ab02c109"},"vehicle_type_id":"4","last_reported":1718899838,"current_range_meters":30400,"station_id":"ce4bh012rcd13ifvqcv0","pricing_plan_id":"cebpf4jnsgd1na2vs0mg"},{"bike_id":"436defd1-790c-4d09-9071-7c1d008fdce0","system_id":"levelo_inurba_marseille","lat":43.309038,"lon":5.396546,"is_reserved":false,"is_disabled":false,"rental_uris":{"android":"levelo://app?vid=436defd1-790c-4d09-9071-7c1d008fdce0","ios":"levelo://app?vid=436defd1-790c-4d09-9071-7c1d008fdce0"},"vehicle_type_id":"4","last_reported":1718899838,"current_range_meters":30000,"station_id":"ce4bh012rcd13ifvqcv0","pricing_plan_id":"cebpf4jnsgd1na2vs0mg"},{"bike_id":"b661cc9b-a651-43f9-9d0f-81bdac6e2058","system_id":"levelo_inurba_marseille","lat":43.309047,"lon":5.396551,"is_reserved":false,"is_disabled":false,"rental_uris":{"android":"levelo://app?vid=b661cc9b-a651-43f9-9d0f-81bdac6e2058","ios":"levelo://app?vid=b661cc9b-a651-43f9-9d0f-81bdac6e2058"},"vehicle_type_id":"4","last_reported":1718899838,"current_range_meters":31200,"station_id":"ce4bh012rcd13ifvqcv0","pricing_plan_id":"cebpf4jnsgd1na2vs0mg"},{"bike_id":"d84e9533-ca4a-42cf-a361-f32df36636b3","system_id":"levelo_inurba_marseille","lat":43.31323,"lon":5.39692,"is_reserved":false,"is_disabled":false,"rental_uris":{"android":"levelo://app?vid=d84e9533-ca4a-42cf-a361-f32df36636b3","ios":"levelo://app?vid=d84e9533-ca4a-42cf-a361-f32df36636b3"},"vehicle_type_id":"4","last_reported":1718899838,"current_range_meters":400,"station_id":"ce4bgvp2rcd13ifvqcu0","pricing_plan_id":"cebpf4jnsgd1na2vs0mg"},{"bike_id":"c09274a6-fe3a-44fb-b169-7b47e5b984c1","system_id":"levelo_inurba_marseille","lat":43.292005,"lon":5.357875,"is_reserved":false,"is_disabled":false,"rental_uris":{"android":"levelo://app?vid=c09274a6-fe3a-44fb-b169-7b47e5b984c1","ios":"levelo://app?vid=c09274a6-fe3a-44fb-b169-7b47e5b984c1"},"vehicle_type_id":"4","last_reported":1718899838,"current_range_meters":16800,"station_id":"ce4bhb12rcd13ifvqel0","pricing_plan_id":"cebpf4jnsgd1na2vs0mg"},{"bike_id":"9487e1d2-ad62-48c7-8a4c-eed4a45f3bc4","system_id":"levelo_inurba_marseille","lat":43.31332,"lon":5.39692,"is_reserved":false,"is_disabled":false,"rental_uris":{"android":"levelo://app?vid=9487e1d2-ad62-48c7-8a4c-eed4a45f3bc4","ios":"levelo://app?vid=9487e1d2-ad62-48c7-8a4c-eed4a45f3bc4"},"vehicle_type_id":"4","last_reported":1718899838,"current_range_meters":0,"station_id":"ce4bgvp2rcd13ifvqcu0","pricing_plan_id":"cebpf4jnsgd1na2vs0mg"},{"bike_id":"acfa956d-9e62-453d-9abc-dac8ece4d753","system_id":"levelo_inurba_marseille","lat":43.309038,"lon":5.396546,"is_reserved":false,"is_disabled":false,"rental_uris":{"android":"levelo://app?vid=acfa956d-9e62-453d-9abc-dac8ece4d753","ios":"levelo://app?vid=acfa956d-9e62-453d-9abc-dac8ece4d753"},"vehicle_type_id":"4","last_reported":1718899838,"current_range_meters":20400,"station_id":"ce4bh012rcd13ifvqcv0","pricing_plan_id":"cebpf4jnsgd1na2vs0mg"},{"bike_id":"7171688e-9ebe-47b3-b26c-17bc5ee10c1d","system_id":"levelo_inurba_marseille","lat":43.309038,"lon":5.396546,"is_reserved":false,"is_disabled":false,"rental_uris":{"android":"levelo://app?vid=7171688e-9ebe-47b3-b26c-17bc5ee10c1d","ios":"levelo://app?vid=7171688e-9ebe-47b3-b26c-17bc5ee10c1d"},"vehicle_type_id":"4","last_reported":1718899838,"current_range_meters":19600,"station_id":"ce4bh012rcd13ifvqcv0","pricing_plan_id":"cebpf4jnsgd1na2vs0mg"},{"bike_id":"1c75302c-7f11-4981-b979-12bd70bc977c","system_id":"levelo_inurba_marseille","lat":43.309038,"lon":5.396546,"is_reserved":false,"is_disabled":false,"rental_uris":{"android":"levelo://app?vid=1c75302c-7f11-4981-b979-12bd70bc977c","ios":"levelo://app?vid=1c75302c-7f11-4981-b979-12bd70bc977c"},"vehicle_type_id":"4","last_reported":1718899838,"current_range_meters":18000,"station_id":"ce4bh012rcd13ifvqcv0","pricing_plan_id":"cebpf4jnsgd1na2vs0mg"},{"bike_id":"8024b91f-579f-4f6c-84d9-a8225b4d45d9","system_id":"levelo_inurba_marseille","lat":43.30897,"lon":5.3965,"is_reserved":false,"is_disabled":false,"rental_uris":{"android":"levelo://app?vid=8024b91f-579f-4f6c-84d9-a8225b4d45d9","ios":"levelo://app?vid=8024b91f-579f-4f6c-84d9-a8225b4d45d9"},"vehicle_type_id":"4","last_reported":1718899838,"current_range_meters":18000,"station_id":"ce4bh012rcd13ifvqcv0","pricing_plan_id":"cebpf4jnsgd1na2vs0mg"},{"bike_id":"4d063b08-445e-4cc6-9c28-c12514444266","system_id":"levelo_inurba_marseille","lat":43.313291,"lon":5.396838,"is_reserved":false,"is_disabled":false,"rental_uris":{"android":"levelo://app?vid=4d063b08-445e-4cc6-9c28-c12514444266","ios":"levelo://app?vid=4d063b08-445e-4cc6-9c28-c12514444266"},"vehicle_type_id":"4","last_reported":1718899838,"current_range_meters":31600,"station_id":"ce4bgvp2rcd13ifvqcu0","pricing_plan_id":"cebpf4jnsgd1na2vs0mg"},{"bike_id":"6dab4f00-239d-4aea-8b65-ae8ec8fb4a43","system_id":"levelo_inurba_marseille","lat":43.29529,"lon":5.385581,"is_reserved":false,"is_disabled":false,"rental_uris":{"android":"levelo://app?vid=6dab4f00-239d-4aea-8b65-ae8ec8fb4a43","ios":"levelo://app?vid=6dab4f00-239d-4aea-8b65-ae8ec8fb4a43"},"vehicle_type_id":"4","last_reported":1718899838,"current_range_meters":10800,"station_id":"ce4bgih2rcd13ifvqba0","pricing_plan_id":"cebpf4jnsgd1na2vs0mg"},{"bike_id":"b2db0b70-4adf-4bdf-8a6b-4f88f0e63c70","system_id":"levelo_inurba_marseille","lat":43.313291,"lon":5.396838,"is_reserved":false,"is_disabled":false,"rental_uris":{"android":"levelo://app?vid=b2db0b70-4adf-4bdf-8a6b-4f88f0e63c70","ios":"levelo://app?vid=b2db0b70-4adf-4bdf-8a6b-4f88f0e63c70"},"vehicle_type_id":"4","last_reported":1718899838,"current_range_meters":17200,"station_id":"ce4bgvp2rcd13ifvqcu0","pricing_plan_id":"cebpf4jnsgd1na2vs0mg"},{"bike_id":"04401f5f-e883-48ba-a65c-8d0d6d62070d","system_id":"levelo_inurba_marseille","lat":43.29529,"lon":5.385581,"is_reserved":false,"is_disabled":false,"rental_uris":{"android":"levelo://app?vid=04401f5f-e883-48ba-a65c-8d0d6d62070d","ios":"levelo://app?vid=04401f5f-e883-48ba-a65c-8d0d6d62070d"},"vehicle_type_id":"4","last_reported":1718899838,"current_range_meters":2800,"station_id":"ce4bgih2rcd13ifvqba0","pricing_plan_id":"cebpf4jnsgd1na2vs0mg"},{"bike_id":"b8bb361b-f758-4daa-abbf-f5c710184214","system_id":"levelo_inurba_marseille","lat":43.29533,"lon":5.38536,"is_reserved":false,"is_disabled":false,"rental_uris":{"android":"levelo://app?vid=b8bb361b-f758-4daa-abbf-f5c710184214","ios":"levelo://app?vid=b8bb361b-f758-4daa-abbf-f5c710184214"},"vehicle_type_id":"4","last_reported":1718899838,"current_range_meters":14000,"station_id":"ce4bgih2rcd13ifvqba0","pricing_plan_id":"cebpf4jnsgd1na2vs0mg"},{"bike_id":"8bd6f68c-e759-4cad-9e5e-fcf9696da751","system_id":"levelo_inurba_marseille","lat":43.29529,"lon":5.38538,"is_reserved":false,"is_disabled":false,"rental_uris":{"android":"levelo://app?vid=8bd6f68c-e759-4cad-9e5e-fcf9696da751","ios":"levelo://app?vid=8bd6f68c-e759-4cad-9e5e-fcf9696da751"},"vehicle_type_id":"4","last_reported":1718899838,"current_range_meters":6000,"station_id":"ce4bgih2rcd13ifvqba0","pricing_plan_id":"cebpf4jnsgd1na2vs0mg"},{"bike_id":"af3b4539-474c-4959-8c83-a8f75d57c197","system_id":"levelo_inurba_marseille","lat":43.29531,"lon":5.38542,"is_reserved":false,"is_disabled":false,"rental_uris":{"android":"levelo://app?vid=af3b4539-474c-4959-8c83-a8f75d57c197","ios":"levelo://app?vid=af3b4539-474c-4959-8c83-a8f75d57c197"},"vehicle_type_id":"4","last_reported":1718899838,"current_range_meters":2800,"station_id":"ce4bgih2rcd13ifvqba0","pricing_plan_id":"cebpf4jnsgd1na2vs0mg"},{"bike_id":"5cde50bc-8898-4921-81cf-884ff46d105c","system_id":"levelo_inurba_marseille","lat":43.29529,"lon":5.385581,"is_reserved":false,"is_disabled":false,"rental_uris":{"android":"levelo://app?vid=5cde50bc-8898-4921-81cf-884ff46d105c","ios":"levelo://app?vid=5cde50bc-8898-4921-81cf-884ff46d105c"},"vehicle_type_id":"4","last_reported":1718899838,"current_range_meters":7200,"station_id":"ce4bgih2rcd13ifvqba0","pricing_plan_id":"cebpf4jnsgd1na2vs0mg"},{"bike_id":"4eda53e1-69dc-4994-a407-8e718f840654","system_id":"levelo_inurba_marseille","lat":43.29529,"lon":5.385581,"is_reserved":false,"is_disabled":false,"rental_uris":{"android":"levelo://app?vid=4eda53e1-69dc-4994-a407-8e718f840654","ios":"levelo://app?vid=4eda53e1-69dc-4994-a407-8e718f840654"},"vehicle_type_id":"4","last_reported":1718899838,"current_range_meters":27200,"station_id":"ce4bgih2rcd13ifvqba0","pricing_plan_id":"cebpf4jnsgd1na2vs0mg"},{"bike_id":"11eba32b-249b-4589-86a8-b3801cedfe84","system_id":"levelo_inurba_marseille","lat":43.29531,"lon":5.38548,"is_reserved":false,"is_disabled":false,"rental_uris":{"android":"levelo://app?vid=11eba32b-249b-4589-86a8-b3801cedfe84","ios":"levelo://app?vid=11eba32b-249b-4589-86a8-b3801cedfe84"},"vehicle_type_id":"4","last_reported":1718899838,"current_range_meters":2000,"station_id":"ce4bgih2rcd13ifvqba0","pricing_plan_id":"cebpf4jnsgd1na2vs0mg"},{"bike_id":"f3a4d61b-9f35-4480-9cde-faf55ec52321","system_id":"levelo_inurba_marseille","lat":43.29529,"lon":5.385581,"is_reserved":false,"is_disabled":false,"rental_uris":{"android":"levelo://app?vid=f3a4d61b-9f35-4480-9cde-faf55ec52321","ios":"levelo://app?vid=f3a4d61b-9f35-4480-9cde-faf55ec52321"},"vehicle_type_id":"4","last_reported":1718899838,"current_range_meters":31600,"station_id":"ce4bgih2rcd13ifvqba0","pricing_plan_id":"cebpf4jnsgd1na2vs0mg"},{"bike_id":"c085ddd8-f6ff-45fa-9269-32986a4ae1d2","system_id":"levelo_inurba_marseille","lat":43.29529,"lon":5.385581,"is_reserved":false,"is_disabled":false,"rental_uris":{"android":"levelo://app?vid=c085ddd8-f6ff-45fa-9269-32986a4ae1d2","ios":"levelo://app?vid=c085ddd8-f6ff-45fa-9269-32986a4ae1d2"},"vehicle_type_id":"4","last_reported":1718899838,"current_range_meters":0,"station_id":"ce4bgih2rcd13ifvqba0","pricing_plan_id":"cebpf4jnsgd1na2vs0mg"},{"bike_id":"e68079bb-ff60-4fae-8a64-85ca1715fbfe","system_id":"levelo_inurba_marseille","lat":43.29529,"lon":5.385581,"is_reserved":false,"is_disabled":false,"rental_uris":{"android":"levelo://app?vid=e68079bb-ff60-4fae-8a64-85ca1715fbfe","ios":"levelo://app?vid=e68079bb-ff60-4fae-8a64-85ca1715fbfe"},"vehicle_type_id":"4","last_reported":1718899838,"current_range_meters":27600,"station_id":"ce4bgih2rcd13ifvqba0","pricing_plan_id":"cebpf4jnsgd1na2vs0mg"},{"bike_id":"0aa76266-2d33-446b-a9bb-850bfc662df5","system_id":"levelo_inurba_marseille","lat":43.290779,"lon":5.371482,"is_reserved":false,"is_disabled":false,"rental_uris":{"android":"levelo://app?vid=0aa76266-2d33-446b-a9bb-850bfc662df5","ios":"levelo://app?vid=0aa76266-2d33-446b-a9bb-850bfc662df5"},"vehicle_type_id":"4","last_reported":1718899838,"current_range_meters":0,"station_id":"ce4bh5p2rcd13ifvqe4g","pricing_plan_id":"cebpf4jnsgd1na2vs0mg"},{"bike_id":"e264f977-b109-4882-ac43-47614849695c","system_id":"levelo_inurba_marseille","lat":43.290779,"lon":5.371482,"is_reserved":false,"is_disabled":false,"rental_uris":{"android":"levelo://app?vid=e264f977-b109-4882-ac43-47614849695c","ios":"levelo://app?vid=e264f977-b109-4882-ac43-47614849695c"},"vehicle_type_id":"4","last_reported":1718899838,"current_range_meters":10800,"station_id":"ce4bh5p2rcd13ifvqe4g","pricing_plan_id":"cebpf4jnsgd1na2vs0mg"},{"bike_id":"79187d14-1e38-4cca-995d-147043d1e38d","system_id":"levelo_inurba_marseille","lat":43.29036,"lon":5.35914,"is_reserved":false,"is_disabled":false,"rental_uris":{"android":"levelo://app?vid=79187d14-1e38-4cca-995d-147043d1e38d","ios":"levelo://app?vid=79187d14-1e38-4cca-995d-147043d1e38d"},"vehicle_type_id":"4","last_reported":1718899838,"current_range_meters":31200,"station_id":"ce4bha92rcd13ifvqeg0","pricing_plan_id":"cebpf4jnsgd1na2vs0mg"},{"bike_id":"ca5b66d7-a85f-4ee7-bc97-417c1a221a04","system_id":"levelo_inurba_marseille","lat":43.290327,"lon":5.375711,"is_reserved":false,"is_disabled":false,"rental_uris":{"android":"levelo://app?vid=ca5b66d7-a85f-4ee7-bc97-417c1a221a04","ios":"levelo://app?vid=ca5b66d7-a85f-4ee7-bc97-417c1a221a04"},"vehicle_type_id":"4","last_reported":1718899838,"current_range_meters":29200,"station_id":"ce4bh692rcd13ifvqe90","pricing_plan_id":"cebpf4jnsgd1na2vs0mg"},{"bike_id":"1b359217-b9ea-4106-8f96-acb242097ba4","system_id":"levelo_inurba_marseille","lat":43.294153,"lon":5.386305,"is_reserved":false,"is_disabled":false,"rental_uris":{"android":"levelo://app?vid=1b359217-b9ea-4106-8f96-acb242097ba4","ios":"levelo://app?vid=1b359217-b9ea-4106-8f96-acb242097ba4"},"vehicle_type_id":"4","last_reported":1718899838,"current_range_meters":6000,"station_id":"ce4bh2h2rcd13ifvqdh0","pricing_plan_id":"cebpf4jnsgd1na2vs0mg"},{"bike_id":"67477d0d-46e0-47aa-a710-5407bb555766","system_id":"levelo_inurba_marseille","lat":43.294153,"lon":5.386305,"is_reserved":false,"is_disabled":false,"rental_uris":{"android":"levelo://app?vid=67477d0d-46e0-47aa-a710-5407bb555766","ios":"levelo://app?vid=67477d0d-46e0-47aa-a710-5407bb555766"},"vehicle_type_id":"4","last_reported":1718899838,"current_range_meters":0,"station_id":"ce4bh2h2rcd13ifvqdh0","pricing_plan_id":"cebpf4jnsgd1na2vs0mg"},{"bike_id":"e67da491-1f10-4a42-ac98-affa4c457059","system_id":"levelo_inurba_marseille","lat":43.294153,"lon":5.386305,"is_reserved":false,"is_disabled":false,"rental_uris":{"android":"levelo://app?vid=e67da491-1f10-4a42-ac98-affa4c457059","ios":"levelo://app?vid=e67da491-1f10-4a42-ac98-affa4c457059"},"vehicle_type_id":"4","last_reported":1718899838,"current_range_meters":6400,"station_id":"ce4bh2h2rcd13ifvqdh0","pricing_plan_id":"cebpf4jnsgd1na2vs0mg"},{"bike_id":"0cc565b9-04ef-472c-b6fb-af453d854cf6","system_id":"levelo_inurba_marseille","lat":43.294153,"lon":5.386305,"is_reserved":false,"is_disabled":false,"rental_uris":{"android":"levelo://app?vid=0cc565b9-04ef-472c-b6fb-af453d854cf6","ios":"levelo://app?vid=0cc565b9-04ef-472c-b6fb-af453d854cf6"},"vehicle_type_id":"4","last_reported":1718899838,"current_range_meters":2000,"station_id":"ce4bh2h2rcd13ifvqdh0","pricing_plan_id":"cebpf4jnsgd1na2vs0mg"},{"bike_id":"a7c82f93-bfab-4f02-97d4-f4fe6eddaf2c","system_id":"levelo_inurba_marseille","lat":43.294153,"lon":5.386305,"is_reserved":false,"is_disabled":false,"rental_uris":{"android":"levelo://app?vid=a7c82f93-bfab-4f02-97d4-f4fe6eddaf2c","ios":"levelo://app?vid=a7c82f93-bfab-4f02-97d4-f4fe6eddaf2c"},"vehicle_type_id":"4","last_reported":1718899838,"current_range_meters":4400,"station_id":"ce4bh2h2rcd13ifvqdh0","pricing_plan_id":"cebpf4jnsgd1na2vs0mg"},{"bike_id":"d6c69a0b-f9a0-4f57-9c05-398eaaaf86f9","system_id":"levelo_inurba_marseille","lat":43.29422,"lon":5.3863,"is_reserved":false,"is_disabled":false,"rental_uris":{"android":"levelo://app?vid=d6c69a0b-f9a0-4f57-9c05-398eaaaf86f9","ios":"levelo://app?vid=d6c69a0b-f9a0-4f57-9c05-398eaaaf86f9"},"vehicle_type_id":"4","last_reported":1718899838,"current_range_meters":0,"station_id":"ce4bh2h2rcd13ifvqdh0","pricing_plan_id":"cebpf4jnsgd1na2vs0mg"},{"bike_id":"db42ff74-c592-4903-8ede-ee40701dd6fb","system_id":"levelo_inurba_marseille","lat":43.289184,"lon":5.366408,"is_reserved":false,"is_disabled":false,"rental_uris":{"android":"levelo://app?vid=db42ff74-c592-4903-8ede-ee40701dd6fb","ios":"levelo://app?vid=db42ff74-c592-4903-8ede-ee40701dd6fb"},"vehicle_type_id":"4","last_reported":1718899838,"current_range_meters":19600,"station_id":"ce4bhap2rcd13ifvqek0","pricing_plan_id":"cebpf4jnsgd1na2vs0mg"},{"bike_id":"01cbfe57-9d71-4b31-9aee-e9b9d1527fcd","system_id":"levelo_inurba_marseille","lat":43.2942,"lon":5.3863,"is_reserved":false,"is_disabled":false,"rental_uris":{"android":"levelo://app?vid=01cbfe57-9d71-4b31-9aee-e9b9d1527fcd","ios":"levelo://app?vid=01cbfe57-9d71-4b31-9aee-e9b9d1527fcd"},"vehicle_type_id":"4","last_reported":1718899838,"current_range_meters":0,"station_id":"ce4bh2h2rcd13ifvqdh0","pricing_plan_id":"cebpf4jnsgd1na2vs0mg"},{"bike_id":"3a7c7983-f6fd-4571-b825-a573cea167e1","system_id":"levelo_inurba_marseille","lat":43.294153,"lon":5.386305,"is_reserved":false,"is_disabled":false,"rental_uris":{"android":"levelo://app?vid=3a7c7983-f6fd-4571-b825-a573cea167e1","ios":"levelo://app?vid=3a7c7983-f6fd-4571-b825-a573cea167e1"},"vehicle_type_id":"4","last_reported":1718899838,"current_range_meters":2000,"station_id":"ce4bh2h2rcd13ifvqdh0","pricing_plan_id":"cebpf4jnsgd1na2vs0mg"},{"bike_id":"20d4eb84-5855-461d-aec0-76f4bbbf9090","system_id":"levelo_inurba_marseille","lat":43.294153,"lon":5.386305,"is_reserved":false,"is_disabled":false,"rental_uris":{"android":"levelo://app?vid=20d4eb84-5855-461d-aec0-76f4bbbf9090","ios":"levelo://app?vid=20d4eb84-5855-461d-aec0-76f4bbbf9090"},"vehicle_type_id":"4","last_reported":1718899838,"current_range_meters":0,"station_id":"ce4bh2h2rcd13ifvqdh0","pricing_plan_id":"cebpf4jnsgd1na2vs0mg"},{"bike_id":"11c588bf-14b4-4a42-bdd5-f35a81282177","system_id":"levelo_inurba_marseille","lat":43.289184,"lon":5.366408,"is_reserved":false,"is_disabled":false,"rental_uris":{"android":"levelo://app?vid=11c588bf-14b4-4a42-bdd5-f35a81282177","ios":"levelo://app?vid=11c588bf-14b4-4a42-bdd5-f35a81282177"},"vehicle_type_id":"4","last_reported":1718899838,"current_range_meters":6400,"station_id":"ce4bhap2rcd13ifvqek0","pricing_plan_id":"cebpf4jnsgd1na2vs0mg"},{"bike_id":"dea66b44-316a-4c5d-bf90-0d38e89c6920","system_id":"levelo_inurba_marseille","lat":43.294162,"lon":5.386292,"is_reserved":false,"is_disabled":false,"rental_uris":{"android":"levelo://app?vid=dea66b44-316a-4c5d-bf90-0d38e89c6920","ios":"levelo://app?vid=dea66b44-316a-4c5d-bf90-0d38e89c6920"},"vehicle_type_id":"4","last_reported":1718899838,"current_range_meters":28000,"station_id":"ce4bh2h2rcd13ifvqdh0","pricing_plan_id":"cebpf4jnsgd1na2vs0mg"},{"bike_id":"442e38b1-3f41-4019-a71f-465139d0c4a2","system_id":"levelo_inurba_marseille","lat":43.289184,"lon":5.366408,"is_reserved":false,"is_disabled":false,"rental_uris":{"android":"levelo://app?vid=442e38b1-3f41-4019-a71f-465139d0c4a2","ios":"levelo://app?vid=442e38b1-3f41-4019-a71f-465139d0c4a2"},"vehicle_type_id":"4","last_reported":1718899838,"current_range_meters":2400,"station_id":"ce4bhap2rcd13ifvqek0","pricing_plan_id":"cebpf4jnsgd1na2vs0mg"},{"bike_id":"a5a11476-ac8e-4be2-91b8-9f1d39bcd067","system_id":"levelo_inurba_marseille","lat":43.289184,"lon":5.366408,"is_reserved":false,"is_disabled":false,"rental_uris":{"android":"levelo://app?vid=a5a11476-ac8e-4be2-91b8-9f1d39bcd067","ios":"levelo://app?vid=a5a11476-ac8e-4be2-91b8-9f1d39bcd067"},"vehicle_type_id":"4","last_reported":1718899838,"current_range_meters":2000,"station_id":"ce4bhap2rcd13ifvqek0","pricing_plan_id":"cebpf4jnsgd1na2vs0mg"},{"bike_id":"72f4e48a-822e-4612-acdc-5842e378c403","system_id":"levelo_inurba_marseille","lat":43.29266,"lon":5.38426,"is_reserved":false,"is_disabled":false,"rental_uris":{"android":"levelo://app?vid=72f4e48a-822e-4612-acdc-5842e378c403","ios":"levelo://app?vid=72f4e48a-822e-4612-acdc-5842e378c403"},"vehicle_type_id":"4","last_reported":1718899838,"current_range_meters":25200,"station_id":"ce4bh692rcd13ifvqea0","pricing_plan_id":"cebpf4jnsgd1na2vs0mg"},{"bike_id":"f32a2637-adac-4484-87d5-be07a3811edf","system_id":"levelo_inurba_marseille","lat":43.292644,"lon":5.384257,"is_reserved":false,"is_disabled":false,"rental_uris":{"android":"levelo://app?vid=f32a2637-adac-4484-87d5-be07a3811edf","ios":"levelo://app?vid=f32a2637-adac-4484-87d5-be07a3811edf"},"vehicle_type_id":"4","last_reported":1718899838,"current_range_meters":9600,"station_id":"ce4bh692rcd13ifvqea0","pricing_plan_id":"cebpf4jnsgd1na2vs0mg"},{"bike_id":"9a03c6a3-96b5-4c96-a197-cce984300c74","system_id":"levelo_inurba_marseille","lat":43.292642,"lon":5.384254,"is_reserved":false,"is_disabled":false,"rental_uris":{"android":"levelo://app?vid=9a03c6a3-96b5-4c96-a197-cce984300c74","ios":"levelo://app?vid=9a03c6a3-96b5-4c96-a197-cce984300c74"},"vehicle_type_id":"4","last_reported":1718899838,"current_range_meters":17200,"station_id":"ce4bh692rcd13ifvqea0","pricing_plan_id":"cebpf4jnsgd1na2vs0mg"},{"bike_id":"622d7b18-2156-4d41-8cac-f01e3aa6b80c","system_id":"levelo_inurba_marseille","lat":43.29263,"lon":5.38438,"is_reserved":false,"is_disabled":false,"rental_uris":{"android":"levelo://app?vid=622d7b18-2156-4d41-8cac-f01e3aa6b80c","ios":"levelo://app?vid=622d7b18-2156-4d41-8cac-f01e3aa6b80c"},"vehicle_type_id":"4","last_reported":1718899838,"current_range_meters":20800,"station_id":"ce4bh692rcd13ifvqea0","pricing_plan_id":"cebpf4jnsgd1na2vs0mg"},{"bike_id":"f4b0d315-0dda-4e19-9018-14d9c3ffa374","system_id":"levelo_inurba_marseille","lat":43.290104,"lon":5.356111,"is_reserved":false,"is_disabled":false,"rental_uris":{"android":"levelo://app?vid=f4b0d315-0dda-4e19-9018-14d9c3ffa374","ios":"levelo://app?vid=f4b0d315-0dda-4e19-9018-14d9c3ffa374"},"vehicle_type_id":"4","last_reported":1718899838,"current_range_meters":31600,"station_id":"ce4bhb92rcd13ifvqen0","pricing_plan_id":"cebpf4jnsgd1na2vs0mg"},{"bike_id":"aac77a5f-3cd3-42da-af5e-06621901442c","system_id":"levelo_inurba_marseille","lat":43.292644,"lon":5.384257,"is_reserved":false,"is_disabled":false,"rental_uris":{"android":"levelo://app?vid=aac77a5f-3cd3-42da-af5e-06621901442c","ios":"levelo://app?vid=aac77a5f-3cd3-42da-af5e-06621901442c"},"vehicle_type_id":"4","last_reported":1718899838,"current_range_meters":3200,"station_id":"ce4bh692rcd13ifvqea0","pricing_plan_id":"cebpf4jnsgd1na2vs0mg"},{"bike_id":"cd0e539a-6db8-4632-9d32-9d2a4e8d660e","system_id":"levelo_inurba_marseille","lat":43.290104,"lon":5.356111,"is_reserved":false,"is_disabled":false,"rental_uris":{"android":"levelo://app?vid=cd0e539a-6db8-4632-9d32-9d2a4e8d660e","ios":"levelo://app?vid=cd0e539a-6db8-4632-9d32-9d2a4e8d660e"},"vehicle_type_id":"4","last_reported":1718899838,"current_range_meters":29600,"station_id":"ce4bhb92rcd13ifvqen0","pricing_plan_id":"cebpf4jnsgd1na2vs0mg"},{"bike_id":"3e3240ab-6b80-411e-982a-c77eb2f74a6f","system_id":"levelo_inurba_marseille","lat":43.290103,"lon":5.356114,"is_reserved":false,"is_disabled":false,"rental_uris":{"android":"levelo://app?vid=3e3240ab-6b80-411e-982a-c77eb2f74a6f","ios":"levelo://app?vid=3e3240ab-6b80-411e-982a-c77eb2f74a6f"},"vehicle_type_id":"4","last_reported":1718899838,"current_range_meters":30800,"station_id":"ce4bhb92rcd13ifvqen0","pricing_plan_id":"cebpf4jnsgd1na2vs0mg"},{"bike_id":"a524cc94-a6c1-4c44-82f0-cda81093254d","system_id":"levelo_inurba_marseille","lat":43.290103,"lon":5.356114,"is_reserved":false,"is_disabled":false,"rental_uris":{"android":"levelo://app?vid=a524cc94-a6c1-4c44-82f0-cda81093254d","ios":"levelo://app?vid=a524cc94-a6c1-4c44-82f0-cda81093254d"},"vehicle_type_id":"4","last_reported":1718899838,"current_range_meters":5600,"station_id":"ce4bhb92rcd13ifvqen0","pricing_plan_id":"cebpf4jnsgd1na2vs0mg"},{"bike_id":"4f20a6ec-8db5-4220-acb2-4607e34d5960","system_id":"levelo_inurba_marseille","lat":43.290104,"lon":5.356111,"is_reserved":false,"is_disabled":false,"rental_uris":{"android":"levelo://app?vid=4f20a6ec-8db5-4220-acb2-4607e34d5960","ios":"levelo://app?vid=4f20a6ec-8db5-4220-acb2-4607e34d5960"},"vehicle_type_id":"4","last_reported":1718899838,"current_range_meters":31200,"station_id":"ce4bhb92rcd13ifvqen0","pricing_plan_id":"cebpf4jnsgd1na2vs0mg"},{"bike_id":"e2173c25-4d6e-4da6-99c6-dda5a8a385c7","system_id":"levelo_inurba_marseille","lat":43.290104,"lon":5.356111,"is_reserved":false,"is_disabled":false,"rental_uris":{"android":"levelo://app?vid=e2173c25-4d6e-4da6-99c6-dda5a8a385c7","ios":"levelo://app?vid=e2173c25-4d6e-4da6-99c6-dda5a8a385c7"},"vehicle_type_id":"4","last_reported":1718899838,"current_range_meters":27200,"station_id":"ce4bhb92rcd13ifvqen0","pricing_plan_id":"cebpf4jnsgd1na2vs0mg"},{"bike_id":"21db05d6-be8f-43f8-90bc-f1e11c2c9d74","system_id":"levelo_inurba_marseille","lat":43.290103,"lon":5.356114,"is_reserved":false,"is_disabled":false,"rental_uris":{"android":"levelo://app?vid=21db05d6-be8f-43f8-90bc-f1e11c2c9d74","ios":"levelo://app?vid=21db05d6-be8f-43f8-90bc-f1e11c2c9d74"},"vehicle_type_id":"4","last_reported":1718899838,"current_range_meters":0,"station_id":"ce4bhb92rcd13ifvqen0","pricing_plan_id":"cebpf4jnsgd1na2vs0mg"},{"bike_id":"3baa7c47-22f8-4a60-9015-5b0e78d587c7","system_id":"levelo_inurba_marseille","lat":43.290103,"lon":5.356114,"is_reserved":false,"is_disabled":false,"rental_uris":{"android":"levelo://app?vid=3baa7c47-22f8-4a60-9015-5b0e78d587c7","ios":"levelo://app?vid=3baa7c47-22f8-4a60-9015-5b0e78d587c7"},"vehicle_type_id":"4","last_reported":1718899838,"current_range_meters":6800,"station_id":"ce4bhb92rcd13ifvqen0","pricing_plan_id":"cebpf4jnsgd1na2vs0mg"},{"bike_id":"74a12d4d-5cbb-450e-bfd4-b0629468a6f0","system_id":"levelo_inurba_marseille","lat":43.290995,"lon":5.381361,"is_reserved":false,"is_disabled":false,"rental_uris":{"android":"levelo://app?vid=74a12d4d-5cbb-450e-bfd4-b0629468a6f0","ios":"levelo://app?vid=74a12d4d-5cbb-450e-bfd4-b0629468a6f0"},"vehicle_type_id":"4","last_reported":1718899838,"current_range_meters":22000,"station_id":"ce4bh512rcd13ifvqe2g","pricing_plan_id":"cebpf4jnsgd1na2vs0mg"},{"bike_id":"037abf53-0f6b-4e32-8425-2f656a2a6b25","system_id":"levelo_inurba_marseille","lat":43.290995,"lon":5.381361,"is_reserved":false,"is_disabled":false,"rental_uris":{"android":"levelo://app?vid=037abf53-0f6b-4e32-8425-2f656a2a6b25","ios":"levelo://app?vid=037abf53-0f6b-4e32-8425-2f656a2a6b25"},"vehicle_type_id":"4","last_reported":1718899838,"current_range_meters":7200,"station_id":"ce4bh512rcd13ifvqe2g","pricing_plan_id":"cebpf4jnsgd1na2vs0mg"},{"bike_id":"7cc924e3-bd28-4cf8-aa9e-7aab31935876","system_id":"levelo_inurba_marseille","lat":43.290995,"lon":5.381361,"is_reserved":false,"is_disabled":false,"rental_uris":{"android":"levelo://app?vid=7cc924e3-bd28-4cf8-aa9e-7aab31935876","ios":"levelo://app?vid=7cc924e3-bd28-4cf8-aa9e-7aab31935876"},"vehicle_type_id":"4","last_reported":1718899838,"current_range_meters":0,"station_id":"ce4bh512rcd13ifvqe2g","pricing_plan_id":"cebpf4jnsgd1na2vs0mg"},{"bike_id":"ac248e1e-0761-4976-8337-bc03ff7b6a94","system_id":"levelo_inurba_marseille","lat":43.290995,"lon":5.381361,"is_reserved":false,"is_disabled":false,"rental_uris":{"android":"levelo://app?vid=ac248e1e-0761-4976-8337-bc03ff7b6a94","ios":"levelo://app?vid=ac248e1e-0761-4976-8337-bc03ff7b6a94"},"vehicle_type_id":"4","last_reported":1718899838,"current_range_meters":11600,"station_id":"ce4bh512rcd13ifvqe2g","pricing_plan_id":"cebpf4jnsgd1na2vs0mg"},{"bike_id":"9fdf4861-0138-477d-aee7-385f65b569ed","system_id":"levelo_inurba_marseille","lat":43.297911,"lon":5.3934,"is_reserved":false,"is_disabled":false,"rental_uris":{"android":"levelo://app?vid=9fdf4861-0138-477d-aee7-385f65b569ed","ios":"levelo://app?vid=9fdf4861-0138-477d-aee7-385f65b569ed"},"vehicle_type_id":"4","last_reported":1718899838,"current_range_meters":0,"station_id":"chh1huq6cuj3fo74tm60","pricing_plan_id":"cebpf4jnsgd1na2vs0mg"},{"bike_id":"1d9ff618-54fc-46ed-a56b-1e5ee9d81467","system_id":"levelo_inurba_marseille","lat":43.29777,"lon":5.39343,"is_reserved":false,"is_disabled":false,"rental_uris":{"android":"levelo://app?vid=1d9ff618-54fc-46ed-a56b-1e5ee9d81467","ios":"levelo://app?vid=1d9ff618-54fc-46ed-a56b-1e5ee9d81467"},"vehicle_type_id":"4","last_reported":1718899838,"current_range_meters":19200,"station_id":"chh1huq6cuj3fo74tm60","pricing_plan_id":"cebpf4jnsgd1na2vs0mg"},{"bike_id":"6cfb1e22-7cff-4245-9e52-35a5986160b1","system_id":"levelo_inurba_marseille","lat":43.295169,"lon":5.390426,"is_reserved":false,"is_disabled":false,"rental_uris":{"android":"levelo://app?vid=6cfb1e22-7cff-4245-9e52-35a5986160b1","ios":"levelo://app?vid=6cfb1e22-7cff-4245-9e52-35a5986160b1"},"vehicle_type_id":"4","last_reported":1718899838,"current_range_meters":4400,"station_id":"ce4bh3p2rcd13ifvqdp0","pricing_plan_id":"cebpf4jnsgd1na2vs0mg"},{"bike_id":"a88f0817-e8bb-4203-9041-d033d6575834","system_id":"levelo_inurba_marseille","lat":43.289741,"lon":5.378306,"is_reserved":false,"is_disabled":false,"rental_uris":{"android":"levelo://app?vid=a88f0817-e8bb-4203-9041-d033d6575834","ios":"levelo://app?vid=a88f0817-e8bb-4203-9041-d033d6575834"},"vehicle_type_id":"4","last_reported":1718899838,"current_range_meters":10400,"station_id":"ce4bh9p2rcd13ifvqed0","pricing_plan_id":"cebpf4jnsgd1na2vs0mg"},{"bike_id":"4e91ce76-a3b3-430b-a324-171a558c0172","system_id":"levelo_inurba_marseille","lat":43.295169,"lon":5.390426,"is_reserved":false,"is_disabled":false,"rental_uris":{"android":"levelo://app?vid=4e91ce76-a3b3-430b-a324-171a558c0172","ios":"levelo://app?vid=4e91ce76-a3b3-430b-a324-171a558c0172"},"vehicle_type_id":"4","last_reported":1718899838,"current_range_meters":26800,"station_id":"ce4bh3p2rcd13ifvqdp0","pricing_plan_id":"cebpf4jnsgd1na2vs0mg"},{"bike_id":"17477fdb-7606-42c8-8720-4a40389441ef","system_id":"levelo_inurba_marseille","lat":43.31058,"lon":5.40091,"is_reserved":false,"is_disabled":false,"rental_uris":{"android":"levelo://app?vid=17477fdb-7606-42c8-8720-4a40389441ef","ios":"levelo://app?vid=17477fdb-7606-42c8-8720-4a40389441ef"},"vehicle_type_id":"4","last_reported":1718899838,"current_range_meters":8000,"station_id":"","pricing_plan_id":"cebpf4jnsgd1na2vs0mg"},{"bike_id":"486de70d-38f9-4733-b9ee-6080244f31c4","system_id":"levelo_inurba_marseille","lat":43.2901,"lon":5.381269,"is_reserved":false,"is_disabled":false,"rental_uris":{"android":"levelo://app?vid=486de70d-38f9-4733-b9ee-6080244f31c4","ios":"levelo://app?vid=486de70d-38f9-4733-b9ee-6080244f31c4"},"vehicle_type_id":"4","last_reported":1718899838,"current_range_meters":20800,"station_id":"ce4bh4p2rcd13ifvqe1g","pricing_plan_id":"cebpf4jnsgd1na2vs0mg"},{"bike_id":"37a33ad3-96a6-40c0-8bad-7e701d8cb8ec","system_id":"levelo_inurba_marseille","lat":43.28856,"lon":5.358371,"is_reserved":false,"is_disabled":false,"rental_uris":{"android":"levelo://app?vid=37a33ad3-96a6-40c0-8bad-7e701d8cb8ec","ios":"levelo://app?vid=37a33ad3-96a6-40c0-8bad-7e701d8cb8ec"},"vehicle_type_id":"4","last_reported":1718899838,"current_range_meters":4000,"station_id":"ce4bhb12rcd13ifvqem0","pricing_plan_id":"cebpf4jnsgd1na2vs0mg"},{"bike_id":"5ada8199-c110-4bbb-81cc-b90904589d08","system_id":"levelo_inurba_marseille","lat":43.28856,"lon":5.358371,"is_reserved":false,"is_disabled":false,"rental_uris":{"android":"levelo://app?vid=5ada8199-c110-4bbb-81cc-b90904589d08","ios":"levelo://app?vid=5ada8199-c110-4bbb-81cc-b90904589d08"},"vehicle_type_id":"4","last_reported":1718899838,"current_range_meters":18800,"station_id":"ce4bhb12rcd13ifvqem0","pricing_plan_id":"cebpf4jnsgd1na2vs0mg"},{"bike_id":"f2a3e6ae-bb24-410e-9008-20461c410ba7","system_id":"levelo_inurba_marseille","lat":43.28856,"lon":5.358371,"is_reserved":false,"is_disabled":false,"rental_uris":{"android":"levelo://app?vid=f2a3e6ae-bb24-410e-9008-20461c410ba7","ios":"levelo://app?vid=f2a3e6ae-bb24-410e-9008-20461c410ba7"},"vehicle_type_id":"4","last_reported":1718899838,"current_range_meters":0,"station_id":"ce4bhb12rcd13ifvqem0","pricing_plan_id":"cebpf4jnsgd1na2vs0mg"},{"bike_id":"33769046-84b5-4655-9453-dee0d50dbc78","system_id":"levelo_inurba_marseille","lat":43.28856,"lon":5.358371,"is_reserved":false,"is_disabled":false,"rental_uris":{"android":"levelo://app?vid=33769046-84b5-4655-9453-dee0d50dbc78","ios":"levelo://app?vid=33769046-84b5-4655-9453-dee0d50dbc78"},"vehicle_type_id":"4","last_reported":1718899838,"current_range_meters":20800,"station_id":"ce4bhb12rcd13ifvqem0","pricing_plan_id":"cebpf4jnsgd1na2vs0mg"},{"bike_id":"9c37d446-5f4d-46ec-b596-cd46c985c40f","system_id":"levelo_inurba_marseille","lat":43.28856,"lon":5.358371,"is_reserved":false,"is_disabled":false,"rental_uris":{"android":"levelo://app?vid=9c37d446-5f4d-46ec-b596-cd46c985c40f","ios":"levelo://app?vid=9c37d446-5f4d-46ec-b596-cd46c985c40f"},"vehicle_type_id":"4","last_reported":1718899838,"current_range_meters":21200,"station_id":"ce4bhb12rcd13ifvqem0","pricing_plan_id":"cebpf4jnsgd1na2vs0mg"},{"bike_id":"82e1513b-90cf-40f3-88d1-b244c6f269d2","system_id":"levelo_inurba_marseille","lat":43.28856,"lon":5.358371,"is_reserved":false,"is_disabled":false,"rental_uris":{"android":"levelo://app?vid=82e1513b-90cf-40f3-88d1-b244c6f269d2","ios":"levelo://app?vid=82e1513b-90cf-40f3-88d1-b244c6f269d2"},"vehicle_type_id":"4","last_reported":1718899838,"current_range_meters":15200,"station_id":"ce4bhb12rcd13ifvqem0","pricing_plan_id":"cebpf4jnsgd1na2vs0mg"},{"bike_id":"05046e47-29a0-49b8-a164-9d5fb22ff14e","system_id":"levelo_inurba_marseille","lat":43.28856,"lon":5.358371,"is_reserved":false,"is_disabled":false,"rental_uris":{"android":"levelo://app?vid=05046e47-29a0-49b8-a164-9d5fb22ff14e","ios":"levelo://app?vid=05046e47-29a0-49b8-a164-9d5fb22ff14e"},"vehicle_type_id":"4","last_reported":1718899838,"current_range_meters":0,"station_id":"ce4bhb12rcd13ifvqem0","pricing_plan_id":"cebpf4jnsgd1na2vs0mg"},{"bike_id":"fc4d49d2-31d3-40ec-b20b-1a4944b2e91d","system_id":"levelo_inurba_marseille","lat":43.312609,"lon":5.401662,"is_reserved":false,"is_disabled":false,"rental_uris":{"android":"levelo://app?vid=fc4d49d2-31d3-40ec-b20b-1a4944b2e91d","ios":"levelo://app?vid=fc4d49d2-31d3-40ec-b20b-1a4944b2e91d"},"vehicle_type_id":"4","last_reported":1718899838,"current_range_meters":29600,"station_id":"ce4bh092rcd13ifvqd30","pricing_plan_id":"cebpf4jnsgd1na2vs0mg"},{"bike_id":"e7b5e71c-e646-4f58-80f6-241a139df664","system_id":"levelo_inurba_marseille","lat":43.309217,"lon":5.401407,"is_reserved":false,"is_disabled":false,"rental_uris":{"android":"levelo://app?vid=e7b5e71c-e646-4f58-80f6-241a139df664","ios":"levelo://app?vid=e7b5e71c-e646-4f58-80f6-241a139df664"},"vehicle_type_id":"4","last_reported":1718899838,"current_range_meters":0,"station_id":"ce4bgvp2rcd13ifvqct0","pricing_plan_id":"cebpf4jnsgd1na2vs0mg"},{"bike_id":"3778a811-8048-474c-930d-eb370243fcc2","system_id":"levelo_inurba_marseille","lat":43.309371,"lon":5.401449,"is_reserved":false,"is_disabled":false,"rental_uris":{"android":"levelo://app?vid=3778a811-8048-474c-930d-eb370243fcc2","ios":"levelo://app?vid=3778a811-8048-474c-930d-eb370243fcc2"},"vehicle_type_id":"4","last_reported":1718899838,"current_range_meters":1200,"station_id":"ce4bgvp2rcd13ifvqct0","pricing_plan_id":"cebpf4jnsgd1na2vs0mg"},{"bike_id":"3fd9f34e-eb23-437a-a057-ee00fdbd2565","system_id":"levelo_inurba_marseille","lat":43.309371,"lon":5.401449,"is_reserved":false,"is_disabled":false,"rental_uris":{"android":"levelo://app?vid=3fd9f34e-eb23-437a-a057-ee00fdbd2565","ios":"levelo://app?vid=3fd9f34e-eb23-437a-a057-ee00fdbd2565"},"vehicle_type_id":"4","last_reported":1718899838,"current_range_meters":12000,"station_id":"ce4bgvp2rcd13ifvqct0","pricing_plan_id":"cebpf4jnsgd1na2vs0mg"},{"bike_id":"8cf00b17-4212-40b5-afc9-82ac8c1481c5","system_id":"levelo_inurba_marseille","lat":43.290336,"lon":5.386425,"is_reserved":false,"is_disabled":false,"rental_uris":{"android":"levelo://app?vid=8cf00b17-4212-40b5-afc9-82ac8c1481c5","ios":"levelo://app?vid=8cf00b17-4212-40b5-afc9-82ac8c1481c5"},"vehicle_type_id":"4","last_reported":1718899838,"current_range_meters":19200,"station_id":"ce4bh4p2rcd13ifvqe0g","pricing_plan_id":"cebpf4jnsgd1na2vs0mg"},{"bike_id":"f63bfdec-6be1-47d5-83d4-ca8d3d2e13b9","system_id":"levelo_inurba_marseille","lat":43.30642,"lon":5.401031,"is_reserved":false,"is_disabled":false,"rental_uris":{"android":"levelo://app?vid=f63bfdec-6be1-47d5-83d4-ca8d3d2e13b9","ios":"levelo://app?vid=f63bfdec-6be1-47d5-83d4-ca8d3d2e13b9"},"vehicle_type_id":"4","last_reported":1718899838,"current_range_meters":24000,"station_id":"ce4bh112rcd13ifvqda0","pricing_plan_id":"cebpf4jnsgd1na2vs0mg"},{"bike_id":"0fc2d043-e35e-4e24-95b8-18e1fe6245a2","system_id":"levelo_inurba_marseille","lat":43.309038,"lon":5.396546,"is_reserved":false,"is_disabled":false,"rental_uris":{"android":"levelo://app?vid=0fc2d043-e35e-4e24-95b8-18e1fe6245a2","ios":"levelo://app?vid=0fc2d043-e35e-4e24-95b8-18e1fe6245a2"},"vehicle_type_id":"4","last_reported":1718899838,"current_range_meters":14800,"station_id":"ce4bh012rcd13ifvqcv0","pricing_plan_id":"cebpf4jnsgd1na2vs0mg"},{"bike_id":"6b765c97-c9c7-4476-a6c4-6492ea54c276","system_id":"levelo_inurba_marseille","lat":43.301117,"lon":5.398795,"is_reserved":false,"is_disabled":false,"rental_uris":{"android":"levelo://app?vid=6b765c97-c9c7-4476-a6c4-6492ea54c276","ios":"levelo://app?vid=6b765c97-c9c7-4476-a6c4-6492ea54c276"},"vehicle_type_id":"4","last_reported":1718899838,"current_range_meters":0,"station_id":"ce4bh0h2rcd13ifvqd40","pricing_plan_id":"cebpf4jnsgd1na2vs0mg"},{"bike_id":"c4275d43-bcab-401d-9f40-b04e139b7773","system_id":"levelo_inurba_marseille","lat":43.28726,"lon":5.36085,"is_reserved":false,"is_disabled":false,"rental_uris":{"android":"levelo://app?vid=c4275d43-bcab-401d-9f40-b04e139b7773","ios":"levelo://app?vid=c4275d43-bcab-401d-9f40-b04e139b7773"},"vehicle_type_id":"4","last_reported":1718899838,"current_range_meters":4400,"station_id":"cki0cbj6b192h4jlfktg","pricing_plan_id":"cebpf4jnsgd1na2vs0mg"},{"bike_id":"72e2cbed-5996-4eea-abe1-aee31d520264","system_id":"levelo_inurba_marseille","lat":43.300723,"lon":5.398603,"is_reserved":false,"is_disabled":false,"rental_uris":{"android":"levelo://app?vid=72e2cbed-5996-4eea-abe1-aee31d520264","ios":"levelo://app?vid=72e2cbed-5996-4eea-abe1-aee31d520264"},"vehicle_type_id":"4","last_reported":1718899838,"current_range_meters":12400,"station_id":"ce4bh0h2rcd13ifvqd40","pricing_plan_id":"cebpf4jnsgd1na2vs0mg"},{"bike_id":"51f5496d-2ddb-4b42-914b-1b56b42e4d42","system_id":"levelo_inurba_marseille","lat":43.298681,"lon":5.397225,"is_reserved":false,"is_disabled":false,"rental_uris":{"android":"levelo://app?vid=51f5496d-2ddb-4b42-914b-1b56b42e4d42","ios":"levelo://app?vid=51f5496d-2ddb-4b42-914b-1b56b42e4d42"},"vehicle_type_id":"4","last_reported":1718899838,"current_range_meters":0,"station_id":"ce4bh0h2rcd13ifvqd50","pricing_plan_id":"cebpf4jnsgd1na2vs0mg"},{"bike_id":"5c3c235c-8dd7-46c1-a104-518edab2a4bf","system_id":"levelo_inurba_marseille","lat":43.286593,"lon":5.363346,"is_reserved":false,"is_disabled":false,"rental_uris":{"android":"levelo://app?vid=5c3c235c-8dd7-46c1-a104-518edab2a4bf","ios":"levelo://app?vid=5c3c235c-8dd7-46c1-a104-518edab2a4bf"},"vehicle_type_id":"4","last_reported":1718899838,"current_range_meters":8800,"station_id":"ce4bhah2rcd13ifvqej0","pricing_plan_id":"cebpf4jnsgd1na2vs0mg"},{"bike_id":"42549db8-757c-458b-8a2a-91ffb46f0bca","system_id":"levelo_inurba_marseille","lat":43.29869,"lon":5.39735,"is_reserved":false,"is_disabled":false,"rental_uris":{"android":"levelo://app?vid=42549db8-757c-458b-8a2a-91ffb46f0bca","ios":"levelo://app?vid=42549db8-757c-458b-8a2a-91ffb46f0bca"},"vehicle_type_id":"4","last_reported":1718899838,"current_range_meters":0,"station_id":"ce4bh0h2rcd13ifvqd50","pricing_plan_id":"cebpf4jnsgd1na2vs0mg"},{"bike_id":"3e831c9f-402a-483f-8866-922f3c31fa2c","system_id":"levelo_inurba_marseille","lat":43.29873,"lon":5.39739,"is_reserved":false,"is_disabled":false,"rental_uris":{"android":"levelo://app?vid=3e831c9f-402a-483f-8866-922f3c31fa2c","ios":"levelo://app?vid=3e831c9f-402a-483f-8866-922f3c31fa2c"},"vehicle_type_id":"4","last_reported":1718899838,"current_range_meters":16000,"station_id":"ce4bh0h2rcd13ifvqd50","pricing_plan_id":"cebpf4jnsgd1na2vs0mg"},{"bike_id":"dc4716de-011c-4c3c-bdb3-5d5966ec72c0","system_id":"levelo_inurba_marseille","lat":43.286593,"lon":5.363346,"is_reserved":false,"is_disabled":false,"rental_uris":{"android":"levelo://app?vid=dc4716de-011c-4c3c-bdb3-5d5966ec72c0","ios":"levelo://app?vid=dc4716de-011c-4c3c-bdb3-5d5966ec72c0"},"vehicle_type_id":"4","last_reported":1718899838,"current_range_meters":19600,"station_id":"ce4bhah2rcd13ifvqej0","pricing_plan_id":"cebpf4jnsgd1na2vs0mg"},{"bike_id":"e58cf459-a677-4d5d-8c7d-67279f8aa13a","system_id":"levelo_inurba_marseille","lat":43.298681,"lon":5.397225,"is_reserved":false,"is_disabled":false,"rental_uris":{"android":"levelo://app?vid=e58cf459-a677-4d5d-8c7d-67279f8aa13a","ios":"levelo://app?vid=e58cf459-a677-4d5d-8c7d-67279f8aa13a"},"vehicle_type_id":"4","last_reported":1718899838,"current_range_meters":13600,"station_id":"ce4bh0h2rcd13ifvqd50","pricing_plan_id":"cebpf4jnsgd1na2vs0mg"},{"bike_id":"6ce843fb-24fd-4bd7-ae77-464ade6da198","system_id":"levelo_inurba_marseille","lat":43.286593,"lon":5.363346,"is_reserved":false,"is_disabled":false,"rental_uris":{"android":"levelo://app?vid=6ce843fb-24fd-4bd7-ae77-464ade6da198","ios":"levelo://app?vid=6ce843fb-24fd-4bd7-ae77-464ade6da198"},"vehicle_type_id":"4","last_reported":1718899838,"current_range_meters":27600,"station_id":"ce4bhah2rcd13ifvqej0","pricing_plan_id":"cebpf4jnsgd1na2vs0mg"},{"bike_id":"1221abd9-2dee-483e-af8f-90de10efcf7d","system_id":"levelo_inurba_marseille","lat":43.295194,"lon":5.39397,"is_reserved":false,"is_disabled":false,"rental_uris":{"android":"levelo://app?vid=1221abd9-2dee-483e-af8f-90de10efcf7d","ios":"levelo://app?vid=1221abd9-2dee-483e-af8f-90de10efcf7d"},"vehicle_type_id":"4","last_reported":1718899838,"current_range_meters":29600,"station_id":"ce4bh292rcd13ifvqdf0","pricing_plan_id":"cebpf4jnsgd1na2vs0mg"},{"bike_id":"1e3b52cf-ae49-430a-bf52-f415ea577e41","system_id":"levelo_inurba_marseille","lat":43.29528,"lon":5.3941,"is_reserved":false,"is_disabled":false,"rental_uris":{"android":"levelo://app?vid=1e3b52cf-ae49-430a-bf52-f415ea577e41","ios":"levelo://app?vid=1e3b52cf-ae49-430a-bf52-f415ea577e41"},"vehicle_type_id":"4","last_reported":1718899838,"current_range_meters":6000,"station_id":"ce4bh292rcd13ifvqdf0","pricing_plan_id":"cebpf4jnsgd1na2vs0mg"},{"bike_id":"9c0eb7af-04ec-4cde-bce7-bd142a72bcf7","system_id":"levelo_inurba_marseille","lat":43.295194,"lon":5.39397,"is_reserved":false,"is_disabled":false,"rental_uris":{"android":"levelo://app?vid=9c0eb7af-04ec-4cde-bce7-bd142a72bcf7","ios":"levelo://app?vid=9c0eb7af-04ec-4cde-bce7-bd142a72bcf7"},"vehicle_type_id":"4","last_reported":1718899838,"current_range_meters":4400,"station_id":"ce4bh292rcd13ifvqdf0","pricing_plan_id":"cebpf4jnsgd1na2vs0mg"},{"bike_id":"034beda7-7d8a-4ab8-bd79-9d24f0d41015","system_id":"levelo_inurba_marseille","lat":43.28937,"lon":5.38398,"is_reserved":false,"is_disabled":false,"rental_uris":{"android":"levelo://app?vid=034beda7-7d8a-4ab8-bd79-9d24f0d41015","ios":"levelo://app?vid=034beda7-7d8a-4ab8-bd79-9d24f0d41015"},"vehicle_type_id":"4","last_reported":1718899838,"current_range_meters":800,"station_id":"ce4bh612rcd13ifvqe6g","pricing_plan_id":"cebpf4jnsgd1na2vs0mg"},{"bike_id":"db535f8d-dc8b-4734-987d-ef487c865506","system_id":"levelo_inurba_marseille","lat":43.289307,"lon":5.38406,"is_reserved":false,"is_disabled":false,"rental_uris":{"android":"levelo://app?vid=db535f8d-dc8b-4734-987d-ef487c865506","ios":"levelo://app?vid=db535f8d-dc8b-4734-987d-ef487c865506"},"vehicle_type_id":"4","last_reported":1718899838,"current_range_meters":28800,"station_id":"ce4bh612rcd13ifvqe6g","pricing_plan_id":"cebpf4jnsgd1na2vs0mg"},{"bike_id":"debdd25c-33b2-4f78-ba4a-4ba2e2b86606","system_id":"levelo_inurba_marseille","lat":43.302759,"lon":5.400793,"is_reserved":false,"is_disabled":false,"rental_uris":{"android":"levelo://app?vid=debdd25c-33b2-4f78-ba4a-4ba2e2b86606","ios":"levelo://app?vid=debdd25c-33b2-4f78-ba4a-4ba2e2b86606"},"vehicle_type_id":"4","last_reported":1718899838,"current_range_meters":12400,"station_id":"ce4bgvh2rcd13ifvqcs0","pricing_plan_id":"cebpf4jnsgd1na2vs0mg"},{"bike_id":"209b02f6-5e46-4763-b25f-1111f718782d","system_id":"levelo_inurba_marseille","lat":43.33572,"lon":5.38514,"is_reserved":false,"is_disabled":false,"rental_uris":{"android":"levelo://app?vid=209b02f6-5e46-4763-b25f-1111f718782d","ios":"levelo://app?vid=209b02f6-5e46-4763-b25f-1111f718782d"},"vehicle_type_id":"4","last_reported":1718899838,"current_range_meters":8000,"station_id":"","pricing_plan_id":"cebpf4jnsgd1na2vs0mg"},{"bike_id":"c6e34e88-b1c7-4c13-a4e0-1ff26412c5ef","system_id":"levelo_inurba_marseille","lat":43.302759,"lon":5.400793,"is_reserved":false,"is_disabled":false,"rental_uris":{"android":"levelo://app?vid=c6e34e88-b1c7-4c13-a4e0-1ff26412c5ef","ios":"levelo://app?vid=c6e34e88-b1c7-4c13-a4e0-1ff26412c5ef"},"vehicle_type_id":"4","last_reported":1718899838,"current_range_meters":0,"station_id":"ce4bgvh2rcd13ifvqcs0","pricing_plan_id":"cebpf4jnsgd1na2vs0mg"},{"bike_id":"319a0d0b-47c3-47ad-8853-279543a4ffad","system_id":"levelo_inurba_marseille","lat":43.302759,"lon":5.400793,"is_reserved":false,"is_disabled":false,"rental_uris":{"android":"levelo://app?vid=319a0d0b-47c3-47ad-8853-279543a4ffad","ios":"levelo://app?vid=319a0d0b-47c3-47ad-8853-279543a4ffad"},"vehicle_type_id":"4","last_reported":1718899838,"current_range_meters":2800,"station_id":"ce4bgvh2rcd13ifvqcs0","pricing_plan_id":"cebpf4jnsgd1na2vs0mg"},{"bike_id":"7a2fd74c-f504-430c-8e77-c11450ad070a","system_id":"levelo_inurba_marseille","lat":43.29037,"lon":5.386566,"is_reserved":false,"is_disabled":false,"rental_uris":{"android":"levelo://app?vid=7a2fd74c-f504-430c-8e77-c11450ad070a","ios":"levelo://app?vid=7a2fd74c-f504-430c-8e77-c11450ad070a"},"vehicle_type_id":"4","last_reported":1718899838,"current_range_meters":15600,"station_id":"ce4bh4p2rcd13ifvqe0g","pricing_plan_id":"cebpf4jnsgd1na2vs0mg"},{"bike_id":"3fef8045-c260-4846-9bf2-3bde75c1fe79","system_id":"levelo_inurba_marseille","lat":43.290345,"lon":5.38646,"is_reserved":false,"is_disabled":false,"rental_uris":{"android":"levelo://app?vid=3fef8045-c260-4846-9bf2-3bde75c1fe79","ios":"levelo://app?vid=3fef8045-c260-4846-9bf2-3bde75c1fe79"},"vehicle_type_id":"4","last_reported":1718899838,"current_range_meters":6400,"station_id":"ce4bh4p2rcd13ifvqe0g","pricing_plan_id":"cebpf4jnsgd1na2vs0mg"},{"bike_id":"2171615f-44fe-407a-8858-cd77f7c14c26","system_id":"levelo_inurba_marseille","lat":43.2903,"lon":5.3865,"is_reserved":false,"is_disabled":false,"rental_uris":{"android":"levelo://app?vid=2171615f-44fe-407a-8858-cd77f7c14c26","ios":"levelo://app?vid=2171615f-44fe-407a-8858-cd77f7c14c26"},"vehicle_type_id":"4","last_reported":1718899838,"current_range_meters":0,"station_id":"ce4bh4p2rcd13ifvqe0g","pricing_plan_id":"cebpf4jnsgd1na2vs0mg"},{"bike_id":"5abf2ed0-572e-45f7-9b8a-58d779430575","system_id":"levelo_inurba_marseille","lat":43.290345,"lon":5.38646,"is_reserved":false,"is_disabled":false,"rental_uris":{"android":"levelo://app?vid=5abf2ed0-572e-45f7-9b8a-58d779430575","ios":"levelo://app?vid=5abf2ed0-572e-45f7-9b8a-58d779430575"},"vehicle_type_id":"4","last_reported":1718899838,"current_range_meters":26800,"station_id":"ce4bh4p2rcd13ifvqe0g","pricing_plan_id":"cebpf4jnsgd1na2vs0mg"},{"bike_id":"5bd47562-d9e6-4506-a9d8-c71b8760dbdc","system_id":"levelo_inurba_marseille","lat":43.290336,"lon":5.386425,"is_reserved":false,"is_disabled":false,"rental_uris":{"android":"levelo://app?vid=5bd47562-d9e6-4506-a9d8-c71b8760dbdc","ios":"levelo://app?vid=5bd47562-d9e6-4506-a9d8-c71b8760dbdc"},"vehicle_type_id":"4","last_reported":1718899838,"current_range_meters":15200,"station_id":"ce4bh4p2rcd13ifvqe0g","pricing_plan_id":"cebpf4jnsgd1na2vs0mg"},{"bike_id":"391881ba-bf8e-417c-85cf-142c89283447","system_id":"levelo_inurba_marseille","lat":43.302759,"lon":5.400793,"is_reserved":false,"is_disabled":false,"rental_uris":{"android":"levelo://app?vid=391881ba-bf8e-417c-85cf-142c89283447","ios":"levelo://app?vid=391881ba-bf8e-417c-85cf-142c89283447"},"vehicle_type_id":"4","last_reported":1718899838,"current_range_meters":18800,"station_id":"ce4bgvh2rcd13ifvqcs0","pricing_plan_id":"cebpf4jnsgd1na2vs0mg"},{"bike_id":"02075963-1dd0-4c20-8f10-1de658a8b925","system_id":"levelo_inurba_marseille","lat":43.290345,"lon":5.38646,"is_reserved":false,"is_disabled":false,"rental_uris":{"android":"levelo://app?vid=02075963-1dd0-4c20-8f10-1de658a8b925","ios":"levelo://app?vid=02075963-1dd0-4c20-8f10-1de658a8b925"},"vehicle_type_id":"4","last_reported":1718899838,"current_range_meters":7200,"station_id":"ce4bh4p2rcd13ifvqe0g","pricing_plan_id":"cebpf4jnsgd1na2vs0mg"},{"bike_id":"e2bf44f8-391c-4828-af24-ed42f045c456","system_id":"levelo_inurba_marseille","lat":43.302759,"lon":5.400793,"is_reserved":false,"is_disabled":false,"rental_uris":{"android":"levelo://app?vid=e2bf44f8-391c-4828-af24-ed42f045c456","ios":"levelo://app?vid=e2bf44f8-391c-4828-af24-ed42f045c456"},"vehicle_type_id":"4","last_reported":1718899838,"current_range_meters":9600,"station_id":"ce4bgvh2rcd13ifvqcs0","pricing_plan_id":"cebpf4jnsgd1na2vs0mg"},{"bike_id":"2110fc64-6336-40a9-bf48-de320f652d21","system_id":"levelo_inurba_marseille","lat":43.290195,"lon":5.386495,"is_reserved":false,"is_disabled":false,"rental_uris":{"android":"levelo://app?vid=2110fc64-6336-40a9-bf48-de320f652d21","ios":"levelo://app?vid=2110fc64-6336-40a9-bf48-de320f652d21"},"vehicle_type_id":"4","last_reported":1718899838,"current_range_meters":8400,"station_id":"ce4bh4p2rcd13ifvqe0g","pricing_plan_id":"cebpf4jnsgd1na2vs0mg"},{"bike_id":"e0ae3e67-ab27-4ed6-b898-d704f4c891a3","system_id":"levelo_inurba_marseille","lat":43.286039,"lon":5.370679,"is_reserved":false,"is_disabled":false,"rental_uris":{"android":"levelo://app?vid=e0ae3e67-ab27-4ed6-b898-d704f4c891a3","ios":"levelo://app?vid=e0ae3e67-ab27-4ed6-b898-d704f4c891a3"},"vehicle_type_id":"4","last_reported":1718899838,"current_range_meters":13200,"station_id":"ce4bht12rcd13ifvqi60","pricing_plan_id":"cebpf4jnsgd1na2vs0mg"},{"bike_id":"89ab2d3e-29b2-45e9-956d-17927972f0c5","system_id":"levelo_inurba_marseille","lat":43.286039,"lon":5.370679,"is_reserved":false,"is_disabled":false,"rental_uris":{"android":"levelo://app?vid=89ab2d3e-29b2-45e9-956d-17927972f0c5","ios":"levelo://app?vid=89ab2d3e-29b2-45e9-956d-17927972f0c5"},"vehicle_type_id":"4","last_reported":1718899838,"current_range_meters":29600,"station_id":"ce4bht12rcd13ifvqi60","pricing_plan_id":"cebpf4jnsgd1na2vs0mg"},{"bike_id":"2baabc7a-ead7-4c46-a04e-2c6d8487b024","system_id":"levelo_inurba_marseille","lat":43.286039,"lon":5.370679,"is_reserved":false,"is_disabled":false,"rental_uris":{"android":"levelo://app?vid=2baabc7a-ead7-4c46-a04e-2c6d8487b024","ios":"levelo://app?vid=2baabc7a-ead7-4c46-a04e-2c6d8487b024"},"vehicle_type_id":"4","last_reported":1718899838,"current_range_meters":0,"station_id":"ce4bht12rcd13ifvqi60","pricing_plan_id":"cebpf4jnsgd1na2vs0mg"},{"bike_id":"d9982830-9f03-4cf7-872b-f717e4bfa2bd","system_id":"levelo_inurba_marseille","lat":43.286039,"lon":5.370679,"is_reserved":false,"is_disabled":false,"rental_uris":{"android":"levelo://app?vid=d9982830-9f03-4cf7-872b-f717e4bfa2bd","ios":"levelo://app?vid=d9982830-9f03-4cf7-872b-f717e4bfa2bd"},"vehicle_type_id":"4","last_reported":1718899838,"current_range_meters":4400,"station_id":"ce4bht12rcd13ifvqi60","pricing_plan_id":"cebpf4jnsgd1na2vs0mg"},{"bike_id":"1ef1a126-df9b-4d01-b6e2-4bbf9e43b602","system_id":"levelo_inurba_marseille","lat":43.287184,"lon":5.37937,"is_reserved":false,"is_disabled":false,"rental_uris":{"android":"levelo://app?vid=1ef1a126-df9b-4d01-b6e2-4bbf9e43b602","ios":"levelo://app?vid=1ef1a126-df9b-4d01-b6e2-4bbf9e43b602"},"vehicle_type_id":"4","last_reported":1718899838,"current_range_meters":17600,"station_id":"ce4bh9p2rcd13ifvqec0","pricing_plan_id":"cebpf4jnsgd1na2vs0mg"},{"bike_id":"9e796cf7-efec-4f6c-9d94-b2fd728d95a2","system_id":"levelo_inurba_marseille","lat":43.287185,"lon":5.379373,"is_reserved":false,"is_disabled":false,"rental_uris":{"android":"levelo://app?vid=9e796cf7-efec-4f6c-9d94-b2fd728d95a2","ios":"levelo://app?vid=9e796cf7-efec-4f6c-9d94-b2fd728d95a2"},"vehicle_type_id":"4","last_reported":1718899838,"current_range_meters":5600,"station_id":"ce4bh9p2rcd13ifvqec0","pricing_plan_id":"cebpf4jnsgd1na2vs0mg"},{"bike_id":"3484d9e5-c700-4fbd-aecf-7e36b1d3b167","system_id":"levelo_inurba_marseille","lat":43.28716,"lon":5.37941,"is_reserved":false,"is_disabled":false,"rental_uris":{"android":"levelo://app?vid=3484d9e5-c700-4fbd-aecf-7e36b1d3b167","ios":"levelo://app?vid=3484d9e5-c700-4fbd-aecf-7e36b1d3b167"},"vehicle_type_id":"4","last_reported":1718899838,"current_range_meters":0,"station_id":"ce4bh9p2rcd13ifvqec0","pricing_plan_id":"cebpf4jnsgd1na2vs0mg"},{"bike_id":"d07284b4-8e85-4993-9245-a3b6f5256efa","system_id":"levelo_inurba_marseille","lat":43.316828,"lon":5.404723,"is_reserved":false,"is_disabled":false,"rental_uris":{"android":"levelo://app?vid=d07284b4-8e85-4993-9245-a3b6f5256efa","ios":"levelo://app?vid=d07284b4-8e85-4993-9245-a3b6f5256efa"},"vehicle_type_id":"4","last_reported":1718899838,"current_range_meters":3200,"station_id":"ce4bh012rcd13ifvqd00","pricing_plan_id":"cebpf4jnsgd1na2vs0mg"},{"bike_id":"a78205a9-8078-42f3-ba07-83331e0300c6","system_id":"levelo_inurba_marseille","lat":43.291994,"lon":5.392907,"is_reserved":false,"is_disabled":false,"rental_uris":{"android":"levelo://app?vid=a78205a9-8078-42f3-ba07-83331e0300c6","ios":"levelo://app?vid=a78205a9-8078-42f3-ba07-83331e0300c6"},"vehicle_type_id":"4","last_reported":1718899838,"current_range_meters":5600,"station_id":"ce4bh192rcd13ifvqdd0","pricing_plan_id":"cebpf4jnsgd1na2vs0mg"},{"bike_id":"bb8f3c26-644a-4b27-b9a6-384bb221c63e","system_id":"levelo_inurba_marseille","lat":43.291994,"lon":5.392907,"is_reserved":false,"is_disabled":false,"rental_uris":{"android":"levelo://app?vid=bb8f3c26-644a-4b27-b9a6-384bb221c63e","ios":"levelo://app?vid=bb8f3c26-644a-4b27-b9a6-384bb221c63e"},"vehicle_type_id":"4","last_reported":1718899838,"current_range_meters":0,"station_id":"ce4bh192rcd13ifvqdd0","pricing_plan_id":"cebpf4jnsgd1na2vs0mg"},{"bike_id":"d4ab29e4-c1ee-4dbf-906f-6805a6802fcc","system_id":"levelo_inurba_marseille","lat":43.284538,"lon":5.358657,"is_reserved":false,"is_disabled":false,"rental_uris":{"android":"levelo://app?vid=d4ab29e4-c1ee-4dbf-906f-6805a6802fcc","ios":"levelo://app?vid=d4ab29e4-c1ee-4dbf-906f-6805a6802fcc"},"vehicle_type_id":"4","last_reported":1718899838,"current_range_meters":11600,"station_id":"ce4bhah2rcd13ifvqei0","pricing_plan_id":"cebpf4jnsgd1na2vs0mg"},{"bike_id":"97e25126-207e-406d-b08c-011633f9687e","system_id":"levelo_inurba_marseille","lat":43.284665,"lon":5.358934,"is_reserved":false,"is_disabled":false,"rental_uris":{"android":"levelo://app?vid=97e25126-207e-406d-b08c-011633f9687e","ios":"levelo://app?vid=97e25126-207e-406d-b08c-011633f9687e"},"vehicle_type_id":"4","last_reported":1718899838,"current_range_meters":20000,"station_id":"ce4bhah2rcd13ifvqei0","pricing_plan_id":"cebpf4jnsgd1na2vs0mg"},{"bike_id":"151eaa41-a575-46c7-8f47-1a9f02f8ae51","system_id":"levelo_inurba_marseille","lat":43.284538,"lon":5.358657,"is_reserved":false,"is_disabled":false,"rental_uris":{"android":"levelo://app?vid=151eaa41-a575-46c7-8f47-1a9f02f8ae51","ios":"levelo://app?vid=151eaa41-a575-46c7-8f47-1a9f02f8ae51"},"vehicle_type_id":"4","last_reported":1718899838,"current_range_meters":10400,"station_id":"ce4bhah2rcd13ifvqei0","pricing_plan_id":"cebpf4jnsgd1na2vs0mg"},{"bike_id":"2b52e30a-fd56-4289-8594-982be1561320","system_id":"levelo_inurba_marseille","lat":43.284538,"lon":5.358657,"is_reserved":false,"is_disabled":false,"rental_uris":{"android":"levelo://app?vid=2b52e30a-fd56-4289-8594-982be1561320","ios":"levelo://app?vid=2b52e30a-fd56-4289-8594-982be1561320"},"vehicle_type_id":"4","last_reported":1718899838,"current_range_meters":0,"station_id":"ce4bhah2rcd13ifvqei0","pricing_plan_id":"cebpf4jnsgd1na2vs0mg"},{"bike_id":"04ce98d5-5a00-4413-8030-af7a8f843084","system_id":"levelo_inurba_marseille","lat":43.284538,"lon":5.358657,"is_reserved":false,"is_disabled":false,"rental_uris":{"android":"levelo://app?vid=04ce98d5-5a00-4413-8030-af7a8f843084","ios":"levelo://app?vid=04ce98d5-5a00-4413-8030-af7a8f843084"},