{"last_updated":1726697258,"ttl":30,"version":"2.2","data":{"bikes":[{"bike_id":"53f85c0f-9bc3-428d-8e67-2607741aa3ee","system_id":"levelo_inurba_marseille","lat":43.32543,"lon":5.41439,"is_reserved":false,"is_disabled":false,"rental_uris":{"android":"levelo://app?vid=53f85c0f-9bc3-428d-8e67-2607741aa3ee","ios":"levelo://app?vid=53f85c0f-9bc3-428d-8e67-2607741aa3ee"},"vehicle_type_id":"4","last_reported":1726697258,"current_range_meters":16800,"station_id":"ce4bhq12rcd13ifvqhhg","pricing_plan_id":"cebpf4jnsgd1na2vs0mg"},{"bike_id":"12679f1c-674e-42f5-9e40-29bc963981ac","system_id":"levelo_inurba_marseille","lat":43.27949,"lon":5.41047,"is_reserved":false,"is_disabled":false,"rental_uris":{"android":"levelo://app?vid=12679f1c-674e-42f5-9e40-29bc963981ac","ios":"levelo://app?vid=12679f1c-674e-42f5-9e40-29bc963981ac"},"vehicle_type_id":"4","last_reported":1726697258,"current_range_meters":36400,"station_id":"ce4bhnp2rcd13ifvqh0g","pricing_plan_id":"cebpf4jnsgd1na2vs0mg"},{"bike_id":"0288d614-6e4f-4934-ad15-cf509b72b6b9","system_id":"levelo_inurba_marseille","lat":43.27501,"lon":5.42456,"is_reserved":false,"is_disabled":false,"rental_uris":{"android":"levelo://app?vid=0288d614-6e4f-4934-ad15-cf509b72b6b9","ios":"levelo://app?vid=0288d614-6e4f-4934-ad15-cf509b72b6b9"},"vehicle_type_id":"4","last_reported":1726697258,"current_range_meters":39200,"station_id":"ce4bhn92rcd13ifvqgrg","pricing_plan_id":"cebpf4jnsgd1na2vs0mg"},{"bike_id":"3eb6c9c2-4c2a-48cf-b6ca-2051c0baa353","system_id":"levelo_inurba_marseille","lat":43.25867,"lon":5.39896,"is_reserved":false,"is_disabled":false,"rental_uris":{"android":"levelo://app?vid=3eb6c9c2-4c2a-48cf-b6ca-2051c0baa353","ios":"levelo://app?vid=3eb6c9c2-4c2a-48cf-b6ca-2051c0baa353"},"vehicle_type_id":"4","last_reported":1726697258,"current_range_meters":33600,"station_id":"ce4bhl92rcd13ifvqghg","pricing_plan_id":"cebpf4jnsgd1na2vs0mg"},{"bike_id":"4e716995-f263-4f52-b2fb-2ed7cf45ae45","system_id":"levelo_inurba_marseille","lat":43.28268,"lon":5.35073,"is_reserved":false,"is_disabled":false,"rental_uris":{"android":"levelo://app?vid=4e716995-f263-4f52-b2fb-2ed7cf45ae45","ios":"levelo://app?vid=4e716995-f263-4f52-b2fb-2ed7cf45ae45"},"vehicle_type_id":"4","last_reported":1726697258,"current_range_meters":38400,"station_id":"ce4bhbp2rcd13ifvqerg","pricing_plan_id":"cebpf4jnsgd1na2vs0mg"},{"bike_id":"6a3ddc2a-1be4-4577-a233-5cc468852dcd","system_id":"levelo_inurba_marseille","lat":43.28658,"lon":5.3636,"is_reserved":false,"is_disabled":false,"rental_uris":{"android":"levelo://app?vid=6a3ddc2a-1be4-4577-a233-5cc468852dcd","ios":"levelo://app?vid=6a3ddc2a-1be4-4577-a233-5cc468852dcd"},"vehicle_type_id":"4","last_reported":1726697258,"current_range_meters":27600,"station_id":"ce4bhah2rcd13ifvqej0","pricing_plan_id":"cebpf4jnsgd1na2vs0mg"},{"bike_id":"6cb80f7a-647c-431f-af80-0a5fa80b3e12","system_id":"levelo_inurba_marseille","lat":43.31343,"lon":5.39705,"is_reserved":false,"is_disabled":false,"rental_uris":{"android":"levelo://app?vid=6cb80f7a-647c-431f-af80-0a5fa80b3e12","ios":"levelo://app?vid=6cb80f7a-647c-431f-af80-0a5fa80b3e12"},"vehicle_type_id":"4","last_reported":1726697258,"current_range_meters":14400,"station_id":"ce4bgvp2rcd13ifvqcu0","pricing_plan_id":"cebpf4jnsgd1na2vs0mg"},{"bike_id":"dd0d6c40-5bec-4397-8580-2628aae2ec2a","system_id":"levelo_inurba_marseille","lat":43.22926,"lon":5.35376,"is_reserved":false,"is_disabled":false,"rental_uris":{"android":"levelo://app?vid=dd0d6c40-5bec-4397-8580-2628aae2ec2a","ios":"levelo://app?vid=dd0d6c40-5bec-4397-8580-2628aae2ec2a"},"vehicle_type_id":"4","last_reported":1726697258,"current_range_meters":39200,"station_id":"cpo3532slgdg3j2ikp40","pricing_plan_id":"cebpf4jnsgd1na2vs0mg"},{"bike_id":"64c965d1-5882-4cc1-b789-3a68c462abe0","system_id":"levelo_inurba_marseille","lat":43.2989,"lon":5.43673,"is_reserved":false,"is_disabled":false,"rental_uris":{"android":"levelo://app?vid=64c965d1-5882-4cc1-b789-3a68c462abe0","ios":"levelo://app?vid=64c965d1-5882-4cc1-b789-3a68c462abe0"},"vehicle_type_id":"4","last_reported":1726697258,"current_range_meters":35200,"station_id":"ce4bhpp2rcd13ifvqhfg","pricing_plan_id":"cebpf4jnsgd1na2vs0mg"},{"bike_id":"bacb43fb-672e-47ff-a284-9b934c0afb36","system_id":"levelo_inurba_marseille","lat":43.26498,"lon":5.39545,"is_reserved":false,"is_disabled":false,"rental_uris":{"android":"levelo://app?vid=bacb43fb-672e-47ff-a284-9b934c0afb36","ios":"levelo://app?vid=bacb43fb-672e-47ff-a284-9b934c0afb36"},"vehicle_type_id":"4","last_reported":1726697258,"current_range_meters":32800,"station_id":"ce4bhi12rcd13ifvqfq0","pricing_plan_id":"cebpf4jnsgd1na2vs0mg"},{"bike_id":"0d1bc426-802a-417c-a284-12ea603100ea","system_id":"levelo_inurba_marseille","lat":43.31331,"lon":5.39695,"is_reserved":false,"is_disabled":false,"rental_uris":{"android":"levelo://app?vid=0d1bc426-802a-417c-a284-12ea603100ea","ios":"levelo://app?vid=0d1bc426-802a-417c-a284-12ea603100ea"},"vehicle_type_id":"4","last_reported":1726697258,"current_range_meters":24800,"station_id":"ce4bgvp2rcd13ifvqcu0","pricing_plan_id":"cebpf4jnsgd1na2vs0mg"},{"bike_id":"fe5cc69f-135c-4287-96fa-c3129f56eaa3","system_id":"levelo_inurba_marseille","lat":43.29251,"lon":5.40929,"is_reserved":false,"is_disabled":false,"rental_uris":{"android":"levelo://app?vid=fe5cc69f-135c-4287-96fa-c3129f56eaa3","ios":"levelo://app?vid=fe5cc69f-135c-4287-96fa-c3129f56eaa3"},"vehicle_type_id":"4","last_reported":1726697258,"current_range_meters":30000,"station_id":"ce4bh192rcd13ifvqdc0","pricing_plan_id":"cebpf4jnsgd1na2vs0mg"},{"bike_id":"12ca8798-d15b-49cc-a8e7-75f7c34ba400","system_id":"levelo_inurba_marseille","lat":43.33026,"lon":5.39044,"is_reserved":false,"is_disabled":false,"rental_uris":{"android":"levelo://app?vid=12ca8798-d15b-49cc-a8e7-75f7c34ba400","ios":"levelo://app?vid=12ca8798-d15b-49cc-a8e7-75f7c34ba400"},"vehicle_type_id":"4","last_reported":1726697258,"current_range_meters":33200,"station_id":"ce4bhr92rcd13ifvqhrg","pricing_plan_id":"cebpf4jnsgd1na2vs0mg"},{"bike_id":"461eab1c-f46c-4e91-9d26-3401b5a13438","system_id":"levelo_inurba_marseille","lat":43.29865,"lon":5.37246,"is_reserved":false,"is_disabled":false,"rental_uris":{"android":"levelo://app?vid=461eab1c-f46c-4e91-9d26-3401b5a13438","ios":"levelo://app?vid=461eab1c-f46c-4e91-9d26-3401b5a13438"},"vehicle_type_id":"4","last_reported":1726697258,"current_range_meters":38800,"station_id":"","pricing_plan_id":"cebpf4jnsgd1na2vs0mg"},{"bike_id":"3f0a2a24-4a5a-47db-939d-31e92accc7a0","system_id":"levelo_inurba_marseille","lat":43.27056,"lon":5.40265,"is_reserved":false,"is_disabled":false,"rental_uris":{"android":"levelo://app?vid=3f0a2a24-4a5a-47db-939d-31e92accc7a0","ios":"levelo://app?vid=3f0a2a24-4a5a-47db-939d-31e92accc7a0"},"vehicle_type_id":"4","last_reported":1726697258,"current_range_meters":19200,"station_id":"ce4bhk92rcd13ifvqgc0","pricing_plan_id":"cebpf4jnsgd1na2vs0mg"},{"bike_id":"e532fd53-ad12-4848-82ea-70ac934c1c37","system_id":"levelo_inurba_marseille","lat":43.337444,"lon":5.374475,"is_reserved":false,"is_disabled":false,"rental_uris":{"android":"levelo://app?vid=e532fd53-ad12-4848-82ea-70ac934c1c37","ios":"levelo://app?vid=e532fd53-ad12-4848-82ea-70ac934c1c37"},"vehicle_type_id":"4","last_reported":1726697258,"current_range_meters":18800,"station_id":"","pricing_plan_id":"cebpf4jnsgd1na2vs0mg"},{"bike_id":"bc4d75b9-86d4-4f2a-83b8-0920a88e0cf6","system_id":"levelo_inurba_marseille","lat":43.29933,"lon":5.36548,"is_reserved":false,"is_disabled":false,"rental_uris":{"android":"levelo://app?vid=bc4d75b9-86d4-4f2a-83b8-0920a88e0cf6","ios":"levelo://app?vid=bc4d75b9-86d4-4f2a-83b8-0920a88e0cf6"},"vehicle_type_id":"4","last_reported":1726697258,"current_range_meters":6800,"station_id":"ce4bgm92rcd13ifvqbr0","pricing_plan_id":"cebpf4jnsgd1na2vs0mg"},{"bike_id":"16aff90c-07c9-446e-b8cf-7b04ea13322c","system_id":"levelo_inurba_marseille","lat":43.28156,"lon":5.42641,"is_reserved":false,"is_disabled":false,"rental_uris":{"android":"levelo://app?vid=16aff90c-07c9-446e-b8cf-7b04ea13322c","ios":"levelo://app?vid=16aff90c-07c9-446e-b8cf-7b04ea13322c"},"vehicle_type_id":"4","last_reported":1726697258,"current_range_meters":38000,"station_id":"ce4bhnh2rcd13ifvqgug","pricing_plan_id":"cebpf4jnsgd1na2vs0mg"},{"bike_id":"e4c9e20e-ec4f-4080-996d-f0df0a493f71","system_id":"levelo_inurba_marseille","lat":43.30327,"lon":5.40438,"is_reserved":false,"is_disabled":false,"rental_uris":{"android":"levelo://app?vid=e4c9e20e-ec4f-4080-996d-f0df0a493f71","ios":"levelo://app?vid=e4c9e20e-ec4f-4080-996d-f0df0a493f71"},"vehicle_type_id":"4","last_reported":1726697258,"current_range_meters":24400,"station_id":"ce4bh012rcd13ifvqd10","pricing_plan_id":"cebpf4jnsgd1na2vs0mg"},{"bike_id":"ab6b454d-e1a8-4eaf-8a0e-951053d26f42","system_id":"levelo_inurba_marseille","lat":43.30209,"lon":5.39462,"is_reserved":false,"is_disabled":false,"rental_uris":{"android":"levelo://app?vid=ab6b454d-e1a8-4eaf-8a0e-951053d26f42","ios":"levelo://app?vid=ab6b454d-e1a8-4eaf-8a0e-951053d26f42"},"vehicle_type_id":"4","last_reported":1726697258,"current_range_meters":25200,"station_id":"ce4bh0p2rcd13ifvqd70","pricing_plan_id":"cebpf4jnsgd1na2vs0mg"},{"bike_id":"4ae6cb59-cca5-4c2c-9d45-f351c05e600b","system_id":"levelo_inurba_marseille","lat":43.30286,"lon":5.39662,"is_reserved":false,"is_disabled":false,"rental_uris":{"android":"levelo://app?vid=4ae6cb59-cca5-4c2c-9d45-f351c05e600b","ios":"levelo://app?vid=4ae6cb59-cca5-4c2c-9d45-f351c05e600b"},"vehicle_type_id":"4","last_reported":1726697258,"current_range_meters":2800,"station_id":"","pricing_plan_id":"cebpf4jnsgd1na2vs0mg"},{"bike_id":"31984896-19d8-4961-9d12-66e62eb7e1b9","system_id":"levelo_inurba_marseille","lat":43.28621,"lon":5.35106,"is_reserved":false,"is_disabled":false,"rental_uris":{"android":"levelo://app?vid=31984896-19d8-4961-9d12-66e62eb7e1b9","ios":"levelo://app?vid=31984896-19d8-4961-9d12-66e62eb7e1b9"},"vehicle_type_id":"4","last_reported":1726697258,"current_range_meters":38800,"station_id":"ce4bhch2rcd13ifvqeug","pricing_plan_id":"cebpf4jnsgd1na2vs0mg"},{"bike_id":"61c3fb8d-f1ae-4f0e-a433-68e4163be93e","system_id":"levelo_inurba_marseille","lat":43.28414,"lon":5.3752,"is_reserved":false,"is_disabled":false,"rental_uris":{"android":"levelo://app?vid=61c3fb8d-f1ae-4f0e-a433-68e4163be93e","ios":"levelo://app?vid=61c3fb8d-f1ae-4f0e-a433-68e4163be93e"},"vehicle_type_id":"4","last_reported":1726697258,"current_range_meters":6800,"station_id":"ce4bh412rcd13ifvqds0","pricing_plan_id":"cebpf4jnsgd1na2vs0mg"},{"bike_id":"e996e3df-b160-4971-a4b8-ae588a6e2273","system_id":"levelo_inurba_marseille","lat":43.31085,"lon":5.42432,"is_reserved":false,"is_disabled":false,"rental_uris":{"android":"levelo://app?vid=e996e3df-b160-4971-a4b8-ae588a6e2273","ios":"levelo://app?vid=e996e3df-b160-4971-a4b8-ae588a6e2273"},"vehicle_type_id":"4","last_reported":1726697258,"current_range_meters":30000,"station_id":"ce4bhp92rcd13ifvqhag","pricing_plan_id":"cebpf4jnsgd1na2vs0mg"},{"bike_id":"74810271-6dca-4928-9cc4-6c7ab5945949","system_id":"levelo_inurba_marseille","lat":43.30895,"lon":5.37196,"is_reserved":false,"is_disabled":false,"rental_uris":{"android":"levelo://app?vid=74810271-6dca-4928-9cc4-6c7ab5945949","ios":"levelo://app?vid=74810271-6dca-4928-9cc4-6c7ab5945949"},"vehicle_type_id":"4","last_reported":1726697258,"current_range_meters":31200,"station_id":"ce4bguh2rcd13ifvqckg","pricing_plan_id":"cebpf4jnsgd1na2vs0mg"},{"bike_id":"78af430c-86d6-4a41-89c3-4d3bf7be2957","system_id":"levelo_inurba_marseille","lat":43.28713,"lon":5.37947,"is_reserved":false,"is_disabled":false,"rental_uris":{"android":"levelo://app?vid=78af430c-86d6-4a41-89c3-4d3bf7be2957","ios":"levelo://app?vid=78af430c-86d6-4a41-89c3-4d3bf7be2957"},"vehicle_type_id":"4","last_reported":1726697258,"current_range_meters":38800,"station_id":"ce4bh9p2rcd13ifvqec0","pricing_plan_id":"cebpf4jnsgd1na2vs0mg"},{"bike_id":"3a50afd2-cdfd-4dd4-900b-cf09c58ce3d6","system_id":"levelo_inurba_marseille","lat":43.2707,"lon":5.42283,"is_reserved":false,"is_disabled":false,"rental_uris":{"android":"levelo://app?vid=3a50afd2-cdfd-4dd4-900b-cf09c58ce3d6","ios":"levelo://app?vid=3a50afd2-cdfd-4dd4-900b-cf09c58ce3d6"},"vehicle_type_id":"4","last_reported":1726697258,"current_range_meters":31200,"station_id":"ce4bhk92rcd13ifvqgb0","pricing_plan_id":"cebpf4jnsgd1na2vs0mg"},{"bike_id":"1990f9ed-b0a9-4db5-8aa8-97b4d764c0af","system_id":"levelo_inurba_marseille","lat":43.26685,"lon":5.38273,"is_reserved":false,"is_disabled":false,"rental_uris":{"android":"levelo://app?vid=1990f9ed-b0a9-4db5-8aa8-97b4d764c0af","ios":"levelo://app?vid=1990f9ed-b0a9-4db5-8aa8-97b4d764c0af"},"vehicle_type_id":"4","last_reported":1726697258,"current_range_meters":38800,"station_id":"ce4bhg92rcd13ifvqf90","pricing_plan_id":"cebpf4jnsgd1na2vs0mg"},{"bike_id":"4a7d4981-5546-48b7-ac48-90a96aed12d3","system_id":"levelo_inurba_marseille","lat":43.26945,"lon":5.40254,"is_reserved":false,"is_disabled":false,"rental_uris":{"android":"levelo://app?vid=4a7d4981-5546-48b7-ac48-90a96aed12d3","ios":"levelo://app?vid=4a7d4981-5546-48b7-ac48-90a96aed12d3"},"vehicle_type_id":"4","last_reported":1726697258,"current_range_meters":8800,"station_id":"cjm6bp8fraef2m0cb0m0","pricing_plan_id":"cebpf4jnsgd1na2vs0mg"},{"bike_id":"bed91c9d-d86a-48eb-9707-c4bc0626e228","system_id":"levelo_inurba_marseille","lat":43.24667,"lon":5.38169,"is_reserved":false,"is_disabled":false,"rental_uris":{"android":"levelo://app?vid=bed91c9d-d86a-48eb-9707-c4bc0626e228","ios":"levelo://app?vid=bed91c9d-d86a-48eb-9707-c4bc0626e228"},"vehicle_type_id":"4","last_reported":1726697258,"current_range_meters":27200,"station_id":"ce4bhih2rcd13ifvqfr0","pricing_plan_id":"cebpf4jnsgd1na2vs0mg"},{"bike_id":"c8b16021-ad4f-4c1b-80b1-7d1b9c811227","system_id":"levelo_inurba_marseille","lat":43.32366,"lon":5.38884,"is_reserved":false,"is_disabled":false,"rental_uris":{"android":"levelo://app?vid=c8b16021-ad4f-4c1b-80b1-7d1b9c811227","ios":"levelo://app?vid=c8b16021-ad4f-4c1b-80b1-7d1b9c811227"},"vehicle_type_id":"4","last_reported":1726697258,"current_range_meters":8000,"station_id":"ce4bhqp2rcd13ifvqhog","pricing_plan_id":"cebpf4jnsgd1na2vs0mg"},{"bike_id":"68a7d5ca-7f3c-4e66-a6c0-328197e4d20f","system_id":"levelo_inurba_marseille","lat":43.29011,"lon":5.35613,"is_reserved":false,"is_disabled":false,"rental_uris":{"android":"levelo://app?vid=68a7d5ca-7f3c-4e66-a6c0-328197e4d20f","ios":"levelo://app?vid=68a7d5ca-7f3c-4e66-a6c0-328197e4d20f"},"vehicle_type_id":"4","last_reported":1726697258,"current_range_meters":19200,"station_id":"ce4bhb92rcd13ifvqen0","pricing_plan_id":"cebpf4jnsgd1na2vs0mg"},{"bike_id":"15936ed4-a2a4-4ebf-8af4-75867624e631","system_id":"levelo_inurba_marseille","lat":43.29794,"lon":5.37112,"is_reserved":false,"is_disabled":false,"rental_uris":{"android":"levelo://app?vid=15936ed4-a2a4-4ebf-8af4-75867624e631","ios":"levelo://app?vid=15936ed4-a2a4-4ebf-8af4-75867624e631"},"vehicle_type_id":"4","last_reported":1726697258,"current_range_meters":38800,"station_id":"ce4bgop2rcd13ifvqc1g","pricing_plan_id":"cebpf4jnsgd1na2vs0mg"},{"bike_id":"9abe679c-f0a2-46ca-a47e-6fe6d976f928","system_id":"levelo_inurba_marseille","lat":43.30147,"lon":5.3987,"is_reserved":false,"is_disabled":false,"rental_uris":{"android":"levelo://app?vid=9abe679c-f0a2-46ca-a47e-6fe6d976f928","ios":"levelo://app?vid=9abe679c-f0a2-46ca-a47e-6fe6d976f928"},"vehicle_type_id":"4","last_reported":1726697258,"current_range_meters":40000,"station_id":"ce4bh0h2rcd13ifvqd40","pricing_plan_id":"cebpf4jnsgd1na2vs0mg"},{"bike_id":"6fca5209-2cfc-475c-bf2d-19e350f4b119","system_id":"levelo_inurba_marseille","lat":43.31169,"lon":5.38713,"is_reserved":false,"is_disabled":false,"rental_uris":{"android":"levelo://app?vid=6fca5209-2cfc-475c-bf2d-19e350f4b119","ios":"levelo://app?vid=6fca5209-2cfc-475c-bf2d-19e350f4b119"},"vehicle_type_id":"4","last_reported":1726697258,"current_range_meters":33200,"station_id":"ce4bgv12rcd13ifvqcp0","pricing_plan_id":"cebpf4jnsgd1na2vs0mg"},{"bike_id":"d2215a02-5977-47d7-a4f8-3dbd554e2366","system_id":"levelo_inurba_marseille","lat":43.31254,"lon":5.40183,"is_reserved":false,"is_disabled":false,"rental_uris":{"android":"levelo://app?vid=d2215a02-5977-47d7-a4f8-3dbd554e2366","ios":"levelo://app?vid=d2215a02-5977-47d7-a4f8-3dbd554e2366"},"vehicle_type_id":"4","last_reported":1726697258,"current_range_meters":32800,"station_id":"ce4bh092rcd13ifvqd30","pricing_plan_id":"cebpf4jnsgd1na2vs0mg"},{"bike_id":"562f8830-0282-4afb-ad74-0edfeab1f1c1","system_id":"levelo_inurba_marseille","lat":43.24072,"lon":5.37762,"is_reserved":false,"is_disabled":false,"rental_uris":{"android":"levelo://app?vid=562f8830-0282-4afb-ad74-0edfeab1f1c1","ios":"levelo://app?vid=562f8830-0282-4afb-ad74-0edfeab1f1c1"},"vehicle_type_id":"4","last_reported":1726697258,"current_range_meters":36400,"station_id":"ce4bhnp2rcd13ifvqgvg","pricing_plan_id":"cebpf4jnsgd1na2vs0mg"},{"bike_id":"90d40abe-b095-4f0b-8811-2a51c6549295","system_id":"levelo_inurba_marseille","lat":43.26055,"lon":5.39395,"is_reserved":false,"is_disabled":false,"rental_uris":{"android":"levelo://app?vid=90d40abe-b095-4f0b-8811-2a51c6549295","ios":"levelo://app?vid=90d40abe-b095-4f0b-8811-2a51c6549295"},"vehicle_type_id":"4","last_reported":1726697258,"current_range_meters":38800,"station_id":"ce4bhh92rcd13ifvqfj0","pricing_plan_id":"cebpf4jnsgd1na2vs0mg"},{"bike_id":"187f7ecf-ccc0-4e0f-a855-d748a5435d6f","system_id":"levelo_inurba_marseille","lat":43.24664,"lon":5.38162,"is_reserved":false,"is_disabled":false,"rental_uris":{"android":"levelo://app?vid=187f7ecf-ccc0-4e0f-a855-d748a5435d6f","ios":"levelo://app?vid=187f7ecf-ccc0-4e0f-a855-d748a5435d6f"},"vehicle_type_id":"4","last_reported":1726697258,"current_range_meters":20800,"station_id":"ce4bhih2rcd13ifvqfr0","pricing_plan_id":"cebpf4jnsgd1na2vs0mg"},{"bike_id":"503364ec-3315-4abd-a585-069a4f356547","system_id":"levelo_inurba_marseille","lat":43.28458,"lon":5.35892,"is_reserved":false,"is_disabled":false,"rental_uris":{"android":"levelo://app?vid=503364ec-3315-4abd-a585-069a4f356547","ios":"levelo://app?vid=503364ec-3315-4abd-a585-069a4f356547"},"vehicle_type_id":"4","last_reported":1726697258,"current_range_meters":38800,"station_id":"ce4bhah2rcd13ifvqei0","pricing_plan_id":"cebpf4jnsgd1na2vs0mg"},{"bike_id":"3ceb4910-26dd-4e94-a3d0-4274cb5a83f0","system_id":"levelo_inurba_marseille","lat":43.30113,"lon":5.40279,"is_reserved":false,"is_disabled":false,"rental_uris":{"android":"levelo://app?vid=3ceb4910-26dd-4e94-a3d0-4274cb5a83f0","ios":"levelo://app?vid=3ceb4910-26dd-4e94-a3d0-4274cb5a83f0"},"vehicle_type_id":"4","last_reported":1726697258,"current_range_meters":4800,"station_id":"","pricing_plan_id":"cebpf4jnsgd1na2vs0mg"},{"bike_id":"0a3ffc0e-8e0f-478e-a002-b5e086f1ac54","system_id":"levelo_inurba_marseille","lat":43.25716,"lon":5.41101,"is_reserved":false,"is_disabled":false,"rental_uris":{"android":"levelo://app?vid=0a3ffc0e-8e0f-478e-a002-b5e086f1ac54","ios":"levelo://app?vid=0a3ffc0e-8e0f-478e-a002-b5e086f1ac54"},"vehicle_type_id":"4","last_reported":1726697258,"current_range_meters":38400,"station_id":"ce4bhkp2rcd13ifvqgd0","pricing_plan_id":"cebpf4jnsgd1na2vs0mg"},{"bike_id":"c2272d1c-de85-40c3-8a06-70b6bf4106b7","system_id":"levelo_inurba_marseille","lat":43.30804,"lon":5.43523,"is_reserved":false,"is_disabled":false,"rental_uris":{"android":"levelo://app?vid=c2272d1c-de85-40c3-8a06-70b6bf4106b7","ios":"levelo://app?vid=c2272d1c-de85-40c3-8a06-70b6bf4106b7"},"vehicle_type_id":"4","last_reported":1726697258,"current_range_meters":38800,"station_id":"ce4bhph2rcd13ifvqheg","pricing_plan_id":"cebpf4jnsgd1na2vs0mg"},{"bike_id":"beb4d508-840d-460e-855f-a91031349485","system_id":"levelo_inurba_marseille","lat":43.28937,"lon":5.39624,"is_reserved":false,"is_disabled":false,"rental_uris":{"android":"levelo://app?vid=beb4d508-840d-460e-855f-a91031349485","ios":"levelo://app?vid=beb4d508-840d-460e-855f-a91031349485"},"vehicle_type_id":"4","last_reported":1726697258,"current_range_meters":38000,"station_id":"ce4bh3h2rcd13ifvqdn0","pricing_plan_id":"cebpf4jnsgd1na2vs0mg"},{"bike_id":"5c20a958-d490-41db-84a7-f9730ee7ce03","system_id":"levelo_inurba_marseille","lat":43.29566,"lon":5.39961,"is_reserved":false,"is_disabled":false,"rental_uris":{"android":"levelo://app?vid=5c20a958-d490-41db-84a7-f9730ee7ce03","ios":"levelo://app?vid=5c20a958-d490-41db-84a7-f9730ee7ce03"},"vehicle_type_id":"4","last_reported":1726697258,"current_range_meters":21600,"station_id":"ce4bh312rcd13ifvqdj0","pricing_plan_id":"cebpf4jnsgd1na2vs0mg"},{"bike_id":"dc05a0c9-e2c4-4cd8-9bcc-9d43c0661353","system_id":"levelo_inurba_marseille","lat":43.28456,"lon":5.35888,"is_reserved":false,"is_disabled":false,"rental_uris":{"android":"levelo://app?vid=dc05a0c9-e2c4-4cd8-9bcc-9d43c0661353","ios":"levelo://app?vid=dc05a0c9-e2c4-4cd8-9bcc-9d43c0661353"},"vehicle_type_id":"4","last_reported":1726697258,"current_range_meters":2000,"station_id":"ce4bhah2rcd13ifvqei0","pricing_plan_id":"cebpf4jnsgd1na2vs0mg"},{"bike_id":"ab8b1643-9e7f-47cc-b599-33f414e2c958","system_id":"levelo_inurba_marseille","lat":43.23193,"lon":5.39984,"is_reserved":false,"is_disabled":false,"rental_uris":{"android":"levelo://app?vid=ab8b1643-9e7f-47cc-b599-33f414e2c958","ios":"levelo://app?vid=ab8b1643-9e7f-47cc-b599-33f414e2c958"},"vehicle_type_id":"4","last_reported":1726697258,"current_range_meters":38800,"station_id":"ce4bhn12rcd13ifvqgqg","pricing_plan_id":"cebpf4jnsgd1na2vs0mg"},{"bike_id":"ddc2f7e6-d23b-4d89-96bc-a18a7029d574","system_id":"levelo_inurba_marseille","lat":43.31758,"lon":5.39009,"is_reserved":false,"is_disabled":false,"rental_uris":{"android":"levelo://app?vid=ddc2f7e6-d23b-4d89-96bc-a18a7029d574","ios":"levelo://app?vid=ddc2f7e6-d23b-4d89-96bc-a18a7029d574"},"vehicle_type_id":"4","last_reported":1726697258,"current_range_meters":29600,"station_id":"ce4bhqp2rcd13ifvqhng","pricing_plan_id":"cebpf4jnsgd1na2vs0mg"},{"bike_id":"c2667222-5d26-4d9c-a938-761c480fe584","system_id":"levelo_inurba_marseille","lat":43.33024,"lon":5.39049,"is_reserved":false,"is_disabled":false,"rental_uris":{"android":"levelo://app?vid=c2667222-5d26-4d9c-a938-761c480fe584","ios":"levelo://app?vid=c2667222-5d26-4d9c-a938-761c480fe584"},"vehicle_type_id":"4","last_reported":1726697258,"current_range_meters":8800,"station_id":"ce4bhr92rcd13ifvqhrg","pricing_plan_id":"cebpf4jnsgd1na2vs0mg"},{"bike_id":"fcafa99b-a808-43dd-a42a-2a120b6cb165","system_id":"levelo_inurba_marseille","lat":43.28107,"lon":5.37843,"is_reserved":false,"is_disabled":false,"rental_uris":{"android":"levelo://app?vid=fcafa99b-a808-43dd-a42a-2a120b6cb165","ios":"levelo://app?vid=fcafa99b-a808-43dd-a42a-2a120b6cb165"},"vehicle_type_id":"4","last_reported":1726697258,"current_range_meters":8800,"station_id":"ce4bha12rcd13ifvqee0","pricing_plan_id":"cebpf4jnsgd1na2vs0mg"},{"bike_id":"799f13ad-bcbb-4c96-8b3a-f695e5f8d9e2","system_id":"levelo_inurba_marseille","lat":43.26574,"lon":5.39004,"is_reserved":false,"is_disabled":false,"rental_uris":{"android":"levelo://app?vid=799f13ad-bcbb-4c96-8b3a-f695e5f8d9e2","ios":"levelo://app?vid=799f13ad-bcbb-4c96-8b3a-f695e5f8d9e2"},"vehicle_type_id":"4","last_reported":1726697258,"current_range_meters":29600,"station_id":"ce4bhe12rcd13ifvqf30","pricing_plan_id":"cebpf4jnsgd1na2vs0mg"},{"bike_id":"12dbd066-211c-436a-bc3e-f828b4c8a0ed","system_id":"levelo_inurba_marseille","lat":43.29795,"lon":5.39346,"is_reserved":false,"is_disabled":false,"rental_uris":{"android":"levelo://app?vid=12dbd066-211c-436a-bc3e-f828b4c8a0ed","ios":"levelo://app?vid=12dbd066-211c-436a-bc3e-f828b4c8a0ed"},"vehicle_type_id":"4","last_reported":1726697258,"current_range_meters":38800,"station_id":"chh1huq6cuj3fo74tm60","pricing_plan_id":"cebpf4jnsgd1na2vs0mg"},{"bike_id":"07d1bbea-f436-4716-964a-1cae6b7a5544","system_id":"levelo_inurba_marseille","lat":43.23967,"lon":5.36631,"is_reserved":false,"is_disabled":false,"rental_uris":{"android":"levelo://app?vid=07d1bbea-f436-4716-964a-1cae6b7a5544","ios":"levelo://app?vid=07d1bbea-f436-4716-964a-1cae6b7a5544"},"vehicle_type_id":"4","last_reported":1726697258,"current_range_meters":39200,"station_id":"ce4bhi12rcd13ifvqfp0","pricing_plan_id":"cebpf4jnsgd1na2vs0mg"},{"bike_id":"04cbf491-db5b-41b7-a0b8-628935899ea8","system_id":"levelo_inurba_marseille","lat":43.290588,"lon":5.371551,"is_reserved":false,"is_disabled":false,"rental_uris":{"android":"levelo://app?vid=04cbf491-db5b-41b7-a0b8-628935899ea8","ios":"levelo://app?vid=04cbf491-db5b-41b7-a0b8-628935899ea8"},"vehicle_type_id":"4","last_reported":1726697258,"current_range_meters":32400,"station_id":"ce4bgt12rcd13ifvqcd0","pricing_plan_id":"cebpf4jnsgd1na2vs0mg"},{"bike_id":"a88f87de-d897-406c-817f-6c255e33d475","system_id":"levelo_inurba_marseille","lat":43.31117,"lon":5.37771,"is_reserved":false,"is_disabled":false,"rental_uris":{"android":"levelo://app?vid=a88f87de-d897-406c-817f-6c255e33d475","ios":"levelo://app?vid=a88f87de-d897-406c-817f-6c255e33d475"},"vehicle_type_id":"4","last_reported":1726697258,"current_range_meters":14000,"station_id":"ce4bgt92rcd13ifvqcg0","pricing_plan_id":"cebpf4jnsgd1na2vs0mg"},{"bike_id":"61bac133-0038-40fa-b5d5-4b6a000974b2","system_id":"levelo_inurba_marseille","lat":43.300267,"lon":5.396082,"is_reserved":false,"is_disabled":false,"rental_uris":{"android":"levelo://app?vid=61bac133-0038-40fa-b5d5-4b6a000974b2","ios":"levelo://app?vid=61bac133-0038-40fa-b5d5-4b6a000974b2"},"vehicle_type_id":"4","last_reported":1726697258,"current_range_meters":33200,"station_id":"ce4bh0h2rcd13ifvqd50","pricing_plan_id":"cebpf4jnsgd1na2vs0mg"},{"bike_id":"a538cd01-543d-4d95-8352-6985f9eb5891","system_id":"levelo_inurba_marseille","lat":43.31323,"lon":5.39689,"is_reserved":false,"is_disabled":false,"rental_uris":{"android":"levelo://app?vid=a538cd01-543d-4d95-8352-6985f9eb5891","ios":"levelo://app?vid=a538cd01-543d-4d95-8352-6985f9eb5891"},"vehicle_type_id":"4","last_reported":1726697258,"current_range_meters":26800,"station_id":"ce4bgvp2rcd13ifvqcu0","pricing_plan_id":"cebpf4jnsgd1na2vs0mg"},{"bike_id":"1bdaddb0-3afa-41b4-b612-d2bd6db18652","system_id":"levelo_inurba_marseille","lat":43.28108,"lon":5.3784,"is_reserved":false,"is_disabled":false,"rental_uris":{"android":"levelo://app?vid=1bdaddb0-3afa-41b4-b612-d2bd6db18652","ios":"levelo://app?vid=1bdaddb0-3afa-41b4-b612-d2bd6db18652"},"vehicle_type_id":"4","last_reported":1726697258,"current_range_meters":35200,"station_id":"ce4bha12rcd13ifvqee0","pricing_plan_id":"cebpf4jnsgd1na2vs0mg"},{"bike_id":"215e1243-d773-4d5c-99dd-c9c39a44c76c","system_id":"levelo_inurba_marseille","lat":43.31273,"lon":5.40172,"is_reserved":false,"is_disabled":false,"rental_uris":{"android":"levelo://app?vid=215e1243-d773-4d5c-99dd-c9c39a44c76c","ios":"levelo://app?vid=215e1243-d773-4d5c-99dd-c9c39a44c76c"},"vehicle_type_id":"4","last_reported":1726697258,"current_range_meters":39200,"station_id":"ce4bh092rcd13ifvqd30","pricing_plan_id":"cebpf4jnsgd1na2vs0mg"},{"bike_id":"534e7e8a-25e4-4a26-a663-4830e3f34645","system_id":"levelo_inurba_marseille","lat":43.28475,"lon":5.3842,"is_reserved":false,"is_disabled":false,"rental_uris":{"android":"levelo://app?vid=534e7e8a-25e4-4a26-a663-4830e3f34645","ios":"levelo://app?vid=534e7e8a-25e4-4a26-a663-4830e3f34645"},"vehicle_type_id":"4","last_reported":1726697258,"current_range_meters":30400,"station_id":"ce4bh512rcd13ifvqe3g","pricing_plan_id":"cebpf4jnsgd1na2vs0mg"},{"bike_id":"a0ea4c20-eeae-4054-a4b5-699b69c4c176","system_id":"levelo_inurba_marseille","lat":43.29553,"lon":5.42287,"is_reserved":false,"is_disabled":false,"rental_uris":{"android":"levelo://app?vid=a0ea4c20-eeae-4054-a4b5-699b69c4c176","ios":"levelo://app?vid=a0ea4c20-eeae-4054-a4b5-699b69c4c176"},"vehicle_type_id":"4","last_reported":1726697258,"current_range_meters":17200,"station_id":"ce4bhph2rcd13ifvqhdg","pricing_plan_id":"cebpf4jnsgd1na2vs0mg"},{"bike_id":"81e22808-3d9b-455a-be94-79e784cb9295","system_id":"levelo_inurba_marseille","lat":43.33026,"lon":5.39037,"is_reserved":false,"is_disabled":false,"rental_uris":{"android":"levelo://app?vid=81e22808-3d9b-455a-be94-79e784cb9295","ios":"levelo://app?vid=81e22808-3d9b-455a-be94-79e784cb9295"},"vehicle_type_id":"4","last_reported":1726697258,"current_range_meters":30800,"station_id":"ce4bhr92rcd13ifvqhrg","pricing_plan_id":"cebpf4jnsgd1na2vs0mg"},{"bike_id":"474b82ce-8216-4cd2-908d-1a8c8a90c865","system_id":"levelo_inurba_marseille","lat":43.29445,"lon":5.39749,"is_reserved":false,"is_disabled":false,"rental_uris":{"android":"levelo://app?vid=474b82ce-8216-4cd2-908d-1a8c8a90c865","ios":"levelo://app?vid=474b82ce-8216-4cd2-908d-1a8c8a90c865"},"vehicle_type_id":"4","last_reported":1726697258,"current_range_meters":27600,"station_id":"ce4bh3h2rcd13ifvqdo0","pricing_plan_id":"cebpf4jnsgd1na2vs0mg"},{"bike_id":"f73cab25-e77c-47a3-8def-b8875f74ecae","system_id":"levelo_inurba_marseille","lat":43.2782,"lon":5.39201,"is_reserved":false,"is_disabled":false,"rental_uris":{"android":"levelo://app?vid=f73cab25-e77c-47a3-8def-b8875f74ecae","ios":"levelo://app?vid=f73cab25-e77c-47a3-8def-b8875f74ecae"},"vehicle_type_id":"4","last_reported":1726697258,"current_range_meters":8400,"station_id":"ce4bhjp2rcd13ifvqga0","pricing_plan_id":"cebpf4jnsgd1na2vs0mg"},{"bike_id":"471f5d2b-6054-4015-b2d1-3adfb1b3fc49","system_id":"levelo_inurba_marseille","lat":43.24069,"lon":5.37765,"is_reserved":false,"is_disabled":false,"rental_uris":{"android":"levelo://app?vid=471f5d2b-6054-4015-b2d1-3adfb1b3fc49","ios":"levelo://app?vid=471f5d2b-6054-4015-b2d1-3adfb1b3fc49"},"vehicle_type_id":"4","last_reported":1726697258,"current_range_meters":8400,"station_id":"ce4bhnp2rcd13ifvqgvg","pricing_plan_id":"cebpf4jnsgd1na2vs0mg"},{"bike_id":"7e1d5be8-2c3f-48ef-aa1e-14f1f3130ebe","system_id":"levelo_inurba_marseille","lat":43.23967,"lon":5.36636,"is_reserved":false,"is_disabled":false,"rental_uris":{"android":"levelo://app?vid=7e1d5be8-2c3f-48ef-aa1e-14f1f3130ebe","ios":"levelo://app?vid=7e1d5be8-2c3f-48ef-aa1e-14f1f3130ebe"},"vehicle_type_id":"4","last_reported":1726697258,"current_range_meters":31200,"station_id":"ce4bhi12rcd13ifvqfp0","pricing_plan_id":"cebpf4jnsgd1na2vs0mg"},{"bike_id":"c62d3c7a-4410-4d75-888f-2f933ddc6928","system_id":"levelo_inurba_marseille","lat":43.31711,"lon":5.43706,"is_reserved":false,"is_disabled":false,"rental_uris":{"android":"levelo://app?vid=c62d3c7a-4410-4d75-888f-2f933ddc6928","ios":"levelo://app?vid=c62d3c7a-4410-4d75-888f-2f933ddc6928"},"vehicle_type_id":"4","last_reported":1726697258,"current_range_meters":38800,"station_id":"ce4bhp92rcd13ifvqhcg","pricing_plan_id":"cebpf4jnsgd1na2vs0mg"},{"bike_id":"bf63366c-87b9-4862-a020-53f8279007b5","system_id":"levelo_inurba_marseille","lat":43.27684,"lon":5.38896,"is_reserved":false,"is_disabled":false,"rental_uris":{"android":"levelo://app?vid=bf63366c-87b9-4862-a020-53f8279007b5","ios":"levelo://app?vid=bf63366c-87b9-4862-a020-53f8279007b5"},"vehicle_type_id":"4","last_reported":1726697258,"current_range_meters":38800,"station_id":"ce4bhi12rcd13ifvqfo0","pricing_plan_id":"cebpf4jnsgd1na2vs0mg"},{"bike_id":"a8cf1998-7f9f-4af3-9620-4b99d5e3ad99","system_id":"levelo_inurba_marseille","lat":43.28455,"lon":5.35894,"is_reserved":false,"is_disabled":false,"rental_uris":{"android":"levelo://app?vid=a8cf1998-7f9f-4af3-9620-4b99d5e3ad99","ios":"levelo://app?vid=a8cf1998-7f9f-4af3-9620-4b99d5e3ad99"},"vehicle_type_id":"4","last_reported":1726697258,"current_range_meters":20000,"station_id":"ce4bhah2rcd13ifvqei0","pricing_plan_id":"cebpf4jnsgd1na2vs0mg"},{"bike_id":"86d2fbbc-c469-4ea8-9619-326d1c533696","system_id":"levelo_inurba_marseille","lat":43.25491,"lon":5.37647,"is_reserved":false,"is_disabled":false,"rental_uris":{"android":"levelo://app?vid=86d2fbbc-c469-4ea8-9619-326d1c533696","ios":"levelo://app?vid=86d2fbbc-c469-4ea8-9619-326d1c533696"},"vehicle_type_id":"4","last_reported":1726697258,"current_range_meters":38800,"station_id":"ce4bhh12rcd13ifvqff0","pricing_plan_id":"cebpf4jnsgd1na2vs0mg"},{"bike_id":"52a4eacc-2aea-42e6-ab8c-9b93247667e8","system_id":"levelo_inurba_marseille","lat":43.33721,"lon":5.39188,"is_reserved":false,"is_disabled":false,"rental_uris":{"android":"levelo://app?vid=52a4eacc-2aea-42e6-ab8c-9b93247667e8","ios":"levelo://app?vid=52a4eacc-2aea-42e6-ab8c-9b93247667e8"},"vehicle_type_id":"4","last_reported":1726697258,"current_range_meters":26800,"station_id":"ce4bhr92rcd13ifvqhsg","pricing_plan_id":"cebpf4jnsgd1na2vs0mg"},{"bike_id":"a7ec649a-e17d-4f88-b0c2-2dd13506f258","system_id":"levelo_inurba_marseille","lat":43.28152,"lon":5.42641,"is_reserved":false,"is_disabled":false,"rental_uris":{"android":"levelo://app?vid=a7ec649a-e17d-4f88-b0c2-2dd13506f258","ios":"levelo://app?vid=a7ec649a-e17d-4f88-b0c2-2dd13506f258"},"vehicle_type_id":"4","last_reported":1726697258,"current_range_meters":23200,"station_id":"ce4bhnh2rcd13ifvqgug","pricing_plan_id":"cebpf4jnsgd1na2vs0mg"},{"bike_id":"98008c79-7408-4bff-84dc-57b95a756cc2","system_id":"levelo_inurba_marseille","lat":43.29006,"lon":5.35613,"is_reserved":false,"is_disabled":false,"rental_uris":{"android":"levelo://app?vid=98008c79-7408-4bff-84dc-57b95a756cc2","ios":"levelo://app?vid=98008c79-7408-4bff-84dc-57b95a756cc2"},"vehicle_type_id":"4","last_reported":1726697258,"current_range_meters":28400,"station_id":"ce4bhb92rcd13ifvqen0","pricing_plan_id":"cebpf4jnsgd1na2vs0mg"},{"bike_id":"8f63ed9f-0d3a-4ab5-baf2-ef0c4ac64707","system_id":"levelo_inurba_marseille","lat":43.29556,"lon":5.42286,"is_reserved":false,"is_disabled":false,"rental_uris":{"android":"levelo://app?vid=8f63ed9f-0d3a-4ab5-baf2-ef0c4ac64707","ios":"levelo://app?vid=8f63ed9f-0d3a-4ab5-baf2-ef0c4ac64707"},"vehicle_type_id":"4","last_reported":1726697258,"current_range_meters":38800,"station_id":"ce4bhph2rcd13ifvqhdg","pricing_plan_id":"cebpf4jnsgd1na2vs0mg"},{"bike_id":"e9bc85b8-d4a5-405b-b67d-7fd24c60d2e4","system_id":"levelo_inurba_marseille","lat":43.27965,"lon":5.38723,"is_reserved":false,"is_disabled":false,"rental_uris":{"android":"levelo://app?vid=e9bc85b8-d4a5-405b-b67d-7fd24c60d2e4","ios":"levelo://app?vid=e9bc85b8-d4a5-405b-b67d-7fd24c60d2e4"},"vehicle_type_id":"4","last_reported":1726697258,"current_range_meters":38800,"station_id":"ce4bhg12rcd13ifvqf80","pricing_plan_id":"cebpf4jnsgd1na2vs0mg"},{"bike_id":"86d2afc3-1bd4-4fe5-b347-119a3a37d916","system_id":"levelo_inurba_marseille","lat":43.26804,"lon":5.40264,"is_reserved":false,"is_disabled":false,"rental_uris":{"android":"levelo://app?vid=86d2afc3-1bd4-4fe5-b347-119a3a37d916","ios":"levelo://app?vid=86d2afc3-1bd4-4fe5-b347-119a3a37d916"},"vehicle_type_id":"4","last_reported":1726697258,"current_range_meters":22400,"station_id":"ce501612rcd8frsf0b60","pricing_plan_id":"cebpf4jnsgd1na2vs0mg"},{"bike_id":"beb15bd0-b449-4862-b0ef-bc6b9508122c","system_id":"levelo_inurba_marseille","lat":43.27614,"lon":5.36114,"is_reserved":false,"is_disabled":false,"rental_uris":{"android":"levelo://app?vid=beb15bd0-b449-4862-b0ef-bc6b9508122c","ios":"levelo://app?vid=beb15bd0-b449-4862-b0ef-bc6b9508122c"},"vehicle_type_id":"4","last_reported":1726697258,"current_range_meters":7200,"station_id":"ce4bgj92rcd13ifvqbe0","pricing_plan_id":"cebpf4jnsgd1na2vs0mg"},{"bike_id":"58bb50e3-d916-4077-8fe5-efcdacba84c1","system_id":"levelo_inurba_marseille","lat":43.29805,"lon":5.40404,"is_reserved":false,"is_disabled":false,"rental_uris":{"android":"levelo://app?vid=58bb50e3-d916-4077-8fe5-efcdacba84c1","ios":"levelo://app?vid=58bb50e3-d916-4077-8fe5-efcdacba84c1"},"vehicle_type_id":"4","last_reported":1726697258,"current_range_meters":9200,"station_id":"ce4bh112rcd13ifvqd90","pricing_plan_id":"cebpf4jnsgd1na2vs0mg"},{"bike_id":"5d78b308-9505-4ed0-832a-dc6eb31a5971","system_id":"levelo_inurba_marseille","lat":43.25579,"lon":5.38239,"is_reserved":false,"is_disabled":false,"rental_uris":{"android":"levelo://app?vid=5d78b308-9505-4ed0-832a-dc6eb31a5971","ios":"levelo://app?vid=5d78b308-9505-4ed0-832a-dc6eb31a5971"},"vehicle_type_id":"4","last_reported":1726697258,"current_range_meters":24400,"station_id":"ce4bhih2rcd13ifvqfs0","pricing_plan_id":"cebpf4jnsgd1na2vs0mg"},{"bike_id":"cafdd73d-4866-483c-a5a9-906f34d1ec7c","system_id":"levelo_inurba_marseille","lat":43.31323,"lon":5.39686,"is_reserved":false,"is_disabled":false,"rental_uris":{"android":"levelo://app?vid=cafdd73d-4866-483c-a5a9-906f34d1ec7c","ios":"levelo://app?vid=cafdd73d-4866-483c-a5a9-906f34d1ec7c"},"vehicle_type_id":"4","last_reported":1726697258,"current_range_meters":5600,"station_id":"ce4bgvp2rcd13ifvqcu0","pricing_plan_id":"cebpf4jnsgd1na2vs0mg"},{"bike_id":"ba54f573-336a-40ad-b931-1ca2a8b1e077","system_id":"levelo_inurba_marseille","lat":43.25822,"lon":5.39436,"is_reserved":false,"is_disabled":false,"rental_uris":{"android":"levelo://app?vid=ba54f573-336a-40ad-b931-1ca2a8b1e077","ios":"levelo://app?vid=ba54f573-336a-40ad-b931-1ca2a8b1e077"},"vehicle_type_id":"4","last_reported":1726697258,"current_range_meters":38000,"station_id":"ce4bhip2rcd13ifvqft0","pricing_plan_id":"cebpf4jnsgd1na2vs0mg"},{"bike_id":"c4c8acd1-ff3d-4806-8174-cea36604d882","system_id":"levelo_inurba_marseille","lat":43.29949,"lon":5.41318,"is_reserved":false,"is_disabled":false,"rental_uris":{"android":"levelo://app?vid=c4c8acd1-ff3d-4806-8174-cea36604d882","ios":"levelo://app?vid=c4c8acd1-ff3d-4806-8174-cea36604d882"},"vehicle_type_id":"4","last_reported":1726697258,"current_range_meters":33600,"station_id":"ce4bhp12rcd13ifvqh9g","pricing_plan_id":"cebpf4jnsgd1na2vs0mg"},{"bike_id":"7296939a-e07b-445c-bd52-40cde8ccbba2","system_id":"levelo_inurba_marseille","lat":43.26029,"lon":5.37555,"is_reserved":false,"is_disabled":false,"rental_uris":{"android":"levelo://app?vid=7296939a-e07b-445c-bd52-40cde8ccbba2","ios":"levelo://app?vid=7296939a-e07b-445c-bd52-40cde8ccbba2"},"vehicle_type_id":"4","last_reported":1726697258,"current_range_meters":38800,"station_id":"ce4bhgh2rcd13ifvqfa0","pricing_plan_id":"cebpf4jnsgd1na2vs0mg"},{"bike_id":"9ed9a460-9271-4e06-aa0c-9eb70f42c1a7","system_id":"levelo_inurba_marseille","lat":43.29962,"lon":5.41317,"is_reserved":false,"is_disabled":false,"rental_uris":{"android":"levelo://app?vid=9ed9a460-9271-4e06-aa0c-9eb70f42c1a7","ios":"levelo://app?vid=9ed9a460-9271-4e06-aa0c-9eb70f42c1a7"},"vehicle_type_id":"4","last_reported":1726697258,"current_range_meters":16800,"station_id":"ce4bhp12rcd13ifvqh9g","pricing_plan_id":"cebpf4jnsgd1na2vs0mg"},{"bike_id":"a84ccf15-a62f-4b0b-9163-e457f54dff33","system_id":"levelo_inurba_marseille","lat":43.28153,"lon":5.42646,"is_reserved":false,"is_disabled":false,"rental_uris":{"android":"levelo://app?vid=a84ccf15-a62f-4b0b-9163-e457f54dff33","ios":"levelo://app?vid=a84ccf15-a62f-4b0b-9163-e457f54dff33"},"vehicle_type_id":"4","last_reported":1726697258,"current_range_meters":12400,"station_id":"ce4bhnh2rcd13ifvqgug","pricing_plan_id":"cebpf4jnsgd1na2vs0mg"},{"bike_id":"ed88dff4-af81-458a-bbd1-0770ef3c8a66","system_id":"levelo_inurba_marseille","lat":43.31118,"lon":5.37777,"is_reserved":false,"is_disabled":false,"rental_uris":{"android":"levelo://app?vid=ed88dff4-af81-458a-bbd1-0770ef3c8a66","ios":"levelo://app?vid=ed88dff4-af81-458a-bbd1-0770ef3c8a66"},"vehicle_type_id":"4","last_reported":1726697258,"current_range_meters":38800,"station_id":"ce4bgt92rcd13ifvqcg0","pricing_plan_id":"cebpf4jnsgd1na2vs0mg"},{"bike_id":"34773d52-8757-498a-add0-9b3fcbba7821","system_id":"levelo_inurba_marseille","lat":43.28425,"lon":5.34988,"is_reserved":false,"is_disabled":false,"rental_uris":{"android":"levelo://app?vid=34773d52-8757-498a-add0-9b3fcbba7821","ios":"levelo://app?vid=34773d52-8757-498a-add0-9b3fcbba7821"},"vehicle_type_id":"4","last_reported":1726697258,"current_range_meters":5600,"station_id":"ce4bhbh2rcd13ifvqepg","pricing_plan_id":"cebpf4jnsgd1na2vs0mg"},{"bike_id":"cc338b51-de8a-4346-93c7-87ded02658c0","system_id":"levelo_inurba_marseille","lat":43.3089,"lon":5.39627,"is_reserved":false,"is_disabled":false,"rental_uris":{"android":"levelo://app?vid=cc338b51-de8a-4346-93c7-87ded02658c0","ios":"levelo://app?vid=cc338b51-de8a-4346-93c7-87ded02658c0"},"vehicle_type_id":"4","last_reported":1726697258,"current_range_meters":25200,"station_id":"ce4bh012rcd13ifvqcv0","pricing_plan_id":"cebpf4jnsgd1na2vs0mg"},{"bike_id":"a58dc92f-d4cf-423a-9ba0-7ca2320e84c1","system_id":"levelo_inurba_marseille","lat":43.28031,"lon":5.36951,"is_reserved":false,"is_disabled":false,"rental_uris":{"android":"levelo://app?vid=a58dc92f-d4cf-423a-9ba0-7ca2320e84c1","ios":"levelo://app?vid=a58dc92f-d4cf-423a-9ba0-7ca2320e84c1"},"vehicle_type_id":"4","last_reported":1726697258,"current_range_meters":38800,"station_id":"ce4bha12rcd13ifvqef0","pricing_plan_id":"cebpf4jnsgd1na2vs0mg"},{"bike_id":"c7fac47c-455d-48f0-b5c4-e5ec61a786cc","system_id":"levelo_inurba_marseille","lat":43.284688,"lon":5.349907,"is_reserved":false,"is_disabled":false,"rental_uris":{"android":"levelo://app?vid=c7fac47c-455d-48f0-b5c4-e5ec61a786cc","ios":"levelo://app?vid=c7fac47c-455d-48f0-b5c4-e5ec61a786cc"},"vehicle_type_id":"4","last_reported":1726697258,"current_range_meters":21600,"station_id":"ce4bgn12rcd13ifvqbt0","pricing_plan_id":"cebpf4jnsgd1na2vs0mg"},{"bike_id":"ef34c70d-2e65-48fd-bb4f-c142f621d359","system_id":"levelo_inurba_marseille","lat":43.24551,"lon":5.39527,"is_reserved":false,"is_disabled":false,"rental_uris":{"android":"levelo://app?vid=ef34c70d-2e65-48fd-bb4f-c142f621d359","ios":"levelo://app?vid=ef34c70d-2e65-48fd-bb4f-c142f621d359"},"vehicle_type_id":"4","last_reported":1726697258,"current_range_meters":38800,"station_id":"ce4bhlp2rcd13ifvqgjg","pricing_plan_id":"cebpf4jnsgd1na2vs0mg"},{"bike_id":"4637f38a-faa6-4c8b-ae8d-2112023d8ec3","system_id":"levelo_inurba_marseille","lat":43.25582,"lon":5.3824,"is_reserved":false,"is_disabled":false,"rental_uris":{"android":"levelo://app?vid=4637f38a-faa6-4c8b-ae8d-2112023d8ec3","ios":"levelo://app?vid=4637f38a-faa6-4c8b-ae8d-2112023d8ec3"},"vehicle_type_id":"4","last_reported":1726697258,"current_range_meters":39200,"station_id":"ce4bhih2rcd13ifvqfs0","pricing_plan_id":"cebpf4jnsgd1na2vs0mg"},{"bike_id":"938a1d8e-8f7a-4dbb-a7f7-9b765b9ff51b","system_id":"levelo_inurba_marseille","lat":43.27616,"lon":5.3611,"is_reserved":false,"is_disabled":false,"rental_uris":{"android":"levelo://app?vid=938a1d8e-8f7a-4dbb-a7f7-9b765b9ff51b","ios":"levelo://app?vid=938a1d8e-8f7a-4dbb-a7f7-9b765b9ff51b"},"vehicle_type_id":"4","last_reported":1726697258,"current_range_meters":25600,"station_id":"ce4bgj92rcd13ifvqbe0","pricing_plan_id":"cebpf4jnsgd1na2vs0mg"},{"bike_id":"fa77e604-95b4-476d-a30f-499c3aaf710d","system_id":"levelo_inurba_marseille","lat":43.33729,"lon":5.3918,"is_reserved":false,"is_disabled":false,"rental_uris":{"android":"levelo://app?vid=fa77e604-95b4-476d-a30f-499c3aaf710d","ios":"levelo://app?vid=fa77e604-95b4-476d-a30f-499c3aaf710d"},"vehicle_type_id":"4","last_reported":1726697258,"current_range_meters":8800,"station_id":"ce4bhr92rcd13ifvqhsg","pricing_plan_id":"cebpf4jnsgd1na2vs0mg"},{"bike_id":"7620db55-f9a9-48d3-8e71-922c33f82c8f","system_id":"levelo_inurba_marseille","lat":43.33022,"lon":5.39034,"is_reserved":false,"is_disabled":false,"rental_uris":{"android":"levelo://app?vid=7620db55-f9a9-48d3-8e71-922c33f82c8f","ios":"levelo://app?vid=7620db55-f9a9-48d3-8e71-922c33f82c8f"},"vehicle_type_id":"4","last_reported":1726697258,"current_range_meters":38000,"station_id":"ce4bhr92rcd13ifvqhrg","pricing_plan_id":"cebpf4jnsgd1na2vs0mg"},{"bike_id":"a38468d6-008e-4542-b64c-f93d0f0b9f9b","system_id":"levelo_inurba_marseille","lat":43.2396,"lon":5.36639,"is_reserved":false,"is_disabled":false,"rental_uris":{"android":"levelo://app?vid=a38468d6-008e-4542-b64c-f93d0f0b9f9b","ios":"levelo://app?vid=a38468d6-008e-4542-b64c-f93d0f0b9f9b"},"vehicle_type_id":"4","last_reported":1726697258,"current_range_meters":34800,"station_id":"ce4bhi12rcd13ifvqfp0","pricing_plan_id":"cebpf4jnsgd1na2vs0mg"},{"bike_id":"6bea07ff-b7cf-43d7-9614-efd55ed0f2d6","system_id":"levelo_inurba_marseille","lat":43.24646,"lon":5.38899,"is_reserved":false,"is_disabled":false,"rental_uris":{"android":"levelo://app?vid=6bea07ff-b7cf-43d7-9614-efd55ed0f2d6","ios":"levelo://app?vid=6bea07ff-b7cf-43d7-9614-efd55ed0f2d6"},"vehicle_type_id":"4","last_reported":1726697258,"current_range_meters":28800,"station_id":"ce4bhg12rcd13ifvqf60","pricing_plan_id":"cebpf4jnsgd1na2vs0mg"},{"bike_id":"5304ed70-fad3-470c-b0c3-63f08a2a0a36","system_id":"levelo_inurba_marseille","lat":43.31324,"lon":5.39692,"is_reserved":false,"is_disabled":false,"rental_uris":{"android":"levelo://app?vid=5304ed70-fad3-470c-b0c3-63f08a2a0a36","ios":"levelo://app?vid=5304ed70-fad3-470c-b0c3-63f08a2a0a36"},"vehicle_type_id":"4","last_reported":1726697258,"current_range_meters":16800,"station_id":"ce4bgvp2rcd13ifvqcu0","pricing_plan_id":"cebpf4jnsgd1na2vs0mg"},{"bike_id":"304efa42-a552-4c98-b903-6b3b9dce1f90","system_id":"levelo_inurba_marseille","lat":43.2988,"lon":5.39739,"is_reserved":false,"is_disabled":false,"rental_uris":{"android":"levelo://app?vid=304efa42-a552-4c98-b903-6b3b9dce1f90","ios":"levelo://app?vid=304efa42-a552-4c98-b903-6b3b9dce1f90"},"vehicle_type_id":"4","last_reported":1726697258,"current_range_meters":39200,"station_id":"ce4bh0h2rcd13ifvqd50","pricing_plan_id":"cebpf4jnsgd1na2vs0mg"},{"bike_id":"9be94feb-a495-4651-8693-da9a946157ae","system_id":"levelo_inurba_marseille","lat":43.25008,"lon":5.38915,"is_reserved":false,"is_disabled":false,"rental_uris":{"android":"levelo://app?vid=9be94feb-a495-4651-8693-da9a946157ae","ios":"levelo://app?vid=9be94feb-a495-4651-8693-da9a946157ae"},"vehicle_type_id":"4","last_reported":1726697258,"current_range_meters":20800,"station_id":"ce4bhgp2rcd13ifvqfd0","pricing_plan_id":"cebpf4jnsgd1na2vs0mg"},{"bike_id":"8b92f07f-bbfd-414c-9917-9010c838ca72","system_id":"levelo_inurba_marseille","lat":43.32484,"lon":5.36556,"is_reserved":false,"is_disabled":false,"rental_uris":{"android":"levelo://app?vid=8b92f07f-bbfd-414c-9917-9010c838ca72","ios":"levelo://app?vid=8b92f07f-bbfd-414c-9917-9010c838ca72"},"vehicle_type_id":"4","last_reported":1726697258,"current_range_meters":24800,"station_id":"ce4bhs12rcd13ifvqhvg","pricing_plan_id":"cebpf4jnsgd1na2vs0mg"},{"bike_id":"f40e73d7-3c03-434d-82c8-4119e15a6937","system_id":"levelo_inurba_marseille","lat":43.3123,"lon":5.36857,"is_reserved":false,"is_disabled":false,"rental_uris":{"android":"levelo://app?vid=f40e73d7-3c03-434d-82c8-4119e15a6937","ios":"levelo://app?vid=f40e73d7-3c03-434d-82c8-4119e15a6937"},"vehicle_type_id":"4","last_reported":1726697258,"current_range_meters":38800,"station_id":"ce4bgl92rcd13ifvqbq0","pricing_plan_id":"cebpf4jnsgd1na2vs0mg"},{"bike_id":"f3b40b72-252f-4ea8-a838-f4021093cd20","system_id":"levelo_inurba_marseille","lat":43.30352,"lon":5.41883,"is_reserved":false,"is_disabled":false,"rental_uris":{"android":"levelo://app?vid=f3b40b72-252f-4ea8-a838-f4021093cd20","ios":"levelo://app?vid=f3b40b72-252f-4ea8-a838-f4021093cd20"},"vehicle_type_id":"4","last_reported":1726697258,"current_range_meters":8400,"station_id":"ce4bhop2rcd13ifvqh7g","pricing_plan_id":"cebpf4jnsgd1na2vs0mg"},{"bike_id":"5853071a-a7de-43ad-87c8-982495d79fa0","system_id":"levelo_inurba_marseille","lat":43.25006,"lon":5.38921,"is_reserved":false,"is_disabled":false,"rental_uris":{"android":"levelo://app?vid=5853071a-a7de-43ad-87c8-982495d79fa0","ios":"levelo://app?vid=5853071a-a7de-43ad-87c8-982495d79fa0"},"vehicle_type_id":"4","last_reported":1726697258,"current_range_meters":37600,"station_id":"ce4bhgp2rcd13ifvqfd0","pricing_plan_id":"cebpf4jnsgd1na2vs0mg"},{"bike_id":"316473a3-098e-4790-8abd-9617353ea0fa","system_id":"levelo_inurba_marseille","lat":43.29249,"lon":5.40913,"is_reserved":false,"is_disabled":false,"rental_uris":{"android":"levelo://app?vid=316473a3-098e-4790-8abd-9617353ea0fa","ios":"levelo://app?vid=316473a3-098e-4790-8abd-9617353ea0fa"},"vehicle_type_id":"4","last_reported":1726697258,"current_range_meters":36800,"station_id":"ce4bh192rcd13ifvqdc0","pricing_plan_id":"cebpf4jnsgd1na2vs0mg"},{"bike_id":"1a9a3c52-b22b-4395-af3f-f1c9b0b7c3e7","system_id":"levelo_inurba_marseille","lat":43.29568,"lon":5.39975,"is_reserved":false,"is_disabled":false,"rental_uris":{"android":"levelo://app?vid=1a9a3c52-b22b-4395-af3f-f1c9b0b7c3e7","ios":"levelo://app?vid=1a9a3c52-b22b-4395-af3f-f1c9b0b7c3e7"},"vehicle_type_id":"4","last_reported":1726697258,"current_range_meters":12800,"station_id":"ce4bh312rcd13ifvqdj0","pricing_plan_id":"cebpf4jnsgd1na2vs0mg"},{"bike_id":"5dae95f8-2f90-467f-93be-f6b586bb66e5","system_id":"levelo_inurba_marseille","lat":43.29931,"lon":5.36542,"is_reserved":false,"is_disabled":false,"rental_uris":{"android":"levelo://app?vid=5dae95f8-2f90-467f-93be-f6b586bb66e5","ios":"levelo://app?vid=5dae95f8-2f90-467f-93be-f6b586bb66e5"},"vehicle_type_id":"4","last_reported":1726697258,"current_range_meters":32000,"station_id":"ce4bgm92rcd13ifvqbr0","pricing_plan_id":"cebpf4jnsgd1na2vs0mg"},{"bike_id":"ad264040-f36d-4d24-971d-436e2a7964b5","system_id":"levelo_inurba_marseille","lat":43.29259,"lon":5.40906,"is_reserved":false,"is_disabled":false,"rental_uris":{"android":"levelo://app?vid=ad264040-f36d-4d24-971d-436e2a7964b5","ios":"levelo://app?vid=ad264040-f36d-4d24-971d-436e2a7964b5"},"vehicle_type_id":"4","last_reported":1726697258,"current_range_meters":8800,"station_id":"ce4bh192rcd13ifvqdc0","pricing_plan_id":"cebpf4jnsgd1na2vs0mg"},{"bike_id":"7a8a8512-1a66-4773-a439-892950d478f5","system_id":"levelo_inurba_marseille","lat":43.28071,"lon":5.39659,"is_reserved":false,"is_disabled":false,"rental_uris":{"android":"levelo://app?vid=7a8a8512-1a66-4773-a439-892950d478f5","ios":"levelo://app?vid=7a8a8512-1a66-4773-a439-892950d478f5"},"vehicle_type_id":"4","last_reported":1726697258,"current_range_meters":12800,"station_id":"ce4bho12rcd13ifvqh2g","pricing_plan_id":"cebpf4jnsgd1na2vs0mg"},{"bike_id":"b18d8b94-ea3f-41c4-a439-b580881ddfe3","system_id":"levelo_inurba_marseille","lat":43.31324,"lon":5.39694,"is_reserved":false,"is_disabled":false,"rental_uris":{"android":"levelo://app?vid=b18d8b94-ea3f-41c4-a439-b580881ddfe3","ios":"levelo://app?vid=b18d8b94-ea3f-41c4-a439-b580881ddfe3"},"vehicle_type_id":"4","last_reported":1726697258,"current_range_meters":38800,"station_id":"ce4bgvp2rcd13ifvqcu0","pricing_plan_id":"cebpf4jnsgd1na2vs0mg"},{"bike_id":"e0173d18-6c8e-483c-9db6-bd92135cda26","system_id":"levelo_inurba_marseille","lat":43.31994,"lon":5.38147,"is_reserved":false,"is_disabled":false,"rental_uris":{"android":"levelo://app?vid=e0173d18-6c8e-483c-9db6-bd92135cda26","ios":"levelo://app?vid=e0173d18-6c8e-483c-9db6-bd92135cda26"},"vehicle_type_id":"4","last_reported":1726697258,"current_range_meters":22800,"station_id":"ce4bhr12rcd13ifvqhpg","pricing_plan_id":"cebpf4jnsgd1na2vs0mg"},{"bike_id":"05410574-e19a-470a-bce7-ed8f6ab9135a","system_id":"levelo_inurba_marseille","lat":43.3171,"lon":5.43708,"is_reserved":false,"is_disabled":false,"rental_uris":{"android":"levelo://app?vid=05410574-e19a-470a-bce7-ed8f6ab9135a","ios":"levelo://app?vid=05410574-e19a-470a-bce7-ed8f6ab9135a"},"vehicle_type_id":"4","last_reported":1726697258,"current_range_meters":11200,"station_id":"ce4bhp92rcd13ifvqhcg","pricing_plan_id":"cebpf4jnsgd1na2vs0mg"},{"bike_id":"ebaa7e84-5f69-4efe-8e95-7ff79c4a8283","system_id":"levelo_inurba_marseille","lat":43.2808,"lon":5.39648,"is_reserved":false,"is_disabled":false,"rental_uris":{"android":"levelo://app?vid=ebaa7e84-5f69-4efe-8e95-7ff79c4a8283","ios":"levelo://app?vid=ebaa7e84-5f69-4efe-8e95-7ff79c4a8283"},"vehicle_type_id":"4","last_reported":1726697258,"current_range_meters":38800,"station_id":"ce4bho12rcd13ifvqh2g","pricing_plan_id":"cebpf4jnsgd1na2vs0mg"},{"bike_id":"77e86427-f18b-4502-b4ab-6d97fdc517ac","system_id":"levelo_inurba_marseille","lat":43.28858,"lon":5.35837,"is_reserved":false,"is_disabled":false,"rental_uris":{"android":"levelo://app?vid=77e86427-f18b-4502-b4ab-6d97fdc517ac","ios":"levelo://app?vid=77e86427-f18b-4502-b4ab-6d97fdc517ac"},"vehicle_type_id":"4","last_reported":1726697258,"current_range_meters":27200,"station_id":"ce4bhb12rcd13ifvqem0","pricing_plan_id":"cebpf4jnsgd1na2vs0mg"},{"bike_id":"f90f04c6-274c-48a8-ac9c-065da2a7b181","system_id":"levelo_inurba_marseille","lat":43.24074,"lon":5.37752,"is_reserved":false,"is_disabled":false,"rental_uris":{"android":"levelo://app?vid=f90f04c6-274c-48a8-ac9c-065da2a7b181","ios":"levelo://app?vid=f90f04c6-274c-48a8-ac9c-065da2a7b181"},"vehicle_type_id":"4","last_reported":1726697258,"current_range_meters":9200,"station_id":"ce4bhnp2rcd13ifvqgvg","pricing_plan_id":"cebpf4jnsgd1na2vs0mg"},{"bike_id":"55fed244-caf4-46e6-99fc-fcd916ddb5b7","system_id":"levelo_inurba_marseille","lat":43.23204,"lon":5.35547,"is_reserved":false,"is_disabled":false,"rental_uris":{"android":"levelo://app?vid=55fed244-caf4-46e6-99fc-fcd916ddb5b7","ios":"levelo://app?vid=55fed244-caf4-46e6-99fc-fcd916ddb5b7"},"vehicle_type_id":"4","last_reported":1726697258,"current_range_meters":22800,"station_id":"ce4bhu92rcd13ifvqi70","pricing_plan_id":"cebpf4jnsgd1na2vs0mg"},{"bike_id":"754f3d71-9516-4ff2-92f0-7afad2200317","system_id":"levelo_inurba_marseille","lat":43.30259,"lon":5.40081,"is_reserved":false,"is_disabled":false,"rental_uris":{"android":"levelo://app?vid=754f3d71-9516-4ff2-92f0-7afad2200317","ios":"levelo://app?vid=754f3d71-9516-4ff2-92f0-7afad2200317"},"vehicle_type_id":"4","last_reported":1726697258,"current_range_meters":38400,"station_id":"ce4bgvh2rcd13ifvqcs0","pricing_plan_id":"cebpf4jnsgd1na2vs0mg"},{"bike_id":"4d6f430e-a89c-4f5a-a87a-ca0e6d05c74c","system_id":"levelo_inurba_marseille","lat":43.25988,"lon":5.40823,"is_reserved":false,"is_disabled":false,"rental_uris":{"android":"levelo://app?vid=4d6f430e-a89c-4f5a-a87a-ca0e6d05c74c","ios":"levelo://app?vid=4d6f430e-a89c-4f5a-a87a-ca0e6d05c74c"},"vehicle_type_id":"4","last_reported":1726697258,"current_range_meters":33200,"station_id":"","pricing_plan_id":"cebpf4jnsgd1na2vs0mg"},{"bike_id":"21a7c1b2-4865-4949-850c-bd549c3501b6","system_id":"levelo_inurba_marseille","lat":43.308283,"lon":5.381345,"is_reserved":false,"is_disabled":false,"rental_uris":{"android":"levelo://app?vid=21a7c1b2-4865-4949-850c-bd549c3501b6","ios":"levelo://app?vid=21a7c1b2-4865-4949-850c-bd549c3501b6"},"vehicle_type_id":"4","last_reported":1726697258,"current_range_meters":14400,"station_id":"ce4bgt12rcd13ifvqce0","pricing_plan_id":"cebpf4jnsgd1na2vs0mg"},{"bike_id":"62e335eb-aaec-4647-b7e9-321a9f4dff46","system_id":"levelo_inurba_marseille","lat":43.28462,"lon":5.35887,"is_reserved":false,"is_disabled":false,"rental_uris":{"android":"levelo://app?vid=62e335eb-aaec-4647-b7e9-321a9f4dff46","ios":"levelo://app?vid=62e335eb-aaec-4647-b7e9-321a9f4dff46"},"vehicle_type_id":"4","last_reported":1726697258,"current_range_meters":38800,"station_id":"ce4bhah2rcd13ifvqei0","pricing_plan_id":"cebpf4jnsgd1na2vs0mg"},{"bike_id":"3e5ce477-7f69-4c9f-bf73-e98e38620e8a","system_id":"levelo_inurba_marseille","lat":43.31765,"lon":5.39011,"is_reserved":false,"is_disabled":false,"rental_uris":{"android":"levelo://app?vid=3e5ce477-7f69-4c9f-bf73-e98e38620e8a","ios":"levelo://app?vid=3e5ce477-7f69-4c9f-bf73-e98e38620e8a"},"vehicle_type_id":"4","last_reported":1726697258,"current_range_meters":28000,"station_id":"ce4bhqp2rcd13ifvqhng","pricing_plan_id":"cebpf4jnsgd1na2vs0mg"},{"bike_id":"67e3a6af-f6ee-4466-86cf-1bd6401a24ff","system_id":"levelo_inurba_marseille","lat":43.28269,"lon":5.35073,"is_reserved":false,"is_disabled":false,"rental_uris":{"android":"levelo://app?vid=67e3a6af-f6ee-4466-86cf-1bd6401a24ff","ios":"levelo://app?vid=67e3a6af-f6ee-4466-86cf-1bd6401a24ff"},"vehicle_type_id":"4","last_reported":1726697258,"current_range_meters":38800,"station_id":"ce4bhbp2rcd13ifvqerg","pricing_plan_id":"cebpf4jnsgd1na2vs0mg"},{"bike_id":"677498c9-746b-4650-9a8e-2c7479635944","system_id":"levelo_inurba_marseille","lat":43.33023,"lon":5.39047,"is_reserved":false,"is_disabled":false,"rental_uris":{"android":"levelo://app?vid=677498c9-746b-4650-9a8e-2c7479635944","ios":"levelo://app?vid=677498c9-746b-4650-9a8e-2c7479635944"},"vehicle_type_id":"4","last_reported":1726697258,"current_range_meters":11600,"station_id":"ce4bhr92rcd13ifvqhrg","pricing_plan_id":"cebpf4jnsgd1na2vs0mg"},{"bike_id":"bee0e7c0-a7b3-4aa5-ab3e-0f242b502b94","system_id":"levelo_inurba_marseille","lat":43.31068,"lon":5.38362,"is_reserved":false,"is_disabled":false,"rental_uris":{"android":"levelo://app?vid=bee0e7c0-a7b3-4aa5-ab3e-0f242b502b94","ios":"levelo://app?vid=bee0e7c0-a7b3-4aa5-ab3e-0f242b502b94"},"vehicle_type_id":"4","last_reported":1726697258,"current_range_meters":10800,"station_id":"ce4bgv92rcd13ifvqcr0","pricing_plan_id":"cebpf4jnsgd1na2vs0mg"},{"bike_id":"3e99e2ac-cdfd-4893-be50-20dbb5272dd6","system_id":"levelo_inurba_marseille","lat":43.30795,"lon":5.4353,"is_reserved":false,"is_disabled":false,"rental_uris":{"android":"levelo://app?vid=3e99e2ac-cdfd-4893-be50-20dbb5272dd6","ios":"levelo://app?vid=3e99e2ac-cdfd-4893-be50-20dbb5272dd6"},"vehicle_type_id":"4","last_reported":1726697258,"current_range_meters":38800,"station_id":"ce4bhph2rcd13ifvqheg","pricing_plan_id":"cebpf4jnsgd1na2vs0mg"},{"bike_id":"7d1ee808-291a-4e08-9c9a-7318984664a1","system_id":"levelo_inurba_marseille","lat":43.30895,"lon":5.37189,"is_reserved":false,"is_disabled":false,"rental_uris":{"android":"levelo://app?vid=7d1ee808-291a-4e08-9c9a-7318984664a1","ios":"levelo://app?vid=7d1ee808-291a-4e08-9c9a-7318984664a1"},"vehicle_type_id":"4","last_reported":1726697258,"current_range_meters":34000,"station_id":"ce4bguh2rcd13ifvqckg","pricing_plan_id":"cebpf4jnsgd1na2vs0mg"},{"bike_id":"2cbb6dd5-2ec8-4ba5-808a-c5301f897d27","system_id":"levelo_inurba_marseille","lat":43.23955,"lon":5.36631,"is_reserved":false,"is_disabled":false,"rental_uris":{"android":"levelo://app?vid=2cbb6dd5-2ec8-4ba5-808a-c5301f897d27","ios":"levelo://app?vid=2cbb6dd5-2ec8-4ba5-808a-c5301f897d27"},"vehicle_type_id":"4","last_reported":1726697258,"current_range_meters":25600,"station_id":"ce4bhi12rcd13ifvqfp0","pricing_plan_id":"cebpf4jnsgd1na2vs0mg"},{"bike_id":"cee094fc-e9f3-478e-a7a4-2586f5a0a195","system_id":"levelo_inurba_marseille","lat":43.28568,"lon":5.3951,"is_reserved":false,"is_disabled":false,"rental_uris":{"android":"levelo://app?vid=cee094fc-e9f3-478e-a7a4-2586f5a0a195","ios":"levelo://app?vid=cee094fc-e9f3-478e-a7a4-2586f5a0a195"},"vehicle_type_id":"4","last_reported":1726697258,"current_range_meters":28400,"station_id":"ce4bh292rcd13ifvqdg0","pricing_plan_id":"cebpf4jnsgd1na2vs0mg"},{"bike_id":"f5ddcaf2-4df3-4791-8314-9ff825829baa","system_id":"levelo_inurba_marseille","lat":43.28461,"lon":5.35892,"is_reserved":false,"is_disabled":false,"rental_uris":{"android":"levelo://app?vid=f5ddcaf2-4df3-4791-8314-9ff825829baa","ios":"levelo://app?vid=f5ddcaf2-4df3-4791-8314-9ff825829baa"},"vehicle_type_id":"4","last_reported":1726697258,"current_range_meters":25200,"station_id":"ce4bhah2rcd13ifvqei0","pricing_plan_id":"cebpf4jnsgd1na2vs0mg"},{"bike_id":"1478a44f-74d8-48d2-a01f-74a3a0b9df5a","system_id":"levelo_inurba_marseille","lat":43.31278,"lon":5.4017,"is_reserved":false,"is_disabled":false,"rental_uris":{"android":"levelo://app?vid=1478a44f-74d8-48d2-a01f-74a3a0b9df5a","ios":"levelo://app?vid=1478a44f-74d8-48d2-a01f-74a3a0b9df5a"},"vehicle_type_id":"4","last_reported":1726697258,"current_range_meters":16400,"station_id":"ce4bh092rcd13ifvqd30","pricing_plan_id":"cebpf4jnsgd1na2vs0mg"},{"bike_id":"3d933b8e-67b6-4b5d-be72-7523e1cd1af2","system_id":"levelo_inurba_marseille","lat":43.28459,"lon":5.35894,"is_reserved":false,"is_disabled":false,"rental_uris":{"android":"levelo://app?vid=3d933b8e-67b6-4b5d-be72-7523e1cd1af2","ios":"levelo://app?vid=3d933b8e-67b6-4b5d-be72-7523e1cd1af2"},"vehicle_type_id":"4","last_reported":1726697258,"current_range_meters":32000,"station_id":"ce4bhah2rcd13ifvqei0","pricing_plan_id":"cebpf4jnsgd1na2vs0mg"},{"bike_id":"10074ca6-1985-4939-a802-8c358e57d5bb","system_id":"levelo_inurba_marseille","lat":43.31888,"lon":5.40729,"is_reserved":false,"is_disabled":false,"rental_uris":{"android":"levelo://app?vid=10074ca6-1985-4939-a802-8c358e57d5bb","ios":"levelo://app?vid=10074ca6-1985-4939-a802-8c358e57d5bb"},"vehicle_type_id":"4","last_reported":1726697258,"current_range_meters":12800,"station_id":"ce4bhq12rcd13ifvqhig","pricing_plan_id":"cebpf4jnsgd1na2vs0mg"},{"bike_id":"52fffaf1-dd98-4e0a-a39d-48011512624f","system_id":"levelo_inurba_marseille","lat":43.25505,"lon":5.37646,"is_reserved":false,"is_disabled":false,"rental_uris":{"android":"levelo://app?vid=52fffaf1-dd98-4e0a-a39d-48011512624f","ios":"levelo://app?vid=52fffaf1-dd98-4e0a-a39d-48011512624f"},"vehicle_type_id":"4","last_reported":1726697258,"current_range_meters":30400,"station_id":"ce4bhh12rcd13ifvqff0","pricing_plan_id":"cebpf4jnsgd1na2vs0mg"},{"bike_id":"912dd5ff-4bb8-4e55-86b6-8facf1b2d276","system_id":"levelo_inurba_marseille","lat":43.30469,"lon":5.38892,"is_reserved":false,"is_disabled":false,"rental_uris":{"android":"levelo://app?vid=912dd5ff-4bb8-4e55-86b6-8facf1b2d276","ios":"levelo://app?vid=912dd5ff-4bb8-4e55-86b6-8facf1b2d276"},"vehicle_type_id":"4","last_reported":1726697258,"current_range_meters":38800,"station_id":"ce4bgk12rcd13ifvqbi0","pricing_plan_id":"cebpf4jnsgd1na2vs0mg"},{"bike_id":"de268f51-9584-4adc-87a7-5847e45d9d4d","system_id":"levelo_inurba_marseille","lat":43.30421,"lon":5.4129,"is_reserved":false,"is_disabled":false,"rental_uris":{"android":"levelo://app?vid=de268f51-9584-4adc-87a7-5847e45d9d4d","ios":"levelo://app?vid=de268f51-9584-4adc-87a7-5847e45d9d4d"},"vehicle_type_id":"4","last_reported":1726697258,"current_range_meters":38800,"station_id":"ce4bhop2rcd13ifvqh8g","pricing_plan_id":"cebpf4jnsgd1na2vs0mg"},{"bike_id":"998ddacb-a930-414c-8e03-6e6d234ecf40","system_id":"levelo_inurba_marseille","lat":43.30417,"lon":5.41281,"is_reserved":false,"is_disabled":false,"rental_uris":{"android":"levelo://app?vid=998ddacb-a930-414c-8e03-6e6d234ecf40","ios":"levelo://app?vid=998ddacb-a930-414c-8e03-6e6d234ecf40"},"vehicle_type_id":"4","last_reported":1726697258,"current_range_meters":36400,"station_id":"ce4bhop2rcd13ifvqh8g","pricing_plan_id":"cebpf4jnsgd1na2vs0mg"},{"bike_id":"37804655-3b91-46a3-b91b-1ceef89e4f83","system_id":"levelo_inurba_marseille","lat":43.28458,"lon":5.3589,"is_reserved":false,"is_disabled":false,"rental_uris":{"android":"levelo://app?vid=37804655-3b91-46a3-b91b-1ceef89e4f83","ios":"levelo://app?vid=37804655-3b91-46a3-b91b-1ceef89e4f83"},"vehicle_type_id":"4","last_reported":1726697258,"current_range_meters":6800,"station_id":"ce4bhah2rcd13ifvqei0","pricing_plan_id":"cebpf4jnsgd1na2vs0mg"},{"bike_id":"4db52eb6-98ee-4a84-af00-f7fac3c0feba","system_id":"levelo_inurba_marseille","lat":43.28449,"lon":5.3589,"is_reserved":false,"is_disabled":false,"rental_uris":{"android":"levelo://app?vid=4db52eb6-98ee-4a84-af00-f7fac3c0feba","ios":"levelo://app?vid=4db52eb6-98ee-4a84-af00-f7fac3c0feba"},"vehicle_type_id":"4","last_reported":1726697258,"current_range_meters":7200,"station_id":"ce4bhah2rcd13ifvqei0","pricing_plan_id":"cebpf4jnsgd1na2vs0mg"},{"bike_id":"d37aa318-9eec-42e5-ad66-edcb803356f0","system_id":"levelo_inurba_marseille","lat":43.27805,"lon":5.42817,"is_reserved":false,"is_disabled":false,"rental_uris":{"android":"levelo://app?vid=d37aa318-9eec-42e5-ad66-edcb803356f0","ios":"levelo://app?vid=d37aa318-9eec-42e5-ad66-edcb803356f0"},"vehicle_type_id":"4","last_reported":1726697258,"current_range_meters":8000,"station_id":"","pricing_plan_id":"cebpf4jnsgd1na2vs0mg"},{"bike_id":"b51480c2-9b9c-41e3-9bfc-f3e2a0ce7444","system_id":"levelo_inurba_marseille","lat":43.23197,"lon":5.35548,"is_reserved":false,"is_disabled":false,"rental_uris":{"android":"levelo://app?vid=b51480c2-9b9c-41e3-9bfc-f3e2a0ce7444","ios":"levelo://app?vid=b51480c2-9b9c-41e3-9bfc-f3e2a0ce7444"},"vehicle_type_id":"4","last_reported":1726697258,"current_range_meters":38800,"station_id":"ce4bhu92rcd13ifvqi70","pricing_plan_id":"cebpf4jnsgd1na2vs0mg"},{"bike_id":"2c031399-c9a8-4b90-bce5-1d58c77aa90b","system_id":"levelo_inurba_marseille","lat":43.30535,"lon":5.36705,"is_reserved":false,"is_disabled":false,"rental_uris":{"android":"levelo://app?vid=2c031399-c9a8-4b90-bce5-1d58c77aa90b","ios":"levelo://app?vid=2c031399-c9a8-4b90-bce5-1d58c77aa90b"},"vehicle_type_id":"4","last_reported":1726697258,"current_range_meters":9200,"station_id":"ce4bgrp2rcd13ifvqc9g","pricing_plan_id":"cebpf4jnsgd1na2vs0mg"},{"bike_id":"99207ce7-6e05-4cba-9ee3-b73cf3c7bc9b","system_id":"levelo_inurba_marseille","lat":43.28077,"lon":5.3966,"is_reserved":false,"is_disabled":false,"rental_uris":{"android":"levelo://app?vid=99207ce7-6e05-4cba-9ee3-b73cf3c7bc9b","ios":"levelo://app?vid=99207ce7-6e05-4cba-9ee3-b73cf3c7bc9b"},"vehicle_type_id":"4","last_reported":1726697258,"current_range_meters":35200,"station_id":"ce4bho12rcd13ifvqh2g","pricing_plan_id":"cebpf4jnsgd1na2vs0mg"},{"bike_id":"93ba4ede-58ab-412a-bc91-fb80ea0cb912","system_id":"levelo_inurba_marseille","lat":43.30888,"lon":5.39639,"is_reserved":false,"is_disabled":false,"rental_uris":{"android":"levelo://app?vid=93ba4ede-58ab-412a-bc91-fb80ea0cb912","ios":"levelo://app?vid=93ba4ede-58ab-412a-bc91-fb80ea0cb912"},"vehicle_type_id":"4","last_reported":1726697258,"current_range_meters":14000,"station_id":"ce4bh012rcd13ifvqcv0","pricing_plan_id":"cebpf4jnsgd1na2vs0mg"},{"bike_id":"2b714e73-49f8-4f26-bb6d-7d72ce23aabc","system_id":"levelo_inurba_marseille","lat":43.23051,"lon":5.35491,"is_reserved":false,"is_disabled":false,"rental_uris":{"android":"levelo://app?vid=2b714e73-49f8-4f26-bb6d-7d72ce23aabc","ios":"levelo://app?vid=2b714e73-49f8-4f26-bb6d-7d72ce23aabc"},"vehicle_type_id":"4","last_reported":1726697258,"current_range_meters":6400,"station_id":"cpo3342slgdg3j2ifvpg","pricing_plan_id":"cebpf4jnsgd1na2vs0mg"},{"bike_id":"aaa9860e-7f0a-4e29-a689-c35352e15701","system_id":"levelo_inurba_marseille","lat":43.31075,"lon":5.38366,"is_reserved":false,"is_disabled":false,"rental_uris":{"android":"levelo://app?vid=aaa9860e-7f0a-4e29-a689-c35352e15701","ios":"levelo://app?vid=aaa9860e-7f0a-4e29-a689-c35352e15701"},"vehicle_type_id":"4","last_reported":1726697258,"current_range_meters":20800,"station_id":"ce4bgv92rcd13ifvqcr0","pricing_plan_id":"cebpf4jnsgd1na2vs0mg"},{"bike_id":"e83172ba-34b9-4e83-8493-d5f27864064b","system_id":"levelo_inurba_marseille","lat":43.28103,"lon":5.37842,"is_reserved":false,"is_disabled":false,"rental_uris":{"android":"levelo://app?vid=e83172ba-34b9-4e83-8493-d5f27864064b","ios":"levelo://app?vid=e83172ba-34b9-4e83-8493-d5f27864064b"},"vehicle_type_id":"4","last_reported":1726697258,"current_range_meters":4800,"station_id":"ce4bha12rcd13ifvqee0","pricing_plan_id":"cebpf4jnsgd1na2vs0mg"},{"bike_id":"88c89d81-1a10-47ab-a150-a989251d7a76","system_id":"levelo_inurba_marseille","lat":43.25869,"lon":5.39899,"is_reserved":false,"is_disabled":false,"rental_uris":{"android":"levelo://app?vid=88c89d81-1a10-47ab-a150-a989251d7a76","ios":"levelo://app?vid=88c89d81-1a10-47ab-a150-a989251d7a76"},"vehicle_type_id":"4","last_reported":1726697258,"current_range_meters":6800,"station_id":"ce4bhl92rcd13ifvqghg","pricing_plan_id":"cebpf4jnsgd1na2vs0mg"},{"bike_id":"2e64ac77-37d0-42c4-9b89-df897b66197d","system_id":"levelo_inurba_marseille","lat":43.29964,"lon":5.41324,"is_reserved":false,"is_disabled":false,"rental_uris":{"android":"levelo://app?vid=2e64ac77-37d0-42c4-9b89-df897b66197d","ios":"levelo://app?vid=2e64ac77-37d0-42c4-9b89-df897b66197d"},"vehicle_type_id":"4","last_reported":1726697258,"current_range_meters":38800,"station_id":"ce4bhp12rcd13ifvqh9g","pricing_plan_id":"cebpf4jnsgd1na2vs0mg"},{"bike_id":"451cd4e6-d747-4d42-b652-d593351ccec4","system_id":"levelo_inurba_marseille","lat":43.24387,"lon":5.37052,"is_reserved":false,"is_disabled":false,"rental_uris":{"android":"levelo://app?vid=451cd4e6-d747-4d42-b652-d593351ccec4","ios":"levelo://app?vid=451cd4e6-d747-4d42-b652-d593351ccec4"},"vehicle_type_id":"4","last_reported":1726697258,"current_range_meters":37600,"station_id":"ce4bhhh2rcd13ifvqfk0","pricing_plan_id":"cebpf4jnsgd1na2vs0mg"},{"bike_id":"59fbe0c1-3e23-478b-af85-53d14385768b","system_id":"levelo_inurba_marseille","lat":43.3109,"lon":5.42428,"is_reserved":false,"is_disabled":false,"rental_uris":{"android":"levelo://app?vid=59fbe0c1-3e23-478b-af85-53d14385768b","ios":"levelo://app?vid=59fbe0c1-3e23-478b-af85-53d14385768b"},"vehicle_type_id":"4","last_reported":1726697258,"current_range_meters":40000,"station_id":"ce4bhp92rcd13ifvqhag","pricing_plan_id":"cebpf4jnsgd1na2vs0mg"},{"bike_id":"13b57b80-59e8-43e9-b969-57ed41f63348","system_id":"levelo_inurba_marseille","lat":43.28418,"lon":5.37524,"is_reserved":false,"is_disabled":false,"rental_uris":{"android":"levelo://app?vid=13b57b80-59e8-43e9-b969-57ed41f63348","ios":"levelo://app?vid=13b57b80-59e8-43e9-b969-57ed41f63348"},"vehicle_type_id":"4","last_reported":1726697258,"current_range_meters":12000,"station_id":"ce4bh412rcd13ifvqds0","pricing_plan_id":"cebpf4jnsgd1na2vs0mg"},{"bike_id":"ae9e0c62-1af7-4e3f-ba33-3af442c40e0b","system_id":"levelo_inurba_marseille","lat":43.27612,"lon":5.3612,"is_reserved":false,"is_disabled":false,"rental_uris":{"android":"levelo://app?vid=ae9e0c62-1af7-4e3f-ba33-3af442c40e0b","ios":"levelo://app?vid=ae9e0c62-1af7-4e3f-ba33-3af442c40e0b"},"vehicle_type_id":"4","last_reported":1726697258,"current_range_meters":38800,"station_id":"ce4bgj92rcd13ifvqbe0","pricing_plan_id":"cebpf4jnsgd1na2vs0mg"},{"bike_id":"ce5845d5-eb1d-4d83-91fd-1f7cf09f0a6c","system_id":"levelo_inurba_marseille","lat":43.310819,"lon":5.424293,"is_reserved":false,"is_disabled":false,"rental_uris":{"android":"levelo://app?vid=ce5845d5-eb1d-4d83-91fd-1f7cf09f0a6c","ios":"levelo://app?vid=ce5845d5-eb1d-4d83-91fd-1f7cf09f0a6c"},"vehicle_type_id":"4","last_reported":1726697258,"current_range_meters":16400,"station_id":"ce4bhp92rcd13ifvqhag","pricing_plan_id":"cebpf4jnsgd1na2vs0mg"},{"bike_id":"965d8976-302f-4510-81d4-1368c6090897","system_id":"levelo_inurba_marseille","lat":43.31172,"lon":5.3871,"is_reserved":false,"is_disabled":false,"rental_uris":{"android":"levelo://app?vid=965d8976-302f-4510-81d4-1368c6090897","ios":"levelo://app?vid=965d8976-302f-4510-81d4-1368c6090897"},"vehicle_type_id":"4","last_reported":1726697258,"current_range_meters":39200,"station_id":"ce4bgv12rcd13ifvqcp0","pricing_plan_id":"cebpf4jnsgd1na2vs0mg"},{"bike_id":"814c3ad7-ae62-4a71-888b-ee4b0342d150","system_id":"levelo_inurba_marseille","lat":43.31765,"lon":5.39016,"is_reserved":false,"is_disabled":false,"rental_uris":{"android":"levelo://app?vid=814c3ad7-ae62-4a71-888b-ee4b0342d150","ios":"levelo://app?vid=814c3ad7-ae62-4a71-888b-ee4b0342d150"},"vehicle_type_id":"4","last_reported":1726697258,"current_range_meters":34000,"station_id":"ce4bhqp2rcd13ifvqhng","pricing_plan_id":"cebpf4jnsgd1na2vs0mg"},{"bike_id":"900bdbb4-aec8-4224-af5c-48f9085f93e9","system_id":"levelo_inurba_marseille","lat":43.24808,"lon":5.37458,"is_reserved":false,"is_disabled":false,"rental_uris":{"android":"levelo://app?vid=900bdbb4-aec8-4224-af5c-48f9085f93e9","ios":"levelo://app?vid=900bdbb4-aec8-4224-af5c-48f9085f93e9"},"vehicle_type_id":"4","last_reported":1726697258,"current_range_meters":38400,"station_id":"ce4bhgh2rcd13ifvqfb0","pricing_plan_id":"cebpf4jnsgd1na2vs0mg"},{"bike_id":"ac4bf06c-542c-4760-8f69-facfe551d5d7","system_id":"levelo_inurba_marseille","lat":43.23972,"lon":5.3663,"is_reserved":false,"is_disabled":false,"rental_uris":{"android":"levelo://app?vid=ac4bf06c-542c-4760-8f69-facfe551d5d7","ios":"levelo://app?vid=ac4bf06c-542c-4760-8f69-facfe551d5d7"},"vehicle_type_id":"4","last_reported":1726697258,"current_range_meters":16400,"station_id":"ce4bhi12rcd13ifvqfp0","pricing_plan_id":"cebpf4jnsgd1na2vs0mg"},{"bike_id":"62605b61-4e41-49b0-8ed2-e4c0780af73e","system_id":"levelo_inurba_marseille","lat":43.28934,"lon":5.3663,"is_reserved":false,"is_disabled":false,"rental_uris":{"android":"levelo://app?vid=62605b61-4e41-49b0-8ed2-e4c0780af73e","ios":"levelo://app?vid=62605b61-4e41-49b0-8ed2-e4c0780af73e"},"vehicle_type_id":"4","last_reported":1726697258,"current_range_meters":37600,"station_id":"ce4bhap2rcd13ifvqek0","pricing_plan_id":"cebpf4jnsgd1na2vs0mg"},{"bike_id":"d9c1a794-40a3-4d0f-abc8-56edb999af39","system_id":"levelo_inurba_marseille","lat":43.28448,"lon":5.35888,"is_reserved":false,"is_disabled":false,"rental_uris":{"android":"levelo://app?vid=d9c1a794-40a3-4d0f-abc8-56edb999af39","ios":"levelo://app?vid=d9c1a794-40a3-4d0f-abc8-56edb999af39"},"vehicle_type_id":"4","last_reported":1726697258,"current_range_meters":35200,"station_id":"ce4bhah2rcd13ifvqei0","pricing_plan_id":"cebpf4jnsgd1na2vs0mg"},{"bike_id":"02c639a4-fe62-499a-a69a-f474d98d7667","system_id":"levelo_inurba_marseille","lat":43.28462,"lon":5.35888,"is_reserved":false,"is_disabled":false,"rental_uris":{"android":"levelo://app?vid=02c639a4-fe62-499a-a69a-f474d98d7667","ios":"levelo://app?vid=02c639a4-fe62-499a-a69a-f474d98d7667"},"vehicle_type_id":"4","last_reported":1726697258,"current_range_meters":38400,"station_id":"ce4bhah2rcd13ifvqei0","pricing_plan_id":"cebpf4jnsgd1na2vs0mg"},{"bike_id":"fcebcf63-b320-4f6b-a46f-b56e14268634","system_id":"levelo_inurba_marseille","lat":43.28411,"lon":5.37514,"is_reserved":false,"is_disabled":false,"rental_uris":{"android":"levelo://app?vid=fcebcf63-b320-4f6b-a46f-b56e14268634","ios":"levelo://app?vid=fcebcf63-b320-4f6b-a46f-b56e14268634"},"vehicle_type_id":"4","last_reported":1726697258,"current_range_meters":33600,"station_id":"ce4bh412rcd13ifvqds0","pricing_plan_id":"cebpf4jnsgd1na2vs0mg"},{"bike_id":"6dd17a2f-59bb-4453-859d-2c09ab795824","system_id":"levelo_inurba_marseille","lat":43.33026,"lon":5.39049,"is_reserved":false,"is_disabled":false,"rental_uris":{"android":"levelo://app?vid=6dd17a2f-59bb-4453-859d-2c09ab795824","ios":"levelo://app?vid=6dd17a2f-59bb-4453-859d-2c09ab795824"},"vehicle_type_id":"4","last_reported":1726697258,"current_range_meters":22400,"station_id":"ce4bhr92rcd13ifvqhrg","pricing_plan_id":"cebpf4jnsgd1na2vs0mg"},{"bike_id":"682c326f-9756-4537-a3eb-f525cbc855ff","system_id":"levelo_inurba_marseille","lat":43.25722,"lon":5.41113,"is_reserved":false,"is_disabled":false,"rental_uris":{"android":"levelo://app?vid=682c326f-9756-4537-a3eb-f525cbc855ff","ios":"levelo://app?vid=682c326f-9756-4537-a3eb-f525cbc855ff"},"vehicle_type_id":"4","last_reported":1726697258,"current_range_meters":38800,"station_id":"ce4bhkp2rcd13ifvqgd0","pricing_plan_id":"cebpf4jnsgd1na2vs0mg"},{"bike_id":"5c4240fb-258c-46fa-88e1-337a0cfb2b36","system_id":"levelo_inurba_marseille","lat":43.28458,"lon":5.35889,"is_reserved":false,"is_disabled":false,"rental_uris":{"android":"levelo://app?vid=5c4240fb-258c-46fa-88e1-337a0cfb2b36","ios":"levelo://app?vid=5c4240fb-258c-46fa-88e1-337a0cfb2b36"},"vehicle_type_id":"4","last_reported":1726697258,"current_range_meters":9200,"station_id":"ce4bhah2rcd13ifvqei0","pricing_plan_id":"cebpf4jnsgd1na2vs0mg"},{"bike_id":"05f48429-9a91-4fad-8be5-0970b020dfe6","system_id":"levelo_inurba_marseille","lat":43.23963,"lon":5.36632,"is_reserved":false,"is_disabled":false,"rental_uris":{"android":"levelo://app?vid=05f48429-9a91-4fad-8be5-0970b020dfe6","ios":"levelo://app?vid=05f48429-9a91-4fad-8be5-0970b020dfe6"},"vehicle_type_id":"4","last_reported":1726697258,"current_range_meters":7200,"station_id":"ce4bhi12rcd13ifvqfp0","pricing_plan_id":"cebpf4jnsgd1na2vs0mg"},{"bike_id":"b8293bed-a03d-4911-a30a-5ef40377bb0a","system_id":"levelo_inurba_marseille","lat":43.25493,"lon":5.37651,"is_reserved":false,"is_disabled":false,"rental_uris":{"android":"levelo://app?vid=b8293bed-a03d-4911-a30a-5ef40377bb0a","ios":"levelo://app?vid=b8293bed-a03d-4911-a30a-5ef40377bb0a"},"vehicle_type_id":"4","last_reported":1726697258,"current_range_meters":38800,"station_id":"ce4bhh12rcd13ifvqff0","pricing_plan_id":"cebpf4jnsgd1na2vs0mg"},{"bike_id":"f2c95146-36ce-4175-8035-0c4ee99efa92","system_id":"levelo_inurba_marseille","lat":43.23193,"lon":5.35551,"is_reserved":false,"is_disabled":false,"rental_uris":{"android":"levelo://app?vid=f2c95146-36ce-4175-8035-0c4ee99efa92","ios":"levelo://app?vid=f2c95146-36ce-4175-8035-0c4ee99efa92"},"vehicle_type_id":"4","last_reported":1726697258,"current_range_meters":10000,"station_id":"ce4bhu92rcd13ifvqi70","pricing_plan_id":"cebpf4jnsgd1na2vs0mg"},{"bike_id":"d03e85eb-7365-49c3-a68a-7545600518d8","system_id":"levelo_inurba_marseille","lat":43.2872,"lon":5.36083,"is_reserved":false,"is_disabled":false,"rental_uris":{"android":"levelo://app?vid=d03e85eb-7365-49c3-a68a-7545600518d8","ios":"levelo://app?vid=d03e85eb-7365-49c3-a68a-7545600518d8"},"vehicle_type_id":"4","last_reported":1726697258,"current_range_meters":39200,"station_id":"cki0cbj6b192h4jlfktg","pricing_plan_id":"cebpf4jnsgd1na2vs0mg"},{"bike_id":"416257b5-8fa4-476a-a45d-2782022bb00f","system_id":"levelo_inurba_marseille","lat":43.283388,"lon":5.381089,"is_reserved":false,"is_disabled":false,"rental_uris":{"android":"levelo://app?vid=416257b5-8fa4-476a-a45d-2782022bb00f","ios":"levelo://app?vid=416257b5-8fa4-476a-a45d-2782022bb00f"},"vehicle_type_id":"4","last_reported":1726697258,"current_range_meters":30400,"station_id":"ce4bh412rcd13ifvqdr0","pricing_plan_id":"cebpf4jnsgd1na2vs0mg"},{"bike_id":"de2f9752-5a0c-44c9-8b7a-1ce62875c38d","system_id":"levelo_inurba_marseille","lat":43.28701,"lon":5.39989,"is_reserved":false,"is_disabled":false,"rental_uris":{"android":"levelo://app?vid=de2f9752-5a0c-44c9-8b7a-1ce62875c38d","ios":"levelo://app?vid=de2f9752-5a0c-44c9-8b7a-1ce62875c38d"},"vehicle_type_id":"4","last_reported":1726697258,"current_range_meters":25600,"station_id":"ce4bho92rcd13ifvqh3g","pricing_plan_id":"cebpf4jnsgd1na2vs0mg"},{"bike_id":"113ca948-2325-463d-b40c-ba755261b048","system_id":"levelo_inurba_marseille","lat":43.28446,"lon":5.35887,"is_reserved":false,"is_disabled":false,"rental_uris":{"android":"levelo://app?vid=113ca948-2325-463d-b40c-ba755261b048","ios":"levelo://app?vid=113ca948-2325-463d-b40c-ba755261b048"},"vehicle_type_id":"4","last_reported":1726697258,"current_range_meters":21600,"station_id":"ce4bhah2rcd13ifvqei0","pricing_plan_id":"cebpf4jnsgd1na2vs0mg"},{"bike_id":"29162098-9d12-42fa-abb3-21d506b55998","system_id":"levelo_inurba_marseille","lat":43.27945,"lon":5.41053,"is_reserved":false,"is_disabled":false,"rental_uris":{"android":"levelo://app?vid=29162098-9d12-42fa-abb3-21d506b55998","ios":"levelo://app?vid=29162098-9d12-42fa-abb3-21d506b55998"},"vehicle_type_id":"4","last_reported":1726697258,"current_range_meters":35200,"station_id":"ce4bhnp2rcd13ifvqh0g","pricing_plan_id":"cebpf4jnsgd1na2vs0mg"},{"bike_id":"750e8351-13f9-43b0-b164-24061995e5de","system_id":"levelo_inurba_marseille","lat":43.30887,"lon":5.37196,"is_reserved":false,"is_disabled":false,"rental_uris":{"android":"levelo://app?vid=750e8351-13f9-43b0-b164-24061995e5de","ios":"levelo://app?vid=750e8351-13f9-43b0-b164-24061995e5de"},"vehicle_type_id":"4","last_reported":1726697258,"current_range_meters":38800,"station_id":"ce4bguh2rcd13ifvqckg","pricing_plan_id":"cebpf4jnsgd1na2vs0mg"},{"bike_id":"2fd5ba6a-f478-410a-a11a-7ba05971c030","system_id":"levelo_inurba_marseille","lat":43.263397,"lon":5.404538,"is_reserved":false,"is_disabled":false,"rental_uris":{"android":"levelo://app?vid=2fd5ba6a-f478-410a-a11a-7ba05971c030","ios":"levelo://app?vid=2fd5ba6a-f478-410a-a11a-7ba05971c030"},"vehicle_type_id":"4","last_reported":1726697258,"current_range_meters":23200,"station_id":"ce4bhkp2rcd13ifvqgd0","pricing_plan_id":"cebpf4jnsgd1na2vs0mg"},{"bike_id":"db5bed51-afb9-4548-98e9-7b7ae226c501","system_id":"levelo_inurba_marseille","lat":43.33745,"lon":5.3744,"is_reserved":false,"is_disabled":false,"rental_uris":{"android":"levelo://app?vid=db5bed51-afb9-4548-98e9-7b7ae226c501","ios":"levelo://app?vid=db5bed51-afb9-4548-98e9-7b7ae226c501"},"vehicle_type_id":"4","last_reported":1726697258,"current_range_meters":33600,"station_id":"","pricing_plan_id":"cebpf4jnsgd1na2vs0mg"},{"bike_id":"6a78926c-7c24-4114-b69b-79fe85c63250","system_id":"levelo_inurba_marseille","lat":43.3088,"lon":5.39633,"is_reserved":false,"is_disabled":false,"rental_uris":{"android":"levelo://app?vid=6a78926c-7c24-4114-b69b-79fe85c63250","ios":"levelo://app?vid=6a78926c-7c24-4114-b69b-79fe85c63250"},"vehicle_type_id":"4","last_reported":1726697258,"current_range_meters":38800,"station_id":"ce4bh012rcd13ifvqcv0","pricing_plan_id":"cebpf4jnsgd1na2vs0mg"},{"bike_id":"30382b33-f7ad-4e13-8b80-00289a6909ac","system_id":"levelo_inurba_marseille","lat":43.289215,"lon":5.383854,"is_reserved":false,"is_disabled":false,"rental_uris":{"android":"levelo://app?vid=30382b33-f7ad-4e13-8b80-00289a6909ac","ios":"levelo://app?vid=30382b33-f7ad-4e13-8b80-00289a6909ac"},"vehicle_type_id":"4","last_reported":1726697258,"current_range_meters":9600,"station_id":"ce4bhl12rcd13ifvqgf0","pricing_plan_id":"cebpf4jnsgd1na2vs0mg"},{"bike_id":"135af442-9c77-4e89-a301-77cfe2b927f4","system_id":"levelo_inurba_marseille","lat":43.29624,"lon":5.37152,"is_reserved":false,"is_disabled":false,"rental_uris":{"android":"levelo://app?vid=135af442-9c77-4e89-a301-77cfe2b927f4","ios":"levelo://app?vid=135af442-9c77-4e89-a301-77cfe2b927f4"},"vehicle_type_id":"4","last_reported":1726697258,"current_range_meters":26800,"station_id":"ce4bgnh2rcd13ifvqc0g","pricing_plan_id":"cebpf4jnsgd1na2vs0mg"},{"bike_id":"69399783-5eae-4af9-ae4b-1495b2d249b1","system_id":"levelo_inurba_marseille","lat":43.24161,"lon":5.36395,"is_reserved":false,"is_disabled":false,"rental_uris":{"android":"levelo://app?vid=69399783-5eae-4af9-ae4b-1495b2d249b1","ios":"levelo://app?vid=69399783-5eae-4af9-ae4b-1495b2d249b1"},"vehicle_type_id":"4","last_reported":1726697258,"current_range_meters":36400,"station_id":"cpo36qri1sfpv3e86is0","pricing_plan_id":"cebpf4jnsgd1na2vs0mg"},{"bike_id":"a5e89067-e22e-4d76-ba54-204bb66ba814","system_id":"levelo_inurba_marseille","lat":43.27418,"lon":5.39415,"is_reserved":false,"is_disabled":false,"rental_uris":{"android":"levelo://app?vid=a5e89067-e22e-4d76-ba54-204bb66ba814","ios":"levelo://app?vid=a5e89067-e22e-4d76-ba54-204bb66ba814"},"vehicle_type_id":"4","last_reported":1726697258,"current_range_meters":38400,"station_id":"ce4bhdp2rcd13ifvqf20","pricing_plan_id":"cebpf4jnsgd1na2vs0mg"},{"bike_id":"023b13a7-6618-44f3-9637-e4d6b2b8db34","system_id":"levelo_inurba_marseille","lat":43.25726,"lon":5.4111,"is_reserved":false,"is_disabled":false,"rental_uris":{"android":"levelo://app?vid=023b13a7-6618-44f3-9637-e4d6b2b8db34","ios":"levelo://app?vid=023b13a7-6618-44f3-9637-e4d6b2b8db34"},"vehicle_type_id":"4","last_reported":1726697258,"current_range_meters":36000,"station_id":"ce4bhkp2rcd13ifvqgd0","pricing_plan_id":"cebpf4jnsgd1na2vs0mg"},{"bike_id":"d06834b6-14ec-477c-92f7-a04b5630a0da","system_id":"levelo_inurba_marseille","lat":43.26547,"lon":5.37293,"is_reserved":false,"is_disabled":false,"rental_uris":{"android":"levelo://app?vid=d06834b6-14ec-477c-92f7-a04b5630a0da","ios":"levelo://app?vid=d06834b6-14ec-477c-92f7-a04b5630a0da"},"vehicle_type_id":"4","last_reported":1726697258,"current_range_meters":8400,"station_id":"ce4bhg12rcd13ifvqf70","pricing_plan_id":"cebpf4jnsgd1na2vs0mg"},{"bike_id":"c2e37a50-a4d6-4422-b245-40f3fa5f4cd1","system_id":"levelo_inurba_marseille","lat":43.27324,"lon":5.39101,"is_reserved":false,"is_disabled":false,"rental_uris":{"android":"levelo://app?vid=c2e37a50-a4d6-4422-b245-40f3fa5f4cd1","ios":"levelo://app?vid=c2e37a50-a4d6-4422-b245-40f3fa5f4cd1"},"vehicle_type_id":"4","last_reported":1726697258,"current_range_meters":8400,"station_id":"ce4bhgp2rcd13ifvqfe0","pricing_plan_id":"cebpf4jnsgd1na2vs0mg"},{"bike_id":"c18e49ed-2097-4356-8646-5f697921c21e","system_id":"levelo_inurba_marseille","lat":43.30248,"lon":5.40079,"is_reserved":false,"is_disabled":false,"rental_uris":{"android":"levelo://app?vid=c18e49ed-2097-4356-8646-5f697921c21e","ios":"levelo://app?vid=c18e49ed-2097-4356-8646-5f697921c21e"},"vehicle_type_id":"4","last_reported":1726697258,"current_range_meters":15200,"station_id":"ce4bgvh2rcd13ifvqcs0","pricing_plan_id":"cebpf4jnsgd1na2vs0mg"},{"bike_id":"2a02a26f-7ad3-47bb-a66f-dad3d347c4c9","system_id":"levelo_inurba_marseille","lat":43.25104,"lon":5.40328,"is_reserved":false,"is_disabled":false,"rental_uris":{"android":"levelo://app?vid=2a02a26f-7ad3-47bb-a66f-dad3d347c4c9","ios":"levelo://app?vid=2a02a26f-7ad3-47bb-a66f-dad3d347c4c9"},"vehicle_type_id":"4","last_reported":1726697258,"current_range_meters":16000,"station_id":"ce4bhlh2rcd13ifvqgig","pricing_plan_id":"cebpf4jnsgd1na2vs0mg"},{"bike_id":"e5b0ee22-a192-442b-bfde-ae0c7d8bec85","system_id":"levelo_inurba_marseille","lat":43.31273,"lon":5.40173,"is_reserved":false,"is_disabled":false,"rental_uris":{"android":"levelo://app?vid=e5b0ee22-a192-442b-bfde-ae0c7d8bec85","ios":"levelo://app?vid=e5b0ee22-a192-442b-bfde-ae0c7d8bec85"},"vehicle_type_id":"4","last_reported":1726697258,"current_range_meters":37600,"station_id":"ce4bh092rcd13ifvqd30","pricing_plan_id":"cebpf4jnsgd1na2vs0mg"},{"bike_id":"6228b1a7-edf5-4578-8675-6da3a2ed3f0e","system_id":"levelo_inurba_marseille","lat":43.29037,"lon":5.35912,"is_reserved":false,"is_disabled":false,"rental_uris":{"android":"levelo://app?vid=6228b1a7-edf5-4578-8675-6da3a2ed3f0e","ios":"levelo://app?vid=6228b1a7-edf5-4578-8675-6da3a2ed3f0e"},"vehicle_type_id":"4","last_reported":1726697258,"current_range_meters":19200,"station_id":"ce4bha92rcd13ifvqeg0","pricing_plan_id":"cebpf4jnsgd1na2vs0mg"},{"bike_id":"955951c0-82ad-457e-818d-1db9706d249f","system_id":"levelo_inurba_marseille","lat":43.28457,"lon":5.35886,"is_reserved":false,"is_disabled":false,"rental_uris":{"android":"levelo://app?vid=955951c0-82ad-457e-818d-1db9706d249f","ios":"levelo://app?vid=955951c0-82ad-457e-818d-1db9706d249f"},"vehicle_type_id":"4","last_reported":1726697258,"current_range_meters":4000,"station_id":"ce4bhah2rcd13ifvqei0","pricing_plan_id":"cebpf4jnsgd1na2vs0mg"},{"bike_id":"58014cc6-4f39-4119-a8a0-cdc0e2507820","system_id":"levelo_inurba_marseille","lat":43.32291,"lon":5.38267,"is_reserved":false,"is_disabled":false,"rental_uris":{"android":"levelo://app?vid=58014cc6-4f39-4119-a8a0-cdc0e2507820","ios":"levelo://app?vid=58014cc6-4f39-4119-a8a0-cdc0e2507820"},"vehicle_type_id":"4","last_reported":1726697258,"current_range_meters":39200,"station_id":"ce4bhr12rcd13ifvqhqg","pricing_plan_id":"cebpf4jnsgd1na2vs0mg"},{"bike_id":"ecb1ba9f-0f40-462e-818b-566e669a18e1","system_id":"levelo_inurba_marseille","lat":43.26562,"lon":5.39005,"is_reserved":false,"is_disabled":false,"rental_uris":{"android":"levelo://app?vid=ecb1ba9f-0f40-462e-818b-566e669a18e1","ios":"levelo://app?vid=ecb1ba9f-0f40-462e-818b-566e669a18e1"},"vehicle_type_id":"4","last_reported":1726697258,"current_range_meters":38800,"station_id":"ce4bhe12rcd13ifvqf30","pricing_plan_id":"cebpf4jnsgd1na2vs0mg"},{"bike_id":"5eec14ad-c849-4f64-bdfb-f330db0ed0de","system_id":"levelo_inurba_marseille","lat":43.31173,"lon":5.38716,"is_reserved":false,"is_disabled":false,"rental_uris":{"android":"levelo://app?vid=5eec14ad-c849-4f64-bdfb-f330db0ed0de","ios":"levelo://app?vid=5eec14ad-c849-4f64-bdfb-f330db0ed0de"},"vehicle_type_id":"4","last_reported":1726697258,"current_range_meters":25600,"station_id":"ce4bgv12rcd13ifvqcp0","pricing_plan_id":"cebpf4jnsgd1na2vs0mg"},{"bike_id":"b168231b-2f3d-4b28-bd24-348b4b373070","system_id":"levelo_inurba_marseille","lat":43.31324,"lon":5.39697,"is_reserved":false,"is_disabled":false,"rental_uris":{"android":"levelo://app?vid=b168231b-2f3d-4b28-bd24-348b4b373070","ios":"levelo://app?vid=b168231b-2f3d-4b28-bd24-348b4b373070"},"vehicle_type_id":"4","last_reported":1726697258,"current_range_meters":38400,"station_id":"ce4bgvp2rcd13ifvqcu0","pricing_plan_id":"cebpf4jnsgd1na2vs0mg"},{"bike_id":"67101e27-2fdd-4e84-bdf7-495c619879ab","system_id":"levelo_inurba_marseille","lat":43.31995,"lon":5.38156,"is_reserved":false,"is_disabled":false,"rental_uris":{"android":"levelo://app?vid=67101e27-2fdd-4e84-bdf7-495c619879ab","ios":"levelo://app?vid=67101e27-2fdd-4e84-bdf7-495c619879ab"},"vehicle_type_id":"4","last_reported":1726697258,"current_range_meters":12000,"station_id":"ce4bhr12rcd13ifvqhpg","pricing_plan_id":"cebpf4jnsgd1na2vs0mg"},{"bike_id":"13ee2a72-83d4-4ef5-8ab9-b048ac85604d","system_id":"levelo_inurba_marseille","lat":43.28458,"lon":5.35889,"is_reserved":false,"is_disabled":false,"rental_uris":{"android":"levelo://app?vid=13ee2a72-83d4-4ef5-8ab9-b048ac85604d","ios":"levelo://app?vid=13ee2a72-83d4-4ef5-8ab9-b048ac85604d"},"vehicle_type_id":"4","last_reported":1726697258,"current_range_meters":38800,"station_id":"ce4bhah2rcd13ifvqei0","pricing_plan_id":"cebpf4jnsgd1na2vs0mg"},{"bike_id":"9de036c4-decb-465b-a775-32e663a8924f","system_id":"levelo_inurba_marseille","lat":43.33023,"lon":5.39036,"is_reserved":false,"is_disabled":false,"rental_uris":{"android":"levelo://app?vid=9de036c4-decb-465b-a775-32e663a8924f","ios":"levelo://app?vid=9de036c4-decb-465b-a775-32e663a8924f"},"vehicle_type_id":"4","last_reported":1726697258,"current_range_meters":38800,"station_id":"ce4bhr92rcd13ifvqhrg","pricing_plan_id":"cebpf4jnsgd1na2vs0mg"},{"bike_id":"3eda4607-df67-4e07-b923-8887faadc06b","system_id":"levelo_inurba_marseille","lat":43.3089,"lon":5.37182,"is_reserved":false,"is_disabled":false,"rental_uris":{"android":"levelo://app?vid=3eda4607-df67-4e07-b923-8887faadc06b","ios":"levelo://app?vid=3eda4607-df67-4e07-b923-8887faadc06b"},"vehicle_type_id":"4","last_reported":1726697258,"current_range_meters":38800,"station_id":"ce4bguh2rcd13ifvqckg","pricing_plan_id":"cebpf4jnsgd1na2vs0mg"},{"bike_id":"b0aa9608-e495-4afb-986f-f111d9b6e73f","system_id":"levelo_inurba_marseille","lat":43.2857,"lon":5.39496,"is_reserved":false,"is_disabled":false,"rental_uris":{"android":"levelo://app?vid=b0aa9608-e495-4afb-986f-f111d9b6e73f","ios":"levelo://app?vid=b0aa9608-e495-4afb-986f-f111d9b6e73f"},"vehicle_type_id":"4","last_reported":1726697258,"current_range_meters":37600,"station_id":"ce4bh292rcd13ifvqdg0","pricing_plan_id":"cebpf4jnsgd1na2vs0mg"},{"bike_id":"0c95fa43-48bf-4681-83d7-aad86c7517d9","system_id":"levelo_inurba_marseille","lat":43.28265,"lon":5.35072,"is_reserved":false,"is_disabled":false,"rental_uris":{"android":"levelo://app?vid=0c95fa43-48bf-4681-83d7-aad86c7517d9","ios":"levelo://app?vid=0c95fa43-48bf-4681-83d7-aad86c7517d9"},"vehicle_type_id":"4","last_reported":1726697258,"current_range_meters":38800,"station_id":"ce4bhbp2rcd13ifvqerg","pricing_plan_id":"cebpf4jnsgd1na2vs0mg"},{"bike_id":"6bb0db76-0aa7-4a13-ba92-3f924be251b8","system_id":"levelo_inurba_marseille","lat":43.28711,"lon":5.39993,"is_reserved":false,"is_disabled":false,"rental_uris":{"android":"levelo://app?vid=6bb0db76-0aa7-4a13-ba92-3f924be251b8","ios":"levelo://app?vid=6bb0db76-0aa7-4a13-ba92-3f924be251b8"},"vehicle_type_id":"4","last_reported":1726697258,"current_range_meters":36400,"station_id":"ce4bho92rcd13ifvqh3g","pricing_plan_id":"cebpf4jnsgd1na2vs0mg"},{"bike_id":"55256b03-7844-4d77-9601-6f7e880a9bdc","system_id":"levelo_inurba_marseille","lat":43.28374,"lon":5.38625,"is_reserved":false,"is_disabled":false,"rental_uris":{"android":"levelo://app?vid=55256b03-7844-4d77-9601-6f7e880a9bdc","ios":"levelo://app?vid=55256b03-7844-4d77-9601-6f7e880a9bdc"},"vehicle_type_id":"4","last_reported":1726697258,"current_range_meters":16800,"station_id":"ce4bh492rcd13ifvqdvg","pricing_plan_id":"cebpf4jnsgd1na2vs0mg"},{"bike_id":"92782bbc-32e3-4fcd-80a2-1435ecab2239","system_id":"levelo_inurba_marseille","lat":43.29535,"lon":5.3854,"is_reserved":false,"is_disabled":false,"rental_uris":{"android":"levelo://app?vid=92782bbc-32e3-4fcd-80a2-1435ecab2239","ios":"levelo://app?vid=92782bbc-32e3-4fcd-80a2-1435ecab2239"},"vehicle_type_id":"4","last_reported":1726697258,"current_range_meters":38800,"station_id":"ce4bgih2rcd13ifvqba0","pricing_plan_id":"cebpf4jnsgd1na2vs0mg"},{"bike_id":"460e9f1e-4d70-4ce2-8cf8-3ee7c17147a5","system_id":"levelo_inurba_marseille","lat":43.283471,"lon":5.381119,"is_reserved":false,"is_disabled":false,"rental_uris":{"android":"levelo://app?vid=460e9f1e-4d70-4ce2-8cf8-3ee7c17147a5","ios":"levelo://app?vid=460e9f1e-4d70-4ce2-8cf8-3ee7c17147a5"},"vehicle_type_id":"4","last_reported":1726697258,"current_range_meters":36000,"station_id":"ce4bh412rcd13ifvqdr0","pricing_plan_id":"cebpf4jnsgd1na2vs0mg"},{"bike_id":"6e00666a-f02f-4580-a990-0531883c2cb7","system_id":"levelo_inurba_marseille","lat":43.29891,"lon":5.43658,"is_reserved":false,"is_disabled":false,"rental_uris":{"android":"levelo://app?vid=6e00666a-f02f-4580-a990-0531883c2cb7","ios":"levelo://app?vid=6e00666a-f02f-4580-a990-0531883c2cb7"},"vehicle_type_id":"4","last_reported":1726697258,"current_range_meters":38800,"station_id":"ce4bhpp2rcd13ifvqhfg","pricing_plan_id":"cebpf4jnsgd1na2vs0mg"},{"bike_id":"7d54046c-3cf1-4344-8137-17101feedbd5","system_id":"levelo_inurba_marseille","lat":43.32283,"lon":5.38273,"is_reserved":false,"is_disabled":false,"rental_uris":{"android":"levelo://app?vid=7d54046c-3cf1-4344-8137-17101feedbd5","ios":"levelo://app?vid=7d54046c-3cf1-4344-8137-17101feedbd5"},"vehicle_type_id":"4","last_reported":1726697258,"current_range_meters":38800,"station_id":"ce4bhr12rcd13ifvqhqg","pricing_plan_id":"cebpf4jnsgd1na2vs0mg"},{"bike_id":"377a945c-b3a5-42b6-9d2c-d381ae14887c","system_id":"levelo_inurba_marseille","lat":43.27808,"lon":5.40706,"is_reserved":false,"is_disabled":false,"rental_uris":{"android":"levelo://app?vid=377a945c-b3a5-42b6-9d2c-d381ae14887c","ios":"levelo://app?vid=377a945c-b3a5-42b6-9d2c-d381ae14887c"},"vehicle_type_id":"4","last_reported":1726697258,"current_range_meters":38800,"station_id":"ce4bhnh2rcd13ifvqgtg","pricing_plan_id":"cebpf4jnsgd1na2vs0mg"},{"bike_id":"80d931be-8030-4e8a-8ceb-49355cbadc26","system_id":"levelo_inurba_marseille","lat":43.31366,"lon":5.38498,"is_reserved":false,"is_disabled":false,"rental_uris":{"android":"levelo://app?vid=80d931be-8030-4e8a-8ceb-49355cbadc26","ios":"levelo://app?vid=80d931be-8030-4e8a-8ceb-49355cbadc26"},"vehicle_type_id":"4","last_reported":1726697258,"current_range_meters":38800,"station_id":"ce4bgt92rcd13ifvqcf0","pricing_plan_id":"cebpf4jnsgd1na2vs0mg"},{"bike_id":"0179b53e-653a-4f47-8d7a-20178aca10b6","system_id":"levelo_inurba_marseille","lat":43.29191,"lon":5.3932,"is_reserved":false,"is_disabled":false,"rental_uris":{"android":"levelo://app?vid=0179b53e-653a-4f47-8d7a-20178aca10b6","ios":"levelo://app?vid=0179b53e-653a-4f47-8d7a-20178aca10b6"},"vehicle_type_id":"4","last_reported":1726697258,"current_range_meters":29600,"station_id":"ce4bh192rcd13ifvqdd0","pricing_plan_id":"cebpf4jnsgd1na2vs0mg"},{"bike_id":"fa2e946d-01fe-4bb4-a2b0-55af60a0bcec","system_id":"levelo_inurba_marseille","lat":43.33729,"lon":5.39186,"is_reserved":false,"is_disabled":false,"rental_uris":{"android":"levelo://app?vid=fa2e946d-01fe-4bb4-a2b0-55af60a0bcec","ios":"levelo://app?vid=fa2e946d-01fe-4bb4-a2b0-55af60a0bcec"},"vehicle_type_id":"4","last_reported":1726697258,"current_range_meters":38400,"station_id":"ce4bhr92rcd13ifvqhsg","pricing_plan_id":"cebpf4jnsgd1na2vs0mg"},{"bike_id":"2548d5cc-29ca-4e12-8900-1cc752c70e52","system_id":"levelo_inurba_marseille","lat":43.31766,"lon":5.39021,"is_reserved":false,"is_disabled":false,"rental_uris":{"android":"levelo://app?vid=2548d5cc-29ca-4e12-8900-1cc752c70e52","ios":"levelo://app?vid=2548d5cc-29ca-4e12-8900-1cc752c70e52"},"vehicle_type_id":"4","last_reported":1726697258,"current_range_meters":37600,"station_id":"ce4bhqp2rcd13ifvqhng","pricing_plan_id":"cebpf4jnsgd1na2vs0mg"},{"bike_id":"3884d8c9-8196-43c1-8e1b-85179e85dab7","system_id":"levelo_inurba_marseille","lat":43.25864,"lon":5.39899,"is_reserved":false,"is_disabled":false,"rental_uris":{"android":"levelo://app?vid=3884d8c9-8196-43c1-8e1b-85179e85dab7","ios":"levelo://app?vid=3884d8c9-8196-43c1-8e1b-85179e85dab7"},"vehicle_type_id":"4","last_reported":1726697258,"current_range_meters":29600,"station_id":"ce4bhl92rcd13ifvqghg","pricing_plan_id":"cebpf4jnsgd1na2vs0mg"},{"bike_id":"c33e380e-e482-4047-874e-f3c84705d066","system_id":"levelo_inurba_marseille","lat":43.28702,"lon":5.37385,"is_reserved":false,"is_disabled":false,"rental_uris":{"android":"levelo://app?vid=c33e380e-e482-4047-874e-f3c84705d066","ios":"levelo://app?vid=c33e380e-e482-4047-874e-f3c84705d066"},"vehicle_type_id":"4","last_reported":1726697258,"current_range_meters":38800,"station_id":"ce4bh3p2rcd13ifvqdq0","pricing_plan_id":"cebpf4jnsgd1na2vs0mg"},{"bike_id":"0dd50930-fcc4-4373-9ec1-9e1e8b5e9aac","system_id":"levelo_inurba_marseille","lat":43.2549,"lon":5.3765,"is_reserved":false,"is_disabled":false,"rental_uris":{"android":"levelo://app?vid=0dd50930-fcc4-4373-9ec1-9e1e8b5e9aac","ios":"levelo://app?vid=0dd50930-fcc4-4373-9ec1-9e1e8b5e9aac"},"vehicle_type_id":"4","last_reported":1726697258,"current_range_meters":37600,"station_id":"ce4bhh12rcd13ifvqff0","pricing_plan_id":"cebpf4jnsgd1na2vs0mg"},{"bike_id":"6649cb01-e002-43e5-9929-37eaf0d58301","system_id":"levelo_inurba_marseille","lat":43.31165,"lon":5.38713,"is_reserved":false,"is_disabled":false,"rental_uris":{"android":"levelo://app?vid=6649cb01-e002-43e5-9929-37eaf0d58301","ios":"levelo://app?vid=6649cb01-e002-43e5-9929-37eaf0d58301"},"vehicle_type_id":"4","last_reported":1726697258,"current_range_meters":31200,"station_id":"ce4bgv12rcd13ifvqcp0","pricing_plan_id":"cebpf4jnsgd1na2vs0mg"},{"bike_id":"f84c07cb-ff23-4dd7-9634-7c6d17498a94","system_id":"levelo_inurba_marseille","lat":43.2885,"lon":5.35841,"is_reserved":false,"is_disabled":false,"rental_uris":{"android":"levelo://app?vid=f84c07cb-ff23-4dd7-9634-7c6d17498a94","ios":"levelo://app?vid=f84c07cb-ff23-4dd7-9634-7c6d17498a94"},"vehicle_type_id":"4","last_reported":1726697258,"current_range_meters":3600,"station_id":"ce4bhb12rcd13ifvqem0","pricing_plan_id":"cebpf4jnsgd1na2vs0mg"},{"bike_id":"bd1363b7-4dbf-483d-a29b-919168cec256","system_id":"levelo_inurba_marseille","lat":43.29251,"lon":5.40909,"is_reserved":false,"is_disabled":false,"rental_uris":{"android":"levelo://app?vid=bd1363b7-4dbf-483d-a29b-919168cec256","ios":"levelo://app?vid=bd1363b7-4dbf-483d-a29b-919168cec256"},"vehicle_type_id":"4","last_reported":1726697258,"current_range_meters":12400,"station_id":"ce4bh192rcd13ifvqdc0","pricing_plan_id":"cebpf4jnsgd1na2vs0mg"},{"bike_id":"328d45f9-980e-4811-97c0-47d761861509","system_id":"levelo_inurba_marseille","lat":43.29847,"lon":5.37836,"is_reserved":false,"is_disabled":false,"rental_uris":{"android":"levelo://app?vid=328d45f9-980e-4811-97c0-47d761861509","ios":"levelo://app?vid=328d45f9-980e-4811-97c0-47d761861509"},"vehicle_type_id":"4","last_reported":1726697258,"current_range_meters":9200,"station_id":"ce4bgkh2rcd13ifvqbl0","pricing_plan_id":"cebpf4jnsgd1na2vs0mg"},{"bike_id":"842a4bdb-1262-4d4d-96a5-9778493f31d8","system_id":"levelo_inurba_marseille","lat":43.28454,"lon":5.359,"is_reserved":false,"is_disabled":false,"rental_uris":{"android":"levelo://app?vid=842a4bdb-1262-4d4d-96a5-9778493f31d8","ios":"levelo://app?vid=842a4bdb-1262-4d4d-96a5-9778493f31d8"},"vehicle_type_id":"4","last_reported":1726697258,"current_range_meters":22800,"station_id":"ce4bhah2rcd13ifvqei0","pricing_plan_id":"cebpf4jnsgd1na2vs0mg"},{"bike_id":"7029954b-18cd-46b9-bf0c-e80eb06c3acc","system_id":"levelo_inurba_marseille","lat":43.28659,"lon":5.36357,"is_reserved":false,"is_disabled":false,"rental_uris":{"android":"levelo://app?vid=7029954b-18cd-46b9-bf0c-e80eb06c3acc","ios":"levelo://app?vid=7029954b-18cd-46b9-bf0c-e80eb06c3acc"},"vehicle_type_id":"4","last_reported":1726697258,"current_range_meters":6800,"station_id":"ce4bhah2rcd13ifvqej0","pricing_plan_id":"cebpf4jnsgd1na2vs0mg"},{"bike_id":"addd2b8e-c0bb-41d5-88db-d1a254467027","system_id":"levelo_inurba_marseille","lat":43.30653,"lon":5.40075,"is_reserved":false,"is_disabled":false,"rental_uris":{"android":"levelo://app?vid=addd2b8e-c0bb-41d5-88db-d1a254467027","ios":"levelo://app?vid=addd2b8e-c0bb-41d5-88db-d1a254467027"},"vehicle_type_id":"4","last_reported":1726697258,"current_range_meters":38800,"station_id":"ce4bh112rcd13ifvqda0","pricing_plan_id":"cebpf4jnsgd1na2vs0mg"},