{"last_updated":1720883266,"ttl":30,"version":"2.2","data":{"bikes":[{"bike_id":"250ce43e-a31b-497d-9217-b532f6a53537","system_id":"levelo_inurba_marseille","lat":43.31314,"lon":5.36658,"is_reserved":false,"is_disabled":false,"rental_uris":{"android":"levelo://app?vid=250ce43e-a31b-497d-9217-b532f6a53537","ios":"levelo://app?vid=250ce43e-a31b-497d-9217-b532f6a53537"},"vehicle_type_id":"4","last_reported":1720883266,"current_range_meters":14400,"station_id":"","pricing_plan_id":"cebpf4jnsgd1na2vs0mg"},{"bike_id":"3fec8def-be29-462a-ac48-17951f4ec48a","system_id":"levelo_inurba_marseille","lat":43.31341,"lon":5.367098,"is_reserved":false,"is_disabled":false,"rental_uris":{"android":"levelo://app?vid=3fec8def-be29-462a-ac48-17951f4ec48a","ios":"levelo://app?vid=3fec8def-be29-462a-ac48-17951f4ec48a"},"vehicle_type_id":"4","last_reported":1720883266,"current_range_meters":24800,"station_id":"ce4bgr92rcd13ifvqc6g","pricing_plan_id":"cebpf4jnsgd1na2vs0mg"},{"bike_id":"737b4a9f-eca1-4f4f-9509-bd3ddc92a32a","system_id":"levelo_inurba_marseille","lat":43.312275,"lon":5.368199,"is_reserved":false,"is_disabled":false,"rental_uris":{"android":"levelo://app?vid=737b4a9f-eca1-4f4f-9509-bd3ddc92a32a","ios":"levelo://app?vid=737b4a9f-eca1-4f4f-9509-bd3ddc92a32a"},"vehicle_type_id":"4","last_reported":1720883266,"current_range_meters":10400,"station_id":"ce4bgl92rcd13ifvqbq0","pricing_plan_id":"cebpf4jnsgd1na2vs0mg"},{"bike_id":"2cce0f49-ad60-4f54-b5e9-ad9c3dc0c287","system_id":"levelo_inurba_marseille","lat":43.312239,"lon":5.368562,"is_reserved":false,"is_disabled":false,"rental_uris":{"android":"levelo://app?vid=2cce0f49-ad60-4f54-b5e9-ad9c3dc0c287","ios":"levelo://app?vid=2cce0f49-ad60-4f54-b5e9-ad9c3dc0c287"},"vehicle_type_id":"4","last_reported":1720883266,"current_range_meters":4400,"station_id":"ce4bgl92rcd13ifvqbq0","pricing_plan_id":"cebpf4jnsgd1na2vs0mg"},{"bike_id":"e85041e8-3fd0-47d7-b82c-8477cba9d744","system_id":"levelo_inurba_marseille","lat":43.312239,"lon":5.368562,"is_reserved":false,"is_disabled":false,"rental_uris":{"android":"levelo://app?vid=e85041e8-3fd0-47d7-b82c-8477cba9d744","ios":"levelo://app?vid=e85041e8-3fd0-47d7-b82c-8477cba9d744"},"vehicle_type_id":"4","last_reported":1720883266,"current_range_meters":5200,"station_id":"ce4bgl92rcd13ifvqbq0","pricing_plan_id":"cebpf4jnsgd1na2vs0mg"},{"bike_id":"a9a442c3-5b8d-4d78-9ae1-e8a3c4dd8d7b","system_id":"levelo_inurba_marseille","lat":43.312239,"lon":5.368562,"is_reserved":false,"is_disabled":false,"rental_uris":{"android":"levelo://app?vid=a9a442c3-5b8d-4d78-9ae1-e8a3c4dd8d7b","ios":"levelo://app?vid=a9a442c3-5b8d-4d78-9ae1-e8a3c4dd8d7b"},"vehicle_type_id":"4","last_reported":1720883266,"current_range_meters":9200,"station_id":"ce4bgl92rcd13ifvqbq0","pricing_plan_id":"cebpf4jnsgd1na2vs0mg"},{"bike_id":"8c34e1ec-2195-46a9-b451-15f27ddc5c9d","system_id":"levelo_inurba_marseille","lat":43.312239,"lon":5.368562,"is_reserved":false,"is_disabled":false,"rental_uris":{"android":"levelo://app?vid=8c34e1ec-2195-46a9-b451-15f27ddc5c9d","ios":"levelo://app?vid=8c34e1ec-2195-46a9-b451-15f27ddc5c9d"},"vehicle_type_id":"4","last_reported":1720883266,"current_range_meters":17200,"station_id":"ce4bgl92rcd13ifvqbq0","pricing_plan_id":"cebpf4jnsgd1na2vs0mg"},{"bike_id":"97eaf195-3055-420c-932d-da9b1f2c4577","system_id":"levelo_inurba_marseille","lat":43.31221,"lon":5.36858,"is_reserved":false,"is_disabled":false,"rental_uris":{"android":"levelo://app?vid=97eaf195-3055-420c-932d-da9b1f2c4577","ios":"levelo://app?vid=97eaf195-3055-420c-932d-da9b1f2c4577"},"vehicle_type_id":"4","last_reported":1720883266,"current_range_meters":28800,"station_id":"ce4bgl92rcd13ifvqbq0","pricing_plan_id":"cebpf4jnsgd1na2vs0mg"},{"bike_id":"379b6097-5c98-4c27-b4e5-9608e0328acf","system_id":"levelo_inurba_marseille","lat":43.312239,"lon":5.368562,"is_reserved":false,"is_disabled":false,"rental_uris":{"android":"levelo://app?vid=379b6097-5c98-4c27-b4e5-9608e0328acf","ios":"levelo://app?vid=379b6097-5c98-4c27-b4e5-9608e0328acf"},"vehicle_type_id":"4","last_reported":1720883266,"current_range_meters":28800,"station_id":"ce4bgl92rcd13ifvqbq0","pricing_plan_id":"cebpf4jnsgd1na2vs0mg"},{"bike_id":"ed0b8e1b-5981-4034-b9e6-2722fde681b8","system_id":"levelo_inurba_marseille","lat":43.312239,"lon":5.368562,"is_reserved":false,"is_disabled":false,"rental_uris":{"android":"levelo://app?vid=ed0b8e1b-5981-4034-b9e6-2722fde681b8","ios":"levelo://app?vid=ed0b8e1b-5981-4034-b9e6-2722fde681b8"},"vehicle_type_id":"4","last_reported":1720883266,"current_range_meters":30800,"station_id":"ce4bgl92rcd13ifvqbq0","pricing_plan_id":"cebpf4jnsgd1na2vs0mg"},{"bike_id":"015dd0f2-15ba-4110-b705-6d8ce74a6d5c","system_id":"levelo_inurba_marseille","lat":43.309076,"lon":5.368465,"is_reserved":false,"is_disabled":false,"rental_uris":{"android":"levelo://app?vid=015dd0f2-15ba-4110-b705-6d8ce74a6d5c","ios":"levelo://app?vid=015dd0f2-15ba-4110-b705-6d8ce74a6d5c"},"vehicle_type_id":"4","last_reported":1720883266,"current_range_meters":12400,"station_id":"ce4bgn92rcd13ifvqbvg","pricing_plan_id":"cebpf4jnsgd1na2vs0mg"},{"bike_id":"edaee188-fe84-4bd2-a177-297aa914419f","system_id":"levelo_inurba_marseille","lat":43.309076,"lon":5.368465,"is_reserved":false,"is_disabled":false,"rental_uris":{"android":"levelo://app?vid=edaee188-fe84-4bd2-a177-297aa914419f","ios":"levelo://app?vid=edaee188-fe84-4bd2-a177-297aa914419f"},"vehicle_type_id":"4","last_reported":1720883266,"current_range_meters":30000,"station_id":"ce4bgn92rcd13ifvqbvg","pricing_plan_id":"cebpf4jnsgd1na2vs0mg"},{"bike_id":"3ec2f6d4-a6e4-4aa4-9407-2730438c4a0f","system_id":"levelo_inurba_marseille","lat":43.30887,"lon":5.37193,"is_reserved":false,"is_disabled":false,"rental_uris":{"android":"levelo://app?vid=3ec2f6d4-a6e4-4aa4-9407-2730438c4a0f","ios":"levelo://app?vid=3ec2f6d4-a6e4-4aa4-9407-2730438c4a0f"},"vehicle_type_id":"4","last_reported":1720883266,"current_range_meters":6000,"station_id":"","pricing_plan_id":"cebpf4jnsgd1na2vs0mg"},{"bike_id":"8f621771-ba17-4c64-adc3-45f5243358c3","system_id":"levelo_inurba_marseille","lat":43.305706,"lon":5.365654,"is_reserved":false,"is_disabled":false,"rental_uris":{"android":"levelo://app?vid=8f621771-ba17-4c64-adc3-45f5243358c3","ios":"levelo://app?vid=8f621771-ba17-4c64-adc3-45f5243358c3"},"vehicle_type_id":"4","last_reported":1720883266,"current_range_meters":7200,"station_id":"ce4bgs12rcd13ifvqcag","pricing_plan_id":"cebpf4jnsgd1na2vs0mg"},{"bike_id":"d470981e-15b7-4261-83bf-5b094e467047","system_id":"levelo_inurba_marseille","lat":43.305368,"lon":5.367343,"is_reserved":false,"is_disabled":false,"rental_uris":{"android":"levelo://app?vid=d470981e-15b7-4261-83bf-5b094e467047","ios":"levelo://app?vid=d470981e-15b7-4261-83bf-5b094e467047"},"vehicle_type_id":"4","last_reported":1720883266,"current_range_meters":21600,"station_id":"ce4bgrp2rcd13ifvqc9g","pricing_plan_id":"cebpf4jnsgd1na2vs0mg"},{"bike_id":"5d04c4be-9c4a-4e93-ac69-2217251c1063","system_id":"levelo_inurba_marseille","lat":43.305714,"lon":5.365633,"is_reserved":false,"is_disabled":false,"rental_uris":{"android":"levelo://app?vid=5d04c4be-9c4a-4e93-ac69-2217251c1063","ios":"levelo://app?vid=5d04c4be-9c4a-4e93-ac69-2217251c1063"},"vehicle_type_id":"4","last_reported":1720883266,"current_range_meters":21200,"station_id":"ce4bgs12rcd13ifvqcag","pricing_plan_id":"cebpf4jnsgd1na2vs0mg"},{"bike_id":"67dc44ec-6bcd-492f-baed-83f33a186c87","system_id":"levelo_inurba_marseille","lat":43.320583,"lon":5.367793,"is_reserved":false,"is_disabled":false,"rental_uris":{"android":"levelo://app?vid=67dc44ec-6bcd-492f-baed-83f33a186c87","ios":"levelo://app?vid=67dc44ec-6bcd-492f-baed-83f33a186c87"},"vehicle_type_id":"4","last_reported":1720883266,"current_range_meters":29200,"station_id":"","pricing_plan_id":"cebpf4jnsgd1na2vs0mg"},{"bike_id":"ecace4db-c54a-4078-b6db-a0ffa3d2c0c4","system_id":"levelo_inurba_marseille","lat":43.311131,"lon":5.377651,"is_reserved":false,"is_disabled":false,"rental_uris":{"android":"levelo://app?vid=ecace4db-c54a-4078-b6db-a0ffa3d2c0c4","ios":"levelo://app?vid=ecace4db-c54a-4078-b6db-a0ffa3d2c0c4"},"vehicle_type_id":"4","last_reported":1720883266,"current_range_meters":0,"station_id":"ce4bgt92rcd13ifvqcg0","pricing_plan_id":"cebpf4jnsgd1na2vs0mg"},{"bike_id":"010cbf3d-12bc-404c-b097-e42437270442","system_id":"levelo_inurba_marseille","lat":43.317075,"lon":5.377367,"is_reserved":false,"is_disabled":false,"rental_uris":{"android":"levelo://app?vid=010cbf3d-12bc-404c-b097-e42437270442","ios":"levelo://app?vid=010cbf3d-12bc-404c-b097-e42437270442"},"vehicle_type_id":"4","last_reported":1720883266,"current_range_meters":20400,"station_id":"ce4bgth2rcd13ifvqch0","pricing_plan_id":"cebpf4jnsgd1na2vs0mg"},{"bike_id":"a47285e7-2616-4dee-abb3-999bd832caf8","system_id":"levelo_inurba_marseille","lat":43.301312,"lon":5.368076,"is_reserved":false,"is_disabled":false,"rental_uris":{"android":"levelo://app?vid=a47285e7-2616-4dee-abb3-999bd832caf8","ios":"levelo://app?vid=a47285e7-2616-4dee-abb3-999bd832caf8"},"vehicle_type_id":"4","last_reported":1720883266,"current_range_meters":12400,"station_id":"","pricing_plan_id":"cebpf4jnsgd1na2vs0mg"},{"bike_id":"aa315030-77ca-4b65-b9c9-12781fe0eb6b","system_id":"levelo_inurba_marseille","lat":43.308012,"lon":5.381511,"is_reserved":false,"is_disabled":false,"rental_uris":{"android":"levelo://app?vid=aa315030-77ca-4b65-b9c9-12781fe0eb6b","ios":"levelo://app?vid=aa315030-77ca-4b65-b9c9-12781fe0eb6b"},"vehicle_type_id":"4","last_reported":1720883266,"current_range_meters":0,"station_id":"ce4bgt12rcd13ifvqce0","pricing_plan_id":"cebpf4jnsgd1na2vs0mg"},{"bike_id":"5bc024ce-f2f9-451c-b8a7-481c40500958","system_id":"levelo_inurba_marseille","lat":43.308012,"lon":5.381511,"is_reserved":false,"is_disabled":false,"rental_uris":{"android":"levelo://app?vid=5bc024ce-f2f9-451c-b8a7-481c40500958","ios":"levelo://app?vid=5bc024ce-f2f9-451c-b8a7-481c40500958"},"vehicle_type_id":"4","last_reported":1720883266,"current_range_meters":27200,"station_id":"ce4bgt12rcd13ifvqce0","pricing_plan_id":"cebpf4jnsgd1na2vs0mg"},{"bike_id":"21d1b9fd-b27a-40e7-a938-0da55781e0d3","system_id":"levelo_inurba_marseille","lat":43.304606,"lon":5.379026,"is_reserved":false,"is_disabled":false,"rental_uris":{"android":"levelo://app?vid=21d1b9fd-b27a-40e7-a938-0da55781e0d3","ios":"levelo://app?vid=21d1b9fd-b27a-40e7-a938-0da55781e0d3"},"vehicle_type_id":"4","last_reported":1720883266,"current_range_meters":23200,"station_id":"ce4bgup2rcd13ifvqcn0","pricing_plan_id":"cebpf4jnsgd1na2vs0mg"},{"bike_id":"d7ecbf34-4acd-48fd-b95f-a8443ab663c4","system_id":"levelo_inurba_marseille","lat":43.304606,"lon":5.379026,"is_reserved":false,"is_disabled":false,"rental_uris":{"android":"levelo://app?vid=d7ecbf34-4acd-48fd-b95f-a8443ab663c4","ios":"levelo://app?vid=d7ecbf34-4acd-48fd-b95f-a8443ab663c4"},"vehicle_type_id":"4","last_reported":1720883266,"current_range_meters":0,"station_id":"ce4bgup2rcd13ifvqcn0","pricing_plan_id":"cebpf4jnsgd1na2vs0mg"},{"bike_id":"445a5680-1b9e-48f1-94de-06deb522d251","system_id":"levelo_inurba_marseille","lat":43.324771,"lon":5.36557,"is_reserved":false,"is_disabled":false,"rental_uris":{"android":"levelo://app?vid=445a5680-1b9e-48f1-94de-06deb522d251","ios":"levelo://app?vid=445a5680-1b9e-48f1-94de-06deb522d251"},"vehicle_type_id":"4","last_reported":1720883266,"current_range_meters":14000,"station_id":"ce4bhs12rcd13ifvqhvg","pricing_plan_id":"cebpf4jnsgd1na2vs0mg"},{"bike_id":"8cef89db-5f5e-49ee-9ae1-a8cf17c4a2ad","system_id":"levelo_inurba_marseille","lat":43.324771,"lon":5.36557,"is_reserved":false,"is_disabled":false,"rental_uris":{"android":"levelo://app?vid=8cef89db-5f5e-49ee-9ae1-a8cf17c4a2ad","ios":"levelo://app?vid=8cef89db-5f5e-49ee-9ae1-a8cf17c4a2ad"},"vehicle_type_id":"4","last_reported":1720883266,"current_range_meters":0,"station_id":"ce4bhs12rcd13ifvqhvg","pricing_plan_id":"cebpf4jnsgd1na2vs0mg"},{"bike_id":"616bbced-b5d2-4bb1-8e61-76647ccd5559","system_id":"levelo_inurba_marseille","lat":43.324771,"lon":5.36557,"is_reserved":false,"is_disabled":false,"rental_uris":{"android":"levelo://app?vid=616bbced-b5d2-4bb1-8e61-76647ccd5559","ios":"levelo://app?vid=616bbced-b5d2-4bb1-8e61-76647ccd5559"},"vehicle_type_id":"4","last_reported":1720883266,"current_range_meters":17200,"station_id":"ce4bhs12rcd13ifvqhvg","pricing_plan_id":"cebpf4jnsgd1na2vs0mg"},{"bike_id":"d43dd5fd-24a2-458f-aeb8-d07b18c4dd02","system_id":"levelo_inurba_marseille","lat":43.32479,"lon":5.36571,"is_reserved":false,"is_disabled":false,"rental_uris":{"android":"levelo://app?vid=d43dd5fd-24a2-458f-aeb8-d07b18c4dd02","ios":"levelo://app?vid=d43dd5fd-24a2-458f-aeb8-d07b18c4dd02"},"vehicle_type_id":"4","last_reported":1720883266,"current_range_meters":16400,"station_id":"","pricing_plan_id":"cebpf4jnsgd1na2vs0mg"},{"bike_id":"7e73aa4c-ea94-4d4e-ba2d-81421c5f4cb3","system_id":"levelo_inurba_marseille","lat":43.32479,"lon":5.36567,"is_reserved":false,"is_disabled":false,"rental_uris":{"android":"levelo://app?vid=7e73aa4c-ea94-4d4e-ba2d-81421c5f4cb3","ios":"levelo://app?vid=7e73aa4c-ea94-4d4e-ba2d-81421c5f4cb3"},"vehicle_type_id":"4","last_reported":1720883266,"current_range_meters":22400,"station_id":"","pricing_plan_id":"cebpf4jnsgd1na2vs0mg"},{"bike_id":"21252025-cf9c-4852-ab78-01d2cbced8b0","system_id":"levelo_inurba_marseille","lat":43.324771,"lon":5.36557,"is_reserved":false,"is_disabled":false,"rental_uris":{"android":"levelo://app?vid=21252025-cf9c-4852-ab78-01d2cbced8b0","ios":"levelo://app?vid=21252025-cf9c-4852-ab78-01d2cbced8b0"},"vehicle_type_id":"4","last_reported":1720883266,"current_range_meters":27200,"station_id":"ce4bhs12rcd13ifvqhvg","pricing_plan_id":"cebpf4jnsgd1na2vs0mg"},{"bike_id":"ea9427d3-3844-4ab0-8397-5150365c96a8","system_id":"levelo_inurba_marseille","lat":43.324826,"lon":5.365802,"is_reserved":false,"is_disabled":false,"rental_uris":{"android":"levelo://app?vid=ea9427d3-3844-4ab0-8397-5150365c96a8","ios":"levelo://app?vid=ea9427d3-3844-4ab0-8397-5150365c96a8"},"vehicle_type_id":"4","last_reported":1720883266,"current_range_meters":20000,"station_id":"ce4bhs12rcd13ifvqhvg","pricing_plan_id":"cebpf4jnsgd1na2vs0mg"},{"bike_id":"81086735-f153-4daa-883e-468fe9f98951","system_id":"levelo_inurba_marseille","lat":43.324771,"lon":5.36557,"is_reserved":false,"is_disabled":false,"rental_uris":{"android":"levelo://app?vid=81086735-f153-4daa-883e-468fe9f98951","ios":"levelo://app?vid=81086735-f153-4daa-883e-468fe9f98951"},"vehicle_type_id":"4","last_reported":1720883266,"current_range_meters":3200,"station_id":"ce4bhs12rcd13ifvqhvg","pricing_plan_id":"cebpf4jnsgd1na2vs0mg"},{"bike_id":"01ec4e6e-72dc-4798-b2f0-ed454319c72d","system_id":"levelo_inurba_marseille","lat":43.32486,"lon":5.36577,"is_reserved":false,"is_disabled":false,"rental_uris":{"android":"levelo://app?vid=01ec4e6e-72dc-4798-b2f0-ed454319c72d","ios":"levelo://app?vid=01ec4e6e-72dc-4798-b2f0-ed454319c72d"},"vehicle_type_id":"4","last_reported":1720883266,"current_range_meters":10400,"station_id":"ce4bhs12rcd13ifvqhvg","pricing_plan_id":"cebpf4jnsgd1na2vs0mg"},{"bike_id":"7d3635db-5e68-4458-830a-cf12c18ca5f6","system_id":"levelo_inurba_marseille","lat":43.302784,"lon":5.377158,"is_reserved":false,"is_disabled":false,"rental_uris":{"android":"levelo://app?vid=7d3635db-5e68-4458-830a-cf12c18ca5f6","ios":"levelo://app?vid=7d3635db-5e68-4458-830a-cf12c18ca5f6"},"vehicle_type_id":"4","last_reported":1720883266,"current_range_meters":0,"station_id":"ce4bguh2rcd13ifvqcj0","pricing_plan_id":"cebpf4jnsgd1na2vs0mg"},{"bike_id":"2ed9ffac-b45a-4371-bc2b-67270dccba13","system_id":"levelo_inurba_marseille","lat":43.30151,"lon":5.374223,"is_reserved":false,"is_disabled":false,"rental_uris":{"android":"levelo://app?vid=2ed9ffac-b45a-4371-bc2b-67270dccba13","ios":"levelo://app?vid=2ed9ffac-b45a-4371-bc2b-67270dccba13"},"vehicle_type_id":"4","last_reported":1720883266,"current_range_meters":0,"station_id":"ce4bgs92rcd13ifvqcc0","pricing_plan_id":"cebpf4jnsgd1na2vs0mg"},{"bike_id":"93e98519-9415-4b68-9b65-1833bcb82b28","system_id":"levelo_inurba_marseille","lat":43.319935,"lon":5.381699,"is_reserved":false,"is_disabled":false,"rental_uris":{"android":"levelo://app?vid=93e98519-9415-4b68-9b65-1833bcb82b28","ios":"levelo://app?vid=93e98519-9415-4b68-9b65-1833bcb82b28"},"vehicle_type_id":"4","last_reported":1720883266,"current_range_meters":30400,"station_id":"ce4bhr12rcd13ifvqhpg","pricing_plan_id":"cebpf4jnsgd1na2vs0mg"},{"bike_id":"8061e277-7b01-4c2a-95a6-3b16e7a7e8b9","system_id":"levelo_inurba_marseille","lat":43.29988,"lon":5.37013,"is_reserved":false,"is_disabled":false,"rental_uris":{"android":"levelo://app?vid=8061e277-7b01-4c2a-95a6-3b16e7a7e8b9","ios":"levelo://app?vid=8061e277-7b01-4c2a-95a6-3b16e7a7e8b9"},"vehicle_type_id":"4","last_reported":1720883266,"current_range_meters":8000,"station_id":"","pricing_plan_id":"cebpf4jnsgd1na2vs0mg"},{"bike_id":"6b45adf0-ebce-4ae5-bac8-5d7d199c19e8","system_id":"levelo_inurba_marseille","lat":43.29995,"lon":5.37165,"is_reserved":false,"is_disabled":false,"rental_uris":{"android":"levelo://app?vid=6b45adf0-ebce-4ae5-bac8-5d7d199c19e8","ios":"levelo://app?vid=6b45adf0-ebce-4ae5-bac8-5d7d199c19e8"},"vehicle_type_id":"4","last_reported":1720883266,"current_range_meters":4400,"station_id":"","pricing_plan_id":"cebpf4jnsgd1na2vs0mg"},{"bike_id":"2b4da476-2e26-40be-9aee-5dbf144bd864","system_id":"levelo_inurba_marseille","lat":43.31193,"lon":5.38711,"is_reserved":false,"is_disabled":false,"rental_uris":{"android":"levelo://app?vid=2b4da476-2e26-40be-9aee-5dbf144bd864","ios":"levelo://app?vid=2b4da476-2e26-40be-9aee-5dbf144bd864"},"vehicle_type_id":"4","last_reported":1720883266,"current_range_meters":11600,"station_id":"ce4bgv12rcd13ifvqcp0","pricing_plan_id":"cebpf4jnsgd1na2vs0mg"},{"bike_id":"574cf46f-f295-4dcf-ac21-2cdeffb4f85d","system_id":"levelo_inurba_marseille","lat":43.299243,"lon":5.374807,"is_reserved":false,"is_disabled":false,"rental_uris":{"android":"levelo://app?vid=574cf46f-f295-4dcf-ac21-2cdeffb4f85d","ios":"levelo://app?vid=574cf46f-f295-4dcf-ac21-2cdeffb4f85d"},"vehicle_type_id":"4","last_reported":1720883266,"current_range_meters":20800,"station_id":"ce4bgjh2rcd13ifvqbg0","pricing_plan_id":"cebpf4jnsgd1na2vs0mg"},{"bike_id":"9bccdd68-2ab6-460b-8f8d-59cb657a2547","system_id":"levelo_inurba_marseille","lat":43.299243,"lon":5.37481,"is_reserved":false,"is_disabled":false,"rental_uris":{"android":"levelo://app?vid=9bccdd68-2ab6-460b-8f8d-59cb657a2547","ios":"levelo://app?vid=9bccdd68-2ab6-460b-8f8d-59cb657a2547"},"vehicle_type_id":"4","last_reported":1720883266,"current_range_meters":3600,"station_id":"ce4bgjh2rcd13ifvqbg0","pricing_plan_id":"cebpf4jnsgd1na2vs0mg"},{"bike_id":"53226564-62be-4a9b-b10b-fa9777d84c54","system_id":"levelo_inurba_marseille","lat":43.32285,"lon":5.3827,"is_reserved":false,"is_disabled":false,"rental_uris":{"android":"levelo://app?vid=53226564-62be-4a9b-b10b-fa9777d84c54","ios":"levelo://app?vid=53226564-62be-4a9b-b10b-fa9777d84c54"},"vehicle_type_id":"4","last_reported":1720883266,"current_range_meters":8400,"station_id":"ce4bhr12rcd13ifvqhqg","pricing_plan_id":"cebpf4jnsgd1na2vs0mg"},{"bike_id":"729c2a8a-b899-4d67-ac44-060e04cca798","system_id":"levelo_inurba_marseille","lat":43.322897,"lon":5.38265,"is_reserved":false,"is_disabled":false,"rental_uris":{"android":"levelo://app?vid=729c2a8a-b899-4d67-ac44-060e04cca798","ios":"levelo://app?vid=729c2a8a-b899-4d67-ac44-060e04cca798"},"vehicle_type_id":"4","last_reported":1720883266,"current_range_meters":10000,"station_id":"ce4bhr12rcd13ifvqhqg","pricing_plan_id":"cebpf4jnsgd1na2vs0mg"},{"bike_id":"621a1240-dcf9-4073-bd49-41934f332358","system_id":"levelo_inurba_marseille","lat":43.32292,"lon":5.38264,"is_reserved":false,"is_disabled":false,"rental_uris":{"android":"levelo://app?vid=621a1240-dcf9-4073-bd49-41934f332358","ios":"levelo://app?vid=621a1240-dcf9-4073-bd49-41934f332358"},"vehicle_type_id":"4","last_reported":1720883266,"current_range_meters":24800,"station_id":"","pricing_plan_id":"cebpf4jnsgd1na2vs0mg"},{"bike_id":"6ee5e055-8a08-4d0e-af75-d17a5a928ec3","system_id":"levelo_inurba_marseille","lat":43.322872,"lon":5.382756,"is_reserved":false,"is_disabled":false,"rental_uris":{"android":"levelo://app?vid=6ee5e055-8a08-4d0e-af75-d17a5a928ec3","ios":"levelo://app?vid=6ee5e055-8a08-4d0e-af75-d17a5a928ec3"},"vehicle_type_id":"4","last_reported":1720883266,"current_range_meters":4000,"station_id":"ce4bhr12rcd13ifvqhqg","pricing_plan_id":"cebpf4jnsgd1na2vs0mg"},{"bike_id":"6b42c756-ed8d-4140-9130-58661ac75218","system_id":"levelo_inurba_marseille","lat":43.322872,"lon":5.382756,"is_reserved":false,"is_disabled":false,"rental_uris":{"android":"levelo://app?vid=6b42c756-ed8d-4140-9130-58661ac75218","ios":"levelo://app?vid=6b42c756-ed8d-4140-9130-58661ac75218"},"vehicle_type_id":"4","last_reported":1720883266,"current_range_meters":30400,"station_id":"ce4bhr12rcd13ifvqhqg","pricing_plan_id":"cebpf4jnsgd1na2vs0mg"},{"bike_id":"b457a77b-de82-40ba-8ba0-61c1cfaeca7c","system_id":"levelo_inurba_marseille","lat":43.32292,"lon":5.38268,"is_reserved":false,"is_disabled":false,"rental_uris":{"android":"levelo://app?vid=b457a77b-de82-40ba-8ba0-61c1cfaeca7c","ios":"levelo://app?vid=b457a77b-de82-40ba-8ba0-61c1cfaeca7c"},"vehicle_type_id":"4","last_reported":1720883266,"current_range_meters":0,"station_id":"ce4bhr12rcd13ifvqhqg","pricing_plan_id":"cebpf4jnsgd1na2vs0mg"},{"bike_id":"596c9539-f138-47c2-addc-1596467bc720","system_id":"levelo_inurba_marseille","lat":43.322872,"lon":5.382756,"is_reserved":false,"is_disabled":false,"rental_uris":{"android":"levelo://app?vid=596c9539-f138-47c2-addc-1596467bc720","ios":"levelo://app?vid=596c9539-f138-47c2-addc-1596467bc720"},"vehicle_type_id":"4","last_reported":1720883266,"current_range_meters":28400,"station_id":"ce4bhr12rcd13ifvqhqg","pricing_plan_id":"cebpf4jnsgd1na2vs0mg"},{"bike_id":"51e8ba81-f0e1-40ab-b620-8e1a5aff3e9f","system_id":"levelo_inurba_marseille","lat":43.322872,"lon":5.382756,"is_reserved":false,"is_disabled":false,"rental_uris":{"android":"levelo://app?vid=51e8ba81-f0e1-40ab-b620-8e1a5aff3e9f","ios":"levelo://app?vid=51e8ba81-f0e1-40ab-b620-8e1a5aff3e9f"},"vehicle_type_id":"4","last_reported":1720883266,"current_range_meters":0,"station_id":"ce4bhr12rcd13ifvqhqg","pricing_plan_id":"cebpf4jnsgd1na2vs0mg"},{"bike_id":"da52afa6-8e40-43f9-8d81-5ee78ac6c36c","system_id":"levelo_inurba_marseille","lat":43.297163,"lon":5.365866,"is_reserved":false,"is_disabled":false,"rental_uris":{"android":"levelo://app?vid=da52afa6-8e40-43f9-8d81-5ee78ac6c36c","ios":"levelo://app?vid=da52afa6-8e40-43f9-8d81-5ee78ac6c36c"},"vehicle_type_id":"4","last_reported":1720883266,"current_range_meters":3600,"station_id":"ce4bgn12rcd13ifvqbt0","pricing_plan_id":"cebpf4jnsgd1na2vs0mg"},{"bike_id":"c9e34788-7e6d-4b23-b152-a64782a40e76","system_id":"levelo_inurba_marseille","lat":43.29722,"lon":5.37128,"is_reserved":false,"is_disabled":false,"rental_uris":{"android":"levelo://app?vid=c9e34788-7e6d-4b23-b152-a64782a40e76","ios":"levelo://app?vid=c9e34788-7e6d-4b23-b152-a64782a40e76"},"vehicle_type_id":"4","last_reported":1720883266,"current_range_meters":0,"station_id":"","pricing_plan_id":"cebpf4jnsgd1na2vs0mg"},{"bike_id":"6831fd8b-07d7-4379-b41d-77222cf85f80","system_id":"levelo_inurba_marseille","lat":43.299028,"lon":5.381509,"is_reserved":false,"is_disabled":false,"rental_uris":{"android":"levelo://app?vid=6831fd8b-07d7-4379-b41d-77222cf85f80","ios":"levelo://app?vid=6831fd8b-07d7-4379-b41d-77222cf85f80"},"vehicle_type_id":"4","last_reported":1720883266,"current_range_meters":0,"station_id":"ce4bgj12rcd13ifvqbc0","pricing_plan_id":"cebpf4jnsgd1na2vs0mg"},{"bike_id":"deaf912c-a507-42a8-81d4-bc5f1d71d436","system_id":"levelo_inurba_marseille","lat":43.296921,"lon":5.376579,"is_reserved":false,"is_disabled":false,"rental_uris":{"android":"levelo://app?vid=deaf912c-a507-42a8-81d4-bc5f1d71d436","ios":"levelo://app?vid=deaf912c-a507-42a8-81d4-bc5f1d71d436"},"vehicle_type_id":"4","last_reported":1720883266,"current_range_meters":7200,"station_id":"ce4bgkh2rcd13ifvqbl0","pricing_plan_id":"cebpf4jnsgd1na2vs0mg"},{"bike_id":"159bcc4d-267c-400f-80d5-99e674aa0d56","system_id":"levelo_inurba_marseille","lat":43.309589,"lon":5.390258,"is_reserved":false,"is_disabled":false,"rental_uris":{"android":"levelo://app?vid=159bcc4d-267c-400f-80d5-99e674aa0d56","ios":"levelo://app?vid=159bcc4d-267c-400f-80d5-99e674aa0d56"},"vehicle_type_id":"4","last_reported":1720883266,"current_range_meters":0,"station_id":"ce4bgup2rcd13ifvqco0","pricing_plan_id":"cebpf4jnsgd1na2vs0mg"},{"bike_id":"d746b51b-c29d-481e-a232-eba4dfd77a3b","system_id":"levelo_inurba_marseille","lat":43.317557,"lon":5.390173,"is_reserved":false,"is_disabled":false,"rental_uris":{"android":"levelo://app?vid=d746b51b-c29d-481e-a232-eba4dfd77a3b","ios":"levelo://app?vid=d746b51b-c29d-481e-a232-eba4dfd77a3b"},"vehicle_type_id":"4","last_reported":1720883266,"current_range_meters":14800,"station_id":"ce4bhqp2rcd13ifvqhng","pricing_plan_id":"cebpf4jnsgd1na2vs0mg"},{"bike_id":"d36c1265-8f76-4bdd-bb7b-5329f4d3541a","system_id":"levelo_inurba_marseille","lat":43.298037,"lon":5.381066,"is_reserved":false,"is_disabled":false,"rental_uris":{"android":"levelo://app?vid=d36c1265-8f76-4bdd-bb7b-5329f4d3541a","ios":"levelo://app?vid=d36c1265-8f76-4bdd-bb7b-5329f4d3541a"},"vehicle_type_id":"4","last_reported":1720883266,"current_range_meters":0,"station_id":"ce4bgip2rcd13ifvqbb0","pricing_plan_id":"cebpf4jnsgd1na2vs0mg"},{"bike_id":"de47c585-145f-4197-af24-03b308aa71d3","system_id":"levelo_inurba_marseille","lat":43.295748,"lon":5.37522,"is_reserved":false,"is_disabled":false,"rental_uris":{"android":"levelo://app?vid=de47c585-145f-4197-af24-03b308aa71d3","ios":"levelo://app?vid=de47c585-145f-4197-af24-03b308aa71d3"},"vehicle_type_id":"4","last_reported":1720883266,"current_range_meters":0,"station_id":"ce4bgh92rcd13ifvqb50","pricing_plan_id":"cebpf4jnsgd1na2vs0mg"},{"bike_id":"ba58602d-21b4-4c8b-b7df-b4bf2c326140","system_id":"levelo_inurba_marseille","lat":43.2958,"lon":5.37543,"is_reserved":false,"is_disabled":false,"rental_uris":{"android":"levelo://app?vid=ba58602d-21b4-4c8b-b7df-b4bf2c326140","ios":"levelo://app?vid=ba58602d-21b4-4c8b-b7df-b4bf2c326140"},"vehicle_type_id":"4","last_reported":1720883266,"current_range_meters":12000,"station_id":"","pricing_plan_id":"cebpf4jnsgd1na2vs0mg"},{"bike_id":"c6ddba79-5877-4f95-ac0a-dc6f01b10a22","system_id":"levelo_inurba_marseille","lat":43.2961,"lon":5.37711,"is_reserved":false,"is_disabled":false,"rental_uris":{"android":"levelo://app?vid=c6ddba79-5877-4f95-ac0a-dc6f01b10a22","ios":"levelo://app?vid=c6ddba79-5877-4f95-ac0a-dc6f01b10a22"},"vehicle_type_id":"4","last_reported":1720883266,"current_range_meters":0,"station_id":"ce4bgi92rcd13ifvqb90","pricing_plan_id":"cebpf4jnsgd1na2vs0mg"},{"bike_id":"8f25c43a-4185-4611-89c0-eb06b2f03ad9","system_id":"levelo_inurba_marseille","lat":43.295279,"lon":5.375048,"is_reserved":false,"is_disabled":false,"rental_uris":{"android":"levelo://app?vid=8f25c43a-4185-4611-89c0-eb06b2f03ad9","ios":"levelo://app?vid=8f25c43a-4185-4611-89c0-eb06b2f03ad9"},"vehicle_type_id":"4","last_reported":1720883266,"current_range_meters":22000,"station_id":"ce4bgkp2rcd13ifvqbmg","pricing_plan_id":"cebpf4jnsgd1na2vs0mg"},{"bike_id":"8662caac-2cee-4735-8fba-e47223e4fef1","system_id":"levelo_inurba_marseille","lat":43.29973,"lon":5.384915,"is_reserved":false,"is_disabled":false,"rental_uris":{"android":"levelo://app?vid=8662caac-2cee-4735-8fba-e47223e4fef1","ios":"levelo://app?vid=8662caac-2cee-4735-8fba-e47223e4fef1"},"vehicle_type_id":"4","last_reported":1720883266,"current_range_meters":0,"station_id":"ce4bgj92rcd13ifvqbd0","pricing_plan_id":"cebpf4jnsgd1na2vs0mg"},{"bike_id":"a51d0944-c33d-47c8-868f-1a7253e73770","system_id":"levelo_inurba_marseille","lat":43.29553,"lon":5.37723,"is_reserved":false,"is_disabled":false,"rental_uris":{"android":"levelo://app?vid=a51d0944-c33d-47c8-868f-1a7253e73770","ios":"levelo://app?vid=a51d0944-c33d-47c8-868f-1a7253e73770"},"vehicle_type_id":"4","last_reported":1720883266,"current_range_meters":19200,"station_id":"","pricing_plan_id":"cebpf4jnsgd1na2vs0mg"},{"bike_id":"0d63a511-f804-4f68-99f6-cde0cd2a1431","system_id":"levelo_inurba_marseille","lat":43.301396,"lon":5.387812,"is_reserved":false,"is_disabled":false,"rental_uris":{"android":"levelo://app?vid=0d63a511-f804-4f68-99f6-cde0cd2a1431","ios":"levelo://app?vid=0d63a511-f804-4f68-99f6-cde0cd2a1431"},"vehicle_type_id":"4","last_reported":1720883266,"current_range_meters":0,"station_id":"ce4bghh2rcd13ifvqb60","pricing_plan_id":"cebpf4jnsgd1na2vs0mg"},{"bike_id":"a51eeeab-5c58-4284-bfae-dcce62da4188","system_id":"levelo_inurba_marseille","lat":43.32367,"lon":5.388836,"is_reserved":false,"is_disabled":false,"rental_uris":{"android":"levelo://app?vid=a51eeeab-5c58-4284-bfae-dcce62da4188","ios":"levelo://app?vid=a51eeeab-5c58-4284-bfae-dcce62da4188"},"vehicle_type_id":"4","last_reported":1720883266,"current_range_meters":15200,"station_id":"ce4bhqp2rcd13ifvqhog","pricing_plan_id":"cebpf4jnsgd1na2vs0mg"},{"bike_id":"6a71a23c-6448-463a-b8f4-0e4083b8ea3d","system_id":"levelo_inurba_marseille","lat":43.29405,"lon":5.37341,"is_reserved":false,"is_disabled":false,"rental_uris":{"android":"levelo://app?vid=6a71a23c-6448-463a-b8f4-0e4083b8ea3d","ios":"levelo://app?vid=6a71a23c-6448-463a-b8f4-0e4083b8ea3d"},"vehicle_type_id":"4","last_reported":1720883266,"current_range_meters":11200,"station_id":"","pricing_plan_id":"cebpf4jnsgd1na2vs0mg"},{"bike_id":"2f9a3bf0-b75a-453c-809a-690408dc600b","system_id":"levelo_inurba_marseille","lat":43.32367,"lon":5.388836,"is_reserved":false,"is_disabled":false,"rental_uris":{"android":"levelo://app?vid=2f9a3bf0-b75a-453c-809a-690408dc600b","ios":"levelo://app?vid=2f9a3bf0-b75a-453c-809a-690408dc600b"},"vehicle_type_id":"4","last_reported":1720883266,"current_range_meters":16800,"station_id":"ce4bhqp2rcd13ifvqhog","pricing_plan_id":"cebpf4jnsgd1na2vs0mg"},{"bike_id":"0522dc69-0513-45f9-a4bb-6b18ae6b1f11","system_id":"levelo_inurba_marseille","lat":43.32367,"lon":5.38885,"is_reserved":false,"is_disabled":false,"rental_uris":{"android":"levelo://app?vid=0522dc69-0513-45f9-a4bb-6b18ae6b1f11","ios":"levelo://app?vid=0522dc69-0513-45f9-a4bb-6b18ae6b1f11"},"vehicle_type_id":"4","last_reported":1720883266,"current_range_meters":11600,"station_id":"ce4bhqp2rcd13ifvqhog","pricing_plan_id":"cebpf4jnsgd1na2vs0mg"},{"bike_id":"200af5dc-ae71-4fa0-b492-46f6357fca80","system_id":"levelo_inurba_marseille","lat":43.29313,"lon":5.37189,"is_reserved":false,"is_disabled":false,"rental_uris":{"android":"levelo://app?vid=200af5dc-ae71-4fa0-b492-46f6357fca80","ios":"levelo://app?vid=200af5dc-ae71-4fa0-b492-46f6357fca80"},"vehicle_type_id":"4","last_reported":1720883266,"current_range_meters":1600,"station_id":"ce4bgh92rcd13ifvqb40","pricing_plan_id":"cebpf4jnsgd1na2vs0mg"},{"bike_id":"59a965f2-5eec-4fd5-b328-965943c310a3","system_id":"levelo_inurba_marseille","lat":43.293009,"lon":5.374584,"is_reserved":false,"is_disabled":false,"rental_uris":{"android":"levelo://app?vid=59a965f2-5eec-4fd5-b328-965943c310a3","ios":"levelo://app?vid=59a965f2-5eec-4fd5-b328-965943c310a3"},"vehicle_type_id":"4","last_reported":1720883266,"current_range_meters":1600,"station_id":"ce4bgi12rcd13ifvqb70","pricing_plan_id":"cebpf4jnsgd1na2vs0mg"},{"bike_id":"e919cc87-2da9-4332-bf99-228ea68720a1","system_id":"levelo_inurba_marseille","lat":43.293009,"lon":5.374584,"is_reserved":false,"is_disabled":false,"rental_uris":{"android":"levelo://app?vid=e919cc87-2da9-4332-bf99-228ea68720a1","ios":"levelo://app?vid=e919cc87-2da9-4332-bf99-228ea68720a1"},"vehicle_type_id":"4","last_reported":1720883266,"current_range_meters":0,"station_id":"ce4bgi12rcd13ifvqb70","pricing_plan_id":"cebpf4jnsgd1na2vs0mg"},{"bike_id":"888a0e56-03d6-46dc-845f-f0cdd23ca421","system_id":"levelo_inurba_marseille","lat":43.303002,"lon":5.392142,"is_reserved":false,"is_disabled":false,"rental_uris":{"android":"levelo://app?vid=888a0e56-03d6-46dc-845f-f0cdd23ca421","ios":"levelo://app?vid=888a0e56-03d6-46dc-845f-f0cdd23ca421"},"vehicle_type_id":"4","last_reported":1720883266,"current_range_meters":3600,"station_id":"ce4bgkh2rcd13ifvqbk0","pricing_plan_id":"cebpf4jnsgd1na2vs0mg"},{"bike_id":"909def4b-47b9-4638-a6c5-da986344b9fa","system_id":"levelo_inurba_marseille","lat":43.302992,"lon":5.392136,"is_reserved":false,"is_disabled":false,"rental_uris":{"android":"levelo://app?vid=909def4b-47b9-4638-a6c5-da986344b9fa","ios":"levelo://app?vid=909def4b-47b9-4638-a6c5-da986344b9fa"},"vehicle_type_id":"4","last_reported":1720883266,"current_range_meters":0,"station_id":"ce4bgkh2rcd13ifvqbk0","pricing_plan_id":"cebpf4jnsgd1na2vs0mg"},{"bike_id":"3190426c-5199-4a82-922a-fbe75251adf1","system_id":"levelo_inurba_marseille","lat":43.29227,"lon":5.36227,"is_reserved":false,"is_disabled":false,"rental_uris":{"android":"levelo://app?vid=3190426c-5199-4a82-922a-fbe75251adf1","ios":"levelo://app?vid=3190426c-5199-4a82-922a-fbe75251adf1"},"vehicle_type_id":"4","last_reported":1720883266,"current_range_meters":11600,"station_id":"","pricing_plan_id":"cebpf4jnsgd1na2vs0mg"},{"bike_id":"048dfc02-77d1-46e0-98ee-73e586dc5731","system_id":"levelo_inurba_marseille","lat":43.2936,"lon":5.37835,"is_reserved":false,"is_disabled":false,"rental_uris":{"android":"levelo://app?vid=048dfc02-77d1-46e0-98ee-73e586dc5731","ios":"levelo://app?vid=048dfc02-77d1-46e0-98ee-73e586dc5731"},"vehicle_type_id":"4","last_reported":1720883266,"current_range_meters":31200,"station_id":"ce4bgjh2rcd13ifvqbf0","pricing_plan_id":"cebpf4jnsgd1na2vs0mg"},{"bike_id":"d7fba4d7-680d-4e4c-9c38-08e79228e28d","system_id":"levelo_inurba_marseille","lat":43.302992,"lon":5.392136,"is_reserved":false,"is_disabled":false,"rental_uris":{"android":"levelo://app?vid=d7fba4d7-680d-4e4c-9c38-08e79228e28d","ios":"levelo://app?vid=d7fba4d7-680d-4e4c-9c38-08e79228e28d"},"vehicle_type_id":"4","last_reported":1720883266,"current_range_meters":25600,"station_id":"ce4bgkh2rcd13ifvqbk0","pricing_plan_id":"cebpf4jnsgd1na2vs0mg"},{"bike_id":"c697188a-88d6-4c1a-b03b-03a5b8eb949b","system_id":"levelo_inurba_marseille","lat":43.2936,"lon":5.37835,"is_reserved":false,"is_disabled":false,"rental_uris":{"android":"levelo://app?vid=c697188a-88d6-4c1a-b03b-03a5b8eb949b","ios":"levelo://app?vid=c697188a-88d6-4c1a-b03b-03a5b8eb949b"},"vehicle_type_id":"4","last_reported":1720883266,"current_range_meters":11200,"station_id":"ce4bgjh2rcd13ifvqbf0","pricing_plan_id":"cebpf4jnsgd1na2vs0mg"},{"bike_id":"da184975-a147-4958-9135-d8c174bfeeb9","system_id":"levelo_inurba_marseille","lat":43.2936,"lon":5.37835,"is_reserved":false,"is_disabled":false,"rental_uris":{"android":"levelo://app?vid=da184975-a147-4958-9135-d8c174bfeeb9","ios":"levelo://app?vid=da184975-a147-4958-9135-d8c174bfeeb9"},"vehicle_type_id":"4","last_reported":1720883266,"current_range_meters":2400,"station_id":"ce4bgjh2rcd13ifvqbf0","pricing_plan_id":"cebpf4jnsgd1na2vs0mg"},{"bike_id":"8bf23c7a-0aeb-4e78-8bc4-70722b6b36ae","system_id":"levelo_inurba_marseille","lat":43.292311,"lon":5.360731,"is_reserved":false,"is_disabled":false,"rental_uris":{"android":"levelo://app?vid=8bf23c7a-0aeb-4e78-8bc4-70722b6b36ae","ios":"levelo://app?vid=8bf23c7a-0aeb-4e78-8bc4-70722b6b36ae"},"vehicle_type_id":"4","last_reported":1720883266,"current_range_meters":11200,"station_id":"ce4bhbh2rcd13ifvqeqg","pricing_plan_id":"cebpf4jnsgd1na2vs0mg"},{"bike_id":"d8b2bd44-553a-45f8-990c-86cfdd040758","system_id":"levelo_inurba_marseille","lat":43.2923,"lon":5.3607,"is_reserved":false,"is_disabled":false,"rental_uris":{"android":"levelo://app?vid=d8b2bd44-553a-45f8-990c-86cfdd040758","ios":"levelo://app?vid=d8b2bd44-553a-45f8-990c-86cfdd040758"},"vehicle_type_id":"4","last_reported":1720883266,"current_range_meters":0,"station_id":"ce4bhbh2rcd13ifvqeqg","pricing_plan_id":"cebpf4jnsgd1na2vs0mg"},{"bike_id":"d44443ac-f352-4d19-b029-3c2e6fe2f7ea","system_id":"levelo_inurba_marseille","lat":43.29174,"lon":5.37138,"is_reserved":false,"is_disabled":false,"rental_uris":{"android":"levelo://app?vid=d44443ac-f352-4d19-b029-3c2e6fe2f7ea","ios":"levelo://app?vid=d44443ac-f352-4d19-b029-3c2e6fe2f7ea"},"vehicle_type_id":"4","last_reported":1720883266,"current_range_meters":0,"station_id":"ce4bha92rcd13ifvqeh0","pricing_plan_id":"cebpf4jnsgd1na2vs0mg"},{"bike_id":"40154a62-7d39-4187-8928-ac86a077776b","system_id":"levelo_inurba_marseille","lat":43.29166,"lon":5.37151,"is_reserved":false,"is_disabled":false,"rental_uris":{"android":"levelo://app?vid=40154a62-7d39-4187-8928-ac86a077776b","ios":"levelo://app?vid=40154a62-7d39-4187-8928-ac86a077776b"},"vehicle_type_id":"4","last_reported":1720883266,"current_range_meters":0,"station_id":"ce4bha92rcd13ifvqeh0","pricing_plan_id":"cebpf4jnsgd1na2vs0mg"},{"bike_id":"2243e553-c9ee-4b9f-8d39-60e4f4f171cc","system_id":"levelo_inurba_marseille","lat":43.291994,"lon":5.357886,"is_reserved":false,"is_disabled":false,"rental_uris":{"android":"levelo://app?vid=2243e553-c9ee-4b9f-8d39-60e4f4f171cc","ios":"levelo://app?vid=2243e553-c9ee-4b9f-8d39-60e4f4f171cc"},"vehicle_type_id":"4","last_reported":1720883266,"current_range_meters":16800,"station_id":"ce4bhb12rcd13ifvqel0","pricing_plan_id":"cebpf4jnsgd1na2vs0mg"},{"bike_id":"635cf0d0-2fea-4136-be95-99b8201804e3","system_id":"levelo_inurba_marseille","lat":43.292005,"lon":5.357875,"is_reserved":false,"is_disabled":false,"rental_uris":{"android":"levelo://app?vid=635cf0d0-2fea-4136-be95-99b8201804e3","ios":"levelo://app?vid=635cf0d0-2fea-4136-be95-99b8201804e3"},"vehicle_type_id":"4","last_reported":1720883266,"current_range_meters":26000,"station_id":"ce4bhb12rcd13ifvqel0","pricing_plan_id":"cebpf4jnsgd1na2vs0mg"},{"bike_id":"efe6ee7c-0fcc-4654-9e11-e360dc825789","system_id":"levelo_inurba_marseille","lat":43.309047,"lon":5.396551,"is_reserved":false,"is_disabled":false,"rental_uris":{"android":"levelo://app?vid=efe6ee7c-0fcc-4654-9e11-e360dc825789","ios":"levelo://app?vid=efe6ee7c-0fcc-4654-9e11-e360dc825789"},"vehicle_type_id":"4","last_reported":1720883266,"current_range_meters":22400,"station_id":"ce4bh012rcd13ifvqcv0","pricing_plan_id":"cebpf4jnsgd1na2vs0mg"},{"bike_id":"5de9c717-635c-43a1-aad5-1a646ca03807","system_id":"levelo_inurba_marseille","lat":43.29195,"lon":5.35794,"is_reserved":false,"is_disabled":false,"rental_uris":{"android":"levelo://app?vid=5de9c717-635c-43a1-aad5-1a646ca03807","ios":"levelo://app?vid=5de9c717-635c-43a1-aad5-1a646ca03807"},"vehicle_type_id":"4","last_reported":1720883266,"current_range_meters":31200,"station_id":"ce4bhb12rcd13ifvqel0","pricing_plan_id":"cebpf4jnsgd1na2vs0mg"},{"bike_id":"14239504-9559-48b8-9c87-e0029f4db36c","system_id":"levelo_inurba_marseille","lat":43.29529,"lon":5.385581,"is_reserved":false,"is_disabled":false,"rental_uris":{"android":"levelo://app?vid=14239504-9559-48b8-9c87-e0029f4db36c","ios":"levelo://app?vid=14239504-9559-48b8-9c87-e0029f4db36c"},"vehicle_type_id":"4","last_reported":1720883266,"current_range_meters":19200,"station_id":"ce4bgih2rcd13ifvqba0","pricing_plan_id":"cebpf4jnsgd1na2vs0mg"},{"bike_id":"c62d0c78-0f19-4b46-829f-b8eaa95a4757","system_id":"levelo_inurba_marseille","lat":43.289184,"lon":5.366408,"is_reserved":false,"is_disabled":false,"rental_uris":{"android":"levelo://app?vid=c62d0c78-0f19-4b46-829f-b8eaa95a4757","ios":"levelo://app?vid=c62d0c78-0f19-4b46-829f-b8eaa95a4757"},"vehicle_type_id":"4","last_reported":1720883266,"current_range_meters":11200,"station_id":"ce4bhap2rcd13ifvqek0","pricing_plan_id":"cebpf4jnsgd1na2vs0mg"},{"bike_id":"9fd65aab-311d-47d3-9c09-7b4afe5b63fd","system_id":"levelo_inurba_marseille","lat":43.289184,"lon":5.366408,"is_reserved":false,"is_disabled":false,"rental_uris":{"android":"levelo://app?vid=9fd65aab-311d-47d3-9c09-7b4afe5b63fd","ios":"levelo://app?vid=9fd65aab-311d-47d3-9c09-7b4afe5b63fd"},"vehicle_type_id":"4","last_reported":1720883266,"current_range_meters":12400,"station_id":"ce4bhap2rcd13ifvqek0","pricing_plan_id":"cebpf4jnsgd1na2vs0mg"},{"bike_id":"22fd5827-769b-4738-af53-9191230f8b25","system_id":"levelo_inurba_marseille","lat":43.28941,"lon":5.36639,"is_reserved":false,"is_disabled":false,"rental_uris":{"android":"levelo://app?vid=22fd5827-769b-4738-af53-9191230f8b25","ios":"levelo://app?vid=22fd5827-769b-4738-af53-9191230f8b25"},"vehicle_type_id":"4","last_reported":1720883266,"current_range_meters":0,"station_id":"ce4bhap2rcd13ifvqek0","pricing_plan_id":"cebpf4jnsgd1na2vs0mg"},{"bike_id":"388ece73-d1f9-42b9-89fa-28c41dd2b830","system_id":"levelo_inurba_marseille","lat":43.289184,"lon":5.366408,"is_reserved":false,"is_disabled":false,"rental_uris":{"android":"levelo://app?vid=388ece73-d1f9-42b9-89fa-28c41dd2b830","ios":"levelo://app?vid=388ece73-d1f9-42b9-89fa-28c41dd2b830"},"vehicle_type_id":"4","last_reported":1720883266,"current_range_meters":0,"station_id":"ce4bhap2rcd13ifvqek0","pricing_plan_id":"cebpf4jnsgd1na2vs0mg"},{"bike_id":"890f0c75-c6ef-48ac-998d-222f137293aa","system_id":"levelo_inurba_marseille","lat":43.292644,"lon":5.384257,"is_reserved":false,"is_disabled":false,"rental_uris":{"android":"levelo://app?vid=890f0c75-c6ef-48ac-998d-222f137293aa","ios":"levelo://app?vid=890f0c75-c6ef-48ac-998d-222f137293aa"},"vehicle_type_id":"4","last_reported":1720883266,"current_range_meters":0,"station_id":"ce4bh692rcd13ifvqea0","pricing_plan_id":"cebpf4jnsgd1na2vs0mg"},{"bike_id":"168dbe33-9c3f-4142-9a69-54b255baff58","system_id":"levelo_inurba_marseille","lat":43.29267,"lon":5.38439,"is_reserved":false,"is_disabled":false,"rental_uris":{"android":"levelo://app?vid=168dbe33-9c3f-4142-9a69-54b255baff58","ios":"levelo://app?vid=168dbe33-9c3f-4142-9a69-54b255baff58"},"vehicle_type_id":"4","last_reported":1720883266,"current_range_meters":0,"station_id":"ce4bh692rcd13ifvqea0","pricing_plan_id":"cebpf4jnsgd1na2vs0mg"},{"bike_id":"27d7d89f-fd31-4785-9aa6-995c62c89854","system_id":"levelo_inurba_marseille","lat":43.29265,"lon":5.38447,"is_reserved":false,"is_disabled":false,"rental_uris":{"android":"levelo://app?vid=27d7d89f-fd31-4785-9aa6-995c62c89854","ios":"levelo://app?vid=27d7d89f-fd31-4785-9aa6-995c62c89854"},"vehicle_type_id":"4","last_reported":1720883266,"current_range_meters":0,"station_id":"ce4bh692rcd13ifvqea0","pricing_plan_id":"cebpf4jnsgd1na2vs0mg"},{"bike_id":"23a27d64-f09f-4cd8-9fea-e0307c4e1c26","system_id":"levelo_inurba_marseille","lat":43.290104,"lon":5.356111,"is_reserved":false,"is_disabled":false,"rental_uris":{"android":"levelo://app?vid=23a27d64-f09f-4cd8-9fea-e0307c4e1c26","ios":"levelo://app?vid=23a27d64-f09f-4cd8-9fea-e0307c4e1c26"},"vehicle_type_id":"4","last_reported":1720883266,"current_range_meters":0,"station_id":"ce4bhb92rcd13ifvqen0","pricing_plan_id":"cebpf4jnsgd1na2vs0mg"},{"bike_id":"c92908d6-097c-414f-becd-eb591d3a90cd","system_id":"levelo_inurba_marseille","lat":43.330442,"lon":5.389148,"is_reserved":false,"is_disabled":false,"rental_uris":{"android":"levelo://app?vid=c92908d6-097c-414f-becd-eb591d3a90cd","ios":"levelo://app?vid=c92908d6-097c-414f-becd-eb591d3a90cd"},"vehicle_type_id":"4","last_reported":1720883266,"current_range_meters":800,"station_id":"ce4bhr92rcd13ifvqhrg","pricing_plan_id":"cebpf4jnsgd1na2vs0mg"},{"bike_id":"268bd1e9-26bb-4c6b-aaa9-b7c073d73373","system_id":"levelo_inurba_marseille","lat":43.330442,"lon":5.389148,"is_reserved":false,"is_disabled":false,"rental_uris":{"android":"levelo://app?vid=268bd1e9-26bb-4c6b-aaa9-b7c073d73373","ios":"levelo://app?vid=268bd1e9-26bb-4c6b-aaa9-b7c073d73373"},"vehicle_type_id":"4","last_reported":1720883266,"current_range_meters":3200,"station_id":"ce4bhr92rcd13ifvqhrg","pricing_plan_id":"cebpf4jnsgd1na2vs0mg"},{"bike_id":"542940b3-ae80-4fed-ada3-8ed41eb63afe","system_id":"levelo_inurba_marseille","lat":43.289482,"lon":5.354798,"is_reserved":false,"is_disabled":false,"rental_uris":{"android":"levelo://app?vid=542940b3-ae80-4fed-ada3-8ed41eb63afe","ios":"levelo://app?vid=542940b3-ae80-4fed-ada3-8ed41eb63afe"},"vehicle_type_id":"4","last_reported":1720883266,"current_range_meters":14000,"station_id":"","pricing_plan_id":"cebpf4jnsgd1na2vs0mg"},{"bike_id":"6e136d8c-2cb8-40e0-b925-fa6bc58ec452","system_id":"levelo_inurba_marseille","lat":43.336667,"lon":5.355787,"is_reserved":false,"is_disabled":false,"rental_uris":{"android":"levelo://app?vid=6e136d8c-2cb8-40e0-b925-fa6bc58ec452","ios":"levelo://app?vid=6e136d8c-2cb8-40e0-b925-fa6bc58ec452"},"vehicle_type_id":"4","last_reported":1720883266,"current_range_meters":11200,"station_id":"","pricing_plan_id":"cebpf4jnsgd1na2vs0mg"},{"bike_id":"219d0d76-9416-4543-8766-4dd8adcfbf6b","system_id":"levelo_inurba_marseille","lat":43.33745,"lon":5.37459,"is_reserved":false,"is_disabled":false,"rental_uris":{"android":"levelo://app?vid=219d0d76-9416-4543-8766-4dd8adcfbf6b","ios":"levelo://app?vid=219d0d76-9416-4543-8766-4dd8adcfbf6b"},"vehicle_type_id":"4","last_reported":1720883266,"current_range_meters":26400,"station_id":"","pricing_plan_id":"cebpf4jnsgd1na2vs0mg"},{"bike_id":"cfc62c60-1388-4c6b-b874-5ac9793ccb03","system_id":"levelo_inurba_marseille","lat":43.312609,"lon":5.401662,"is_reserved":false,"is_disabled":false,"rental_uris":{"android":"levelo://app?vid=cfc62c60-1388-4c6b-b874-5ac9793ccb03","ios":"levelo://app?vid=cfc62c60-1388-4c6b-b874-5ac9793ccb03"},"vehicle_type_id":"4","last_reported":1720883266,"current_range_meters":28800,"station_id":"ce4bh092rcd13ifvqd30","pricing_plan_id":"cebpf4jnsgd1na2vs0mg"},{"bike_id":"a5f43cba-1079-45e2-a669-af4cc2a9eab7","system_id":"levelo_inurba_marseille","lat":43.309371,"lon":5.401449,"is_reserved":false,"is_disabled":false,"rental_uris":{"android":"levelo://app?vid=a5f43cba-1079-45e2-a669-af4cc2a9eab7","ios":"levelo://app?vid=a5f43cba-1079-45e2-a669-af4cc2a9eab7"},"vehicle_type_id":"4","last_reported":1720883266,"current_range_meters":6000,"station_id":"ce4bgvp2rcd13ifvqct0","pricing_plan_id":"cebpf4jnsgd1na2vs0mg"},{"bike_id":"4b58ce93-e373-4d60-a3ab-618b5cfc700a","system_id":"levelo_inurba_marseille","lat":43.301117,"lon":5.398795,"is_reserved":false,"is_disabled":false,"rental_uris":{"android":"levelo://app?vid=4b58ce93-e373-4d60-a3ab-618b5cfc700a","ios":"levelo://app?vid=4b58ce93-e373-4d60-a3ab-618b5cfc700a"},"vehicle_type_id":"4","last_reported":1720883266,"current_range_meters":15200,"station_id":"ce4bh0h2rcd13ifvqd40","pricing_plan_id":"cebpf4jnsgd1na2vs0mg"},{"bike_id":"7db14a83-5996-4107-aac5-8660c0fb36ae","system_id":"levelo_inurba_marseille","lat":43.337584,"lon":5.374721,"is_reserved":false,"is_disabled":false,"rental_uris":{"android":"levelo://app?vid=7db14a83-5996-4107-aac5-8660c0fb36ae","ios":"levelo://app?vid=7db14a83-5996-4107-aac5-8660c0fb36ae"},"vehicle_type_id":"4","last_reported":1720883266,"current_range_meters":21600,"station_id":"","pricing_plan_id":"cebpf4jnsgd1na2vs0mg"},{"bike_id":"3dd2591e-6535-4bf1-b1e9-4fab31d358e2","system_id":"levelo_inurba_marseille","lat":43.33772,"lon":5.37415,"is_reserved":false,"is_disabled":false,"rental_uris":{"android":"levelo://app?vid=3dd2591e-6535-4bf1-b1e9-4fab31d358e2","ios":"levelo://app?vid=3dd2591e-6535-4bf1-b1e9-4fab31d358e2"},"vehicle_type_id":"4","last_reported":1720883266,"current_range_meters":22400,"station_id":"","pricing_plan_id":"cebpf4jnsgd1na2vs0mg"},{"bike_id":"0496dc13-34e3-45c2-af9a-f6e2516b223a","system_id":"levelo_inurba_marseille","lat":43.33765,"lon":5.3747,"is_reserved":false,"is_disabled":false,"rental_uris":{"android":"levelo://app?vid=0496dc13-34e3-45c2-af9a-f6e2516b223a","ios":"levelo://app?vid=0496dc13-34e3-45c2-af9a-f6e2516b223a"},"vehicle_type_id":"4","last_reported":1720883266,"current_range_meters":20000,"station_id":"","pricing_plan_id":"cebpf4jnsgd1na2vs0mg"},{"bike_id":"cf958edf-a973-4ef8-838e-9cc8f1679483","system_id":"levelo_inurba_marseille","lat":43.33765,"lon":5.37478,"is_reserved":false,"is_disabled":false,"rental_uris":{"android":"levelo://app?vid=cf958edf-a973-4ef8-838e-9cc8f1679483","ios":"levelo://app?vid=cf958edf-a973-4ef8-838e-9cc8f1679483"},"vehicle_type_id":"4","last_reported":1720883266,"current_range_meters":19600,"station_id":"","pricing_plan_id":"cebpf4jnsgd1na2vs0mg"},{"bike_id":"215d24e0-7b63-49a8-aed8-8b8c5a53b355","system_id":"levelo_inurba_marseille","lat":43.33767,"lon":5.37467,"is_reserved":false,"is_disabled":false,"rental_uris":{"android":"levelo://app?vid=215d24e0-7b63-49a8-aed8-8b8c5a53b355","ios":"levelo://app?vid=215d24e0-7b63-49a8-aed8-8b8c5a53b355"},"vehicle_type_id":"4","last_reported":1720883266,"current_range_meters":15200,"station_id":"","pricing_plan_id":"cebpf4jnsgd1na2vs0mg"},{"bike_id":"0d58fd1b-f1d1-4fc6-a4e4-51a623e9a871","system_id":"levelo_inurba_marseille","lat":43.33766,"lon":5.37474,"is_reserved":false,"is_disabled":false,"rental_uris":{"android":"levelo://app?vid=0d58fd1b-f1d1-4fc6-a4e4-51a623e9a871","ios":"levelo://app?vid=0d58fd1b-f1d1-4fc6-a4e4-51a623e9a871"},"vehicle_type_id":"4","last_reported":1720883266,"current_range_meters":30800,"station_id":"","pricing_plan_id":"cebpf4jnsgd1na2vs0mg"},{"bike_id":"a005e922-b721-4196-b009-e1125dd6e3b2","system_id":"levelo_inurba_marseille","lat":43.33766,"lon":5.37476,"is_reserved":false,"is_disabled":false,"rental_uris":{"android":"levelo://app?vid=a005e922-b721-4196-b009-e1125dd6e3b2","ios":"levelo://app?vid=a005e922-b721-4196-b009-e1125dd6e3b2"},"vehicle_type_id":"4","last_reported":1720883266,"current_range_meters":30800,"station_id":"","pricing_plan_id":"cebpf4jnsgd1na2vs0mg"},{"bike_id":"39abbf07-2729-49b9-a62e-e135ca141c9b","system_id":"levelo_inurba_marseille","lat":43.33767,"lon":5.37473,"is_reserved":false,"is_disabled":false,"rental_uris":{"android":"levelo://app?vid=39abbf07-2729-49b9-a62e-e135ca141c9b","ios":"levelo://app?vid=39abbf07-2729-49b9-a62e-e135ca141c9b"},"vehicle_type_id":"4","last_reported":1720883266,"current_range_meters":30000,"station_id":"","pricing_plan_id":"cebpf4jnsgd1na2vs0mg"},{"bike_id":"b490573b-32d3-4854-ab3f-e801cde5a636","system_id":"levelo_inurba_marseille","lat":43.33767,"lon":5.37476,"is_reserved":false,"is_disabled":false,"rental_uris":{"android":"levelo://app?vid=b490573b-32d3-4854-ab3f-e801cde5a636","ios":"levelo://app?vid=b490573b-32d3-4854-ab3f-e801cde5a636"},"vehicle_type_id":"4","last_reported":1720883266,"current_range_meters":18800,"station_id":"","pricing_plan_id":"cebpf4jnsgd1na2vs0mg"},{"bike_id":"80ff1c69-9419-4f4b-9d57-bf214620b8b3","system_id":"levelo_inurba_marseille","lat":43.33768,"lon":5.3747,"is_reserved":false,"is_disabled":false,"rental_uris":{"android":"levelo://app?vid=80ff1c69-9419-4f4b-9d57-bf214620b8b3","ios":"levelo://app?vid=80ff1c69-9419-4f4b-9d57-bf214620b8b3"},"vehicle_type_id":"4","last_reported":1720883266,"current_range_meters":4800,"station_id":"","pricing_plan_id":"cebpf4jnsgd1na2vs0mg"},{"bike_id":"cd48b539-8a8f-4ccd-a8aa-e74e2abaf1f5","system_id":"levelo_inurba_marseille","lat":43.33767,"lon":5.37477,"is_reserved":false,"is_disabled":false,"rental_uris":{"android":"levelo://app?vid=cd48b539-8a8f-4ccd-a8aa-e74e2abaf1f5","ios":"levelo://app?vid=cd48b539-8a8f-4ccd-a8aa-e74e2abaf1f5"},"vehicle_type_id":"4","last_reported":1720883266,"current_range_meters":28800,"station_id":"","pricing_plan_id":"cebpf4jnsgd1na2vs0mg"},{"bike_id":"f8ccaa8e-a40d-4875-9aac-97d8b2a25bab","system_id":"levelo_inurba_marseille","lat":43.33768,"lon":5.37472,"is_reserved":false,"is_disabled":false,"rental_uris":{"android":"levelo://app?vid=f8ccaa8e-a40d-4875-9aac-97d8b2a25bab","ios":"levelo://app?vid=f8ccaa8e-a40d-4875-9aac-97d8b2a25bab"},"vehicle_type_id":"4","last_reported":1720883266,"current_range_meters":17200,"station_id":"","pricing_plan_id":"cebpf4jnsgd1na2vs0mg"},{"bike_id":"2878ccff-3056-4d81-9565-caabd8a9f101","system_id":"levelo_inurba_marseille","lat":43.33768,"lon":5.37473,"is_reserved":false,"is_disabled":false,"rental_uris":{"android":"levelo://app?vid=2878ccff-3056-4d81-9565-caabd8a9f101","ios":"levelo://app?vid=2878ccff-3056-4d81-9565-caabd8a9f101"},"vehicle_type_id":"4","last_reported":1720883266,"current_range_meters":2800,"station_id":"","pricing_plan_id":"cebpf4jnsgd1na2vs0mg"},{"bike_id":"039a10e5-aed9-4f01-a151-04375f715c5b","system_id":"levelo_inurba_marseille","lat":43.33768,"lon":5.37473,"is_reserved":false,"is_disabled":false,"rental_uris":{"android":"levelo://app?vid=039a10e5-aed9-4f01-a151-04375f715c5b","ios":"levelo://app?vid=039a10e5-aed9-4f01-a151-04375f715c5b"},"vehicle_type_id":"4","last_reported":1720883266,"current_range_meters":28000,"station_id":"","pricing_plan_id":"cebpf4jnsgd1na2vs0mg"},{"bike_id":"893b3f9e-8d19-4e89-b4e3-e6aa5e07ff06","system_id":"levelo_inurba_marseille","lat":43.33768,"lon":5.37474,"is_reserved":false,"is_disabled":false,"rental_uris":{"android":"levelo://app?vid=893b3f9e-8d19-4e89-b4e3-e6aa5e07ff06","ios":"levelo://app?vid=893b3f9e-8d19-4e89-b4e3-e6aa5e07ff06"},"vehicle_type_id":"4","last_reported":1720883266,"current_range_meters":30800,"station_id":"","pricing_plan_id":"cebpf4jnsgd1na2vs0mg"},{"bike_id":"ac9d66fe-9bf5-4789-93e4-8c7d750a082c","system_id":"levelo_inurba_marseille","lat":43.33768,"lon":5.37477,"is_reserved":false,"is_disabled":false,"rental_uris":{"android":"levelo://app?vid=ac9d66fe-9bf5-4789-93e4-8c7d750a082c","ios":"levelo://app?vid=ac9d66fe-9bf5-4789-93e4-8c7d750a082c"},"vehicle_type_id":"4","last_reported":1720883266,"current_range_meters":20400,"station_id":"","pricing_plan_id":"cebpf4jnsgd1na2vs0mg"},{"bike_id":"d77e79b4-bbcc-4fb4-abd6-01e5d49b13f4","system_id":"levelo_inurba_marseille","lat":43.33769,"lon":5.37472,"is_reserved":false,"is_disabled":false,"rental_uris":{"android":"levelo://app?vid=d77e79b4-bbcc-4fb4-abd6-01e5d49b13f4","ios":"levelo://app?vid=d77e79b4-bbcc-4fb4-abd6-01e5d49b13f4"},"vehicle_type_id":"4","last_reported":1720883266,"current_range_meters":19600,"station_id":"","pricing_plan_id":"cebpf4jnsgd1na2vs0mg"},{"bike_id":"0dd06392-f63f-44b8-af4f-590dfd121b02","system_id":"levelo_inurba_marseille","lat":43.3377,"lon":5.37466,"is_reserved":false,"is_disabled":false,"rental_uris":{"android":"levelo://app?vid=0dd06392-f63f-44b8-af4f-590dfd121b02","ios":"levelo://app?vid=0dd06392-f63f-44b8-af4f-590dfd121b02"},"vehicle_type_id":"4","last_reported":1720883266,"current_range_meters":10400,"station_id":"","pricing_plan_id":"cebpf4jnsgd1na2vs0mg"},{"bike_id":"2c101ebf-47bb-4075-9995-419fb34d5f57","system_id":"levelo_inurba_marseille","lat":43.33769,"lon":5.37474,"is_reserved":false,"is_disabled":false,"rental_uris":{"android":"levelo://app?vid=2c101ebf-47bb-4075-9995-419fb34d5f57","ios":"levelo://app?vid=2c101ebf-47bb-4075-9995-419fb34d5f57"},"vehicle_type_id":"4","last_reported":1720883266,"current_range_meters":30800,"station_id":"","pricing_plan_id":"cebpf4jnsgd1na2vs0mg"},{"bike_id":"6005b925-bbeb-43fb-9a4b-148f3086b364","system_id":"levelo_inurba_marseille","lat":43.33769,"lon":5.37475,"is_reserved":false,"is_disabled":false,"rental_uris":{"android":"levelo://app?vid=6005b925-bbeb-43fb-9a4b-148f3086b364","ios":"levelo://app?vid=6005b925-bbeb-43fb-9a4b-148f3086b364"},"vehicle_type_id":"4","last_reported":1720883266,"current_range_meters":11200,"station_id":"","pricing_plan_id":"cebpf4jnsgd1na2vs0mg"},{"bike_id":"9641f142-48bc-49b9-9b2a-634a9b288110","system_id":"levelo_inurba_marseille","lat":43.33769,"lon":5.37476,"is_reserved":false,"is_disabled":false,"rental_uris":{"android":"levelo://app?vid=9641f142-48bc-49b9-9b2a-634a9b288110","ios":"levelo://app?vid=9641f142-48bc-49b9-9b2a-634a9b288110"},"vehicle_type_id":"4","last_reported":1720883266,"current_range_meters":21600,"station_id":"","pricing_plan_id":"cebpf4jnsgd1na2vs0mg"},{"bike_id":"db8d58e3-38a2-4c75-ae4a-e4abfcab3724","system_id":"levelo_inurba_marseille","lat":43.33769,"lon":5.37476,"is_reserved":false,"is_disabled":false,"rental_uris":{"android":"levelo://app?vid=db8d58e3-38a2-4c75-ae4a-e4abfcab3724","ios":"levelo://app?vid=db8d58e3-38a2-4c75-ae4a-e4abfcab3724"},"vehicle_type_id":"4","last_reported":1720883266,"current_range_meters":22400,"station_id":"","pricing_plan_id":"cebpf4jnsgd1na2vs0mg"},{"bike_id":"5aae94a6-c440-4789-857e-46a54718fede","system_id":"levelo_inurba_marseille","lat":43.33771,"lon":5.3747,"is_reserved":false,"is_disabled":false,"rental_uris":{"android":"levelo://app?vid=5aae94a6-c440-4789-857e-46a54718fede","ios":"levelo://app?vid=5aae94a6-c440-4789-857e-46a54718fede"},"vehicle_type_id":"4","last_reported":1720883266,"current_range_meters":30400,"station_id":"","pricing_plan_id":"cebpf4jnsgd1na2vs0mg"},{"bike_id":"e880369d-9e45-4e17-b710-89d03f821f41","system_id":"levelo_inurba_marseille","lat":43.33771,"lon":5.37471,"is_reserved":false,"is_disabled":false,"rental_uris":{"android":"levelo://app?vid=e880369d-9e45-4e17-b710-89d03f821f41","ios":"levelo://app?vid=e880369d-9e45-4e17-b710-89d03f821f41"},"vehicle_type_id":"4","last_reported":1720883266,"current_range_meters":10000,"station_id":"","pricing_plan_id":"cebpf4jnsgd1na2vs0mg"},{"bike_id":"bfbef46d-097c-4ecc-a4cf-db53c94b13b1","system_id":"levelo_inurba_marseille","lat":43.33771,"lon":5.37474,"is_reserved":false,"is_disabled":false,"rental_uris":{"android":"levelo://app?vid=bfbef46d-097c-4ecc-a4cf-db53c94b13b1","ios":"levelo://app?vid=bfbef46d-097c-4ecc-a4cf-db53c94b13b1"},"vehicle_type_id":"4","last_reported":1720883266,"current_range_meters":30800,"station_id":"","pricing_plan_id":"cebpf4jnsgd1na2vs0mg"},{"bike_id":"573b9d78-4adb-4e9e-b480-d279544660f2","system_id":"levelo_inurba_marseille","lat":43.33772,"lon":5.37469,"is_reserved":false,"is_disabled":false,"rental_uris":{"android":"levelo://app?vid=573b9d78-4adb-4e9e-b480-d279544660f2","ios":"levelo://app?vid=573b9d78-4adb-4e9e-b480-d279544660f2"},"vehicle_type_id":"4","last_reported":1720883266,"current_range_meters":12800,"station_id":"","pricing_plan_id":"cebpf4jnsgd1na2vs0mg"},{"bike_id":"26f86cb7-ac0c-4cfd-84f1-3a9e9042360d","system_id":"levelo_inurba_marseille","lat":43.33771,"lon":5.37476,"is_reserved":false,"is_disabled":false,"rental_uris":{"android":"levelo://app?vid=26f86cb7-ac0c-4cfd-84f1-3a9e9042360d","ios":"levelo://app?vid=26f86cb7-ac0c-4cfd-84f1-3a9e9042360d"},"vehicle_type_id":"4","last_reported":1720883266,"current_range_meters":19600,"station_id":"","pricing_plan_id":"cebpf4jnsgd1na2vs0mg"},{"bike_id":"7fe8718f-2ce5-43ca-bf2f-4cadfbd7a814","system_id":"levelo_inurba_marseille","lat":43.33772,"lon":5.3747,"is_reserved":false,"is_disabled":false,"rental_uris":{"android":"levelo://app?vid=7fe8718f-2ce5-43ca-bf2f-4cadfbd7a814","ios":"levelo://app?vid=7fe8718f-2ce5-43ca-bf2f-4cadfbd7a814"},"vehicle_type_id":"4","last_reported":1720883266,"current_range_meters":27200,"station_id":"","pricing_plan_id":"cebpf4jnsgd1na2vs0mg"},{"bike_id":"0146c428-cfdd-4a76-a91e-317ac3b8cedc","system_id":"levelo_inurba_marseille","lat":43.33772,"lon":5.37472,"is_reserved":false,"is_disabled":false,"rental_uris":{"android":"levelo://app?vid=0146c428-cfdd-4a76-a91e-317ac3b8cedc","ios":"levelo://app?vid=0146c428-cfdd-4a76-a91e-317ac3b8cedc"},"vehicle_type_id":"4","last_reported":1720883266,"current_range_meters":8000,"station_id":"","pricing_plan_id":"cebpf4jnsgd1na2vs0mg"},{"bike_id":"38b57823-eda1-4e58-a521-74a065ade509","system_id":"levelo_inurba_marseille","lat":43.33773,"lon":5.37469,"is_reserved":false,"is_disabled":false,"rental_uris":{"android":"levelo://app?vid=38b57823-eda1-4e58-a521-74a065ade509","ios":"levelo://app?vid=38b57823-eda1-4e58-a521-74a065ade509"},"vehicle_type_id":"4","last_reported":1720883266,"current_range_meters":28000,"station_id":"","pricing_plan_id":"cebpf4jnsgd1na2vs0mg"},{"bike_id":"51544219-3a97-477c-9642-d66a5be4ade3","system_id":"levelo_inurba_marseille","lat":43.33771,"lon":5.37483,"is_reserved":false,"is_disabled":false,"rental_uris":{"android":"levelo://app?vid=51544219-3a97-477c-9642-d66a5be4ade3","ios":"levelo://app?vid=51544219-3a97-477c-9642-d66a5be4ade3"},"vehicle_type_id":"4","last_reported":1720883266,"current_range_meters":25600,"station_id":"","pricing_plan_id":"cebpf4jnsgd1na2vs0mg"},{"bike_id":"e0930f6e-0056-47a6-888a-3b2b7032222c","system_id":"levelo_inurba_marseille","lat":43.33771,"lon":5.37484,"is_reserved":false,"is_disabled":false,"rental_uris":{"android":"levelo://app?vid=e0930f6e-0056-47a6-888a-3b2b7032222c","ios":"levelo://app?vid=e0930f6e-0056-47a6-888a-3b2b7032222c"},"vehicle_type_id":"4","last_reported":1720883266,"current_range_meters":5200,"station_id":"","pricing_plan_id":"cebpf4jnsgd1na2vs0mg"},{"bike_id":"a73dad2b-dded-4096-b591-d9883c2ff43e","system_id":"levelo_inurba_marseille","lat":43.33774,"lon":5.37466,"is_reserved":false,"is_disabled":false,"rental_uris":{"android":"levelo://app?vid=a73dad2b-dded-4096-b591-d9883c2ff43e","ios":"levelo://app?vid=a73dad2b-dded-4096-b591-d9883c2ff43e"},"vehicle_type_id":"4","last_reported":1720883266,"current_range_meters":2400,"station_id":"","pricing_plan_id":"cebpf4jnsgd1na2vs0mg"},{"bike_id":"45416cd9-028f-41b0-ac5a-269637c45e42","system_id":"levelo_inurba_marseille","lat":43.33772,"lon":5.37479,"is_reserved":false,"is_disabled":false,"rental_uris":{"android":"levelo://app?vid=45416cd9-028f-41b0-ac5a-269637c45e42","ios":"levelo://app?vid=45416cd9-028f-41b0-ac5a-269637c45e42"},"vehicle_type_id":"4","last_reported":1720883266,"current_range_meters":11200,"station_id":"","pricing_plan_id":"cebpf4jnsgd1na2vs0mg"},{"bike_id":"8f381f06-2b48-4b7f-9444-eca237a2fc44","system_id":"levelo_inurba_marseille","lat":43.291994,"lon":5.357886,"is_reserved":false,"is_disabled":false,"rental_uris":{"android":"levelo://app?vid=8f381f06-2b48-4b7f-9444-eca237a2fc44","ios":"levelo://app?vid=8f381f06-2b48-4b7f-9444-eca237a2fc44"},"vehicle_type_id":"4","last_reported":1720883266,"current_range_meters":30000,"station_id":"ce4bhb12rcd13ifvqel0","pricing_plan_id":"cebpf4jnsgd1na2vs0mg"},{"bike_id":"5cd2f239-467e-4111-8850-d9782eca2470","system_id":"levelo_inurba_marseille","lat":43.33773,"lon":5.37474,"is_reserved":false,"is_disabled":false,"rental_uris":{"android":"levelo://app?vid=5cd2f239-467e-4111-8850-d9782eca2470","ios":"levelo://app?vid=5cd2f239-467e-4111-8850-d9782eca2470"},"vehicle_type_id":"4","last_reported":1720883266,"current_range_meters":30000,"station_id":"","pricing_plan_id":"cebpf4jnsgd1na2vs0mg"},{"bike_id":"a7714764-2436-42f7-8089-0fc1ef357d42","system_id":"levelo_inurba_marseille","lat":43.33773,"lon":5.37475,"is_reserved":false,"is_disabled":false,"rental_uris":{"android":"levelo://app?vid=a7714764-2436-42f7-8089-0fc1ef357d42","ios":"levelo://app?vid=a7714764-2436-42f7-8089-0fc1ef357d42"},"vehicle_type_id":"4","last_reported":1720883266,"current_range_meters":8000,"station_id":"","pricing_plan_id":"cebpf4jnsgd1na2vs0mg"},{"bike_id":"ecca751a-c24b-4d06-bee9-480915f9bb4a","system_id":"levelo_inurba_marseille","lat":43.33773,"lon":5.37476,"is_reserved":false,"is_disabled":false,"rental_uris":{"android":"levelo://app?vid=ecca751a-c24b-4d06-bee9-480915f9bb4a","ios":"levelo://app?vid=ecca751a-c24b-4d06-bee9-480915f9bb4a"},"vehicle_type_id":"4","last_reported":1720883266,"current_range_meters":4800,"station_id":"","pricing_plan_id":"cebpf4jnsgd1na2vs0mg"},{"bike_id":"e951615b-5573-4435-a7b6-8167ff6ade63","system_id":"levelo_inurba_marseille","lat":43.33774,"lon":5.3747,"is_reserved":false,"is_disabled":false,"rental_uris":{"android":"levelo://app?vid=e951615b-5573-4435-a7b6-8167ff6ade63","ios":"levelo://app?vid=e951615b-5573-4435-a7b6-8167ff6ade63"},"vehicle_type_id":"4","last_reported":1720883266,"current_range_meters":18800,"station_id":"","pricing_plan_id":"cebpf4jnsgd1na2vs0mg"},{"bike_id":"c67a12ba-5c42-41ae-847c-0956c8b147e5","system_id":"levelo_inurba_marseille","lat":43.33774,"lon":5.37471,"is_reserved":false,"is_disabled":false,"rental_uris":{"android":"levelo://app?vid=c67a12ba-5c42-41ae-847c-0956c8b147e5","ios":"levelo://app?vid=c67a12ba-5c42-41ae-847c-0956c8b147e5"},"vehicle_type_id":"4","last_reported":1720883266,"current_range_meters":12400,"station_id":"","pricing_plan_id":"cebpf4jnsgd1na2vs0mg"},{"bike_id":"a4701b34-a47a-4547-9be9-b5a6ebb6ef0f","system_id":"levelo_inurba_marseille","lat":43.33774,"lon":5.37471,"is_reserved":false,"is_disabled":false,"rental_uris":{"android":"levelo://app?vid=a4701b34-a47a-4547-9be9-b5a6ebb6ef0f","ios":"levelo://app?vid=a4701b34-a47a-4547-9be9-b5a6ebb6ef0f"},"vehicle_type_id":"4","last_reported":1720883266,"current_range_meters":17600,"station_id":"","pricing_plan_id":"cebpf4jnsgd1na2vs0mg"},{"bike_id":"0c80325e-daf1-446d-8059-bffa294c7e3e","system_id":"levelo_inurba_marseille","lat":43.33775,"lon":5.37469,"is_reserved":false,"is_disabled":false,"rental_uris":{"android":"levelo://app?vid=0c80325e-daf1-446d-8059-bffa294c7e3e","ios":"levelo://app?vid=0c80325e-daf1-446d-8059-bffa294c7e3e"},"vehicle_type_id":"4","last_reported":1720883266,"current_range_meters":30000,"station_id":"","pricing_plan_id":"cebpf4jnsgd1na2vs0mg"},{"bike_id":"e6537933-0eb1-41a8-b76a-584d0a7d4a3c","system_id":"levelo_inurba_marseille","lat":43.33775,"lon":5.37471,"is_reserved":false,"is_disabled":false,"rental_uris":{"android":"levelo://app?vid=e6537933-0eb1-41a8-b76a-584d0a7d4a3c","ios":"levelo://app?vid=e6537933-0eb1-41a8-b76a-584d0a7d4a3c"},"vehicle_type_id":"4","last_reported":1720883266,"current_range_meters":29200,"station_id":"","pricing_plan_id":"cebpf4jnsgd1na2vs0mg"},{"bike_id":"a5b64c84-5508-41ed-bc97-8b733f293107","system_id":"levelo_inurba_marseille","lat":43.337745,"lon":5.37476,"is_reserved":false,"is_disabled":false,"rental_uris":{"android":"levelo://app?vid=a5b64c84-5508-41ed-bc97-8b733f293107","ios":"levelo://app?vid=a5b64c84-5508-41ed-bc97-8b733f293107"},"vehicle_type_id":"4","last_reported":1720883266,"current_range_meters":25600,"station_id":"","pricing_plan_id":"cebpf4jnsgd1na2vs0mg"},{"bike_id":"2fa411ed-3fa9-4268-b414-c8e45152bf4d","system_id":"levelo_inurba_marseille","lat":43.33776,"lon":5.37472,"is_reserved":false,"is_disabled":false,"rental_uris":{"android":"levelo://app?vid=2fa411ed-3fa9-4268-b414-c8e45152bf4d","ios":"levelo://app?vid=2fa411ed-3fa9-4268-b414-c8e45152bf4d"},"vehicle_type_id":"4","last_reported":1720883266,"current_range_meters":18800,"station_id":"","pricing_plan_id":"cebpf4jnsgd1na2vs0mg"},{"bike_id":"02f0d131-963f-495a-beaf-edc5a91d6439","system_id":"levelo_inurba_marseille","lat":43.33776,"lon":5.37476,"is_reserved":false,"is_disabled":false,"rental_uris":{"android":"levelo://app?vid=02f0d131-963f-495a-beaf-edc5a91d6439","ios":"levelo://app?vid=02f0d131-963f-495a-beaf-edc5a91d6439"},"vehicle_type_id":"4","last_reported":1720883266,"current_range_meters":30000,"station_id":"","pricing_plan_id":"cebpf4jnsgd1na2vs0mg"},{"bike_id":"c761b19e-877d-432b-bfa8-ed72a86a6759","system_id":"levelo_inurba_marseille","lat":43.33777,"lon":5.37471,"is_reserved":false,"is_disabled":false,"rental_uris":{"android":"levelo://app?vid=c761b19e-877d-432b-bfa8-ed72a86a6759","ios":"levelo://app?vid=c761b19e-877d-432b-bfa8-ed72a86a6759"},"vehicle_type_id":"4","last_reported":1720883266,"current_range_meters":10800,"station_id":"","pricing_plan_id":"cebpf4jnsgd1na2vs0mg"},{"bike_id":"9e13c9a5-7387-424a-b4fb-1dc4dce029b5","system_id":"levelo_inurba_marseille","lat":43.33777,"lon":5.37474,"is_reserved":false,"is_disabled":false,"rental_uris":{"android":"levelo://app?vid=9e13c9a5-7387-424a-b4fb-1dc4dce029b5","ios":"levelo://app?vid=9e13c9a5-7387-424a-b4fb-1dc4dce029b5"},"vehicle_type_id":"4","last_reported":1720883266,"current_range_meters":29600,"station_id":"","pricing_plan_id":"cebpf4jnsgd1na2vs0mg"},{"bike_id":"7bd10516-f12e-47b0-9eb5-064c1cc88ff3","system_id":"levelo_inurba_marseille","lat":43.286591,"lon":5.363346,"is_reserved":false,"is_disabled":false,"rental_uris":{"android":"levelo://app?vid=7bd10516-f12e-47b0-9eb5-064c1cc88ff3","ios":"levelo://app?vid=7bd10516-f12e-47b0-9eb5-064c1cc88ff3"},"vehicle_type_id":"4","last_reported":1720883266,"current_range_meters":5200,"station_id":"ce4bhah2rcd13ifvqej0","pricing_plan_id":"cebpf4jnsgd1na2vs0mg"},{"bike_id":"92577f1e-2fef-42cf-8ca2-84cd6f6073f5","system_id":"levelo_inurba_marseille","lat":43.286961,"lon":5.373785,"is_reserved":false,"is_disabled":false,"rental_uris":{"android":"levelo://app?vid=92577f1e-2fef-42cf-8ca2-84cd6f6073f5","ios":"levelo://app?vid=92577f1e-2fef-42cf-8ca2-84cd6f6073f5"},"vehicle_type_id":"4","last_reported":1720883266,"current_range_meters":8400,"station_id":"ce4bh3p2rcd13ifvqdq0","pricing_plan_id":"cebpf4jnsgd1na2vs0mg"},{"bike_id":"be3cc08d-5ff5-4bdb-9a1e-47669a2e6bb6","system_id":"levelo_inurba_marseille","lat":43.28659,"lon":5.36356,"is_reserved":false,"is_disabled":false,"rental_uris":{"android":"levelo://app?vid=be3cc08d-5ff5-4bdb-9a1e-47669a2e6bb6","ios":"levelo://app?vid=be3cc08d-5ff5-4bdb-9a1e-47669a2e6bb6"},"vehicle_type_id":"4","last_reported":1720883266,"current_range_meters":14000,"station_id":"","pricing_plan_id":"cebpf4jnsgd1na2vs0mg"},{"bike_id":"7c55c288-f882-4fa5-8cca-28c0f3a05c72","system_id":"levelo_inurba_marseille","lat":43.28613,"lon":5.37062,"is_reserved":false,"is_disabled":false,"rental_uris":{"android":"levelo://app?vid=7c55c288-f882-4fa5-8cca-28c0f3a05c72","ios":"levelo://app?vid=7c55c288-f882-4fa5-8cca-28c0f3a05c72"},"vehicle_type_id":"4","last_reported":1720883266,"current_range_meters":5200,"station_id":"ce4bht12rcd13ifvqi60","pricing_plan_id":"cebpf4jnsgd1na2vs0mg"},{"bike_id":"cf580f09-9d40-43d8-b187-c7750dadb2ca","system_id":"levelo_inurba_marseille","lat":43.286039,"lon":5.370679,"is_reserved":false,"is_disabled":false,"rental_uris":{"android":"levelo://app?vid=cf580f09-9d40-43d8-b187-c7750dadb2ca","ios":"levelo://app?vid=cf580f09-9d40-43d8-b187-c7750dadb2ca"},"vehicle_type_id":"4","last_reported":1720883266,"current_range_meters":28000,"station_id":"ce4bht12rcd13ifvqi60","pricing_plan_id":"cebpf4jnsgd1na2vs0mg"},{"bike_id":"cea3baac-e68e-45d6-a748-905142db83e9","system_id":"levelo_inurba_marseille","lat":43.286065,"lon":5.37064,"is_reserved":false,"is_disabled":false,"rental_uris":{"android":"levelo://app?vid=cea3baac-e68e-45d6-a748-905142db83e9","ios":"levelo://app?vid=cea3baac-e68e-45d6-a748-905142db83e9"},"vehicle_type_id":"4","last_reported":1720883266,"current_range_meters":18400,"station_id":"ce4bht12rcd13ifvqi60","pricing_plan_id":"cebpf4jnsgd1na2vs0mg"},{"bike_id":"707d64aa-d059-458e-a7fe-e292e5d81bd0","system_id":"levelo_inurba_marseille","lat":43.287124,"lon":5.352253,"is_reserved":false,"is_disabled":false,"rental_uris":{"android":"levelo://app?vid=707d64aa-d059-458e-a7fe-e292e5d81bd0","ios":"levelo://app?vid=707d64aa-d059-458e-a7fe-e292e5d81bd0"},"vehicle_type_id":"4","last_reported":1720883266,"current_range_meters":3600,"station_id":"ce4bh2h2rcd13ifvqdh0","pricing_plan_id":"cebpf4jnsgd1na2vs0mg"},{"bike_id":"f67890d5-702e-45ed-b5b8-9918674fa2ee","system_id":"levelo_inurba_marseille","lat":43.31702,"lon":5.40471,"is_reserved":false,"is_disabled":false,"rental_uris":{"android":"levelo://app?vid=f67890d5-702e-45ed-b5b8-9918674fa2ee","ios":"levelo://app?vid=f67890d5-702e-45ed-b5b8-9918674fa2ee"},"vehicle_type_id":"4","last_reported":1720883266,"current_range_meters":15200,"station_id":"ce4bh012rcd13ifvqd00","pricing_plan_id":"cebpf4jnsgd1na2vs0mg"},{"bike_id":"9a7db732-5a03-4107-8b2f-bb304f3c3dbf","system_id":"levelo_inurba_marseille","lat":43.316821,"lon":5.404737,"is_reserved":false,"is_disabled":false,"rental_uris":{"android":"levelo://app?vid=9a7db732-5a03-4107-8b2f-bb304f3c3dbf","ios":"levelo://app?vid=9a7db732-5a03-4107-8b2f-bb304f3c3dbf"},"vehicle_type_id":"4","last_reported":1720883266,"current_range_meters":21200,"station_id":"ce4bh012rcd13ifvqd00","pricing_plan_id":"cebpf4jnsgd1na2vs0mg"},{"bike_id":"bbcff64c-c0c6-4311-a3b7-b774e73dab3d","system_id":"levelo_inurba_marseille","lat":43.291994,"lon":5.392907,"is_reserved":false,"is_disabled":false,"rental_uris":{"android":"levelo://app?vid=bbcff64c-c0c6-4311-a3b7-b774e73dab3d","ios":"levelo://app?vid=bbcff64c-c0c6-4311-a3b7-b774e73dab3d"},"vehicle_type_id":"4","last_reported":1720883266,"current_range_meters":27200,"station_id":"ce4bh192rcd13ifvqdd0","pricing_plan_id":"cebpf4jnsgd1na2vs0mg"},{"bike_id":"e62c60e1-1b6d-4732-8618-4c95c52ab937","system_id":"levelo_inurba_marseille","lat":43.291994,"lon":5.392907,"is_reserved":false,"is_disabled":false,"rental_uris":{"android":"levelo://app?vid=e62c60e1-1b6d-4732-8618-4c95c52ab937","ios":"levelo://app?vid=e62c60e1-1b6d-4732-8618-4c95c52ab937"},"vehicle_type_id":"4","last_reported":1720883266,"current_range_meters":6400,"station_id":"ce4bh192rcd13ifvqdd0","pricing_plan_id":"cebpf4jnsgd1na2vs0mg"},{"bike_id":"9b560ba1-3e7d-4ffb-9080-7f479315518d","system_id":"levelo_inurba_marseille","lat":43.291994,"lon":5.392907,"is_reserved":false,"is_disabled":false,"rental_uris":{"android":"levelo://app?vid=9b560ba1-3e7d-4ffb-9080-7f479315518d","ios":"levelo://app?vid=9b560ba1-3e7d-4ffb-9080-7f479315518d"},"vehicle_type_id":"4","last_reported":1720883266,"current_range_meters":12000,"station_id":"ce4bh192rcd13ifvqdd0","pricing_plan_id":"cebpf4jnsgd1na2vs0mg"},{"bike_id":"d831de6a-0a88-47ba-a34b-292bc7580ba2","system_id":"levelo_inurba_marseille","lat":43.294314,"lon":5.397498,"is_reserved":false,"is_disabled":false,"rental_uris":{"android":"levelo://app?vid=d831de6a-0a88-47ba-a34b-292bc7580ba2","ios":"levelo://app?vid=d831de6a-0a88-47ba-a34b-292bc7580ba2"},"vehicle_type_id":"4","last_reported":1720883266,"current_range_meters":0,"station_id":"ce4bh3h2rcd13ifvqdo0","pricing_plan_id":"cebpf4jnsgd1na2vs0mg"},{"bike_id":"e227dbb3-1237-449d-91c0-223925094d5e","system_id":"levelo_inurba_marseille","lat":43.28624,"lon":5.35104,"is_reserved":false,"is_disabled":false,"rental_uris":{"android":"levelo://app?vid=e227dbb3-1237-449d-91c0-223925094d5e","ios":"levelo://app?vid=e227dbb3-1237-449d-91c0-223925094d5e"},"vehicle_type_id":"4","last_reported":1720883266,"current_range_meters":28000,"station_id":"ce4bhch2rcd13ifvqeug","pricing_plan_id":"cebpf4jnsgd1na2vs0mg"},{"bike_id":"87908913-2ecc-4329-bd74-11da32924bfb","system_id":"levelo_inurba_marseille","lat":43.28622,"lon":5.35109,"is_reserved":false,"is_disabled":false,"rental_uris":{"android":"levelo://app?vid=87908913-2ecc-4329-bd74-11da32924bfb","ios":"levelo://app?vid=87908913-2ecc-4329-bd74-11da32924bfb"},"vehicle_type_id":"4","last_reported":1720883266,"current_range_meters":13200,"station_id":"ce4bhch2rcd13ifvqeug","pricing_plan_id":"cebpf4jnsgd1na2vs0mg"},{"bike_id":"618ecb8a-f58d-4832-8550-4614181d20d3","system_id":"levelo_inurba_marseille","lat":43.28622,"lon":5.35108,"is_reserved":false,"is_disabled":false,"rental_uris":{"android":"levelo://app?vid=618ecb8a-f58d-4832-8550-4614181d20d3","ios":"levelo://app?vid=618ecb8a-f58d-4832-8550-4614181d20d3"},"vehicle_type_id":"4","last_reported":1720883266,"current_range_meters":4000,"station_id":"ce4bhch2rcd13ifvqeug","pricing_plan_id":"cebpf4jnsgd1na2vs0mg"},{"bike_id":"9e1f4ea2-a8f7-4dd7-b041-e36a7d7fbec2","system_id":"levelo_inurba_marseille","lat":43.285856,"lon":5.350771,"is_reserved":false,"is_disabled":false,"rental_uris":{"android":"levelo://app?vid=9e1f4ea2-a8f7-4dd7-b041-e36a7d7fbec2","ios":"levelo://app?vid=9e1f4ea2-a8f7-4dd7-b041-e36a7d7fbec2"},"vehicle_type_id":"4","last_reported":1720883266,"current_range_meters":30800,"station_id":"ce4bhch2rcd13ifvqeug","pricing_plan_id":"cebpf4jnsgd1na2vs0mg"},{"bike_id":"95519278-86e5-42e6-aa00-839238dad944","system_id":"levelo_inurba_marseille","lat":43.28621,"lon":5.35107,"is_reserved":false,"is_disabled":false,"rental_uris":{"android":"levelo://app?vid=95519278-86e5-42e6-aa00-839238dad944","ios":"levelo://app?vid=95519278-86e5-42e6-aa00-839238dad944"},"vehicle_type_id":"4","last_reported":1720883266,"current_range_meters":20400,"station_id":"ce4bhch2rcd13ifvqeug","pricing_plan_id":"cebpf4jnsgd1na2vs0mg"},{"bike_id":"7298524f-08ab-4f35-b38f-b5a634a283a4","system_id":"levelo_inurba_marseille","lat":43.28621,"lon":5.35104,"is_reserved":false,"is_disabled":false,"rental_uris":{"android":"levelo://app?vid=7298524f-08ab-4f35-b38f-b5a634a283a4","ios":"levelo://app?vid=7298524f-08ab-4f35-b38f-b5a634a283a4"},"vehicle_type_id":"4","last_reported":1720883266,"current_range_meters":27200,"station_id":"ce4bhch2rcd13ifvqeug","pricing_plan_id":"cebpf4jnsgd1na2vs0mg"},{"bike_id":"04823dbc-1f60-4a79-a9ae-e33cf7ddcbcc","system_id":"levelo_inurba_marseille","lat":43.28621,"lon":5.35101,"is_reserved":false,"is_disabled":false,"rental_uris":{"android":"levelo://app?vid=04823dbc-1f60-4a79-a9ae-e33cf7ddcbcc","ios":"levelo://app?vid=04823dbc-1f60-4a79-a9ae-e33cf7ddcbcc"},"vehicle_type_id":"4","last_reported":1720883266,"current_range_meters":5200,"station_id":"ce4bhch2rcd13ifvqeug","pricing_plan_id":"cebpf4jnsgd1na2vs0mg"},{"bike_id":"5b50692f-5fd3-44c3-98cf-527bd39371a2","system_id":"levelo_inurba_marseille","lat":43.285856,"lon":5.350771,"is_reserved":false,"is_disabled":false,"rental_uris":{"android":"levelo://app?vid=5b50692f-5fd3-44c3-98cf-527bd39371a2","ios":"levelo://app?vid=5b50692f-5fd3-44c3-98cf-527bd39371a2"},"vehicle_type_id":"4","last_reported":1720883266,"current_range_meters":23200,"station_id":"ce4bhch2rcd13ifvqeug","pricing_plan_id":"cebpf4jnsgd1na2vs0mg"},{"bike_id":"9eef4f92-461b-41a7-962b-fe3471c25e28","system_id":"levelo_inurba_marseille","lat":43.28619,"lon":5.35106,"is_reserved":false,"is_disabled":false,"rental_uris":{"android":"levelo://app?vid=9eef4f92-461b-41a7-962b-fe3471c25e28","ios":"levelo://app?vid=9eef4f92-461b-41a7-962b-fe3471c25e28"},"vehicle_type_id":"4","last_reported":1720883266,"current_range_meters":13600,"station_id":"ce4bhch2rcd13ifvqeug","pricing_plan_id":"cebpf4jnsgd1na2vs0mg"},{"bike_id":"b97525f9-db91-4430-b430-bb37e0544fa4","system_id":"levelo_inurba_marseille","lat":43.28617,"lon":5.35111,"is_reserved":false,"is_disabled":false,"rental_uris":{"android":"levelo://app?vid=b97525f9-db91-4430-b430-bb37e0544fa4","ios":"levelo://app?vid=b97525f9-db91-4430-b430-bb37e0544fa4"},"vehicle_type_id":"4","last_reported":1720883266,"current_range_meters":9600,"station_id":"ce4bhch2rcd13ifvqeug","pricing_plan_id":"cebpf4jnsgd1na2vs0mg"},{"bike_id":"a2b61a6f-a7c7-4b85-ae1f-43aa6ccfeb57","system_id":"levelo_inurba_marseille","lat":43.285856,"lon":5.350771,"is_reserved":false,"is_disabled":false,"rental_uris":{"android":"levelo://app?vid=a2b61a6f-a7c7-4b85-ae1f-43aa6ccfeb57","ios":"levelo://app?vid=a2b61a6f-a7c7-4b85-ae1f-43aa6ccfeb57"},"vehicle_type_id":"4","last_reported":1720883266,"current_range_meters":21200,"station_id":"ce4bhch2rcd13ifvqeug","pricing_plan_id":"cebpf4jnsgd1na2vs0mg"},{"bike_id":"0f10ba26-6840-4634-9d36-cc0a93c8d31b","system_id":"levelo_inurba_marseille","lat":43.285856,"lon":5.350771,"is_reserved":false,"is_disabled":false,"rental_uris":{"android":"levelo://app?vid=0f10ba26-6840-4634-9d36-cc0a93c8d31b","ios":"levelo://app?vid=0f10ba26-6840-4634-9d36-cc0a93c8d31b"},"vehicle_type_id":"4","last_reported":1720883266,"current_range_meters":29600,"station_id":"ce4bhch2rcd13ifvqeug","pricing_plan_id":"cebpf4jnsgd1na2vs0mg"},{"bike_id":"eefb4afa-5c5c-4c02-9aca-053f1c4fcff6","system_id":"levelo_inurba_marseille","lat":43.28617,"lon":5.35103,"is_reserved":false,"is_disabled":false,"rental_uris":{"android":"levelo://app?vid=eefb4afa-5c5c-4c02-9aca-053f1c4fcff6","ios":"levelo://app?vid=eefb4afa-5c5c-4c02-9aca-053f1c4fcff6"},"vehicle_type_id":"4","last_reported":1720883266,"current_range_meters":18400,"station_id":"ce4bhch2rcd13ifvqeug","pricing_plan_id":"cebpf4jnsgd1na2vs0mg"},{"bike_id":"176ce380-7f3e-463c-b3a9-18e9bac53770","system_id":"levelo_inurba_marseille","lat":43.28617,"lon":5.351,"is_reserved":false,"is_disabled":false,"rental_uris":{"android":"levelo://app?vid=176ce380-7f3e-463c-b3a9-18e9bac53770","ios":"levelo://app?vid=176ce380-7f3e-463c-b3a9-18e9bac53770"},"vehicle_type_id":"4","last_reported":1720883266,"current_range_meters":24000,"station_id":"ce4bhch2rcd13ifvqeug","pricing_plan_id":"cebpf4jnsgd1na2vs0mg"},{"bike_id":"75a0ec2e-be39-4008-b0ed-dfaa4ae7e43e","system_id":"levelo_inurba_marseille","lat":43.28615,"lon":5.35106,"is_reserved":false,"is_disabled":false,"rental_uris":{"android":"levelo://app?vid=75a0ec2e-be39-4008-b0ed-dfaa4ae7e43e","ios":"levelo://app?vid=75a0ec2e-be39-4008-b0ed-dfaa4ae7e43e"},"vehicle_type_id":"4","last_reported":1720883266,"current_range_meters":8400,"station_id":"ce4bhch2rcd13ifvqeug","pricing_plan_id":"cebpf4jnsgd1na2vs0mg"},{"bike_id":"6cd6964f-95fc-4210-83f9-63307f8fe8b0","system_id":"levelo_inurba_marseille","lat":43.28614,"lon":5.35109,"is_reserved":false,"is_disabled":false,"rental_uris":{"android":"levelo://app?vid=6cd6964f-95fc-4210-83f9-63307f8fe8b0","ios":"levelo://app?vid=6cd6964f-95fc-4210-83f9-63307f8fe8b0"},"vehicle_type_id":"4","last_reported":1720883266,"current_range_meters":24000,"station_id":"ce4bhch2rcd13ifvqeug","pricing_plan_id":"cebpf4jnsgd1na2vs0mg"},{"bike_id":"dbfc893f-2881-41fc-be1d-c73b1d94379f","system_id":"levelo_inurba_marseille","lat":43.286151,"lon":5.351054,"is_reserved":false,"is_disabled":false,"rental_uris":{"android":"levelo://app?vid=dbfc893f-2881-41fc-be1d-c73b1d94379f","ios":"levelo://app?vid=dbfc893f-2881-41fc-be1d-c73b1d94379f"},"vehicle_type_id":"4","last_reported":1720883266,"current_range_meters":25200,"station_id":"ce4bhch2rcd13ifvqeug","pricing_plan_id":"cebpf4jnsgd1na2vs0mg"},{"bike_id":"c51bcaf8-3fec-484a-ab4d-ef278e673c37","system_id":"levelo_inurba_marseille","lat":43.28616,"lon":5.35101,"is_reserved":false,"is_disabled":false,"rental_uris":{"android":"levelo://app?vid=c51bcaf8-3fec-484a-ab4d-ef278e673c37","ios":"levelo://app?vid=c51bcaf8-3fec-484a-ab4d-ef278e673c37"},"vehicle_type_id":"4","last_reported":1720883266,"current_range_meters":11600,"station_id":"ce4bhch2rcd13ifvqeug","pricing_plan_id":"cebpf4jnsgd1na2vs0mg"},{"bike_id":"ff46b0e8-3ef5-4e3a-b0ef-59afbc7a72a7","system_id":"levelo_inurba_marseille","lat":43.28615,"lon":5.35104,"is_reserved":false,"is_disabled":false,"rental_uris":{"android":"levelo://app?vid=ff46b0e8-3ef5-4e3a-b0ef-59afbc7a72a7","ios":"levelo://app?vid=ff46b0e8-3ef5-4e3a-b0ef-59afbc7a72a7"},"vehicle_type_id":"4","last_reported":1720883266,"current_range_meters":22400,"station_id":"ce4bhch2rcd13ifvqeug","pricing_plan_id":"cebpf4jnsgd1na2vs0mg"},{"bike_id":"b6748c6a-19d9-4043-b39f-4563a235b7fa","system_id":"levelo_inurba_marseille","lat":43.285856,"lon":5.350771,"is_reserved":false,"is_disabled":false,"rental_uris":{"android":"levelo://app?vid=b6748c6a-19d9-4043-b39f-4563a235b7fa","ios":"levelo://app?vid=b6748c6a-19d9-4043-b39f-4563a235b7fa"},"vehicle_type_id":"4","last_reported":1720883266,"current_range_meters":22400,"station_id":"ce4bhch2rcd13ifvqeug","pricing_plan_id":"cebpf4jnsgd1na2vs0mg"},{"bike_id":"632ec864-3f47-48b8-8d0b-63fa8fcb2ceb","system_id":"levelo_inurba_marseille","lat":43.28616,"lon":5.351,"is_reserved":false,"is_disabled":false,"rental_uris":{"android":"levelo://app?vid=632ec864-3f47-48b8-8d0b-63fa8fcb2ceb","ios":"levelo://app?vid=632ec864-3f47-48b8-8d0b-63fa8fcb2ceb"},"vehicle_type_id":"4","last_reported":1720883266,"current_range_meters":8000,"station_id":"ce4bhch2rcd13ifvqeug","pricing_plan_id":"cebpf4jnsgd1na2vs0mg"},{"bike_id":"3ae6e488-17bd-475c-844f-af92f7291c6d","system_id":"levelo_inurba_marseille","lat":43.28616,"lon":5.35099,"is_reserved":false,"is_disabled":false,"rental_uris":{"android":"levelo://app?vid=3ae6e488-17bd-475c-844f-af92f7291c6d","ios":"levelo://app?vid=3ae6e488-17bd-475c-844f-af92f7291c6d"},"vehicle_type_id":"4","last_reported":1720883266,"current_range_meters":29600,"station_id":"ce4bhch2rcd13ifvqeug","pricing_plan_id":"cebpf4jnsgd1na2vs0mg"},{"bike_id":"797988f1-e071-4e91-9a4a-0c909d71aaf9","system_id":"levelo_inurba_marseille","lat":43.28614,"lon":5.35105,"is_reserved":false,"is_disabled":false,"rental_uris":{"android":"levelo://app?vid=797988f1-e071-4e91-9a4a-0c909d71aaf9","ios":"levelo://app?vid=797988f1-e071-4e91-9a4a-0c909d71aaf9"},"vehicle_type_id":"4","last_reported":1720883266,"current_range_meters":21600,"station_id":"ce4bhch2rcd13ifvqeug","pricing_plan_id":"cebpf4jnsgd1na2vs0mg"},{"bike_id":"5af3d5c4-d965-4614-851f-9efdcbad7bea","system_id":"levelo_inurba_marseille","lat":43.28614,"lon":5.35104,"is_reserved":false,"is_disabled":false,"rental_uris":{"android":"levelo://app?vid=5af3d5c4-d965-4614-851f-9efdcbad7bea","ios":"levelo://app?vid=5af3d5c4-d965-4614-851f-9efdcbad7bea"},"vehicle_type_id":"4","last_reported":1720883266,"current_range_meters":22000,"station_id":"ce4bhch2rcd13ifvqeug","pricing_plan_id":"cebpf4jnsgd1na2vs0mg"},{"bike_id":"d7656174-b8d5-4180-8cae-433cbf0ff5f9","system_id":"levelo_inurba_marseille","lat":43.28613,"lon":5.35103,"is_reserved":false,"is_disabled":false,"rental_uris":{"android":"levelo://app?vid=d7656174-b8d5-4180-8cae-433cbf0ff5f9","ios":"levelo://app?vid=d7656174-b8d5-4180-8cae-433cbf0ff5f9"},"vehicle_type_id":"4","last_reported":1720883266,"current_range_meters":8800,"station_id":"ce4bhch2rcd13ifvqeug","pricing_plan_id":"cebpf4jnsgd1na2vs0mg"},{"bike_id":"602e6a52-8d03-4039-93a1-07598c7f9ba2","system_id":"levelo_inurba_marseille","lat":43.285848,"lon":5.350787,"is_reserved":false,"is_disabled":false,"rental_uris":{"android":"levelo://app?vid=602e6a52-8d03-4039-93a1-07598c7f9ba2","ios":"levelo://app?vid=602e6a52-8d03-4039-93a1-07598c7f9ba2"},"vehicle_type_id":"4","last_reported":1720883266,"current_range_meters":20800,"station_id":"ce4bhch2rcd13ifvqeug","pricing_plan_id":"cebpf4jnsgd1na2vs0mg"},{"bike_id":"fa718340-6e17-40e0-b78c-d25af835652f","system_id":"levelo_inurba_marseille","lat":43.28613,"lon":5.35101,"is_reserved":false,"is_disabled":false,"rental_uris":{"android":"levelo://app?vid=fa718340-6e17-40e0-b78c-d25af835652f","ios":"levelo://app?vid=fa718340-6e17-40e0-b78c-d25af835652f"},"vehicle_type_id":"4","last_reported":1720883266,"current_range_meters":19200,"station_id":"ce4bhch2rcd13ifvqeug","pricing_plan_id":"cebpf4jnsgd1na2vs0mg"},{"bike_id":"62ff2fa5-5bc9-40f0-844f-f4a98cf6c2b1","system_id":"levelo_inurba_marseille","lat":43.28614,"lon":5.35095,"is_reserved":false,"is_disabled":false,"rental_uris":{"android":"levelo://app?vid=62ff2fa5-5bc9-40f0-844f-f4a98cf6c2b1","ios":"levelo://app?vid=62ff2fa5-5bc9-40f0-844f-f4a98cf6c2b1"},"vehicle_type_id":"4","last_reported":1720883266,"current_range_meters":8000,"station_id":"ce4bhch2rcd13ifvqeug","pricing_plan_id":"cebpf4jnsgd1na2vs0mg"},{"bike_id":"b482a51f-5828-40cc-bf99-4582e41a2671","system_id":"levelo_inurba_marseille","lat":43.28612,"lon":5.35098,"is_reserved":false,"is_disabled":false,"rental_uris":{"android":"levelo://app?vid=b482a51f-5828-40cc-bf99-4582e41a2671","ios":"levelo://app?vid=b482a51f-5828-40cc-bf99-4582e41a2671"},"vehicle_type_id":"4","last_reported":1720883266,"current_range_meters":22400,"station_id":"ce4bhch2rcd13ifvqeug","pricing_plan_id":"cebpf4jnsgd1na2vs0mg"},{"bike_id":"bb7c8c5c-fd6a-4774-b74e-c6d25147bbdb","system_id":"levelo_inurba_marseille","lat":43.28608,"lon":5.35102,"is_reserved":false,"is_disabled":false,"rental_uris":{"android":"levelo://app?vid=bb7c8c5c-fd6a-4774-b74e-c6d25147bbdb","ios":"levelo://app?vid=bb7c8c5c-fd6a-4774-b74e-c6d25147bbdb"},"vehicle_type_id":"4","last_reported":1720883266,"current_range_meters":21600,"station_id":"ce4bhch2rcd13ifvqeug","pricing_plan_id":"cebpf4jnsgd1na2vs0mg"},{"bike_id":"897323fa-278a-426c-ae40-2f672a7c0870","system_id":"levelo_inurba_marseille","lat":43.283998,"lon":5.375062,"is_reserved":false,"is_disabled":false,"rental_uris":{"android":"levelo://app?vid=897323fa-278a-426c-ae40-2f672a7c0870","ios":"levelo://app?vid=897323fa-278a-426c-ae40-2f672a7c0870"},"vehicle_type_id":"4","last_reported":1720883266,"current_range_meters":26400,"station_id":"ce4bh412rcd13ifvqds0","pricing_plan_id":"cebpf4jnsgd1na2vs0mg"},{"bike_id":"52f339ef-ee44-4bdd-9142-b05eecff5d8c","system_id":"levelo_inurba_marseille","lat":43.297457,"lon":5.401173,"is_reserved":false,"is_disabled":false,"rental_uris":{"android":"levelo://app?vid=52f339ef-ee44-4bdd-9142-b05eecff5d8c","ios":"levelo://app?vid=52f339ef-ee44-4bdd-9142-b05eecff5d8c"},"vehicle_type_id":"4","last_reported":1720883266,"current_range_meters":1200,"station_id":"","pricing_plan_id":"cebpf4jnsgd1na2vs0mg"},{"bike_id":"bff2ca15-0050-4f2d-841a-c08120cbbb2e","system_id":"levelo_inurba_marseille","lat":43.283998,"lon":5.375062,"is_reserved":false,"is_disabled":false,"rental_uris":{"android":"levelo://app?vid=bff2ca15-0050-4f2d-841a-c08120cbbb2e","ios":"levelo://app?vid=bff2ca15-0050-4f2d-841a-c08120cbbb2e"},"vehicle_type_id":"4","last_reported":1720883266,"current_range_meters":12800,"station_id":"ce4bh412rcd13ifvqds0","pricing_plan_id":"cebpf4jnsgd1na2vs0mg"},{"bike_id":"a2bbdcc3-d868-42e9-928b-76bfab191120","system_id":"levelo_inurba_marseille","lat":43.33714,"lon":5.39179,"is_reserved":false,"is_disabled":false,"rental_uris":{"android":"levelo://app?vid=a2bbdcc3-d868-42e9-928b-76bfab191120","ios":"levelo://app?vid=a2bbdcc3-d868-42e9-928b-76bfab191120"},"vehicle_type_id":"4","last_reported":1720883266,"current_range_meters":26400,"station_id":"ce4bhr92rcd13ifvqhsg","pricing_plan_id":"cebpf4jnsgd1na2vs0mg"},{"bike_id":"9e16efa1-7b75-4a51-80bc-66347fd4b9d5","system_id":"levelo_inurba_marseille","lat":43.33721,"lon":5.39176,"is_reserved":false,"is_disabled":false,"rental_uris":{"android":"levelo://app?vid=9e16efa1-7b75-4a51-80bc-66347fd4b9d5","ios":"levelo://app?vid=9e16efa1-7b75-4a51-80bc-66347fd4b9d5"},"vehicle_type_id":"4","last_reported":1720883266,"current_range_meters":21600,"station_id":"ce4bhr92rcd13ifvqhsg","pricing_plan_id":"cebpf4jnsgd1na2vs0mg"},{"bike_id":"4ec247a6-b3aa-49db-9c98-ef76772d358c","system_id":"levelo_inurba_marseille","lat":43.337185,"lon":5.39181,"is_reserved":false,"is_disabled":false,"rental_uris":{"android":"levelo://app?vid=4ec247a6-b3aa-49db-9c98-ef76772d358c","ios":"levelo://app?vid=4ec247a6-b3aa-49db-9c98-ef76772d358c"},"vehicle_type_id":"4","last_reported":1720883266,"current_range_meters":30000,"station_id":"ce4bhr92rcd13ifvqhsg","pricing_plan_id":"cebpf4jnsgd1na2vs0mg"},{"bike_id":"bda92222-c4a7-4f4c-84d7-7c0c36baf9ce","system_id":"levelo_inurba_marseille","lat":43.323464,"lon":5.406297,"is_reserved":false,"is_disabled":false,"rental_uris":{"android":"levelo://app?vid=bda92222-c4a7-4f4c-84d7-7c0c36baf9ce","ios":"levelo://app?vid=bda92222-c4a7-4f4c-84d7-7c0c36baf9ce"},"vehicle_type_id":"4","last_reported":1720883266,"current_range_meters":25600,"station_id":"ce4bhq92rcd13ifvqhjg","pricing_plan_id":"cebpf4jnsgd1na2vs0mg"},{"bike_id":"21e4ef63-0a9d-476f-b956-f659d25c40c2","system_id":"levelo_inurba_marseille","lat":43.33722,"lon":5.3918,"is_reserved":false,"is_disabled":false,"rental_uris":{"android":"levelo://app?vid=21e4ef63-0a9d-476f-b956-f659d25c40c2","ios":"levelo://app?vid=21e4ef63-0a9d-476f-b956-f659d25c40c2"},"vehicle_type_id":"4","last_reported":1720883266,"current_range_meters":5600,"station_id":"ce4bhr92rcd13ifvqhsg","pricing_plan_id":"cebpf4jnsgd1na2vs0mg"},{"bike_id":"2d940ee5-88e2-47e7-becf-8a2178e98459","system_id":"levelo_inurba_marseille","lat":43.33717,"lon":5.391857,"is_reserved":false,"is_disabled":false,"rental_uris":{"android":"levelo://app?vid=2d940ee5-88e2-47e7-becf-8a2178e98459","ios":"levelo://app?vid=2d940ee5-88e2-47e7-becf-8a2178e98459"},"vehicle_type_id":"4","last_reported":1720883266,"current_range_meters":21600,"station_id":"ce4bhr92rcd13ifvqhsg","pricing_plan_id":"cebpf4jnsgd1na2vs0mg"},{"bike_id":"da75fa16-20ce-4e4a-afcf-f2a1678095c5","system_id":"levelo_inurba_marseille","lat":43.33722,"lon":5.39188,"is_reserved":false,"is_disabled":false,"rental_uris":{"android":"levelo://app?vid=da75fa16-20ce-4e4a-afcf-f2a1678095c5","ios":"levelo://app?vid=da75fa16-20ce-4e4a-afcf-f2a1678095c5"},"vehicle_type_id":"4","last_reported":1720883266,"current_range_meters":23600,"station_id":"ce4bhr92rcd13ifvqhsg","pricing_plan_id":"cebpf4jnsgd1na2vs0mg"},{"bike_id":"2f9eeeac-76e8-4385-bc95-c4fdafc2b3f8","system_id":"levelo_inurba_marseille","lat":43.33722,"lon":5.39191,"is_reserved":false,"is_disabled":false,"rental_uris":{"android":"levelo://app?vid=2f9eeeac-76e8-4385-bc95-c4fdafc2b3f8","ios":"levelo://app?vid=2f9eeeac-76e8-4385-bc95-c4fdafc2b3f8"},"vehicle_type_id":"4","last_reported":1720883266,"current_range_meters":18400,"station_id":"ce4bhr92rcd13ifvqhsg","pricing_plan_id":"cebpf4jnsgd1na2vs0mg"},{"bike_id":"bcfcd402-fe96-4917-ae58-ae3467ffddc2","system_id":"levelo_inurba_marseille","lat":43.32336,"lon":5.40621,"is_reserved":false,"is_disabled":false,"rental_uris":{"android":"levelo://app?vid=bcfcd402-fe96-4917-ae58-ae3467ffddc2","ios":"levelo://app?vid=bcfcd402-fe96-4917-ae58-ae3467ffddc2"},"vehicle_type_id":"4","last_reported":1720883266,"current_range_meters":11600,"station_id":"ce4bhq92rcd13ifvqhjg","pricing_plan_id":"cebpf4jnsgd1na2vs0mg"},{"bike_id":"41493b50-9e67-4456-a659-731e6b362bcf","system_id":"levelo_inurba_marseille","lat":43.337272,"lon":5.391843,"is_reserved":false,"is_disabled":false,"rental_uris":{"android":"levelo://app?vid=41493b50-9e67-4456-a659-731e6b362bcf","ios":"levelo://app?vid=41493b50-9e67-4456-a659-731e6b362bcf"},"vehicle_type_id":"4","last_reported":1720883266,"current_range_meters":13600,"station_id":"ce4bhr92rcd13ifvqhsg","pricing_plan_id":"cebpf4jnsgd1na2vs0mg"},{"bike_id":"75f15957-952d-4258-9ed9-fc0dc4a18f40","system_id":"levelo_inurba_marseille","lat":43.32347,"lon":5.40626,"is_reserved":false,"is_disabled":false,"rental_uris":{"android":"levelo://app?vid=75f15957-952d-4258-9ed9-fc0dc4a18f40","ios":"levelo://app?vid=75f15957-952d-4258-9ed9-fc0dc4a18f40"},"vehicle_type_id":"4","last_reported":1720883266,"current_range_meters":800,"station_id":"ce4bhq92rcd13ifvqhjg","pricing_plan_id":"cebpf4jnsgd1na2vs0mg"},{"bike_id":"b4345683-f089-4724-9bf8-8595d0cdce27","system_id":"levelo_inurba_marseille","lat":43.2848,"lon":5.38422,"is_reserved":false,"is_disabled":false,"rental_uris":{"android":"levelo://app?vid=b4345683-f089-4724-9bf8-8595d0cdce27","ios":"levelo://app?vid=b4345683-f089-4724-9bf8-8595d0cdce27"},"vehicle_type_id":"4","last_reported":1720883266,"current_range_meters":0,"station_id":"ce4bh512rcd13ifvqe3g","pricing_plan_id":"cebpf4jnsgd1na2vs0mg"},{"bike_id":"fbf1cbb3-2710-4fb7-bbc5-658d6ec95088","system_id":"levelo_inurba_marseille","lat":43.297946,"lon":5.404063,"is_reserved":false,"is_disabled":false,"rental_uris":{"android":"levelo://app?vid=fbf1cbb3-2710-4fb7-bbc5-658d6ec95088","ios":"levelo://app?vid=fbf1cbb3-2710-4fb7-bbc5-658d6ec95088"},"vehicle_type_id":"4","last_reported":1720883266,"current_range_meters":2400,"station_id":"ce4bh112rcd13ifvqd90","pricing_plan_id":"cebpf4jnsgd1na2vs0mg"},{"bike_id":"b7a2a01d-4aba-4ccc-becf-03f776a01bfe","system_id":"levelo_inurba_marseille","lat":43.283494,"lon":5.380945,"is_reserved":false,"is_disabled":false,"rental_uris":{"android":"levelo://app?vid=b7a2a01d-4aba-4ccc-becf-03f776a01bfe","ios":"levelo://app?vid=b7a2a01d-4aba-4ccc-becf-03f776a01bfe"},"vehicle_type_id":"4","last_reported":1720883266,"current_range_meters":13600,"station_id":"ce4bh412rcd13ifvqdr0","pricing_plan_id":"cebpf4jnsgd1na2vs0mg"},{"bike_id":"77a5e9e1-781a-443d-8b3b-d48b185eb546","system_id":"levelo_inurba_marseille","lat":43.284219,"lon":5.3497,"is_reserved":false,"is_disabled":false,"rental_uris":{"android":"levelo://app?vid=77a5e9e1-781a-443d-8b3b-d48b185eb546","ios":"levelo://app?vid=77a5e9e1-781a-443d-8b3b-d48b185eb546"},"vehicle_type_id":"4","last_reported":1720883266,"current_range_meters":23200,"station_id":"ce4bhbh2rcd13ifvqepg","pricing_plan_id":"cebpf4jnsgd1na2vs0mg"},{"bike_id":"d5098bc1-ffec-4f9f-b597-98519619d24e","system_id":"levelo_inurba_marseille","lat":43.28428,"lon":5.34997,"is_reserved":false,"is_disabled":false,"rental_uris":{"android":"levelo://app?vid=d5098bc1-ffec-4f9f-b597-98519619d24e","ios":"levelo://app?vid=d5098bc1-ffec-4f9f-b597-98519619d24e"},"vehicle_type_id":"4","last_reported":1720883266,"current_range_meters":23600,"station_id":"ce4bhbh2rcd13ifvqepg","pricing_plan_id":"cebpf4jnsgd1na2vs0mg"},{"bike_id":"3466969d-f649-44da-bdf4-fea40566b897","system_id":"levelo_inurba_marseille","lat":43.283498,"lon":5.380948,"is_reserved":false,"is_disabled":false,"rental_uris":{"android":"levelo://app?vid=3466969d-f649-44da-bdf4-fea40566b897","ios":"levelo://app?vid=3466969d-f649-44da-bdf4-fea40566b897"},"vehicle_type_id":"4","last_reported":1720883266,"current_range_meters":19600,"station_id":"ce4bh412rcd13ifvqdr0","pricing_plan_id":"cebpf4jnsgd1na2vs0mg"},{"bike_id":"02c87a90-898f-4d5c-a988-48ef2aa6b608","system_id":"levelo_inurba_marseille","lat":43.2842,"lon":5.35006,"is_reserved":false,"is_disabled":false,"rental_uris":{"android":"levelo://app?vid=02c87a90-898f-4d5c-a988-48ef2aa6b608","ios":"levelo://app?vid=02c87a90-898f-4d5c-a988-48ef2aa6b608"},"vehicle_type_id":"4","last_reported":1720883266,"current_range_meters":26400,"station_id":"ce4bhbh2rcd13ifvqepg","pricing_plan_id":"cebpf4jnsgd1na2vs0mg"},{"bike_id":"b6b8e71a-3a74-44df-a646-2cdc5a86df71","system_id":"levelo_inurba_marseille","lat":43.28425,"lon":5.34988,"is_reserved":false,"is_disabled":false,"rental_uris":{"android":"levelo://app?vid=b6b8e71a-3a74-44df-a646-2cdc5a86df71","ios":"levelo://app?vid=b6b8e71a-3a74-44df-a646-2cdc5a86df71"},"vehicle_type_id":"4","last_reported":1720883266,"current_range_meters":400,"station_id":"ce4bhbh2rcd13ifvqepg","pricing_plan_id":"cebpf4jnsgd1na2vs0mg"},{"bike_id":"a62642c4-2c17-4a62-a8d5-92f64c202c0e","system_id":"levelo_inurba_marseille","lat":43.284219,"lon":5.3497,"is_reserved":false,"is_disabled":false,"rental_uris":{"android":"levelo://app?vid=a62642c4-2c17-4a62-a8d5-92f64c202c0e","ios":"levelo://app?vid=a62642c4-2c17-4a62-a8d5-92f64c202c0e"},"vehicle_type_id":"4","last_reported":1720883266,"current_range_meters":4400,"station_id":"ce4bhbh2rcd13ifvqepg","pricing_plan_id":"cebpf4jnsgd1na2vs0mg"},{"bike_id":"ab6dc498-9d8a-4de7-800d-d0c1d8196430","system_id":"levelo_inurba_marseille","lat":43.28422,"lon":5.34997,"is_reserved":false,"is_disabled":false,"rental_uris":{"android":"levelo://app?vid=ab6dc498-9d8a-4de7-800d-d0c1d8196430","ios":"levelo://app?vid=ab6dc498-9d8a-4de7-800d-d0c1d8196430"},"vehicle_type_id":"4","last_reported":1720883266,"current_range_meters":15200,"station_id":"ce4bhbh2rcd13ifvqepg","pricing_plan_id":"cebpf4jnsgd1na2vs0mg"},{"bike_id":"0338eed8-a554-4a98-b85a-55b6a069e13a","system_id":"levelo_inurba_marseille","lat":43.284171,"lon":5.350102,"is_reserved":false,"is_disabled":false,"rental_uris":{"android":"levelo://app?vid=0338eed8-a554-4a98-b85a-55b6a069e13a","ios":"levelo://app?vid=0338eed8-a554-4a98-b85a-55b6a069e13a"},"vehicle_type_id":"4","last_reported":1720883266,"current_range_meters":24400,"station_id":"ce4bhbh2rcd13ifvqepg","pricing_plan_id":"cebpf4jnsgd1na2vs0mg"},{"bike_id":"61cf8450-7a3a-4a09-803a-b320a271c126","system_id":"levelo_inurba_marseille","lat":43.284214,"lon":5.349706,"is_reserved":false,"is_disabled":false,"rental_uris":{"android":"levelo://app?vid=61cf8450-7a3a-4a09-803a-b320a271c126","ios":"levelo://app?vid=61cf8450-7a3a-4a09-803a-b320a271c126"},"vehicle_type_id":"4","last_reported":1720883266,"current_range_meters":12400,"station_id":"ce4bhbh2rcd13ifvqepg","pricing_plan_id":"cebpf4jnsgd1na2vs0mg"},{"bike_id":"7cd5d741-1a75-4a4f-9ecb-4e6086576534","system_id":"levelo_inurba_marseille","lat":43.284214,"lon":5.349706,"is_reserved":false,"is_disabled":false,"rental_uris":{"android":"levelo://app?vid=7cd5d741-1a75-4a4f-9ecb-4e6086576534","ios":"levelo://app?vid=7cd5d741-1a75-4a4f-9ecb-4e6086576534"},"vehicle_type_id":"4","last_reported":1720883266,"current_range_meters":20000,"station_id":"ce4bhbh2rcd13ifvqepg","pricing_plan_id":"cebpf4jnsgd1na2vs0mg"},{"bike_id":"dc23d3ec-cf71-4b51-9f93-7f90152a7a9f","system_id":"levelo_inurba_marseille","lat":43.284219,"lon":5.3497,"is_reserved":false,"is_disabled":false,"rental_uris":{"android":"levelo://app?vid=dc23d3ec-cf71-4b51-9f93-7f90152a7a9f","ios":"levelo://app?vid=dc23d3ec-cf71-4b51-9f93-7f90152a7a9f"},"vehicle_type_id":"4","last_reported":1720883266,"current_range_meters":22800,"station_id":"ce4bhbh2rcd13ifvqepg","pricing_plan_id":"cebpf4jnsgd1na2vs0mg"},