{"last_updated":1724519276,"ttl":30,"version":"2.2","data":{"bikes":[{"bike_id":"0c72db77-31e3-473f-8b60-6e706f380ce0","system_id":"levelo_inurba_marseille","lat":43.312037,"lon":5.368863,"is_reserved":false,"is_disabled":false,"rental_uris":{"android":"levelo://app?vid=0c72db77-31e3-473f-8b60-6e706f380ce0","ios":"levelo://app?vid=0c72db77-31e3-473f-8b60-6e706f380ce0"},"vehicle_type_id":"4","last_reported":1724519276,"current_range_meters":20800,"station_id":"ce4bgl92rcd13ifvqbq0","pricing_plan_id":"cebpf4jnsgd1na2vs0mg"},{"bike_id":"67fab574-08f2-444d-953e-d48667ded45f","system_id":"levelo_inurba_marseille","lat":43.309076,"lon":5.368465,"is_reserved":false,"is_disabled":false,"rental_uris":{"android":"levelo://app?vid=67fab574-08f2-444d-953e-d48667ded45f","ios":"levelo://app?vid=67fab574-08f2-444d-953e-d48667ded45f"},"vehicle_type_id":"4","last_reported":1724519276,"current_range_meters":11600,"station_id":"ce4bgn92rcd13ifvqbvg","pricing_plan_id":"cebpf4jnsgd1na2vs0mg"},{"bike_id":"ad031880-0fa0-4c4f-aeee-6603cd11ff5e","system_id":"levelo_inurba_marseille","lat":43.309076,"lon":5.368465,"is_reserved":false,"is_disabled":false,"rental_uris":{"android":"levelo://app?vid=ad031880-0fa0-4c4f-aeee-6603cd11ff5e","ios":"levelo://app?vid=ad031880-0fa0-4c4f-aeee-6603cd11ff5e"},"vehicle_type_id":"4","last_reported":1724519276,"current_range_meters":31200,"station_id":"ce4bgn92rcd13ifvqbvg","pricing_plan_id":"cebpf4jnsgd1na2vs0mg"},{"bike_id":"6dd875c0-f9e3-4008-8f32-9f07fbdb080b","system_id":"levelo_inurba_marseille","lat":43.30904,"lon":5.37203,"is_reserved":false,"is_disabled":false,"rental_uris":{"android":"levelo://app?vid=6dd875c0-f9e3-4008-8f32-9f07fbdb080b","ios":"levelo://app?vid=6dd875c0-f9e3-4008-8f32-9f07fbdb080b"},"vehicle_type_id":"4","last_reported":1724519276,"current_range_meters":31200,"station_id":"ce4bguh2rcd13ifvqckg","pricing_plan_id":"cebpf4jnsgd1na2vs0mg"},{"bike_id":"81f35442-4af2-413f-801c-fa38503826bb","system_id":"levelo_inurba_marseille","lat":43.309039,"lon":5.371797,"is_reserved":false,"is_disabled":false,"rental_uris":{"android":"levelo://app?vid=81f35442-4af2-413f-801c-fa38503826bb","ios":"levelo://app?vid=81f35442-4af2-413f-801c-fa38503826bb"},"vehicle_type_id":"4","last_reported":1724519276,"current_range_meters":16000,"station_id":"ce4bguh2rcd13ifvqckg","pricing_plan_id":"cebpf4jnsgd1na2vs0mg"},{"bike_id":"5a50be66-2101-4250-b501-8bb6779de340","system_id":"levelo_inurba_marseille","lat":43.309039,"lon":5.371797,"is_reserved":false,"is_disabled":false,"rental_uris":{"android":"levelo://app?vid=5a50be66-2101-4250-b501-8bb6779de340","ios":"levelo://app?vid=5a50be66-2101-4250-b501-8bb6779de340"},"vehicle_type_id":"4","last_reported":1724519276,"current_range_meters":14800,"station_id":"ce4bguh2rcd13ifvqckg","pricing_plan_id":"cebpf4jnsgd1na2vs0mg"},{"bike_id":"1e5f8512-fc8e-4f64-b268-077123e85fe7","system_id":"levelo_inurba_marseille","lat":43.309034,"lon":5.371783,"is_reserved":false,"is_disabled":false,"rental_uris":{"android":"levelo://app?vid=1e5f8512-fc8e-4f64-b268-077123e85fe7","ios":"levelo://app?vid=1e5f8512-fc8e-4f64-b268-077123e85fe7"},"vehicle_type_id":"4","last_reported":1724519276,"current_range_meters":31200,"station_id":"ce4bguh2rcd13ifvqckg","pricing_plan_id":"cebpf4jnsgd1na2vs0mg"},{"bike_id":"0c1b0844-6978-4bb5-8262-788be2c0886c","system_id":"levelo_inurba_marseille","lat":43.305714,"lon":5.365633,"is_reserved":false,"is_disabled":false,"rental_uris":{"android":"levelo://app?vid=0c1b0844-6978-4bb5-8262-788be2c0886c","ios":"levelo://app?vid=0c1b0844-6978-4bb5-8262-788be2c0886c"},"vehicle_type_id":"4","last_reported":1724519276,"current_range_meters":0,"station_id":"ce4bgs12rcd13ifvqcag","pricing_plan_id":"cebpf4jnsgd1na2vs0mg"},{"bike_id":"103156da-694f-48c2-b4ec-ca125ea799d0","system_id":"levelo_inurba_marseille","lat":43.305706,"lon":5.365654,"is_reserved":false,"is_disabled":false,"rental_uris":{"android":"levelo://app?vid=103156da-694f-48c2-b4ec-ca125ea799d0","ios":"levelo://app?vid=103156da-694f-48c2-b4ec-ca125ea799d0"},"vehicle_type_id":"4","last_reported":1724519276,"current_range_meters":30400,"station_id":"ce4bgs12rcd13ifvqcag","pricing_plan_id":"cebpf4jnsgd1na2vs0mg"},{"bike_id":"7d489fd2-8454-4604-9ac0-e11f0244b286","system_id":"levelo_inurba_marseille","lat":43.305706,"lon":5.365654,"is_reserved":false,"is_disabled":false,"rental_uris":{"android":"levelo://app?vid=7d489fd2-8454-4604-9ac0-e11f0244b286","ios":"levelo://app?vid=7d489fd2-8454-4604-9ac0-e11f0244b286"},"vehicle_type_id":"4","last_reported":1724519276,"current_range_meters":21600,"station_id":"ce4bgs12rcd13ifvqcag","pricing_plan_id":"cebpf4jnsgd1na2vs0mg"},{"bike_id":"08c70b0d-b8f0-4782-abef-ab77567b8308","system_id":"levelo_inurba_marseille","lat":43.311131,"lon":5.377651,"is_reserved":false,"is_disabled":false,"rental_uris":{"android":"levelo://app?vid=08c70b0d-b8f0-4782-abef-ab77567b8308","ios":"levelo://app?vid=08c70b0d-b8f0-4782-abef-ab77567b8308"},"vehicle_type_id":"4","last_reported":1724519276,"current_range_meters":11600,"station_id":"ce4bgt92rcd13ifvqcg0","pricing_plan_id":"cebpf4jnsgd1na2vs0mg"},{"bike_id":"ddace2ad-c757-406e-9847-24c94c401343","system_id":"levelo_inurba_marseille","lat":43.311131,"lon":5.377651,"is_reserved":false,"is_disabled":false,"rental_uris":{"android":"levelo://app?vid=ddace2ad-c757-406e-9847-24c94c401343","ios":"levelo://app?vid=ddace2ad-c757-406e-9847-24c94c401343"},"vehicle_type_id":"4","last_reported":1724519276,"current_range_meters":21600,"station_id":"ce4bgt92rcd13ifvqcg0","pricing_plan_id":"cebpf4jnsgd1na2vs0mg"},{"bike_id":"b51ddf70-7433-4f0a-b11d-f181cffc9303","system_id":"levelo_inurba_marseille","lat":43.311131,"lon":5.377651,"is_reserved":false,"is_disabled":false,"rental_uris":{"android":"levelo://app?vid=b51ddf70-7433-4f0a-b11d-f181cffc9303","ios":"levelo://app?vid=b51ddf70-7433-4f0a-b11d-f181cffc9303"},"vehicle_type_id":"4","last_reported":1724519276,"current_range_meters":13600,"station_id":"ce4bgt92rcd13ifvqcg0","pricing_plan_id":"cebpf4jnsgd1na2vs0mg"},{"bike_id":"fa1e153a-2a36-400b-ade4-ae12b0685909","system_id":"levelo_inurba_marseille","lat":43.307945,"lon":5.376487,"is_reserved":false,"is_disabled":false,"rental_uris":{"android":"levelo://app?vid=fa1e153a-2a36-400b-ade4-ae12b0685909","ios":"levelo://app?vid=fa1e153a-2a36-400b-ade4-ae12b0685909"},"vehicle_type_id":"4","last_reported":1724519276,"current_range_meters":800,"station_id":"ce4bgv92rcd13ifvqcq0","pricing_plan_id":"cebpf4jnsgd1na2vs0mg"},{"bike_id":"bbfeb65f-cc7e-4aeb-a049-de65c34fc40b","system_id":"levelo_inurba_marseille","lat":43.307945,"lon":5.376487,"is_reserved":false,"is_disabled":false,"rental_uris":{"android":"levelo://app?vid=bbfeb65f-cc7e-4aeb-a049-de65c34fc40b","ios":"levelo://app?vid=bbfeb65f-cc7e-4aeb-a049-de65c34fc40b"},"vehicle_type_id":"4","last_reported":1724519276,"current_range_meters":31200,"station_id":"ce4bgv92rcd13ifvqcq0","pricing_plan_id":"cebpf4jnsgd1na2vs0mg"},{"bike_id":"fae875ca-e061-483a-8b4b-5bdd15fd4153","system_id":"levelo_inurba_marseille","lat":43.317075,"lon":5.377367,"is_reserved":false,"is_disabled":false,"rental_uris":{"android":"levelo://app?vid=fae875ca-e061-483a-8b4b-5bdd15fd4153","ios":"levelo://app?vid=fae875ca-e061-483a-8b4b-5bdd15fd4153"},"vehicle_type_id":"4","last_reported":1724519276,"current_range_meters":10800,"station_id":"ce4bgth2rcd13ifvqch0","pricing_plan_id":"cebpf4jnsgd1na2vs0mg"},{"bike_id":"50655841-6c6e-409c-941a-f23f03199de3","system_id":"levelo_inurba_marseille","lat":43.30304,"lon":5.368987,"is_reserved":false,"is_disabled":false,"rental_uris":{"android":"levelo://app?vid=50655841-6c6e-409c-941a-f23f03199de3","ios":"levelo://app?vid=50655841-6c6e-409c-941a-f23f03199de3"},"vehicle_type_id":"4","last_reported":1724519276,"current_range_meters":14000,"station_id":"ce4bgqh2rcd13ifvqc5g","pricing_plan_id":"cebpf4jnsgd1na2vs0mg"},{"bike_id":"cb3c6c72-206d-41c0-94c9-ed42133ad88f","system_id":"levelo_inurba_marseille","lat":43.30301,"lon":5.36881,"is_reserved":false,"is_disabled":false,"rental_uris":{"android":"levelo://app?vid=cb3c6c72-206d-41c0-94c9-ed42133ad88f","ios":"levelo://app?vid=cb3c6c72-206d-41c0-94c9-ed42133ad88f"},"vehicle_type_id":"4","last_reported":1724519276,"current_range_meters":5600,"station_id":"ce4bgqh2rcd13ifvqc5g","pricing_plan_id":"cebpf4jnsgd1na2vs0mg"},{"bike_id":"fa957dd4-3ab2-4085-a165-a3dd72b93491","system_id":"levelo_inurba_marseille","lat":43.315289,"lon":5.380349,"is_reserved":false,"is_disabled":false,"rental_uris":{"android":"levelo://app?vid=fa957dd4-3ab2-4085-a165-a3dd72b93491","ios":"levelo://app?vid=fa957dd4-3ab2-4085-a165-a3dd72b93491"},"vehicle_type_id":"4","last_reported":1724519276,"current_range_meters":22000,"station_id":"ce4bhsp2rcd13ifvqi50","pricing_plan_id":"cebpf4jnsgd1na2vs0mg"},{"bike_id":"afca101a-6d0a-4ba4-8640-0fce435b6f8b","system_id":"levelo_inurba_marseille","lat":43.301939,"lon":5.366286,"is_reserved":false,"is_disabled":false,"rental_uris":{"android":"levelo://app?vid=afca101a-6d0a-4ba4-8640-0fce435b6f8b","ios":"levelo://app?vid=afca101a-6d0a-4ba4-8640-0fce435b6f8b"},"vehicle_type_id":"4","last_reported":1724519276,"current_range_meters":8000,"station_id":"ce4bgrh2rcd13ifvqc8g","pricing_plan_id":"cebpf4jnsgd1na2vs0mg"},{"bike_id":"effaba11-4fd3-49e9-a7e0-4fcdf856669e","system_id":"levelo_inurba_marseille","lat":43.301939,"lon":5.366286,"is_reserved":false,"is_disabled":false,"rental_uris":{"android":"levelo://app?vid=effaba11-4fd3-49e9-a7e0-4fcdf856669e","ios":"levelo://app?vid=effaba11-4fd3-49e9-a7e0-4fcdf856669e"},"vehicle_type_id":"4","last_reported":1724519276,"current_range_meters":14800,"station_id":"ce4bgrh2rcd13ifvqc8g","pricing_plan_id":"cebpf4jnsgd1na2vs0mg"},{"bike_id":"f8d793ce-92c7-477d-a639-7070f463d2c4","system_id":"levelo_inurba_marseille","lat":43.307955,"lon":5.381535,"is_reserved":false,"is_disabled":false,"rental_uris":{"android":"levelo://app?vid=f8d793ce-92c7-477d-a639-7070f463d2c4","ios":"levelo://app?vid=f8d793ce-92c7-477d-a639-7070f463d2c4"},"vehicle_type_id":"4","last_reported":1724519276,"current_range_meters":0,"station_id":"ce4bgt12rcd13ifvqce0","pricing_plan_id":"cebpf4jnsgd1na2vs0mg"},{"bike_id":"6600f459-fcd0-4297-8526-40cb0f19a590","system_id":"levelo_inurba_marseille","lat":43.308012,"lon":5.381511,"is_reserved":false,"is_disabled":false,"rental_uris":{"android":"levelo://app?vid=6600f459-fcd0-4297-8526-40cb0f19a590","ios":"levelo://app?vid=6600f459-fcd0-4297-8526-40cb0f19a590"},"vehicle_type_id":"4","last_reported":1724519276,"current_range_meters":12400,"station_id":"ce4bgt12rcd13ifvqce0","pricing_plan_id":"cebpf4jnsgd1na2vs0mg"},{"bike_id":"ae95873f-f14f-4d35-b942-fa940c80daab","system_id":"levelo_inurba_marseille","lat":43.32476,"lon":5.36573,"is_reserved":false,"is_disabled":false,"rental_uris":{"android":"levelo://app?vid=ae95873f-f14f-4d35-b942-fa940c80daab","ios":"levelo://app?vid=ae95873f-f14f-4d35-b942-fa940c80daab"},"vehicle_type_id":"4","last_reported":1724519276,"current_range_meters":12800,"station_id":"ce4bhs12rcd13ifvqhvg","pricing_plan_id":"cebpf4jnsgd1na2vs0mg"},{"bike_id":"4cc2080c-2720-43e9-a55a-8550022b2885","system_id":"levelo_inurba_marseille","lat":43.32485,"lon":5.36583,"is_reserved":false,"is_disabled":false,"rental_uris":{"android":"levelo://app?vid=4cc2080c-2720-43e9-a55a-8550022b2885","ios":"levelo://app?vid=4cc2080c-2720-43e9-a55a-8550022b2885"},"vehicle_type_id":"4","last_reported":1724519276,"current_range_meters":9200,"station_id":"ce4bhs12rcd13ifvqhvg","pricing_plan_id":"cebpf4jnsgd1na2vs0mg"},{"bike_id":"4b068ad2-1221-4476-9487-2b7eb5619d8a","system_id":"levelo_inurba_marseille","lat":43.31366,"lon":5.38364,"is_reserved":false,"is_disabled":false,"rental_uris":{"android":"levelo://app?vid=4b068ad2-1221-4476-9487-2b7eb5619d8a","ios":"levelo://app?vid=4b068ad2-1221-4476-9487-2b7eb5619d8a"},"vehicle_type_id":"4","last_reported":1724519276,"current_range_meters":4800,"station_id":"","pricing_plan_id":"cebpf4jnsgd1na2vs0mg"},{"bike_id":"a2e06d42-592e-4db2-a269-46e739e27b67","system_id":"levelo_inurba_marseille","lat":43.30268,"lon":5.37698,"is_reserved":false,"is_disabled":false,"rental_uris":{"android":"levelo://app?vid=a2e06d42-592e-4db2-a269-46e739e27b67","ios":"levelo://app?vid=a2e06d42-592e-4db2-a269-46e739e27b67"},"vehicle_type_id":"4","last_reported":1724519276,"current_range_meters":800,"station_id":"ce4bguh2rcd13ifvqcj0","pricing_plan_id":"cebpf4jnsgd1na2vs0mg"},{"bike_id":"ddfbc639-14ae-43dc-8520-c245e087cb07","system_id":"levelo_inurba_marseille","lat":43.319935,"lon":5.381699,"is_reserved":false,"is_disabled":false,"rental_uris":{"android":"levelo://app?vid=ddfbc639-14ae-43dc-8520-c245e087cb07","ios":"levelo://app?vid=ddfbc639-14ae-43dc-8520-c245e087cb07"},"vehicle_type_id":"4","last_reported":1724519276,"current_range_meters":7200,"station_id":"ce4bhr12rcd13ifvqhpg","pricing_plan_id":"cebpf4jnsgd1na2vs0mg"},{"bike_id":"2df781d1-2642-41fd-becd-85d66da66ebb","system_id":"levelo_inurba_marseille","lat":43.319935,"lon":5.381699,"is_reserved":false,"is_disabled":false,"rental_uris":{"android":"levelo://app?vid=2df781d1-2642-41fd-becd-85d66da66ebb","ios":"levelo://app?vid=2df781d1-2642-41fd-becd-85d66da66ebb"},"vehicle_type_id":"4","last_reported":1724519276,"current_range_meters":21600,"station_id":"ce4bhr12rcd13ifvqhpg","pricing_plan_id":"cebpf4jnsgd1na2vs0mg"},{"bike_id":"8ebb43ee-b5b7-4a4e-9d42-85b159c50b66","system_id":"levelo_inurba_marseille","lat":43.313571,"lon":5.384829,"is_reserved":false,"is_disabled":false,"rental_uris":{"android":"levelo://app?vid=8ebb43ee-b5b7-4a4e-9d42-85b159c50b66","ios":"levelo://app?vid=8ebb43ee-b5b7-4a4e-9d42-85b159c50b66"},"vehicle_type_id":"4","last_reported":1724519276,"current_range_meters":10800,"station_id":"ce4bgt92rcd13ifvqcf0","pricing_plan_id":"cebpf4jnsgd1na2vs0mg"},{"bike_id":"9b5dbbaa-9bae-4e2e-b7bf-3c48cfccf533","system_id":"levelo_inurba_marseille","lat":43.299222,"lon":5.365554,"is_reserved":false,"is_disabled":false,"rental_uris":{"android":"levelo://app?vid=9b5dbbaa-9bae-4e2e-b7bf-3c48cfccf533","ios":"levelo://app?vid=9b5dbbaa-9bae-4e2e-b7bf-3c48cfccf533"},"vehicle_type_id":"4","last_reported":1724519276,"current_range_meters":10000,"station_id":"ce4bgm92rcd13ifvqbr0","pricing_plan_id":"cebpf4jnsgd1na2vs0mg"},{"bike_id":"2a0d00fc-28cf-43f3-ad89-72d5f4db4ce6","system_id":"levelo_inurba_marseille","lat":43.299222,"lon":5.365554,"is_reserved":false,"is_disabled":false,"rental_uris":{"android":"levelo://app?vid=2a0d00fc-28cf-43f3-ad89-72d5f4db4ce6","ios":"levelo://app?vid=2a0d00fc-28cf-43f3-ad89-72d5f4db4ce6"},"vehicle_type_id":"4","last_reported":1724519276,"current_range_meters":22800,"station_id":"ce4bgm92rcd13ifvqbr0","pricing_plan_id":"cebpf4jnsgd1na2vs0mg"},{"bike_id":"50a2620b-1095-4251-954b-8e85d4a3cd85","system_id":"levelo_inurba_marseille","lat":43.299209,"lon":5.365547,"is_reserved":false,"is_disabled":false,"rental_uris":{"android":"levelo://app?vid=50a2620b-1095-4251-954b-8e85d4a3cd85","ios":"levelo://app?vid=50a2620b-1095-4251-954b-8e85d4a3cd85"},"vehicle_type_id":"4","last_reported":1724519276,"current_range_meters":0,"station_id":"ce4bgm92rcd13ifvqbr0","pricing_plan_id":"cebpf4jnsgd1na2vs0mg"},{"bike_id":"4eaf6191-7fc6-469b-8384-3d908024bce1","system_id":"levelo_inurba_marseille","lat":43.299243,"lon":5.374807,"is_reserved":false,"is_disabled":false,"rental_uris":{"android":"levelo://app?vid=4eaf6191-7fc6-469b-8384-3d908024bce1","ios":"levelo://app?vid=4eaf6191-7fc6-469b-8384-3d908024bce1"},"vehicle_type_id":"4","last_reported":1724519276,"current_range_meters":4400,"station_id":"ce4bgjh2rcd13ifvqbg0","pricing_plan_id":"cebpf4jnsgd1na2vs0mg"},{"bike_id":"1a6a8d49-fea8-4e56-acf2-b790bf50b636","system_id":"levelo_inurba_marseille","lat":43.299243,"lon":5.374807,"is_reserved":false,"is_disabled":false,"rental_uris":{"android":"levelo://app?vid=1a6a8d49-fea8-4e56-acf2-b790bf50b636","ios":"levelo://app?vid=1a6a8d49-fea8-4e56-acf2-b790bf50b636"},"vehicle_type_id":"4","last_reported":1724519276,"current_range_meters":16000,"station_id":"ce4bgjh2rcd13ifvqbg0","pricing_plan_id":"cebpf4jnsgd1na2vs0mg"},{"bike_id":"aaa587a4-8ce7-409f-8272-7b41556f9ef9","system_id":"levelo_inurba_marseille","lat":43.301417,"lon":5.3809,"is_reserved":false,"is_disabled":false,"rental_uris":{"android":"levelo://app?vid=aaa587a4-8ce7-409f-8272-7b41556f9ef9","ios":"levelo://app?vid=aaa587a4-8ce7-409f-8272-7b41556f9ef9"},"vehicle_type_id":"4","last_reported":1724519276,"current_range_meters":10000,"station_id":"ce4bgjp2rcd13ifvqbh0","pricing_plan_id":"cebpf4jnsgd1na2vs0mg"},{"bike_id":"90a89904-ef14-4e6f-b23b-4a123157a5b1","system_id":"levelo_inurba_marseille","lat":43.297774,"lon":5.370875,"is_reserved":false,"is_disabled":false,"rental_uris":{"android":"levelo://app?vid=90a89904-ef14-4e6f-b23b-4a123157a5b1","ios":"levelo://app?vid=90a89904-ef14-4e6f-b23b-4a123157a5b1"},"vehicle_type_id":"4","last_reported":1724519276,"current_range_meters":7600,"station_id":"ce4bgop2rcd13ifvqc1g","pricing_plan_id":"cebpf4jnsgd1na2vs0mg"},{"bike_id":"6c693304-fd97-404d-bdf6-ddd956ebccf2","system_id":"levelo_inurba_marseille","lat":43.297774,"lon":5.370875,"is_reserved":false,"is_disabled":false,"rental_uris":{"android":"levelo://app?vid=6c693304-fd97-404d-bdf6-ddd956ebccf2","ios":"levelo://app?vid=6c693304-fd97-404d-bdf6-ddd956ebccf2"},"vehicle_type_id":"4","last_reported":1724519276,"current_range_meters":22400,"station_id":"ce4bgop2rcd13ifvqc1g","pricing_plan_id":"cebpf4jnsgd1na2vs0mg"},{"bike_id":"43637faa-bc57-4af9-9031-ccf7137dafc6","system_id":"levelo_inurba_marseille","lat":43.32292,"lon":5.38258,"is_reserved":false,"is_disabled":false,"rental_uris":{"android":"levelo://app?vid=43637faa-bc57-4af9-9031-ccf7137dafc6","ios":"levelo://app?vid=43637faa-bc57-4af9-9031-ccf7137dafc6"},"vehicle_type_id":"4","last_reported":1724519276,"current_range_meters":23200,"station_id":"ce4bhr12rcd13ifvqhqg","pricing_plan_id":"cebpf4jnsgd1na2vs0mg"},{"bike_id":"b57510ea-927b-4a56-bc65-6200c8a1e5b8","system_id":"levelo_inurba_marseille","lat":43.301417,"lon":5.3809,"is_reserved":false,"is_disabled":false,"rental_uris":{"android":"levelo://app?vid=b57510ea-927b-4a56-bc65-6200c8a1e5b8","ios":"levelo://app?vid=b57510ea-927b-4a56-bc65-6200c8a1e5b8"},"vehicle_type_id":"4","last_reported":1724519276,"current_range_meters":24800,"station_id":"ce4bgjp2rcd13ifvqbh0","pricing_plan_id":"cebpf4jnsgd1na2vs0mg"},{"bike_id":"d091e620-479f-4509-b64a-476644be2de3","system_id":"levelo_inurba_marseille","lat":43.29705,"lon":5.36606,"is_reserved":false,"is_disabled":false,"rental_uris":{"android":"levelo://app?vid=d091e620-479f-4509-b64a-476644be2de3","ios":"levelo://app?vid=d091e620-479f-4509-b64a-476644be2de3"},"vehicle_type_id":"4","last_reported":1724519276,"current_range_meters":0,"station_id":"ce4bgn12rcd13ifvqbt0","pricing_plan_id":"cebpf4jnsgd1na2vs0mg"},{"bike_id":"ec2a6953-2f9a-4403-9804-17cf36aa3dcb","system_id":"levelo_inurba_marseille","lat":43.296131,"lon":5.370791,"is_reserved":false,"is_disabled":false,"rental_uris":{"android":"levelo://app?vid=ec2a6953-2f9a-4403-9804-17cf36aa3dcb","ios":"levelo://app?vid=ec2a6953-2f9a-4403-9804-17cf36aa3dcb"},"vehicle_type_id":"4","last_reported":1724519276,"current_range_meters":14000,"station_id":"ce4bgnh2rcd13ifvqc0g","pricing_plan_id":"cebpf4jnsgd1na2vs0mg"},{"bike_id":"787deb9c-b548-4c85-97a7-9e61df1d7bfe","system_id":"levelo_inurba_marseille","lat":43.296131,"lon":5.370791,"is_reserved":false,"is_disabled":false,"rental_uris":{"android":"levelo://app?vid=787deb9c-b548-4c85-97a7-9e61df1d7bfe","ios":"levelo://app?vid=787deb9c-b548-4c85-97a7-9e61df1d7bfe"},"vehicle_type_id":"4","last_reported":1724519276,"current_range_meters":5600,"station_id":"ce4bgnh2rcd13ifvqc0g","pricing_plan_id":"cebpf4jnsgd1na2vs0mg"},{"bike_id":"c708d9af-9ff6-483e-a3b6-5044d29cd732","system_id":"levelo_inurba_marseille","lat":43.296131,"lon":5.370773,"is_reserved":false,"is_disabled":false,"rental_uris":{"android":"levelo://app?vid=c708d9af-9ff6-483e-a3b6-5044d29cd732","ios":"levelo://app?vid=c708d9af-9ff6-483e-a3b6-5044d29cd732"},"vehicle_type_id":"4","last_reported":1724519276,"current_range_meters":16800,"station_id":"ce4bgnh2rcd13ifvqc0g","pricing_plan_id":"cebpf4jnsgd1na2vs0mg"},{"bike_id":"8ceba862-5ae8-428f-a829-bd6398957c17","system_id":"levelo_inurba_marseille","lat":43.296131,"lon":5.370791,"is_reserved":false,"is_disabled":false,"rental_uris":{"android":"levelo://app?vid=8ceba862-5ae8-428f-a829-bd6398957c17","ios":"levelo://app?vid=8ceba862-5ae8-428f-a829-bd6398957c17"},"vehicle_type_id":"4","last_reported":1724519276,"current_range_meters":800,"station_id":"ce4bgnh2rcd13ifvqc0g","pricing_plan_id":"cebpf4jnsgd1na2vs0mg"},{"bike_id":"6dedd9f0-1a74-4f18-9b1f-655403d72c34","system_id":"levelo_inurba_marseille","lat":43.29584,"lon":5.36745,"is_reserved":false,"is_disabled":false,"rental_uris":{"android":"levelo://app?vid=6dedd9f0-1a74-4f18-9b1f-655403d72c34","ios":"levelo://app?vid=6dedd9f0-1a74-4f18-9b1f-655403d72c34"},"vehicle_type_id":"4","last_reported":1724519276,"current_range_meters":0,"station_id":"","pricing_plan_id":"cebpf4jnsgd1na2vs0mg"},{"bike_id":"632c70e8-9810-40e1-b12e-c25b87a7f1a0","system_id":"levelo_inurba_marseille","lat":43.295833,"lon":5.367363,"is_reserved":false,"is_disabled":false,"rental_uris":{"android":"levelo://app?vid=632c70e8-9810-40e1-b12e-c25b87a7f1a0","ios":"levelo://app?vid=632c70e8-9810-40e1-b12e-c25b87a7f1a0"},"vehicle_type_id":"4","last_reported":1724519276,"current_range_meters":6000,"station_id":"ce4bgph2rcd13ifvqc2g","pricing_plan_id":"cebpf4jnsgd1na2vs0mg"},{"bike_id":"4232986f-8213-4cbe-b32f-d38f2ac8b0c1","system_id":"levelo_inurba_marseille","lat":43.29583,"lon":5.36741,"is_reserved":false,"is_disabled":false,"rental_uris":{"android":"levelo://app?vid=4232986f-8213-4cbe-b32f-d38f2ac8b0c1","ios":"levelo://app?vid=4232986f-8213-4cbe-b32f-d38f2ac8b0c1"},"vehicle_type_id":"4","last_reported":1724519276,"current_range_meters":0,"station_id":"ce4bgph2rcd13ifvqc2g","pricing_plan_id":"cebpf4jnsgd1na2vs0mg"},{"bike_id":"2b56f4fd-e5aa-4976-8f2a-7fb192cc2762","system_id":"levelo_inurba_marseille","lat":43.29573,"lon":5.367355,"is_reserved":false,"is_disabled":false,"rental_uris":{"android":"levelo://app?vid=2b56f4fd-e5aa-4976-8f2a-7fb192cc2762","ios":"levelo://app?vid=2b56f4fd-e5aa-4976-8f2a-7fb192cc2762"},"vehicle_type_id":"4","last_reported":1724519276,"current_range_meters":31200,"station_id":"ce4bgph2rcd13ifvqc2g","pricing_plan_id":"cebpf4jnsgd1na2vs0mg"},{"bike_id":"0f80e4a7-dd24-4bcb-898e-d82ea20cfec9","system_id":"levelo_inurba_marseille","lat":43.2963,"lon":5.36031,"is_reserved":false,"is_disabled":false,"rental_uris":{"android":"levelo://app?vid=0f80e4a7-dd24-4bcb-898e-d82ea20cfec9","ios":"levelo://app?vid=0f80e4a7-dd24-4bcb-898e-d82ea20cfec9"},"vehicle_type_id":"4","last_reported":1724519276,"current_range_meters":3600,"station_id":"","pricing_plan_id":"cebpf4jnsgd1na2vs0mg"},{"bike_id":"22afd103-a0e3-4248-99db-5df739a28b85","system_id":"levelo_inurba_marseille","lat":43.309589,"lon":5.390258,"is_reserved":false,"is_disabled":false,"rental_uris":{"android":"levelo://app?vid=22afd103-a0e3-4248-99db-5df739a28b85","ios":"levelo://app?vid=22afd103-a0e3-4248-99db-5df739a28b85"},"vehicle_type_id":"4","last_reported":1724519276,"current_range_meters":23600,"station_id":"ce4bgup2rcd13ifvqco0","pricing_plan_id":"cebpf4jnsgd1na2vs0mg"},{"bike_id":"ed3486dd-4123-4f9d-b986-c2fa4108eec6","system_id":"levelo_inurba_marseille","lat":43.309589,"lon":5.390258,"is_reserved":false,"is_disabled":false,"rental_uris":{"android":"levelo://app?vid=ed3486dd-4123-4f9d-b986-c2fa4108eec6","ios":"levelo://app?vid=ed3486dd-4123-4f9d-b986-c2fa4108eec6"},"vehicle_type_id":"4","last_reported":1724519276,"current_range_meters":15600,"station_id":"ce4bgup2rcd13ifvqco0","pricing_plan_id":"cebpf4jnsgd1na2vs0mg"},{"bike_id":"5cfb6c75-0844-43d1-b5aa-9c3e7a7e5cba","system_id":"levelo_inurba_marseille","lat":43.309589,"lon":5.390258,"is_reserved":false,"is_disabled":false,"rental_uris":{"android":"levelo://app?vid=5cfb6c75-0844-43d1-b5aa-9c3e7a7e5cba","ios":"levelo://app?vid=5cfb6c75-0844-43d1-b5aa-9c3e7a7e5cba"},"vehicle_type_id":"4","last_reported":1724519276,"current_range_meters":30000,"station_id":"ce4bgup2rcd13ifvqco0","pricing_plan_id":"cebpf4jnsgd1na2vs0mg"},{"bike_id":"7279b04a-37fa-4d7b-883b-296b5256b4ee","system_id":"levelo_inurba_marseille","lat":43.309589,"lon":5.390258,"is_reserved":false,"is_disabled":false,"rental_uris":{"android":"levelo://app?vid=7279b04a-37fa-4d7b-883b-296b5256b4ee","ios":"levelo://app?vid=7279b04a-37fa-4d7b-883b-296b5256b4ee"},"vehicle_type_id":"4","last_reported":1724519276,"current_range_meters":9200,"station_id":"ce4bgup2rcd13ifvqco0","pricing_plan_id":"cebpf4jnsgd1na2vs0mg"},{"bike_id":"8bdcf7d9-1a24-45dd-ae2f-290a4a0793b5","system_id":"levelo_inurba_marseille","lat":43.295748,"lon":5.37522,"is_reserved":false,"is_disabled":false,"rental_uris":{"android":"levelo://app?vid=8bdcf7d9-1a24-45dd-ae2f-290a4a0793b5","ios":"levelo://app?vid=8bdcf7d9-1a24-45dd-ae2f-290a4a0793b5"},"vehicle_type_id":"4","last_reported":1724519276,"current_range_meters":19600,"station_id":"ce4bgh92rcd13ifvqb50","pricing_plan_id":"cebpf4jnsgd1na2vs0mg"},{"bike_id":"efee86fe-19e7-4645-beca-c85f5af8221f","system_id":"levelo_inurba_marseille","lat":43.30435,"lon":5.38891,"is_reserved":false,"is_disabled":false,"rental_uris":{"android":"levelo://app?vid=efee86fe-19e7-4645-beca-c85f5af8221f","ios":"levelo://app?vid=efee86fe-19e7-4645-beca-c85f5af8221f"},"vehicle_type_id":"4","last_reported":1724519276,"current_range_meters":2800,"station_id":"ce4bgk12rcd13ifvqbi0","pricing_plan_id":"cebpf4jnsgd1na2vs0mg"},{"bike_id":"82c95b18-f263-4125-887e-164fbcbf0328","system_id":"levelo_inurba_marseille","lat":43.295748,"lon":5.37522,"is_reserved":false,"is_disabled":false,"rental_uris":{"android":"levelo://app?vid=82c95b18-f263-4125-887e-164fbcbf0328","ios":"levelo://app?vid=82c95b18-f263-4125-887e-164fbcbf0328"},"vehicle_type_id":"4","last_reported":1724519276,"current_range_meters":800,"station_id":"ce4bgh92rcd13ifvqb50","pricing_plan_id":"cebpf4jnsgd1na2vs0mg"},{"bike_id":"e141cfc4-a64e-4a3f-ad80-83ab8346f09c","system_id":"levelo_inurba_marseille","lat":43.296277,"lon":5.377108,"is_reserved":false,"is_disabled":false,"rental_uris":{"android":"levelo://app?vid=e141cfc4-a64e-4a3f-ad80-83ab8346f09c","ios":"levelo://app?vid=e141cfc4-a64e-4a3f-ad80-83ab8346f09c"},"vehicle_type_id":"4","last_reported":1724519276,"current_range_meters":2800,"station_id":"ce4bgi92rcd13ifvqb90","pricing_plan_id":"cebpf4jnsgd1na2vs0mg"},{"bike_id":"c1448338-6554-47f0-a860-d01ef264607b","system_id":"levelo_inurba_marseille","lat":43.296263,"lon":5.377094,"is_reserved":false,"is_disabled":false,"rental_uris":{"android":"levelo://app?vid=c1448338-6554-47f0-a860-d01ef264607b","ios":"levelo://app?vid=c1448338-6554-47f0-a860-d01ef264607b"},"vehicle_type_id":"4","last_reported":1724519276,"current_range_meters":5200,"station_id":"ce4bgi92rcd13ifvqb90","pricing_plan_id":"cebpf4jnsgd1na2vs0mg"},{"bike_id":"4e19e06e-f7ef-45ec-89ab-550b7abd1bb7","system_id":"levelo_inurba_marseille","lat":43.295279,"lon":5.375048,"is_reserved":false,"is_disabled":false,"rental_uris":{"android":"levelo://app?vid=4e19e06e-f7ef-45ec-89ab-550b7abd1bb7","ios":"levelo://app?vid=4e19e06e-f7ef-45ec-89ab-550b7abd1bb7"},"vehicle_type_id":"4","last_reported":1724519276,"current_range_meters":19600,"station_id":"ce4bgkp2rcd13ifvqbmg","pricing_plan_id":"cebpf4jnsgd1na2vs0mg"},{"bike_id":"a654eb24-a224-4e2f-8f55-a5ca967f6314","system_id":"levelo_inurba_marseille","lat":43.295279,"lon":5.375048,"is_reserved":false,"is_disabled":false,"rental_uris":{"android":"levelo://app?vid=a654eb24-a224-4e2f-8f55-a5ca967f6314","ios":"levelo://app?vid=a654eb24-a224-4e2f-8f55-a5ca967f6314"},"vehicle_type_id":"4","last_reported":1724519276,"current_range_meters":12000,"station_id":"ce4bgkp2rcd13ifvqbmg","pricing_plan_id":"cebpf4jnsgd1na2vs0mg"},{"bike_id":"630e4bd1-0d7b-4736-aff9-022d0593ed86","system_id":"levelo_inurba_marseille","lat":43.295279,"lon":5.375048,"is_reserved":false,"is_disabled":false,"rental_uris":{"android":"levelo://app?vid=630e4bd1-0d7b-4736-aff9-022d0593ed86","ios":"levelo://app?vid=630e4bd1-0d7b-4736-aff9-022d0593ed86"},"vehicle_type_id":"4","last_reported":1724519276,"current_range_meters":15600,"station_id":"ce4bgkp2rcd13ifvqbmg","pricing_plan_id":"cebpf4jnsgd1na2vs0mg"},{"bike_id":"fdc79842-ecce-4dcf-8735-b1e02cd167c8","system_id":"levelo_inurba_marseille","lat":43.299707,"lon":5.384859,"is_reserved":false,"is_disabled":false,"rental_uris":{"android":"levelo://app?vid=fdc79842-ecce-4dcf-8735-b1e02cd167c8","ios":"levelo://app?vid=fdc79842-ecce-4dcf-8735-b1e02cd167c8"},"vehicle_type_id":"4","last_reported":1724519276,"current_range_meters":2000,"station_id":"ce4bgj92rcd13ifvqbd0","pricing_plan_id":"cebpf4jnsgd1na2vs0mg"},{"bike_id":"de1cc251-b799-4924-9a71-46f0c6f9f5d3","system_id":"levelo_inurba_marseille","lat":43.295279,"lon":5.375048,"is_reserved":false,"is_disabled":false,"rental_uris":{"android":"levelo://app?vid=de1cc251-b799-4924-9a71-46f0c6f9f5d3","ios":"levelo://app?vid=de1cc251-b799-4924-9a71-46f0c6f9f5d3"},"vehicle_type_id":"4","last_reported":1724519276,"current_range_meters":5200,"station_id":"ce4bgkp2rcd13ifvqbmg","pricing_plan_id":"cebpf4jnsgd1na2vs0mg"},{"bike_id":"5c599230-cbdc-4464-86b0-f6add978bc84","system_id":"levelo_inurba_marseille","lat":43.299707,"lon":5.384859,"is_reserved":false,"is_disabled":false,"rental_uris":{"android":"levelo://app?vid=5c599230-cbdc-4464-86b0-f6add978bc84","ios":"levelo://app?vid=5c599230-cbdc-4464-86b0-f6add978bc84"},"vehicle_type_id":"4","last_reported":1724519276,"current_range_meters":13200,"station_id":"ce4bgj92rcd13ifvqbd0","pricing_plan_id":"cebpf4jnsgd1na2vs0mg"},{"bike_id":"1dee523d-500b-4ae4-a599-2a40a78ec56e","system_id":"levelo_inurba_marseille","lat":43.299717,"lon":5.384845,"is_reserved":false,"is_disabled":false,"rental_uris":{"android":"levelo://app?vid=1dee523d-500b-4ae4-a599-2a40a78ec56e","ios":"levelo://app?vid=1dee523d-500b-4ae4-a599-2a40a78ec56e"},"vehicle_type_id":"4","last_reported":1724519276,"current_range_meters":14000,"station_id":"ce4bgj92rcd13ifvqbd0","pricing_plan_id":"cebpf4jnsgd1na2vs0mg"},{"bike_id":"301a82b5-5c13-472d-b847-33c8581775a3","system_id":"levelo_inurba_marseille","lat":43.299717,"lon":5.384845,"is_reserved":false,"is_disabled":false,"rental_uris":{"android":"levelo://app?vid=301a82b5-5c13-472d-b847-33c8581775a3","ios":"levelo://app?vid=301a82b5-5c13-472d-b847-33c8581775a3"},"vehicle_type_id":"4","last_reported":1724519276,"current_range_meters":5600,"station_id":"ce4bgj92rcd13ifvqbd0","pricing_plan_id":"cebpf4jnsgd1na2vs0mg"},{"bike_id":"6d3477c7-c49d-4510-b0c7-551421ec4454","system_id":"levelo_inurba_marseille","lat":43.30136,"lon":5.3878,"is_reserved":false,"is_disabled":false,"rental_uris":{"android":"levelo://app?vid=6d3477c7-c49d-4510-b0c7-551421ec4454","ios":"levelo://app?vid=6d3477c7-c49d-4510-b0c7-551421ec4454"},"vehicle_type_id":"4","last_reported":1724519276,"current_range_meters":0,"station_id":"ce4bghh2rcd13ifvqb60","pricing_plan_id":"cebpf4jnsgd1na2vs0mg"},{"bike_id":"2106186a-d803-41ff-b6df-35e831f7a45c","system_id":"levelo_inurba_marseille","lat":43.30145,"lon":5.38793,"is_reserved":false,"is_disabled":false,"rental_uris":{"android":"levelo://app?vid=2106186a-d803-41ff-b6df-35e831f7a45c","ios":"levelo://app?vid=2106186a-d803-41ff-b6df-35e831f7a45c"},"vehicle_type_id":"4","last_reported":1724519276,"current_range_meters":0,"station_id":"ce4bghh2rcd13ifvqb60","pricing_plan_id":"cebpf4jnsgd1na2vs0mg"},{"bike_id":"75bc9a4e-b36a-4ca3-9de9-f16fef10a7b4","system_id":"levelo_inurba_marseille","lat":43.29601,"lon":5.381084,"is_reserved":false,"is_disabled":false,"rental_uris":{"android":"levelo://app?vid=75bc9a4e-b36a-4ca3-9de9-f16fef10a7b4","ios":"levelo://app?vid=75bc9a4e-b36a-4ca3-9de9-f16fef10a7b4"},"vehicle_type_id":"4","last_reported":1724519276,"current_range_meters":0,"station_id":"ce4bgl12rcd13ifvqbo0","pricing_plan_id":"cebpf4jnsgd1na2vs0mg"},{"bike_id":"57c88610-7d5f-4b3e-b0d8-ef0c6ce6c6f0","system_id":"levelo_inurba_marseille","lat":43.293259,"lon":5.371586,"is_reserved":false,"is_disabled":false,"rental_uris":{"android":"levelo://app?vid=57c88610-7d5f-4b3e-b0d8-ef0c6ce6c6f0","ios":"levelo://app?vid=57c88610-7d5f-4b3e-b0d8-ef0c6ce6c6f0"},"vehicle_type_id":"4","last_reported":1724519276,"current_range_meters":0,"station_id":"ce4bgh92rcd13ifvqb40","pricing_plan_id":"cebpf4jnsgd1na2vs0mg"},{"bike_id":"26c47aaa-c26d-4f13-a83a-1413d2b97b26","system_id":"levelo_inurba_marseille","lat":43.293074,"lon":5.371802,"is_reserved":false,"is_disabled":false,"rental_uris":{"android":"levelo://app?vid=26c47aaa-c26d-4f13-a83a-1413d2b97b26","ios":"levelo://app?vid=26c47aaa-c26d-4f13-a83a-1413d2b97b26"},"vehicle_type_id":"4","last_reported":1724519276,"current_range_meters":0,"station_id":"ce4bgh92rcd13ifvqb40","pricing_plan_id":"cebpf4jnsgd1na2vs0mg"},{"bike_id":"b5a57dce-a999-437f-97dc-c2da6015fb4d","system_id":"levelo_inurba_marseille","lat":43.292749,"lon":5.368402,"is_reserved":false,"is_disabled":false,"rental_uris":{"android":"levelo://app?vid=b5a57dce-a999-437f-97dc-c2da6015fb4d","ios":"levelo://app?vid=b5a57dce-a999-437f-97dc-c2da6015fb4d"},"vehicle_type_id":"4","last_reported":1724519276,"current_range_meters":3600,"station_id":"ce4bhbp2rcd13ifvqesg","pricing_plan_id":"cebpf4jnsgd1na2vs0mg"},{"bike_id":"aeff89bd-f707-4e51-8b9a-cbfe3e1df601","system_id":"levelo_inurba_marseille","lat":43.29271,"lon":5.36842,"is_reserved":false,"is_disabled":false,"rental_uris":{"android":"levelo://app?vid=aeff89bd-f707-4e51-8b9a-cbfe3e1df601","ios":"levelo://app?vid=aeff89bd-f707-4e51-8b9a-cbfe3e1df601"},"vehicle_type_id":"4","last_reported":1724519276,"current_range_meters":20800,"station_id":"ce4bhbp2rcd13ifvqesg","pricing_plan_id":"cebpf4jnsgd1na2vs0mg"},{"bike_id":"96c9d351-080f-4129-9d6b-44e93ac74f4e","system_id":"levelo_inurba_marseille","lat":43.293249,"lon":5.371578,"is_reserved":false,"is_disabled":false,"rental_uris":{"android":"levelo://app?vid=96c9d351-080f-4129-9d6b-44e93ac74f4e","ios":"levelo://app?vid=96c9d351-080f-4129-9d6b-44e93ac74f4e"},"vehicle_type_id":"4","last_reported":1724519276,"current_range_meters":28000,"station_id":"ce4bgh92rcd13ifvqb40","pricing_plan_id":"cebpf4jnsgd1na2vs0mg"},{"bike_id":"83660d26-eace-4151-b5a8-6673abc0e41b","system_id":"levelo_inurba_marseille","lat":43.293009,"lon":5.374584,"is_reserved":false,"is_disabled":false,"rental_uris":{"android":"levelo://app?vid=83660d26-eace-4151-b5a8-6673abc0e41b","ios":"levelo://app?vid=83660d26-eace-4151-b5a8-6673abc0e41b"},"vehicle_type_id":"4","last_reported":1724519276,"current_range_meters":26400,"station_id":"ce4bgi12rcd13ifvqb70","pricing_plan_id":"cebpf4jnsgd1na2vs0mg"},{"bike_id":"59d1a129-3264-4e9c-ac54-16343d3cd25e","system_id":"levelo_inurba_marseille","lat":43.293009,"lon":5.374584,"is_reserved":false,"is_disabled":false,"rental_uris":{"android":"levelo://app?vid=59d1a129-3264-4e9c-ac54-16343d3cd25e","ios":"levelo://app?vid=59d1a129-3264-4e9c-ac54-16343d3cd25e"},"vehicle_type_id":"4","last_reported":1724519276,"current_range_meters":7200,"station_id":"ce4bgi12rcd13ifvqb70","pricing_plan_id":"cebpf4jnsgd1na2vs0mg"},{"bike_id":"bae4f09f-5dcd-43c2-ac1f-f67ab9b8cd3f","system_id":"levelo_inurba_marseille","lat":43.293009,"lon":5.374584,"is_reserved":false,"is_disabled":false,"rental_uris":{"android":"levelo://app?vid=bae4f09f-5dcd-43c2-ac1f-f67ab9b8cd3f","ios":"levelo://app?vid=bae4f09f-5dcd-43c2-ac1f-f67ab9b8cd3f"},"vehicle_type_id":"4","last_reported":1724519276,"current_range_meters":14800,"station_id":"ce4bgi12rcd13ifvqb70","pricing_plan_id":"cebpf4jnsgd1na2vs0mg"},{"bike_id":"2a1390e3-0a85-466b-ae46-a3656fc7d7cf","system_id":"levelo_inurba_marseille","lat":43.292277,"lon":5.369273,"is_reserved":false,"is_disabled":false,"rental_uris":{"android":"levelo://app?vid=2a1390e3-0a85-466b-ae46-a3656fc7d7cf","ios":"levelo://app?vid=2a1390e3-0a85-466b-ae46-a3656fc7d7cf"},"vehicle_type_id":"4","last_reported":1724519276,"current_range_meters":0,"station_id":"ce4bgop2rcd13ifvqc1g","pricing_plan_id":"cebpf4jnsgd1na2vs0mg"},{"bike_id":"7988633e-0039-4cd4-a1f8-104ca7efb30c","system_id":"levelo_inurba_marseille","lat":43.305994,"lon":5.393687,"is_reserved":false,"is_disabled":false,"rental_uris":{"android":"levelo://app?vid=7988633e-0039-4cd4-a1f8-104ca7efb30c","ios":"levelo://app?vid=7988633e-0039-4cd4-a1f8-104ca7efb30c"},"vehicle_type_id":"4","last_reported":1724519276,"current_range_meters":1600,"station_id":"ce4bh0p2rcd13ifvqd80","pricing_plan_id":"cebpf4jnsgd1na2vs0mg"},{"bike_id":"948eaa82-2f41-4bdb-9bab-749265eb4994","system_id":"levelo_inurba_marseille","lat":43.293009,"lon":5.374584,"is_reserved":false,"is_disabled":false,"rental_uris":{"android":"levelo://app?vid=948eaa82-2f41-4bdb-9bab-749265eb4994","ios":"levelo://app?vid=948eaa82-2f41-4bdb-9bab-749265eb4994"},"vehicle_type_id":"4","last_reported":1724519276,"current_range_meters":13200,"station_id":"ce4bgi12rcd13ifvqb70","pricing_plan_id":"cebpf4jnsgd1na2vs0mg"},{"bike_id":"005560f9-7efa-452e-8803-215c978c518c","system_id":"levelo_inurba_marseille","lat":43.303002,"lon":5.392142,"is_reserved":false,"is_disabled":false,"rental_uris":{"android":"levelo://app?vid=005560f9-7efa-452e-8803-215c978c518c","ios":"levelo://app?vid=005560f9-7efa-452e-8803-215c978c518c"},"vehicle_type_id":"4","last_reported":1724519276,"current_range_meters":25200,"station_id":"ce4bgkh2rcd13ifvqbk0","pricing_plan_id":"cebpf4jnsgd1na2vs0mg"},{"bike_id":"36866592-9e99-47d6-81a2-350c178aeeba","system_id":"levelo_inurba_marseille","lat":43.303002,"lon":5.392142,"is_reserved":false,"is_disabled":false,"rental_uris":{"android":"levelo://app?vid=36866592-9e99-47d6-81a2-350c178aeeba","ios":"levelo://app?vid=36866592-9e99-47d6-81a2-350c178aeeba"},"vehicle_type_id":"4","last_reported":1724519276,"current_range_meters":2000,"station_id":"ce4bgkh2rcd13ifvqbk0","pricing_plan_id":"cebpf4jnsgd1na2vs0mg"},{"bike_id":"9a99a0a9-691e-4755-8e17-416ab1da812f","system_id":"levelo_inurba_marseille","lat":43.29372,"lon":5.37842,"is_reserved":false,"is_disabled":false,"rental_uris":{"android":"levelo://app?vid=9a99a0a9-691e-4755-8e17-416ab1da812f","ios":"levelo://app?vid=9a99a0a9-691e-4755-8e17-416ab1da812f"},"vehicle_type_id":"4","last_reported":1724519276,"current_range_meters":0,"station_id":"ce4bgjh2rcd13ifvqbf0","pricing_plan_id":"cebpf4jnsgd1na2vs0mg"},{"bike_id":"f4722df3-2697-454a-852e-427ef73a4999","system_id":"levelo_inurba_marseille","lat":43.2936,"lon":5.37835,"is_reserved":false,"is_disabled":false,"rental_uris":{"android":"levelo://app?vid=f4722df3-2697-454a-852e-427ef73a4999","ios":"levelo://app?vid=f4722df3-2697-454a-852e-427ef73a4999"},"vehicle_type_id":"4","last_reported":1724519276,"current_range_meters":0,"station_id":"ce4bgjh2rcd13ifvqbf0","pricing_plan_id":"cebpf4jnsgd1na2vs0mg"},{"bike_id":"9954a2d7-1aa0-4355-84b6-ed4a68974c0e","system_id":"levelo_inurba_marseille","lat":43.29368,"lon":5.37854,"is_reserved":false,"is_disabled":false,"rental_uris":{"android":"levelo://app?vid=9954a2d7-1aa0-4355-84b6-ed4a68974c0e","ios":"levelo://app?vid=9954a2d7-1aa0-4355-84b6-ed4a68974c0e"},"vehicle_type_id":"4","last_reported":1724519276,"current_range_meters":9600,"station_id":"ce4bgjh2rcd13ifvqbf0","pricing_plan_id":"cebpf4jnsgd1na2vs0mg"},{"bike_id":"375df092-ee08-4c37-9b24-b266cedbd3d8","system_id":"levelo_inurba_marseille","lat":43.292311,"lon":5.360731,"is_reserved":false,"is_disabled":false,"rental_uris":{"android":"levelo://app?vid=375df092-ee08-4c37-9b24-b266cedbd3d8","ios":"levelo://app?vid=375df092-ee08-4c37-9b24-b266cedbd3d8"},"vehicle_type_id":"4","last_reported":1724519276,"current_range_meters":1600,"station_id":"ce4bhbh2rcd13ifvqeqg","pricing_plan_id":"cebpf4jnsgd1na2vs0mg"},{"bike_id":"f5d525ce-9752-44d6-919e-8439b4945176","system_id":"levelo_inurba_marseille","lat":43.292311,"lon":5.360731,"is_reserved":false,"is_disabled":false,"rental_uris":{"android":"levelo://app?vid=f5d525ce-9752-44d6-919e-8439b4945176","ios":"levelo://app?vid=f5d525ce-9752-44d6-919e-8439b4945176"},"vehicle_type_id":"4","last_reported":1724519276,"current_range_meters":26800,"station_id":"ce4bhbh2rcd13ifvqeqg","pricing_plan_id":"cebpf4jnsgd1na2vs0mg"},{"bike_id":"fbc2cd5a-a965-4d1a-9756-682d45751227","system_id":"levelo_inurba_marseille","lat":43.292287,"lon":5.360767,"is_reserved":false,"is_disabled":false,"rental_uris":{"android":"levelo://app?vid=fbc2cd5a-a965-4d1a-9756-682d45751227","ios":"levelo://app?vid=fbc2cd5a-a965-4d1a-9756-682d45751227"},"vehicle_type_id":"4","last_reported":1724519276,"current_range_meters":12000,"station_id":"ce4bhbh2rcd13ifvqeqg","pricing_plan_id":"cebpf4jnsgd1na2vs0mg"},{"bike_id":"14576c07-4e41-47a9-b7a1-ebdf01d5d07c","system_id":"levelo_inurba_marseille","lat":43.292311,"lon":5.360731,"is_reserved":false,"is_disabled":false,"rental_uris":{"android":"levelo://app?vid=14576c07-4e41-47a9-b7a1-ebdf01d5d07c","ios":"levelo://app?vid=14576c07-4e41-47a9-b7a1-ebdf01d5d07c"},"vehicle_type_id":"4","last_reported":1724519276,"current_range_meters":12800,"station_id":"ce4bhbh2rcd13ifvqeqg","pricing_plan_id":"cebpf4jnsgd1na2vs0mg"},{"bike_id":"ff9c1618-5968-4a01-a56d-9e1350de56c9","system_id":"levelo_inurba_marseille","lat":43.292311,"lon":5.360731,"is_reserved":false,"is_disabled":false,"rental_uris":{"android":"levelo://app?vid=ff9c1618-5968-4a01-a56d-9e1350de56c9","ios":"levelo://app?vid=ff9c1618-5968-4a01-a56d-9e1350de56c9"},"vehicle_type_id":"4","last_reported":1724519276,"current_range_meters":8400,"station_id":"ce4bhbh2rcd13ifvqeqg","pricing_plan_id":"cebpf4jnsgd1na2vs0mg"},{"bike_id":"1ba5b9e6-0141-471c-b63e-ac2f05cc952e","system_id":"levelo_inurba_marseille","lat":43.292311,"lon":5.360731,"is_reserved":false,"is_disabled":false,"rental_uris":{"android":"levelo://app?vid=1ba5b9e6-0141-471c-b63e-ac2f05cc952e","ios":"levelo://app?vid=1ba5b9e6-0141-471c-b63e-ac2f05cc952e"},"vehicle_type_id":"4","last_reported":1724519276,"current_range_meters":30400,"station_id":"ce4bhbh2rcd13ifvqeqg","pricing_plan_id":"cebpf4jnsgd1na2vs0mg"},{"bike_id":"239e01d7-c5c3-47c4-bff1-d6e83c30fb2a","system_id":"levelo_inurba_marseille","lat":43.292311,"lon":5.360731,"is_reserved":false,"is_disabled":false,"rental_uris":{"android":"levelo://app?vid=239e01d7-c5c3-47c4-bff1-d6e83c30fb2a","ios":"levelo://app?vid=239e01d7-c5c3-47c4-bff1-d6e83c30fb2a"},"vehicle_type_id":"4","last_reported":1724519276,"current_range_meters":20800,"station_id":"ce4bhbh2rcd13ifvqeqg","pricing_plan_id":"cebpf4jnsgd1na2vs0mg"},{"bike_id":"de3361e6-1ffe-4eef-aed3-5647a2cadb71","system_id":"levelo_inurba_marseille","lat":43.292311,"lon":5.360731,"is_reserved":false,"is_disabled":false,"rental_uris":{"android":"levelo://app?vid=de3361e6-1ffe-4eef-aed3-5647a2cadb71","ios":"levelo://app?vid=de3361e6-1ffe-4eef-aed3-5647a2cadb71"},"vehicle_type_id":"4","last_reported":1724519276,"current_range_meters":2800,"station_id":"ce4bhbh2rcd13ifvqeqg","pricing_plan_id":"cebpf4jnsgd1na2vs0mg"},{"bike_id":"48fd9fb6-c57a-46dd-8a8a-f47d6fa86942","system_id":"levelo_inurba_marseille","lat":43.292311,"lon":5.360731,"is_reserved":false,"is_disabled":false,"rental_uris":{"android":"levelo://app?vid=48fd9fb6-c57a-46dd-8a8a-f47d6fa86942","ios":"levelo://app?vid=48fd9fb6-c57a-46dd-8a8a-f47d6fa86942"},"vehicle_type_id":"4","last_reported":1724519276,"current_range_meters":21200,"station_id":"ce4bhbh2rcd13ifvqeqg","pricing_plan_id":"cebpf4jnsgd1na2vs0mg"},{"bike_id":"0b9bbaa6-bb87-4640-8a0f-c9821574537f","system_id":"levelo_inurba_marseille","lat":43.292311,"lon":5.360731,"is_reserved":false,"is_disabled":false,"rental_uris":{"android":"levelo://app?vid=0b9bbaa6-bb87-4640-8a0f-c9821574537f","ios":"levelo://app?vid=0b9bbaa6-bb87-4640-8a0f-c9821574537f"},"vehicle_type_id":"4","last_reported":1724519276,"current_range_meters":4800,"station_id":"ce4bhbh2rcd13ifvqeqg","pricing_plan_id":"cebpf4jnsgd1na2vs0mg"},{"bike_id":"1d7a4288-1c81-491c-b0af-2be532a6ce90","system_id":"levelo_inurba_marseille","lat":43.29224,"lon":5.36069,"is_reserved":false,"is_disabled":false,"rental_uris":{"android":"levelo://app?vid=1d7a4288-1c81-491c-b0af-2be532a6ce90","ios":"levelo://app?vid=1d7a4288-1c81-491c-b0af-2be532a6ce90"},"vehicle_type_id":"4","last_reported":1724519276,"current_range_meters":17600,"station_id":"ce4bhbh2rcd13ifvqeqg","pricing_plan_id":"cebpf4jnsgd1na2vs0mg"},{"bike_id":"e2e728c7-e6d9-42a1-bc78-dbf3fff94c34","system_id":"levelo_inurba_marseille","lat":43.29226,"lon":5.36052,"is_reserved":false,"is_disabled":false,"rental_uris":{"android":"levelo://app?vid=e2e728c7-e6d9-42a1-bc78-dbf3fff94c34","ios":"levelo://app?vid=e2e728c7-e6d9-42a1-bc78-dbf3fff94c34"},"vehicle_type_id":"4","last_reported":1724519276,"current_range_meters":20800,"station_id":"ce4bhbh2rcd13ifvqeqg","pricing_plan_id":"cebpf4jnsgd1na2vs0mg"},{"bike_id":"df71d292-5da7-4eb8-a5a8-64ee9cd1caa7","system_id":"levelo_inurba_marseille","lat":43.292311,"lon":5.360731,"is_reserved":false,"is_disabled":false,"rental_uris":{"android":"levelo://app?vid=df71d292-5da7-4eb8-a5a8-64ee9cd1caa7","ios":"levelo://app?vid=df71d292-5da7-4eb8-a5a8-64ee9cd1caa7"},"vehicle_type_id":"4","last_reported":1724519276,"current_range_meters":9600,"station_id":"ce4bhbh2rcd13ifvqeqg","pricing_plan_id":"cebpf4jnsgd1na2vs0mg"},{"bike_id":"f525ea06-7991-47f4-8b91-a3dd7d89df04","system_id":"levelo_inurba_marseille","lat":43.292237,"lon":5.360547,"is_reserved":false,"is_disabled":false,"rental_uris":{"android":"levelo://app?vid=f525ea06-7991-47f4-8b91-a3dd7d89df04","ios":"levelo://app?vid=f525ea06-7991-47f4-8b91-a3dd7d89df04"},"vehicle_type_id":"4","last_reported":1724519276,"current_range_meters":1200,"station_id":"ce4bhbh2rcd13ifvqeqg","pricing_plan_id":"cebpf4jnsgd1na2vs0mg"},{"bike_id":"72c61a00-d1b3-476f-a00e-0ade715e4515","system_id":"levelo_inurba_marseille","lat":43.29219,"lon":5.3608,"is_reserved":false,"is_disabled":false,"rental_uris":{"android":"levelo://app?vid=72c61a00-d1b3-476f-a00e-0ade715e4515","ios":"levelo://app?vid=72c61a00-d1b3-476f-a00e-0ade715e4515"},"vehicle_type_id":"4","last_reported":1724519276,"current_range_meters":5200,"station_id":"ce4bhbh2rcd13ifvqeqg","pricing_plan_id":"cebpf4jnsgd1na2vs0mg"},{"bike_id":"16efb021-d71e-416c-9d62-b436ed1230e4","system_id":"levelo_inurba_marseille","lat":43.292311,"lon":5.360731,"is_reserved":false,"is_disabled":false,"rental_uris":{"android":"levelo://app?vid=16efb021-d71e-416c-9d62-b436ed1230e4","ios":"levelo://app?vid=16efb021-d71e-416c-9d62-b436ed1230e4"},"vehicle_type_id":"4","last_reported":1724519276,"current_range_meters":19200,"station_id":"ce4bhbh2rcd13ifvqeqg","pricing_plan_id":"cebpf4jnsgd1na2vs0mg"},{"bike_id":"cc24c95c-5e5c-4b0d-8964-ed84b7d08391","system_id":"levelo_inurba_marseille","lat":43.292311,"lon":5.360731,"is_reserved":false,"is_disabled":false,"rental_uris":{"android":"levelo://app?vid=cc24c95c-5e5c-4b0d-8964-ed84b7d08391","ios":"levelo://app?vid=cc24c95c-5e5c-4b0d-8964-ed84b7d08391"},"vehicle_type_id":"4","last_reported":1724519276,"current_range_meters":23200,"station_id":"ce4bhbh2rcd13ifvqeqg","pricing_plan_id":"cebpf4jnsgd1na2vs0mg"},{"bike_id":"b20c7712-b1b8-4f3b-bd9b-c568718eb72e","system_id":"levelo_inurba_marseille","lat":43.292311,"lon":5.360731,"is_reserved":false,"is_disabled":false,"rental_uris":{"android":"levelo://app?vid=b20c7712-b1b8-4f3b-bd9b-c568718eb72e","ios":"levelo://app?vid=b20c7712-b1b8-4f3b-bd9b-c568718eb72e"},"vehicle_type_id":"4","last_reported":1724519276,"current_range_meters":27600,"station_id":"ce4bhbh2rcd13ifvqeqg","pricing_plan_id":"cebpf4jnsgd1na2vs0mg"},{"bike_id":"f0e51bbd-4d53-46c4-a399-41739f206ada","system_id":"levelo_inurba_marseille","lat":43.292311,"lon":5.360731,"is_reserved":false,"is_disabled":false,"rental_uris":{"android":"levelo://app?vid=f0e51bbd-4d53-46c4-a399-41739f206ada","ios":"levelo://app?vid=f0e51bbd-4d53-46c4-a399-41739f206ada"},"vehicle_type_id":"4","last_reported":1724519276,"current_range_meters":14000,"station_id":"ce4bhbh2rcd13ifvqeqg","pricing_plan_id":"cebpf4jnsgd1na2vs0mg"},{"bike_id":"2e03a3ee-d3c3-4bdd-8f00-facaa8b30eee","system_id":"levelo_inurba_marseille","lat":43.2922,"lon":5.36054,"is_reserved":false,"is_disabled":false,"rental_uris":{"android":"levelo://app?vid=2e03a3ee-d3c3-4bdd-8f00-facaa8b30eee","ios":"levelo://app?vid=2e03a3ee-d3c3-4bdd-8f00-facaa8b30eee"},"vehicle_type_id":"4","last_reported":1724519276,"current_range_meters":16400,"station_id":"ce4bhbh2rcd13ifvqeqg","pricing_plan_id":"cebpf4jnsgd1na2vs0mg"},{"bike_id":"988ceb80-2bc5-4d3d-9ebc-6c4bf66a0792","system_id":"levelo_inurba_marseille","lat":43.292311,"lon":5.360731,"is_reserved":false,"is_disabled":false,"rental_uris":{"android":"levelo://app?vid=988ceb80-2bc5-4d3d-9ebc-6c4bf66a0792","ios":"levelo://app?vid=988ceb80-2bc5-4d3d-9ebc-6c4bf66a0792"},"vehicle_type_id":"4","last_reported":1724519276,"current_range_meters":31200,"station_id":"ce4bhbh2rcd13ifvqeqg","pricing_plan_id":"cebpf4jnsgd1na2vs0mg"},{"bike_id":"4ea0015e-29d6-4601-9278-17717527a6db","system_id":"levelo_inurba_marseille","lat":43.292311,"lon":5.360731,"is_reserved":false,"is_disabled":false,"rental_uris":{"android":"levelo://app?vid=4ea0015e-29d6-4601-9278-17717527a6db","ios":"levelo://app?vid=4ea0015e-29d6-4601-9278-17717527a6db"},"vehicle_type_id":"4","last_reported":1724519276,"current_range_meters":0,"station_id":"ce4bhbh2rcd13ifvqeqg","pricing_plan_id":"cebpf4jnsgd1na2vs0mg"},{"bike_id":"494af154-e7f9-455d-8899-4d35f1840e20","system_id":"levelo_inurba_marseille","lat":43.292311,"lon":5.360731,"is_reserved":false,"is_disabled":false,"rental_uris":{"android":"levelo://app?vid=494af154-e7f9-455d-8899-4d35f1840e20","ios":"levelo://app?vid=494af154-e7f9-455d-8899-4d35f1840e20"},"vehicle_type_id":"4","last_reported":1724519276,"current_range_meters":4400,"station_id":"ce4bhbh2rcd13ifvqeqg","pricing_plan_id":"cebpf4jnsgd1na2vs0mg"},{"bike_id":"b0769f0c-6802-4525-9ccf-2b1b261ca58b","system_id":"levelo_inurba_marseille","lat":43.292311,"lon":5.360731,"is_reserved":false,"is_disabled":false,"rental_uris":{"android":"levelo://app?vid=b0769f0c-6802-4525-9ccf-2b1b261ca58b","ios":"levelo://app?vid=b0769f0c-6802-4525-9ccf-2b1b261ca58b"},"vehicle_type_id":"4","last_reported":1724519276,"current_range_meters":30000,"station_id":"ce4bhbh2rcd13ifvqeqg","pricing_plan_id":"cebpf4jnsgd1na2vs0mg"},{"bike_id":"ce49daa7-87e4-4749-85e7-6dab91519271","system_id":"levelo_inurba_marseille","lat":43.292311,"lon":5.360731,"is_reserved":false,"is_disabled":false,"rental_uris":{"android":"levelo://app?vid=ce49daa7-87e4-4749-85e7-6dab91519271","ios":"levelo://app?vid=ce49daa7-87e4-4749-85e7-6dab91519271"},"vehicle_type_id":"4","last_reported":1724519276,"current_range_meters":25600,"station_id":"ce4bhbh2rcd13ifvqeqg","pricing_plan_id":"cebpf4jnsgd1na2vs0mg"},{"bike_id":"e9919a79-8041-4346-9b42-59dc322dd97f","system_id":"levelo_inurba_marseille","lat":43.292311,"lon":5.360731,"is_reserved":false,"is_disabled":false,"rental_uris":{"android":"levelo://app?vid=e9919a79-8041-4346-9b42-59dc322dd97f","ios":"levelo://app?vid=e9919a79-8041-4346-9b42-59dc322dd97f"},"vehicle_type_id":"4","last_reported":1724519276,"current_range_meters":21200,"station_id":"ce4bhbh2rcd13ifvqeqg","pricing_plan_id":"cebpf4jnsgd1na2vs0mg"},{"bike_id":"93e8d2c6-892b-45d0-9348-79e97ee5dce0","system_id":"levelo_inurba_marseille","lat":43.291671,"lon":5.371575,"is_reserved":false,"is_disabled":false,"rental_uris":{"android":"levelo://app?vid=93e8d2c6-892b-45d0-9348-79e97ee5dce0","ios":"levelo://app?vid=93e8d2c6-892b-45d0-9348-79e97ee5dce0"},"vehicle_type_id":"4","last_reported":1724519276,"current_range_meters":0,"station_id":"ce4bha92rcd13ifvqeh0","pricing_plan_id":"cebpf4jnsgd1na2vs0mg"},{"bike_id":"fba3818e-6a8d-4006-90cb-5d1926384621","system_id":"levelo_inurba_marseille","lat":43.29197,"lon":5.35807,"is_reserved":false,"is_disabled":false,"rental_uris":{"android":"levelo://app?vid=fba3818e-6a8d-4006-90cb-5d1926384621","ios":"levelo://app?vid=fba3818e-6a8d-4006-90cb-5d1926384621"},"vehicle_type_id":"4","last_reported":1724519276,"current_range_meters":31200,"station_id":"ce4bhb12rcd13ifvqel0","pricing_plan_id":"cebpf4jnsgd1na2vs0mg"},{"bike_id":"dc2e2a74-b9d7-4a7d-af6b-50920fdafa0b","system_id":"levelo_inurba_marseille","lat":43.29197,"lon":5.35805,"is_reserved":false,"is_disabled":false,"rental_uris":{"android":"levelo://app?vid=dc2e2a74-b9d7-4a7d-af6b-50920fdafa0b","ios":"levelo://app?vid=dc2e2a74-b9d7-4a7d-af6b-50920fdafa0b"},"vehicle_type_id":"4","last_reported":1724519276,"current_range_meters":20800,"station_id":"ce4bhb12rcd13ifvqel0","pricing_plan_id":"cebpf4jnsgd1na2vs0mg"},{"bike_id":"749c9258-5cfa-4908-b31a-2ae11d99586e","system_id":"levelo_inurba_marseille","lat":43.29196,"lon":5.35801,"is_reserved":false,"is_disabled":false,"rental_uris":{"android":"levelo://app?vid=749c9258-5cfa-4908-b31a-2ae11d99586e","ios":"levelo://app?vid=749c9258-5cfa-4908-b31a-2ae11d99586e"},"vehicle_type_id":"4","last_reported":1724519276,"current_range_meters":28000,"station_id":"ce4bhb12rcd13ifvqel0","pricing_plan_id":"cebpf4jnsgd1na2vs0mg"},{"bike_id":"7ea37a9f-d9ba-4047-9476-82fb87cedea0","system_id":"levelo_inurba_marseille","lat":43.29196,"lon":5.35793,"is_reserved":false,"is_disabled":false,"rental_uris":{"android":"levelo://app?vid=7ea37a9f-d9ba-4047-9476-82fb87cedea0","ios":"levelo://app?vid=7ea37a9f-d9ba-4047-9476-82fb87cedea0"},"vehicle_type_id":"4","last_reported":1724519276,"current_range_meters":23200,"station_id":"ce4bhb12rcd13ifvqel0","pricing_plan_id":"cebpf4jnsgd1na2vs0mg"},{"bike_id":"2c1e18b2-9dfc-449e-b318-60599fec20b2","system_id":"levelo_inurba_marseille","lat":43.2919,"lon":5.35795,"is_reserved":false,"is_disabled":false,"rental_uris":{"android":"levelo://app?vid=2c1e18b2-9dfc-449e-b318-60599fec20b2","ios":"levelo://app?vid=2c1e18b2-9dfc-449e-b318-60599fec20b2"},"vehicle_type_id":"4","last_reported":1724519276,"current_range_meters":31200,"station_id":"ce4bhb12rcd13ifvqel0","pricing_plan_id":"cebpf4jnsgd1na2vs0mg"},{"bike_id":"cbaa4acf-22ba-4f5b-82ec-ffa7d68b7c64","system_id":"levelo_inurba_marseille","lat":43.309038,"lon":5.396546,"is_reserved":false,"is_disabled":false,"rental_uris":{"android":"levelo://app?vid=cbaa4acf-22ba-4f5b-82ec-ffa7d68b7c64","ios":"levelo://app?vid=cbaa4acf-22ba-4f5b-82ec-ffa7d68b7c64"},"vehicle_type_id":"4","last_reported":1724519276,"current_range_meters":23600,"station_id":"ce4bh012rcd13ifvqcv0","pricing_plan_id":"cebpf4jnsgd1na2vs0mg"},{"bike_id":"a2e49e18-e501-43d1-bbd8-c01a42971786","system_id":"levelo_inurba_marseille","lat":43.2954,"lon":5.38544,"is_reserved":false,"is_disabled":false,"rental_uris":{"android":"levelo://app?vid=a2e49e18-e501-43d1-bbd8-c01a42971786","ios":"levelo://app?vid=a2e49e18-e501-43d1-bbd8-c01a42971786"},"vehicle_type_id":"4","last_reported":1724519276,"current_range_meters":31200,"station_id":"ce4bgih2rcd13ifvqba0","pricing_plan_id":"cebpf4jnsgd1na2vs0mg"},{"bike_id":"361aece2-5d11-4e5e-b398-8ff6d69d9e0f","system_id":"levelo_inurba_marseille","lat":43.29529,"lon":5.385581,"is_reserved":false,"is_disabled":false,"rental_uris":{"android":"levelo://app?vid=361aece2-5d11-4e5e-b398-8ff6d69d9e0f","ios":"levelo://app?vid=361aece2-5d11-4e5e-b398-8ff6d69d9e0f"},"vehicle_type_id":"4","last_reported":1724519276,"current_range_meters":9200,"station_id":"ce4bgih2rcd13ifvqba0","pricing_plan_id":"cebpf4jnsgd1na2vs0mg"},{"bike_id":"e4341a31-8839-42f2-b2af-14aea14d9fd0","system_id":"levelo_inurba_marseille","lat":43.29529,"lon":5.385581,"is_reserved":false,"is_disabled":false,"rental_uris":{"android":"levelo://app?vid=e4341a31-8839-42f2-b2af-14aea14d9fd0","ios":"levelo://app?vid=e4341a31-8839-42f2-b2af-14aea14d9fd0"},"vehicle_type_id":"4","last_reported":1724519276,"current_range_meters":21200,"station_id":"ce4bgih2rcd13ifvqba0","pricing_plan_id":"cebpf4jnsgd1na2vs0mg"},{"bike_id":"70824e1b-62b0-43da-82e4-43315fc29d52","system_id":"levelo_inurba_marseille","lat":43.29529,"lon":5.385581,"is_reserved":false,"is_disabled":false,"rental_uris":{"android":"levelo://app?vid=70824e1b-62b0-43da-82e4-43315fc29d52","ios":"levelo://app?vid=70824e1b-62b0-43da-82e4-43315fc29d52"},"vehicle_type_id":"4","last_reported":1724519276,"current_range_meters":4000,"station_id":"ce4bgih2rcd13ifvqba0","pricing_plan_id":"cebpf4jnsgd1na2vs0mg"},{"bike_id":"77ba4754-8d9f-4d00-8501-ffeb97fdebd8","system_id":"levelo_inurba_marseille","lat":43.290737,"lon":5.371573,"is_reserved":false,"is_disabled":false,"rental_uris":{"android":"levelo://app?vid=77ba4754-8d9f-4d00-8501-ffeb97fdebd8","ios":"levelo://app?vid=77ba4754-8d9f-4d00-8501-ffeb97fdebd8"},"vehicle_type_id":"4","last_reported":1724519276,"current_range_meters":0,"station_id":"ce4bh5p2rcd13ifvqe4g","pricing_plan_id":"cebpf4jnsgd1na2vs0mg"},{"bike_id":"0251c342-d95a-49cd-900e-e5671a65315e","system_id":"levelo_inurba_marseille","lat":43.31128,"lon":5.398096,"is_reserved":false,"is_disabled":false,"rental_uris":{"android":"levelo://app?vid=0251c342-d95a-49cd-900e-e5671a65315e","ios":"levelo://app?vid=0251c342-d95a-49cd-900e-e5671a65315e"},"vehicle_type_id":"4","last_reported":1724519276,"current_range_meters":17600,"station_id":"","pricing_plan_id":"cebpf4jnsgd1na2vs0mg"},{"bike_id":"b3598594-525c-49be-aea3-90bf6c097118","system_id":"levelo_inurba_marseille","lat":43.290624,"lon":5.359245,"is_reserved":false,"is_disabled":false,"rental_uris":{"android":"levelo://app?vid=b3598594-525c-49be-aea3-90bf6c097118","ios":"levelo://app?vid=b3598594-525c-49be-aea3-90bf6c097118"},"vehicle_type_id":"4","last_reported":1724519276,"current_range_meters":22000,"station_id":"ce4bha92rcd13ifvqeg0","pricing_plan_id":"cebpf4jnsgd1na2vs0mg"},{"bike_id":"cc11c9e3-7e0c-4a0f-9d54-8c6737f3d67e","system_id":"levelo_inurba_marseille","lat":43.290631,"lon":5.359244,"is_reserved":false,"is_disabled":false,"rental_uris":{"android":"levelo://app?vid=cc11c9e3-7e0c-4a0f-9d54-8c6737f3d67e","ios":"levelo://app?vid=cc11c9e3-7e0c-4a0f-9d54-8c6737f3d67e"},"vehicle_type_id":"4","last_reported":1724519276,"current_range_meters":30800,"station_id":"ce4bha92rcd13ifvqeg0","pricing_plan_id":"cebpf4jnsgd1na2vs0mg"},{"bike_id":"7c56328e-b437-4779-bdf8-82317e12b050","system_id":"levelo_inurba_marseille","lat":43.290477,"lon":5.359017,"is_reserved":false,"is_disabled":false,"rental_uris":{"android":"levelo://app?vid=7c56328e-b437-4779-bdf8-82317e12b050","ios":"levelo://app?vid=7c56328e-b437-4779-bdf8-82317e12b050"},"vehicle_type_id":"4","last_reported":1724519276,"current_range_meters":21200,"station_id":"ce4bha92rcd13ifvqeg0","pricing_plan_id":"cebpf4jnsgd1na2vs0mg"},{"bike_id":"52fd99d3-77f4-4c2f-8ab0-d1da59e6dfd1","system_id":"levelo_inurba_marseille","lat":43.290624,"lon":5.359245,"is_reserved":false,"is_disabled":false,"rental_uris":{"android":"levelo://app?vid=52fd99d3-77f4-4c2f-8ab0-d1da59e6dfd1","ios":"levelo://app?vid=52fd99d3-77f4-4c2f-8ab0-d1da59e6dfd1"},"vehicle_type_id":"4","last_reported":1724519276,"current_range_meters":26400,"station_id":"ce4bha92rcd13ifvqeg0","pricing_plan_id":"cebpf4jnsgd1na2vs0mg"},{"bike_id":"6f9fbb3e-b93f-40b0-bf7f-29b4997e8551","system_id":"levelo_inurba_marseille","lat":43.28993,"lon":5.372953,"is_reserved":false,"is_disabled":false,"rental_uris":{"android":"levelo://app?vid=6f9fbb3e-b93f-40b0-bf7f-29b4997e8551","ios":"levelo://app?vid=6f9fbb3e-b93f-40b0-bf7f-29b4997e8551"},"vehicle_type_id":"4","last_reported":1724519276,"current_range_meters":10000,"station_id":"ce4bh2h2rcd13ifvqdh0","pricing_plan_id":"cebpf4jnsgd1na2vs0mg"},{"bike_id":"936fd695-6f9f-4f95-bd0e-438fd477a62a","system_id":"levelo_inurba_marseille","lat":43.294162,"lon":5.386292,"is_reserved":false,"is_disabled":false,"rental_uris":{"android":"levelo://app?vid=936fd695-6f9f-4f95-bd0e-438fd477a62a","ios":"levelo://app?vid=936fd695-6f9f-4f95-bd0e-438fd477a62a"},"vehicle_type_id":"4","last_reported":1724519276,"current_range_meters":29200,"station_id":"ce4bh2h2rcd13ifvqdh0","pricing_plan_id":"cebpf4jnsgd1na2vs0mg"},{"bike_id":"630186fc-7873-44a8-8ec5-de8c4c166f74","system_id":"levelo_inurba_marseille","lat":43.294162,"lon":5.386292,"is_reserved":false,"is_disabled":false,"rental_uris":{"android":"levelo://app?vid=630186fc-7873-44a8-8ec5-de8c4c166f74","ios":"levelo://app?vid=630186fc-7873-44a8-8ec5-de8c4c166f74"},"vehicle_type_id":"4","last_reported":1724519276,"current_range_meters":25200,"station_id":"ce4bh2h2rcd13ifvqdh0","pricing_plan_id":"cebpf4jnsgd1na2vs0mg"},{"bike_id":"74f94843-7734-4a4d-b7b2-f8d6902770cf","system_id":"levelo_inurba_marseille","lat":43.294153,"lon":5.386305,"is_reserved":false,"is_disabled":false,"rental_uris":{"android":"levelo://app?vid=74f94843-7734-4a4d-b7b2-f8d6902770cf","ios":"levelo://app?vid=74f94843-7734-4a4d-b7b2-f8d6902770cf"},"vehicle_type_id":"4","last_reported":1724519276,"current_range_meters":0,"station_id":"ce4bh2h2rcd13ifvqdh0","pricing_plan_id":"cebpf4jnsgd1na2vs0mg"},{"bike_id":"5ec8428f-6855-4f15-a896-8fbb723aced2","system_id":"levelo_inurba_marseille","lat":43.29421,"lon":5.38626,"is_reserved":false,"is_disabled":false,"rental_uris":{"android":"levelo://app?vid=5ec8428f-6855-4f15-a896-8fbb723aced2","ios":"levelo://app?vid=5ec8428f-6855-4f15-a896-8fbb723aced2"},"vehicle_type_id":"4","last_reported":1724519276,"current_range_meters":1200,"station_id":"ce4bh2h2rcd13ifvqdh0","pricing_plan_id":"cebpf4jnsgd1na2vs0mg"},{"bike_id":"9181bc81-29de-4f9f-ae96-b746747f3bd8","system_id":"levelo_inurba_marseille","lat":43.290327,"lon":5.375711,"is_reserved":false,"is_disabled":false,"rental_uris":{"android":"levelo://app?vid=9181bc81-29de-4f9f-ae96-b746747f3bd8","ios":"levelo://app?vid=9181bc81-29de-4f9f-ae96-b746747f3bd8"},"vehicle_type_id":"4","last_reported":1724519276,"current_range_meters":7600,"station_id":"ce4bh692rcd13ifvqe90","pricing_plan_id":"cebpf4jnsgd1na2vs0mg"},{"bike_id":"9efbdf78-e4bc-4049-95ed-9fb805fab012","system_id":"levelo_inurba_marseille","lat":43.294162,"lon":5.386292,"is_reserved":false,"is_disabled":false,"rental_uris":{"android":"levelo://app?vid=9efbdf78-e4bc-4049-95ed-9fb805fab012","ios":"levelo://app?vid=9efbdf78-e4bc-4049-95ed-9fb805fab012"},"vehicle_type_id":"4","last_reported":1724519276,"current_range_meters":30400,"station_id":"ce4bh2h2rcd13ifvqdh0","pricing_plan_id":"cebpf4jnsgd1na2vs0mg"},{"bike_id":"773021a2-9454-4778-afef-fc1d700dbabb","system_id":"levelo_inurba_marseille","lat":43.28946,"lon":5.36639,"is_reserved":false,"is_disabled":false,"rental_uris":{"android":"levelo://app?vid=773021a2-9454-4778-afef-fc1d700dbabb","ios":"levelo://app?vid=773021a2-9454-4778-afef-fc1d700dbabb"},"vehicle_type_id":"4","last_reported":1724519276,"current_range_meters":20000,"station_id":"ce4bhap2rcd13ifvqek0","pricing_plan_id":"cebpf4jnsgd1na2vs0mg"},{"bike_id":"faa84a56-b412-4c94-9301-d7907d6a486e","system_id":"levelo_inurba_marseille","lat":43.28945,"lon":5.36644,"is_reserved":false,"is_disabled":false,"rental_uris":{"android":"levelo://app?vid=faa84a56-b412-4c94-9301-d7907d6a486e","ios":"levelo://app?vid=faa84a56-b412-4c94-9301-d7907d6a486e"},"vehicle_type_id":"4","last_reported":1724519276,"current_range_meters":10400,"station_id":"ce4bhap2rcd13ifvqek0","pricing_plan_id":"cebpf4jnsgd1na2vs0mg"},{"bike_id":"1322debc-cff0-4cd7-a247-88b581b0313e","system_id":"levelo_inurba_marseille","lat":43.289184,"lon":5.366408,"is_reserved":false,"is_disabled":false,"rental_uris":{"android":"levelo://app?vid=1322debc-cff0-4cd7-a247-88b581b0313e","ios":"levelo://app?vid=1322debc-cff0-4cd7-a247-88b581b0313e"},"vehicle_type_id":"4","last_reported":1724519276,"current_range_meters":8800,"station_id":"ce4bhap2rcd13ifvqek0","pricing_plan_id":"cebpf4jnsgd1na2vs0mg"},{"bike_id":"b5b79c39-93ad-41ae-bdb7-0493ea15a47e","system_id":"levelo_inurba_marseille","lat":43.28945,"lon":5.36636,"is_reserved":false,"is_disabled":false,"rental_uris":{"android":"levelo://app?vid=b5b79c39-93ad-41ae-bdb7-0493ea15a47e","ios":"levelo://app?vid=b5b79c39-93ad-41ae-bdb7-0493ea15a47e"},"vehicle_type_id":"4","last_reported":1724519276,"current_range_meters":12000,"station_id":"ce4bhap2rcd13ifvqek0","pricing_plan_id":"cebpf4jnsgd1na2vs0mg"},{"bike_id":"1212bfe2-a7ee-4926-938f-76d847183330","system_id":"levelo_inurba_marseille","lat":43.289184,"lon":5.366408,"is_reserved":false,"is_disabled":false,"rental_uris":{"android":"levelo://app?vid=1212bfe2-a7ee-4926-938f-76d847183330","ios":"levelo://app?vid=1212bfe2-a7ee-4926-938f-76d847183330"},"vehicle_type_id":"4","last_reported":1724519276,"current_range_meters":8800,"station_id":"ce4bhap2rcd13ifvqek0","pricing_plan_id":"cebpf4jnsgd1na2vs0mg"},{"bike_id":"73e631f5-e4e8-4d89-be34-cfe805c18beb","system_id":"levelo_inurba_marseille","lat":43.28945,"lon":5.36628,"is_reserved":false,"is_disabled":false,"rental_uris":{"android":"levelo://app?vid=73e631f5-e4e8-4d89-be34-cfe805c18beb","ios":"levelo://app?vid=73e631f5-e4e8-4d89-be34-cfe805c18beb"},"vehicle_type_id":"4","last_reported":1724519276,"current_range_meters":31200,"station_id":"ce4bhap2rcd13ifvqek0","pricing_plan_id":"cebpf4jnsgd1na2vs0mg"},{"bike_id":"6eab77b2-5d23-4ed1-a716-518bf989eaef","system_id":"levelo_inurba_marseille","lat":43.294162,"lon":5.386292,"is_reserved":false,"is_disabled":false,"rental_uris":{"android":"levelo://app?vid=6eab77b2-5d23-4ed1-a716-518bf989eaef","ios":"levelo://app?vid=6eab77b2-5d23-4ed1-a716-518bf989eaef"},"vehicle_type_id":"4","last_reported":1724519276,"current_range_meters":10000,"station_id":"ce4bh2h2rcd13ifvqdh0","pricing_plan_id":"cebpf4jnsgd1na2vs0mg"},{"bike_id":"66fbb64e-c43f-4bf3-8986-bd92b20d5ddf","system_id":"levelo_inurba_marseille","lat":43.294162,"lon":5.386292,"is_reserved":false,"is_disabled":false,"rental_uris":{"android":"levelo://app?vid=66fbb64e-c43f-4bf3-8986-bd92b20d5ddf","ios":"levelo://app?vid=66fbb64e-c43f-4bf3-8986-bd92b20d5ddf"},"vehicle_type_id":"4","last_reported":1724519276,"current_range_meters":29200,"station_id":"ce4bh2h2rcd13ifvqdh0","pricing_plan_id":"cebpf4jnsgd1na2vs0mg"},{"bike_id":"f1655e05-2793-4a62-89e0-9e90ae21d47e","system_id":"levelo_inurba_marseille","lat":43.294162,"lon":5.386292,"is_reserved":false,"is_disabled":false,"rental_uris":{"android":"levelo://app?vid=f1655e05-2793-4a62-89e0-9e90ae21d47e","ios":"levelo://app?vid=f1655e05-2793-4a62-89e0-9e90ae21d47e"},"vehicle_type_id":"4","last_reported":1724519276,"current_range_meters":0,"station_id":"ce4bh2h2rcd13ifvqdh0","pricing_plan_id":"cebpf4jnsgd1na2vs0mg"},{"bike_id":"6f5ff6b7-46c1-49cd-9dde-d62bd63da053","system_id":"levelo_inurba_marseille","lat":43.290327,"lon":5.375711,"is_reserved":false,"is_disabled":false,"rental_uris":{"android":"levelo://app?vid=6f5ff6b7-46c1-49cd-9dde-d62bd63da053","ios":"levelo://app?vid=6f5ff6b7-46c1-49cd-9dde-d62bd63da053"},"vehicle_type_id":"4","last_reported":1724519276,"current_range_meters":0,"station_id":"ce4bh692rcd13ifvqe90","pricing_plan_id":"cebpf4jnsgd1na2vs0mg"},{"bike_id":"aaafa1ad-f108-4068-b327-6a61e7fd522b","system_id":"levelo_inurba_marseille","lat":43.28941,"lon":5.36625,"is_reserved":false,"is_disabled":false,"rental_uris":{"android":"levelo://app?vid=aaafa1ad-f108-4068-b327-6a61e7fd522b","ios":"levelo://app?vid=aaafa1ad-f108-4068-b327-6a61e7fd522b"},"vehicle_type_id":"4","last_reported":1724519276,"current_range_meters":24000,"station_id":"ce4bhap2rcd13ifvqek0","pricing_plan_id":"cebpf4jnsgd1na2vs0mg"},{"bike_id":"b362aa05-83a0-4446-9d48-a606bc166120","system_id":"levelo_inurba_marseille","lat":43.304274,"lon":5.397513,"is_reserved":false,"is_disabled":false,"rental_uris":{"android":"levelo://app?vid=b362aa05-83a0-4446-9d48-a606bc166120","ios":"levelo://app?vid=b362aa05-83a0-4446-9d48-a606bc166120"},"vehicle_type_id":"4","last_reported":1724519276,"current_range_meters":12400,"station_id":"ce4bh092rcd13ifvqd20","pricing_plan_id":"cebpf4jnsgd1na2vs0mg"},{"bike_id":"16f8a630-0a4a-472d-a91b-480fca8b07ea","system_id":"levelo_inurba_marseille","lat":43.292642,"lon":5.384254,"is_reserved":false,"is_disabled":false,"rental_uris":{"android":"levelo://app?vid=16f8a630-0a4a-472d-a91b-480fca8b07ea","ios":"levelo://app?vid=16f8a630-0a4a-472d-a91b-480fca8b07ea"},"vehicle_type_id":"4","last_reported":1724519276,"current_range_meters":2800,"station_id":"ce4bh692rcd13ifvqea0","pricing_plan_id":"cebpf4jnsgd1na2vs0mg"},{"bike_id":"cc08704a-71b3-4573-b60f-f91ee043f367","system_id":"levelo_inurba_marseille","lat":43.29263,"lon":5.38452,"is_reserved":false,"is_disabled":false,"rental_uris":{"android":"levelo://app?vid=cc08704a-71b3-4573-b60f-f91ee043f367","ios":"levelo://app?vid=cc08704a-71b3-4573-b60f-f91ee043f367"},"vehicle_type_id":"4","last_reported":1724519276,"current_range_meters":0,"station_id":"ce4bh692rcd13ifvqea0","pricing_plan_id":"cebpf4jnsgd1na2vs0mg"},{"bike_id":"05a86a50-db92-4b8e-b9ac-a750184167c6","system_id":"levelo_inurba_marseille","lat":43.29262,"lon":5.38452,"is_reserved":false,"is_disabled":false,"rental_uris":{"android":"levelo://app?vid=05a86a50-db92-4b8e-b9ac-a750184167c6","ios":"levelo://app?vid=05a86a50-db92-4b8e-b9ac-a750184167c6"},"vehicle_type_id":"4","last_reported":1724519276,"current_range_meters":0,"station_id":"ce4bh692rcd13ifvqea0","pricing_plan_id":"cebpf4jnsgd1na2vs0mg"},{"bike_id":"94c8019c-2f1d-4912-9de7-a84bd8c87712","system_id":"levelo_inurba_marseille","lat":43.290104,"lon":5.356111,"is_reserved":false,"is_disabled":false,"rental_uris":{"android":"levelo://app?vid=94c8019c-2f1d-4912-9de7-a84bd8c87712","ios":"levelo://app?vid=94c8019c-2f1d-4912-9de7-a84bd8c87712"},"vehicle_type_id":"4","last_reported":1724519276,"current_range_meters":29600,"station_id":"ce4bhb92rcd13ifvqen0","pricing_plan_id":"cebpf4jnsgd1na2vs0mg"},{"bike_id":"ba26b18e-b995-43dc-b8c5-7e977b625f83","system_id":"levelo_inurba_marseille","lat":43.290104,"lon":5.356111,"is_reserved":false,"is_disabled":false,"rental_uris":{"android":"levelo://app?vid=ba26b18e-b995-43dc-b8c5-7e977b625f83","ios":"levelo://app?vid=ba26b18e-b995-43dc-b8c5-7e977b625f83"},"vehicle_type_id":"4","last_reported":1724519276,"current_range_meters":24800,"station_id":"ce4bhb92rcd13ifvqen0","pricing_plan_id":"cebpf4jnsgd1na2vs0mg"},{"bike_id":"d1252fa5-ccff-477e-b268-916660eca540","system_id":"levelo_inurba_marseille","lat":43.290995,"lon":5.381361,"is_reserved":false,"is_disabled":false,"rental_uris":{"android":"levelo://app?vid=d1252fa5-ccff-477e-b268-916660eca540","ios":"levelo://app?vid=d1252fa5-ccff-477e-b268-916660eca540"},"vehicle_type_id":"4","last_reported":1724519276,"current_range_meters":13200,"station_id":"ce4bh512rcd13ifvqe2g","pricing_plan_id":"cebpf4jnsgd1na2vs0mg"},{"bike_id":"6e517f4d-a091-40ff-a3df-4553009d95d3","system_id":"levelo_inurba_marseille","lat":43.290995,"lon":5.381361,"is_reserved":false,"is_disabled":false,"rental_uris":{"android":"levelo://app?vid=6e517f4d-a091-40ff-a3df-4553009d95d3","ios":"levelo://app?vid=6e517f4d-a091-40ff-a3df-4553009d95d3"},"vehicle_type_id":"4","last_reported":1724519276,"current_range_meters":0,"station_id":"ce4bh512rcd13ifvqe2g","pricing_plan_id":"cebpf4jnsgd1na2vs0mg"},{"bike_id":"58e8410b-2750-4883-ade5-d8db49814231","system_id":"levelo_inurba_marseille","lat":43.284534,"lon":5.358662,"is_reserved":false,"is_disabled":false,"rental_uris":{"android":"levelo://app?vid=58e8410b-2750-4883-ade5-d8db49814231","ios":"levelo://app?vid=58e8410b-2750-4883-ade5-d8db49814231"},"vehicle_type_id":"4","last_reported":1724519276,"current_range_meters":800,"station_id":"ce4bhah2rcd13ifvqei0","pricing_plan_id":"cebpf4jnsgd1na2vs0mg"},{"bike_id":"688574a8-ced6-4e29-bc2b-b63fd6be30b9","system_id":"levelo_inurba_marseille","lat":43.297807,"lon":5.393533,"is_reserved":false,"is_disabled":false,"rental_uris":{"android":"levelo://app?vid=688574a8-ced6-4e29-bc2b-b63fd6be30b9","ios":"levelo://app?vid=688574a8-ced6-4e29-bc2b-b63fd6be30b9"},"vehicle_type_id":"4","last_reported":1724519276,"current_range_meters":22400,"station_id":"chh1huq6cuj3fo74tm60","pricing_plan_id":"cebpf4jnsgd1na2vs0mg"},{"bike_id":"0cb7212f-cd81-4d94-b4e9-3ed333dcca88","system_id":"levelo_inurba_marseille","lat":43.28976,"lon":5.37832,"is_reserved":false,"is_disabled":false,"rental_uris":{"android":"levelo://app?vid=0cb7212f-cd81-4d94-b4e9-3ed333dcca88","ios":"levelo://app?vid=0cb7212f-cd81-4d94-b4e9-3ed333dcca88"},"vehicle_type_id":"4","last_reported":1724519276,"current_range_meters":24400,"station_id":"ce4bh9p2rcd13ifvqed0","pricing_plan_id":"cebpf4jnsgd1na2vs0mg"},{"bike_id":"8963aaa7-3633-4bf5-beb4-137c04d0aa0c","system_id":"levelo_inurba_marseille","lat":43.330442,"lon":5.389148,"is_reserved":false,"is_disabled":false,"rental_uris":{"android":"levelo://app?vid=8963aaa7-3633-4bf5-beb4-137c04d0aa0c","ios":"levelo://app?vid=8963aaa7-3633-4bf5-beb4-137c04d0aa0c"},"vehicle_type_id":"4","last_reported":1724519276,"current_range_meters":26800,"station_id":"ce4bhr92rcd13ifvqhrg","pricing_plan_id":"cebpf4jnsgd1na2vs0mg"},{"bike_id":"adbd8c12-b6b5-485d-b14c-68b1dfcc9cd8","system_id":"levelo_inurba_marseille","lat":43.29518,"lon":5.39035,"is_reserved":false,"is_disabled":false,"rental_uris":{"android":"levelo://app?vid=adbd8c12-b6b5-485d-b14c-68b1dfcc9cd8","ios":"levelo://app?vid=adbd8c12-b6b5-485d-b14c-68b1dfcc9cd8"},"vehicle_type_id":"4","last_reported":1724519276,"current_range_meters":31200,"station_id":"","pricing_plan_id":"cebpf4jnsgd1na2vs0mg"},{"bike_id":"32c992fb-b627-49e7-860f-d653944557fd","system_id":"levelo_inurba_marseille","lat":43.330442,"lon":5.389148,"is_reserved":false,"is_disabled":false,"rental_uris":{"android":"levelo://app?vid=32c992fb-b627-49e7-860f-d653944557fd","ios":"levelo://app?vid=32c992fb-b627-49e7-860f-d653944557fd"},"vehicle_type_id":"4","last_reported":1724519276,"current_range_meters":7600,"station_id":"ce4bhr92rcd13ifvqhrg","pricing_plan_id":"cebpf4jnsgd1na2vs0mg"},{"bike_id":"41f208c7-ba04-4f6a-b4ac-71cd31b440c0","system_id":"levelo_inurba_marseille","lat":43.295169,"lon":5.390426,"is_reserved":false,"is_disabled":false,"rental_uris":{"android":"levelo://app?vid=41f208c7-ba04-4f6a-b4ac-71cd31b440c0","ios":"levelo://app?vid=41f208c7-ba04-4f6a-b4ac-71cd31b440c0"},"vehicle_type_id":"4","last_reported":1724519276,"current_range_meters":31200,"station_id":"ce4bh3p2rcd13ifvqdp0","pricing_plan_id":"cebpf4jnsgd1na2vs0mg"},{"bike_id":"c64230f9-41ae-41b6-8bed-454235df861d","system_id":"levelo_inurba_marseille","lat":43.330442,"lon":5.389148,"is_reserved":false,"is_disabled":false,"rental_uris":{"android":"levelo://app?vid=c64230f9-41ae-41b6-8bed-454235df861d","ios":"levelo://app?vid=c64230f9-41ae-41b6-8bed-454235df861d"},"vehicle_type_id":"4","last_reported":1724519276,"current_range_meters":4000,"station_id":"ce4bhr92rcd13ifvqhrg","pricing_plan_id":"cebpf4jnsgd1na2vs0mg"},{"bike_id":"27fb91a3-7aaa-44a6-98c8-e3727916c696","system_id":"levelo_inurba_marseille","lat":43.2901,"lon":5.381269,"is_reserved":false,"is_disabled":false,"rental_uris":{"android":"levelo://app?vid=27fb91a3-7aaa-44a6-98c8-e3727916c696","ios":"levelo://app?vid=27fb91a3-7aaa-44a6-98c8-e3727916c696"},"vehicle_type_id":"4","last_reported":1724519276,"current_range_meters":16800,"station_id":"ce4bh4p2rcd13ifvqe1g","pricing_plan_id":"cebpf4jnsgd1na2vs0mg"},{"bike_id":"53ced82e-ce6d-49e5-9ce7-175d36c482d7","system_id":"levelo_inurba_marseille","lat":43.28863,"lon":5.35857,"is_reserved":false,"is_disabled":false,"rental_uris":{"android":"levelo://app?vid=53ced82e-ce6d-49e5-9ce7-175d36c482d7","ios":"levelo://app?vid=53ced82e-ce6d-49e5-9ce7-175d36c482d7"},"vehicle_type_id":"4","last_reported":1724519276,"current_range_meters":11600,"station_id":"ce4bhb12rcd13ifvqem0","pricing_plan_id":"cebpf4jnsgd1na2vs0mg"},{"bike_id":"f738ed09-92e7-4809-ad86-2012aa63d9eb","system_id":"levelo_inurba_marseille","lat":43.28856,"lon":5.358371,"is_reserved":false,"is_disabled":false,"rental_uris":{"android":"levelo://app?vid=f738ed09-92e7-4809-ad86-2012aa63d9eb","ios":"levelo://app?vid=f738ed09-92e7-4809-ad86-2012aa63d9eb"},"vehicle_type_id":"4","last_reported":1724519276,"current_range_meters":26000,"station_id":"ce4bhb12rcd13ifvqem0","pricing_plan_id":"cebpf4jnsgd1na2vs0mg"},{"bike_id":"7de307cf-a195-4ae5-8acf-c0203469878d","system_id":"levelo_inurba_marseille","lat":43.28858,"lon":5.35837,"is_reserved":false,"is_disabled":false,"rental_uris":{"android":"levelo://app?vid=7de307cf-a195-4ae5-8acf-c0203469878d","ios":"levelo://app?vid=7de307cf-a195-4ae5-8acf-c0203469878d"},"vehicle_type_id":"4","last_reported":1724519276,"current_range_meters":0,"station_id":"ce4bhb12rcd13ifvqem0","pricing_plan_id":"cebpf4jnsgd1na2vs0mg"},{"bike_id":"1a4551ba-b48a-4c6c-9562-9b28ea559035","system_id":"levelo_inurba_marseille","lat":43.2885,"lon":5.35858,"is_reserved":false,"is_disabled":false,"rental_uris":{"android":"levelo://app?vid=1a4551ba-b48a-4c6c-9562-9b28ea559035","ios":"levelo://app?vid=1a4551ba-b48a-4c6c-9562-9b28ea559035"},"vehicle_type_id":"4","last_reported":1724519276,"current_range_meters":0,"station_id":"ce4bhb12rcd13ifvqem0","pricing_plan_id":"cebpf4jnsgd1na2vs0mg"},{"bike_id":"d377c55e-34e9-477b-bfc8-42685089db0c","system_id":"levelo_inurba_marseille","lat":43.28856,"lon":5.358371,"is_reserved":false,"is_disabled":false,"rental_uris":{"android":"levelo://app?vid=d377c55e-34e9-477b-bfc8-42685089db0c","ios":"levelo://app?vid=d377c55e-34e9-477b-bfc8-42685089db0c"},"vehicle_type_id":"4","last_reported":1724519276,"current_range_meters":17600,"station_id":"ce4bhb12rcd13ifvqem0","pricing_plan_id":"cebpf4jnsgd1na2vs0mg"},{"bike_id":"72889a8e-cf27-4d36-a862-916e3f07aa70","system_id":"levelo_inurba_marseille","lat":43.28851,"lon":5.35838,"is_reserved":false,"is_disabled":false,"rental_uris":{"android":"levelo://app?vid=72889a8e-cf27-4d36-a862-916e3f07aa70","ios":"levelo://app?vid=72889a8e-cf27-4d36-a862-916e3f07aa70"},"vehicle_type_id":"4","last_reported":1724519276,"current_range_meters":8400,"station_id":"ce4bhb12rcd13ifvqem0","pricing_plan_id":"cebpf4jnsgd1na2vs0mg"},{"bike_id":"61072274-bf80-49ab-9591-295bfbef8623","system_id":"levelo_inurba_marseille","lat":43.28842,"lon":5.35862,"is_reserved":false,"is_disabled":false,"rental_uris":{"android":"levelo://app?vid=61072274-bf80-49ab-9591-295bfbef8623","ios":"levelo://app?vid=61072274-bf80-49ab-9591-295bfbef8623"},"vehicle_type_id":"4","last_reported":1724519276,"current_range_meters":28800,"station_id":"ce4bhb12rcd13ifvqem0","pricing_plan_id":"cebpf4jnsgd1na2vs0mg"},{"bike_id":"a1a7f3b8-04f0-4603-a6c4-338cca909a13","system_id":"levelo_inurba_marseille","lat":43.28845,"lon":5.35842,"is_reserved":false,"is_disabled":false,"rental_uris":{"android":"levelo://app?vid=a1a7f3b8-04f0-4603-a6c4-338cca909a13","ios":"levelo://app?vid=a1a7f3b8-04f0-4603-a6c4-338cca909a13"},"vehicle_type_id":"4","last_reported":1724519276,"current_range_meters":10800,"station_id":"ce4bhb12rcd13ifvqem0","pricing_plan_id":"cebpf4jnsgd1na2vs0mg"},{"bike_id":"c594b3e3-1ba6-43b9-a1c1-be8533666e55","system_id":"levelo_inurba_marseille","lat":43.33749,"lon":5.37436,"is_reserved":false,"is_disabled":false,"rental_uris":{"android":"levelo://app?vid=c594b3e3-1ba6-43b9-a1c1-be8533666e55","ios":"levelo://app?vid=c594b3e3-1ba6-43b9-a1c1-be8533666e55"},"vehicle_type_id":"4","last_reported":1724519276,"current_range_meters":26400,"station_id":"","pricing_plan_id":"cebpf4jnsgd1na2vs0mg"},{"bike_id":"db399c75-49ad-4419-a288-38737e32025d","system_id":"levelo_inurba_marseille","lat":43.337552,"lon":5.374572,"is_reserved":false,"is_disabled":false,"rental_uris":{"android":"levelo://app?vid=db399c75-49ad-4419-a288-38737e32025d","ios":"levelo://app?vid=db399c75-49ad-4419-a288-38737e32025d"},"vehicle_type_id":"4","last_reported":1724519276,"current_range_meters":28400,"station_id":"","pricing_plan_id":"cebpf4jnsgd1na2vs0mg"},{"bike_id":"a6de0161-1a37-4484-af54-217f3b7611b4","system_id":"levelo_inurba_marseille","lat":43.3375,"lon":5.37493,"is_reserved":false,"is_disabled":false,"rental_uris":{"android":"levelo://app?vid=a6de0161-1a37-4484-af54-217f3b7611b4","ios":"levelo://app?vid=a6de0161-1a37-4484-af54-217f3b7611b4"},"vehicle_type_id":"4","last_reported":1724519276,"current_range_meters":30800,"station_id":"","pricing_plan_id":"cebpf4jnsgd1na2vs0mg"},{"bike_id":"e358a63e-204b-4bf9-a280-6d0c0f57da63","system_id":"levelo_inurba_marseille","lat":43.337621,"lon":5.374623,"is_reserved":false,"is_disabled":false,"rental_uris":{"android":"levelo://app?vid=e358a63e-204b-4bf9-a280-6d0c0f57da63","ios":"levelo://app?vid=e358a63e-204b-4bf9-a280-6d0c0f57da63"},"vehicle_type_id":"4","last_reported":1724519276,"current_range_meters":0,"station_id":"","pricing_plan_id":"cebpf4jnsgd1na2vs0mg"},{"bike_id":"cdc35d34-57e9-43e1-ac36-c0218dd5a9e1","system_id":"levelo_inurba_marseille","lat":43.33759,"lon":5.37489,"is_reserved":false,"is_disabled":false,"rental_uris":{"android":"levelo://app?vid=cdc35d34-57e9-43e1-ac36-c0218dd5a9e1","ios":"levelo://app?vid=cdc35d34-57e9-43e1-ac36-c0218dd5a9e1"},"vehicle_type_id":"4","last_reported":1724519276,"current_range_meters":17600,"station_id":"","pricing_plan_id":"cebpf4jnsgd1na2vs0mg"},{"bike_id":"1b635017-1f6d-4ccf-887c-5535d999fc49","system_id":"levelo_inurba_marseille","lat":43.33768,"lon":5.37436,"is_reserved":false,"is_disabled":false,"rental_uris":{"android":"levelo://app?vid=1b635017-1f6d-4ccf-887c-5535d999fc49","ios":"levelo://app?vid=1b635017-1f6d-4ccf-887c-5535d999fc49"},"vehicle_type_id":"4","last_reported":1724519276,"current_range_meters":14000,"station_id":"","pricing_plan_id":"cebpf4jnsgd1na2vs0mg"},{"bike_id":"b9c84776-119b-423d-9ad9-fe295d364abb","system_id":"levelo_inurba_marseille","lat":43.30642,"lon":5.401031,"is_reserved":false,"is_disabled":false,"rental_uris":{"android":"levelo://app?vid=b9c84776-119b-423d-9ad9-fe295d364abb","ios":"levelo://app?vid=b9c84776-119b-423d-9ad9-fe295d364abb"},"vehicle_type_id":"4","last_reported":1724519276,"current_range_meters":22800,"station_id":"ce4bh112rcd13ifvqda0","pricing_plan_id":"cebpf4jnsgd1na2vs0mg"},{"bike_id":"e300e649-52e7-4b02-b7af-abe51bf98e7d","system_id":"levelo_inurba_marseille","lat":43.306412,"lon":5.401035,"is_reserved":false,"is_disabled":false,"rental_uris":{"android":"levelo://app?vid=e300e649-52e7-4b02-b7af-abe51bf98e7d","ios":"levelo://app?vid=e300e649-52e7-4b02-b7af-abe51bf98e7d"},"vehicle_type_id":"4","last_reported":1724519276,"current_range_meters":0,"station_id":"ce4bh112rcd13ifvqda0","pricing_plan_id":"cebpf4jnsgd1na2vs0mg"},{"bike_id":"1049467c-21be-4bd9-bd4a-1e7333da8c79","system_id":"levelo_inurba_marseille","lat":43.306412,"lon":5.401035,"is_reserved":false,"is_disabled":false,"rental_uris":{"android":"levelo://app?vid=1049467c-21be-4bd9-bd4a-1e7333da8c79","ios":"levelo://app?vid=1049467c-21be-4bd9-bd4a-1e7333da8c79"},"vehicle_type_id":"4","last_reported":1724519276,"current_range_meters":14000,"station_id":"ce4bh112rcd13ifvqda0","pricing_plan_id":"cebpf4jnsgd1na2vs0mg"},{"bike_id":"7603ac24-aa9a-457d-a9cf-d27ee8ef9735","system_id":"levelo_inurba_marseille","lat":43.301117,"lon":5.398795,"is_reserved":false,"is_disabled":false,"rental_uris":{"android":"levelo://app?vid=7603ac24-aa9a-457d-a9cf-d27ee8ef9735","ios":"levelo://app?vid=7603ac24-aa9a-457d-a9cf-d27ee8ef9735"},"vehicle_type_id":"4","last_reported":1724519276,"current_range_meters":30800,"station_id":"ce4bh0h2rcd13ifvqd40","pricing_plan_id":"cebpf4jnsgd1na2vs0mg"},{"bike_id":"39acdd4c-83c0-4f7e-aeff-104d0c26a23d","system_id":"levelo_inurba_marseille","lat":43.301117,"lon":5.398795,"is_reserved":false,"is_disabled":false,"rental_uris":{"android":"levelo://app?vid=39acdd4c-83c0-4f7e-aeff-104d0c26a23d","ios":"levelo://app?vid=39acdd4c-83c0-4f7e-aeff-104d0c26a23d"},"vehicle_type_id":"4","last_reported":1724519276,"current_range_meters":31200,"station_id":"ce4bh0h2rcd13ifvqd40","pricing_plan_id":"cebpf4jnsgd1na2vs0mg"},{"bike_id":"c743df91-cd81-4d43-80ba-d1bdfd65ad25","system_id":"levelo_inurba_marseille","lat":43.301117,"lon":5.398795,"is_reserved":false,"is_disabled":false,"rental_uris":{"android":"levelo://app?vid=c743df91-cd81-4d43-80ba-d1bdfd65ad25","ios":"levelo://app?vid=c743df91-cd81-4d43-80ba-d1bdfd65ad25"},"vehicle_type_id":"4","last_reported":1724519276,"current_range_meters":27600,"station_id":"ce4bh0h2rcd13ifvqd40","pricing_plan_id":"cebpf4jnsgd1na2vs0mg"},{"bike_id":"d6d9dad6-9edc-4fa1-aaf1-120356a6629b","system_id":"levelo_inurba_marseille","lat":43.28727,"lon":5.36078,"is_reserved":false,"is_disabled":false,"rental_uris":{"android":"levelo://app?vid=d6d9dad6-9edc-4fa1-aaf1-120356a6629b","ios":"levelo://app?vid=d6d9dad6-9edc-4fa1-aaf1-120356a6629b"},"vehicle_type_id":"4","last_reported":1724519276,"current_range_meters":7600,"station_id":"cki0cbj6b192h4jlfktg","pricing_plan_id":"cebpf4jnsgd1na2vs0mg"},{"bike_id":"1a954b57-3170-4b90-885e-ede3c42b461a","system_id":"levelo_inurba_marseille","lat":43.298681,"lon":5.397225,"is_reserved":false,"is_disabled":false,"rental_uris":{"android":"levelo://app?vid=1a954b57-3170-4b90-885e-ede3c42b461a","ios":"levelo://app?vid=1a954b57-3170-4b90-885e-ede3c42b461a"},"vehicle_type_id":"4","last_reported":1724519276,"current_range_meters":11200,"station_id":"ce4bh0h2rcd13ifvqd50","pricing_plan_id":"cebpf4jnsgd1na2vs0mg"},{"bike_id":"62eac0b5-48e3-446e-aeab-2bd315b022fe","system_id":"levelo_inurba_marseille","lat":43.29865,"lon":5.39729,"is_reserved":false,"is_disabled":false,"rental_uris":{"android":"levelo://app?vid=62eac0b5-48e3-446e-aeab-2bd315b022fe","ios":"levelo://app?vid=62eac0b5-48e3-446e-aeab-2bd315b022fe"},"vehicle_type_id":"4","last_reported":1724519276,"current_range_meters":3600,"station_id":"ce4bh0h2rcd13ifvqd50","pricing_plan_id":"cebpf4jnsgd1na2vs0mg"},{"bike_id":"6706b5ca-ee87-4909-9a92-571f11a642a2","system_id":"levelo_inurba_marseille","lat":43.286593,"lon":5.363346,"is_reserved":false,"is_disabled":false,"rental_uris":{"android":"levelo://app?vid=6706b5ca-ee87-4909-9a92-571f11a642a2","ios":"levelo://app?vid=6706b5ca-ee87-4909-9a92-571f11a642a2"},"vehicle_type_id":"4","last_reported":1724519276,"current_range_meters":1600,"station_id":"ce4bhah2rcd13ifvqej0","pricing_plan_id":"cebpf4jnsgd1na2vs0mg"},{"bike_id":"bc8bd382-87b2-4eac-93f8-a93af21d0286","system_id":"levelo_inurba_marseille","lat":43.286961,"lon":5.373785,"is_reserved":false,"is_disabled":false,"rental_uris":{"android":"levelo://app?vid=bc8bd382-87b2-4eac-93f8-a93af21d0286","ios":"levelo://app?vid=bc8bd382-87b2-4eac-93f8-a93af21d0286"},"vehicle_type_id":"4","last_reported":1724519276,"current_range_meters":0,"station_id":"ce4bh3p2rcd13ifvqdq0","pricing_plan_id":"cebpf4jnsgd1na2vs0mg"},{"bike_id":"2c529954-21f6-44ac-93ee-83d3cf326d41","system_id":"levelo_inurba_marseille","lat":43.28699,"lon":5.37387,"is_reserved":false,"is_disabled":false,"rental_uris":{"android":"levelo://app?vid=2c529954-21f6-44ac-93ee-83d3cf326d41","ios":"levelo://app?vid=2c529954-21f6-44ac-93ee-83d3cf326d41"},"vehicle_type_id":"4","last_reported":1724519276,"current_range_meters":0,"station_id":"ce4bh3p2rcd13ifvqdq0","pricing_plan_id":"cebpf4jnsgd1na2vs0mg"},{"bike_id":"283ea747-1aa1-43cc-b216-522a6b28ab69","system_id":"levelo_inurba_marseille","lat":43.298681,"lon":5.397225,"is_reserved":false,"is_disabled":false,"rental_uris":{"android":"levelo://app?vid=283ea747-1aa1-43cc-b216-522a6b28ab69","ios":"levelo://app?vid=283ea747-1aa1-43cc-b216-522a6b28ab69"},"vehicle_type_id":"4","last_reported":1724519276,"current_range_meters":29600,"station_id":"ce4bh0h2rcd13ifvqd50","pricing_plan_id":"cebpf4jnsgd1na2vs0mg"},{"bike_id":"6705794a-2210-446f-9aa7-e51ffb28f9d6","system_id":"levelo_inurba_marseille","lat":43.28697,"lon":5.37386,"is_reserved":false,"is_disabled":false,"rental_uris":{"android":"levelo://app?vid=6705794a-2210-446f-9aa7-e51ffb28f9d6","ios":"levelo://app?vid=6705794a-2210-446f-9aa7-e51ffb28f9d6"},"vehicle_type_id":"4","last_reported":1724519276,"current_range_meters":0,"station_id":"ce4bh3p2rcd13ifvqdq0","pricing_plan_id":"cebpf4jnsgd1na2vs0mg"},{"bike_id":"e5a6a1fa-4bdb-48a6-b0b9-84bda0ae4948","system_id":"levelo_inurba_marseille","lat":43.286961,"lon":5.373785,"is_reserved":false,"is_disabled":false,"rental_uris":{"android":"levelo://app?vid=e5a6a1fa-4bdb-48a6-b0b9-84bda0ae4948","ios":"levelo://app?vid=e5a6a1fa-4bdb-48a6-b0b9-84bda0ae4948"},"vehicle_type_id":"4","last_reported":1724519276,"current_range_meters":19200,"station_id":"ce4bh3p2rcd13ifvqdq0","pricing_plan_id":"cebpf4jnsgd1na2vs0mg"},{"bike_id":"edb1996c-5396-4d54-b15a-24686d76cfe7","system_id":"levelo_inurba_marseille","lat":43.302759,"lon":5.400793,"is_reserved":false,"is_disabled":false,"rental_uris":{"android":"levelo://app?vid=edb1996c-5396-4d54-b15a-24686d76cfe7","ios":"levelo://app?vid=edb1996c-5396-4d54-b15a-24686d76cfe7"},"vehicle_type_id":"4","last_reported":1724519276,"current_range_meters":0,"station_id":"ce4bgvh2rcd13ifvqcs0","pricing_plan_id":"cebpf4jnsgd1na2vs0mg"},{"bike_id":"78801af4-d385-4746-a5d0-69739038821d","system_id":"levelo_inurba_marseille","lat":43.30247,"lon":5.40052,"is_reserved":false,"is_disabled":false,"rental_uris":{"android":"levelo://app?vid=78801af4-d385-4746-a5d0-69739038821d","ios":"levelo://app?vid=78801af4-d385-4746-a5d0-69739038821d"},"vehicle_type_id":"4","last_reported":1724519276,"current_range_meters":0,"station_id":"ce4bgvh2rcd13ifvqcs0","pricing_plan_id":"cebpf4jnsgd1na2vs0mg"},{"bike_id":"7d23d0d3-5b53-42c4-8a5f-71f12f3c7f37","system_id":"levelo_inurba_marseille","lat":43.289307,"lon":5.38406,"is_reserved":false,"is_disabled":false,"rental_uris":{"android":"levelo://app?vid=7d23d0d3-5b53-42c4-8a5f-71f12f3c7f37","ios":"levelo://app?vid=7d23d0d3-5b53-42c4-8a5f-71f12f3c7f37"},"vehicle_type_id":"4","last_reported":1724519276,"current_range_meters":21600,"station_id":"ce4bh612rcd13ifvqe6g","pricing_plan_id":"cebpf4jnsgd1na2vs0mg"},{"bike_id":"9e96af02-95d9-406b-b63b-a0d63f187ef4","system_id":"levelo_inurba_marseille","lat":43.290336,"lon":5.386425,"is_reserved":false,"is_disabled":false,"rental_uris":{"android":"levelo://app?vid=9e96af02-95d9-406b-b63b-a0d63f187ef4","ios":"levelo://app?vid=9e96af02-95d9-406b-b63b-a0d63f187ef4"},"vehicle_type_id":"4","last_reported":1724519276,"current_range_meters":4000,"station_id":"ce4bh4p2rcd13ifvqe0g","pricing_plan_id":"cebpf4jnsgd1na2vs0mg"},{"bike_id":"43f5cdc8-545b-489e-9276-6633976ea451","system_id":"levelo_inurba_marseille","lat":43.290336,"lon":5.386425,"is_reserved":false,"is_disabled":false,"rental_uris":{"android":"levelo://app?vid=43f5cdc8-545b-489e-9276-6633976ea451","ios":"levelo://app?vid=43f5cdc8-545b-489e-9276-6633976ea451"},"vehicle_type_id":"4","last_reported":1724519276,"current_range_meters":24800,"station_id":"ce4bh4p2rcd13ifvqe0g","pricing_plan_id":"cebpf4jnsgd1na2vs0mg"},{"bike_id":"49ec1395-06ac-4011-abbe-522932b4a91c","system_id":"levelo_inurba_marseille","lat":43.30253,"lon":5.40083,"is_reserved":false,"is_disabled":false,"rental_uris":{"android":"levelo://app?vid=49ec1395-06ac-4011-abbe-522932b4a91c","ios":"levelo://app?vid=49ec1395-06ac-4011-abbe-522932b4a91c"},"vehicle_type_id":"4","last_reported":1724519276,"current_range_meters":1200,"station_id":"ce4bgvh2rcd13ifvqcs0","pricing_plan_id":"cebpf4jnsgd1na2vs0mg"},{"bike_id":"c19fc795-918b-4a0e-942e-43cfacb17ca5","system_id":"levelo_inurba_marseille","lat":43.302759,"lon":5.400793,"is_reserved":false,"is_disabled":false,"rental_uris":{"android":"levelo://app?vid=c19fc795-918b-4a0e-942e-43cfacb17ca5","ios":"levelo://app?vid=c19fc795-918b-4a0e-942e-43cfacb17ca5"},"vehicle_type_id":"4","last_reported":1724519276,"current_range_meters":23200,"station_id":"ce4bgvh2rcd13ifvqcs0","pricing_plan_id":"cebpf4jnsgd1na2vs0mg"},{"bike_id":"a6919676-f9c9-4006-bcef-e07394155bf1","system_id":"levelo_inurba_marseille","lat":43.301117,"lon":5.398795,"is_reserved":false,"is_disabled":false,"rental_uris":{"android":"levelo://app?vid=a6919676-f9c9-4006-bcef-e07394155bf1","ios":"levelo://app?vid=a6919676-f9c9-4006-bcef-e07394155bf1"},"vehicle_type_id":"4","last_reported":1724519276,"current_range_meters":0,"station_id":"ce4bh0h2rcd13ifvqd40","pricing_plan_id":"cebpf4jnsgd1na2vs0mg"},{"bike_id":"a67fbb05-a306-46b3-b842-6b8343f8d9e3","system_id":"levelo_inurba_marseille","lat":43.287185,"lon":5.379373,"is_reserved":false,"is_disabled":false,"rental_uris":{"android":"levelo://app?vid=a67fbb05-a306-46b3-b842-6b8343f8d9e3","ios":"levelo://app?vid=a67fbb05-a306-46b3-b842-6b8343f8d9e3"},"vehicle_type_id":"4","last_reported":1724519276,"current_range_meters":24000,"station_id":"ce4bh9p2rcd13ifvqec0","pricing_plan_id":"cebpf4jnsgd1na2vs0mg"},{"bike_id":"d667b457-a5f8-48c5-af8c-e136166e45d6","system_id":"levelo_inurba_marseille","lat":43.28621,"lon":5.37904,"is_reserved":false,"is_disabled":false,"rental_uris":{"android":"levelo://app?vid=d667b457-a5f8-48c5-af8c-e136166e45d6","ios":"levelo://app?vid=d667b457-a5f8-48c5-af8c-e136166e45d6"},"vehicle_type_id":"4","last_reported":1724519276,"current_range_meters":0,"station_id":"","pricing_plan_id":"cebpf4jnsgd1na2vs0mg"},{"bike_id":"c0a0cb6f-947e-4156-9a0a-b1ccc3fee1ee","system_id":"levelo_inurba_marseille","lat":43.291994,"lon":5.392907,"is_reserved":false,"is_disabled":false,"rental_uris":{"android":"levelo://app?vid=c0a0cb6f-947e-4156-9a0a-b1ccc3fee1ee","ios":"levelo://app?vid=c0a0cb6f-947e-4156-9a0a-b1ccc3fee1ee"},"vehicle_type_id":"4","last_reported":1724519276,"current_range_meters":18000,"station_id":"ce4bh192rcd13ifvqdd0","pricing_plan_id":"cebpf4jnsgd1na2vs0mg"},{"bike_id":"ce2024ab-dea8-45f6-908b-bd645e46a1b6","system_id":"levelo_inurba_marseille","lat":43.32447,"lon":5.40282,"is_reserved":false,"is_disabled":false,"rental_uris":{"android":"levelo://app?vid=ce2024ab-dea8-45f6-908b-bd645e46a1b6","ios":"levelo://app?vid=ce2024ab-dea8-45f6-908b-bd645e46a1b6"},"vehicle_type_id":"4","last_reported":1724519276,"current_range_meters":8800,"station_id":"","pricing_plan_id":"cebpf4jnsgd1na2vs0mg"},{"bike_id":"0634e12b-dced-4d8f-bbcb-9f1189bbbfed","system_id":"levelo_inurba_marseille","lat":43.284538,"lon":5.358657,"is_reserved":false,"is_disabled":false,"rental_uris":{"android":"levelo://app?vid=0634e12b-dced-4d8f-bbcb-9f1189bbbfed","ios":"levelo://app?vid=0634e12b-dced-4d8f-bbcb-9f1189bbbfed"},"vehicle_type_id":"4","last_reported":1724519276,"current_range_meters":14800,"station_id":"ce4bhah2rcd13ifvqei0","pricing_plan_id":"cebpf4jnsgd1na2vs0mg"},{"bike_id":"7c34973a-1a4c-46c7-9cd3-5bd4e9839161","system_id":"levelo_inurba_marseille","lat":43.284534,"lon":5.358662,"is_reserved":false,"is_disabled":false,"rental_uris":{"android":"levelo://app?vid=7c34973a-1a4c-46c7-9cd3-5bd4e9839161","ios":"levelo://app?vid=7c34973a-1a4c-46c7-9cd3-5bd4e9839161"},"vehicle_type_id":"4","last_reported":1724519276,"current_range_meters":22800,"station_id":"ce4bhah2rcd13ifvqei0","pricing_plan_id":"cebpf4jnsgd1na2vs0mg"},{"bike_id":"1c5019ed-0950-43be-90d1-c63ff9c25a73","system_id":"levelo_inurba_marseille","lat":43.284534,"lon":5.358662,"is_reserved":false,"is_disabled":false,"rental_uris":{"android":"levelo://app?vid=1c5019ed-0950-43be-90d1-c63ff9c25a73","ios":"levelo://app?vid=1c5019ed-0950-43be-90d1-c63ff9c25a73"},"vehicle_type_id":"4","last_reported":1724519276,"current_range_meters":18800,"station_id":"ce4bhah2rcd13ifvqei0","pricing_plan_id":"cebpf4jnsgd1na2vs0mg"},{"bike_id":"5fa6bae1-8f3b-4142-9142-40d73ccb7f33","system_id":"levelo_inurba_marseille","lat":43.284534,"lon":5.358662,"is_reserved":false,"is_disabled":false,"rental_uris":{"android":"levelo://app?vid=5fa6bae1-8f3b-4142-9142-40d73ccb7f33","ios":"levelo://app?vid=5fa6bae1-8f3b-4142-9142-40d73ccb7f33"},"vehicle_type_id":"4","last_reported":1724519276,"current_range_meters":16400,"station_id":"ce4bhah2rcd13ifvqei0","pricing_plan_id":"cebpf4jnsgd1na2vs0mg"},{"bike_id":"28426136-1da5-4349-9ed4-41b5e38fe5e6","system_id":"levelo_inurba_marseille","lat":43.284534,"lon":5.358662,"is_reserved":false,"is_disabled":false,"rental_uris":{"android":"levelo://app?vid=28426136-1da5-4349-9ed4-41b5e38fe5e6","ios":"levelo://app?vid=28426136-1da5-4349-9ed4-41b5e38fe5e6"},"vehicle_type_id":"4","last_reported":1724519276,"current_range_meters":11600,"station_id":"ce4bhah2rcd13ifvqei0","pricing_plan_id":"cebpf4jnsgd1na2vs0mg"},{"bike_id":"62469c0d-160d-43cb-90c0-4eba3623ce6c","system_id":"levelo_inurba_marseille","lat":43.284534,"lon":5.358662,"is_reserved":false,"is_disabled":false,"rental_uris":{"android":"levelo://app?vid=62469c0d-160d-43cb-90c0-4eba3623ce6c","ios":"levelo://app?vid=62469c0d-160d-43cb-90c0-4eba3623ce6c"},"vehicle_type_id":"4","last_reported":1724519276,"current_range_meters":23200,"station_id":"ce4bhah2rcd13ifvqei0","pricing_plan_id":"cebpf4jnsgd1na2vs0mg"},{"bike_id":"89e6a88e-6d75-46ac-bba1-4045e5a2df01","system_id":"levelo_inurba_marseille","lat":43.303256,"lon":5.404389,"is_reserved":false,"is_disabled":false,"rental_uris":{"android":"levelo://app?vid=89e6a88e-6d75-46ac-bba1-4045e5a2df01","ios":"levelo://app?vid=89e6a88e-6d75-46ac-bba1-4045e5a2df01"},"vehicle_type_id":"4","last_reported":1724519276,"current_range_meters":1200,"station_id":"ce4bh012rcd13ifvqd10","pricing_plan_id":"cebpf4jnsgd1na2vs0mg"},{"bike_id":"c08b2c48-a425-4020-a014-b74ff84cfabb","system_id":"levelo_inurba_marseille","lat":43.294397,"lon":5.397507,"is_reserved":false,"is_disabled":false,"rental_uris":{"android":"levelo://app?vid=c08b2c48-a425-4020-a014-b74ff84cfabb","ios":"levelo://app?vid=c08b2c48-a425-4020-a014-b74ff84cfabb"},"vehicle_type_id":"4","last_reported":1724519276,"current_range_meters":0,"station_id":"ce4bh3h2rcd13ifvqdo0","pricing_plan_id":"cebpf4jnsgd1na2vs0mg"},{"bike_id":"7a97f2c8-c65e-4369-9d89-e3f01629684e","system_id":"levelo_inurba_marseille","lat":43.2862,"lon":5.35109,"is_reserved":false,"is_disabled":false,"rental_uris":{"android":"levelo://app?vid=7a97f2c8-c65e-4369-9d89-e3f01629684e","ios":"levelo://app?vid=7a97f2c8-c65e-4369-9d89-e3f01629684e"},"vehicle_type_id":"4","last_reported":1724519276,"current_range_meters":8000,"station_id":"ce4bhch2rcd13ifvqeug","pricing_plan_id":"cebpf4jnsgd1na2vs0mg"},{"bike_id":"23ec8ccc-e5e8-44ef-8b9f-82ccb5c19cdc","system_id":"levelo_inurba_marseille","lat":43.28621,"lon":5.35103,"is_reserved":false,"is_disabled":false,"rental_uris":{"android":"levelo://app?vid=23ec8ccc-e5e8-44ef-8b9f-82ccb5c19cdc","ios":"levelo://app?vid=23ec8ccc-e5e8-44ef-8b9f-82ccb5c19cdc"},"vehicle_type_id":"4","last_reported":1724519276,"current_range_meters":31200,"station_id":"ce4bhch2rcd13ifvqeug","pricing_plan_id":"cebpf4jnsgd1na2vs0mg"},{"bike_id":"431958df-f7d7-4e18-9cf1-8658efee0bad","system_id":"levelo_inurba_marseille","lat":43.285848,"lon":5.350787,"is_reserved":false,"is_disabled":false,"rental_uris":{"android":"levelo://app?vid=431958df-f7d7-4e18-9cf1-8658efee0bad","ios":"levelo://app?vid=431958df-f7d7-4e18-9cf1-8658efee0bad"},"vehicle_type_id":"4","last_reported":1724519276,"current_range_meters":11600,"station_id":"ce4bhch2rcd13ifvqeug","pricing_plan_id":"cebpf4jnsgd1na2vs0mg"},{"bike_id":"f191db49-afea-4574-b031-521904c43c33","system_id":"levelo_inurba_marseille","lat":43.2862,"lon":5.35103,"is_reserved":false,"is_disabled":false,"rental_uris":{"android":"levelo://app?vid=f191db49-afea-4574-b031-521904c43c33","ios":"levelo://app?vid=f191db49-afea-4574-b031-521904c43c33"},"vehicle_type_id":"4","last_reported":1724519276,"current_range_meters":31200,"station_id":"ce4bhch2rcd13ifvqeug","pricing_plan_id":"cebpf4jnsgd1na2vs0mg"},{"bike_id":"50e76325-8a0e-47c8-8dce-b8e17965a731","system_id":"levelo_inurba_marseille","lat":43.286183,"lon":5.35108,"is_reserved":false,"is_disabled":false,"rental_uris":{"android":"levelo://app?vid=50e76325-8a0e-47c8-8dce-b8e17965a731","ios":"levelo://app?vid=50e76325-8a0e-47c8-8dce-b8e17965a731"},"vehicle_type_id":"4","last_reported":1724519276,"current_range_meters":26800,"station_id":"ce4bhch2rcd13ifvqeug","pricing_plan_id":"cebpf4jnsgd1na2vs0mg"},{"bike_id":"01315291-da9d-4cff-be7e-79f6c78be45a","system_id":"levelo_inurba_marseille","lat":43.286177,"lon":5.351097,"is_reserved":false,"is_disabled":false,"rental_uris":{"android":"levelo://app?vid=01315291-da9d-4cff-be7e-79f6c78be45a","ios":"levelo://app?vid=01315291-da9d-4cff-be7e-79f6c78be45a"},"vehicle_type_id":"4","last_reported":1724519276,"current_range_meters":31200,"station_id":"ce4bhch2rcd13ifvqeug","pricing_plan_id":"cebpf4jnsgd1na2vs0mg"},