{"last_updated":1702019199,"ttl":30,"version":"2.2","data":{"bikes":[{"bike_id":"62fb5385-2c5d-4c9d-b743-187bb4fbb192","system_id":"levelo_inurba_marseille","lat":43.313391,"lon":5.36706,"is_reserved":false,"is_disabled":false,"rental_uris":{"android":"levelo://app?vid=62fb5385-2c5d-4c9d-b743-187bb4fbb192","ios":"levelo://app?vid=62fb5385-2c5d-4c9d-b743-187bb4fbb192"},"vehicle_type_id":"4","last_reported":1702019200,"current_range_meters":28800,"station_id":"ce4bgr92rcd13ifvqc6g","pricing_plan_id":"free"},{"bike_id":"478c9a14-8ab3-413f-a56d-35a2869a4741","system_id":"levelo_inurba_marseille","lat":43.314811,"lon":5.373103,"is_reserved":false,"is_disabled":false,"rental_uris":{"android":"levelo://app?vid=478c9a14-8ab3-413f-a56d-35a2869a4741","ios":"levelo://app?vid=478c9a14-8ab3-413f-a56d-35a2869a4741"},"vehicle_type_id":"4","last_reported":1702019200,"current_range_meters":30400,"station_id":"ce4bgt12rcd13ifvqcd0","pricing_plan_id":"free"},{"bike_id":"1e4ef0de-bb3a-486e-922d-d78312fedaf1","system_id":"levelo_inurba_marseille","lat":43.315,"lon":5.37301,"is_reserved":false,"is_disabled":false,"rental_uris":{"android":"levelo://app?vid=1e4ef0de-bb3a-486e-922d-d78312fedaf1","ios":"levelo://app?vid=1e4ef0de-bb3a-486e-922d-d78312fedaf1"},"vehicle_type_id":"4","last_reported":1702019200,"current_range_meters":24000,"station_id":"ce4bgt12rcd13ifvqcd0","pricing_plan_id":"free"},{"bike_id":"11df2962-2ac5-4f81-8875-70e8b1ade342","system_id":"levelo_inurba_marseille","lat":43.317075,"lon":5.377367,"is_reserved":false,"is_disabled":false,"rental_uris":{"android":"levelo://app?vid=11df2962-2ac5-4f81-8875-70e8b1ade342","ios":"levelo://app?vid=11df2962-2ac5-4f81-8875-70e8b1ade342"},"vehicle_type_id":"4","last_reported":1702019200,"current_range_meters":30000,"station_id":"ce4bgth2rcd13ifvqch0","pricing_plan_id":"free"},{"bike_id":"adf146c5-e4e1-4668-9a33-042940925130","system_id":"levelo_inurba_marseille","lat":43.31351,"lon":5.37909,"is_reserved":false,"is_disabled":false,"rental_uris":{"android":"levelo://app?vid=adf146c5-e4e1-4668-9a33-042940925130","ios":"levelo://app?vid=adf146c5-e4e1-4668-9a33-042940925130"},"vehicle_type_id":"4","last_reported":1702019200,"current_range_meters":0,"station_id":"","pricing_plan_id":"free"},{"bike_id":"190d01ba-18aa-4e58-9520-6e7293f3f34d","system_id":"levelo_inurba_marseille","lat":43.30304,"lon":5.368987,"is_reserved":false,"is_disabled":false,"rental_uris":{"android":"levelo://app?vid=190d01ba-18aa-4e58-9520-6e7293f3f34d","ios":"levelo://app?vid=190d01ba-18aa-4e58-9520-6e7293f3f34d"},"vehicle_type_id":"4","last_reported":1702019200,"current_range_meters":23600,"station_id":"ce4bgqh2rcd13ifvqc5g","pricing_plan_id":"free"},{"bike_id":"1c5bd8ad-09cd-46a6-a17b-15bc893af4b2","system_id":"levelo_inurba_marseille","lat":43.30304,"lon":5.368987,"is_reserved":false,"is_disabled":false,"rental_uris":{"android":"levelo://app?vid=1c5bd8ad-09cd-46a6-a17b-15bc893af4b2","ios":"levelo://app?vid=1c5bd8ad-09cd-46a6-a17b-15bc893af4b2"},"vehicle_type_id":"4","last_reported":1702019200,"current_range_meters":31200,"station_id":"ce4bgqh2rcd13ifvqc5g","pricing_plan_id":"free"},{"bike_id":"72a9a3ba-7967-4f12-aab8-78378debf359","system_id":"levelo_inurba_marseille","lat":43.30304,"lon":5.368987,"is_reserved":false,"is_disabled":false,"rental_uris":{"android":"levelo://app?vid=72a9a3ba-7967-4f12-aab8-78378debf359","ios":"levelo://app?vid=72a9a3ba-7967-4f12-aab8-78378debf359"},"vehicle_type_id":"4","last_reported":1702019200,"current_range_meters":7200,"station_id":"ce4bgqh2rcd13ifvqc5g","pricing_plan_id":"free"},{"bike_id":"4953b2ff-8469-441f-9831-4f946b132d6c","system_id":"levelo_inurba_marseille","lat":43.303046,"lon":5.368981,"is_reserved":false,"is_disabled":false,"rental_uris":{"android":"levelo://app?vid=4953b2ff-8469-441f-9831-4f946b132d6c","ios":"levelo://app?vid=4953b2ff-8469-441f-9831-4f946b132d6c"},"vehicle_type_id":"4","last_reported":1702019200,"current_range_meters":28800,"station_id":"ce4bgqh2rcd13ifvqc5g","pricing_plan_id":"free"},{"bike_id":"796977cc-15a4-414a-aa19-2709631b7836","system_id":"levelo_inurba_marseille","lat":43.303046,"lon":5.368981,"is_reserved":false,"is_disabled":false,"rental_uris":{"android":"levelo://app?vid=796977cc-15a4-414a-aa19-2709631b7836","ios":"levelo://app?vid=796977cc-15a4-414a-aa19-2709631b7836"},"vehicle_type_id":"4","last_reported":1702019200,"current_range_meters":28400,"station_id":"ce4bgqh2rcd13ifvqc5g","pricing_plan_id":"free"},{"bike_id":"7c35d63d-f967-495f-b9fe-b0094fb3b888","system_id":"levelo_inurba_marseille","lat":43.30304,"lon":5.368987,"is_reserved":false,"is_disabled":false,"rental_uris":{"android":"levelo://app?vid=7c35d63d-f967-495f-b9fe-b0094fb3b888","ios":"levelo://app?vid=7c35d63d-f967-495f-b9fe-b0094fb3b888"},"vehicle_type_id":"4","last_reported":1702019200,"current_range_meters":31200,"station_id":"ce4bgqh2rcd13ifvqc5g","pricing_plan_id":"free"},{"bike_id":"1ea60f58-75f7-4484-b705-1156df4b02ad","system_id":"levelo_inurba_marseille","lat":43.302799,"lon":5.373331,"is_reserved":false,"is_disabled":false,"rental_uris":{"android":"levelo://app?vid=1ea60f58-75f7-4484-b705-1156df4b02ad","ios":"levelo://app?vid=1ea60f58-75f7-4484-b705-1156df4b02ad"},"vehicle_type_id":"4","last_reported":1702019200,"current_range_meters":2000,"station_id":"","pricing_plan_id":"free"},{"bike_id":"a1869cbe-fb8f-4e4f-8b10-ed09a03ab430","system_id":"levelo_inurba_marseille","lat":43.301939,"lon":5.366286,"is_reserved":false,"is_disabled":false,"rental_uris":{"android":"levelo://app?vid=a1869cbe-fb8f-4e4f-8b10-ed09a03ab430","ios":"levelo://app?vid=a1869cbe-fb8f-4e4f-8b10-ed09a03ab430"},"vehicle_type_id":"4","last_reported":1702019200,"current_range_meters":30000,"station_id":"ce4bgrh2rcd13ifvqc8g","pricing_plan_id":"free"},{"bike_id":"ebc56ef6-b446-40a1-bf21-91b354dc0eef","system_id":"levelo_inurba_marseille","lat":43.30806,"lon":5.38149,"is_reserved":false,"is_disabled":false,"rental_uris":{"android":"levelo://app?vid=ebc56ef6-b446-40a1-bf21-91b354dc0eef","ios":"levelo://app?vid=ebc56ef6-b446-40a1-bf21-91b354dc0eef"},"vehicle_type_id":"4","last_reported":1702019200,"current_range_meters":22000,"station_id":"ce4bgt12rcd13ifvqce0","pricing_plan_id":"free"},{"bike_id":"1ec638c7-bf27-4e92-ad51-5fc75740452c","system_id":"levelo_inurba_marseille","lat":43.304606,"lon":5.379026,"is_reserved":false,"is_disabled":false,"rental_uris":{"android":"levelo://app?vid=1ec638c7-bf27-4e92-ad51-5fc75740452c","ios":"levelo://app?vid=1ec638c7-bf27-4e92-ad51-5fc75740452c"},"vehicle_type_id":"4","last_reported":1702019200,"current_range_meters":8400,"station_id":"ce4bgup2rcd13ifvqcn0","pricing_plan_id":"free"},{"bike_id":"d540ae53-80f2-4122-a9c8-23cab7376e58","system_id":"levelo_inurba_marseille","lat":43.304606,"lon":5.379026,"is_reserved":false,"is_disabled":false,"rental_uris":{"android":"levelo://app?vid=d540ae53-80f2-4122-a9c8-23cab7376e58","ios":"levelo://app?vid=d540ae53-80f2-4122-a9c8-23cab7376e58"},"vehicle_type_id":"4","last_reported":1702019200,"current_range_meters":14000,"station_id":"ce4bgup2rcd13ifvqcn0","pricing_plan_id":"free"},{"bike_id":"b69d1ca4-d343-44de-b6fa-59ceb787daae","system_id":"levelo_inurba_marseille","lat":43.304606,"lon":5.379026,"is_reserved":false,"is_disabled":false,"rental_uris":{"android":"levelo://app?vid=b69d1ca4-d343-44de-b6fa-59ceb787daae","ios":"levelo://app?vid=b69d1ca4-d343-44de-b6fa-59ceb787daae"},"vehicle_type_id":"4","last_reported":1702019200,"current_range_meters":21600,"station_id":"ce4bgup2rcd13ifvqcn0","pricing_plan_id":"free"},{"bike_id":"113dab3d-00af-47f0-b44e-953df8c68154","system_id":"levelo_inurba_marseille","lat":43.304606,"lon":5.379026,"is_reserved":false,"is_disabled":false,"rental_uris":{"android":"levelo://app?vid=113dab3d-00af-47f0-b44e-953df8c68154","ios":"levelo://app?vid=113dab3d-00af-47f0-b44e-953df8c68154"},"vehicle_type_id":"4","last_reported":1702019200,"current_range_meters":1600,"station_id":"ce4bgup2rcd13ifvqcn0","pricing_plan_id":"free"},{"bike_id":"5a3f6515-3c2f-467c-a2aa-baaf3f4c1d6c","system_id":"levelo_inurba_marseille","lat":43.304606,"lon":5.379026,"is_reserved":false,"is_disabled":false,"rental_uris":{"android":"levelo://app?vid=5a3f6515-3c2f-467c-a2aa-baaf3f4c1d6c","ios":"levelo://app?vid=5a3f6515-3c2f-467c-a2aa-baaf3f4c1d6c"},"vehicle_type_id":"4","last_reported":1702019200,"current_range_meters":7600,"station_id":"ce4bgup2rcd13ifvqcn0","pricing_plan_id":"free"},{"bike_id":"7cae405f-368e-445b-8922-669b463c6f29","system_id":"levelo_inurba_marseille","lat":43.304606,"lon":5.379026,"is_reserved":false,"is_disabled":false,"rental_uris":{"android":"levelo://app?vid=7cae405f-368e-445b-8922-669b463c6f29","ios":"levelo://app?vid=7cae405f-368e-445b-8922-669b463c6f29"},"vehicle_type_id":"4","last_reported":1702019200,"current_range_meters":22400,"station_id":"ce4bgup2rcd13ifvqcn0","pricing_plan_id":"free"},{"bike_id":"6555d424-cf98-452e-80c7-7b40ac7521bf","system_id":"levelo_inurba_marseille","lat":43.324771,"lon":5.36557,"is_reserved":false,"is_disabled":false,"rental_uris":{"android":"levelo://app?vid=6555d424-cf98-452e-80c7-7b40ac7521bf","ios":"levelo://app?vid=6555d424-cf98-452e-80c7-7b40ac7521bf"},"vehicle_type_id":"4","last_reported":1702019200,"current_range_meters":4800,"station_id":"ce4bhs12rcd13ifvqhvg","pricing_plan_id":"free"},{"bike_id":"8e6bcc22-26a3-4f21-b99e-ec3014f3e345","system_id":"levelo_inurba_marseille","lat":43.319936,"lon":5.381424,"is_reserved":false,"is_disabled":false,"rental_uris":{"android":"levelo://app?vid=8e6bcc22-26a3-4f21-b99e-ec3014f3e345","ios":"levelo://app?vid=8e6bcc22-26a3-4f21-b99e-ec3014f3e345"},"vehicle_type_id":"4","last_reported":1702019200,"current_range_meters":14800,"station_id":"ce4bhr12rcd13ifvqhpg","pricing_plan_id":"free"},{"bike_id":"a88cf5d7-0e4d-4efb-83ba-895743ae7648","system_id":"levelo_inurba_marseille","lat":43.31995,"lon":5.381433,"is_reserved":false,"is_disabled":false,"rental_uris":{"android":"levelo://app?vid=a88cf5d7-0e4d-4efb-83ba-895743ae7648","ios":"levelo://app?vid=a88cf5d7-0e4d-4efb-83ba-895743ae7648"},"vehicle_type_id":"4","last_reported":1702019200,"current_range_meters":16400,"station_id":"ce4bhr12rcd13ifvqhpg","pricing_plan_id":"free"},{"bike_id":"cb473838-747e-47ca-b07a-3dc20b15e156","system_id":"levelo_inurba_marseille","lat":43.31994,"lon":5.38147,"is_reserved":false,"is_disabled":false,"rental_uris":{"android":"levelo://app?vid=cb473838-747e-47ca-b07a-3dc20b15e156","ios":"levelo://app?vid=cb473838-747e-47ca-b07a-3dc20b15e156"},"vehicle_type_id":"4","last_reported":1702019200,"current_range_meters":22400,"station_id":"ce4bhr12rcd13ifvqhpg","pricing_plan_id":"free"},{"bike_id":"7e9b28ca-b290-4623-a504-88527bf521f0","system_id":"levelo_inurba_marseille","lat":43.319983,"lon":5.381516,"is_reserved":false,"is_disabled":false,"rental_uris":{"android":"levelo://app?vid=7e9b28ca-b290-4623-a504-88527bf521f0","ios":"levelo://app?vid=7e9b28ca-b290-4623-a504-88527bf521f0"},"vehicle_type_id":"4","last_reported":1702019200,"current_range_meters":24400,"station_id":"ce4bhr12rcd13ifvqhpg","pricing_plan_id":"free"},{"bike_id":"9ee0ef7a-8d9c-4d78-8ae5-64e12b708d26","system_id":"levelo_inurba_marseille","lat":43.319997,"lon":5.381594,"is_reserved":false,"is_disabled":false,"rental_uris":{"android":"levelo://app?vid=9ee0ef7a-8d9c-4d78-8ae5-64e12b708d26","ios":"levelo://app?vid=9ee0ef7a-8d9c-4d78-8ae5-64e12b708d26"},"vehicle_type_id":"4","last_reported":1702019200,"current_range_meters":0,"station_id":"ce4bhr12rcd13ifvqhpg","pricing_plan_id":"free"},{"bike_id":"a49b99ee-38eb-49b5-978d-00cf198fff08","system_id":"levelo_inurba_marseille","lat":43.299666,"lon":5.36633,"is_reserved":false,"is_disabled":false,"rental_uris":{"android":"levelo://app?vid=a49b99ee-38eb-49b5-978d-00cf198fff08","ios":"levelo://app?vid=a49b99ee-38eb-49b5-978d-00cf198fff08"},"vehicle_type_id":"4","last_reported":1702019200,"current_range_meters":20800,"station_id":"","pricing_plan_id":"free"},{"bike_id":"6f1d020b-bf52-4b0d-ba5a-7d676bfd28f9","system_id":"levelo_inurba_marseille","lat":43.298433,"lon":5.362774,"is_reserved":false,"is_disabled":false,"rental_uris":{"android":"levelo://app?vid=6f1d020b-bf52-4b0d-ba5a-7d676bfd28f9","ios":"levelo://app?vid=6f1d020b-bf52-4b0d-ba5a-7d676bfd28f9"},"vehicle_type_id":"4","last_reported":1702019200,"current_range_meters":30400,"station_id":"ce4bgpp2rcd13ifvqc3g","pricing_plan_id":"free"},{"bike_id":"14972b17-ba17-4143-90bc-6668837d3d62","system_id":"levelo_inurba_marseille","lat":43.299243,"lon":5.37481,"is_reserved":false,"is_disabled":false,"rental_uris":{"android":"levelo://app?vid=14972b17-ba17-4143-90bc-6668837d3d62","ios":"levelo://app?vid=14972b17-ba17-4143-90bc-6668837d3d62"},"vehicle_type_id":"4","last_reported":1702019200,"current_range_meters":28000,"station_id":"ce4bgjh2rcd13ifvqbg0","pricing_plan_id":"free"},{"bike_id":"9bc985ac-4df7-4fc4-9009-5cb53e250a45","system_id":"levelo_inurba_marseille","lat":43.311722,"lon":5.387247,"is_reserved":false,"is_disabled":false,"rental_uris":{"android":"levelo://app?vid=9bc985ac-4df7-4fc4-9009-5cb53e250a45","ios":"levelo://app?vid=9bc985ac-4df7-4fc4-9009-5cb53e250a45"},"vehicle_type_id":"4","last_reported":1702019200,"current_range_meters":11200,"station_id":"ce4bgv12rcd13ifvqcp0","pricing_plan_id":"free"},{"bike_id":"3dcd4a73-468d-493a-bf11-93ceddd109f8","system_id":"levelo_inurba_marseille","lat":43.322872,"lon":5.382756,"is_reserved":false,"is_disabled":false,"rental_uris":{"android":"levelo://app?vid=3dcd4a73-468d-493a-bf11-93ceddd109f8","ios":"levelo://app?vid=3dcd4a73-468d-493a-bf11-93ceddd109f8"},"vehicle_type_id":"4","last_reported":1702019200,"current_range_meters":30800,"station_id":"ce4bhr12rcd13ifvqhqg","pricing_plan_id":"free"},{"bike_id":"92dc65d6-6823-4de3-93d4-056f738f090c","system_id":"levelo_inurba_marseille","lat":43.316538,"lon":5.38954,"is_reserved":false,"is_disabled":false,"rental_uris":{"android":"levelo://app?vid=92dc65d6-6823-4de3-93d4-056f738f090c","ios":"levelo://app?vid=92dc65d6-6823-4de3-93d4-056f738f090c"},"vehicle_type_id":"4","last_reported":1702019200,"current_range_meters":2800,"station_id":"","pricing_plan_id":"free"},{"bike_id":"0b2d3d51-b9f3-49da-a7e6-785902e265b7","system_id":"levelo_inurba_marseille","lat":43.317557,"lon":5.390173,"is_reserved":false,"is_disabled":false,"rental_uris":{"android":"levelo://app?vid=0b2d3d51-b9f3-49da-a7e6-785902e265b7","ios":"levelo://app?vid=0b2d3d51-b9f3-49da-a7e6-785902e265b7"},"vehicle_type_id":"4","last_reported":1702019200,"current_range_meters":15600,"station_id":"ce4bhqp2rcd13ifvqhng","pricing_plan_id":"free"},{"bike_id":"afc768e7-df51-4e98-b008-536c86da08a7","system_id":"levelo_inurba_marseille","lat":43.295748,"lon":5.37522,"is_reserved":false,"is_disabled":false,"rental_uris":{"android":"levelo://app?vid=afc768e7-df51-4e98-b008-536c86da08a7","ios":"levelo://app?vid=afc768e7-df51-4e98-b008-536c86da08a7"},"vehicle_type_id":"4","last_reported":1702019200,"current_range_meters":24800,"station_id":"ce4bgh92rcd13ifvqb50","pricing_plan_id":"free"},{"bike_id":"12f5024b-a291-41d4-97ac-1dd0585052af","system_id":"levelo_inurba_marseille","lat":43.304278,"lon":5.388868,"is_reserved":false,"is_disabled":false,"rental_uris":{"android":"levelo://app?vid=12f5024b-a291-41d4-97ac-1dd0585052af","ios":"levelo://app?vid=12f5024b-a291-41d4-97ac-1dd0585052af"},"vehicle_type_id":"4","last_reported":1702019200,"current_range_meters":23600,"station_id":"ce4bgk12rcd13ifvqbi0","pricing_plan_id":"free"},{"bike_id":"7e67292d-24cb-4a0b-8b96-7d677909631b","system_id":"levelo_inurba_marseille","lat":43.296263,"lon":5.377094,"is_reserved":false,"is_disabled":false,"rental_uris":{"android":"levelo://app?vid=7e67292d-24cb-4a0b-8b96-7d677909631b","ios":"levelo://app?vid=7e67292d-24cb-4a0b-8b96-7d677909631b"},"vehicle_type_id":"4","last_reported":1702019200,"current_range_meters":24800,"station_id":"ce4bgi92rcd13ifvqb90","pricing_plan_id":"free"},{"bike_id":"295cea3d-124b-4e96-a57e-b7fed0e47851","system_id":"levelo_inurba_marseille","lat":43.296263,"lon":5.377094,"is_reserved":false,"is_disabled":false,"rental_uris":{"android":"levelo://app?vid=295cea3d-124b-4e96-a57e-b7fed0e47851","ios":"levelo://app?vid=295cea3d-124b-4e96-a57e-b7fed0e47851"},"vehicle_type_id":"4","last_reported":1702019200,"current_range_meters":30000,"station_id":"ce4bgi92rcd13ifvqb90","pricing_plan_id":"free"},{"bike_id":"cf46ee24-559b-4de8-b4da-1a0f2fcd8992","system_id":"levelo_inurba_marseille","lat":43.296103,"lon":5.3773,"is_reserved":false,"is_disabled":false,"rental_uris":{"android":"levelo://app?vid=cf46ee24-559b-4de8-b4da-1a0f2fcd8992","ios":"levelo://app?vid=cf46ee24-559b-4de8-b4da-1a0f2fcd8992"},"vehicle_type_id":"4","last_reported":1702019200,"current_range_meters":27600,"station_id":"ce4bgi92rcd13ifvqb90","pricing_plan_id":"free"},{"bike_id":"89ad6fe9-b06f-457e-8c13-1c52c4ae63cf","system_id":"levelo_inurba_marseille","lat":43.296263,"lon":5.377094,"is_reserved":false,"is_disabled":false,"rental_uris":{"android":"levelo://app?vid=89ad6fe9-b06f-457e-8c13-1c52c4ae63cf","ios":"levelo://app?vid=89ad6fe9-b06f-457e-8c13-1c52c4ae63cf"},"vehicle_type_id":"4","last_reported":1702019200,"current_range_meters":24800,"station_id":"ce4bgi92rcd13ifvqb90","pricing_plan_id":"free"},{"bike_id":"5e392ccc-2a9f-4917-9f3d-fa8c9da4d7e7","system_id":"levelo_inurba_marseille","lat":43.296075,"lon":5.377295,"is_reserved":false,"is_disabled":false,"rental_uris":{"android":"levelo://app?vid=5e392ccc-2a9f-4917-9f3d-fa8c9da4d7e7","ios":"levelo://app?vid=5e392ccc-2a9f-4917-9f3d-fa8c9da4d7e7"},"vehicle_type_id":"4","last_reported":1702019200,"current_range_meters":27200,"station_id":"ce4bgi92rcd13ifvqb90","pricing_plan_id":"free"},{"bike_id":"8b90b6b7-374b-4920-be0c-b53fb4d8ac38","system_id":"levelo_inurba_marseille","lat":43.29535,"lon":5.374963,"is_reserved":false,"is_disabled":false,"rental_uris":{"android":"levelo://app?vid=8b90b6b7-374b-4920-be0c-b53fb4d8ac38","ios":"levelo://app?vid=8b90b6b7-374b-4920-be0c-b53fb4d8ac38"},"vehicle_type_id":"4","last_reported":1702019200,"current_range_meters":29600,"station_id":"ce4bgkp2rcd13ifvqbmg","pricing_plan_id":"free"},{"bike_id":"edb65791-72fd-4efe-a1f5-46dfb8da63e8","system_id":"levelo_inurba_marseille","lat":43.323678,"lon":5.388783,"is_reserved":false,"is_disabled":false,"rental_uris":{"android":"levelo://app?vid=edb65791-72fd-4efe-a1f5-46dfb8da63e8","ios":"levelo://app?vid=edb65791-72fd-4efe-a1f5-46dfb8da63e8"},"vehicle_type_id":"4","last_reported":1702019200,"current_range_meters":30800,"station_id":"ce4bhqp2rcd13ifvqhog","pricing_plan_id":"free"},{"bike_id":"e37ac621-b119-47db-a4a0-b01f262c7bd9","system_id":"levelo_inurba_marseille","lat":43.323715,"lon":5.388773,"is_reserved":false,"is_disabled":false,"rental_uris":{"android":"levelo://app?vid=e37ac621-b119-47db-a4a0-b01f262c7bd9","ios":"levelo://app?vid=e37ac621-b119-47db-a4a0-b01f262c7bd9"},"vehicle_type_id":"4","last_reported":1702019200,"current_range_meters":22800,"station_id":"ce4bhqp2rcd13ifvqhog","pricing_plan_id":"free"},{"bike_id":"7579423d-f3b8-4e7f-be59-2ba9da91b549","system_id":"levelo_inurba_marseille","lat":43.31422,"lon":5.3939,"is_reserved":false,"is_disabled":false,"rental_uris":{"android":"levelo://app?vid=7579423d-f3b8-4e7f-be59-2ba9da91b549","ios":"levelo://app?vid=7579423d-f3b8-4e7f-be59-2ba9da91b549"},"vehicle_type_id":"4","last_reported":1702019200,"current_range_meters":6000,"station_id":"","pricing_plan_id":"free"},{"bike_id":"10949937-e5bc-46b9-be0f-8da6829cb9b8","system_id":"levelo_inurba_marseille","lat":43.292749,"lon":5.368398,"is_reserved":false,"is_disabled":false,"rental_uris":{"android":"levelo://app?vid=10949937-e5bc-46b9-be0f-8da6829cb9b8","ios":"levelo://app?vid=10949937-e5bc-46b9-be0f-8da6829cb9b8"},"vehicle_type_id":"4","last_reported":1702019200,"current_range_meters":28400,"station_id":"ce4bhbp2rcd13ifvqesg","pricing_plan_id":"free"},{"bike_id":"03290084-ff63-4d3f-a164-26d13cfd518f","system_id":"levelo_inurba_marseille","lat":43.292742,"lon":5.368386,"is_reserved":false,"is_disabled":false,"rental_uris":{"android":"levelo://app?vid=03290084-ff63-4d3f-a164-26d13cfd518f","ios":"levelo://app?vid=03290084-ff63-4d3f-a164-26d13cfd518f"},"vehicle_type_id":"4","last_reported":1702019200,"current_range_meters":31200,"station_id":"ce4bhbp2rcd13ifvqesg","pricing_plan_id":"free"},{"bike_id":"c46f4ed9-5173-4fe0-b859-a737828a86db","system_id":"levelo_inurba_marseille","lat":43.29273,"lon":5.36845,"is_reserved":false,"is_disabled":false,"rental_uris":{"android":"levelo://app?vid=c46f4ed9-5173-4fe0-b859-a737828a86db","ios":"levelo://app?vid=c46f4ed9-5173-4fe0-b859-a737828a86db"},"vehicle_type_id":"4","last_reported":1702019200,"current_range_meters":15600,"station_id":"ce4bhbp2rcd13ifvqesg","pricing_plan_id":"free"},{"bike_id":"35167050-f909-4250-a110-df5bedfb0a40","system_id":"levelo_inurba_marseille","lat":43.29901,"lon":5.38727,"is_reserved":false,"is_disabled":false,"rental_uris":{"android":"levelo://app?vid=35167050-f909-4250-a110-df5bedfb0a40","ios":"levelo://app?vid=35167050-f909-4250-a110-df5bedfb0a40"},"vehicle_type_id":"4","last_reported":1702019200,"current_range_meters":2800,"station_id":"","pricing_plan_id":"free"},{"bike_id":"83ab36fe-55ee-44a6-af80-ed04894897b1","system_id":"levelo_inurba_marseille","lat":43.293009,"lon":5.374584,"is_reserved":false,"is_disabled":false,"rental_uris":{"android":"levelo://app?vid=83ab36fe-55ee-44a6-af80-ed04894897b1","ios":"levelo://app?vid=83ab36fe-55ee-44a6-af80-ed04894897b1"},"vehicle_type_id":"4","last_reported":1702019200,"current_range_meters":21600,"station_id":"ce4bgi12rcd13ifvqb70","pricing_plan_id":"free"},{"bike_id":"f02f80a8-331d-42e3-9ddd-dd21b37d89db","system_id":"levelo_inurba_marseille","lat":43.305994,"lon":5.393687,"is_reserved":false,"is_disabled":false,"rental_uris":{"android":"levelo://app?vid=f02f80a8-331d-42e3-9ddd-dd21b37d89db","ios":"levelo://app?vid=f02f80a8-331d-42e3-9ddd-dd21b37d89db"},"vehicle_type_id":"4","last_reported":1702019200,"current_range_meters":26800,"station_id":"ce4bh0p2rcd13ifvqd80","pricing_plan_id":"free"},{"bike_id":"7e851498-04c8-420a-b335-90c276abd425","system_id":"levelo_inurba_marseille","lat":43.3059,"lon":5.39355,"is_reserved":false,"is_disabled":false,"rental_uris":{"android":"levelo://app?vid=7e851498-04c8-420a-b335-90c276abd425","ios":"levelo://app?vid=7e851498-04c8-420a-b335-90c276abd425"},"vehicle_type_id":"4","last_reported":1702019200,"current_range_meters":9200,"station_id":"ce4bh0p2rcd13ifvqd80","pricing_plan_id":"free"},{"bike_id":"b6e08854-a690-4666-bbc3-f5c329115dde","system_id":"levelo_inurba_marseille","lat":43.305994,"lon":5.393687,"is_reserved":false,"is_disabled":false,"rental_uris":{"android":"levelo://app?vid=b6e08854-a690-4666-bbc3-f5c329115dde","ios":"levelo://app?vid=b6e08854-a690-4666-bbc3-f5c329115dde"},"vehicle_type_id":"4","last_reported":1702019200,"current_range_meters":25600,"station_id":"ce4bh0p2rcd13ifvqd80","pricing_plan_id":"free"},{"bike_id":"8d9f6b70-827b-4b78-85e4-463014c37f85","system_id":"levelo_inurba_marseille","lat":43.305994,"lon":5.393687,"is_reserved":false,"is_disabled":false,"rental_uris":{"android":"levelo://app?vid=8d9f6b70-827b-4b78-85e4-463014c37f85","ios":"levelo://app?vid=8d9f6b70-827b-4b78-85e4-463014c37f85"},"vehicle_type_id":"4","last_reported":1702019200,"current_range_meters":0,"station_id":"ce4bh0p2rcd13ifvqd80","pricing_plan_id":"free"},{"bike_id":"2a2f9416-8eff-4351-9b41-4ab996806110","system_id":"levelo_inurba_marseille","lat":43.291675,"lon":5.371583,"is_reserved":false,"is_disabled":false,"rental_uris":{"android":"levelo://app?vid=2a2f9416-8eff-4351-9b41-4ab996806110","ios":"levelo://app?vid=2a2f9416-8eff-4351-9b41-4ab996806110"},"vehicle_type_id":"4","last_reported":1702019200,"current_range_meters":24400,"station_id":"ce4bha92rcd13ifvqeh0","pricing_plan_id":"free"},{"bike_id":"d013a706-f671-4005-97af-b26d4ded95a6","system_id":"levelo_inurba_marseille","lat":43.292311,"lon":5.360731,"is_reserved":false,"is_disabled":false,"rental_uris":{"android":"levelo://app?vid=d013a706-f671-4005-97af-b26d4ded95a6","ios":"levelo://app?vid=d013a706-f671-4005-97af-b26d4ded95a6"},"vehicle_type_id":"4","last_reported":1702019200,"current_range_meters":30000,"station_id":"ce4bhbh2rcd13ifvqeqg","pricing_plan_id":"free"},{"bike_id":"d23dcc0a-abfe-4795-b2df-643eabe8964a","system_id":"levelo_inurba_marseille","lat":43.33277,"lon":5.37527,"is_reserved":false,"is_disabled":false,"rental_uris":{"android":"levelo://app?vid=d23dcc0a-abfe-4795-b2df-643eabe8964a","ios":"levelo://app?vid=d23dcc0a-abfe-4795-b2df-643eabe8964a"},"vehicle_type_id":"4","last_reported":1702019200,"current_range_meters":0,"station_id":"","pricing_plan_id":"free"},{"bike_id":"4ec5bfc5-2788-458f-aab5-fab2c55dd5d5","system_id":"levelo_inurba_marseille","lat":43.292311,"lon":5.360731,"is_reserved":false,"is_disabled":false,"rental_uris":{"android":"levelo://app?vid=4ec5bfc5-2788-458f-aab5-fab2c55dd5d5","ios":"levelo://app?vid=4ec5bfc5-2788-458f-aab5-fab2c55dd5d5"},"vehicle_type_id":"4","last_reported":1702019200,"current_range_meters":23600,"station_id":"ce4bhbh2rcd13ifvqeqg","pricing_plan_id":"free"},{"bike_id":"2c70486b-5265-4a93-b251-eea63c7ec650","system_id":"levelo_inurba_marseille","lat":43.292311,"lon":5.360731,"is_reserved":false,"is_disabled":false,"rental_uris":{"android":"levelo://app?vid=2c70486b-5265-4a93-b251-eea63c7ec650","ios":"levelo://app?vid=2c70486b-5265-4a93-b251-eea63c7ec650"},"vehicle_type_id":"4","last_reported":1702019200,"current_range_meters":8000,"station_id":"ce4bhbh2rcd13ifvqeqg","pricing_plan_id":"free"},{"bike_id":"fe1ed339-f8ef-4451-8028-a0ba11ddbe93","system_id":"levelo_inurba_marseille","lat":43.292311,"lon":5.360731,"is_reserved":false,"is_disabled":false,"rental_uris":{"android":"levelo://app?vid=fe1ed339-f8ef-4451-8028-a0ba11ddbe93","ios":"levelo://app?vid=fe1ed339-f8ef-4451-8028-a0ba11ddbe93"},"vehicle_type_id":"4","last_reported":1702019200,"current_range_meters":16400,"station_id":"ce4bhbh2rcd13ifvqeqg","pricing_plan_id":"free"},{"bike_id":"52e3a4e2-1c4a-4d50-98f7-297520a4efb4","system_id":"levelo_inurba_marseille","lat":43.292663,"lon":5.376394,"is_reserved":false,"is_disabled":false,"rental_uris":{"android":"levelo://app?vid=52e3a4e2-1c4a-4d50-98f7-297520a4efb4","ios":"levelo://app?vid=52e3a4e2-1c4a-4d50-98f7-297520a4efb4"},"vehicle_type_id":"4","last_reported":1702019200,"current_range_meters":30000,"station_id":"ce4bgi12rcd13ifvqb80","pricing_plan_id":"free"},{"bike_id":"530a08f7-51d5-470e-97af-b8db08fa3c68","system_id":"levelo_inurba_marseille","lat":43.2919,"lon":5.35813,"is_reserved":false,"is_disabled":false,"rental_uris":{"android":"levelo://app?vid=530a08f7-51d5-470e-97af-b8db08fa3c68","ios":"levelo://app?vid=530a08f7-51d5-470e-97af-b8db08fa3c68"},"vehicle_type_id":"4","last_reported":1702019200,"current_range_meters":22400,"station_id":"ce4bhb12rcd13ifvqel0","pricing_plan_id":"free"},{"bike_id":"df5d5068-3213-475c-896a-cc5dcaa7efe9","system_id":"levelo_inurba_marseille","lat":43.309038,"lon":5.396546,"is_reserved":false,"is_disabled":false,"rental_uris":{"android":"levelo://app?vid=df5d5068-3213-475c-896a-cc5dcaa7efe9","ios":"levelo://app?vid=df5d5068-3213-475c-896a-cc5dcaa7efe9"},"vehicle_type_id":"4","last_reported":1702019200,"current_range_meters":30800,"station_id":"ce4bh012rcd13ifvqcv0","pricing_plan_id":"free"},{"bike_id":"6e738fe4-c179-4088-b6df-b32aaaf7d5d4","system_id":"levelo_inurba_marseille","lat":43.31327,"lon":5.39693,"is_reserved":false,"is_disabled":false,"rental_uris":{"android":"levelo://app?vid=6e738fe4-c179-4088-b6df-b32aaaf7d5d4","ios":"levelo://app?vid=6e738fe4-c179-4088-b6df-b32aaaf7d5d4"},"vehicle_type_id":"4","last_reported":1702019200,"current_range_meters":0,"station_id":"ce4bgvp2rcd13ifvqcu0","pricing_plan_id":"free"},{"bike_id":"f1bdf1d6-aaeb-4f4a-b24d-6d96e733af11","system_id":"levelo_inurba_marseille","lat":43.29187,"lon":5.35797,"is_reserved":false,"is_disabled":false,"rental_uris":{"android":"levelo://app?vid=f1bdf1d6-aaeb-4f4a-b24d-6d96e733af11","ios":"levelo://app?vid=f1bdf1d6-aaeb-4f4a-b24d-6d96e733af11"},"vehicle_type_id":"4","last_reported":1702019200,"current_range_meters":21600,"station_id":"ce4bhb12rcd13ifvqel0","pricing_plan_id":"free"},{"bike_id":"ddf873ac-8e5c-402f-a134-1cd6d27b052c","system_id":"levelo_inurba_marseille","lat":43.302008,"lon":5.394694,"is_reserved":false,"is_disabled":false,"rental_uris":{"android":"levelo://app?vid=ddf873ac-8e5c-402f-a134-1cd6d27b052c","ios":"levelo://app?vid=ddf873ac-8e5c-402f-a134-1cd6d27b052c"},"vehicle_type_id":"4","last_reported":1702019200,"current_range_meters":24800,"station_id":"ce4bh0p2rcd13ifvqd70","pricing_plan_id":"free"},{"bike_id":"886e46ca-55a9-439f-9c8a-32edf30da159","system_id":"levelo_inurba_marseille","lat":43.302008,"lon":5.394694,"is_reserved":false,"is_disabled":false,"rental_uris":{"android":"levelo://app?vid=886e46ca-55a9-439f-9c8a-32edf30da159","ios":"levelo://app?vid=886e46ca-55a9-439f-9c8a-32edf30da159"},"vehicle_type_id":"4","last_reported":1702019200,"current_range_meters":25600,"station_id":"ce4bh0p2rcd13ifvqd70","pricing_plan_id":"free"},{"bike_id":"b8cb4ef6-96e9-4b73-93ea-779edfcc6031","system_id":"levelo_inurba_marseille","lat":43.290624,"lon":5.359245,"is_reserved":false,"is_disabled":false,"rental_uris":{"android":"levelo://app?vid=b8cb4ef6-96e9-4b73-93ea-779edfcc6031","ios":"levelo://app?vid=b8cb4ef6-96e9-4b73-93ea-779edfcc6031"},"vehicle_type_id":"4","last_reported":1702019200,"current_range_meters":29600,"station_id":"ce4bha92rcd13ifvqeg0","pricing_plan_id":"free"},{"bike_id":"b3412777-7088-4d0a-87b2-d83a274275be","system_id":"levelo_inurba_marseille","lat":43.290624,"lon":5.359245,"is_reserved":false,"is_disabled":false,"rental_uris":{"android":"levelo://app?vid=b3412777-7088-4d0a-87b2-d83a274275be","ios":"levelo://app?vid=b3412777-7088-4d0a-87b2-d83a274275be"},"vehicle_type_id":"4","last_reported":1702019200,"current_range_meters":31200,"station_id":"ce4bha92rcd13ifvqeg0","pricing_plan_id":"free"},{"bike_id":"c8d637aa-dc50-4f67-a4a9-7d9cf78bed33","system_id":"levelo_inurba_marseille","lat":43.290631,"lon":5.359244,"is_reserved":false,"is_disabled":false,"rental_uris":{"android":"levelo://app?vid=c8d637aa-dc50-4f67-a4a9-7d9cf78bed33","ios":"levelo://app?vid=c8d637aa-dc50-4f67-a4a9-7d9cf78bed33"},"vehicle_type_id":"4","last_reported":1702019200,"current_range_meters":24800,"station_id":"ce4bha92rcd13ifvqeg0","pricing_plan_id":"free"},{"bike_id":"bb4af82b-29ef-44ca-baac-9099077e880f","system_id":"levelo_inurba_marseille","lat":43.290161,"lon":5.375651,"is_reserved":false,"is_disabled":false,"rental_uris":{"android":"levelo://app?vid=bb4af82b-29ef-44ca-baac-9099077e880f","ios":"levelo://app?vid=bb4af82b-29ef-44ca-baac-9099077e880f"},"vehicle_type_id":"4","last_reported":1702019200,"current_range_meters":18400,"station_id":"","pricing_plan_id":"free"},{"bike_id":"a02a1b20-1fb1-4951-988a-77389649024d","system_id":"levelo_inurba_marseille","lat":43.289259,"lon":5.366364,"is_reserved":false,"is_disabled":false,"rental_uris":{"android":"levelo://app?vid=a02a1b20-1fb1-4951-988a-77389649024d","ios":"levelo://app?vid=a02a1b20-1fb1-4951-988a-77389649024d"},"vehicle_type_id":"4","last_reported":1702019200,"current_range_meters":16800,"station_id":"","pricing_plan_id":"free"},{"bike_id":"53ed23d3-cf70-4f75-8691-ca7ce721cd11","system_id":"levelo_inurba_marseille","lat":43.292644,"lon":5.384257,"is_reserved":false,"is_disabled":false,"rental_uris":{"android":"levelo://app?vid=53ed23d3-cf70-4f75-8691-ca7ce721cd11","ios":"levelo://app?vid=53ed23d3-cf70-4f75-8691-ca7ce721cd11"},"vehicle_type_id":"4","last_reported":1702019200,"current_range_meters":29200,"station_id":"ce4bh692rcd13ifvqea0","pricing_plan_id":"free"},{"bike_id":"d66fccf3-bce1-43a0-bf60-32605ae3c9c5","system_id":"levelo_inurba_marseille","lat":43.2901,"lon":5.381269,"is_reserved":false,"is_disabled":false,"rental_uris":{"android":"levelo://app?vid=d66fccf3-bce1-43a0-bf60-32605ae3c9c5","ios":"levelo://app?vid=d66fccf3-bce1-43a0-bf60-32605ae3c9c5"},"vehicle_type_id":"4","last_reported":1702019200,"current_range_meters":26400,"station_id":"ce4bh4p2rcd13ifvqe1g","pricing_plan_id":"free"},{"bike_id":"7df0df5e-8835-4286-90a9-aedecdcb32d4","system_id":"levelo_inurba_marseille","lat":43.288598,"lon":5.358523,"is_reserved":false,"is_disabled":false,"rental_uris":{"android":"levelo://app?vid=7df0df5e-8835-4286-90a9-aedecdcb32d4","ios":"levelo://app?vid=7df0df5e-8835-4286-90a9-aedecdcb32d4"},"vehicle_type_id":"4","last_reported":1702019200,"current_range_meters":18800,"station_id":"ce4bhb12rcd13ifvqem0","pricing_plan_id":"free"},{"bike_id":"108696cb-6bfa-4400-aa7a-ab44a5402b00","system_id":"levelo_inurba_marseille","lat":43.288558,"lon":5.358635,"is_reserved":false,"is_disabled":false,"rental_uris":{"android":"levelo://app?vid=108696cb-6bfa-4400-aa7a-ab44a5402b00","ios":"levelo://app?vid=108696cb-6bfa-4400-aa7a-ab44a5402b00"},"vehicle_type_id":"4","last_reported":1702019200,"current_range_meters":25200,"station_id":"","pricing_plan_id":"free"},{"bike_id":"efa5e4a4-1a46-45c3-901b-33df082f3c5e","system_id":"levelo_inurba_marseille","lat":43.306412,"lon":5.401035,"is_reserved":false,"is_disabled":false,"rental_uris":{"android":"levelo://app?vid=efa5e4a4-1a46-45c3-901b-33df082f3c5e","ios":"levelo://app?vid=efa5e4a4-1a46-45c3-901b-33df082f3c5e"},"vehicle_type_id":"4","last_reported":1702019200,"current_range_meters":24400,"station_id":"ce4bh112rcd13ifvqda0","pricing_plan_id":"free"},{"bike_id":"0194ed0c-d545-462b-ba18-9d6afd9f7c63","system_id":"levelo_inurba_marseille","lat":43.309371,"lon":5.401449,"is_reserved":false,"is_disabled":false,"rental_uris":{"android":"levelo://app?vid=0194ed0c-d545-462b-ba18-9d6afd9f7c63","ios":"levelo://app?vid=0194ed0c-d545-462b-ba18-9d6afd9f7c63"},"vehicle_type_id":"4","last_reported":1702019200,"current_range_meters":22000,"station_id":"ce4bgvp2rcd13ifvqct0","pricing_plan_id":"free"},{"bike_id":"41b37be4-557a-46fc-b825-91f9e7e482f1","system_id":"levelo_inurba_marseille","lat":43.28724,"lon":5.36088,"is_reserved":false,"is_disabled":false,"rental_uris":{"android":"levelo://app?vid=41b37be4-557a-46fc-b825-91f9e7e482f1","ios":"levelo://app?vid=41b37be4-557a-46fc-b825-91f9e7e482f1"},"vehicle_type_id":"4","last_reported":1702019200,"current_range_meters":22800,"station_id":"cki0cbj6b192h4jlfktg","pricing_plan_id":"free"},{"bike_id":"74ae3f02-b3a9-4e04-bbac-9254f841095c","system_id":"levelo_inurba_marseille","lat":43.286961,"lon":5.373785,"is_reserved":false,"is_disabled":false,"rental_uris":{"android":"levelo://app?vid=74ae3f02-b3a9-4e04-bbac-9254f841095c","ios":"levelo://app?vid=74ae3f02-b3a9-4e04-bbac-9254f841095c"},"vehicle_type_id":"4","last_reported":1702019200,"current_range_meters":31200,"station_id":"ce4bh3p2rcd13ifvqdq0","pricing_plan_id":"free"},{"bike_id":"5aef2d64-9651-4e0e-a4f6-1eba1fa75fac","system_id":"levelo_inurba_marseille","lat":43.286961,"lon":5.373785,"is_reserved":false,"is_disabled":false,"rental_uris":{"android":"levelo://app?vid=5aef2d64-9651-4e0e-a4f6-1eba1fa75fac","ios":"levelo://app?vid=5aef2d64-9651-4e0e-a4f6-1eba1fa75fac"},"vehicle_type_id":"4","last_reported":1702019200,"current_range_meters":24400,"station_id":"ce4bh3p2rcd13ifvqdq0","pricing_plan_id":"free"},{"bike_id":"5361fe6d-3a40-462d-ac5a-57d84f4ce404","system_id":"levelo_inurba_marseille","lat":43.302759,"lon":5.400793,"is_reserved":false,"is_disabled":false,"rental_uris":{"android":"levelo://app?vid=5361fe6d-3a40-462d-ac5a-57d84f4ce404","ios":"levelo://app?vid=5361fe6d-3a40-462d-ac5a-57d84f4ce404"},"vehicle_type_id":"4","last_reported":1702019200,"current_range_meters":2000,"station_id":"ce4bgvh2rcd13ifvqcs0","pricing_plan_id":"free"},{"bike_id":"e24459f9-c81d-493b-99bb-ee97d758898f","system_id":"levelo_inurba_marseille","lat":43.290345,"lon":5.38646,"is_reserved":false,"is_disabled":false,"rental_uris":{"android":"levelo://app?vid=e24459f9-c81d-493b-99bb-ee97d758898f","ios":"levelo://app?vid=e24459f9-c81d-493b-99bb-ee97d758898f"},"vehicle_type_id":"4","last_reported":1702019200,"current_range_meters":13600,"station_id":"ce4bh4p2rcd13ifvqe0g","pricing_plan_id":"free"},{"bike_id":"40bba0fb-3079-4ef0-8d1f-4c73ce4e31a0","system_id":"levelo_inurba_marseille","lat":43.29023,"lon":5.38646,"is_reserved":false,"is_disabled":false,"rental_uris":{"android":"levelo://app?vid=40bba0fb-3079-4ef0-8d1f-4c73ce4e31a0","ios":"levelo://app?vid=40bba0fb-3079-4ef0-8d1f-4c73ce4e31a0"},"vehicle_type_id":"4","last_reported":1702019200,"current_range_meters":30400,"station_id":"ce4bh4p2rcd13ifvqe0g","pricing_plan_id":"free"},{"bike_id":"9771dfd8-017b-477e-9f38-39c8dec9c905","system_id":"levelo_inurba_marseille","lat":43.286039,"lon":5.370679,"is_reserved":false,"is_disabled":false,"rental_uris":{"android":"levelo://app?vid=9771dfd8-017b-477e-9f38-39c8dec9c905","ios":"levelo://app?vid=9771dfd8-017b-477e-9f38-39c8dec9c905"},"vehicle_type_id":"4","last_reported":1702019200,"current_range_meters":32000,"station_id":"ce4bht12rcd13ifvqi60","pricing_plan_id":"free"},{"bike_id":"7776d99e-da67-45de-83ab-6fd509dbbdc0","system_id":"levelo_inurba_marseille","lat":43.287184,"lon":5.37937,"is_reserved":false,"is_disabled":false,"rental_uris":{"android":"levelo://app?vid=7776d99e-da67-45de-83ab-6fd509dbbdc0","ios":"levelo://app?vid=7776d99e-da67-45de-83ab-6fd509dbbdc0"},"vehicle_type_id":"4","last_reported":1702019200,"current_range_meters":27200,"station_id":"ce4bh9p2rcd13ifvqec0","pricing_plan_id":"free"},{"bike_id":"b9368d4f-73ed-4565-b2ae-63aeb9262fc6","system_id":"levelo_inurba_marseille","lat":43.31696,"lon":5.40471,"is_reserved":false,"is_disabled":false,"rental_uris":{"android":"levelo://app?vid=b9368d4f-73ed-4565-b2ae-63aeb9262fc6","ios":"levelo://app?vid=b9368d4f-73ed-4565-b2ae-63aeb9262fc6"},"vehicle_type_id":"4","last_reported":1702019200,"current_range_meters":16800,"station_id":"ce4bh012rcd13ifvqd00","pricing_plan_id":"free"},{"bike_id":"117ad63b-221d-444d-a735-ac2dd441da48","system_id":"levelo_inurba_marseille","lat":43.291994,"lon":5.392907,"is_reserved":false,"is_disabled":false,"rental_uris":{"android":"levelo://app?vid=117ad63b-221d-444d-a735-ac2dd441da48","ios":"levelo://app?vid=117ad63b-221d-444d-a735-ac2dd441da48"},"vehicle_type_id":"4","last_reported":1702019200,"current_range_meters":24000,"station_id":"ce4bh192rcd13ifvqdd0","pricing_plan_id":"free"},{"bike_id":"2b715313-a8a9-4433-9018-d854945294a0","system_id":"levelo_inurba_marseille","lat":43.284538,"lon":5.358657,"is_reserved":false,"is_disabled":false,"rental_uris":{"android":"levelo://app?vid=2b715313-a8a9-4433-9018-d854945294a0","ios":"levelo://app?vid=2b715313-a8a9-4433-9018-d854945294a0"},"vehicle_type_id":"4","last_reported":1702019200,"current_range_meters":23600,"station_id":"ce4bhah2rcd13ifvqei0","pricing_plan_id":"free"},{"bike_id":"fb8129b0-fe0a-4869-8c36-05e027179d11","system_id":"levelo_inurba_marseille","lat":43.28463,"lon":5.358963,"is_reserved":false,"is_disabled":false,"rental_uris":{"android":"levelo://app?vid=fb8129b0-fe0a-4869-8c36-05e027179d11","ios":"levelo://app?vid=fb8129b0-fe0a-4869-8c36-05e027179d11"},"vehicle_type_id":"4","last_reported":1702019200,"current_range_meters":19600,"station_id":"ce4bhah2rcd13ifvqei0","pricing_plan_id":"free"},{"bike_id":"6f3805da-607e-4644-a872-a570d4d7529e","system_id":"levelo_inurba_marseille","lat":43.284538,"lon":5.358657,"is_reserved":false,"is_disabled":false,"rental_uris":{"android":"levelo://app?vid=6f3805da-607e-4644-a872-a570d4d7529e","ios":"levelo://app?vid=6f3805da-607e-4644-a872-a570d4d7529e"},"vehicle_type_id":"4","last_reported":1702019200,"current_range_meters":29600,"station_id":"ce4bhah2rcd13ifvqei0","pricing_plan_id":"free"},{"bike_id":"557f27d4-4580-4278-b89b-6beff88eead5","system_id":"levelo_inurba_marseille","lat":43.284534,"lon":5.358662,"is_reserved":false,"is_disabled":false,"rental_uris":{"android":"levelo://app?vid=557f27d4-4580-4278-b89b-6beff88eead5","ios":"levelo://app?vid=557f27d4-4580-4278-b89b-6beff88eead5"},"vehicle_type_id":"4","last_reported":1702019200,"current_range_meters":800,"station_id":"ce4bhah2rcd13ifvqei0","pricing_plan_id":"free"},{"bike_id":"843e9123-8b92-48d6-ac1d-949625709a6d","system_id":"levelo_inurba_marseille","lat":43.2862,"lon":5.35102,"is_reserved":false,"is_disabled":false,"rental_uris":{"android":"levelo://app?vid=843e9123-8b92-48d6-ac1d-949625709a6d","ios":"levelo://app?vid=843e9123-8b92-48d6-ac1d-949625709a6d"},"vehicle_type_id":"4","last_reported":1702019200,"current_range_meters":1600,"station_id":"ce4bhch2rcd13ifvqeug","pricing_plan_id":"free"},{"bike_id":"4eec593a-932d-4112-976c-6dab797add3f","system_id":"levelo_inurba_marseille","lat":43.286193,"lon":5.350966,"is_reserved":false,"is_disabled":false,"rental_uris":{"android":"levelo://app?vid=4eec593a-932d-4112-976c-6dab797add3f","ios":"levelo://app?vid=4eec593a-932d-4112-976c-6dab797add3f"},"vehicle_type_id":"4","last_reported":1702019200,"current_range_meters":6400,"station_id":"ce4bhch2rcd13ifvqeug","pricing_plan_id":"free"},{"bike_id":"eab2bcbc-fcd2-4cff-818b-f5ece07ff4aa","system_id":"levelo_inurba_marseille","lat":43.295713,"lon":5.399639,"is_reserved":false,"is_disabled":false,"rental_uris":{"android":"levelo://app?vid=eab2bcbc-fcd2-4cff-818b-f5ece07ff4aa","ios":"levelo://app?vid=eab2bcbc-fcd2-4cff-818b-f5ece07ff4aa"},"vehicle_type_id":"4","last_reported":1702019200,"current_range_meters":27200,"station_id":"ce4bh312rcd13ifvqdj0","pricing_plan_id":"free"},{"bike_id":"959b2726-ebaa-4267-a00e-ac4459e2bd5b","system_id":"levelo_inurba_marseille","lat":43.319179,"lon":5.407725,"is_reserved":false,"is_disabled":false,"rental_uris":{"android":"levelo://app?vid=959b2726-ebaa-4267-a00e-ac4459e2bd5b","ios":"levelo://app?vid=959b2726-ebaa-4267-a00e-ac4459e2bd5b"},"vehicle_type_id":"4","last_reported":1702019200,"current_range_meters":31200,"station_id":"ce4bhq12rcd13ifvqhig","pricing_plan_id":"free"},{"bike_id":"a467677d-92df-4d97-9e52-e6780c760738","system_id":"levelo_inurba_marseille","lat":43.31885,"lon":5.40738,"is_reserved":false,"is_disabled":false,"rental_uris":{"android":"levelo://app?vid=a467677d-92df-4d97-9e52-e6780c760738","ios":"levelo://app?vid=a467677d-92df-4d97-9e52-e6780c760738"},"vehicle_type_id":"4","last_reported":1702019200,"current_range_meters":0,"station_id":"ce4bhq12rcd13ifvqhig","pricing_plan_id":"free"},{"bike_id":"06070a5a-4b04-4262-80e6-ef3153c54cac","system_id":"levelo_inurba_marseille","lat":43.319179,"lon":5.407725,"is_reserved":false,"is_disabled":false,"rental_uris":{"android":"levelo://app?vid=06070a5a-4b04-4262-80e6-ef3153c54cac","ios":"levelo://app?vid=06070a5a-4b04-4262-80e6-ef3153c54cac"},"vehicle_type_id":"4","last_reported":1702019200,"current_range_meters":26400,"station_id":"ce4bhq12rcd13ifvqhig","pricing_plan_id":"free"},{"bike_id":"35437a3b-546d-4804-a96b-f2464a7a3e3e","system_id":"levelo_inurba_marseille","lat":43.323464,"lon":5.406297,"is_reserved":false,"is_disabled":false,"rental_uris":{"android":"levelo://app?vid=35437a3b-546d-4804-a96b-f2464a7a3e3e","ios":"levelo://app?vid=35437a3b-546d-4804-a96b-f2464a7a3e3e"},"vehicle_type_id":"4","last_reported":1702019200,"current_range_meters":30000,"station_id":"ce4bhq92rcd13ifvqhjg","pricing_plan_id":"free"},{"bike_id":"6a3c4b4d-605d-42e5-8bff-fbe7793f19d5","system_id":"levelo_inurba_marseille","lat":43.323464,"lon":5.406297,"is_reserved":false,"is_disabled":false,"rental_uris":{"android":"levelo://app?vid=6a3c4b4d-605d-42e5-8bff-fbe7793f19d5","ios":"levelo://app?vid=6a3c4b4d-605d-42e5-8bff-fbe7793f19d5"},"vehicle_type_id":"4","last_reported":1702019200,"current_range_meters":30000,"station_id":"ce4bhq92rcd13ifvqhjg","pricing_plan_id":"free"},{"bike_id":"56ac9cc9-bb61-47d5-bb32-c23299a9fd93","system_id":"levelo_inurba_marseille","lat":43.32256,"lon":5.407,"is_reserved":false,"is_disabled":false,"rental_uris":{"android":"levelo://app?vid=56ac9cc9-bb61-47d5-bb32-c23299a9fd93","ios":"levelo://app?vid=56ac9cc9-bb61-47d5-bb32-c23299a9fd93"},"vehicle_type_id":"4","last_reported":1702019200,"current_range_meters":24800,"station_id":"","pricing_plan_id":"free"},{"bike_id":"f4367223-a6b4-482a-8f45-158534ec2273","system_id":"levelo_inurba_marseille","lat":43.283498,"lon":5.380948,"is_reserved":false,"is_disabled":false,"rental_uris":{"android":"levelo://app?vid=f4367223-a6b4-482a-8f45-158534ec2273","ios":"levelo://app?vid=f4367223-a6b4-482a-8f45-158534ec2273"},"vehicle_type_id":"4","last_reported":1702019200,"current_range_meters":31200,"station_id":"ce4bh412rcd13ifvqdr0","pricing_plan_id":"free"},{"bike_id":"a86346de-a2ca-4997-98ef-f8bc49fa245a","system_id":"levelo_inurba_marseille","lat":43.283498,"lon":5.380948,"is_reserved":false,"is_disabled":false,"rental_uris":{"android":"levelo://app?vid=a86346de-a2ca-4997-98ef-f8bc49fa245a","ios":"levelo://app?vid=a86346de-a2ca-4997-98ef-f8bc49fa245a"},"vehicle_type_id":"4","last_reported":1702019200,"current_range_meters":22800,"station_id":"ce4bh412rcd13ifvqdr0","pricing_plan_id":"free"},{"bike_id":"d5fce69b-6d32-4938-b7f0-db96f8fe2349","system_id":"levelo_inurba_marseille","lat":43.283498,"lon":5.380948,"is_reserved":false,"is_disabled":false,"rental_uris":{"android":"levelo://app?vid=d5fce69b-6d32-4938-b7f0-db96f8fe2349","ios":"levelo://app?vid=d5fce69b-6d32-4938-b7f0-db96f8fe2349"},"vehicle_type_id":"4","last_reported":1702019200,"current_range_meters":12800,"station_id":"ce4bh412rcd13ifvqdr0","pricing_plan_id":"free"},{"bike_id":"b14202d5-353e-4d2d-9f1f-51e564c4f2c5","system_id":"levelo_inurba_marseille","lat":43.284219,"lon":5.3497,"is_reserved":false,"is_disabled":false,"rental_uris":{"android":"levelo://app?vid=b14202d5-353e-4d2d-9f1f-51e564c4f2c5","ios":"levelo://app?vid=b14202d5-353e-4d2d-9f1f-51e564c4f2c5"},"vehicle_type_id":"4","last_reported":1702019200,"current_range_meters":27200,"station_id":"ce4bhbh2rcd13ifvqepg","pricing_plan_id":"free"},{"bike_id":"aae2ba7b-8999-4318-878b-a856b7c98bf2","system_id":"levelo_inurba_marseille","lat":43.282754,"lon":5.350519,"is_reserved":false,"is_disabled":false,"rental_uris":{"android":"levelo://app?vid=aae2ba7b-8999-4318-878b-a856b7c98bf2","ios":"levelo://app?vid=aae2ba7b-8999-4318-878b-a856b7c98bf2"},"vehicle_type_id":"4","last_reported":1702019200,"current_range_meters":13200,"station_id":"ce4bhbp2rcd13ifvqerg","pricing_plan_id":"free"},{"bike_id":"e47f7d73-ed0f-45d8-b6e8-c580807ce36f","system_id":"levelo_inurba_marseille","lat":43.282754,"lon":5.350519,"is_reserved":false,"is_disabled":false,"rental_uris":{"android":"levelo://app?vid=e47f7d73-ed0f-45d8-b6e8-c580807ce36f","ios":"levelo://app?vid=e47f7d73-ed0f-45d8-b6e8-c580807ce36f"},"vehicle_type_id":"4","last_reported":1702019200,"current_range_meters":14800,"station_id":"ce4bhbp2rcd13ifvqerg","pricing_plan_id":"free"},{"bike_id":"b5bc5c5b-a817-4c36-a2d5-48521739a01f","system_id":"levelo_inurba_marseille","lat":43.282744,"lon":5.350533,"is_reserved":false,"is_disabled":false,"rental_uris":{"android":"levelo://app?vid=b5bc5c5b-a817-4c36-a2d5-48521739a01f","ios":"levelo://app?vid=b5bc5c5b-a817-4c36-a2d5-48521739a01f"},"vehicle_type_id":"4","last_reported":1702019200,"current_range_meters":0,"station_id":"ce4bhbp2rcd13ifvqerg","pricing_plan_id":"free"},{"bike_id":"e85ec547-908d-465d-bda0-313e492bcb56","system_id":"levelo_inurba_marseille","lat":43.29037,"lon":5.39969,"is_reserved":false,"is_disabled":false,"rental_uris":{"android":"levelo://app?vid=e85ec547-908d-465d-bda0-313e492bcb56","ios":"levelo://app?vid=e85ec547-908d-465d-bda0-313e492bcb56"},"vehicle_type_id":"4","last_reported":1702019200,"current_range_meters":17600,"station_id":"ce4bh392rcd13ifvqdm0","pricing_plan_id":"free"},{"bike_id":"4ff39e0d-eac2-4245-82f6-7ef663ebfa93","system_id":"levelo_inurba_marseille","lat":43.29033,"lon":5.39972,"is_reserved":false,"is_disabled":false,"rental_uris":{"android":"levelo://app?vid=4ff39e0d-eac2-4245-82f6-7ef663ebfa93","ios":"levelo://app?vid=4ff39e0d-eac2-4245-82f6-7ef663ebfa93"},"vehicle_type_id":"4","last_reported":1702019200,"current_range_meters":22800,"station_id":"ce4bh392rcd13ifvqdm0","pricing_plan_id":"free"},{"bike_id":"68bf0473-2937-406c-955b-5f92ae61d953","system_id":"levelo_inurba_marseille","lat":43.281044,"lon":5.378308,"is_reserved":false,"is_disabled":false,"rental_uris":{"android":"levelo://app?vid=68bf0473-2937-406c-955b-5f92ae61d953","ios":"levelo://app?vid=68bf0473-2937-406c-955b-5f92ae61d953"},"vehicle_type_id":"4","last_reported":1702019200,"current_range_meters":27200,"station_id":"ce4bha12rcd13ifvqee0","pricing_plan_id":"free"},{"bike_id":"9f1f02ef-9d74-4bee-b115-cdd32d4311fc","system_id":"levelo_inurba_marseille","lat":43.29028,"lon":5.39972,"is_reserved":false,"is_disabled":false,"rental_uris":{"android":"levelo://app?vid=9f1f02ef-9d74-4bee-b115-cdd32d4311fc","ios":"levelo://app?vid=9f1f02ef-9d74-4bee-b115-cdd32d4311fc"},"vehicle_type_id":"4","last_reported":1702019200,"current_range_meters":1600,"station_id":"ce4bh392rcd13ifvqdm0","pricing_plan_id":"free"},{"bike_id":"d7825adc-d5aa-44bb-bb80-aae80cc26ac0","system_id":"levelo_inurba_marseille","lat":43.296263,"lon":5.40601,"is_reserved":false,"is_disabled":false,"rental_uris":{"android":"levelo://app?vid=d7825adc-d5aa-44bb-bb80-aae80cc26ac0","ios":"levelo://app?vid=d7825adc-d5aa-44bb-bb80-aae80cc26ac0"},"vehicle_type_id":"4","last_reported":1702019200,"current_range_meters":12000,"station_id":"ce4bh0h2rcd13ifvqd60","pricing_plan_id":"free"},{"bike_id":"ad990e7b-d7aa-4d42-b943-713cafe56df7","system_id":"levelo_inurba_marseille","lat":43.284462,"lon":5.392121,"is_reserved":false,"is_disabled":false,"rental_uris":{"android":"levelo://app?vid=ad990e7b-d7aa-4d42-b943-713cafe56df7","ios":"levelo://app?vid=ad990e7b-d7aa-4d42-b943-713cafe56df7"},"vehicle_type_id":"4","last_reported":1702019200,"current_range_meters":25200,"station_id":"ce4bhoh2rcd13ifvqh5g","pricing_plan_id":"free"},{"bike_id":"c5efc095-af9d-46b6-94ac-564c42506809","system_id":"levelo_inurba_marseille","lat":43.284462,"lon":5.392121,"is_reserved":false,"is_disabled":false,"rental_uris":{"android":"levelo://app?vid=c5efc095-af9d-46b6-94ac-564c42506809","ios":"levelo://app?vid=c5efc095-af9d-46b6-94ac-564c42506809"},"vehicle_type_id":"4","last_reported":1702019200,"current_range_meters":12800,"station_id":"ce4bhoh2rcd13ifvqh5g","pricing_plan_id":"free"},{"bike_id":"f14ead39-4f41-4599-9321-f960783c1e12","system_id":"levelo_inurba_marseille","lat":43.326605,"lon":5.409903,"is_reserved":false,"is_disabled":false,"rental_uris":{"android":"levelo://app?vid=f14ead39-4f41-4599-9321-f960783c1e12","ios":"levelo://app?vid=f14ead39-4f41-4599-9321-f960783c1e12"},"vehicle_type_id":"4","last_reported":1702019200,"current_range_meters":28400,"station_id":"ce4bhpp2rcd13ifvqhgg","pricing_plan_id":"free"},{"bike_id":"070a260d-ecc1-46d1-afab-6774750cd900","system_id":"levelo_inurba_marseille","lat":43.326605,"lon":5.409903,"is_reserved":false,"is_disabled":false,"rental_uris":{"android":"levelo://app?vid=070a260d-ecc1-46d1-afab-6774750cd900","ios":"levelo://app?vid=070a260d-ecc1-46d1-afab-6774750cd900"},"vehicle_type_id":"4","last_reported":1702019200,"current_range_meters":28400,"station_id":"ce4bhpp2rcd13ifvqhgg","pricing_plan_id":"free"},{"bike_id":"d0a5d6a0-29e2-4619-9681-be5b927d8f64","system_id":"levelo_inurba_marseille","lat":43.279087,"lon":5.380114,"is_reserved":false,"is_disabled":false,"rental_uris":{"android":"levelo://app?vid=d0a5d6a0-29e2-4619-9681-be5b927d8f64","ios":"levelo://app?vid=d0a5d6a0-29e2-4619-9681-be5b927d8f64"},"vehicle_type_id":"4","last_reported":1702019200,"current_range_meters":30000,"station_id":"ce4bhf92rcd13ifvqf50","pricing_plan_id":"free"},{"bike_id":"bf9c0286-54ca-458d-a58a-9d0d9c0353fb","system_id":"levelo_inurba_marseille","lat":43.279087,"lon":5.380114,"is_reserved":false,"is_disabled":false,"rental_uris":{"android":"levelo://app?vid=bf9c0286-54ca-458d-a58a-9d0d9c0353fb","ios":"levelo://app?vid=bf9c0286-54ca-458d-a58a-9d0d9c0353fb"},"vehicle_type_id":"4","last_reported":1702019200,"current_range_meters":31200,"station_id":"ce4bhf92rcd13ifvqf50","pricing_plan_id":"free"},{"bike_id":"5fefe554-fe99-4e7c-bf4d-9b8cb69d1b6a","system_id":"levelo_inurba_marseille","lat":43.279087,"lon":5.380114,"is_reserved":false,"is_disabled":false,"rental_uris":{"android":"levelo://app?vid=5fefe554-fe99-4e7c-bf4d-9b8cb69d1b6a","ios":"levelo://app?vid=5fefe554-fe99-4e7c-bf4d-9b8cb69d1b6a"},"vehicle_type_id":"4","last_reported":1702019200,"current_range_meters":4000,"station_id":"ce4bhf92rcd13ifvqf50","pricing_plan_id":"free"},{"bike_id":"0490807f-1e87-4c85-9df2-dc1bad9bfd86","system_id":"levelo_inurba_marseille","lat":43.320045,"lon":5.415048,"is_reserved":false,"is_disabled":false,"rental_uris":{"android":"levelo://app?vid=0490807f-1e87-4c85-9df2-dc1bad9bfd86","ios":"levelo://app?vid=0490807f-1e87-4c85-9df2-dc1bad9bfd86"},"vehicle_type_id":"4","last_reported":1702019200,"current_range_meters":31200,"station_id":"ce4bhq92rcd13ifvqhkg","pricing_plan_id":"free"},{"bike_id":"1f728e5a-cd60-410e-8deb-dcb2243eb2aa","system_id":"levelo_inurba_marseille","lat":43.29258,"lon":5.40909,"is_reserved":false,"is_disabled":false,"rental_uris":{"android":"levelo://app?vid=1f728e5a-cd60-410e-8deb-dcb2243eb2aa","ios":"levelo://app?vid=1f728e5a-cd60-410e-8deb-dcb2243eb2aa"},"vehicle_type_id":"4","last_reported":1702019200,"current_range_meters":4800,"station_id":"ce4bh192rcd13ifvqdc0","pricing_plan_id":"free"},{"bike_id":"8fb042a7-bc38-4a4b-bd74-88529f6638c4","system_id":"levelo_inurba_marseille","lat":43.276184,"lon":5.361104,"is_reserved":false,"is_disabled":false,"rental_uris":{"android":"levelo://app?vid=8fb042a7-bc38-4a4b-bd74-88529f6638c4","ios":"levelo://app?vid=8fb042a7-bc38-4a4b-bd74-88529f6638c4"},"vehicle_type_id":"4","last_reported":1702019200,"current_range_meters":22000,"station_id":"ce4bgj92rcd13ifvqbe0","pricing_plan_id":"free"},{"bike_id":"cf28e55e-951a-4b0e-80ed-914fb42c100f","system_id":"levelo_inurba_marseille","lat":43.280784,"lon":5.396622,"is_reserved":false,"is_disabled":false,"rental_uris":{"android":"levelo://app?vid=cf28e55e-951a-4b0e-80ed-914fb42c100f","ios":"levelo://app?vid=cf28e55e-951a-4b0e-80ed-914fb42c100f"},"vehicle_type_id":"4","last_reported":1702019200,"current_range_meters":31200,"station_id":"ce4bho12rcd13ifvqh2g","pricing_plan_id":"free"},{"bike_id":"21353717-0ebc-4941-8111-34c7a0b5fb53","system_id":"levelo_inurba_marseille","lat":43.280761,"lon":5.396451,"is_reserved":false,"is_disabled":false,"rental_uris":{"android":"levelo://app?vid=21353717-0ebc-4941-8111-34c7a0b5fb53","ios":"levelo://app?vid=21353717-0ebc-4941-8111-34c7a0b5fb53"},"vehicle_type_id":"4","last_reported":1702019200,"current_range_meters":20400,"station_id":"ce4bho12rcd13ifvqh2g","pricing_plan_id":"free"},{"bike_id":"6c07e982-b7bd-44e0-8bfd-6eba9dde01aa","system_id":"levelo_inurba_marseille","lat":43.33612,"lon":5.410321,"is_reserved":false,"is_disabled":false,"rental_uris":{"android":"levelo://app?vid=6c07e982-b7bd-44e0-8bfd-6eba9dde01aa","ios":"levelo://app?vid=6c07e982-b7bd-44e0-8bfd-6eba9dde01aa"},"vehicle_type_id":"4","last_reported":1702019200,"current_range_meters":7200,"station_id":"ce4bhqh2rcd13ifvqhmg","pricing_plan_id":"free"},{"bike_id":"d1fd45e3-fa9c-43b1-9552-ca74082880a7","system_id":"levelo_inurba_marseille","lat":43.33611,"lon":5.41032,"is_reserved":false,"is_disabled":false,"rental_uris":{"android":"levelo://app?vid=d1fd45e3-fa9c-43b1-9552-ca74082880a7","ios":"levelo://app?vid=d1fd45e3-fa9c-43b1-9552-ca74082880a7"},"vehicle_type_id":"4","last_reported":1702019200,"current_range_meters":0,"station_id":"ce4bhqh2rcd13ifvqhmg","pricing_plan_id":"free"},{"bike_id":"90d6daf0-f742-4c34-87c0-a7b59f585337","system_id":"levelo_inurba_marseille","lat":43.276771,"lon":5.388799,"is_reserved":false,"is_disabled":false,"rental_uris":{"android":"levelo://app?vid=90d6daf0-f742-4c34-87c0-a7b59f585337","ios":"levelo://app?vid=90d6daf0-f742-4c34-87c0-a7b59f585337"},"vehicle_type_id":"4","last_reported":1702019200,"current_range_meters":29200,"station_id":"ce4bhi12rcd13ifvqfo0","pricing_plan_id":"free"},{"bike_id":"b8f93cf2-296e-4324-a9b5-ea2511611ae5","system_id":"levelo_inurba_marseille","lat":43.276769,"lon":5.388787,"is_reserved":false,"is_disabled":false,"rental_uris":{"android":"levelo://app?vid=b8f93cf2-296e-4324-a9b5-ea2511611ae5","ios":"levelo://app?vid=b8f93cf2-296e-4324-a9b5-ea2511611ae5"},"vehicle_type_id":"4","last_reported":1702019200,"current_range_meters":22800,"station_id":"ce4bhi12rcd13ifvqfo0","pricing_plan_id":"free"},{"bike_id":"5cc7b054-7f74-4799-ba27-acd88dcc15ab","system_id":"levelo_inurba_marseille","lat":43.27634,"lon":5.3919,"is_reserved":false,"is_disabled":false,"rental_uris":{"android":"levelo://app?vid=5cc7b054-7f74-4799-ba27-acd88dcc15ab","ios":"levelo://app?vid=5cc7b054-7f74-4799-ba27-acd88dcc15ab"},"vehicle_type_id":"4","last_reported":1702019200,"current_range_meters":20400,"station_id":"","pricing_plan_id":"free"},{"bike_id":"200eafbf-d9f3-4a6e-935c-b56619044876","system_id":"levelo_inurba_marseille","lat":43.28761,"lon":5.41208,"is_reserved":false,"is_disabled":false,"rental_uris":{"android":"levelo://app?vid=200eafbf-d9f3-4a6e-935c-b56619044876","ios":"levelo://app?vid=200eafbf-d9f3-4a6e-935c-b56619044876"},"vehicle_type_id":"4","last_reported":1702019200,"current_range_meters":25200,"station_id":"","pricing_plan_id":"free"},{"bike_id":"ac48d04c-c813-4dcb-8013-15216c7aa7de","system_id":"levelo_inurba_marseille","lat":43.340804,"lon":5.410219,"is_reserved":false,"is_disabled":false,"rental_uris":{"android":"levelo://app?vid=ac48d04c-c813-4dcb-8013-15216c7aa7de","ios":"levelo://app?vid=ac48d04c-c813-4dcb-8013-15216c7aa7de"},"vehicle_type_id":"4","last_reported":1702019200,"current_range_meters":17200,"station_id":"ce4bhqh2rcd13ifvqhlg","pricing_plan_id":"free"},{"bike_id":"7e94c76e-e37d-41b3-9bda-1c58252221e0","system_id":"levelo_inurba_marseille","lat":43.31711,"lon":5.42398,"is_reserved":false,"is_disabled":false,"rental_uris":{"android":"levelo://app?vid=7e94c76e-e37d-41b3-9bda-1c58252221e0","ios":"levelo://app?vid=7e94c76e-e37d-41b3-9bda-1c58252221e0"},"vehicle_type_id":"4","last_reported":1702019200,"current_range_meters":19200,"station_id":"ce4bhp92rcd13ifvqhbg","pricing_plan_id":"free"},{"bike_id":"e7e35992-3a3d-448e-9a9c-48870975c082","system_id":"levelo_inurba_marseille","lat":43.340804,"lon":5.410219,"is_reserved":false,"is_disabled":false,"rental_uris":{"android":"levelo://app?vid=e7e35992-3a3d-448e-9a9c-48870975c082","ios":"levelo://app?vid=e7e35992-3a3d-448e-9a9c-48870975c082"},"vehicle_type_id":"4","last_reported":1702019200,"current_range_meters":27600,"station_id":"ce4bhqh2rcd13ifvqhlg","pricing_plan_id":"free"},{"bike_id":"63133364-316e-458e-b234-bbd4926c63fc","system_id":"levelo_inurba_marseille","lat":43.27583,"lon":5.39474,"is_reserved":false,"is_disabled":false,"rental_uris":{"android":"levelo://app?vid=63133364-316e-458e-b234-bbd4926c63fc","ios":"levelo://app?vid=63133364-316e-458e-b234-bbd4926c63fc"},"vehicle_type_id":"4","last_reported":1702019200,"current_range_meters":16400,"station_id":"","pricing_plan_id":"free"},{"bike_id":"09f71d2f-81ea-4644-8e24-dfea3454a076","system_id":"levelo_inurba_marseille","lat":43.274099,"lon":5.394019,"is_reserved":false,"is_disabled":false,"rental_uris":{"android":"levelo://app?vid=09f71d2f-81ea-4644-8e24-dfea3454a076","ios":"levelo://app?vid=09f71d2f-81ea-4644-8e24-dfea3454a076"},"vehicle_type_id":"4","last_reported":1702019200,"current_range_meters":27200,"station_id":"ce4bhdp2rcd13ifvqf20","pricing_plan_id":"free"},{"bike_id":"e2764ad7-2a83-4757-aee9-ec03ab5c3560","system_id":"levelo_inurba_marseille","lat":43.30411,"lon":5.42537,"is_reserved":false,"is_disabled":false,"rental_uris":{"android":"levelo://app?vid=e2764ad7-2a83-4757-aee9-ec03ab5c3560","ios":"levelo://app?vid=e2764ad7-2a83-4757-aee9-ec03ab5c3560"},"vehicle_type_id":"4","last_reported":1702019200,"current_range_meters":28400,"station_id":"ce4bhoh2rcd13ifvqh6g","pricing_plan_id":"free"},{"bike_id":"a9467987-b3fe-4b17-a96f-3ca8228c9294","system_id":"levelo_inurba_marseille","lat":43.272055,"lon":5.391818,"is_reserved":false,"is_disabled":false,"rental_uris":{"android":"levelo://app?vid=a9467987-b3fe-4b17-a96f-3ca8228c9294","ios":"levelo://app?vid=a9467987-b3fe-4b17-a96f-3ca8228c9294"},"vehicle_type_id":"4","last_reported":1702019200,"current_range_meters":25200,"station_id":"ce4bhhp2rcd13ifvqfm0","pricing_plan_id":"free"},{"bike_id":"0c629375-16be-4a47-a786-8d235fa6cbc0","system_id":"levelo_inurba_marseille","lat":43.272118,"lon":5.391758,"is_reserved":false,"is_disabled":false,"rental_uris":{"android":"levelo://app?vid=0c629375-16be-4a47-a786-8d235fa6cbc0","ios":"levelo://app?vid=0c629375-16be-4a47-a786-8d235fa6cbc0"},"vehicle_type_id":"4","last_reported":1702019200,"current_range_meters":28800,"station_id":"ce4bhhp2rcd13ifvqfm0","pricing_plan_id":"free"},{"bike_id":"77e2df1b-d75a-48fe-a6ad-744dfbe91f1d","system_id":"levelo_inurba_marseille","lat":43.27214,"lon":5.3925,"is_reserved":false,"is_disabled":false,"rental_uris":{"android":"levelo://app?vid=77e2df1b-d75a-48fe-a6ad-744dfbe91f1d","ios":"levelo://app?vid=77e2df1b-d75a-48fe-a6ad-744dfbe91f1d"},"vehicle_type_id":"4","last_reported":1702019200,"current_range_meters":6400,"station_id":"","pricing_plan_id":"free"},{"bike_id":"7b84562b-f023-458e-9f63-22f52b26a915","system_id":"levelo_inurba_marseille","lat":43.278128,"lon":5.407195,"is_reserved":false,"is_disabled":false,"rental_uris":{"android":"levelo://app?vid=7b84562b-f023-458e-9f63-22f52b26a915","ios":"levelo://app?vid=7b84562b-f023-458e-9f63-22f52b26a915"},"vehicle_type_id":"4","last_reported":1702019200,"current_range_meters":31200,"station_id":"ce4bhnh2rcd13ifvqgtg","pricing_plan_id":"free"},{"bike_id":"507fa7b2-2766-4bb9-8380-8e4477bc99ac","system_id":"levelo_inurba_marseille","lat":43.278128,"lon":5.407195,"is_reserved":false,"is_disabled":false,"rental_uris":{"android":"levelo://app?vid=507fa7b2-2766-4bb9-8380-8e4477bc99ac","ios":"levelo://app?vid=507fa7b2-2766-4bb9-8380-8e4477bc99ac"},"vehicle_type_id":"4","last_reported":1702019200,"current_range_meters":2400,"station_id":"ce4bhnh2rcd13ifvqgtg","pricing_plan_id":"free"},{"bike_id":"2eb7b164-467e-49b0-a554-29c177f95c2a","system_id":"levelo_inurba_marseille","lat":43.2781,"lon":5.40706,"is_reserved":false,"is_disabled":false,"rental_uris":{"android":"levelo://app?vid=2eb7b164-467e-49b0-a554-29c177f95c2a","ios":"levelo://app?vid=2eb7b164-467e-49b0-a554-29c177f95c2a"},"vehicle_type_id":"4","last_reported":1702019200,"current_range_meters":14800,"station_id":"ce4bhnh2rcd13ifvqgtg","pricing_plan_id":"free"},{"bike_id":"8e3ed466-32b5-40fb-9e63-efc51e8e36c0","system_id":"levelo_inurba_marseille","lat":43.278128,"lon":5.407195,"is_reserved":false,"is_disabled":false,"rental_uris":{"android":"levelo://app?vid=8e3ed466-32b5-40fb-9e63-efc51e8e36c0","ios":"levelo://app?vid=8e3ed466-32b5-40fb-9e63-efc51e8e36c0"},"vehicle_type_id":"4","last_reported":1702019200,"current_range_meters":29600,"station_id":"ce4bhnh2rcd13ifvqgtg","pricing_plan_id":"free"},{"bike_id":"dffd642e-6acf-43e9-84fd-33fa89f52c00","system_id":"levelo_inurba_marseille","lat":43.27905,"lon":5.41219,"is_reserved":false,"is_disabled":false,"rental_uris":{"android":"levelo://app?vid=dffd642e-6acf-43e9-84fd-33fa89f52c00","ios":"levelo://app?vid=dffd642e-6acf-43e9-84fd-33fa89f52c00"},"vehicle_type_id":"4","last_reported":1702019200,"current_range_meters":11600,"station_id":"","pricing_plan_id":"free"},{"bike_id":"5c62f0fe-2a68-4f0e-8c5e-1c3be35b64ff","system_id":"levelo_inurba_marseille","lat":43.29175,"lon":5.427991,"is_reserved":false,"is_disabled":false,"rental_uris":{"android":"levelo://app?vid=5c62f0fe-2a68-4f0e-8c5e-1c3be35b64ff","ios":"levelo://app?vid=5c62f0fe-2a68-4f0e-8c5e-1c3be35b64ff"},"vehicle_type_id":"4","last_reported":1702019200,"current_range_meters":12000,"station_id":"","pricing_plan_id":"free"},{"bike_id":"96c0887e-a418-4ef3-86ef-4065ee71697f","system_id":"levelo_inurba_marseille","lat":43.26565,"lon":5.39009,"is_reserved":false,"is_disabled":false,"rental_uris":{"android":"levelo://app?vid=96c0887e-a418-4ef3-86ef-4065ee71697f","ios":"levelo://app?vid=96c0887e-a418-4ef3-86ef-4065ee71697f"},"vehicle_type_id":"4","last_reported":1702019200,"current_range_meters":23200,"station_id":"ce4bhe12rcd13ifvqf30","pricing_plan_id":"free"},{"bike_id":"f076cecd-d7cf-41d2-831d-4d046a72d397","system_id":"levelo_inurba_marseille","lat":43.265569,"lon":5.390047,"is_reserved":false,"is_disabled":false,"rental_uris":{"android":"levelo://app?vid=f076cecd-d7cf-41d2-831d-4d046a72d397","ios":"levelo://app?vid=f076cecd-d7cf-41d2-831d-4d046a72d397"},"vehicle_type_id":"4","last_reported":1702019200,"current_range_meters":31200,"station_id":"ce4bhe12rcd13ifvqf30","pricing_plan_id":"free"},{"bike_id":"b2b103ac-0819-4d45-aab7-66487a241d22","system_id":"levelo_inurba_marseille","lat":43.26938,"lon":5.4026,"is_reserved":false,"is_disabled":false,"rental_uris":{"android":"levelo://app?vid=b2b103ac-0819-4d45-aab7-66487a241d22","ios":"levelo://app?vid=b2b103ac-0819-4d45-aab7-66487a241d22"},"vehicle_type_id":"4","last_reported":1702019200,"current_range_meters":0,"station_id":"cjm6bp8fraef2m0cb0m0","pricing_plan_id":"free"},{"bike_id":"f2e5d013-6edb-494d-8e09-78d711cf04a7","system_id":"levelo_inurba_marseille","lat":43.317104,"lon":5.436818,"is_reserved":false,"is_disabled":false,"rental_uris":{"android":"levelo://app?vid=f2e5d013-6edb-494d-8e09-78d711cf04a7","ios":"levelo://app?vid=f2e5d013-6edb-494d-8e09-78d711cf04a7"},"vehicle_type_id":"4","last_reported":1702019200,"current_range_meters":27200,"station_id":"ce4bhp92rcd13ifvqhcg","pricing_plan_id":"free"},{"bike_id":"b351af1f-10d3-4ab4-a43d-e8e87c37bc23","system_id":"levelo_inurba_marseille","lat":43.262012,"lon":5.379307,"is_reserved":false,"is_disabled":false,"rental_uris":{"android":"levelo://app?vid=b351af1f-10d3-4ab4-a43d-e8e87c37bc23","ios":"levelo://app?vid=b351af1f-10d3-4ab4-a43d-e8e87c37bc23"},"vehicle_type_id":"4","last_reported":1702019200,"current_range_meters":4400,"station_id":"ce4bhjp2rcd13ifvqg90","pricing_plan_id":"free"},{"bike_id":"ed3d39e3-16d0-4193-b5f3-7d15fa62181e","system_id":"levelo_inurba_marseille","lat":43.262012,"lon":5.379307,"is_reserved":false,"is_disabled":false,"rental_uris":{"android":"levelo://app?vid=ed3d39e3-16d0-4193-b5f3-7d15fa62181e","ios":"levelo://app?vid=ed3d39e3-16d0-4193-b5f3-7d15fa62181e"},"vehicle_type_id":"4","last_reported":1702019200,"current_range_meters":31200,"station_id":"ce4bhjp2rcd13ifvqg90","pricing_plan_id":"free"},{"bike_id":"50b57549-b3da-4393-86c8-d9ab04bd4183","system_id":"levelo_inurba_marseille","lat":43.26202,"lon":5.379299,"is_reserved":false,"is_disabled":false,"rental_uris":{"android":"levelo://app?vid=50b57549-b3da-4393-86c8-d9ab04bd4183","ios":"levelo://app?vid=50b57549-b3da-4393-86c8-d9ab04bd4183"},"vehicle_type_id":"4","last_reported":1702019200,"current_range_meters":29200,"station_id":"ce4bhjp2rcd13ifvqg90","pricing_plan_id":"free"},{"bike_id":"3304d659-2172-4c05-95b9-9ce22aa618b6","system_id":"levelo_inurba_marseille","lat":43.271388,"lon":5.409269,"is_reserved":false,"is_disabled":false,"rental_uris":{"android":"levelo://app?vid=3304d659-2172-4c05-95b9-9ce22aa618b6","ios":"levelo://app?vid=3304d659-2172-4c05-95b9-9ce22aa618b6"},"vehicle_type_id":"4","last_reported":1702019200,"current_range_meters":30000,"station_id":"ce4bhl12rcd13ifvqgf0","pricing_plan_id":"free"},{"bike_id":"007df34f-7724-4dff-aa9a-49c212a14799","system_id":"levelo_inurba_marseille","lat":43.271368,"lon":5.40928,"is_reserved":false,"is_disabled":false,"rental_uris":{"android":"levelo://app?vid=007df34f-7724-4dff-aa9a-49c212a14799","ios":"levelo://app?vid=007df34f-7724-4dff-aa9a-49c212a14799"},"vehicle_type_id":"4","last_reported":1702019200,"current_range_meters":26800,"station_id":"ce4bhl12rcd13ifvqgf0","pricing_plan_id":"free"},{"bike_id":"c5bd1d69-a92d-4172-a7f3-6c88766eaa3a","system_id":"levelo_inurba_marseille","lat":43.271368,"lon":5.40928,"is_reserved":false,"is_disabled":false,"rental_uris":{"android":"levelo://app?vid=c5bd1d69-a92d-4172-a7f3-6c88766eaa3a","ios":"levelo://app?vid=c5bd1d69-a92d-4172-a7f3-6c88766eaa3a"},"vehicle_type_id":"4","last_reported":1702019200,"current_range_meters":9600,"station_id":"ce4bhl12rcd13ifvqgf0","pricing_plan_id":"free"},{"bike_id":"f99c4aef-541a-4352-a884-d4a46464ec6d","system_id":"levelo_inurba_marseille","lat":43.267959,"lon":5.402687,"is_reserved":false,"is_disabled":false,"rental_uris":{"android":"levelo://app?vid=f99c4aef-541a-4352-a884-d4a46464ec6d","ios":"levelo://app?vid=f99c4aef-541a-4352-a884-d4a46464ec6d"},"vehicle_type_id":"4","last_reported":1702019200,"current_range_meters":26000,"station_id":"ce501612rcd8frsf0b60","pricing_plan_id":"free"},{"bike_id":"8a8bc4d6-0029-4fbf-9728-a692a0316877","system_id":"levelo_inurba_marseille","lat":43.27557,"lon":5.41681,"is_reserved":false,"is_disabled":false,"rental_uris":{"android":"levelo://app?vid=8a8bc4d6-0029-4fbf-9728-a692a0316877","ios":"levelo://app?vid=8a8bc4d6-0029-4fbf-9728-a692a0316877"},"vehicle_type_id":"4","last_reported":1702019200,"current_range_meters":3200,"station_id":"","pricing_plan_id":"free"},{"bike_id":"0a3af9fe-4495-4765-a364-07e789cdace4","system_id":"levelo_inurba_marseille","lat":43.298768,"lon":5.43643,"is_reserved":false,"is_disabled":false,"rental_uris":{"android":"levelo://app?vid=0a3af9fe-4495-4765-a364-07e789cdace4","ios":"levelo://app?vid=0a3af9fe-4495-4765-a364-07e789cdace4"},"vehicle_type_id":"4","last_reported":1702019200,"current_range_meters":27600,"station_id":"ce4bhpp2rcd13ifvqhfg","pricing_plan_id":"free"},{"bike_id":"ca4db8a8-5b98-4b78-bc3d-514f38028a3d","system_id":"levelo_inurba_marseille","lat":43.298768,"lon":5.43643,"is_reserved":false,"is_disabled":false,"rental_uris":{"android":"levelo://app?vid=ca4db8a8-5b98-4b78-bc3d-514f38028a3d","ios":"levelo://app?vid=ca4db8a8-5b98-4b78-bc3d-514f38028a3d"},"vehicle_type_id":"4","last_reported":1702019200,"current_range_meters":30000,"station_id":"ce4bhpp2rcd13ifvqhfg","pricing_plan_id":"free"},{"bike_id":"4f68f183-a711-4386-a731-e8ea8e2f115e","system_id":"levelo_inurba_marseille","lat":43.298768,"lon":5.43643,"is_reserved":false,"is_disabled":false,"rental_uris":{"android":"levelo://app?vid=4f68f183-a711-4386-a731-e8ea8e2f115e","ios":"levelo://app?vid=4f68f183-a711-4386-a731-e8ea8e2f115e"},"vehicle_type_id":"4","last_reported":1702019200,"current_range_meters":25600,"station_id":"ce4bhpp2rcd13ifvqhfg","pricing_plan_id":"free"},{"bike_id":"83e2018e-7127-4415-8bbf-2e347a9c6750","system_id":"levelo_inurba_marseille","lat":43.29897,"lon":5.43669,"is_reserved":false,"is_disabled":false,"rental_uris":{"android":"levelo://app?vid=83e2018e-7127-4415-8bbf-2e347a9c6750","ios":"levelo://app?vid=83e2018e-7127-4415-8bbf-2e347a9c6750"},"vehicle_type_id":"4","last_reported":1702019200,"current_range_meters":4400,"station_id":"ce4bhpp2rcd13ifvqhfg","pricing_plan_id":"free"},{"bike_id":"b0b3850b-b073-47e6-aba6-e5a88e8602e2","system_id":"levelo_inurba_marseille","lat":43.281548,"lon":5.42643,"is_reserved":false,"is_disabled":false,"rental_uris":{"android":"levelo://app?vid=b0b3850b-b073-47e6-aba6-e5a88e8602e2","ios":"levelo://app?vid=b0b3850b-b073-47e6-aba6-e5a88e8602e2"},"vehicle_type_id":"4","last_reported":1702019200,"current_range_meters":27600,"station_id":"ce4bhnh2rcd13ifvqgug","pricing_plan_id":"free"},{"bike_id":"fee59bde-6126-4a98-a3e0-c862515d1a23","system_id":"levelo_inurba_marseille","lat":43.281548,"lon":5.42643,"is_reserved":false,"is_disabled":false,"rental_uris":{"android":"levelo://app?vid=fee59bde-6126-4a98-a3e0-c862515d1a23","ios":"levelo://app?vid=fee59bde-6126-4a98-a3e0-c862515d1a23"},"vehicle_type_id":"4","last_reported":1702019200,"current_range_meters":30400,"station_id":"ce4bhnh2rcd13ifvqgug","pricing_plan_id":"free"},{"bike_id":"81e4ce4f-798f-4faa-b87d-f1187fb850ed","system_id":"levelo_inurba_marseille","lat":43.281548,"lon":5.42643,"is_reserved":false,"is_disabled":false,"rental_uris":{"android":"levelo://app?vid=81e4ce4f-798f-4faa-b87d-f1187fb850ed","ios":"levelo://app?vid=81e4ce4f-798f-4faa-b87d-f1187fb850ed"},"vehicle_type_id":"4","last_reported":1702019200,"current_range_meters":27600,"station_id":"ce4bhnh2rcd13ifvqgug","pricing_plan_id":"free"},{"bike_id":"6c4a4127-c4de-4571-99d2-c4e93580765c","system_id":"levelo_inurba_marseille","lat":43.281548,"lon":5.42643,"is_reserved":false,"is_disabled":false,"rental_uris":{"android":"levelo://app?vid=6c4a4127-c4de-4571-99d2-c4e93580765c","ios":"levelo://app?vid=6c4a4127-c4de-4571-99d2-c4e93580765c"},"vehicle_type_id":"4","last_reported":1702019200,"current_range_meters":24000,"station_id":"ce4bhnh2rcd13ifvqgug","pricing_plan_id":"free"},{"bike_id":"ba7ddf79-ff50-4f5c-8fc6-82d165f47152","system_id":"levelo_inurba_marseille","lat":43.28153,"lon":5.42651,"is_reserved":false,"is_disabled":false,"rental_uris":{"android":"levelo://app?vid=ba7ddf79-ff50-4f5c-8fc6-82d165f47152","ios":"levelo://app?vid=ba7ddf79-ff50-4f5c-8fc6-82d165f47152"},"vehicle_type_id":"4","last_reported":1702019200,"current_range_meters":5200,"station_id":"ce4bhnh2rcd13ifvqgug","pricing_plan_id":"free"},{"bike_id":"adb772d7-9f7f-4984-9bc5-89492c3f533a","system_id":"levelo_inurba_marseille","lat":43.275028,"lon":5.424534,"is_reserved":false,"is_disabled":false,"rental_uris":{"android":"levelo://app?vid=adb772d7-9f7f-4984-9bc5-89492c3f533a","ios":"levelo://app?vid=adb772d7-9f7f-4984-9bc5-89492c3f533a"},"vehicle_type_id":"4","last_reported":1702019200,"current_range_meters":1600,"station_id":"ce4bhn92rcd13ifvqgrg","pricing_plan_id":"free"},{"bike_id":"318a1441-abd3-4590-a371-e4f822f2476f","system_id":"levelo_inurba_marseille","lat":43.275028,"lon":5.424534,"is_reserved":false,"is_disabled":false,"rental_uris":{"android":"levelo://app?vid=318a1441-abd3-4590-a371-e4f822f2476f","ios":"levelo://app?vid=318a1441-abd3-4590-a371-e4f822f2476f"},"vehicle_type_id":"4","last_reported":1702019200,"current_range_meters":28000,"station_id":"ce4bhn92rcd13ifvqgrg","pricing_plan_id":"free"},{"bike_id":"23e57031-8a49-495f-998c-c70085d9630f","system_id":"levelo_inurba_marseille","lat":43.275028,"lon":5.424534,"is_reserved":false,"is_disabled":false,"rental_uris":{"android":"levelo://app?vid=23e57031-8a49-495f-998c-c70085d9630f","ios":"levelo://app?vid=23e57031-8a49-495f-998c-c70085d9630f"},"vehicle_type_id":"4","last_reported":1702019200,"current_range_meters":29600,"station_id":"ce4bhn92rcd13ifvqgrg","pricing_plan_id":"free"},{"bike_id":"06acffe1-0a55-4d51-b6e5-02e54dc0be98","system_id":"levelo_inurba_marseille","lat":43.275028,"lon":5.424534,"is_reserved":false,"is_disabled":false,"rental_uris":{"android":"levelo://app?vid=06acffe1-0a55-4d51-b6e5-02e54dc0be98","ios":"levelo://app?vid=06acffe1-0a55-4d51-b6e5-02e54dc0be98"},"vehicle_type_id":"4","last_reported":1702019200,"current_range_meters":16800,"station_id":"ce4bhn92rcd13ifvqgrg","pricing_plan_id":"free"},{"bike_id":"b699497e-07ae-4ed8-bd1d-3df084685950","system_id":"levelo_inurba_marseille","lat":43.275028,"lon":5.424534,"is_reserved":false,"is_disabled":false,"rental_uris":{"android":"levelo://app?vid=b699497e-07ae-4ed8-bd1d-3df084685950","ios":"levelo://app?vid=b699497e-07ae-4ed8-bd1d-3df084685950"},"vehicle_type_id":"4","last_reported":1702019200,"current_range_meters":25200,"station_id":"ce4bhn92rcd13ifvqgrg","pricing_plan_id":"free"},{"bike_id":"e348a3eb-c619-4258-9cca-4189b3c6ae65","system_id":"levelo_inurba_marseille","lat":43.275028,"lon":5.424534,"is_reserved":false,"is_disabled":false,"rental_uris":{"android":"levelo://app?vid=e348a3eb-c619-4258-9cca-4189b3c6ae65","ios":"levelo://app?vid=e348a3eb-c619-4258-9cca-4189b3c6ae65"},"vehicle_type_id":"4","last_reported":1702019200,"current_range_meters":24000,"station_id":"ce4bhn92rcd13ifvqgrg","pricing_plan_id":"free"},{"bike_id":"bc3cd7ca-a814-4505-84f2-763c60cf3c8a","system_id":"levelo_inurba_marseille","lat":43.275028,"lon":5.424534,"is_reserved":false,"is_disabled":false,"rental_uris":{"android":"levelo://app?vid=bc3cd7ca-a814-4505-84f2-763c60cf3c8a","ios":"levelo://app?vid=bc3cd7ca-a814-4505-84f2-763c60cf3c8a"},"vehicle_type_id":"4","last_reported":1702019200,"current_range_meters":29600,"station_id":"ce4bhn92rcd13ifvqgrg","pricing_plan_id":"free"},{"bike_id":"e9cb17b6-6e3c-4d72-b475-e89d068dd3d0","system_id":"levelo_inurba_marseille","lat":43.275028,"lon":5.424534,"is_reserved":false,"is_disabled":false,"rental_uris":{"android":"levelo://app?vid=e9cb17b6-6e3c-4d72-b475-e89d068dd3d0","ios":"levelo://app?vid=e9cb17b6-6e3c-4d72-b475-e89d068dd3d0"},"vehicle_type_id":"4","last_reported":1702019200,"current_range_meters":27200,"station_id":"ce4bhn92rcd13ifvqgrg","pricing_plan_id":"free"},{"bike_id":"3ad59db9-ba6e-4237-879d-9ad671817685","system_id":"levelo_inurba_marseille","lat":43.258224,"lon":5.394369,"is_reserved":false,"is_disabled":false,"rental_uris":{"android":"levelo://app?vid=3ad59db9-ba6e-4237-879d-9ad671817685","ios":"levelo://app?vid=3ad59db9-ba6e-4237-879d-9ad671817685"},"vehicle_type_id":"4","last_reported":1702019200,"current_range_meters":20400,"station_id":"ce4bhip2rcd13ifvqft0","pricing_plan_id":"free"},{"bike_id":"d678f693-ef93-472c-8046-a56aace1773e","system_id":"levelo_inurba_marseille","lat":43.254947,"lon":5.376454,"is_reserved":false,"is_disabled":false,"rental_uris":{"android":"levelo://app?vid=d678f693-ef93-472c-8046-a56aace1773e","ios":"levelo://app?vid=d678f693-ef93-472c-8046-a56aace1773e"},"vehicle_type_id":"4","last_reported":1702019200,"current_range_meters":21200,"station_id":"ce4bhh12rcd13ifvqff0","pricing_plan_id":"free"},{"bike_id":"d3f8d42e-7148-47c9-80b9-54e0739fd8b2","system_id":"levelo_inurba_marseille","lat":43.254947,"lon":5.376454,"is_reserved":false,"is_disabled":false,"rental_uris":{"android":"levelo://app?vid=d3f8d42e-7148-47c9-80b9-54e0739fd8b2","ios":"levelo://app?vid=d3f8d42e-7148-47c9-80b9-54e0739fd8b2"},"vehicle_type_id":"4","last_reported":1702019200,"current_range_meters":22800,"station_id":"ce4bhh12rcd13ifvqff0","pricing_plan_id":"free"},{"bike_id":"7b3c5568-a81d-4b3e-a545-3e6cf8403cc7","system_id":"levelo_inurba_marseille","lat":43.270721,"lon":5.422764,"is_reserved":false,"is_disabled":false,"rental_uris":{"android":"levelo://app?vid=7b3c5568-a81d-4b3e-a545-3e6cf8403cc7","ios":"levelo://app?vid=7b3c5568-a81d-4b3e-a545-3e6cf8403cc7"},"vehicle_type_id":"4","last_reported":1702019200,"current_range_meters":28400,"station_id":"ce4bhk92rcd13ifvqgb0","pricing_plan_id":"free"},{"bike_id":"86c273ec-8ba5-46e9-8021-4aa98debfb6d","system_id":"levelo_inurba_marseille","lat":43.258658,"lon":5.398935,"is_reserved":false,"is_disabled":false,"rental_uris":{"android":"levelo://app?vid=86c273ec-8ba5-46e9-8021-4aa98debfb6d","ios":"levelo://app?vid=86c273ec-8ba5-46e9-8021-4aa98debfb6d"},"vehicle_type_id":"4","last_reported":1702019200,"current_range_meters":28400,"station_id":"ce4bhl92rcd13ifvqghg","pricing_plan_id":"free"},{"bike_id":"5e28afdb-366a-4ee2-bf4c-72dd44305a45","system_id":"levelo_inurba_marseille","lat":43.257079,"lon":5.411051,"is_reserved":false,"is_disabled":false,"rental_uris":{"android":"levelo://app?vid=5e28afdb-366a-4ee2-bf4c-72dd44305a45","ios":"levelo://app?vid=5e28afdb-366a-4ee2-bf4c-72dd44305a45"},"vehicle_type_id":"4","last_reported":1702019200,"current_range_meters":31200,"station_id":"ce4bhkp2rcd13ifvqgd0","pricing_plan_id":"free"},{"bike_id":"ea6f15d6-03ac-476d-a535-2e7d3b9eaeef","system_id":"levelo_inurba_marseille","lat":43.257079,"lon":5.411051,"is_reserved":false,"is_disabled":false,"rental_uris":{"android":"levelo://app?vid=ea6f15d6-03ac-476d-a535-2e7d3b9eaeef","ios":"levelo://app?vid=ea6f15d6-03ac-476d-a535-2e7d3b9eaeef"},"vehicle_type_id":"4","last_reported":1702019200,"current_range_meters":0,"station_id":"ce4bhkp2rcd13ifvqgd0","pricing_plan_id":"free"},{"bike_id":"0626450b-ffdf-4d67-8a5c-efdeac99b8bf","system_id":"levelo_inurba_marseille","lat":43.250009,"lon":5.389195,"is_reserved":false,"is_disabled":false,"rental_uris":{"android":"levelo://app?vid=0626450b-ffdf-4d67-8a5c-efdeac99b8bf","ios":"levelo://app?vid=0626450b-ffdf-4d67-8a5c-efdeac99b8bf"},"vehicle_type_id":"4","last_reported":1702019200,"current_range_meters":14400,"station_id":"ce4bhgp2rcd13ifvqfd0","pricing_plan_id":"free"},{"bike_id":"ddf2951b-2b04-424f-9ef1-6d8217c9e48c","system_id":"levelo_inurba_marseille","lat":43.250009,"lon":5.389195,"is_reserved":false,"is_disabled":false,"rental_uris":{"android":"levelo://app?vid=ddf2951b-2b04-424f-9ef1-6d8217c9e48c","ios":"levelo://app?vid=ddf2951b-2b04-424f-9ef1-6d8217c9e48c"},"vehicle_type_id":"4","last_reported":1702019200,"current_range_meters":31200,"station_id":"ce4bhgp2rcd13ifvqfd0","pricing_plan_id":"free"},{"bike_id":"c7303482-c17d-43b2-a7e0-2e7052a872dd","system_id":"levelo_inurba_marseille","lat":43.25102,"lon":5.403214,"is_reserved":false,"is_disabled":false,"rental_uris":{"android":"levelo://app?vid=c7303482-c17d-43b2-a7e0-2e7052a872dd","ios":"levelo://app?vid=c7303482-c17d-43b2-a7e0-2e7052a872dd"},"vehicle_type_id":"4","last_reported":1702019200,"current_range_meters":31200,"station_id":"ce4bhlh2rcd13ifvqgig","pricing_plan_id":"free"},{"bike_id":"09ca0e3d-8993-4c85-ba97-10ce4be56981","system_id":"levelo_inurba_marseille","lat":43.25102,"lon":5.403214,"is_reserved":false,"is_disabled":false,"rental_uris":{"android":"levelo://app?vid=09ca0e3d-8993-4c85-ba97-10ce4be56981","ios":"levelo://app?vid=09ca0e3d-8993-4c85-ba97-10ce4be56981"},"vehicle_type_id":"4","last_reported":1702019200,"current_range_meters":13200,"station_id":"ce4bhlh2rcd13ifvqgig","pricing_plan_id":"free"},{"bike_id":"5687050d-4f5d-4497-8e79-c625c38b49e9","system_id":"levelo_inurba_marseille","lat":43.25102,"lon":5.403214,"is_reserved":false,"is_disabled":false,"rental_uris":{"android":"levelo://app?vid=5687050d-4f5d-4497-8e79-c625c38b49e9","ios":"levelo://app?vid=5687050d-4f5d-4497-8e79-c625c38b49e9"},"vehicle_type_id":"4","last_reported":1702019200,"current_range_meters":800,"station_id":"ce4bhlh2rcd13ifvqgig","pricing_plan_id":"free"},{"bike_id":"55d4cda2-7880-44c8-8815-1b2f87dd305f","system_id":"levelo_inurba_marseille","lat":43.251087,"lon":5.403287,"is_reserved":false,"is_disabled":false,"rental_uris":{"android":"levelo://app?vid=55d4cda2-7880-44c8-8815-1b2f87dd305f","ios":"levelo://app?vid=55d4cda2-7880-44c8-8815-1b2f87dd305f"},"vehicle_type_id":"4","last_reported":1702019200,"current_range_meters":22000,"station_id":"ce4bhlh2rcd13ifvqgig","pricing_plan_id":"free"},{"bike_id":"e33b5033-9a3a-44d2-b7a2-0be2a23a1972","system_id":"levelo_inurba_marseille","lat":43.25109,"lon":5.4033,"is_reserved":false,"is_disabled":false,"rental_uris":{"android":"levelo://app?vid=e33b5033-9a3a-44d2-b7a2-0be2a23a1972","ios":"levelo://app?vid=e33b5033-9a3a-44d2-b7a2-0be2a23a1972"},"vehicle_type_id":"4","last_reported":1702019200,"current_range_meters":800,"station_id":"ce4bhlh2rcd13ifvqgig","pricing_plan_id":"free"},{"bike_id":"1da55003-4868-4b62-a865-9df266d41606","system_id":"levelo_inurba_marseille","lat":43.25102,"lon":5.403214,"is_reserved":false,"is_disabled":false,"rental_uris":{"android":"levelo://app?vid=1da55003-4868-4b62-a865-9df266d41606","ios":"levelo://app?vid=1da55003-4868-4b62-a865-9df266d41606"},"vehicle_type_id":"4","last_reported":1702019200,"current_range_meters":14400,"station_id":"ce4bhlh2rcd13ifvqgig","pricing_plan_id":"free"},{"bike_id":"292d21fb-c019-4e73-8916-2be5c28b4e4f","system_id":"levelo_inurba_marseille","lat":43.251017,"lon":5.403287,"is_reserved":false,"is_disabled":false,"rental_uris":{"android":"levelo://app?vid=292d21fb-c019-4e73-8916-2be5c28b4e4f","ios":"levelo://app?vid=292d21fb-c019-4e73-8916-2be5c28b4e4f"},"vehicle_type_id":"4","last_reported":1702019200,"current_range_meters":29600,"station_id":"ce4bhlh2rcd13ifvqgig","pricing_plan_id":"free"},{"bike_id":"dc34a95e-6c55-4d91-8718-224a5f1981ce","system_id":"levelo_inurba_marseille","lat":43.24552,"lon":5.37331,"is_reserved":false,"is_disabled":false,"rental_uris":{"android":"levelo://app?vid=dc34a95e-6c55-4d91-8718-224a5f1981ce","ios":"levelo://app?vid=dc34a95e-6c55-4d91-8718-224a5f1981ce"},"vehicle_type_id":"4","last_reported":1702019200,"current_range_meters":0,"station_id":"","pricing_plan_id":"free"},{"bike_id":"2ee3d9c4-4972-4e95-9aee-470fd68e876e","system_id":"levelo_inurba_marseille","lat":43.245581,"lon":5.395069,"is_reserved":false,"is_disabled":false,"rental_uris":{"android":"levelo://app?vid=2ee3d9c4-4972-4e95-9aee-470fd68e876e","ios":"levelo://app?vid=2ee3d9c4-4972-4e95-9aee-470fd68e876e"},"vehicle_type_id":"4","last_reported":1702019200,"current_range_meters":0,"station_id":"ce4bhlp2rcd13ifvqgjg","pricing_plan_id":"free"},{"bike_id":"4bf693db-7932-44cc-9615-5863854c4460","system_id":"levelo_inurba_marseille","lat":43.240623,"lon":5.377642,"is_reserved":false,"is_disabled":false,"rental_uris":{"android":"levelo://app?vid=4bf693db-7932-44cc-9615-5863854c4460","ios":"levelo://app?vid=4bf693db-7932-44cc-9615-5863854c4460"},"vehicle_type_id":"4","last_reported":1702019200,"current_range_meters":4400,"station_id":"ce4bhnp2rcd13ifvqgvg","pricing_plan_id":"free"},{"bike_id":"1a74409a-ecd9-4bc6-b4cf-cfbd4a95e194","system_id":"levelo_inurba_marseille","lat":43.240623,"lon":5.377642,"is_reserved":false,"is_disabled":false,"rental_uris":{"android":"levelo://app?vid=1a74409a-ecd9-4bc6-b4cf-cfbd4a95e194","ios":"levelo://app?vid=1a74409a-ecd9-4bc6-b4cf-cfbd4a95e194"},"vehicle_type_id":"4","last_reported":1702019200,"current_range_meters":27200,"station_id":"ce4bhnp2rcd13ifvqgvg","pricing_plan_id":"free"},{"bike_id":"3c753a71-9242-42de-80b2-6f0f91f55563","system_id":"levelo_inurba_marseille","lat":43.240623,"lon":5.377642,"is_reserved":false,"is_disabled":false,"rental_uris":{"android":"levelo://app?vid=3c753a71-9242-42de-80b2-6f0f91f55563","ios":"levelo://app?vid=3c753a71-9242-42de-80b2-6f0f91f55563"},"vehicle_type_id":"4","last_reported":1702019200,"current_range_meters":25200,"station_id":"ce4bhnp2rcd13ifvqgvg","pricing_plan_id":"free"},{"bike_id":"1692a47e-c817-462d-93d2-64b93ec2a3db","system_id":"levelo_inurba_marseille","lat":43.240623,"lon":5.377642,"is_reserved":false,"is_disabled":false,"rental_uris":{"android":"levelo://app?vid=1692a47e-c817-462d-93d2-64b93ec2a3db","ios":"levelo://app?vid=1692a47e-c817-462d-93d2-64b93ec2a3db"},"vehicle_type_id":"4","last_reported":1702019200,"current_range_meters":3600,"station_id":"ce4bhnp2rcd13ifvqgvg","pricing_plan_id":"free"},{"bike_id":"1736197e-d189-44ae-962b-c17bbaad9b62","system_id":"levelo_inurba_marseille","lat":43.240623,"lon":5.377642,"is_reserved":false,"is_disabled":false,"rental_uris":{"android":"levelo://app?vid=1736197e-d189-44ae-962b-c17bbaad9b62","ios":"levelo://app?vid=1736197e-d189-44ae-962b-c17bbaad9b62"},"vehicle_type_id":"4","last_reported":1702019200,"current_range_meters":15200,"station_id":"ce4bhnp2rcd13ifvqgvg","pricing_plan_id":"free"},{"bike_id":"2dafbae8-0bbc-4e71-af1a-94cb2906751e","system_id":"levelo_inurba_marseille","lat":43.240623,"lon":5.377642,"is_reserved":false,"is_disabled":false,"rental_uris":{"android":"levelo://app?vid=2dafbae8-0bbc-4e71-af1a-94cb2906751e","ios":"levelo://app?vid=2dafbae8-0bbc-4e71-af1a-94cb2906751e"},"vehicle_type_id":"4","last_reported":1702019200,"current_range_meters":27200,"station_id":"ce4bhnp2rcd13ifvqgvg","pricing_plan_id":"free"},{"bike_id":"d3f11772-4714-412b-8bd4-43d49e060b1a","system_id":"levelo_inurba_marseille","lat":43.240623,"lon":5.377642,"is_reserved":false,"is_disabled":false,"rental_uris":{"android":"levelo://app?vid=d3f11772-4714-412b-8bd4-43d49e060b1a","ios":"levelo://app?vid=d3f11772-4714-412b-8bd4-43d49e060b1a"},"vehicle_type_id":"4","last_reported":1702019200,"current_range_meters":30800,"station_id":"ce4bhnp2rcd13ifvqgvg","pricing_plan_id":"free"},{"bike_id":"6756da97-db2c-4337-aa21-556950095f65","system_id":"levelo_inurba_marseille","lat":43.241762,"lon":5.397198,"is_reserved":false,"is_disabled":false,"rental_uris":{"android":"levelo://app?vid=6756da97-db2c-4337-aa21-556950095f65","ios":"levelo://app?vid=6756da97-db2c-4337-aa21-556950095f65"},"vehicle_type_id":"4","last_reported":1702019200,"current_range_meters":5200,"station_id":"ce4bhn12rcd13ifvqgpg","pricing_plan_id":"free"},{"bike_id":"febb7c6a-3a82-4621-b837-c53042603cf4","system_id":"levelo_inurba_marseille","lat":43.231919,"lon":5.355532,"is_reserved":false,"is_disabled":false,"rental_uris":{"android":"levelo://app?vid=febb7c6a-3a82-4621-b837-c53042603cf4","ios":"levelo://app?vid=febb7c6a-3a82-4621-b837-c53042603cf4"},"vehicle_type_id":"4","last_reported":1702019200,"current_range_meters":26800,"station_id":"ce4bhu92rcd13ifvqi70","pricing_plan_id":"free"},{"bike_id":"6c4620c0-0d4d-493f-9950-4fd3c4457696","system_id":"levelo_inurba_marseille","lat":43.231794,"lon":5.400052,"is_reserved":false,"is_disabled":false,"rental_uris":{"android":"levelo://app?vid=6c4620c0-0d4d-493f-9950-4fd3c4457696","ios":"levelo://app?vid=6c4620c0-0d4d-493f-9950-4fd3c4457696"},"vehicle_type_id":"4","last_reported":1702019200,"current_range_meters":31200,"station_id":"ce4bhn12rcd13ifvqgqg","pricing_plan_id":"free"},{"bike_id":"10da1a3b-e2ae-4935-9987-5ceaccc8f64a","system_id":"levelo_inurba_marseille","lat":43.231794,"lon":5.400052,"is_reserved":false,"is_disabled":false,"rental_uris":{"android":"levelo://app?vid=10da1a3b-e2ae-4935-9987-5ceaccc8f64a","ios":"levelo://app?vid=10da1a3b-e2ae-4935-9987-5ceaccc8f64a"},"vehicle_type_id":"4","last_reported":1702019200,"current_range_meters":800,"station_id":"ce4bhn12rcd13ifvqgqg","pricing_plan_id":"free"},{"bike_id":"be845917-f52e-4a9f-83ff-909546a09332","system_id":"levelo_inurba_marseille","lat":43.231794,"lon":5.400052,"is_reserved":false,"is_disabled":false,"rental_uris":{"android":"levelo://app?vid=be845917-f52e-4a9f-83ff-909546a09332","ios":"levelo://app?vid=be845917-f52e-4a9f-83ff-909546a09332"},"vehicle_type_id":"4","last_reported":1702019200,"current_range_meters":31200,"station_id":"ce4bhn12rcd13ifvqgqg","pricing_plan_id":"free"},{"bike_id":"51bd0e75-103f-4c34-a127-bc9329dc93a4","system_id":"levelo_inurba_marseille","lat":43.231794,"lon":5.400052,"is_reserved":false,"is_disabled":false,"rental_uris":{"android":"levelo://app?vid=51bd0e75-103f-4c34-a127-bc9329dc93a4","ios":"levelo://app?vid=51bd0e75-103f-4c34-a127-bc9329dc93a4"},"vehicle_type_id":"4","last_reported":1702019200,"current_range_meters":13200,"station_id":"ce4bhn12rcd13ifvqgqg","pricing_plan_id":"free"},{"bike_id":"db8ee247-5c27-465c-9667-2bac338a063a","system_id":"levelo_inurba_marseille","lat":43.231794,"lon":5.400052,"is_reserved":false,"is_disabled":false,"rental_uris":{"android":"levelo://app?vid=db8ee247-5c27-465c-9667-2bac338a063a","ios":"levelo://app?vid=db8ee247-5c27-465c-9667-2bac338a063a"},"vehicle_type_id":"4","last_reported":1702019200,"current_range_meters":18800,"station_id":"ce4bhn12rcd13ifvqgqg","pricing_plan_id":"free"},{"bike_id":"6c3e3c9e-4b18-4000-ba39-0358b7d7d901","system_id":"levelo_inurba_marseille","lat":43.231562,"lon":5.436933,"is_reserved":false,"is_disabled":false,"rental_uris":{"android":"levelo://app?vid=6c3e3c9e-4b18-4000-ba39-0358b7d7d901","ios":"levelo://app?vid=6c3e3c9e-4b18-4000-ba39-0358b7d7d901"},"vehicle_type_id":"4","last_reported":1702019200,"current_range_meters":26400,"station_id":"ce4bhmp2rcd13ifvqgog","pricing_plan_id":"free"},{"bike_id":"52185dc8-f8c9-4df9-8092-bb2437fd062c","system_id":"levelo_inurba_marseille","lat":43.231562,"lon":5.436933,"is_reserved":false,"is_disabled":false,"rental_uris":{"android":"levelo://app?vid=52185dc8-f8c9-4df9-8092-bb2437fd062c","ios":"levelo://app?vid=52185dc8-f8c9-4df9-8092-bb2437fd062c"},"vehicle_type_id":"4","last_reported":1702019200,"current_range_meters":29200,"station_id":"ce4bhmp2rcd13ifvqgog","pricing_plan_id":"free"}]}}