{"last_updated":1740658708,"ttl":60,"version":"2.2","data":{"bikes":[{"bike_id":"25460e45-77ab-4aaf-ae2d-cc662b06e513","system_id":"levelo_inurba_marseille","lat":43.26213,"lon":5.37432,"is_reserved":false,"is_disabled":false,"rental_uris":{"android":"levelo://app?vid=25460e45-77ab-4aaf-ae2d-cc662b06e513","ios":"levelo://app?vid=25460e45-77ab-4aaf-ae2d-cc662b06e513"},"vehicle_type_id":"4","last_reported":1740658708,"current_range_meters":2800,"station_id":"ce4bhgp2rcd13ifvqfc0","pricing_plan_id":"cebpf4jnsgd1na2vs0mg"},{"bike_id":"f71ae6e7-c012-4c0a-88e1-9e49fb16c718","system_id":"levelo_inurba_marseille","lat":43.30949,"lon":5.39028,"is_reserved":false,"is_disabled":false,"rental_uris":{"android":"levelo://app?vid=f71ae6e7-c012-4c0a-88e1-9e49fb16c718","ios":"levelo://app?vid=f71ae6e7-c012-4c0a-88e1-9e49fb16c718"},"vehicle_type_id":"4","last_reported":1740658708,"current_range_meters":2800,"station_id":"ce4bgup2rcd13ifvqco0","pricing_plan_id":"cebpf4jnsgd1na2vs0mg"},{"bike_id":"483f210b-cad4-4e70-a4af-5113ab479c5d","system_id":"levelo_inurba_marseille","lat":43.3032,"lon":5.40426,"is_reserved":false,"is_disabled":false,"rental_uris":{"android":"levelo://app?vid=483f210b-cad4-4e70-a4af-5113ab479c5d","ios":"levelo://app?vid=483f210b-cad4-4e70-a4af-5113ab479c5d"},"vehicle_type_id":"4","last_reported":1740658708,"current_range_meters":4000,"station_id":"","pricing_plan_id":"cebpf4jnsgd1na2vs0mg"},{"bike_id":"515417d4-1a36-480a-bb57-d38b1f368d7b","system_id":"levelo_inurba_marseille","lat":43.2657,"lon":5.39007,"is_reserved":false,"is_disabled":false,"rental_uris":{"android":"levelo://app?vid=515417d4-1a36-480a-bb57-d38b1f368d7b","ios":"levelo://app?vid=515417d4-1a36-480a-bb57-d38b1f368d7b"},"vehicle_type_id":"4","last_reported":1740658708,"current_range_meters":3200,"station_id":"ce4bhe12rcd13ifvqf30","pricing_plan_id":"cebpf4jnsgd1na2vs0mg"},{"bike_id":"d333b45c-e9a3-4f5a-a32c-45c7dd97622d","system_id":"levelo_inurba_marseille","lat":43.2293,"lon":5.35372,"is_reserved":false,"is_disabled":false,"rental_uris":{"android":"levelo://app?vid=d333b45c-e9a3-4f5a-a32c-45c7dd97622d","ios":"levelo://app?vid=d333b45c-e9a3-4f5a-a32c-45c7dd97622d"},"vehicle_type_id":"4","last_reported":1740658708,"current_range_meters":3200,"station_id":"cpo3532slgdg3j2ikp40","pricing_plan_id":"cebpf4jnsgd1na2vs0mg"},{"bike_id":"f2444228-1c79-480c-8118-2c6787d24b92","system_id":"levelo_inurba_marseille","lat":43.29026,"lon":5.3813,"is_reserved":false,"is_disabled":false,"rental_uris":{"android":"levelo://app?vid=f2444228-1c79-480c-8118-2c6787d24b92","ios":"levelo://app?vid=f2444228-1c79-480c-8118-2c6787d24b92"},"vehicle_type_id":"4","last_reported":1740658708,"current_range_meters":0,"station_id":"ce4bh4p2rcd13ifvqe1g","pricing_plan_id":"cebpf4jnsgd1na2vs0mg"},{"bike_id":"eaf2d068-3688-4c1b-b793-f0b44f6ab291","system_id":"levelo_inurba_marseille","lat":43.28346,"lon":5.381,"is_reserved":false,"is_disabled":false,"rental_uris":{"android":"levelo://app?vid=eaf2d068-3688-4c1b-b793-f0b44f6ab291","ios":"levelo://app?vid=eaf2d068-3688-4c1b-b793-f0b44f6ab291"},"vehicle_type_id":"4","last_reported":1740658708,"current_range_meters":3200,"station_id":"ce4bh412rcd13ifvqdr0","pricing_plan_id":"cebpf4jnsgd1na2vs0mg"},{"bike_id":"527ef4b3-93d6-4f2e-9fc1-ef36990dcc9b","system_id":"levelo_inurba_marseille","lat":43.24084,"lon":5.37757,"is_reserved":false,"is_disabled":false,"rental_uris":{"android":"levelo://app?vid=527ef4b3-93d6-4f2e-9fc1-ef36990dcc9b","ios":"levelo://app?vid=527ef4b3-93d6-4f2e-9fc1-ef36990dcc9b"},"vehicle_type_id":"4","last_reported":1740658708,"current_range_meters":3600,"station_id":"ce4bhnp2rcd13ifvqgvg","pricing_plan_id":"cebpf4jnsgd1na2vs0mg"},{"bike_id":"60a26384-315d-4a51-b459-84aeb656021f","system_id":"levelo_inurba_marseille","lat":43.30162,"lon":5.38072,"is_reserved":false,"is_disabled":false,"rental_uris":{"android":"levelo://app?vid=60a26384-315d-4a51-b459-84aeb656021f","ios":"levelo://app?vid=60a26384-315d-4a51-b459-84aeb656021f"},"vehicle_type_id":"4","last_reported":1740658708,"current_range_meters":4000,"station_id":"ce4bgjp2rcd13ifvqbh0","pricing_plan_id":"cebpf4jnsgd1na2vs0mg"},{"bike_id":"b5368874-e19e-4e33-8e44-b3ac25e43af6","system_id":"levelo_inurba_marseille","lat":43.31314,"lon":5.37082,"is_reserved":false,"is_disabled":false,"rental_uris":{"android":"levelo://app?vid=b5368874-e19e-4e33-8e44-b3ac25e43af6","ios":"levelo://app?vid=b5368874-e19e-4e33-8e44-b3ac25e43af6"},"vehicle_type_id":"4","last_reported":1740658708,"current_range_meters":4000,"station_id":"","pricing_plan_id":"cebpf4jnsgd1na2vs0mg"},{"bike_id":"05a499a8-15ef-4dea-936f-8f7db62497e5","system_id":"levelo_inurba_marseille","lat":43.30104,"lon":5.39077,"is_reserved":false,"is_disabled":false,"rental_uris":{"android":"levelo://app?vid=05a499a8-15ef-4dea-936f-8f7db62497e5","ios":"levelo://app?vid=05a499a8-15ef-4dea-936f-8f7db62497e5"},"vehicle_type_id":"4","last_reported":1740658708,"current_range_meters":4000,"station_id":"ce4bh192rcd13ifvqdb0","pricing_plan_id":"cebpf4jnsgd1na2vs0mg"},{"bike_id":"9482d27e-74d1-4e0b-b583-4fada4b127d1","system_id":"levelo_inurba_marseille","lat":43.29008,"lon":5.35604,"is_reserved":false,"is_disabled":false,"rental_uris":{"android":"levelo://app?vid=9482d27e-74d1-4e0b-b583-4fada4b127d1","ios":"levelo://app?vid=9482d27e-74d1-4e0b-b583-4fada4b127d1"},"vehicle_type_id":"4","last_reported":1740658708,"current_range_meters":4000,"station_id":"ce4bhb92rcd13ifvqen0","pricing_plan_id":"cebpf4jnsgd1na2vs0mg"},{"bike_id":"6d9d028b-6832-4e87-9f1e-d1f56b31dee9","system_id":"levelo_inurba_marseille","lat":43.3188,"lon":5.4073,"is_reserved":false,"is_disabled":false,"rental_uris":{"android":"levelo://app?vid=6d9d028b-6832-4e87-9f1e-d1f56b31dee9","ios":"levelo://app?vid=6d9d028b-6832-4e87-9f1e-d1f56b31dee9"},"vehicle_type_id":"4","last_reported":1740658708,"current_range_meters":4800,"station_id":"ce4bhq12rcd13ifvqhig","pricing_plan_id":"cebpf4jnsgd1na2vs0mg"},{"bike_id":"5eaa6f9a-0e0b-41bb-b45d-dfa2a34d4436","system_id":"levelo_inurba_marseille","lat":43.28355,"lon":5.38104,"is_reserved":false,"is_disabled":false,"rental_uris":{"android":"levelo://app?vid=5eaa6f9a-0e0b-41bb-b45d-dfa2a34d4436","ios":"levelo://app?vid=5eaa6f9a-0e0b-41bb-b45d-dfa2a34d4436"},"vehicle_type_id":"4","last_reported":1740658708,"current_range_meters":4000,"station_id":"ce4bh412rcd13ifvqdr0","pricing_plan_id":"cebpf4jnsgd1na2vs0mg"},{"bike_id":"a882b5cc-10d5-4665-8892-a626513d3ca2","system_id":"levelo_inurba_marseille","lat":43.23192,"lon":5.39983,"is_reserved":false,"is_disabled":true,"rental_uris":{"android":"levelo://app?vid=a882b5cc-10d5-4665-8892-a626513d3ca2","ios":"levelo://app?vid=a882b5cc-10d5-4665-8892-a626513d3ca2"},"vehicle_type_id":"4","last_reported":1740658708,"current_range_meters":4800,"station_id":"ce4bhn12rcd13ifvqgqg","pricing_plan_id":"cebpf4jnsgd1na2vs0mg"},{"bike_id":"ad35246a-67c8-410e-b931-a1def331fb5b","system_id":"levelo_inurba_marseille","lat":43.28951,"lon":5.36408,"is_reserved":false,"is_disabled":false,"rental_uris":{"android":"levelo://app?vid=ad35246a-67c8-410e-b931-a1def331fb5b","ios":"levelo://app?vid=ad35246a-67c8-410e-b931-a1def331fb5b"},"vehicle_type_id":"4","last_reported":1740658708,"current_range_meters":6400,"station_id":"ce4bhc92rcd13ifvqetg","pricing_plan_id":"cebpf4jnsgd1na2vs0mg"},{"bike_id":"a2c85ab7-1e06-4246-89e2-5126635f3241","system_id":"levelo_inurba_marseille","lat":43.256,"lon":5.38237,"is_reserved":false,"is_disabled":false,"rental_uris":{"android":"levelo://app?vid=a2c85ab7-1e06-4246-89e2-5126635f3241","ios":"levelo://app?vid=a2c85ab7-1e06-4246-89e2-5126635f3241"},"vehicle_type_id":"4","last_reported":1740658708,"current_range_meters":1200,"station_id":"ce4bhih2rcd13ifvqfs0","pricing_plan_id":"cebpf4jnsgd1na2vs0mg"},{"bike_id":"0dcc0352-3717-4f22-a65a-a320d0beaf65","system_id":"levelo_inurba_marseille","lat":43.26937,"lon":5.40258,"is_reserved":false,"is_disabled":false,"rental_uris":{"android":"levelo://app?vid=0dcc0352-3717-4f22-a65a-a320d0beaf65","ios":"levelo://app?vid=0dcc0352-3717-4f22-a65a-a320d0beaf65"},"vehicle_type_id":"4","last_reported":1740658708,"current_range_meters":6000,"station_id":"cjm6bp8fraef2m0cb0m0","pricing_plan_id":"cebpf4jnsgd1na2vs0mg"},{"bike_id":"7872079e-7869-43dc-a5cf-4c907fba5e52","system_id":"levelo_inurba_marseille","lat":43.27048,"lon":5.40262,"is_reserved":false,"is_disabled":false,"rental_uris":{"android":"levelo://app?vid=7872079e-7869-43dc-a5cf-4c907fba5e52","ios":"levelo://app?vid=7872079e-7869-43dc-a5cf-4c907fba5e52"},"vehicle_type_id":"4","last_reported":1740658708,"current_range_meters":6000,"station_id":"ce4bhk92rcd13ifvqgc0","pricing_plan_id":"cebpf4jnsgd1na2vs0mg"},{"bike_id":"fb5f6ce0-8f80-4d2e-ad5d-1e37c0b88d54","system_id":"levelo_inurba_marseille","lat":43.30887,"lon":5.39656,"is_reserved":false,"is_disabled":false,"rental_uris":{"android":"levelo://app?vid=fb5f6ce0-8f80-4d2e-ad5d-1e37c0b88d54","ios":"levelo://app?vid=fb5f6ce0-8f80-4d2e-ad5d-1e37c0b88d54"},"vehicle_type_id":"4","last_reported":1740658708,"current_range_meters":6000,"station_id":"ce4bh012rcd13ifvqcv0","pricing_plan_id":"cebpf4jnsgd1na2vs0mg"},{"bike_id":"f63827ec-ba67-4a17-bb5f-5ab3b13e8f46","system_id":"levelo_inurba_marseille","lat":43.24182,"lon":5.3973,"is_reserved":false,"is_disabled":false,"rental_uris":{"android":"levelo://app?vid=f63827ec-ba67-4a17-bb5f-5ab3b13e8f46","ios":"levelo://app?vid=f63827ec-ba67-4a17-bb5f-5ab3b13e8f46"},"vehicle_type_id":"4","last_reported":1740658708,"current_range_meters":10000,"station_id":"ce4bhn12rcd13ifvqgpg","pricing_plan_id":"cebpf4jnsgd1na2vs0mg"},{"bike_id":"c7b17967-71b2-44c1-9149-17b9070e38ce","system_id":"levelo_inurba_marseille","lat":43.2407,"lon":5.37765,"is_reserved":false,"is_disabled":false,"rental_uris":{"android":"levelo://app?vid=c7b17967-71b2-44c1-9149-17b9070e38ce","ios":"levelo://app?vid=c7b17967-71b2-44c1-9149-17b9070e38ce"},"vehicle_type_id":"4","last_reported":1740658708,"current_range_meters":6400,"station_id":"ce4bhnp2rcd13ifvqgvg","pricing_plan_id":"cebpf4jnsgd1na2vs0mg"},{"bike_id":"e75b84de-6fc4-4b41-a917-ddac208a62cb","system_id":"levelo_inurba_marseille","lat":43.28939,"lon":5.3664,"is_reserved":false,"is_disabled":false,"rental_uris":{"android":"levelo://app?vid=e75b84de-6fc4-4b41-a917-ddac208a62cb","ios":"levelo://app?vid=e75b84de-6fc4-4b41-a917-ddac208a62cb"},"vehicle_type_id":"4","last_reported":1740658708,"current_range_meters":6400,"station_id":"ce4bhap2rcd13ifvqek0","pricing_plan_id":"cebpf4jnsgd1na2vs0mg"},{"bike_id":"1dd01741-bc71-4906-b337-607250f831ed","system_id":"levelo_inurba_marseille","lat":43.26566,"lon":5.39007,"is_reserved":false,"is_disabled":false,"rental_uris":{"android":"levelo://app?vid=1dd01741-bc71-4906-b337-607250f831ed","ios":"levelo://app?vid=1dd01741-bc71-4906-b337-607250f831ed"},"vehicle_type_id":"4","last_reported":1740658708,"current_range_meters":6800,"station_id":"ce4bhe12rcd13ifvqf30","pricing_plan_id":"cebpf4jnsgd1na2vs0mg"},{"bike_id":"cc5b8803-1413-4f2d-912e-42c063433ae4","system_id":"levelo_inurba_marseille","lat":43.32105,"lon":5.36781,"is_reserved":false,"is_disabled":false,"rental_uris":{"android":"levelo://app?vid=cc5b8803-1413-4f2d-912e-42c063433ae4","ios":"levelo://app?vid=cc5b8803-1413-4f2d-912e-42c063433ae4"},"vehicle_type_id":"4","last_reported":1740658708,"current_range_meters":6800,"station_id":"ce4bhrh2rcd13ifvqhug","pricing_plan_id":"cebpf4jnsgd1na2vs0mg"},{"bike_id":"810cef40-d7c0-418e-b5d2-270e19831319","system_id":"levelo_inurba_marseille","lat":43.29257,"lon":5.4015,"is_reserved":false,"is_disabled":false,"rental_uris":{"android":"levelo://app?vid=810cef40-d7c0-418e-b5d2-270e19831319","ios":"levelo://app?vid=810cef40-d7c0-418e-b5d2-270e19831319"},"vehicle_type_id":"4","last_reported":1740658708,"current_range_meters":4800,"station_id":"ce4bh312rcd13ifvqdk0","pricing_plan_id":"cebpf4jnsgd1na2vs0mg"},{"bike_id":"0677888d-bbb4-4e43-955e-99e91181ed1e","system_id":"levelo_inurba_marseille","lat":43.24173,"lon":5.39734,"is_reserved":false,"is_disabled":false,"rental_uris":{"android":"levelo://app?vid=0677888d-bbb4-4e43-955e-99e91181ed1e","ios":"levelo://app?vid=0677888d-bbb4-4e43-955e-99e91181ed1e"},"vehicle_type_id":"4","last_reported":1740658708,"current_range_meters":6800,"station_id":"ce4bhn12rcd13ifvqgpg","pricing_plan_id":"cebpf4jnsgd1na2vs0mg"},{"bike_id":"9fa81dbc-ac93-435a-a8af-b57bf15f8b88","system_id":"levelo_inurba_marseille","lat":43.23222,"lon":5.35557,"is_reserved":false,"is_disabled":false,"rental_uris":{"android":"levelo://app?vid=9fa81dbc-ac93-435a-a8af-b57bf15f8b88","ios":"levelo://app?vid=9fa81dbc-ac93-435a-a8af-b57bf15f8b88"},"vehicle_type_id":"4","last_reported":1740658708,"current_range_meters":7200,"station_id":"ce4bhu92rcd13ifvqi70","pricing_plan_id":"cebpf4jnsgd1na2vs0mg"},{"bike_id":"da3c4fb5-c137-4b78-a6d7-9e67786b17b0","system_id":"levelo_inurba_marseille","lat":43.31311,"lon":5.36719,"is_reserved":false,"is_disabled":false,"rental_uris":{"android":"levelo://app?vid=da3c4fb5-c137-4b78-a6d7-9e67786b17b0","ios":"levelo://app?vid=da3c4fb5-c137-4b78-a6d7-9e67786b17b0"},"vehicle_type_id":"4","last_reported":1740658708,"current_range_meters":7200,"station_id":"ce4bgr92rcd13ifvqc6g","pricing_plan_id":"cebpf4jnsgd1na2vs0mg"},{"bike_id":"33471df3-3118-4575-8b80-b0e731bd9f11","system_id":"levelo_inurba_marseille","lat":43.29004,"lon":5.35607,"is_reserved":false,"is_disabled":false,"rental_uris":{"android":"levelo://app?vid=33471df3-3118-4575-8b80-b0e731bd9f11","ios":"levelo://app?vid=33471df3-3118-4575-8b80-b0e731bd9f11"},"vehicle_type_id":"4","last_reported":1740658708,"current_range_meters":6400,"station_id":"ce4bhb92rcd13ifvqen0","pricing_plan_id":"cebpf4jnsgd1na2vs0mg"},{"bike_id":"eaf865df-5620-4c52-8b05-94b3233cd1bf","system_id":"levelo_inurba_marseille","lat":43.30154,"lon":5.38077,"is_reserved":false,"is_disabled":false,"rental_uris":{"android":"levelo://app?vid=eaf865df-5620-4c52-8b05-94b3233cd1bf","ios":"levelo://app?vid=eaf865df-5620-4c52-8b05-94b3233cd1bf"},"vehicle_type_id":"4","last_reported":1740658708,"current_range_meters":7200,"station_id":"ce4bgjp2rcd13ifvqbh0","pricing_plan_id":"cebpf4jnsgd1na2vs0mg"},{"bike_id":"86786dac-aa53-405b-8af4-3e7fb55f4310","system_id":"levelo_inurba_marseille","lat":43.30946,"lon":5.39039,"is_reserved":false,"is_disabled":false,"rental_uris":{"android":"levelo://app?vid=86786dac-aa53-405b-8af4-3e7fb55f4310","ios":"levelo://app?vid=86786dac-aa53-405b-8af4-3e7fb55f4310"},"vehicle_type_id":"4","last_reported":1740658708,"current_range_meters":7200,"station_id":"ce4bgup2rcd13ifvqco0","pricing_plan_id":"cebpf4jnsgd1na2vs0mg"},{"bike_id":"f64b50fd-c0d3-4766-aa8c-920c7166ef73","system_id":"levelo_inurba_marseille","lat":43.31377,"lon":5.36675,"is_reserved":false,"is_disabled":false,"rental_uris":{"android":"levelo://app?vid=f64b50fd-c0d3-4766-aa8c-920c7166ef73","ios":"levelo://app?vid=f64b50fd-c0d3-4766-aa8c-920c7166ef73"},"vehicle_type_id":"4","last_reported":1740658708,"current_range_meters":8000,"station_id":"","pricing_plan_id":"cebpf4jnsgd1na2vs0mg"},{"bike_id":"122ce7e4-f8d3-48b2-b711-a731973a577d","system_id":"levelo_inurba_marseille","lat":43.29851,"lon":5.36276,"is_reserved":false,"is_disabled":false,"rental_uris":{"android":"levelo://app?vid=122ce7e4-f8d3-48b2-b711-a731973a577d","ios":"levelo://app?vid=122ce7e4-f8d3-48b2-b711-a731973a577d"},"vehicle_type_id":"4","last_reported":1740658708,"current_range_meters":8000,"station_id":"ce4bgpp2rcd13ifvqc3g","pricing_plan_id":"cebpf4jnsgd1na2vs0mg"},{"bike_id":"21d584a6-5802-4ea5-b86b-c28ed81dc2d7","system_id":"levelo_inurba_marseille","lat":43.29091,"lon":5.38149,"is_reserved":false,"is_disabled":false,"rental_uris":{"android":"levelo://app?vid=21d584a6-5802-4ea5-b86b-c28ed81dc2d7","ios":"levelo://app?vid=21d584a6-5802-4ea5-b86b-c28ed81dc2d7"},"vehicle_type_id":"4","last_reported":1740658708,"current_range_meters":8400,"station_id":"ce4bh512rcd13ifvqe2g","pricing_plan_id":"cebpf4jnsgd1na2vs0mg"},{"bike_id":"3b5a8764-56c8-4a2d-9d9e-a9aeeab2dd3c","system_id":"levelo_inurba_marseille","lat":43.32356,"lon":5.36564,"is_reserved":false,"is_disabled":true,"rental_uris":{"android":"levelo://app?vid=3b5a8764-56c8-4a2d-9d9e-a9aeeab2dd3c","ios":"levelo://app?vid=3b5a8764-56c8-4a2d-9d9e-a9aeeab2dd3c"},"vehicle_type_id":"4","last_reported":1740658708,"current_range_meters":8000,"station_id":"","pricing_plan_id":"cebpf4jnsgd1na2vs0mg"},{"bike_id":"bde3ecc2-fd13-4519-8cd8-959b951ba9a3","system_id":"levelo_inurba_marseille","lat":43.26025,"lon":5.37552,"is_reserved":false,"is_disabled":false,"rental_uris":{"android":"levelo://app?vid=bde3ecc2-fd13-4519-8cd8-959b951ba9a3","ios":"levelo://app?vid=bde3ecc2-fd13-4519-8cd8-959b951ba9a3"},"vehicle_type_id":"4","last_reported":1740658708,"current_range_meters":8400,"station_id":"ce4bhgh2rcd13ifvqfa0","pricing_plan_id":"cebpf4jnsgd1na2vs0mg"},{"bike_id":"962a768f-551a-4715-bdf7-2d5405e4118c","system_id":"levelo_inurba_marseille","lat":43.24162,"lon":5.3972,"is_reserved":false,"is_disabled":false,"rental_uris":{"android":"levelo://app?vid=962a768f-551a-4715-bdf7-2d5405e4118c","ios":"levelo://app?vid=962a768f-551a-4715-bdf7-2d5405e4118c"},"vehicle_type_id":"4","last_reported":1740658708,"current_range_meters":8400,"station_id":"ce4bhn12rcd13ifvqgpg","pricing_plan_id":"cebpf4jnsgd1na2vs0mg"},{"bike_id":"d177be18-9016-4bd7-a380-f2324329de21","system_id":"levelo_inurba_marseille","lat":43.3149,"lon":5.37307,"is_reserved":false,"is_disabled":false,"rental_uris":{"android":"levelo://app?vid=d177be18-9016-4bd7-a380-f2324329de21","ios":"levelo://app?vid=d177be18-9016-4bd7-a380-f2324329de21"},"vehicle_type_id":"4","last_reported":1740658708,"current_range_meters":8400,"station_id":"ce4bgt12rcd13ifvqcd0","pricing_plan_id":"cebpf4jnsgd1na2vs0mg"},{"bike_id":"4d472430-f798-4d66-a15e-a2aa6ed57ca5","system_id":"levelo_inurba_marseille","lat":43.30954,"lon":5.39062,"is_reserved":false,"is_disabled":false,"rental_uris":{"android":"levelo://app?vid=4d472430-f798-4d66-a15e-a2aa6ed57ca5","ios":"levelo://app?vid=4d472430-f798-4d66-a15e-a2aa6ed57ca5"},"vehicle_type_id":"4","last_reported":1740658708,"current_range_meters":8400,"station_id":"ce4bgup2rcd13ifvqco0","pricing_plan_id":"cebpf4jnsgd1na2vs0mg"},{"bike_id":"338c1835-14ef-43f4-904c-c66f2e0ef0f3","system_id":"levelo_inurba_marseille","lat":43.305364,"lon":5.365366,"is_reserved":false,"is_disabled":false,"rental_uris":{"android":"levelo://app?vid=338c1835-14ef-43f4-904c-c66f2e0ef0f3","ios":"levelo://app?vid=338c1835-14ef-43f4-904c-c66f2e0ef0f3"},"vehicle_type_id":"4","last_reported":1740658708,"current_range_meters":8400,"station_id":"ce4bgs12rcd13ifvqcag","pricing_plan_id":"cebpf4jnsgd1na2vs0mg"},{"bike_id":"ff34c52f-56f1-4588-9323-32f37bcf554e","system_id":"levelo_inurba_marseille","lat":43.32348,"lon":5.38885,"is_reserved":false,"is_disabled":false,"rental_uris":{"android":"levelo://app?vid=ff34c52f-56f1-4588-9323-32f37bcf554e","ios":"levelo://app?vid=ff34c52f-56f1-4588-9323-32f37bcf554e"},"vehicle_type_id":"4","last_reported":1740658708,"current_range_meters":8400,"station_id":"ce4bhqp2rcd13ifvqhog","pricing_plan_id":"cebpf4jnsgd1na2vs0mg"},{"bike_id":"fbd1ec82-57fb-4f08-bba8-e7623104524f","system_id":"levelo_inurba_marseille","lat":43.23175,"lon":5.39981,"is_reserved":false,"is_disabled":false,"rental_uris":{"android":"levelo://app?vid=fbd1ec82-57fb-4f08-bba8-e7623104524f","ios":"levelo://app?vid=fbd1ec82-57fb-4f08-bba8-e7623104524f"},"vehicle_type_id":"4","last_reported":1740658708,"current_range_meters":8400,"station_id":"ce4bhn12rcd13ifvqgqg","pricing_plan_id":"cebpf4jnsgd1na2vs0mg"},{"bike_id":"5e68656b-4654-4790-ad7f-01437bdae155","system_id":"levelo_inurba_marseille","lat":43.30546,"lon":5.36527,"is_reserved":false,"is_disabled":false,"rental_uris":{"android":"levelo://app?vid=5e68656b-4654-4790-ad7f-01437bdae155","ios":"levelo://app?vid=5e68656b-4654-4790-ad7f-01437bdae155"},"vehicle_type_id":"4","last_reported":1740658708,"current_range_meters":8400,"station_id":"ce4bgs12rcd13ifvqcag","pricing_plan_id":"cebpf4jnsgd1na2vs0mg"},{"bike_id":"1a4f671a-f954-404e-8875-3b9e94408277","system_id":"levelo_inurba_marseille","lat":43.26027,"lon":5.37564,"is_reserved":false,"is_disabled":false,"rental_uris":{"android":"levelo://app?vid=1a4f671a-f954-404e-8875-3b9e94408277","ios":"levelo://app?vid=1a4f671a-f954-404e-8875-3b9e94408277"},"vehicle_type_id":"4","last_reported":1740658708,"current_range_meters":8400,"station_id":"ce4bhgh2rcd13ifvqfa0","pricing_plan_id":"cebpf4jnsgd1na2vs0mg"},{"bike_id":"9fc706c2-079e-41bb-846c-4846c643b247","system_id":"levelo_inurba_marseille","lat":43.24172,"lon":5.39714,"is_reserved":false,"is_disabled":false,"rental_uris":{"android":"levelo://app?vid=9fc706c2-079e-41bb-846c-4846c643b247","ios":"levelo://app?vid=9fc706c2-079e-41bb-846c-4846c643b247"},"vehicle_type_id":"4","last_reported":1740658708,"current_range_meters":8400,"station_id":"ce4bhn12rcd13ifvqgpg","pricing_plan_id":"cebpf4jnsgd1na2vs0mg"},{"bike_id":"9721a8d2-5ed5-4c5c-8f41-41104e93930e","system_id":"levelo_inurba_marseille","lat":43.2798,"lon":5.38693,"is_reserved":false,"is_disabled":false,"rental_uris":{"android":"levelo://app?vid=9721a8d2-5ed5-4c5c-8f41-41104e93930e","ios":"levelo://app?vid=9721a8d2-5ed5-4c5c-8f41-41104e93930e"},"vehicle_type_id":"4","last_reported":1740658708,"current_range_meters":8400,"station_id":"ce4bhg12rcd13ifvqf80","pricing_plan_id":"cebpf4jnsgd1na2vs0mg"},{"bike_id":"8a5de74e-fc60-499a-a083-bf6823a8726b","system_id":"levelo_inurba_marseille","lat":43.30462,"lon":5.37912,"is_reserved":false,"is_disabled":false,"rental_uris":{"android":"levelo://app?vid=8a5de74e-fc60-499a-a083-bf6823a8726b","ios":"levelo://app?vid=8a5de74e-fc60-499a-a083-bf6823a8726b"},"vehicle_type_id":"4","last_reported":1740658708,"current_range_meters":8800,"station_id":"ce4bgup2rcd13ifvqcn0","pricing_plan_id":"cebpf4jnsgd1na2vs0mg"},{"bike_id":"832c7aa0-66bb-4e99-9f1f-f5f45bdd6361","system_id":"levelo_inurba_marseille","lat":43.32371,"lon":5.38882,"is_reserved":false,"is_disabled":false,"rental_uris":{"android":"levelo://app?vid=832c7aa0-66bb-4e99-9f1f-f5f45bdd6361","ios":"levelo://app?vid=832c7aa0-66bb-4e99-9f1f-f5f45bdd6361"},"vehicle_type_id":"4","last_reported":1740658708,"current_range_meters":9200,"station_id":"ce4bhqp2rcd13ifvqhog","pricing_plan_id":"cebpf4jnsgd1na2vs0mg"},{"bike_id":"69b55210-e03b-4723-843f-15d9acb153a4","system_id":"levelo_inurba_marseille","lat":43.25585,"lon":5.3823,"is_reserved":false,"is_disabled":false,"rental_uris":{"android":"levelo://app?vid=69b55210-e03b-4723-843f-15d9acb153a4","ios":"levelo://app?vid=69b55210-e03b-4723-843f-15d9acb153a4"},"vehicle_type_id":"4","last_reported":1740658708,"current_range_meters":8800,"station_id":"ce4bhih2rcd13ifvqfs0","pricing_plan_id":"cebpf4jnsgd1na2vs0mg"},{"bike_id":"cdf11255-1635-40ba-9416-56863132543c","system_id":"levelo_inurba_marseille","lat":43.28607,"lon":5.37054,"is_reserved":false,"is_disabled":false,"rental_uris":{"android":"levelo://app?vid=cdf11255-1635-40ba-9416-56863132543c","ios":"levelo://app?vid=cdf11255-1635-40ba-9416-56863132543c"},"vehicle_type_id":"4","last_reported":1740658708,"current_range_meters":8800,"station_id":"ce4bht12rcd13ifvqi60","pricing_plan_id":"cebpf4jnsgd1na2vs0mg"},{"bike_id":"9d4914d7-a305-4511-af46-c7685f31c1a1","system_id":"levelo_inurba_marseille","lat":43.23183,"lon":5.39985,"is_reserved":false,"is_disabled":false,"rental_uris":{"android":"levelo://app?vid=9d4914d7-a305-4511-af46-c7685f31c1a1","ios":"levelo://app?vid=9d4914d7-a305-4511-af46-c7685f31c1a1"},"vehicle_type_id":"4","last_reported":1740658708,"current_range_meters":10800,"station_id":"ce4bhn12rcd13ifvqgqg","pricing_plan_id":"cebpf4jnsgd1na2vs0mg"},{"bike_id":"005a1a51-a417-4a1d-b545-e00a6776dd3c","system_id":"levelo_inurba_marseille","lat":43.31371,"lon":5.38489,"is_reserved":false,"is_disabled":false,"rental_uris":{"android":"levelo://app?vid=005a1a51-a417-4a1d-b545-e00a6776dd3c","ios":"levelo://app?vid=005a1a51-a417-4a1d-b545-e00a6776dd3c"},"vehicle_type_id":"4","last_reported":1740658708,"current_range_meters":8800,"station_id":"ce4bgt92rcd13ifvqcf0","pricing_plan_id":"cebpf4jnsgd1na2vs0mg"},{"bike_id":"ecd6d771-1441-47f8-ba6a-81231abbe24a","system_id":"levelo_inurba_marseille","lat":43.26557,"lon":5.3728,"is_reserved":false,"is_disabled":false,"rental_uris":{"android":"levelo://app?vid=ecd6d771-1441-47f8-ba6a-81231abbe24a","ios":"levelo://app?vid=ecd6d771-1441-47f8-ba6a-81231abbe24a"},"vehicle_type_id":"4","last_reported":1740658708,"current_range_meters":9200,"station_id":"ce4bhg12rcd13ifvqf70","pricing_plan_id":"cebpf4jnsgd1na2vs0mg"},{"bike_id":"b9a207d6-452c-4a88-af25-6e46bcc64b3c","system_id":"levelo_inurba_marseille","lat":43.30575,"lon":5.36704,"is_reserved":false,"is_disabled":false,"rental_uris":{"android":"levelo://app?vid=b9a207d6-452c-4a88-af25-6e46bcc64b3c","ios":"levelo://app?vid=b9a207d6-452c-4a88-af25-6e46bcc64b3c"},"vehicle_type_id":"4","last_reported":1740658708,"current_range_meters":9200,"station_id":"ce4bgrp2rcd13ifvqc9g","pricing_plan_id":"cebpf4jnsgd1na2vs0mg"},{"bike_id":"5d9c4fe5-1359-4632-bd2d-90362153324f","system_id":"levelo_inurba_marseille","lat":43.26681,"lon":5.38247,"is_reserved":false,"is_disabled":false,"rental_uris":{"android":"levelo://app?vid=5d9c4fe5-1359-4632-bd2d-90362153324f","ios":"levelo://app?vid=5d9c4fe5-1359-4632-bd2d-90362153324f"},"vehicle_type_id":"4","last_reported":1740658708,"current_range_meters":8800,"station_id":"ce4bhg92rcd13ifvqf90","pricing_plan_id":"cebpf4jnsgd1na2vs0mg"},{"bike_id":"35593f52-cea1-47f3-bc31-1b5a2af0d4d0","system_id":"levelo_inurba_marseille","lat":43.30951,"lon":5.39055,"is_reserved":false,"is_disabled":false,"rental_uris":{"android":"levelo://app?vid=35593f52-cea1-47f3-bc31-1b5a2af0d4d0","ios":"levelo://app?vid=35593f52-cea1-47f3-bc31-1b5a2af0d4d0"},"vehicle_type_id":"4","last_reported":1740658708,"current_range_meters":9200,"station_id":"ce4bgup2rcd13ifvqco0","pricing_plan_id":"cebpf4jnsgd1na2vs0mg"},{"bike_id":"889b3beb-debb-4140-9365-2b4f436a68cd","system_id":"levelo_inurba_marseille","lat":43.28498,"lon":5.38567,"is_reserved":false,"is_disabled":false,"rental_uris":{"android":"levelo://app?vid=889b3beb-debb-4140-9365-2b4f436a68cd","ios":"levelo://app?vid=889b3beb-debb-4140-9365-2b4f436a68cd"},"vehicle_type_id":"4","last_reported":1740658708,"current_range_meters":9200,"station_id":"ce4bh8p2rcd13ifvqeb0","pricing_plan_id":"cebpf4jnsgd1na2vs0mg"},{"bike_id":"6cd2cf02-8380-49e9-9b70-6b86136e67bf","system_id":"levelo_inurba_marseille","lat":43.22926,"lon":5.35377,"is_reserved":false,"is_disabled":false,"rental_uris":{"android":"levelo://app?vid=6cd2cf02-8380-49e9-9b70-6b86136e67bf","ios":"levelo://app?vid=6cd2cf02-8380-49e9-9b70-6b86136e67bf"},"vehicle_type_id":"4","last_reported":1740658708,"current_range_meters":9200,"station_id":"cpo3532slgdg3j2ikp40","pricing_plan_id":"cebpf4jnsgd1na2vs0mg"},{"bike_id":"f766e3d4-eb35-4777-b7ef-5fba818cdd52","system_id":"levelo_inurba_marseille","lat":43.29852,"lon":5.36283,"is_reserved":false,"is_disabled":false,"rental_uris":{"android":"levelo://app?vid=f766e3d4-eb35-4777-b7ef-5fba818cdd52","ios":"levelo://app?vid=f766e3d4-eb35-4777-b7ef-5fba818cdd52"},"vehicle_type_id":"4","last_reported":1740658708,"current_range_meters":8800,"station_id":"ce4bgpp2rcd13ifvqc3g","pricing_plan_id":"cebpf4jnsgd1na2vs0mg"},{"bike_id":"8719f79f-7d08-43cb-b98a-ce72b706cc1c","system_id":"levelo_inurba_marseille","lat":43.31754,"lon":5.39014,"is_reserved":false,"is_disabled":false,"rental_uris":{"android":"levelo://app?vid=8719f79f-7d08-43cb-b98a-ce72b706cc1c","ios":"levelo://app?vid=8719f79f-7d08-43cb-b98a-ce72b706cc1c"},"vehicle_type_id":"4","last_reported":1740658708,"current_range_meters":8800,"station_id":"ce4bhqp2rcd13ifvqhng","pricing_plan_id":"cebpf4jnsgd1na2vs0mg"},{"bike_id":"d27e6a8d-6a2d-4b95-8465-6a484e96eef8","system_id":"levelo_inurba_marseille","lat":43.29615,"lon":5.37722,"is_reserved":false,"is_disabled":false,"rental_uris":{"android":"levelo://app?vid=d27e6a8d-6a2d-4b95-8465-6a484e96eef8","ios":"levelo://app?vid=d27e6a8d-6a2d-4b95-8465-6a484e96eef8"},"vehicle_type_id":"4","last_reported":1740658708,"current_range_meters":8800,"station_id":"ce4bgi92rcd13ifvqb90","pricing_plan_id":"cebpf4jnsgd1na2vs0mg"},{"bike_id":"40f8cdc7-e99f-4bc0-b133-53c02dabc7a9","system_id":"levelo_inurba_marseille","lat":43.26586,"lon":5.39018,"is_reserved":false,"is_disabled":false,"rental_uris":{"android":"levelo://app?vid=40f8cdc7-e99f-4bc0-b133-53c02dabc7a9","ios":"levelo://app?vid=40f8cdc7-e99f-4bc0-b133-53c02dabc7a9"},"vehicle_type_id":"4","last_reported":1740658708,"current_range_meters":9200,"station_id":"ce4bhe12rcd13ifvqf30","pricing_plan_id":"cebpf4jnsgd1na2vs0mg"},{"bike_id":"ae031112-f7e9-4400-ac18-47bd303b8fde","system_id":"levelo_inurba_marseille","lat":43.29028,"lon":5.3593,"is_reserved":false,"is_disabled":false,"rental_uris":{"android":"levelo://app?vid=ae031112-f7e9-4400-ac18-47bd303b8fde","ios":"levelo://app?vid=ae031112-f7e9-4400-ac18-47bd303b8fde"},"vehicle_type_id":"4","last_reported":1740658708,"current_range_meters":9600,"station_id":"ce4bha92rcd13ifvqeg0","pricing_plan_id":"cebpf4jnsgd1na2vs0mg"},{"bike_id":"4254bdbf-255e-4469-9303-9390a8bf7d03","system_id":"levelo_inurba_marseille","lat":43.31713,"lon":5.43706,"is_reserved":false,"is_disabled":false,"rental_uris":{"android":"levelo://app?vid=4254bdbf-255e-4469-9303-9390a8bf7d03","ios":"levelo://app?vid=4254bdbf-255e-4469-9303-9390a8bf7d03"},"vehicle_type_id":"4","last_reported":1740658708,"current_range_meters":9600,"station_id":"ce4bhp92rcd13ifvqhcg","pricing_plan_id":"cebpf4jnsgd1na2vs0mg"},{"bike_id":"20f5f53e-2c5a-4519-9e9a-0cc2843abbc4","system_id":"levelo_inurba_marseille","lat":43.30291,"lon":5.39216,"is_reserved":false,"is_disabled":false,"rental_uris":{"android":"levelo://app?vid=20f5f53e-2c5a-4519-9e9a-0cc2843abbc4","ios":"levelo://app?vid=20f5f53e-2c5a-4519-9e9a-0cc2843abbc4"},"vehicle_type_id":"4","last_reported":1740658708,"current_range_meters":9600,"station_id":"ce4bgkh2rcd13ifvqbk0","pricing_plan_id":"cebpf4jnsgd1na2vs0mg"},{"bike_id":"42ee642a-cbaf-4a27-8ccd-00636c00cffc","system_id":"levelo_inurba_marseille","lat":43.27824,"lon":5.40715,"is_reserved":false,"is_disabled":true,"rental_uris":{"android":"levelo://app?vid=42ee642a-cbaf-4a27-8ccd-00636c00cffc","ios":"levelo://app?vid=42ee642a-cbaf-4a27-8ccd-00636c00cffc"},"vehicle_type_id":"4","last_reported":1740658708,"current_range_meters":9600,"station_id":"ce4bhnh2rcd13ifvqgtg","pricing_plan_id":"cebpf4jnsgd1na2vs0mg"},{"bike_id":"afd98e29-9e65-49b1-96e9-da6c0e62de76","system_id":"levelo_inurba_marseille","lat":43.29263,"lon":5.38199,"is_reserved":false,"is_disabled":false,"rental_uris":{"android":"levelo://app?vid=afd98e29-9e65-49b1-96e9-da6c0e62de76","ios":"levelo://app?vid=afd98e29-9e65-49b1-96e9-da6c0e62de76"},"vehicle_type_id":"4","last_reported":1740658708,"current_range_meters":10000,"station_id":"","pricing_plan_id":"cebpf4jnsgd1na2vs0mg"},{"bike_id":"82d64e81-8d40-4c80-b5b5-a958f80dbced","system_id":"levelo_inurba_marseille","lat":43.28429,"lon":5.34992,"is_reserved":false,"is_disabled":false,"rental_uris":{"android":"levelo://app?vid=82d64e81-8d40-4c80-b5b5-a958f80dbced","ios":"levelo://app?vid=82d64e81-8d40-4c80-b5b5-a958f80dbced"},"vehicle_type_id":"4","last_reported":1740658708,"current_range_meters":8800,"station_id":"ce4bhbh2rcd13ifvqepg","pricing_plan_id":"cebpf4jnsgd1na2vs0mg"},{"bike_id":"077fa2e1-faca-423f-9c2f-0937d90472ec","system_id":"levelo_inurba_marseille","lat":43.29881,"lon":5.38911,"is_reserved":false,"is_disabled":false,"rental_uris":{"android":"levelo://app?vid=077fa2e1-faca-423f-9c2f-0937d90472ec","ios":"levelo://app?vid=077fa2e1-faca-423f-9c2f-0937d90472ec"},"vehicle_type_id":"4","last_reported":1740658708,"current_range_meters":9600,"station_id":"ce4bh392rcd13ifvqdl0","pricing_plan_id":"cebpf4jnsgd1na2vs0mg"},{"bike_id":"522bf755-23ed-4894-8d44-591899ea74d7","system_id":"levelo_inurba_marseille","lat":43.25938,"lon":5.40894,"is_reserved":false,"is_disabled":false,"rental_uris":{"android":"levelo://app?vid=522bf755-23ed-4894-8d44-591899ea74d7","ios":"levelo://app?vid=522bf755-23ed-4894-8d44-591899ea74d7"},"vehicle_type_id":"4","last_reported":1740658708,"current_range_meters":10000,"station_id":"ce4bhm92rcd13ifvqglg","pricing_plan_id":"cebpf4jnsgd1na2vs0mg"},{"bike_id":"a8ccb9d1-8384-4a0e-b047-d7782d3c2597","system_id":"levelo_inurba_marseille","lat":43.23149,"lon":5.43718,"is_reserved":false,"is_disabled":false,"rental_uris":{"android":"levelo://app?vid=a8ccb9d1-8384-4a0e-b047-d7782d3c2597","ios":"levelo://app?vid=a8ccb9d1-8384-4a0e-b047-d7782d3c2597"},"vehicle_type_id":"4","last_reported":1740658708,"current_range_meters":10000,"station_id":"ce4bhmp2rcd13ifvqgog","pricing_plan_id":"cebpf4jnsgd1na2vs0mg"},{"bike_id":"620faf8f-9860-4e84-b6cd-4559a0b9a89c","system_id":"levelo_inurba_marseille","lat":43.32491,"lon":5.36542,"is_reserved":false,"is_disabled":false,"rental_uris":{"android":"levelo://app?vid=620faf8f-9860-4e84-b6cd-4559a0b9a89c","ios":"levelo://app?vid=620faf8f-9860-4e84-b6cd-4559a0b9a89c"},"vehicle_type_id":"4","last_reported":1740658708,"current_range_meters":10000,"station_id":"ce4bhs12rcd13ifvqhvg","pricing_plan_id":"cebpf4jnsgd1na2vs0mg"},{"bike_id":"19e4983d-b74d-4524-9c14-80fb6905f947","system_id":"levelo_inurba_marseille","lat":43.32103,"lon":5.367821,"is_reserved":false,"is_disabled":false,"rental_uris":{"android":"levelo://app?vid=19e4983d-b74d-4524-9c14-80fb6905f947","ios":"levelo://app?vid=19e4983d-b74d-4524-9c14-80fb6905f947"},"vehicle_type_id":"4","last_reported":1740658708,"current_range_meters":10000,"station_id":"ce4bhrh2rcd13ifvqhug","pricing_plan_id":"cebpf4jnsgd1na2vs0mg"},{"bike_id":"91f909e9-358e-43ed-a45f-822af931a978","system_id":"levelo_inurba_marseille","lat":43.23211,"lon":5.40365,"is_reserved":false,"is_disabled":false,"rental_uris":{"android":"levelo://app?vid=91f909e9-358e-43ed-a45f-822af931a978","ios":"levelo://app?vid=91f909e9-358e-43ed-a45f-822af931a978"},"vehicle_type_id":"4","last_reported":1740658708,"current_range_meters":10800,"station_id":"","pricing_plan_id":"cebpf4jnsgd1na2vs0mg"},{"bike_id":"052db997-fc63-41c3-90a5-3a763e3006b5","system_id":"levelo_inurba_marseille","lat":43.29041,"lon":5.35959,"is_reserved":false,"is_disabled":false,"rental_uris":{"android":"levelo://app?vid=052db997-fc63-41c3-90a5-3a763e3006b5","ios":"levelo://app?vid=052db997-fc63-41c3-90a5-3a763e3006b5"},"vehicle_type_id":"4","last_reported":1740658708,"current_range_meters":10800,"station_id":"ce4bha92rcd13ifvqeg0","pricing_plan_id":"cebpf4jnsgd1na2vs0mg"},{"bike_id":"87d92987-b68b-4ae7-9097-cf6bac27adfc","system_id":"levelo_inurba_marseille","lat":43.29245,"lon":5.37607,"is_reserved":false,"is_disabled":false,"rental_uris":{"android":"levelo://app?vid=87d92987-b68b-4ae7-9097-cf6bac27adfc","ios":"levelo://app?vid=87d92987-b68b-4ae7-9097-cf6bac27adfc"},"vehicle_type_id":"4","last_reported":1740658708,"current_range_meters":10800,"station_id":"ce4bgi12rcd13ifvqb80","pricing_plan_id":"cebpf4jnsgd1na2vs0mg"},{"bike_id":"5249bc2c-af1a-4b55-92f5-5ca5eef8feb6","system_id":"levelo_inurba_marseille","lat":43.29249,"lon":5.37616,"is_reserved":false,"is_disabled":false,"rental_uris":{"android":"levelo://app?vid=5249bc2c-af1a-4b55-92f5-5ca5eef8feb6","ios":"levelo://app?vid=5249bc2c-af1a-4b55-92f5-5ca5eef8feb6"},"vehicle_type_id":"4","last_reported":1740658708,"current_range_meters":10800,"station_id":"ce4bgi12rcd13ifvqb80","pricing_plan_id":"cebpf4jnsgd1na2vs0mg"},{"bike_id":"c2c07c19-dbd0-4199-be99-931320c34757","system_id":"levelo_inurba_marseille","lat":43.29836,"lon":5.36266,"is_reserved":false,"is_disabled":false,"rental_uris":{"android":"levelo://app?vid=c2c07c19-dbd0-4199-be99-931320c34757","ios":"levelo://app?vid=c2c07c19-dbd0-4199-be99-931320c34757"},"vehicle_type_id":"4","last_reported":1740658708,"current_range_meters":10800,"station_id":"ce4bgpp2rcd13ifvqc3g","pricing_plan_id":"cebpf4jnsgd1na2vs0mg"},{"bike_id":"9e0b6adb-0dc2-4134-8d15-af46f333fbc6","system_id":"levelo_inurba_marseille","lat":43.27208,"lon":5.392,"is_reserved":false,"is_disabled":false,"rental_uris":{"android":"levelo://app?vid=9e0b6adb-0dc2-4134-8d15-af46f333fbc6","ios":"levelo://app?vid=9e0b6adb-0dc2-4134-8d15-af46f333fbc6"},"vehicle_type_id":"4","last_reported":1740658708,"current_range_meters":10800,"station_id":"ce4bhh92rcd13ifvqfj0","pricing_plan_id":"cebpf4jnsgd1na2vs0mg"},{"bike_id":"5a6e6d5a-8680-4e2f-8f5f-4afc94d43b61","system_id":"levelo_inurba_marseille","lat":43.25117,"lon":5.40315,"is_reserved":false,"is_disabled":false,"rental_uris":{"android":"levelo://app?vid=5a6e6d5a-8680-4e2f-8f5f-4afc94d43b61","ios":"levelo://app?vid=5a6e6d5a-8680-4e2f-8f5f-4afc94d43b61"},"vehicle_type_id":"4","last_reported":1740658708,"current_range_meters":11200,"station_id":"ce4bhlh2rcd13ifvqgig","pricing_plan_id":"cebpf4jnsgd1na2vs0mg"},{"bike_id":"eb1bf154-33a9-4c08-bd54-830421e064ac","system_id":"levelo_inurba_marseille","lat":43.29908,"lon":5.38134,"is_reserved":false,"is_disabled":false,"rental_uris":{"android":"levelo://app?vid=eb1bf154-33a9-4c08-bd54-830421e064ac","ios":"levelo://app?vid=eb1bf154-33a9-4c08-bd54-830421e064ac"},"vehicle_type_id":"4","last_reported":1740658708,"current_range_meters":11200,"station_id":"ce4bgj12rcd13ifvqbc0","pricing_plan_id":"cebpf4jnsgd1na2vs0mg"},{"bike_id":"22b6a62f-81be-44a5-95cb-2ea40880170e","system_id":"levelo_inurba_marseille","lat":43.28466,"lon":5.38416,"is_reserved":false,"is_disabled":false,"rental_uris":{"android":"levelo://app?vid=22b6a62f-81be-44a5-95cb-2ea40880170e","ios":"levelo://app?vid=22b6a62f-81be-44a5-95cb-2ea40880170e"},"vehicle_type_id":"4","last_reported":1740658708,"current_range_meters":12000,"station_id":"ce4bh512rcd13ifvqe3g","pricing_plan_id":"cebpf4jnsgd1na2vs0mg"},{"bike_id":"920cd895-d6ab-4d06-9867-6fe2f30e6270","system_id":"levelo_inurba_marseille","lat":43.29266,"lon":5.36849,"is_reserved":false,"is_disabled":false,"rental_uris":{"android":"levelo://app?vid=920cd895-d6ab-4d06-9867-6fe2f30e6270","ios":"levelo://app?vid=920cd895-d6ab-4d06-9867-6fe2f30e6270"},"vehicle_type_id":"4","last_reported":1740658708,"current_range_meters":11200,"station_id":"ce4bhbp2rcd13ifvqesg","pricing_plan_id":"cebpf4jnsgd1na2vs0mg"},{"bike_id":"3c60fe0f-4d2a-4334-9de7-716ceabbb059","system_id":"levelo_inurba_marseille","lat":43.29574,"lon":5.3997,"is_reserved":false,"is_disabled":false,"rental_uris":{"android":"levelo://app?vid=3c60fe0f-4d2a-4334-9de7-716ceabbb059","ios":"levelo://app?vid=3c60fe0f-4d2a-4334-9de7-716ceabbb059"},"vehicle_type_id":"4","last_reported":1740658708,"current_range_meters":11600,"station_id":"ce4bh312rcd13ifvqdj0","pricing_plan_id":"cebpf4jnsgd1na2vs0mg"},{"bike_id":"6ae25477-b82d-4610-86e8-25db6a4b10fe","system_id":"levelo_inurba_marseille","lat":43.30475,"lon":5.37909,"is_reserved":false,"is_disabled":false,"rental_uris":{"android":"levelo://app?vid=6ae25477-b82d-4610-86e8-25db6a4b10fe","ios":"levelo://app?vid=6ae25477-b82d-4610-86e8-25db6a4b10fe"},"vehicle_type_id":"4","last_reported":1740658708,"current_range_meters":12800,"station_id":"ce4bgup2rcd13ifvqcn0","pricing_plan_id":"cebpf4jnsgd1na2vs0mg"},{"bike_id":"b384d4b5-a2de-4320-b52b-3b67d7de93cc","system_id":"levelo_inurba_marseille","lat":43.30473,"lon":5.37902,"is_reserved":false,"is_disabled":false,"rental_uris":{"android":"levelo://app?vid=b384d4b5-a2de-4320-b52b-3b67d7de93cc","ios":"levelo://app?vid=b384d4b5-a2de-4320-b52b-3b67d7de93cc"},"vehicle_type_id":"4","last_reported":1740658708,"current_range_meters":11600,"station_id":"ce4bgup2rcd13ifvqcn0","pricing_plan_id":"cebpf4jnsgd1na2vs0mg"},{"bike_id":"7ba56adb-fef1-4fb4-94ed-3de8114f6441","system_id":"levelo_inurba_marseille","lat":43.31364,"lon":5.36695,"is_reserved":false,"is_disabled":false,"rental_uris":{"android":"levelo://app?vid=7ba56adb-fef1-4fb4-94ed-3de8114f6441","ios":"levelo://app?vid=7ba56adb-fef1-4fb4-94ed-3de8114f6441"},"vehicle_type_id":"4","last_reported":1740658708,"current_range_meters":11600,"station_id":"ce4bgr92rcd13ifvqc6g","pricing_plan_id":"cebpf4jnsgd1na2vs0mg"},{"bike_id":"ceada319-f43c-489f-8514-905ab74c8e1c","system_id":"levelo_inurba_marseille","lat":43.299,"lon":5.37473,"is_reserved":false,"is_disabled":false,"rental_uris":{"android":"levelo://app?vid=ceada319-f43c-489f-8514-905ab74c8e1c","ios":"levelo://app?vid=ceada319-f43c-489f-8514-905ab74c8e1c"},"vehicle_type_id":"4","last_reported":1740658708,"current_range_meters":12000,"station_id":"ce4bgjh2rcd13ifvqbg0","pricing_plan_id":"cebpf4jnsgd1na2vs0mg"},{"bike_id":"9c05c137-ce73-4888-83ec-51c9674942d3","system_id":"levelo_inurba_marseille","lat":43.313491,"lon":5.367123,"is_reserved":false,"is_disabled":false,"rental_uris":{"android":"levelo://app?vid=9c05c137-ce73-4888-83ec-51c9674942d3","ios":"levelo://app?vid=9c05c137-ce73-4888-83ec-51c9674942d3"},"vehicle_type_id":"4","last_reported":1740658708,"current_range_meters":12400,"station_id":"ce4bgr92rcd13ifvqc6g","pricing_plan_id":"cebpf4jnsgd1na2vs0mg"},{"bike_id":"2837d85d-02af-49af-900a-3b751e6ef0d6","system_id":"levelo_inurba_marseille","lat":43.32061,"lon":5.36741,"is_reserved":false,"is_disabled":false,"rental_uris":{"android":"levelo://app?vid=2837d85d-02af-49af-900a-3b751e6ef0d6","ios":"levelo://app?vid=2837d85d-02af-49af-900a-3b751e6ef0d6"},"vehicle_type_id":"4","last_reported":1740658708,"current_range_meters":12400,"station_id":"ce4bhrh2rcd13ifvqhug","pricing_plan_id":"cebpf4jnsgd1na2vs0mg"},{"bike_id":"7ba18fc0-4ddf-42e9-90e9-0eeaf3fe6228","system_id":"levelo_inurba_marseille","lat":43.30955,"lon":5.3904,"is_reserved":false,"is_disabled":false,"rental_uris":{"android":"levelo://app?vid=7ba18fc0-4ddf-42e9-90e9-0eeaf3fe6228","ios":"levelo://app?vid=7ba18fc0-4ddf-42e9-90e9-0eeaf3fe6228"},"vehicle_type_id":"4","last_reported":1740658708,"current_range_meters":12400,"station_id":"ce4bgup2rcd13ifvqco0","pricing_plan_id":"cebpf4jnsgd1na2vs0mg"},{"bike_id":"53c97519-31f9-4538-b031-fd7d8c97dfd2","system_id":"levelo_inurba_marseille","lat":43.31365,"lon":5.38492,"is_reserved":false,"is_disabled":false,"rental_uris":{"android":"levelo://app?vid=53c97519-31f9-4538-b031-fd7d8c97dfd2","ios":"levelo://app?vid=53c97519-31f9-4538-b031-fd7d8c97dfd2"},"vehicle_type_id":"4","last_reported":1740658708,"current_range_meters":12800,"station_id":"ce4bgt92rcd13ifvqcf0","pricing_plan_id":"cebpf4jnsgd1na2vs0mg"},{"bike_id":"f7848387-0626-4043-afd1-ad9f4e57dad1","system_id":"levelo_inurba_marseille","lat":43.23147,"lon":5.4372,"is_reserved":false,"is_disabled":false,"rental_uris":{"android":"levelo://app?vid=f7848387-0626-4043-afd1-ad9f4e57dad1","ios":"levelo://app?vid=f7848387-0626-4043-afd1-ad9f4e57dad1"},"vehicle_type_id":"4","last_reported":1740658708,"current_range_meters":12400,"station_id":"ce4bhmp2rcd13ifvqgog","pricing_plan_id":"cebpf4jnsgd1na2vs0mg"},{"bike_id":"1153c27b-6c4d-4b94-a1c1-faf599366803","system_id":"levelo_inurba_marseille","lat":43.27319,"lon":5.39067,"is_reserved":false,"is_disabled":false,"rental_uris":{"android":"levelo://app?vid=1153c27b-6c4d-4b94-a1c1-faf599366803","ios":"levelo://app?vid=1153c27b-6c4d-4b94-a1c1-faf599366803"},"vehicle_type_id":"4","last_reported":1740658708,"current_range_meters":12400,"station_id":"ce4bhgp2rcd13ifvqfe0","pricing_plan_id":"cebpf4jnsgd1na2vs0mg"},{"bike_id":"b7b99938-0167-4d0f-9427-a3da2811c13a","system_id":"levelo_inurba_marseille","lat":43.290863,"lon":5.381204,"is_reserved":false,"is_disabled":false,"rental_uris":{"android":"levelo://app?vid=b7b99938-0167-4d0f-9427-a3da2811c13a","ios":"levelo://app?vid=b7b99938-0167-4d0f-9427-a3da2811c13a"},"vehicle_type_id":"4","last_reported":1740658708,"current_range_meters":12000,"station_id":"ce4bhg12rcd13ifvqf80","pricing_plan_id":"cebpf4jnsgd1na2vs0mg"},{"bike_id":"84f89e3c-12df-4756-96d2-2bed8ea6d583","system_id":"levelo_inurba_marseille","lat":43.30542,"lon":5.36537,"is_reserved":false,"is_disabled":false,"rental_uris":{"android":"levelo://app?vid=84f89e3c-12df-4756-96d2-2bed8ea6d583","ios":"levelo://app?vid=84f89e3c-12df-4756-96d2-2bed8ea6d583"},"vehicle_type_id":"4","last_reported":1740658708,"current_range_meters":12400,"station_id":"ce4bgs12rcd13ifvqcag","pricing_plan_id":"cebpf4jnsgd1na2vs0mg"},{"bike_id":"1b3cb628-e9ba-49f9-9bd2-f45361dc8aaf","system_id":"levelo_inurba_marseille","lat":43.2418,"lon":5.3973,"is_reserved":false,"is_disabled":false,"rental_uris":{"android":"levelo://app?vid=1b3cb628-e9ba-49f9-9bd2-f45361dc8aaf","ios":"levelo://app?vid=1b3cb628-e9ba-49f9-9bd2-f45361dc8aaf"},"vehicle_type_id":"4","last_reported":1740658708,"current_range_meters":12800,"station_id":"ce4bhn12rcd13ifvqgpg","pricing_plan_id":"cebpf4jnsgd1na2vs0mg"},{"bike_id":"d2ce65bf-34ec-4c2d-b5ed-a159f9a03192","system_id":"levelo_inurba_marseille","lat":43.32539,"lon":5.41438,"is_reserved":false,"is_disabled":false,"rental_uris":{"android":"levelo://app?vid=d2ce65bf-34ec-4c2d-b5ed-a159f9a03192","ios":"levelo://app?vid=d2ce65bf-34ec-4c2d-b5ed-a159f9a03192"},"vehicle_type_id":"4","last_reported":1740658708,"current_range_meters":17200,"station_id":"ce4bhq12rcd13ifvqhhg","pricing_plan_id":"cebpf4jnsgd1na2vs0mg"},{"bike_id":"8ffac97d-6c90-4b50-bd8e-01b8b24837c6","system_id":"levelo_inurba_marseille","lat":43.27552,"lon":5.3842,"is_reserved":false,"is_disabled":false,"rental_uris":{"android":"levelo://app?vid=8ffac97d-6c90-4b50-bd8e-01b8b24837c6","ios":"levelo://app?vid=8ffac97d-6c90-4b50-bd8e-01b8b24837c6"},"vehicle_type_id":"4","last_reported":1740658708,"current_range_meters":12800,"station_id":"ce4bhh92rcd13ifvqfi0","pricing_plan_id":"cebpf4jnsgd1na2vs0mg"},{"bike_id":"00a2128d-3c43-44f6-9f06-2bdcb6192e60","system_id":"levelo_inurba_marseille","lat":43.28466,"lon":5.35884,"is_reserved":false,"is_disabled":false,"rental_uris":{"android":"levelo://app?vid=00a2128d-3c43-44f6-9f06-2bdcb6192e60","ios":"levelo://app?vid=00a2128d-3c43-44f6-9f06-2bdcb6192e60"},"vehicle_type_id":"4","last_reported":1740658708,"current_range_meters":12800,"station_id":"ce4bhah2rcd13ifvqei0","pricing_plan_id":"cebpf4jnsgd1na2vs0mg"},{"bike_id":"994d680b-5075-4d9e-a7e0-a56305cb089a","system_id":"levelo_inurba_marseille","lat":43.3096,"lon":5.39042,"is_reserved":false,"is_disabled":true,"rental_uris":{"android":"levelo://app?vid=994d680b-5075-4d9e-a7e0-a56305cb089a","ios":"levelo://app?vid=994d680b-5075-4d9e-a7e0-a56305cb089a"},"vehicle_type_id":"4","last_reported":1740658708,"current_range_meters":12800,"station_id":"ce4bgup2rcd13ifvqco0","pricing_plan_id":"cebpf4jnsgd1na2vs0mg"},{"bike_id":"791e0ca4-cab0-4db3-b069-12a082c53c83","system_id":"levelo_inurba_marseille","lat":43.22931,"lon":5.35379,"is_reserved":false,"is_disabled":false,"rental_uris":{"android":"levelo://app?vid=791e0ca4-cab0-4db3-b069-12a082c53c83","ios":"levelo://app?vid=791e0ca4-cab0-4db3-b069-12a082c53c83"},"vehicle_type_id":"4","last_reported":1740658708,"current_range_meters":12800,"station_id":"cpo3532slgdg3j2ikp40","pricing_plan_id":"cebpf4jnsgd1na2vs0mg"},{"bike_id":"122b4606-1177-4843-b5b8-5cc158b75dfe","system_id":"levelo_inurba_marseille","lat":43.28488,"lon":5.38524,"is_reserved":false,"is_disabled":false,"rental_uris":{"android":"levelo://app?vid=122b4606-1177-4843-b5b8-5cc158b75dfe","ios":"levelo://app?vid=122b4606-1177-4843-b5b8-5cc158b75dfe"},"vehicle_type_id":"4","last_reported":1740658708,"current_range_meters":13600,"station_id":"ce4bh8p2rcd13ifvqeb0","pricing_plan_id":"cebpf4jnsgd1na2vs0mg"},{"bike_id":"6ab0c9d6-f98e-40d3-bb1b-45eb6727e9b9","system_id":"levelo_inurba_marseille","lat":43.28936,"lon":5.38397,"is_reserved":false,"is_disabled":false,"rental_uris":{"android":"levelo://app?vid=6ab0c9d6-f98e-40d3-bb1b-45eb6727e9b9","ios":"levelo://app?vid=6ab0c9d6-f98e-40d3-bb1b-45eb6727e9b9"},"vehicle_type_id":"4","last_reported":1740658708,"current_range_meters":12800,"station_id":"ce4bh612rcd13ifvqe6g","pricing_plan_id":"cebpf4jnsgd1na2vs0mg"},{"bike_id":"3648d549-1aa7-44d1-bde4-30bac4ece65c","system_id":"levelo_inurba_marseille","lat":43.25582,"lon":5.38227,"is_reserved":false,"is_disabled":false,"rental_uris":{"android":"levelo://app?vid=3648d549-1aa7-44d1-bde4-30bac4ece65c","ios":"levelo://app?vid=3648d549-1aa7-44d1-bde4-30bac4ece65c"},"vehicle_type_id":"4","last_reported":1740658708,"current_range_meters":13600,"station_id":"ce4bhih2rcd13ifvqfs0","pricing_plan_id":"cebpf4jnsgd1na2vs0mg"},{"bike_id":"cb54d2ed-4ac0-42bf-8f9d-b8800d5dc318","system_id":"levelo_inurba_marseille","lat":43.29033,"lon":5.37562,"is_reserved":false,"is_disabled":false,"rental_uris":{"android":"levelo://app?vid=cb54d2ed-4ac0-42bf-8f9d-b8800d5dc318","ios":"levelo://app?vid=cb54d2ed-4ac0-42bf-8f9d-b8800d5dc318"},"vehicle_type_id":"4","last_reported":1740658708,"current_range_meters":13600,"station_id":"ce4bh692rcd13ifvqe90","pricing_plan_id":"cebpf4jnsgd1na2vs0mg"},{"bike_id":"7f944cda-e952-416c-90c1-3f89f1ab61b0","system_id":"levelo_inurba_marseille","lat":43.3054,"lon":5.36531,"is_reserved":false,"is_disabled":false,"rental_uris":{"android":"levelo://app?vid=7f944cda-e952-416c-90c1-3f89f1ab61b0","ios":"levelo://app?vid=7f944cda-e952-416c-90c1-3f89f1ab61b0"},"vehicle_type_id":"4","last_reported":1740658708,"current_range_meters":13600,"station_id":"ce4bgs12rcd13ifvqcag","pricing_plan_id":"cebpf4jnsgd1na2vs0mg"},{"bike_id":"c9a46336-8808-467e-8593-79b169fe9875","system_id":"levelo_inurba_marseille","lat":43.2316,"lon":5.43706,"is_reserved":false,"is_disabled":false,"rental_uris":{"android":"levelo://app?vid=c9a46336-8808-467e-8593-79b169fe9875","ios":"levelo://app?vid=c9a46336-8808-467e-8593-79b169fe9875"},"vehicle_type_id":"4","last_reported":1740658708,"current_range_meters":14000,"station_id":"ce4bhmp2rcd13ifvqgog","pricing_plan_id":"cebpf4jnsgd1na2vs0mg"},{"bike_id":"0f2abc8e-0846-42bf-87d9-061743ab7b4a","system_id":"levelo_inurba_marseille","lat":43.240845,"lon":5.362688,"is_reserved":false,"is_disabled":false,"rental_uris":{"android":"levelo://app?vid=0f2abc8e-0846-42bf-87d9-061743ab7b4a","ios":"levelo://app?vid=0f2abc8e-0846-42bf-87d9-061743ab7b4a"},"vehicle_type_id":"4","last_reported":1740658708,"current_range_meters":13600,"station_id":"ce4bhu92rcd13ifvqi70","pricing_plan_id":"cebpf4jnsgd1na2vs0mg"},{"bike_id":"d155a60d-e183-4f8b-b4af-d008a652110f","system_id":"levelo_inurba_marseille","lat":43.28152,"lon":5.42627,"is_reserved":false,"is_disabled":false,"rental_uris":{"android":"levelo://app?vid=d155a60d-e183-4f8b-b4af-d008a652110f","ios":"levelo://app?vid=d155a60d-e183-4f8b-b4af-d008a652110f"},"vehicle_type_id":"4","last_reported":1740658708,"current_range_meters":13600,"station_id":"ce4bgpp2rcd13ifvqc3g","pricing_plan_id":"cebpf4jnsgd1na2vs0mg"},{"bike_id":"fd87c4fa-0727-41b9-b3a1-166d3090ef75","system_id":"levelo_inurba_marseille","lat":43.23151,"lon":5.43716,"is_reserved":false,"is_disabled":false,"rental_uris":{"android":"levelo://app?vid=fd87c4fa-0727-41b9-b3a1-166d3090ef75","ios":"levelo://app?vid=fd87c4fa-0727-41b9-b3a1-166d3090ef75"},"vehicle_type_id":"4","last_reported":1740658708,"current_range_meters":13600,"station_id":"ce4bhmp2rcd13ifvqgog","pricing_plan_id":"cebpf4jnsgd1na2vs0mg"},{"bike_id":"8529f690-87be-4809-88ea-b799b6019f56","system_id":"levelo_inurba_marseille","lat":43.25866,"lon":5.39892,"is_reserved":false,"is_disabled":false,"rental_uris":{"android":"levelo://app?vid=8529f690-87be-4809-88ea-b799b6019f56","ios":"levelo://app?vid=8529f690-87be-4809-88ea-b799b6019f56"},"vehicle_type_id":"4","last_reported":1740658708,"current_range_meters":12800,"station_id":"ce4bhl92rcd13ifvqghg","pricing_plan_id":"cebpf4jnsgd1na2vs0mg"},{"bike_id":"fb42654d-a3fa-43f3-b4c8-77609225d004","system_id":"levelo_inurba_marseille","lat":43.26948,"lon":5.3864,"is_reserved":false,"is_disabled":false,"rental_uris":{"android":"levelo://app?vid=fb42654d-a3fa-43f3-b4c8-77609225d004","ios":"levelo://app?vid=fb42654d-a3fa-43f3-b4c8-77609225d004"},"vehicle_type_id":"4","last_reported":1740658708,"current_range_meters":14000,"station_id":"ce4bhh92rcd13ifvqfh0","pricing_plan_id":"cebpf4jnsgd1na2vs0mg"},{"bike_id":"0c286632-cf14-46b4-9136-3952897e2965","system_id":"levelo_inurba_marseille","lat":43.28418,"lon":5.34975,"is_reserved":false,"is_disabled":false,"rental_uris":{"android":"levelo://app?vid=0c286632-cf14-46b4-9136-3952897e2965","ios":"levelo://app?vid=0c286632-cf14-46b4-9136-3952897e2965"},"vehicle_type_id":"4","last_reported":1740658708,"current_range_meters":14000,"station_id":"ce4bhbh2rcd13ifvqepg","pricing_plan_id":"cebpf4jnsgd1na2vs0mg"},{"bike_id":"c4a9669d-ca04-44e5-b58e-0d3de177f92d","system_id":"levelo_inurba_marseille","lat":43.30141,"lon":5.3742,"is_reserved":false,"is_disabled":false,"rental_uris":{"android":"levelo://app?vid=c4a9669d-ca04-44e5-b58e-0d3de177f92d","ios":"levelo://app?vid=c4a9669d-ca04-44e5-b58e-0d3de177f92d"},"vehicle_type_id":"4","last_reported":1740658708,"current_range_meters":11600,"station_id":"ce4bgs92rcd13ifvqcc0","pricing_plan_id":"cebpf4jnsgd1na2vs0mg"},{"bike_id":"2dd2ed29-2e51-44b5-8e26-81c845b9ae9c","system_id":"levelo_inurba_marseille","lat":43.26584,"lon":5.39031,"is_reserved":false,"is_disabled":false,"rental_uris":{"android":"levelo://app?vid=2dd2ed29-2e51-44b5-8e26-81c845b9ae9c","ios":"levelo://app?vid=2dd2ed29-2e51-44b5-8e26-81c845b9ae9c"},"vehicle_type_id":"4","last_reported":1740658708,"current_range_meters":14000,"station_id":"ce4bhe12rcd13ifvqf30","pricing_plan_id":"cebpf4jnsgd1na2vs0mg"},{"bike_id":"443370dd-f8b8-457a-b6f8-389b804ff6fc","system_id":"levelo_inurba_marseille","lat":43.32333,"lon":5.38888,"is_reserved":false,"is_disabled":false,"rental_uris":{"android":"levelo://app?vid=443370dd-f8b8-457a-b6f8-389b804ff6fc","ios":"levelo://app?vid=443370dd-f8b8-457a-b6f8-389b804ff6fc"},"vehicle_type_id":"4","last_reported":1740658708,"current_range_meters":12400,"station_id":"ce4bhqp2rcd13ifvqhog","pricing_plan_id":"cebpf4jnsgd1na2vs0mg"},{"bike_id":"3de9aeda-1f9a-4bbc-8b90-e02a49e56ca9","system_id":"levelo_inurba_marseille","lat":43.23206,"lon":5.35553,"is_reserved":false,"is_disabled":false,"rental_uris":{"android":"levelo://app?vid=3de9aeda-1f9a-4bbc-8b90-e02a49e56ca9","ios":"levelo://app?vid=3de9aeda-1f9a-4bbc-8b90-e02a49e56ca9"},"vehicle_type_id":"4","last_reported":1740658708,"current_range_meters":14400,"station_id":"ce4bhu92rcd13ifvqi70","pricing_plan_id":"cebpf4jnsgd1na2vs0mg"},{"bike_id":"975bd8e3-be90-410c-9d03-f6844152a072","system_id":"levelo_inurba_marseille","lat":43.29039,"lon":5.35907,"is_reserved":false,"is_disabled":false,"rental_uris":{"android":"levelo://app?vid=975bd8e3-be90-410c-9d03-f6844152a072","ios":"levelo://app?vid=975bd8e3-be90-410c-9d03-f6844152a072"},"vehicle_type_id":"4","last_reported":1740658708,"current_range_meters":15200,"station_id":"ce4bha92rcd13ifvqeg0","pricing_plan_id":"cebpf4jnsgd1na2vs0mg"},{"bike_id":"b20a78b4-8c15-4c66-b754-6817dee09f97","system_id":"levelo_inurba_marseille","lat":43.2957,"lon":5.3752,"is_reserved":false,"is_disabled":false,"rental_uris":{"android":"levelo://app?vid=b20a78b4-8c15-4c66-b754-6817dee09f97","ios":"levelo://app?vid=b20a78b4-8c15-4c66-b754-6817dee09f97"},"vehicle_type_id":"4","last_reported":1740658708,"current_range_meters":14400,"station_id":"ce4bgh92rcd13ifvqb50","pricing_plan_id":"cebpf4jnsgd1na2vs0mg"},{"bike_id":"b1abd704-283d-4f44-a6f6-c162360f7b32","system_id":"levelo_inurba_marseille","lat":43.31712,"lon":5.4369,"is_reserved":false,"is_disabled":false,"rental_uris":{"android":"levelo://app?vid=b1abd704-283d-4f44-a6f6-c162360f7b32","ios":"levelo://app?vid=b1abd704-283d-4f44-a6f6-c162360f7b32"},"vehicle_type_id":"4","last_reported":1740658708,"current_range_meters":15200,"station_id":"ce4bhp92rcd13ifvqhcg","pricing_plan_id":"cebpf4jnsgd1na2vs0mg"},{"bike_id":"d87a4773-6328-43f6-871f-76210bb4e613","system_id":"levelo_inurba_marseille","lat":43.31492,"lon":5.37286,"is_reserved":false,"is_disabled":false,"rental_uris":{"android":"levelo://app?vid=d87a4773-6328-43f6-871f-76210bb4e613","ios":"levelo://app?vid=d87a4773-6328-43f6-871f-76210bb4e613"},"vehicle_type_id":"4","last_reported":1740658708,"current_range_meters":14800,"station_id":"ce4bgt12rcd13ifvqcd0","pricing_plan_id":"cebpf4jnsgd1na2vs0mg"},{"bike_id":"fea0c5c2-fd3c-4e82-b736-5eb71ef88a15","system_id":"levelo_inurba_marseille","lat":43.287194,"lon":5.360909,"is_reserved":false,"is_disabled":false,"rental_uris":{"android":"levelo://app?vid=fea0c5c2-fd3c-4e82-b736-5eb71ef88a15","ios":"levelo://app?vid=fea0c5c2-fd3c-4e82-b736-5eb71ef88a15"},"vehicle_type_id":"4","last_reported":1740658708,"current_range_meters":14400,"station_id":"cki0cbj6b192h4jlfktg","pricing_plan_id":"cebpf4jnsgd1na2vs0mg"},{"bike_id":"2340bf46-394e-4e04-954f-396dfe8676f3","system_id":"levelo_inurba_marseille","lat":43.25098,"lon":5.39532,"is_reserved":false,"is_disabled":false,"rental_uris":{"android":"levelo://app?vid=2340bf46-394e-4e04-954f-396dfe8676f3","ios":"levelo://app?vid=2340bf46-394e-4e04-954f-396dfe8676f3"},"vehicle_type_id":"4","last_reported":1740658708,"current_range_meters":14800,"station_id":"ce4bhm12rcd13ifvqgkg","pricing_plan_id":"cebpf4jnsgd1na2vs0mg"},{"bike_id":"2a474371-b3ed-43ca-9c59-997b760e6627","system_id":"levelo_inurba_marseille","lat":43.23157,"lon":5.43703,"is_reserved":false,"is_disabled":false,"rental_uris":{"android":"levelo://app?vid=2a474371-b3ed-43ca-9c59-997b760e6627","ios":"levelo://app?vid=2a474371-b3ed-43ca-9c59-997b760e6627"},"vehicle_type_id":"4","last_reported":1740658708,"current_range_meters":14800,"station_id":"ce4bhmp2rcd13ifvqgog","pricing_plan_id":"cebpf4jnsgd1na2vs0mg"},{"bike_id":"0f665076-3e0b-47a6-8189-e37583df5925","system_id":"levelo_inurba_marseille","lat":43.29268,"lon":5.37626,"is_reserved":false,"is_disabled":false,"rental_uris":{"android":"levelo://app?vid=0f665076-3e0b-47a6-8189-e37583df5925","ios":"levelo://app?vid=0f665076-3e0b-47a6-8189-e37583df5925"},"vehicle_type_id":"4","last_reported":1740658708,"current_range_meters":14800,"station_id":"ce4bgi12rcd13ifvqb80","pricing_plan_id":"cebpf4jnsgd1na2vs0mg"},{"bike_id":"ad7f994d-dcbb-4b9f-a1d4-48998b8eb7dc","system_id":"levelo_inurba_marseille","lat":43.31066,"lon":5.40085,"is_reserved":false,"is_disabled":false,"rental_uris":{"android":"levelo://app?vid=ad7f994d-dcbb-4b9f-a1d4-48998b8eb7dc","ios":"levelo://app?vid=ad7f994d-dcbb-4b9f-a1d4-48998b8eb7dc"},"vehicle_type_id":"4","last_reported":1740658708,"current_range_meters":14400,"station_id":"","pricing_plan_id":"cebpf4jnsgd1na2vs0mg"},{"bike_id":"201b43e1-9166-4b93-9ecb-211bb1985890","system_id":"levelo_inurba_marseille","lat":43.32165,"lon":5.36421,"is_reserved":false,"is_disabled":false,"rental_uris":{"android":"levelo://app?vid=201b43e1-9166-4b93-9ecb-211bb1985890","ios":"levelo://app?vid=201b43e1-9166-4b93-9ecb-211bb1985890"},"vehicle_type_id":"4","last_reported":1740658708,"current_range_meters":14800,"station_id":"ce4bhsh2rcd13ifvqi2g","pricing_plan_id":"cebpf4jnsgd1na2vs0mg"},{"bike_id":"20ac0122-8fc7-48a7-9ece-d0eae822fe83","system_id":"levelo_inurba_marseille","lat":43.23183,"lon":5.35528,"is_reserved":false,"is_disabled":false,"rental_uris":{"android":"levelo://app?vid=20ac0122-8fc7-48a7-9ece-d0eae822fe83","ios":"levelo://app?vid=20ac0122-8fc7-48a7-9ece-d0eae822fe83"},"vehicle_type_id":"4","last_reported":1740658708,"current_range_meters":14800,"station_id":"ce4bhu92rcd13ifvqi70","pricing_plan_id":"cebpf4jnsgd1na2vs0mg"},{"bike_id":"6bf62df5-9f2c-4676-be2e-3425368f3119","system_id":"levelo_inurba_marseille","lat":43.29317,"lon":5.38221,"is_reserved":false,"is_disabled":false,"rental_uris":{"android":"levelo://app?vid=6bf62df5-9f2c-4676-be2e-3425368f3119","ios":"levelo://app?vid=6bf62df5-9f2c-4676-be2e-3425368f3119"},"vehicle_type_id":"4","last_reported":1740658708,"current_range_meters":15200,"station_id":"","pricing_plan_id":"cebpf4jnsgd1na2vs0mg"},{"bike_id":"a425e775-b361-4ab4-93f9-fa2ea28a8286","system_id":"levelo_inurba_marseille","lat":43.32482,"lon":5.366,"is_reserved":false,"is_disabled":false,"rental_uris":{"android":"levelo://app?vid=a425e775-b361-4ab4-93f9-fa2ea28a8286","ios":"levelo://app?vid=a425e775-b361-4ab4-93f9-fa2ea28a8286"},"vehicle_type_id":"4","last_reported":1740658708,"current_range_meters":14000,"station_id":"ce4bhs12rcd13ifvqhvg","pricing_plan_id":"cebpf4jnsgd1na2vs0mg"},{"bike_id":"c599b003-d10f-467b-95f6-ec614b295ff7","system_id":"levelo_inurba_marseille","lat":43.31698,"lon":5.37743,"is_reserved":false,"is_disabled":false,"rental_uris":{"android":"levelo://app?vid=c599b003-d10f-467b-95f6-ec614b295ff7","ios":"levelo://app?vid=c599b003-d10f-467b-95f6-ec614b295ff7"},"vehicle_type_id":"4","last_reported":1740658708,"current_range_meters":13600,"station_id":"ce4bgth2rcd13ifvqch0","pricing_plan_id":"cebpf4jnsgd1na2vs0mg"},{"bike_id":"d2950824-f361-436a-8449-a3bdd74ec629","system_id":"levelo_inurba_marseille","lat":43.2606,"lon":5.39395,"is_reserved":false,"is_disabled":false,"rental_uris":{"android":"levelo://app?vid=d2950824-f361-436a-8449-a3bdd74ec629","ios":"levelo://app?vid=d2950824-f361-436a-8449-a3bdd74ec629"},"vehicle_type_id":"4","last_reported":1740658708,"current_range_meters":14400,"station_id":"ce4bhh92rcd13ifvqfj0","pricing_plan_id":"cebpf4jnsgd1na2vs0mg"},{"bike_id":"aa3bc85c-4c26-4f80-ba69-cd88aac57388","system_id":"levelo_inurba_marseille","lat":43.30433,"lon":5.38884,"is_reserved":false,"is_disabled":false,"rental_uris":{"android":"levelo://app?vid=aa3bc85c-4c26-4f80-ba69-cd88aac57388","ios":"levelo://app?vid=aa3bc85c-4c26-4f80-ba69-cd88aac57388"},"vehicle_type_id":"4","last_reported":1740658708,"current_range_meters":15200,"station_id":"ce4bgk12rcd13ifvqbi0","pricing_plan_id":"cebpf4jnsgd1na2vs0mg"},{"bike_id":"da854c59-042b-461a-aebf-bc964bbb4e82","system_id":"levelo_inurba_marseille","lat":43.29098,"lon":5.38146,"is_reserved":false,"is_disabled":false,"rental_uris":{"android":"levelo://app?vid=da854c59-042b-461a-aebf-bc964bbb4e82","ios":"levelo://app?vid=da854c59-042b-461a-aebf-bc964bbb4e82"},"vehicle_type_id":"4","last_reported":1740658708,"current_range_meters":15200,"station_id":"ce4bh512rcd13ifvqe2g","pricing_plan_id":"cebpf4jnsgd1na2vs0mg"},{"bike_id":"d337cc62-b29d-4e4a-bd4f-e767bd643d41","system_id":"levelo_inurba_marseille","lat":43.32104,"lon":5.3676,"is_reserved":false,"is_disabled":false,"rental_uris":{"android":"levelo://app?vid=d337cc62-b29d-4e4a-bd4f-e767bd643d41","ios":"levelo://app?vid=d337cc62-b29d-4e4a-bd4f-e767bd643d41"},"vehicle_type_id":"4","last_reported":1740658708,"current_range_meters":15200,"station_id":"ce4bhrh2rcd13ifvqhug","pricing_plan_id":"cebpf4jnsgd1na2vs0mg"},{"bike_id":"31c58e5d-9342-432b-b32a-4dfcdf1667fa","system_id":"levelo_inurba_marseille","lat":43.24399,"lon":5.37057,"is_reserved":false,"is_disabled":false,"rental_uris":{"android":"levelo://app?vid=31c58e5d-9342-432b-b32a-4dfcdf1667fa","ios":"levelo://app?vid=31c58e5d-9342-432b-b32a-4dfcdf1667fa"},"vehicle_type_id":"4","last_reported":1740658708,"current_range_meters":15200,"station_id":"ce4bhhh2rcd13ifvqfk0","pricing_plan_id":"cebpf4jnsgd1na2vs0mg"},{"bike_id":"2bc6b0c1-7127-4e48-b7f5-50a3d89bfd6a","system_id":"levelo_inurba_marseille","lat":43.30961,"lon":5.373,"is_reserved":false,"is_disabled":false,"rental_uris":{"android":"levelo://app?vid=2bc6b0c1-7127-4e48-b7f5-50a3d89bfd6a","ios":"levelo://app?vid=2bc6b0c1-7127-4e48-b7f5-50a3d89bfd6a"},"vehicle_type_id":"4","last_reported":1740658708,"current_range_meters":15200,"station_id":"","pricing_plan_id":"cebpf4jnsgd1na2vs0mg"},{"bike_id":"d4918d6a-5525-4be8-b0c4-7af64b54343d","system_id":"levelo_inurba_marseille","lat":43.24175,"lon":5.36398,"is_reserved":false,"is_disabled":false,"rental_uris":{"android":"levelo://app?vid=d4918d6a-5525-4be8-b0c4-7af64b54343d","ios":"levelo://app?vid=d4918d6a-5525-4be8-b0c4-7af64b54343d"},"vehicle_type_id":"4","last_reported":1740658708,"current_range_meters":16400,"station_id":"cpo36qri1sfpv3e86is0","pricing_plan_id":"cebpf4jnsgd1na2vs0mg"},{"bike_id":"cadf36d4-8397-4f67-9648-8720310c1392","system_id":"levelo_inurba_marseille","lat":43.27493,"lon":5.42452,"is_reserved":false,"is_disabled":false,"rental_uris":{"android":"levelo://app?vid=cadf36d4-8397-4f67-9648-8720310c1392","ios":"levelo://app?vid=cadf36d4-8397-4f67-9648-8720310c1392"},"vehicle_type_id":"4","last_reported":1740658708,"current_range_meters":16000,"station_id":"ce4bhn92rcd13ifvqgrg","pricing_plan_id":"cebpf4jnsgd1na2vs0mg"},{"bike_id":"3fddd326-38e3-4f79-9be1-12d9b35bade2","system_id":"levelo_inurba_marseille","lat":43.27946,"lon":5.41038,"is_reserved":false,"is_disabled":false,"rental_uris":{"android":"levelo://app?vid=3fddd326-38e3-4f79-9be1-12d9b35bade2","ios":"levelo://app?vid=3fddd326-38e3-4f79-9be1-12d9b35bade2"},"vehicle_type_id":"4","last_reported":1740658708,"current_range_meters":16400,"station_id":"ce4bhnp2rcd13ifvqh0g","pricing_plan_id":"cebpf4jnsgd1na2vs0mg"},{"bike_id":"20d08730-d04f-482a-9ed2-1d3e29b92784","system_id":"levelo_inurba_marseille","lat":43.32357,"lon":5.38884,"is_reserved":false,"is_disabled":false,"rental_uris":{"android":"levelo://app?vid=20d08730-d04f-482a-9ed2-1d3e29b92784","ios":"levelo://app?vid=20d08730-d04f-482a-9ed2-1d3e29b92784"},"vehicle_type_id":"4","last_reported":1740658708,"current_range_meters":16000,"station_id":"ce4bhqp2rcd13ifvqhog","pricing_plan_id":"cebpf4jnsgd1na2vs0mg"},{"bike_id":"7b938360-270f-4c42-adad-7d042b87fd03","system_id":"levelo_inurba_marseille","lat":43.24685,"lon":5.38163,"is_reserved":false,"is_disabled":false,"rental_uris":{"android":"levelo://app?vid=7b938360-270f-4c42-adad-7d042b87fd03","ios":"levelo://app?vid=7b938360-270f-4c42-adad-7d042b87fd03"},"vehicle_type_id":"4","last_reported":1740658708,"current_range_meters":16400,"station_id":"ce4bhih2rcd13ifvqfr0","pricing_plan_id":"cebpf4jnsgd1na2vs0mg"},{"bike_id":"c08c3901-403c-46cd-b0ac-742840d1a2fe","system_id":"levelo_inurba_marseille","lat":43.29499,"lon":5.37508,"is_reserved":false,"is_disabled":false,"rental_uris":{"android":"levelo://app?vid=c08c3901-403c-46cd-b0ac-742840d1a2fe","ios":"levelo://app?vid=c08c3901-403c-46cd-b0ac-742840d1a2fe"},"vehicle_type_id":"4","last_reported":1740658708,"current_range_meters":16000,"station_id":"ce4bgkp2rcd13ifvqbmg","pricing_plan_id":"cebpf4jnsgd1na2vs0mg"},{"bike_id":"fb70dea8-fe5e-4f29-a636-7a21a96df401","system_id":"levelo_inurba_marseille","lat":43.25583,"lon":5.38225,"is_reserved":false,"is_disabled":false,"rental_uris":{"android":"levelo://app?vid=fb70dea8-fe5e-4f29-a636-7a21a96df401","ios":"levelo://app?vid=fb70dea8-fe5e-4f29-a636-7a21a96df401"},"vehicle_type_id":"4","last_reported":1740658708,"current_range_meters":16000,"station_id":"ce4bhih2rcd13ifvqfs0","pricing_plan_id":"cebpf4jnsgd1na2vs0mg"},{"bike_id":"af1ddcad-43e7-43b3-af98-bb940c88b0c3","system_id":"levelo_inurba_marseille","lat":43.30948,"lon":5.39029,"is_reserved":false,"is_disabled":false,"rental_uris":{"android":"levelo://app?vid=af1ddcad-43e7-43b3-af98-bb940c88b0c3","ios":"levelo://app?vid=af1ddcad-43e7-43b3-af98-bb940c88b0c3"},"vehicle_type_id":"4","last_reported":1740658708,"current_range_meters":16000,"station_id":"ce4bgup2rcd13ifvqco0","pricing_plan_id":"cebpf4jnsgd1na2vs0mg"},{"bike_id":"59ee61a2-a71b-4362-acc5-4789299e013e","system_id":"levelo_inurba_marseille","lat":43.30125,"lon":5.37326,"is_reserved":false,"is_disabled":false,"rental_uris":{"android":"levelo://app?vid=59ee61a2-a71b-4362-acc5-4789299e013e","ios":"levelo://app?vid=59ee61a2-a71b-4362-acc5-4789299e013e"},"vehicle_type_id":"4","last_reported":1740658708,"current_range_meters":16400,"station_id":"","pricing_plan_id":"cebpf4jnsgd1na2vs0mg"},{"bike_id":"7cf7b894-d393-4f1a-903c-6b57f99cdc54","system_id":"levelo_inurba_marseille","lat":43.26391,"lon":5.38436,"is_reserved":false,"is_disabled":false,"rental_uris":{"android":"levelo://app?vid=7cf7b894-d393-4f1a-903c-6b57f99cdc54","ios":"levelo://app?vid=7cf7b894-d393-4f1a-903c-6b57f99cdc54"},"vehicle_type_id":"4","last_reported":1740658708,"current_range_meters":16400,"station_id":"","pricing_plan_id":"cebpf4jnsgd1na2vs0mg"},{"bike_id":"015035ab-1c5d-42ff-bb22-c2353634a72d","system_id":"levelo_inurba_marseille","lat":43.3054,"lon":5.36695,"is_reserved":false,"is_disabled":false,"rental_uris":{"android":"levelo://app?vid=015035ab-1c5d-42ff-bb22-c2353634a72d","ios":"levelo://app?vid=015035ab-1c5d-42ff-bb22-c2353634a72d"},"vehicle_type_id":"4","last_reported":1740658708,"current_range_meters":16400,"station_id":"ce4bgrp2rcd13ifvqc9g","pricing_plan_id":"cebpf4jnsgd1na2vs0mg"},{"bike_id":"db969468-b380-4e55-a026-273e3aaa7506","system_id":"levelo_inurba_marseille","lat":43.31318,"lon":5.36741,"is_reserved":false,"is_disabled":false,"rental_uris":{"android":"levelo://app?vid=db969468-b380-4e55-a026-273e3aaa7506","ios":"levelo://app?vid=db969468-b380-4e55-a026-273e3aaa7506"},"vehicle_type_id":"4","last_reported":1740658708,"current_range_meters":16400,"station_id":"ce4bgr92rcd13ifvqc6g","pricing_plan_id":"cebpf4jnsgd1na2vs0mg"},{"bike_id":"ef77bf7f-5b88-41c9-8d3b-c8c9c0447dd9","system_id":"levelo_inurba_marseille","lat":43.28064,"lon":5.35031,"is_reserved":false,"is_disabled":false,"rental_uris":{"android":"levelo://app?vid=ef77bf7f-5b88-41c9-8d3b-c8c9c0447dd9","ios":"levelo://app?vid=ef77bf7f-5b88-41c9-8d3b-c8c9c0447dd9"},"vehicle_type_id":"4","last_reported":1740658708,"current_range_meters":16400,"station_id":"","pricing_plan_id":"cebpf4jnsgd1na2vs0mg"},{"bike_id":"a2035f8a-71d6-4907-9d48-9df7f337d1f0","system_id":"levelo_inurba_marseille","lat":43.31298,"lon":5.36757,"is_reserved":false,"is_disabled":false,"rental_uris":{"android":"levelo://app?vid=a2035f8a-71d6-4907-9d48-9df7f337d1f0","ios":"levelo://app?vid=a2035f8a-71d6-4907-9d48-9df7f337d1f0"},"vehicle_type_id":"4","last_reported":1740658708,"current_range_meters":16800,"station_id":"","pricing_plan_id":"cebpf4jnsgd1na2vs0mg"},{"bike_id":"a9da3dc9-ca2e-494e-9892-84cc0468751b","system_id":"levelo_inurba_marseille","lat":43.32479,"lon":5.3657,"is_reserved":false,"is_disabled":false,"rental_uris":{"android":"levelo://app?vid=a9da3dc9-ca2e-494e-9892-84cc0468751b","ios":"levelo://app?vid=a9da3dc9-ca2e-494e-9892-84cc0468751b"},"vehicle_type_id":"4","last_reported":1740658708,"current_range_meters":16800,"station_id":"ce4bhs12rcd13ifvqhvg","pricing_plan_id":"cebpf4jnsgd1na2vs0mg"},{"bike_id":"8e100345-e773-4b5f-aa04-a4e55e7b32d1","system_id":"levelo_inurba_marseille","lat":43.31467,"lon":5.37234,"is_reserved":false,"is_disabled":false,"rental_uris":{"android":"levelo://app?vid=8e100345-e773-4b5f-aa04-a4e55e7b32d1","ios":"levelo://app?vid=8e100345-e773-4b5f-aa04-a4e55e7b32d1"},"vehicle_type_id":"4","last_reported":1740658708,"current_range_meters":17200,"station_id":"ce4bgt12rcd13ifvqcd0","pricing_plan_id":"cebpf4jnsgd1na2vs0mg"},{"bike_id":"a25a2d33-1d8e-4fa7-b677-45c8444c8775","system_id":"levelo_inurba_marseille","lat":43.2319,"lon":5.3555,"is_reserved":false,"is_disabled":false,"rental_uris":{"android":"levelo://app?vid=a25a2d33-1d8e-4fa7-b677-45c8444c8775","ios":"levelo://app?vid=a25a2d33-1d8e-4fa7-b677-45c8444c8775"},"vehicle_type_id":"4","last_reported":1740658708,"current_range_meters":16800,"station_id":"ce4bhu92rcd13ifvqi70","pricing_plan_id":"cebpf4jnsgd1na2vs0mg"},{"bike_id":"3f5e4c77-943b-4a46-b257-614bf13afec4","system_id":"levelo_inurba_marseille","lat":43.24153,"lon":5.3641,"is_reserved":false,"is_disabled":false,"rental_uris":{"android":"levelo://app?vid=3f5e4c77-943b-4a46-b257-614bf13afec4","ios":"levelo://app?vid=3f5e4c77-943b-4a46-b257-614bf13afec4"},"vehicle_type_id":"4","last_reported":1740658708,"current_range_meters":16800,"station_id":"cpo36qri1sfpv3e86is0","pricing_plan_id":"cebpf4jnsgd1na2vs0mg"},{"bike_id":"8c8ad4a5-f38e-4fd1-936a-be370f90fb34","system_id":"levelo_inurba_marseille","lat":43.27977,"lon":5.38712,"is_reserved":false,"is_disabled":false,"rental_uris":{"android":"levelo://app?vid=8c8ad4a5-f38e-4fd1-936a-be370f90fb34","ios":"levelo://app?vid=8c8ad4a5-f38e-4fd1-936a-be370f90fb34"},"vehicle_type_id":"4","last_reported":1740658708,"current_range_meters":12400,"station_id":"ce4bhg12rcd13ifvqf80","pricing_plan_id":"cebpf4jnsgd1na2vs0mg"},{"bike_id":"ae743dd3-db3b-4a52-a454-1f6c827d15b5","system_id":"levelo_inurba_marseille","lat":43.33603,"lon":5.41035,"is_reserved":false,"is_disabled":false,"rental_uris":{"android":"levelo://app?vid=ae743dd3-db3b-4a52-a454-1f6c827d15b5","ios":"levelo://app?vid=ae743dd3-db3b-4a52-a454-1f6c827d15b5"},"vehicle_type_id":"4","last_reported":1740658708,"current_range_meters":17200,"station_id":"ce4bhqh2rcd13ifvqhmg","pricing_plan_id":"cebpf4jnsgd1na2vs0mg"},{"bike_id":"a770d2f3-a91e-4d6c-8a1c-db00b2f94ba3","system_id":"levelo_inurba_marseille","lat":43.28105,"lon":5.37839,"is_reserved":false,"is_disabled":false,"rental_uris":{"android":"levelo://app?vid=a770d2f3-a91e-4d6c-8a1c-db00b2f94ba3","ios":"levelo://app?vid=a770d2f3-a91e-4d6c-8a1c-db00b2f94ba3"},"vehicle_type_id":"4","last_reported":1740658708,"current_range_meters":15200,"station_id":"ce4bha12rcd13ifvqee0","pricing_plan_id":"cebpf4jnsgd1na2vs0mg"},{"bike_id":"f815f093-6cc1-41ad-873b-65adad085f2d","system_id":"levelo_inurba_marseille","lat":43.30146,"lon":5.38767,"is_reserved":false,"is_disabled":false,"rental_uris":{"android":"levelo://app?vid=f815f093-6cc1-41ad-873b-65adad085f2d","ios":"levelo://app?vid=f815f093-6cc1-41ad-873b-65adad085f2d"},"vehicle_type_id":"4","last_reported":1740658708,"current_range_meters":16400,"station_id":"ce4bghh2rcd13ifvqb60","pricing_plan_id":"cebpf4jnsgd1na2vs0mg"},{"bike_id":"89bb3df1-af56-491b-93c3-dbf6a26c9720","system_id":"levelo_inurba_marseille","lat":43.3108,"lon":5.42439,"is_reserved":false,"is_disabled":true,"rental_uris":{"android":"levelo://app?vid=89bb3df1-af56-491b-93c3-dbf6a26c9720","ios":"levelo://app?vid=89bb3df1-af56-491b-93c3-dbf6a26c9720"},"vehicle_type_id":"4","last_reported":1740658708,"current_range_meters":17600,"station_id":"ce4bhp92rcd13ifvqhag","pricing_plan_id":"cebpf4jnsgd1na2vs0mg"},{"bike_id":"4e184c06-2a62-4a53-adfd-584ec77fd9cc","system_id":"levelo_inurba_marseille","lat":43.29572,"lon":5.39983,"is_reserved":false,"is_disabled":false,"rental_uris":{"android":"levelo://app?vid=4e184c06-2a62-4a53-adfd-584ec77fd9cc","ios":"levelo://app?vid=4e184c06-2a62-4a53-adfd-584ec77fd9cc"},"vehicle_type_id":"4","last_reported":1740658708,"current_range_meters":17200,"station_id":"ce4bh312rcd13ifvqdj0","pricing_plan_id":"cebpf4jnsgd1na2vs0mg"},{"bike_id":"16657fa1-03c6-49ec-a407-f3061564a488","system_id":"levelo_inurba_marseille","lat":43.26226,"lon":5.40455,"is_reserved":false,"is_disabled":false,"rental_uris":{"android":"levelo://app?vid=16657fa1-03c6-49ec-a407-f3061564a488","ios":"levelo://app?vid=16657fa1-03c6-49ec-a407-f3061564a488"},"vehicle_type_id":"4","last_reported":1740658708,"current_range_meters":17200,"station_id":"ce4bhmh2rcd13ifvqgmg","pricing_plan_id":"cebpf4jnsgd1na2vs0mg"},{"bike_id":"43d6aa6f-20c7-4a1b-bcb8-31b660876567","system_id":"levelo_inurba_marseille","lat":43.26563,"lon":5.3731,"is_reserved":false,"is_disabled":false,"rental_uris":{"android":"levelo://app?vid=43d6aa6f-20c7-4a1b-bcb8-31b660876567","ios":"levelo://app?vid=43d6aa6f-20c7-4a1b-bcb8-31b660876567"},"vehicle_type_id":"4","last_reported":1740658708,"current_range_meters":17200,"station_id":"ce4bhg12rcd13ifvqf70","pricing_plan_id":"cebpf4jnsgd1na2vs0mg"},{"bike_id":"9adb168e-3d15-4482-a733-cf8c9efc7392","system_id":"levelo_inurba_marseille","lat":43.28715,"lon":5.37915,"is_reserved":false,"is_disabled":false,"rental_uris":{"android":"levelo://app?vid=9adb168e-3d15-4482-a733-cf8c9efc7392","ios":"levelo://app?vid=9adb168e-3d15-4482-a733-cf8c9efc7392"},"vehicle_type_id":"4","last_reported":1740658708,"current_range_meters":16800,"station_id":"ce4bh9p2rcd13ifvqec0","pricing_plan_id":"cebpf4jnsgd1na2vs0mg"},{"bike_id":"c56104d1-9d6f-4638-8786-2bb956b4a697","system_id":"levelo_inurba_marseille","lat":43.30901,"lon":5.3718,"is_reserved":false,"is_disabled":false,"rental_uris":{"android":"levelo://app?vid=c56104d1-9d6f-4638-8786-2bb956b4a697","ios":"levelo://app?vid=c56104d1-9d6f-4638-8786-2bb956b4a697"},"vehicle_type_id":"4","last_reported":1740658708,"current_range_meters":16800,"station_id":"ce4bguh2rcd13ifvqckg","pricing_plan_id":"cebpf4jnsgd1na2vs0mg"},{"bike_id":"364ea645-aefe-4d71-8bcd-ea54ed59c50a","system_id":"levelo_inurba_marseille","lat":43.31697,"lon":5.437,"is_reserved":false,"is_disabled":false,"rental_uris":{"android":"levelo://app?vid=364ea645-aefe-4d71-8bcd-ea54ed59c50a","ios":"levelo://app?vid=364ea645-aefe-4d71-8bcd-ea54ed59c50a"},"vehicle_type_id":"4","last_reported":1740658708,"current_range_meters":17200,"station_id":"ce4bhp92rcd13ifvqhcg","pricing_plan_id":"cebpf4jnsgd1na2vs0mg"},{"bike_id":"316d0111-4ebc-4475-83ee-cfd3a2c907fa","system_id":"levelo_inurba_marseille","lat":43.29299,"lon":5.37447,"is_reserved":false,"is_disabled":false,"rental_uris":{"android":"levelo://app?vid=316d0111-4ebc-4475-83ee-cfd3a2c907fa","ios":"levelo://app?vid=316d0111-4ebc-4475-83ee-cfd3a2c907fa"},"vehicle_type_id":"4","last_reported":1740658708,"current_range_meters":17600,"station_id":"ce4bgi12rcd13ifvqb70","pricing_plan_id":"cebpf4jnsgd1na2vs0mg"},{"bike_id":"4b450566-85ff-4897-902a-a01d36130518","system_id":"levelo_inurba_marseille","lat":43.26574,"lon":5.39002,"is_reserved":false,"is_disabled":false,"rental_uris":{"android":"levelo://app?vid=4b450566-85ff-4897-902a-a01d36130518","ios":"levelo://app?vid=4b450566-85ff-4897-902a-a01d36130518"},"vehicle_type_id":"4","last_reported":1740658708,"current_range_meters":17600,"station_id":"ce4bhe12rcd13ifvqf30","pricing_plan_id":"cebpf4jnsgd1na2vs0mg"},{"bike_id":"1a1d375b-d35e-45bc-880f-cf74679a2a6f","system_id":"levelo_inurba_marseille","lat":43.30151,"lon":5.3742,"is_reserved":false,"is_disabled":false,"rental_uris":{"android":"levelo://app?vid=1a1d375b-d35e-45bc-880f-cf74679a2a6f","ios":"levelo://app?vid=1a1d375b-d35e-45bc-880f-cf74679a2a6f"},"vehicle_type_id":"4","last_reported":1740658708,"current_range_meters":16800,"station_id":"ce4bgs92rcd13ifvqcc0","pricing_plan_id":"cebpf4jnsgd1na2vs0mg"},{"bike_id":"828589c1-3776-4261-a12e-4085a152c8cf","system_id":"levelo_inurba_marseille","lat":43.289328,"lon":5.384006,"is_reserved":false,"is_disabled":false,"rental_uris":{"android":"levelo://app?vid=828589c1-3776-4261-a12e-4085a152c8cf","ios":"levelo://app?vid=828589c1-3776-4261-a12e-4085a152c8cf"},"vehicle_type_id":"4","last_reported":1740658708,"current_range_meters":18000,"station_id":"ce4bh612rcd13ifvqe6g","pricing_plan_id":"cebpf4jnsgd1na2vs0mg"},{"bike_id":"a6b2002a-b910-43e7-983f-60a456fc47aa","system_id":"levelo_inurba_marseille","lat":43.30604,"lon":5.37231,"is_reserved":false,"is_disabled":false,"rental_uris":{"android":"levelo://app?vid=a6b2002a-b910-43e7-983f-60a456fc47aa","ios":"levelo://app?vid=a6b2002a-b910-43e7-983f-60a456fc47aa"},"vehicle_type_id":"4","last_reported":1740658708,"current_range_meters":17600,"station_id":"ce4bgqh2rcd13ifvqc4g","pricing_plan_id":"cebpf4jnsgd1na2vs0mg"},{"bike_id":"a9757b2e-0188-4e2f-9062-079c74f7d4d4","system_id":"levelo_inurba_marseille","lat":43.25572,"lon":5.38229,"is_reserved":false,"is_disabled":false,"rental_uris":{"android":"levelo://app?vid=a9757b2e-0188-4e2f-9062-079c74f7d4d4","ios":"levelo://app?vid=a9757b2e-0188-4e2f-9062-079c74f7d4d4"},"vehicle_type_id":"4","last_reported":1740658708,"current_range_meters":17600,"station_id":"ce4bhih2rcd13ifvqfs0","pricing_plan_id":"cebpf4jnsgd1na2vs0mg"},{"bike_id":"32fe9911-f8fe-4fd1-87a7-dd5943b5a6d6","system_id":"levelo_inurba_marseille","lat":43.26953,"lon":5.38631,"is_reserved":false,"is_disabled":false,"rental_uris":{"android":"levelo://app?vid=32fe9911-f8fe-4fd1-87a7-dd5943b5a6d6","ios":"levelo://app?vid=32fe9911-f8fe-4fd1-87a7-dd5943b5a6d6"},"vehicle_type_id":"4","last_reported":1740658708,"current_range_meters":17200,"station_id":"ce4bhh92rcd13ifvqfh0","pricing_plan_id":"cebpf4jnsgd1na2vs0mg"},{"bike_id":"1acc40e2-2fe5-4c17-9cdf-5783913fcfe8","system_id":"levelo_inurba_marseille","lat":43.2884,"lon":5.39323,"is_reserved":false,"is_disabled":false,"rental_uris":{"android":"levelo://app?vid=1acc40e2-2fe5-4c17-9cdf-5783913fcfe8","ios":"levelo://app?vid=1acc40e2-2fe5-4c17-9cdf-5783913fcfe8"},"vehicle_type_id":"4","last_reported":1740658708,"current_range_meters":18000,"station_id":"ce4bh2p2rcd13ifvqdi0","pricing_plan_id":"cebpf4jnsgd1na2vs0mg"},{"bike_id":"067de082-eab5-4dbf-b877-c93509d8a237","system_id":"levelo_inurba_marseille","lat":43.28462,"lon":5.35875,"is_reserved":false,"is_disabled":false,"rental_uris":{"android":"levelo://app?vid=067de082-eab5-4dbf-b877-c93509d8a237","ios":"levelo://app?vid=067de082-eab5-4dbf-b877-c93509d8a237"},"vehicle_type_id":"4","last_reported":1740658708,"current_range_meters":17200,"station_id":"ce4bhah2rcd13ifvqei0","pricing_plan_id":"cebpf4jnsgd1na2vs0mg"},{"bike_id":"176573bb-3f18-44bb-bf2e-900b461a6cd2","system_id":"levelo_inurba_marseille","lat":43.27941,"lon":5.41046,"is_reserved":false,"is_disabled":false,"rental_uris":{"android":"levelo://app?vid=176573bb-3f18-44bb-bf2e-900b461a6cd2","ios":"levelo://app?vid=176573bb-3f18-44bb-bf2e-900b461a6cd2"},"vehicle_type_id":"4","last_reported":1740658708,"current_range_meters":17600,"station_id":"ce4bhnp2rcd13ifvqh0g","pricing_plan_id":"cebpf4jnsgd1na2vs0mg"},{"bike_id":"7ed416f1-81a7-482d-9b6e-49bcff029034","system_id":"levelo_inurba_marseille","lat":43.269559,"lon":5.386313,"is_reserved":false,"is_disabled":true,"rental_uris":{"android":"levelo://app?vid=7ed416f1-81a7-482d-9b6e-49bcff029034","ios":"levelo://app?vid=7ed416f1-81a7-482d-9b6e-49bcff029034"},"vehicle_type_id":"4","last_reported":1740658708,"current_range_meters":17600,"station_id":"","pricing_plan_id":"cebpf4jnsgd1na2vs0mg"},{"bike_id":"852d9e7a-5bff-41ba-8baf-a0e349a4142b","system_id":"levelo_inurba_marseille","lat":43.23952,"lon":5.36638,"is_reserved":false,"is_disabled":true,"rental_uris":{"android":"levelo://app?vid=852d9e7a-5bff-41ba-8baf-a0e349a4142b","ios":"levelo://app?vid=852d9e7a-5bff-41ba-8baf-a0e349a4142b"},"vehicle_type_id":"4","last_reported":1740658708,"current_range_meters":17600,"station_id":"ce4bhi12rcd13ifvqfp0","pricing_plan_id":"cebpf4jnsgd1na2vs0mg"},{"bike_id":"24476cb6-9c12-4997-ab8d-8cfe9d8b4bb4","system_id":"levelo_inurba_marseille","lat":43.28652,"lon":5.35077,"is_reserved":false,"is_disabled":false,"rental_uris":{"android":"levelo://app?vid=24476cb6-9c12-4997-ab8d-8cfe9d8b4bb4","ios":"levelo://app?vid=24476cb6-9c12-4997-ab8d-8cfe9d8b4bb4"},"vehicle_type_id":"4","last_reported":1740658708,"current_range_meters":18000,"station_id":"ce4bhch2rcd13ifvqeug","pricing_plan_id":"cebpf4jnsgd1na2vs0mg"},{"bike_id":"ee625ad7-32e4-43e1-8399-b549e9917481","system_id":"levelo_inurba_marseille","lat":43.28948,"lon":5.3637,"is_reserved":false,"is_disabled":false,"rental_uris":{"android":"levelo://app?vid=ee625ad7-32e4-43e1-8399-b549e9917481","ios":"levelo://app?vid=ee625ad7-32e4-43e1-8399-b549e9917481"},"vehicle_type_id":"4","last_reported":1740658708,"current_range_meters":17600,"station_id":"ce4bhc92rcd13ifvqetg","pricing_plan_id":"cebpf4jnsgd1na2vs0mg"},{"bike_id":"5c332df1-da68-45dd-b1bf-30a384e835da","system_id":"levelo_inurba_marseille","lat":43.26953,"lon":5.38629,"is_reserved":false,"is_disabled":false,"rental_uris":{"android":"levelo://app?vid=5c332df1-da68-45dd-b1bf-30a384e835da","ios":"levelo://app?vid=5c332df1-da68-45dd-b1bf-30a384e835da"},"vehicle_type_id":"4","last_reported":1740658708,"current_range_meters":17600,"station_id":"ce4bhh92rcd13ifvqfh0","pricing_plan_id":"cebpf4jnsgd1na2vs0mg"},{"bike_id":"086d7aa7-e301-4d46-b820-623c8b1bfc75","system_id":"levelo_inurba_marseille","lat":43.2926,"lon":5.37608,"is_reserved":false,"is_disabled":false,"rental_uris":{"android":"levelo://app?vid=086d7aa7-e301-4d46-b820-623c8b1bfc75","ios":"levelo://app?vid=086d7aa7-e301-4d46-b820-623c8b1bfc75"},"vehicle_type_id":"4","last_reported":1740658708,"current_range_meters":18000,"station_id":"ce4bgi12rcd13ifvqb80","pricing_plan_id":"cebpf4jnsgd1na2vs0mg"},{"bike_id":"d5edb018-84b2-430e-86cd-efa9a9176b7f","system_id":"levelo_inurba_marseille","lat":43.29271,"lon":5.36852,"is_reserved":false,"is_disabled":false,"rental_uris":{"android":"levelo://app?vid=d5edb018-84b2-430e-86cd-efa9a9176b7f","ios":"levelo://app?vid=d5edb018-84b2-430e-86cd-efa9a9176b7f"},"vehicle_type_id":"4","last_reported":1740658708,"current_range_meters":18800,"station_id":"ce4bhbp2rcd13ifvqesg","pricing_plan_id":"cebpf4jnsgd1na2vs0mg"},{"bike_id":"adb00dfe-d451-4af9-81da-4c4cab1ba78a","system_id":"levelo_inurba_marseille","lat":43.30469,"lon":5.37904,"is_reserved":false,"is_disabled":false,"rental_uris":{"android":"levelo://app?vid=adb00dfe-d451-4af9-81da-4c4cab1ba78a","ios":"levelo://app?vid=adb00dfe-d451-4af9-81da-4c4cab1ba78a"},"vehicle_type_id":"4","last_reported":1740658708,"current_range_meters":18000,"station_id":"ce4bgup2rcd13ifvqcn0","pricing_plan_id":"cebpf4jnsgd1na2vs0mg"},{"bike_id":"5169bf4e-5ac4-4560-9d3b-f48581611c45","system_id":"levelo_inurba_marseille","lat":43.25091,"lon":5.3951,"is_reserved":false,"is_disabled":false,"rental_uris":{"android":"levelo://app?vid=5169bf4e-5ac4-4560-9d3b-f48581611c45","ios":"levelo://app?vid=5169bf4e-5ac4-4560-9d3b-f48581611c45"},"vehicle_type_id":"4","last_reported":1740658708,"current_range_meters":9200,"station_id":"ce4bhm12rcd13ifvqgkg","pricing_plan_id":"cebpf4jnsgd1na2vs0mg"},{"bike_id":"d95ed205-f847-4a1b-ba58-fbca887b6d62","system_id":"levelo_inurba_marseille","lat":43.32476,"lon":5.36551,"is_reserved":false,"is_disabled":false,"rental_uris":{"android":"levelo://app?vid=d95ed205-f847-4a1b-ba58-fbca887b6d62","ios":"levelo://app?vid=d95ed205-f847-4a1b-ba58-fbca887b6d62"},"vehicle_type_id":"4","last_reported":1740658708,"current_range_meters":18000,"station_id":"ce4bhs12rcd13ifvqhvg","pricing_plan_id":"cebpf4jnsgd1na2vs0mg"},{"bike_id":"394ad06d-cd07-47bf-9d20-d3a92d1d606b","system_id":"levelo_inurba_marseille","lat":43.22938,"lon":5.35366,"is_reserved":false,"is_disabled":false,"rental_uris":{"android":"levelo://app?vid=394ad06d-cd07-47bf-9d20-d3a92d1d606b","ios":"levelo://app?vid=394ad06d-cd07-47bf-9d20-d3a92d1d606b"},"vehicle_type_id":"4","last_reported":1740658708,"current_range_meters":18000,"station_id":"cpo3532slgdg3j2ikp40","pricing_plan_id":"cebpf4jnsgd1na2vs0mg"},{"bike_id":"767ee1c4-7120-471b-bcda-60092f238ba8","system_id":"levelo_inurba_marseille","lat":43.29008,"lon":5.35606,"is_reserved":false,"is_disabled":false,"rental_uris":{"android":"levelo://app?vid=767ee1c4-7120-471b-bcda-60092f238ba8","ios":"levelo://app?vid=767ee1c4-7120-471b-bcda-60092f238ba8"},"vehicle_type_id":"4","last_reported":1740658708,"current_range_meters":17600,"station_id":"ce4bhb92rcd13ifvqen0","pricing_plan_id":"cebpf4jnsgd1na2vs0mg"},{"bike_id":"10e74813-e7fd-4703-88d2-ed12da6bc900","system_id":"levelo_inurba_marseille","lat":43.28346,"lon":5.38101,"is_reserved":false,"is_disabled":false,"rental_uris":{"android":"levelo://app?vid=10e74813-e7fd-4703-88d2-ed12da6bc900","ios":"levelo://app?vid=10e74813-e7fd-4703-88d2-ed12da6bc900"},"vehicle_type_id":"4","last_reported":1740658708,"current_range_meters":18000,"station_id":"ce4bh412rcd13ifvqdr0","pricing_plan_id":"cebpf4jnsgd1na2vs0mg"},{"bike_id":"97968477-bd0f-4221-be8d-027e485bf7ef","system_id":"levelo_inurba_marseille","lat":43.29024,"lon":5.38128,"is_reserved":false,"is_disabled":false,"rental_uris":{"android":"levelo://app?vid=97968477-bd0f-4221-be8d-027e485bf7ef","ios":"levelo://app?vid=97968477-bd0f-4221-be8d-027e485bf7ef"},"vehicle_type_id":"4","last_reported":1740658708,"current_range_meters":17600,"station_id":"ce4bh4p2rcd13ifvqe1g","pricing_plan_id":"cebpf4jnsgd1na2vs0mg"},{"bike_id":"b252b712-1c6b-4143-a5a6-c5e7a5869960","system_id":"levelo_inurba_marseille","lat":43.22936,"lon":5.35382,"is_reserved":false,"is_disabled":false,"rental_uris":{"android":"levelo://app?vid=b252b712-1c6b-4143-a5a6-c5e7a5869960","ios":"levelo://app?vid=b252b712-1c6b-4143-a5a6-c5e7a5869960"},"vehicle_type_id":"4","last_reported":1740658708,"current_range_meters":18800,"station_id":"cpo3532slgdg3j2ikp40","pricing_plan_id":"cebpf4jnsgd1na2vs0mg"},{"bike_id":"42613b90-f96e-41c5-8864-90dd1b35a09d","system_id":"levelo_inurba_marseille","lat":43.32354,"lon":5.3672,"is_reserved":false,"is_disabled":false,"rental_uris":{"android":"levelo://app?vid=42613b90-f96e-41c5-8864-90dd1b35a09d","ios":"levelo://app?vid=42613b90-f96e-41c5-8864-90dd1b35a09d"},"vehicle_type_id":"4","last_reported":1740658708,"current_range_meters":18800,"station_id":"ce4bhsh2rcd13ifvqi2g","pricing_plan_id":"cebpf4jnsgd1na2vs0mg"},{"bike_id":"cd6786ce-b1ba-41d6-8e88-79ca0602184d","system_id":"levelo_inurba_marseille","lat":43.28473,"lon":5.35889,"is_reserved":false,"is_disabled":false,"rental_uris":{"android":"levelo://app?vid=cd6786ce-b1ba-41d6-8e88-79ca0602184d","ios":"levelo://app?vid=cd6786ce-b1ba-41d6-8e88-79ca0602184d"},"vehicle_type_id":"4","last_reported":1740658708,"current_range_meters":18000,"station_id":"ce4bhah2rcd13ifvqei0","pricing_plan_id":"cebpf4jnsgd1na2vs0mg"},{"bike_id":"8e6c15f8-ed8b-4a60-89da-b24b80a520d1","system_id":"levelo_inurba_marseille","lat":43.30593,"lon":5.39352,"is_reserved":false,"is_disabled":false,"rental_uris":{"android":"levelo://app?vid=8e6c15f8-ed8b-4a60-89da-b24b80a520d1","ios":"levelo://app?vid=8e6c15f8-ed8b-4a60-89da-b24b80a520d1"},"vehicle_type_id":"4","last_reported":1740658708,"current_range_meters":18800,"station_id":"ce4bh0p2rcd13ifvqd80","pricing_plan_id":"cebpf4jnsgd1na2vs0mg"},{"bike_id":"eec7ba81-7d3c-47ab-a5d5-aaf95e2485ac","system_id":"levelo_inurba_marseille","lat":43.27376,"lon":5.36258,"is_reserved":false,"is_disabled":false,"rental_uris":{"android":"levelo://app?vid=eec7ba81-7d3c-47ab-a5d5-aaf95e2485ac","ios":"levelo://app?vid=eec7ba81-7d3c-47ab-a5d5-aaf95e2485ac"},"vehicle_type_id":"4","last_reported":1740658708,"current_range_meters":19200,"station_id":"ce4bhbh2rcd13ifvqeo0","pricing_plan_id":"cebpf4jnsgd1na2vs0mg"},{"bike_id":"379597be-28a3-4203-9949-b2f272d1ed27","system_id":"levelo_inurba_marseille","lat":43.2885,"lon":5.35852,"is_reserved":false,"is_disabled":false,"rental_uris":{"android":"levelo://app?vid=379597be-28a3-4203-9949-b2f272d1ed27","ios":"levelo://app?vid=379597be-28a3-4203-9949-b2f272d1ed27"},"vehicle_type_id":"4","last_reported":1740658708,"current_range_meters":18800,"station_id":"ce4bhb12rcd13ifvqem0","pricing_plan_id":"cebpf4jnsgd1na2vs0mg"},{"bike_id":"9825c28a-d416-46b3-8289-a829d8be4423","system_id":"levelo_inurba_marseille","lat":43.29604,"lon":5.37727,"is_reserved":false,"is_disabled":false,"rental_uris":{"android":"levelo://app?vid=9825c28a-d416-46b3-8289-a829d8be4423","ios":"levelo://app?vid=9825c28a-d416-46b3-8289-a829d8be4423"},"vehicle_type_id":"4","last_reported":1740658708,"current_range_meters":18000,"station_id":"ce4bgi92rcd13ifvqb90","pricing_plan_id":"cebpf4jnsgd1na2vs0mg"},{"bike_id":"e9bdbae0-8a4d-410d-ad63-99801402b176","system_id":"levelo_inurba_marseille","lat":43.23196,"lon":5.35548,"is_reserved":false,"is_disabled":false,"rental_uris":{"android":"levelo://app?vid=e9bdbae0-8a4d-410d-ad63-99801402b176","ios":"levelo://app?vid=e9bdbae0-8a4d-410d-ad63-99801402b176"},"vehicle_type_id":"4","last_reported":1740658708,"current_range_meters":19200,"station_id":"ce4bhu92rcd13ifvqi70","pricing_plan_id":"cebpf4jnsgd1na2vs0mg"},{"bike_id":"1cf0270a-c4c3-453b-a601-168b1c93207a","system_id":"levelo_inurba_marseille","lat":43.28468,"lon":5.35892,"is_reserved":false,"is_disabled":false,"rental_uris":{"android":"levelo://app?vid=1cf0270a-c4c3-453b-a601-168b1c93207a","ios":"levelo://app?vid=1cf0270a-c4c3-453b-a601-168b1c93207a"},"vehicle_type_id":"4","last_reported":1740658708,"current_range_meters":18800,"station_id":"ce4bhah2rcd13ifvqei0","pricing_plan_id":"cebpf4jnsgd1na2vs0mg"},{"bike_id":"ad061afa-92c1-4df4-968d-c8997bf13834","system_id":"levelo_inurba_marseille","lat":43.32483,"lon":5.36558,"is_reserved":false,"is_disabled":false,"rental_uris":{"android":"levelo://app?vid=ad061afa-92c1-4df4-968d-c8997bf13834","ios":"levelo://app?vid=ad061afa-92c1-4df4-968d-c8997bf13834"},"vehicle_type_id":"4","last_reported":1740658708,"current_range_meters":19200,"station_id":"ce4bhs12rcd13ifvqhvg","pricing_plan_id":"cebpf4jnsgd1na2vs0mg"},{"bike_id":"1781e498-dc3a-4061-a3d4-0b95f7ffa64d","system_id":"levelo_inurba_marseille","lat":43.29579,"lon":5.37493,"is_reserved":false,"is_disabled":false,"rental_uris":{"android":"levelo://app?vid=1781e498-dc3a-4061-a3d4-0b95f7ffa64d","ios":"levelo://app?vid=1781e498-dc3a-4061-a3d4-0b95f7ffa64d"},"vehicle_type_id":"4","last_reported":1740658708,"current_range_meters":19200,"station_id":"ce4bgh92rcd13ifvqb50","pricing_plan_id":"cebpf4jnsgd1na2vs0mg"},{"bike_id":"e8b85302-e507-4cfc-9b13-91d083099675","system_id":"levelo_inurba_marseille","lat":43.25576,"lon":5.3823,"is_reserved":false,"is_disabled":false,"rental_uris":{"android":"levelo://app?vid=e8b85302-e507-4cfc-9b13-91d083099675","ios":"levelo://app?vid=e8b85302-e507-4cfc-9b13-91d083099675"},"vehicle_type_id":"4","last_reported":1740658708,"current_range_meters":19200,"station_id":"ce4bhih2rcd13ifvqfs0","pricing_plan_id":"cebpf4jnsgd1na2vs0mg"},{"bike_id":"72e13381-6a7d-489e-b90a-73da111253fb","system_id":"levelo_inurba_marseille","lat":43.29101,"lon":5.38131,"is_reserved":false,"is_disabled":false,"rental_uris":{"android":"levelo://app?vid=72e13381-6a7d-489e-b90a-73da111253fb","ios":"levelo://app?vid=72e13381-6a7d-489e-b90a-73da111253fb"},"vehicle_type_id":"4","last_reported":1740658708,"current_range_meters":19600,"station_id":"ce4bh512rcd13ifvqe2g","pricing_plan_id":"cebpf4jnsgd1na2vs0mg"},{"bike_id":"9d897a88-36f3-414d-a245-fa7e5e676f43","system_id":"levelo_inurba_marseille","lat":43.2844,"lon":5.34997,"is_reserved":false,"is_disabled":false,"rental_uris":{"android":"levelo://app?vid=9d897a88-36f3-414d-a245-fa7e5e676f43","ios":"levelo://app?vid=9d897a88-36f3-414d-a245-fa7e5e676f43"},"vehicle_type_id":"4","last_reported":1740658708,"current_range_meters":19600,"station_id":"ce4bhbh2rcd13ifvqepg","pricing_plan_id":"cebpf4jnsgd1na2vs0mg"},{"bike_id":"e13a1a47-29bb-41d6-b479-d2746f986693","system_id":"levelo_inurba_marseille","lat":43.30429,"lon":5.3888,"is_reserved":false,"is_disabled":false,"rental_uris":{"android":"levelo://app?vid=e13a1a47-29bb-41d6-b479-d2746f986693","ios":"levelo://app?vid=e13a1a47-29bb-41d6-b479-d2746f986693"},"vehicle_type_id":"4","last_reported":1740658708,"current_range_meters":19200,"station_id":"ce4bgk12rcd13ifvqbi0","pricing_plan_id":"cebpf4jnsgd1na2vs0mg"},{"bike_id":"09a08648-2d6f-4bd8-8ba2-f195a36f435c","system_id":"levelo_inurba_marseille","lat":43.300084,"lon":5.374287,"is_reserved":false,"is_disabled":false,"rental_uris":{"android":"levelo://app?vid=09a08648-2d6f-4bd8-8ba2-f195a36f435c","ios":"levelo://app?vid=09a08648-2d6f-4bd8-8ba2-f195a36f435c"},"vehicle_type_id":"4","last_reported":1740658708,"current_range_meters":19600,"station_id":"","pricing_plan_id":"cebpf4jnsgd1na2vs0mg"},{"bike_id":"33ba4ecb-d7a6-4409-916d-2cd955866ae3","system_id":"levelo_inurba_marseille","lat":43.30141,"lon":5.38778,"is_reserved":false,"is_disabled":false,"rental_uris":{"android":"levelo://app?vid=33ba4ecb-d7a6-4409-916d-2cd955866ae3","ios":"levelo://app?vid=33ba4ecb-d7a6-4409-916d-2cd955866ae3"},"vehicle_type_id":"4","last_reported":1740658708,"current_range_meters":19600,"station_id":"ce4bghh2rcd13ifvqb60","pricing_plan_id":"cebpf4jnsgd1na2vs0mg"},{"bike_id":"f18ea0b8-1c28-4ebe-9486-b174eb03a9b4","system_id":"levelo_inurba_marseille","lat":43.29962,"lon":5.38721,"is_reserved":false,"is_disabled":false,"rental_uris":{"android":"levelo://app?vid=f18ea0b8-1c28-4ebe-9486-b174eb03a9b4","ios":"levelo://app?vid=f18ea0b8-1c28-4ebe-9486-b174eb03a9b4"},"vehicle_type_id":"4","last_reported":1740658708,"current_range_meters":19600,"station_id":"ce4bh092rcd13ifvqd20","pricing_plan_id":"cebpf4jnsgd1na2vs0mg"},{"bike_id":"9b8b26e6-f36d-4242-b804-362297d9c4b4","system_id":"levelo_inurba_marseille","lat":43.277737,"lon":5.392873,"is_reserved":false,"is_disabled":false,"rental_uris":{"android":"levelo://app?vid=9b8b26e6-f36d-4242-b804-362297d9c4b4","ios":"levelo://app?vid=9b8b26e6-f36d-4242-b804-362297d9c4b4"},"vehicle_type_id":"4","last_reported":1740658708,"current_range_meters":19600,"station_id":"ce4bhh92rcd13ifvqfh0","pricing_plan_id":"cebpf4jnsgd1na2vs0mg"},{"bike_id":"ba046582-c344-4c1c-bf10-e50589336ec9","system_id":"levelo_inurba_marseille","lat":43.25004,"lon":5.38931,"is_reserved":false,"is_disabled":false,"rental_uris":{"android":"levelo://app?vid=ba046582-c344-4c1c-bf10-e50589336ec9","ios":"levelo://app?vid=ba046582-c344-4c1c-bf10-e50589336ec9"},"vehicle_type_id":"4","last_reported":1740658708,"current_range_meters":19600,"station_id":"ce4bhgp2rcd13ifvqfd0","pricing_plan_id":"cebpf4jnsgd1na2vs0mg"},{"bike_id":"a7a09481-8c54-489c-970d-cec2532a23f2","system_id":"levelo_inurba_marseille","lat":43.30968,"lon":5.39032,"is_reserved":false,"is_disabled":false,"rental_uris":{"android":"levelo://app?vid=a7a09481-8c54-489c-970d-cec2532a23f2","ios":"levelo://app?vid=a7a09481-8c54-489c-970d-cec2532a23f2"},"vehicle_type_id":"4","last_reported":1740658708,"current_range_meters":19600,"station_id":"ce4bgup2rcd13ifvqco0","pricing_plan_id":"cebpf4jnsgd1na2vs0mg"},{"bike_id":"364b209e-752e-45ea-b26c-06b2552c1833","system_id":"levelo_inurba_marseille","lat":43.23201,"lon":5.3556,"is_reserved":false,"is_disabled":false,"rental_uris":{"android":"levelo://app?vid=364b209e-752e-45ea-b26c-06b2552c1833","ios":"levelo://app?vid=364b209e-752e-45ea-b26c-06b2552c1833"},"vehicle_type_id":"4","last_reported":1740658708,"current_range_meters":19600,"station_id":"ce4bhu92rcd13ifvqi70","pricing_plan_id":"cebpf4jnsgd1na2vs0mg"},{"bike_id":"d79774a6-7426-41ac-b7c6-85789974d608","system_id":"levelo_inurba_marseille","lat":43.25572,"lon":5.38225,"is_reserved":false,"is_disabled":false,"rental_uris":{"android":"levelo://app?vid=d79774a6-7426-41ac-b7c6-85789974d608","ios":"levelo://app?vid=d79774a6-7426-41ac-b7c6-85789974d608"},"vehicle_type_id":"4","last_reported":1740658708,"current_range_meters":19600,"station_id":"ce4bhih2rcd13ifvqfs0","pricing_plan_id":"cebpf4jnsgd1na2vs0mg"},{"bike_id":"49e9cdc7-76a5-4b66-ae2d-61c73beb73a8","system_id":"levelo_inurba_marseille","lat":43.24167,"lon":5.36397,"is_reserved":false,"is_disabled":false,"rental_uris":{"android":"levelo://app?vid=49e9cdc7-76a5-4b66-ae2d-61c73beb73a8","ios":"levelo://app?vid=49e9cdc7-76a5-4b66-ae2d-61c73beb73a8"},"vehicle_type_id":"4","last_reported":1740658708,"current_range_meters":19600,"station_id":"cpo36qri1sfpv3e86is0","pricing_plan_id":"cebpf4jnsgd1na2vs0mg"},{"bike_id":"3a70790f-c755-4858-ae51-dcce4024b075","system_id":"levelo_inurba_marseille","lat":43.3235,"lon":5.36726,"is_reserved":false,"is_disabled":false,"rental_uris":{"android":"levelo://app?vid=3a70790f-c755-4858-ae51-dcce4024b075","ios":"levelo://app?vid=3a70790f-c755-4858-ae51-dcce4024b075"},"vehicle_type_id":"4","last_reported":1740658708,"current_range_meters":19600,"station_id":"ce4bhsh2rcd13ifvqi2g","pricing_plan_id":"cebpf4jnsgd1na2vs0mg"},{"bike_id":"dec2d5c5-6562-41af-861e-0d732ec1b0d0","system_id":"levelo_inurba_marseille","lat":43.29617,"lon":5.37724,"is_reserved":false,"is_disabled":false,"rental_uris":{"android":"levelo://app?vid=dec2d5c5-6562-41af-861e-0d732ec1b0d0","ios":"levelo://app?vid=dec2d5c5-6562-41af-861e-0d732ec1b0d0"},"vehicle_type_id":"4","last_reported":1740658708,"current_range_meters":19200,"station_id":"ce4bgi92rcd13ifvqb90","pricing_plan_id":"cebpf4jnsgd1na2vs0mg"},{"bike_id":"480f3a54-f773-4d18-93d1-f8afa7b0f2dc","system_id":"levelo_inurba_marseille","lat":43.23191,"lon":5.35542,"is_reserved":false,"is_disabled":false,"rental_uris":{"android":"levelo://app?vid=480f3a54-f773-4d18-93d1-f8afa7b0f2dc","ios":"levelo://app?vid=480f3a54-f773-4d18-93d1-f8afa7b0f2dc"},"vehicle_type_id":"4","last_reported":1740658708,"current_range_meters":20000,"station_id":"ce4bhu92rcd13ifvqi70","pricing_plan_id":"cebpf4jnsgd1na2vs0mg"},