{"last_updated":1692522347,"ttl":30,"version":"2.2","data":{"bikes":[{"bike_id":"918f4bff-7103-4127-9e5a-a0986304de4a","system_id":"levelo_inurba_marseille","lat":43.313391,"lon":5.36706,"is_reserved":false,"is_disabled":false,"rental_uris":{"android":"levelo://app?vid=918f4bff-7103-4127-9e5a-a0986304de4a","ios":"levelo://app?vid=918f4bff-7103-4127-9e5a-a0986304de4a"},"vehicle_type_id":"4","last_reported":1692522347,"current_range_meters":8000,"station_id":"ce4bgr92rcd13ifvqc6g","pricing_plan_id":"free"},{"bike_id":"0f5837dc-f4e0-4b99-b093-6e2d534281b6","system_id":"levelo_inurba_marseille","lat":43.312239,"lon":5.368562,"is_reserved":false,"is_disabled":false,"rental_uris":{"android":"levelo://app?vid=0f5837dc-f4e0-4b99-b093-6e2d534281b6","ios":"levelo://app?vid=0f5837dc-f4e0-4b99-b093-6e2d534281b6"},"vehicle_type_id":"4","last_reported":1692522347,"current_range_meters":22000,"station_id":"ce4bgl92rcd13ifvqbq0","pricing_plan_id":"free"},{"bike_id":"f22ca441-4e4e-4660-b824-b2f46943e54d","system_id":"levelo_inurba_marseille","lat":43.312239,"lon":5.368562,"is_reserved":false,"is_disabled":false,"rental_uris":{"android":"levelo://app?vid=f22ca441-4e4e-4660-b824-b2f46943e54d","ios":"levelo://app?vid=f22ca441-4e4e-4660-b824-b2f46943e54d"},"vehicle_type_id":"4","last_reported":1692522347,"current_range_meters":31200,"station_id":"ce4bgl92rcd13ifvqbq0","pricing_plan_id":"free"},{"bike_id":"77d209a1-f36f-4e77-b651-212a006aea83","system_id":"levelo_inurba_marseille","lat":43.309076,"lon":5.368465,"is_reserved":false,"is_disabled":false,"rental_uris":{"android":"levelo://app?vid=77d209a1-f36f-4e77-b651-212a006aea83","ios":"levelo://app?vid=77d209a1-f36f-4e77-b651-212a006aea83"},"vehicle_type_id":"4","last_reported":1692522347,"current_range_meters":11600,"station_id":"ce4bgn92rcd13ifvqbvg","pricing_plan_id":"free"},{"bike_id":"bf534b59-1b4a-454c-8155-e2b4e69cfb77","system_id":"levelo_inurba_marseille","lat":43.314811,"lon":5.373103,"is_reserved":false,"is_disabled":false,"rental_uris":{"android":"levelo://app?vid=bf534b59-1b4a-454c-8155-e2b4e69cfb77","ios":"levelo://app?vid=bf534b59-1b4a-454c-8155-e2b4e69cfb77"},"vehicle_type_id":"4","last_reported":1692522347,"current_range_meters":16400,"station_id":"ce4bgt12rcd13ifvqcd0","pricing_plan_id":"free"},{"bike_id":"68394dab-1556-453a-be43-b648621d7484","system_id":"levelo_inurba_marseille","lat":43.31499,"lon":5.37303,"is_reserved":false,"is_disabled":false,"rental_uris":{"android":"levelo://app?vid=68394dab-1556-453a-be43-b648621d7484","ios":"levelo://app?vid=68394dab-1556-453a-be43-b648621d7484"},"vehicle_type_id":"4","last_reported":1692522347,"current_range_meters":1200,"station_id":"ce4bgt12rcd13ifvqcd0","pricing_plan_id":"free"},{"bike_id":"1ec1fc95-3051-4b9e-a138-6c62ea4f1d70","system_id":"levelo_inurba_marseille","lat":43.31502,"lon":5.37301,"is_reserved":false,"is_disabled":false,"rental_uris":{"android":"levelo://app?vid=1ec1fc95-3051-4b9e-a138-6c62ea4f1d70","ios":"levelo://app?vid=1ec1fc95-3051-4b9e-a138-6c62ea4f1d70"},"vehicle_type_id":"4","last_reported":1692522347,"current_range_meters":18000,"station_id":"ce4bgt12rcd13ifvqcd0","pricing_plan_id":"free"},{"bike_id":"3cabd68b-bf0a-4879-af31-5d4702e43b6f","system_id":"levelo_inurba_marseille","lat":43.305712,"lon":5.365641,"is_reserved":false,"is_disabled":false,"rental_uris":{"android":"levelo://app?vid=3cabd68b-bf0a-4879-af31-5d4702e43b6f","ios":"levelo://app?vid=3cabd68b-bf0a-4879-af31-5d4702e43b6f"},"vehicle_type_id":"4","last_reported":1692522347,"current_range_meters":31200,"station_id":"ce4bgs12rcd13ifvqcag","pricing_plan_id":"free"},{"bike_id":"3717e9dc-e1e7-4cca-9a60-f0977001ab0b","system_id":"levelo_inurba_marseille","lat":43.30551,"lon":5.36697,"is_reserved":false,"is_disabled":false,"rental_uris":{"android":"levelo://app?vid=3717e9dc-e1e7-4cca-9a60-f0977001ab0b","ios":"levelo://app?vid=3717e9dc-e1e7-4cca-9a60-f0977001ab0b"},"vehicle_type_id":"4","last_reported":1692522347,"current_range_meters":8000,"station_id":"ce4bgrp2rcd13ifvqc9g","pricing_plan_id":"free"},{"bike_id":"1c0b4e5f-8f55-4d2e-b430-91728a79cebc","system_id":"levelo_inurba_marseille","lat":43.305712,"lon":5.365641,"is_reserved":false,"is_disabled":false,"rental_uris":{"android":"levelo://app?vid=1c0b4e5f-8f55-4d2e-b430-91728a79cebc","ios":"levelo://app?vid=1c0b4e5f-8f55-4d2e-b430-91728a79cebc"},"vehicle_type_id":"4","last_reported":1692522347,"current_range_meters":27600,"station_id":"ce4bgs12rcd13ifvqcag","pricing_plan_id":"free"},{"bike_id":"d281892e-27c9-4aa8-a5c1-efe8475657f5","system_id":"levelo_inurba_marseille","lat":43.305712,"lon":5.365641,"is_reserved":false,"is_disabled":false,"rental_uris":{"android":"levelo://app?vid=d281892e-27c9-4aa8-a5c1-efe8475657f5","ios":"levelo://app?vid=d281892e-27c9-4aa8-a5c1-efe8475657f5"},"vehicle_type_id":"4","last_reported":1692522347,"current_range_meters":7200,"station_id":"ce4bgs12rcd13ifvqcag","pricing_plan_id":"free"},{"bike_id":"6c21074a-871a-4c36-a54a-33d1884b3a7b","system_id":"levelo_inurba_marseille","lat":43.30546,"lon":5.36715,"is_reserved":false,"is_disabled":false,"rental_uris":{"android":"levelo://app?vid=6c21074a-871a-4c36-a54a-33d1884b3a7b","ios":"levelo://app?vid=6c21074a-871a-4c36-a54a-33d1884b3a7b"},"vehicle_type_id":"4","last_reported":1692522347,"current_range_meters":27200,"station_id":"ce4bgrp2rcd13ifvqc9g","pricing_plan_id":"free"},{"bike_id":"37c17a04-ff72-4e38-aea4-99ff4e5cfff1","system_id":"levelo_inurba_marseille","lat":43.305712,"lon":5.365641,"is_reserved":false,"is_disabled":false,"rental_uris":{"android":"levelo://app?vid=37c17a04-ff72-4e38-aea4-99ff4e5cfff1","ios":"levelo://app?vid=37c17a04-ff72-4e38-aea4-99ff4e5cfff1"},"vehicle_type_id":"4","last_reported":1692522347,"current_range_meters":23600,"station_id":"ce4bgs12rcd13ifvqcag","pricing_plan_id":"free"},{"bike_id":"fa509d00-1824-496b-98b2-ea3e85929914","system_id":"levelo_inurba_marseille","lat":43.30552,"lon":5.36528,"is_reserved":false,"is_disabled":false,"rental_uris":{"android":"levelo://app?vid=fa509d00-1824-496b-98b2-ea3e85929914","ios":"levelo://app?vid=fa509d00-1824-496b-98b2-ea3e85929914"},"vehicle_type_id":"4","last_reported":1692522347,"current_range_meters":28000,"station_id":"ce4bgs12rcd13ifvqcag","pricing_plan_id":"free"},{"bike_id":"73bfd950-b1fa-4830-bd8f-9873ca432184","system_id":"levelo_inurba_marseille","lat":43.305712,"lon":5.365641,"is_reserved":false,"is_disabled":false,"rental_uris":{"android":"levelo://app?vid=73bfd950-b1fa-4830-bd8f-9873ca432184","ios":"levelo://app?vid=73bfd950-b1fa-4830-bd8f-9873ca432184"},"vehicle_type_id":"4","last_reported":1692522347,"current_range_meters":23200,"station_id":"ce4bgs12rcd13ifvqcag","pricing_plan_id":"free"},{"bike_id":"386ed8e3-b71e-4f68-86af-202c5b76503e","system_id":"levelo_inurba_marseille","lat":43.305368,"lon":5.367343,"is_reserved":false,"is_disabled":false,"rental_uris":{"android":"levelo://app?vid=386ed8e3-b71e-4f68-86af-202c5b76503e","ios":"levelo://app?vid=386ed8e3-b71e-4f68-86af-202c5b76503e"},"vehicle_type_id":"4","last_reported":1692522347,"current_range_meters":20800,"station_id":"ce4bgrp2rcd13ifvqc9g","pricing_plan_id":"free"},{"bike_id":"da4a88f0-9773-4607-ad27-139a565a2604","system_id":"levelo_inurba_marseille","lat":43.305368,"lon":5.367343,"is_reserved":false,"is_disabled":false,"rental_uris":{"android":"levelo://app?vid=da4a88f0-9773-4607-ad27-139a565a2604","ios":"levelo://app?vid=da4a88f0-9773-4607-ad27-139a565a2604"},"vehicle_type_id":"4","last_reported":1692522347,"current_range_meters":8000,"station_id":"ce4bgrp2rcd13ifvqc9g","pricing_plan_id":"free"},{"bike_id":"9916f694-953a-4ff8-8b0f-33f9e395f9c1","system_id":"levelo_inurba_marseille","lat":43.305706,"lon":5.365654,"is_reserved":false,"is_disabled":false,"rental_uris":{"android":"levelo://app?vid=9916f694-953a-4ff8-8b0f-33f9e395f9c1","ios":"levelo://app?vid=9916f694-953a-4ff8-8b0f-33f9e395f9c1"},"vehicle_type_id":"4","last_reported":1692522347,"current_range_meters":31200,"station_id":"ce4bgs12rcd13ifvqcag","pricing_plan_id":"free"},{"bike_id":"98074c26-ad71-45fd-a7c1-cef4912a9215","system_id":"levelo_inurba_marseille","lat":43.305368,"lon":5.367343,"is_reserved":false,"is_disabled":false,"rental_uris":{"android":"levelo://app?vid=98074c26-ad71-45fd-a7c1-cef4912a9215","ios":"levelo://app?vid=98074c26-ad71-45fd-a7c1-cef4912a9215"},"vehicle_type_id":"4","last_reported":1692522347,"current_range_meters":18400,"station_id":"ce4bgrp2rcd13ifvqc9g","pricing_plan_id":"free"},{"bike_id":"9fbe6e18-d192-44c2-98b5-cafb68b41aa4","system_id":"levelo_inurba_marseille","lat":43.30538,"lon":5.3653,"is_reserved":false,"is_disabled":false,"rental_uris":{"android":"levelo://app?vid=9fbe6e18-d192-44c2-98b5-cafb68b41aa4","ios":"levelo://app?vid=9fbe6e18-d192-44c2-98b5-cafb68b41aa4"},"vehicle_type_id":"4","last_reported":1692522347,"current_range_meters":7600,"station_id":"ce4bgs12rcd13ifvqcag","pricing_plan_id":"free"},{"bike_id":"fa9615b7-eb45-4cc2-9252-86c7e28f6bbf","system_id":"levelo_inurba_marseille","lat":43.305706,"lon":5.365654,"is_reserved":false,"is_disabled":false,"rental_uris":{"android":"levelo://app?vid=fa9615b7-eb45-4cc2-9252-86c7e28f6bbf","ios":"levelo://app?vid=fa9615b7-eb45-4cc2-9252-86c7e28f6bbf"},"vehicle_type_id":"4","last_reported":1692522347,"current_range_meters":26800,"station_id":"ce4bgs12rcd13ifvqcag","pricing_plan_id":"free"},{"bike_id":"6ac39044-75bd-4057-b409-2745d9af88bc","system_id":"levelo_inurba_marseille","lat":43.305706,"lon":5.365654,"is_reserved":false,"is_disabled":false,"rental_uris":{"android":"levelo://app?vid=6ac39044-75bd-4057-b409-2745d9af88bc","ios":"levelo://app?vid=6ac39044-75bd-4057-b409-2745d9af88bc"},"vehicle_type_id":"4","last_reported":1692522347,"current_range_meters":26400,"station_id":"ce4bgs12rcd13ifvqcag","pricing_plan_id":"free"},{"bike_id":"f02ac944-f75b-468f-ae33-067bf473780c","system_id":"levelo_inurba_marseille","lat":43.311131,"lon":5.377651,"is_reserved":false,"is_disabled":false,"rental_uris":{"android":"levelo://app?vid=f02ac944-f75b-468f-ae33-067bf473780c","ios":"levelo://app?vid=f02ac944-f75b-468f-ae33-067bf473780c"},"vehicle_type_id":"4","last_reported":1692522347,"current_range_meters":31200,"station_id":"ce4bgt92rcd13ifvqcg0","pricing_plan_id":"free"},{"bike_id":"10fbf2c9-ca66-4213-b78b-9f742ebfe632","system_id":"levelo_inurba_marseille","lat":43.311072,"lon":5.377977,"is_reserved":false,"is_disabled":false,"rental_uris":{"android":"levelo://app?vid=10fbf2c9-ca66-4213-b78b-9f742ebfe632","ios":"levelo://app?vid=10fbf2c9-ca66-4213-b78b-9f742ebfe632"},"vehicle_type_id":"4","last_reported":1692522347,"current_range_meters":11600,"station_id":"ce4bgt12rcd13ifvqce0","pricing_plan_id":"free"},{"bike_id":"414d4b2f-3369-440d-a0e7-70d3732151fb","system_id":"levelo_inurba_marseille","lat":43.30785,"lon":5.37645,"is_reserved":false,"is_disabled":false,"rental_uris":{"android":"levelo://app?vid=414d4b2f-3369-440d-a0e7-70d3732151fb","ios":"levelo://app?vid=414d4b2f-3369-440d-a0e7-70d3732151fb"},"vehicle_type_id":"4","last_reported":1692522347,"current_range_meters":30800,"station_id":"ce4bgv92rcd13ifvqcq0","pricing_plan_id":"free"},{"bike_id":"2030aa77-4544-426d-b6be-e6f407d98134","system_id":"levelo_inurba_marseille","lat":43.30783,"lon":5.37645,"is_reserved":false,"is_disabled":false,"rental_uris":{"android":"levelo://app?vid=2030aa77-4544-426d-b6be-e6f407d98134","ios":"levelo://app?vid=2030aa77-4544-426d-b6be-e6f407d98134"},"vehicle_type_id":"4","last_reported":1692522347,"current_range_meters":20400,"station_id":"ce4bgv92rcd13ifvqcq0","pricing_plan_id":"free"},{"bike_id":"1f18cbaf-dbf3-4748-b1af-0097256116f3","system_id":"levelo_inurba_marseille","lat":43.30781,"lon":5.37647,"is_reserved":false,"is_disabled":false,"rental_uris":{"android":"levelo://app?vid=1f18cbaf-dbf3-4748-b1af-0097256116f3","ios":"levelo://app?vid=1f18cbaf-dbf3-4748-b1af-0097256116f3"},"vehicle_type_id":"4","last_reported":1692522347,"current_range_meters":31200,"station_id":"ce4bgv92rcd13ifvqcq0","pricing_plan_id":"free"},{"bike_id":"3891919a-0e41-44e0-8bd0-d7ef18d2ea87","system_id":"levelo_inurba_marseille","lat":43.307945,"lon":5.376487,"is_reserved":false,"is_disabled":false,"rental_uris":{"android":"levelo://app?vid=3891919a-0e41-44e0-8bd0-d7ef18d2ea87","ios":"levelo://app?vid=3891919a-0e41-44e0-8bd0-d7ef18d2ea87"},"vehicle_type_id":"4","last_reported":1692522347,"current_range_meters":8000,"station_id":"ce4bgv92rcd13ifvqcq0","pricing_plan_id":"free"},{"bike_id":"0871042d-4c98-4a0d-a09d-36eb6b88fae9","system_id":"levelo_inurba_marseille","lat":43.31535,"lon":5.3803,"is_reserved":false,"is_disabled":false,"rental_uris":{"android":"levelo://app?vid=0871042d-4c98-4a0d-a09d-36eb6b88fae9","ios":"levelo://app?vid=0871042d-4c98-4a0d-a09d-36eb6b88fae9"},"vehicle_type_id":"4","last_reported":1692522347,"current_range_meters":20800,"station_id":"ce4bhsp2rcd13ifvqi50","pricing_plan_id":"free"},{"bike_id":"085bc78f-a00d-40ea-bdb2-3c59b5e756bf","system_id":"levelo_inurba_marseille","lat":43.30801,"lon":5.38146,"is_reserved":false,"is_disabled":false,"rental_uris":{"android":"levelo://app?vid=085bc78f-a00d-40ea-bdb2-3c59b5e756bf","ios":"levelo://app?vid=085bc78f-a00d-40ea-bdb2-3c59b5e756bf"},"vehicle_type_id":"4","last_reported":1692522347,"current_range_meters":21600,"station_id":"ce4bgt12rcd13ifvqce0","pricing_plan_id":"free"},{"bike_id":"ea627bdf-258e-4f9a-a7e2-cf1fda50cc03","system_id":"levelo_inurba_marseille","lat":43.304606,"lon":5.379026,"is_reserved":false,"is_disabled":false,"rental_uris":{"android":"levelo://app?vid=ea627bdf-258e-4f9a-a7e2-cf1fda50cc03","ios":"levelo://app?vid=ea627bdf-258e-4f9a-a7e2-cf1fda50cc03"},"vehicle_type_id":"4","last_reported":1692522347,"current_range_meters":28800,"station_id":"ce4bgup2rcd13ifvqcn0","pricing_plan_id":"free"},{"bike_id":"73e4dec4-d10c-4072-8644-d06ff4be6d45","system_id":"levelo_inurba_marseille","lat":43.304606,"lon":5.379026,"is_reserved":false,"is_disabled":false,"rental_uris":{"android":"levelo://app?vid=73e4dec4-d10c-4072-8644-d06ff4be6d45","ios":"levelo://app?vid=73e4dec4-d10c-4072-8644-d06ff4be6d45"},"vehicle_type_id":"4","last_reported":1692522347,"current_range_meters":25200,"station_id":"ce4bgup2rcd13ifvqcn0","pricing_plan_id":"free"},{"bike_id":"34797af6-6645-4354-a0ac-e22796cec287","system_id":"levelo_inurba_marseille","lat":43.304606,"lon":5.379026,"is_reserved":false,"is_disabled":false,"rental_uris":{"android":"levelo://app?vid=34797af6-6645-4354-a0ac-e22796cec287","ios":"levelo://app?vid=34797af6-6645-4354-a0ac-e22796cec287"},"vehicle_type_id":"4","last_reported":1692522347,"current_range_meters":5200,"station_id":"ce4bgup2rcd13ifvqcn0","pricing_plan_id":"free"},{"bike_id":"8c4ef346-53ac-4326-b79c-0c3785dff244","system_id":"levelo_inurba_marseille","lat":43.302784,"lon":5.377158,"is_reserved":false,"is_disabled":false,"rental_uris":{"android":"levelo://app?vid=8c4ef346-53ac-4326-b79c-0c3785dff244","ios":"levelo://app?vid=8c4ef346-53ac-4326-b79c-0c3785dff244"},"vehicle_type_id":"4","last_reported":1692522347,"current_range_meters":29200,"station_id":"ce4bguh2rcd13ifvqcj0","pricing_plan_id":"free"},{"bike_id":"9d7257a9-e3f6-4616-9b15-d63fe00e235e","system_id":"levelo_inurba_marseille","lat":43.30139,"lon":5.37417,"is_reserved":false,"is_disabled":false,"rental_uris":{"android":"levelo://app?vid=9d7257a9-e3f6-4616-9b15-d63fe00e235e","ios":"levelo://app?vid=9d7257a9-e3f6-4616-9b15-d63fe00e235e"},"vehicle_type_id":"4","last_reported":1692522347,"current_range_meters":14800,"station_id":"ce4bgs92rcd13ifvqcc0","pricing_plan_id":"free"},{"bike_id":"2853069c-edb4-47a8-8b6a-798f5cd95477","system_id":"levelo_inurba_marseille","lat":43.31999,"lon":5.38155,"is_reserved":false,"is_disabled":false,"rental_uris":{"android":"levelo://app?vid=2853069c-edb4-47a8-8b6a-798f5cd95477","ios":"levelo://app?vid=2853069c-edb4-47a8-8b6a-798f5cd95477"},"vehicle_type_id":"4","last_reported":1692522347,"current_range_meters":0,"station_id":"ce4bhr12rcd13ifvqhpg","pricing_plan_id":"free"},{"bike_id":"431a5782-99fd-46c0-aafc-6694d2976417","system_id":"levelo_inurba_marseille","lat":43.299222,"lon":5.365554,"is_reserved":false,"is_disabled":false,"rental_uris":{"android":"levelo://app?vid=431a5782-99fd-46c0-aafc-6694d2976417","ios":"levelo://app?vid=431a5782-99fd-46c0-aafc-6694d2976417"},"vehicle_type_id":"4","last_reported":1692522347,"current_range_meters":19200,"station_id":"ce4bgm92rcd13ifvqbr0","pricing_plan_id":"free"},{"bike_id":"a6346084-6168-4c19-8617-8d87c066e38e","system_id":"levelo_inurba_marseille","lat":43.29853,"lon":5.36288,"is_reserved":false,"is_disabled":false,"rental_uris":{"android":"levelo://app?vid=a6346084-6168-4c19-8617-8d87c066e38e","ios":"levelo://app?vid=a6346084-6168-4c19-8617-8d87c066e38e"},"vehicle_type_id":"4","last_reported":1692522347,"current_range_meters":4000,"station_id":"ce4bgpp2rcd13ifvqc3g","pricing_plan_id":"free"},{"bike_id":"bc55a5b4-469a-4297-a160-1f086c94b166","system_id":"levelo_inurba_marseille","lat":43.29851,"lon":5.36276,"is_reserved":false,"is_disabled":false,"rental_uris":{"android":"levelo://app?vid=bc55a5b4-469a-4297-a160-1f086c94b166","ios":"levelo://app?vid=bc55a5b4-469a-4297-a160-1f086c94b166"},"vehicle_type_id":"4","last_reported":1692522347,"current_range_meters":28800,"station_id":"ce4bgpp2rcd13ifvqc3g","pricing_plan_id":"free"},{"bike_id":"10fe88f4-7bd0-49fc-ba34-2bac9d1c1c7d","system_id":"levelo_inurba_marseille","lat":43.298433,"lon":5.362774,"is_reserved":false,"is_disabled":false,"rental_uris":{"android":"levelo://app?vid=10fe88f4-7bd0-49fc-ba34-2bac9d1c1c7d","ios":"levelo://app?vid=10fe88f4-7bd0-49fc-ba34-2bac9d1c1c7d"},"vehicle_type_id":"4","last_reported":1692522347,"current_range_meters":4000,"station_id":"ce4bgpp2rcd13ifvqc3g","pricing_plan_id":"free"},{"bike_id":"f151a372-c38d-4e54-b396-d25d9ce3ddc5","system_id":"levelo_inurba_marseille","lat":43.298433,"lon":5.362774,"is_reserved":false,"is_disabled":false,"rental_uris":{"android":"levelo://app?vid=f151a372-c38d-4e54-b396-d25d9ce3ddc5","ios":"levelo://app?vid=f151a372-c38d-4e54-b396-d25d9ce3ddc5"},"vehicle_type_id":"4","last_reported":1692522347,"current_range_meters":18000,"station_id":"ce4bgpp2rcd13ifvqc3g","pricing_plan_id":"free"},{"bike_id":"f2d3f1cb-af47-47f8-b7fa-cebe5aae4bb1","system_id":"levelo_inurba_marseille","lat":43.305364,"lon":5.384119,"is_reserved":false,"is_disabled":false,"rental_uris":{"android":"levelo://app?vid=f2d3f1cb-af47-47f8-b7fa-cebe5aae4bb1","ios":"levelo://app?vid=f2d3f1cb-af47-47f8-b7fa-cebe5aae4bb1"},"vehicle_type_id":"4","last_reported":1692522347,"current_range_meters":24000,"station_id":"ce4bgg92rcd13ifvqb30","pricing_plan_id":"free"},{"bike_id":"779b0bc6-dbb4-4b52-a916-a3fe3269bec3","system_id":"levelo_inurba_marseille","lat":43.29848,"lon":5.36267,"is_reserved":false,"is_disabled":false,"rental_uris":{"android":"levelo://app?vid=779b0bc6-dbb4-4b52-a916-a3fe3269bec3","ios":"levelo://app?vid=779b0bc6-dbb4-4b52-a916-a3fe3269bec3"},"vehicle_type_id":"4","last_reported":1692522347,"current_range_meters":10000,"station_id":"ce4bgpp2rcd13ifvqc3g","pricing_plan_id":"free"},{"bike_id":"1b6dc66f-c2f3-4533-ba1d-be7f61dc1aec","system_id":"levelo_inurba_marseille","lat":43.29846,"lon":5.3627,"is_reserved":false,"is_disabled":false,"rental_uris":{"android":"levelo://app?vid=1b6dc66f-c2f3-4533-ba1d-be7f61dc1aec","ios":"levelo://app?vid=1b6dc66f-c2f3-4533-ba1d-be7f61dc1aec"},"vehicle_type_id":"4","last_reported":1692522347,"current_range_meters":27600,"station_id":"ce4bgpp2rcd13ifvqc3g","pricing_plan_id":"free"},{"bike_id":"ee68da55-7e34-4abe-ac81-a751499383a9","system_id":"levelo_inurba_marseille","lat":43.29843,"lon":5.36267,"is_reserved":false,"is_disabled":false,"rental_uris":{"android":"levelo://app?vid=ee68da55-7e34-4abe-ac81-a751499383a9","ios":"levelo://app?vid=ee68da55-7e34-4abe-ac81-a751499383a9"},"vehicle_type_id":"4","last_reported":1692522347,"current_range_meters":7200,"station_id":"ce4bgpp2rcd13ifvqc3g","pricing_plan_id":"free"},{"bike_id":"bdd69662-aac6-4283-ab62-7749e7155359","system_id":"levelo_inurba_marseille","lat":43.298433,"lon":5.362774,"is_reserved":false,"is_disabled":false,"rental_uris":{"android":"levelo://app?vid=bdd69662-aac6-4283-ab62-7749e7155359","ios":"levelo://app?vid=bdd69662-aac6-4283-ab62-7749e7155359"},"vehicle_type_id":"4","last_reported":1692522347,"current_range_meters":4000,"station_id":"ce4bgpp2rcd13ifvqc3g","pricing_plan_id":"free"},{"bike_id":"dffca9b9-7dca-4c9f-87cc-916579c157ae","system_id":"levelo_inurba_marseille","lat":43.305364,"lon":5.384119,"is_reserved":false,"is_disabled":false,"rental_uris":{"android":"levelo://app?vid=dffca9b9-7dca-4c9f-87cc-916579c157ae","ios":"levelo://app?vid=dffca9b9-7dca-4c9f-87cc-916579c157ae"},"vehicle_type_id":"4","last_reported":1692522347,"current_range_meters":13600,"station_id":"ce4bgg92rcd13ifvqb30","pricing_plan_id":"free"},{"bike_id":"5b85dc91-18f9-4b0d-947f-8fdd25de6d15","system_id":"levelo_inurba_marseille","lat":43.2992,"lon":5.37466,"is_reserved":false,"is_disabled":false,"rental_uris":{"android":"levelo://app?vid=5b85dc91-18f9-4b0d-947f-8fdd25de6d15","ios":"levelo://app?vid=5b85dc91-18f9-4b0d-947f-8fdd25de6d15"},"vehicle_type_id":"4","last_reported":1692522347,"current_range_meters":23600,"station_id":"ce4bgjh2rcd13ifvqbg0","pricing_plan_id":"free"},{"bike_id":"10b59d93-04c8-4d2d-8663-1f76d0e8a456","system_id":"levelo_inurba_marseille","lat":43.29841,"lon":5.36265,"is_reserved":false,"is_disabled":false,"rental_uris":{"android":"levelo://app?vid=10b59d93-04c8-4d2d-8663-1f76d0e8a456","ios":"levelo://app?vid=10b59d93-04c8-4d2d-8663-1f76d0e8a456"},"vehicle_type_id":"4","last_reported":1692522347,"current_range_meters":20000,"station_id":"","pricing_plan_id":"free"},{"bike_id":"b885f463-e8c5-42cc-902f-7152167ce1c7","system_id":"levelo_inurba_marseille","lat":43.299243,"lon":5.374807,"is_reserved":false,"is_disabled":false,"rental_uris":{"android":"levelo://app?vid=b885f463-e8c5-42cc-902f-7152167ce1c7","ios":"levelo://app?vid=b885f463-e8c5-42cc-902f-7152167ce1c7"},"vehicle_type_id":"4","last_reported":1692522347,"current_range_meters":31200,"station_id":"ce4bgjh2rcd13ifvqbg0","pricing_plan_id":"free"},{"bike_id":"b10d01ad-705a-47fc-af5c-f008db9f4ec8","system_id":"levelo_inurba_marseille","lat":43.311722,"lon":5.387247,"is_reserved":false,"is_disabled":false,"rental_uris":{"android":"levelo://app?vid=b10d01ad-705a-47fc-af5c-f008db9f4ec8","ios":"levelo://app?vid=b10d01ad-705a-47fc-af5c-f008db9f4ec8"},"vehicle_type_id":"4","last_reported":1692522347,"current_range_meters":29200,"station_id":"ce4bgv12rcd13ifvqcp0","pricing_plan_id":"free"},{"bike_id":"b815ce0f-8c6d-460d-8747-b98d1251b4b3","system_id":"levelo_inurba_marseille","lat":43.32287,"lon":5.38259,"is_reserved":false,"is_disabled":false,"rental_uris":{"android":"levelo://app?vid=b815ce0f-8c6d-460d-8747-b98d1251b4b3","ios":"levelo://app?vid=b815ce0f-8c6d-460d-8747-b98d1251b4b3"},"vehicle_type_id":"4","last_reported":1692522347,"current_range_meters":12400,"station_id":"ce4bhr12rcd13ifvqhqg","pricing_plan_id":"free"},{"bike_id":"5b5c8cae-b425-4976-9ba8-5ae205664d6b","system_id":"levelo_inurba_marseille","lat":43.322872,"lon":5.382756,"is_reserved":false,"is_disabled":false,"rental_uris":{"android":"levelo://app?vid=5b5c8cae-b425-4976-9ba8-5ae205664d6b","ios":"levelo://app?vid=5b5c8cae-b425-4976-9ba8-5ae205664d6b"},"vehicle_type_id":"4","last_reported":1692522347,"current_range_meters":15200,"station_id":"ce4bhr12rcd13ifvqhqg","pricing_plan_id":"free"},{"bike_id":"a1f7b084-f437-4e0c-8b20-334f54c48d59","system_id":"levelo_inurba_marseille","lat":43.32289,"lon":5.38268,"is_reserved":false,"is_disabled":false,"rental_uris":{"android":"levelo://app?vid=a1f7b084-f437-4e0c-8b20-334f54c48d59","ios":"levelo://app?vid=a1f7b084-f437-4e0c-8b20-334f54c48d59"},"vehicle_type_id":"4","last_reported":1692522347,"current_range_meters":15200,"station_id":"ce4bhr12rcd13ifvqhqg","pricing_plan_id":"free"},{"bike_id":"b9784bc4-a1f4-4e7b-a996-3746dcc4c656","system_id":"levelo_inurba_marseille","lat":43.32285,"lon":5.38279,"is_reserved":false,"is_disabled":false,"rental_uris":{"android":"levelo://app?vid=b9784bc4-a1f4-4e7b-a996-3746dcc4c656","ios":"levelo://app?vid=b9784bc4-a1f4-4e7b-a996-3746dcc4c656"},"vehicle_type_id":"4","last_reported":1692522347,"current_range_meters":6800,"station_id":"ce4bhr12rcd13ifvqhqg","pricing_plan_id":"free"},{"bike_id":"110bd150-ae2d-4085-890c-a8f4481980e0","system_id":"levelo_inurba_marseille","lat":43.32292,"lon":5.38279,"is_reserved":false,"is_disabled":false,"rental_uris":{"android":"levelo://app?vid=110bd150-ae2d-4085-890c-a8f4481980e0","ios":"levelo://app?vid=110bd150-ae2d-4085-890c-a8f4481980e0"},"vehicle_type_id":"4","last_reported":1692522347,"current_range_meters":26400,"station_id":"ce4bhr12rcd13ifvqhqg","pricing_plan_id":"free"},{"bike_id":"2ab2c619-9cfb-4da7-9f78-cfb4995f9eec","system_id":"levelo_inurba_marseille","lat":43.32824,"lon":5.3668,"is_reserved":false,"is_disabled":false,"rental_uris":{"android":"levelo://app?vid=2ab2c619-9cfb-4da7-9f78-cfb4995f9eec","ios":"levelo://app?vid=2ab2c619-9cfb-4da7-9f78-cfb4995f9eec"},"vehicle_type_id":"4","last_reported":1692522347,"current_range_meters":4400,"station_id":"ce4bhs92rcd13ifvqi0g","pricing_plan_id":"free"},{"bike_id":"0f135836-946e-4e91-9b15-72b385cbdf04","system_id":"levelo_inurba_marseille","lat":43.32829,"lon":5.36682,"is_reserved":false,"is_disabled":false,"rental_uris":{"android":"levelo://app?vid=0f135836-946e-4e91-9b15-72b385cbdf04","ios":"levelo://app?vid=0f135836-946e-4e91-9b15-72b385cbdf04"},"vehicle_type_id":"4","last_reported":1692522347,"current_range_meters":29600,"station_id":"ce4bhs92rcd13ifvqi0g","pricing_plan_id":"free"},{"bike_id":"8b690c23-4a98-4df1-9daa-6933971461a8","system_id":"levelo_inurba_marseille","lat":43.297163,"lon":5.365866,"is_reserved":false,"is_disabled":false,"rental_uris":{"android":"levelo://app?vid=8b690c23-4a98-4df1-9daa-6933971461a8","ios":"levelo://app?vid=8b690c23-4a98-4df1-9daa-6933971461a8"},"vehicle_type_id":"4","last_reported":1692522347,"current_range_meters":30400,"station_id":"ce4bgn12rcd13ifvqbt0","pricing_plan_id":"free"},{"bike_id":"50222553-8f1e-49ae-9441-9ae2fa986a24","system_id":"levelo_inurba_marseille","lat":43.297163,"lon":5.365866,"is_reserved":false,"is_disabled":false,"rental_uris":{"android":"levelo://app?vid=50222553-8f1e-49ae-9441-9ae2fa986a24","ios":"levelo://app?vid=50222553-8f1e-49ae-9441-9ae2fa986a24"},"vehicle_type_id":"4","last_reported":1692522347,"current_range_meters":30400,"station_id":"ce4bgn12rcd13ifvqbt0","pricing_plan_id":"free"},{"bike_id":"3ae83bd7-4f98-4718-85d0-b16eb97344f2","system_id":"levelo_inurba_marseille","lat":43.297163,"lon":5.365866,"is_reserved":false,"is_disabled":false,"rental_uris":{"android":"levelo://app?vid=3ae83bd7-4f98-4718-85d0-b16eb97344f2","ios":"levelo://app?vid=3ae83bd7-4f98-4718-85d0-b16eb97344f2"},"vehicle_type_id":"4","last_reported":1692522347,"current_range_meters":31200,"station_id":"ce4bgn12rcd13ifvqbt0","pricing_plan_id":"free"},{"bike_id":"dd789220-e7b5-42c1-b9dc-dc4243148021","system_id":"levelo_inurba_marseille","lat":43.297163,"lon":5.365866,"is_reserved":false,"is_disabled":false,"rental_uris":{"android":"levelo://app?vid=dd789220-e7b5-42c1-b9dc-dc4243148021","ios":"levelo://app?vid=dd789220-e7b5-42c1-b9dc-dc4243148021"},"vehicle_type_id":"4","last_reported":1692522347,"current_range_meters":31200,"station_id":"ce4bgn12rcd13ifvqbt0","pricing_plan_id":"free"},{"bike_id":"17bd0f22-6938-44b6-897b-6a7c689c5ebc","system_id":"levelo_inurba_marseille","lat":43.297163,"lon":5.365866,"is_reserved":false,"is_disabled":false,"rental_uris":{"android":"levelo://app?vid=17bd0f22-6938-44b6-897b-6a7c689c5ebc","ios":"levelo://app?vid=17bd0f22-6938-44b6-897b-6a7c689c5ebc"},"vehicle_type_id":"4","last_reported":1692522347,"current_range_meters":31200,"station_id":"ce4bgn12rcd13ifvqbt0","pricing_plan_id":"free"},{"bike_id":"8d3741f6-6ed0-4edc-883f-0df4a46380ac","system_id":"levelo_inurba_marseille","lat":43.29573,"lon":5.367355,"is_reserved":false,"is_disabled":false,"rental_uris":{"android":"levelo://app?vid=8d3741f6-6ed0-4edc-883f-0df4a46380ac","ios":"levelo://app?vid=8d3741f6-6ed0-4edc-883f-0df4a46380ac"},"vehicle_type_id":"4","last_reported":1692522347,"current_range_meters":27200,"station_id":"ce4bgph2rcd13ifvqc2g","pricing_plan_id":"free"},{"bike_id":"bb155e93-116e-494a-9911-2df351c7dae8","system_id":"levelo_inurba_marseille","lat":43.296131,"lon":5.370773,"is_reserved":false,"is_disabled":false,"rental_uris":{"android":"levelo://app?vid=bb155e93-116e-494a-9911-2df351c7dae8","ios":"levelo://app?vid=bb155e93-116e-494a-9911-2df351c7dae8"},"vehicle_type_id":"4","last_reported":1692522347,"current_range_meters":27600,"station_id":"ce4bgnh2rcd13ifvqc0g","pricing_plan_id":"free"},{"bike_id":"d097f605-5e29-429a-a82f-ad6c3875e957","system_id":"levelo_inurba_marseille","lat":43.29573,"lon":5.367355,"is_reserved":false,"is_disabled":false,"rental_uris":{"android":"levelo://app?vid=d097f605-5e29-429a-a82f-ad6c3875e957","ios":"levelo://app?vid=d097f605-5e29-429a-a82f-ad6c3875e957"},"vehicle_type_id":"4","last_reported":1692522347,"current_range_meters":28000,"station_id":"ce4bgph2rcd13ifvqc2g","pricing_plan_id":"free"},{"bike_id":"e0eefc6e-efae-4317-ae1f-3d684f408c90","system_id":"levelo_inurba_marseille","lat":43.29573,"lon":5.367355,"is_reserved":false,"is_disabled":false,"rental_uris":{"android":"levelo://app?vid=e0eefc6e-efae-4317-ae1f-3d684f408c90","ios":"levelo://app?vid=e0eefc6e-efae-4317-ae1f-3d684f408c90"},"vehicle_type_id":"4","last_reported":1692522347,"current_range_meters":32000,"station_id":"ce4bgph2rcd13ifvqc2g","pricing_plan_id":"free"},{"bike_id":"05f2e128-9f52-4587-919b-eb5a74119d9d","system_id":"levelo_inurba_marseille","lat":43.29573,"lon":5.367355,"is_reserved":false,"is_disabled":false,"rental_uris":{"android":"levelo://app?vid=05f2e128-9f52-4587-919b-eb5a74119d9d","ios":"levelo://app?vid=05f2e128-9f52-4587-919b-eb5a74119d9d"},"vehicle_type_id":"4","last_reported":1692522347,"current_range_meters":27200,"station_id":"ce4bgph2rcd13ifvqc2g","pricing_plan_id":"free"},{"bike_id":"7968fe91-7df1-44ea-bc3c-15ca2a90137d","system_id":"levelo_inurba_marseille","lat":43.29573,"lon":5.367355,"is_reserved":false,"is_disabled":false,"rental_uris":{"android":"levelo://app?vid=7968fe91-7df1-44ea-bc3c-15ca2a90137d","ios":"levelo://app?vid=7968fe91-7df1-44ea-bc3c-15ca2a90137d"},"vehicle_type_id":"4","last_reported":1692522347,"current_range_meters":21600,"station_id":"ce4bgph2rcd13ifvqc2g","pricing_plan_id":"free"},{"bike_id":"8b1dc445-3f8b-44d3-bd44-0919468962d0","system_id":"levelo_inurba_marseille","lat":43.29573,"lon":5.367355,"is_reserved":false,"is_disabled":false,"rental_uris":{"android":"levelo://app?vid=8b1dc445-3f8b-44d3-bd44-0919468962d0","ios":"levelo://app?vid=8b1dc445-3f8b-44d3-bd44-0919468962d0"},"vehicle_type_id":"4","last_reported":1692522347,"current_range_meters":31200,"station_id":"ce4bgph2rcd13ifvqc2g","pricing_plan_id":"free"},{"bike_id":"2046ab76-b90a-4409-bca3-bf621061c688","system_id":"levelo_inurba_marseille","lat":43.29573,"lon":5.367355,"is_reserved":false,"is_disabled":false,"rental_uris":{"android":"levelo://app?vid=2046ab76-b90a-4409-bca3-bf621061c688","ios":"levelo://app?vid=2046ab76-b90a-4409-bca3-bf621061c688"},"vehicle_type_id":"4","last_reported":1692522347,"current_range_meters":30400,"station_id":"ce4bgph2rcd13ifvqc2g","pricing_plan_id":"free"},{"bike_id":"d3139180-8ba9-4c91-b6e4-8baae3c22113","system_id":"levelo_inurba_marseille","lat":43.29615,"lon":5.37189,"is_reserved":false,"is_disabled":false,"rental_uris":{"android":"levelo://app?vid=d3139180-8ba9-4c91-b6e4-8baae3c22113","ios":"levelo://app?vid=d3139180-8ba9-4c91-b6e4-8baae3c22113"},"vehicle_type_id":"4","last_reported":1692522347,"current_range_meters":30400,"station_id":"","pricing_plan_id":"free"},{"bike_id":"cbd80046-0bf1-4fa5-9c4b-4504f427b478","system_id":"levelo_inurba_marseille","lat":43.296921,"lon":5.376579,"is_reserved":false,"is_disabled":false,"rental_uris":{"android":"levelo://app?vid=cbd80046-0bf1-4fa5-9c4b-4504f427b478","ios":"levelo://app?vid=cbd80046-0bf1-4fa5-9c4b-4504f427b478"},"vehicle_type_id":"4","last_reported":1692522347,"current_range_meters":31200,"station_id":"ce4bgkh2rcd13ifvqbl0","pricing_plan_id":"free"},{"bike_id":"690fd256-b938-4333-a8a8-d1b715312c77","system_id":"levelo_inurba_marseille","lat":43.296921,"lon":5.376579,"is_reserved":false,"is_disabled":false,"rental_uris":{"android":"levelo://app?vid=690fd256-b938-4333-a8a8-d1b715312c77","ios":"levelo://app?vid=690fd256-b938-4333-a8a8-d1b715312c77"},"vehicle_type_id":"4","last_reported":1692522347,"current_range_meters":29200,"station_id":"ce4bgkh2rcd13ifvqbl0","pricing_plan_id":"free"},{"bike_id":"a4df99ce-0488-49dd-a888-94686f562e88","system_id":"levelo_inurba_marseille","lat":43.295748,"lon":5.37522,"is_reserved":false,"is_disabled":false,"rental_uris":{"android":"levelo://app?vid=a4df99ce-0488-49dd-a888-94686f562e88","ios":"levelo://app?vid=a4df99ce-0488-49dd-a888-94686f562e88"},"vehicle_type_id":"4","last_reported":1692522347,"current_range_meters":29600,"station_id":"ce4bgh92rcd13ifvqb50","pricing_plan_id":"free"},{"bike_id":"9c217422-46c0-4f10-bf1a-aca164d00601","system_id":"levelo_inurba_marseille","lat":43.29797,"lon":5.38117,"is_reserved":false,"is_disabled":false,"rental_uris":{"android":"levelo://app?vid=9c217422-46c0-4f10-bf1a-aca164d00601","ios":"levelo://app?vid=9c217422-46c0-4f10-bf1a-aca164d00601"},"vehicle_type_id":"4","last_reported":1692522347,"current_range_meters":26000,"station_id":"ce4bgip2rcd13ifvqbb0","pricing_plan_id":"free"},{"bike_id":"c911c0b8-f014-43d9-ad2c-06bae204fbe6","system_id":"levelo_inurba_marseille","lat":43.29622,"lon":5.37715,"is_reserved":false,"is_disabled":false,"rental_uris":{"android":"levelo://app?vid=c911c0b8-f014-43d9-ad2c-06bae204fbe6","ios":"levelo://app?vid=c911c0b8-f014-43d9-ad2c-06bae204fbe6"},"vehicle_type_id":"4","last_reported":1692522347,"current_range_meters":23200,"station_id":"ce4bgi92rcd13ifvqb90","pricing_plan_id":"free"},{"bike_id":"967f7c88-8b7b-4515-bc80-4d98d4209fbb","system_id":"levelo_inurba_marseille","lat":43.295279,"lon":5.375048,"is_reserved":false,"is_disabled":false,"rental_uris":{"android":"levelo://app?vid=967f7c88-8b7b-4515-bc80-4d98d4209fbb","ios":"levelo://app?vid=967f7c88-8b7b-4515-bc80-4d98d4209fbb"},"vehicle_type_id":"4","last_reported":1692522347,"current_range_meters":28000,"station_id":"ce4bgkp2rcd13ifvqbmg","pricing_plan_id":"free"},{"bike_id":"7175cace-86eb-4f9d-868f-151fa0df1a94","system_id":"levelo_inurba_marseille","lat":43.295279,"lon":5.375048,"is_reserved":false,"is_disabled":false,"rental_uris":{"android":"levelo://app?vid=7175cace-86eb-4f9d-868f-151fa0df1a94","ios":"levelo://app?vid=7175cace-86eb-4f9d-868f-151fa0df1a94"},"vehicle_type_id":"4","last_reported":1692522347,"current_range_meters":12800,"station_id":"ce4bgkp2rcd13ifvqbmg","pricing_plan_id":"free"},{"bike_id":"5e54519c-b104-4f60-94bb-dd1b0bc6e225","system_id":"levelo_inurba_marseille","lat":43.295279,"lon":5.375048,"is_reserved":false,"is_disabled":false,"rental_uris":{"android":"levelo://app?vid=5e54519c-b104-4f60-94bb-dd1b0bc6e225","ios":"levelo://app?vid=5e54519c-b104-4f60-94bb-dd1b0bc6e225"},"vehicle_type_id":"4","last_reported":1692522347,"current_range_meters":800,"station_id":"ce4bgkp2rcd13ifvqbmg","pricing_plan_id":"free"},{"bike_id":"7b6258d5-0f8c-41ff-b881-aa92bb954465","system_id":"levelo_inurba_marseille","lat":43.309589,"lon":5.390258,"is_reserved":false,"is_disabled":false,"rental_uris":{"android":"levelo://app?vid=7b6258d5-0f8c-41ff-b881-aa92bb954465","ios":"levelo://app?vid=7b6258d5-0f8c-41ff-b881-aa92bb954465"},"vehicle_type_id":"4","last_reported":1692522347,"current_range_meters":14000,"station_id":"ce4bgup2rcd13ifvqco0","pricing_plan_id":"free"},{"bike_id":"23d61178-fcaa-4ba4-aee4-746c25e5b4bf","system_id":"levelo_inurba_marseille","lat":43.33083,"lon":5.37468,"is_reserved":false,"is_disabled":false,"rental_uris":{"android":"levelo://app?vid=23d61178-fcaa-4ba4-aee4-746c25e5b4bf","ios":"levelo://app?vid=23d61178-fcaa-4ba4-aee4-746c25e5b4bf"},"vehicle_type_id":"4","last_reported":1692522347,"current_range_meters":26800,"station_id":"","pricing_plan_id":"free"},{"bike_id":"21fcea45-e491-4a85-bcbf-bf5cd0b62ccf","system_id":"levelo_inurba_marseille","lat":43.32367,"lon":5.388836,"is_reserved":false,"is_disabled":false,"rental_uris":{"android":"levelo://app?vid=21fcea45-e491-4a85-bcbf-bf5cd0b62ccf","ios":"levelo://app?vid=21fcea45-e491-4a85-bcbf-bf5cd0b62ccf"},"vehicle_type_id":"4","last_reported":1692522347,"current_range_meters":29200,"station_id":"ce4bhqp2rcd13ifvqhog","pricing_plan_id":"free"},{"bike_id":"a97f77a2-1520-4bfc-9df0-0f9c62851caa","system_id":"levelo_inurba_marseille","lat":43.32367,"lon":5.388836,"is_reserved":false,"is_disabled":false,"rental_uris":{"android":"levelo://app?vid=a97f77a2-1520-4bfc-9df0-0f9c62851caa","ios":"levelo://app?vid=a97f77a2-1520-4bfc-9df0-0f9c62851caa"},"vehicle_type_id":"4","last_reported":1692522347,"current_range_meters":24800,"station_id":"ce4bhqp2rcd13ifvqhog","pricing_plan_id":"free"},{"bike_id":"6b6cba89-d2b8-44bb-8454-5df08cf65f67","system_id":"levelo_inurba_marseille","lat":43.32367,"lon":5.38882,"is_reserved":false,"is_disabled":false,"rental_uris":{"android":"levelo://app?vid=6b6cba89-d2b8-44bb-8454-5df08cf65f67","ios":"levelo://app?vid=6b6cba89-d2b8-44bb-8454-5df08cf65f67"},"vehicle_type_id":"4","last_reported":1692522347,"current_range_meters":9200,"station_id":"ce4bhqp2rcd13ifvqhog","pricing_plan_id":"free"},{"bike_id":"0126f869-77bb-4690-a14f-53e2dd9d4689","system_id":"levelo_inurba_marseille","lat":43.3237,"lon":5.38888,"is_reserved":false,"is_disabled":false,"rental_uris":{"android":"levelo://app?vid=0126f869-77bb-4690-a14f-53e2dd9d4689","ios":"levelo://app?vid=0126f869-77bb-4690-a14f-53e2dd9d4689"},"vehicle_type_id":"4","last_reported":1692522347,"current_range_meters":22400,"station_id":"ce4bhqp2rcd13ifvqhog","pricing_plan_id":"free"},{"bike_id":"c85002fe-92c2-473f-abf7-fe946a543948","system_id":"levelo_inurba_marseille","lat":43.292749,"lon":5.368402,"is_reserved":false,"is_disabled":false,"rental_uris":{"android":"levelo://app?vid=c85002fe-92c2-473f-abf7-fe946a543948","ios":"levelo://app?vid=c85002fe-92c2-473f-abf7-fe946a543948"},"vehicle_type_id":"4","last_reported":1692522347,"current_range_meters":29200,"station_id":"ce4bhbp2rcd13ifvqesg","pricing_plan_id":"free"},{"bike_id":"17488dce-5a76-4992-8e06-fc75a674499c","system_id":"levelo_inurba_marseille","lat":43.292749,"lon":5.368398,"is_reserved":false,"is_disabled":false,"rental_uris":{"android":"levelo://app?vid=17488dce-5a76-4992-8e06-fc75a674499c","ios":"levelo://app?vid=17488dce-5a76-4992-8e06-fc75a674499c"},"vehicle_type_id":"4","last_reported":1692522347,"current_range_meters":30400,"station_id":"ce4bhbp2rcd13ifvqesg","pricing_plan_id":"free"},{"bike_id":"e4599d0c-5641-4bde-92e4-28a45222171d","system_id":"levelo_inurba_marseille","lat":43.29301,"lon":5.37164,"is_reserved":false,"is_disabled":false,"rental_uris":{"android":"levelo://app?vid=e4599d0c-5641-4bde-92e4-28a45222171d","ios":"levelo://app?vid=e4599d0c-5641-4bde-92e4-28a45222171d"},"vehicle_type_id":"4","last_reported":1692522347,"current_range_meters":0,"station_id":"ce4bgh92rcd13ifvqb40","pricing_plan_id":"free"},{"bike_id":"38fef587-7cc5-4800-b069-87b8f296a10a","system_id":"levelo_inurba_marseille","lat":43.29306,"lon":5.37445,"is_reserved":false,"is_disabled":false,"rental_uris":{"android":"levelo://app?vid=38fef587-7cc5-4800-b069-87b8f296a10a","ios":"levelo://app?vid=38fef587-7cc5-4800-b069-87b8f296a10a"},"vehicle_type_id":"4","last_reported":1692522347,"current_range_meters":30800,"station_id":"ce4bgi12rcd13ifvqb70","pricing_plan_id":"free"},{"bike_id":"aaf7fc41-ed51-48c5-a604-5f4cf1fb06d9","system_id":"levelo_inurba_marseille","lat":43.29305,"lon":5.37467,"is_reserved":false,"is_disabled":false,"rental_uris":{"android":"levelo://app?vid=aaf7fc41-ed51-48c5-a604-5f4cf1fb06d9","ios":"levelo://app?vid=aaf7fc41-ed51-48c5-a604-5f4cf1fb06d9"},"vehicle_type_id":"4","last_reported":1692522347,"current_range_meters":23600,"station_id":"ce4bgi12rcd13ifvqb70","pricing_plan_id":"free"},{"bike_id":"0724f352-a262-45b7-9b71-9a09ff17d945","system_id":"levelo_inurba_marseille","lat":43.302992,"lon":5.392136,"is_reserved":false,"is_disabled":false,"rental_uris":{"android":"levelo://app?vid=0724f352-a262-45b7-9b71-9a09ff17d945","ios":"levelo://app?vid=0724f352-a262-45b7-9b71-9a09ff17d945"},"vehicle_type_id":"4","last_reported":1692522347,"current_range_meters":20800,"station_id":"ce4bgkh2rcd13ifvqbk0","pricing_plan_id":"free"},{"bike_id":"968dc671-0d0f-48f9-a0e7-0f4d1f4b3c8c","system_id":"levelo_inurba_marseille","lat":43.2936,"lon":5.37835,"is_reserved":false,"is_disabled":false,"rental_uris":{"android":"levelo://app?vid=968dc671-0d0f-48f9-a0e7-0f4d1f4b3c8c","ios":"levelo://app?vid=968dc671-0d0f-48f9-a0e7-0f4d1f4b3c8c"},"vehicle_type_id":"4","last_reported":1692522347,"current_range_meters":6400,"station_id":"ce4bgjh2rcd13ifvqbf0","pricing_plan_id":"free"},{"bike_id":"eb4cc9fa-8402-47ac-8c3b-253ec647aa42","system_id":"levelo_inurba_marseille","lat":43.292311,"lon":5.360731,"is_reserved":false,"is_disabled":false,"rental_uris":{"android":"levelo://app?vid=eb4cc9fa-8402-47ac-8c3b-253ec647aa42","ios":"levelo://app?vid=eb4cc9fa-8402-47ac-8c3b-253ec647aa42"},"vehicle_type_id":"4","last_reported":1692522347,"current_range_meters":26000,"station_id":"ce4bhbh2rcd13ifvqeqg","pricing_plan_id":"free"},{"bike_id":"580f7ace-680c-4e93-a8a1-a2df793bbefa","system_id":"levelo_inurba_marseille","lat":43.29232,"lon":5.3607,"is_reserved":false,"is_disabled":false,"rental_uris":{"android":"levelo://app?vid=580f7ace-680c-4e93-a8a1-a2df793bbefa","ios":"levelo://app?vid=580f7ace-680c-4e93-a8a1-a2df793bbefa"},"vehicle_type_id":"4","last_reported":1692522347,"current_range_meters":23600,"station_id":"ce4bhbh2rcd13ifvqeqg","pricing_plan_id":"free"},{"bike_id":"59cfaeeb-3033-4799-951c-e095929793ba","system_id":"levelo_inurba_marseille","lat":43.292311,"lon":5.360731,"is_reserved":false,"is_disabled":false,"rental_uris":{"android":"levelo://app?vid=59cfaeeb-3033-4799-951c-e095929793ba","ios":"levelo://app?vid=59cfaeeb-3033-4799-951c-e095929793ba"},"vehicle_type_id":"4","last_reported":1692522347,"current_range_meters":30000,"station_id":"ce4bhbh2rcd13ifvqeqg","pricing_plan_id":"free"},{"bike_id":"581ded5e-adc9-455c-9e5b-bb02e395fcfa","system_id":"levelo_inurba_marseille","lat":43.292311,"lon":5.360731,"is_reserved":false,"is_disabled":false,"rental_uris":{"android":"levelo://app?vid=581ded5e-adc9-455c-9e5b-bb02e395fcfa","ios":"levelo://app?vid=581ded5e-adc9-455c-9e5b-bb02e395fcfa"},"vehicle_type_id":"4","last_reported":1692522347,"current_range_meters":15200,"station_id":"ce4bhbh2rcd13ifvqeqg","pricing_plan_id":"free"},{"bike_id":"443913ce-27ca-4f4d-81fd-0606640137a5","system_id":"levelo_inurba_marseille","lat":43.292311,"lon":5.360731,"is_reserved":false,"is_disabled":false,"rental_uris":{"android":"levelo://app?vid=443913ce-27ca-4f4d-81fd-0606640137a5","ios":"levelo://app?vid=443913ce-27ca-4f4d-81fd-0606640137a5"},"vehicle_type_id":"4","last_reported":1692522347,"current_range_meters":31200,"station_id":"ce4bhbh2rcd13ifvqeqg","pricing_plan_id":"free"},{"bike_id":"c7aa7b08-930a-4096-ba7c-d517a87033a4","system_id":"levelo_inurba_marseille","lat":43.292663,"lon":5.376389,"is_reserved":false,"is_disabled":false,"rental_uris":{"android":"levelo://app?vid=c7aa7b08-930a-4096-ba7c-d517a87033a4","ios":"levelo://app?vid=c7aa7b08-930a-4096-ba7c-d517a87033a4"},"vehicle_type_id":"4","last_reported":1692522347,"current_range_meters":8800,"station_id":"ce4bgi12rcd13ifvqb80","pricing_plan_id":"free"},{"bike_id":"bbb707ae-cb54-4645-bafb-fe4a1b86da86","system_id":"levelo_inurba_marseille","lat":43.291994,"lon":5.357886,"is_reserved":false,"is_disabled":false,"rental_uris":{"android":"levelo://app?vid=bbb707ae-cb54-4645-bafb-fe4a1b86da86","ios":"levelo://app?vid=bbb707ae-cb54-4645-bafb-fe4a1b86da86"},"vehicle_type_id":"4","last_reported":1692522347,"current_range_meters":20800,"station_id":"ce4bhb12rcd13ifvqel0","pricing_plan_id":"free"},{"bike_id":"553f2c0b-014d-4fea-adc9-66f0b276080c","system_id":"levelo_inurba_marseille","lat":43.29198,"lon":5.35799,"is_reserved":false,"is_disabled":false,"rental_uris":{"android":"levelo://app?vid=553f2c0b-014d-4fea-adc9-66f0b276080c","ios":"levelo://app?vid=553f2c0b-014d-4fea-adc9-66f0b276080c"},"vehicle_type_id":"4","last_reported":1692522347,"current_range_meters":18000,"station_id":"ce4bhb12rcd13ifvqel0","pricing_plan_id":"free"},{"bike_id":"d47a48cb-076d-4c41-ad94-a02ea1c5dcc4","system_id":"levelo_inurba_marseille","lat":43.29196,"lon":5.358,"is_reserved":false,"is_disabled":false,"rental_uris":{"android":"levelo://app?vid=d47a48cb-076d-4c41-ad94-a02ea1c5dcc4","ios":"levelo://app?vid=d47a48cb-076d-4c41-ad94-a02ea1c5dcc4"},"vehicle_type_id":"4","last_reported":1692522347,"current_range_meters":31200,"station_id":"ce4bhb12rcd13ifvqel0","pricing_plan_id":"free"},{"bike_id":"413b1772-b604-47da-bab2-02cc619e8edf","system_id":"levelo_inurba_marseille","lat":43.29194,"lon":5.35805,"is_reserved":false,"is_disabled":false,"rental_uris":{"android":"levelo://app?vid=413b1772-b604-47da-bab2-02cc619e8edf","ios":"levelo://app?vid=413b1772-b604-47da-bab2-02cc619e8edf"},"vehicle_type_id":"4","last_reported":1692522347,"current_range_meters":13600,"station_id":"ce4bhb12rcd13ifvqel0","pricing_plan_id":"free"},{"bike_id":"7ca90e72-0b45-447a-a16d-0d2c4452b118","system_id":"levelo_inurba_marseille","lat":43.294153,"lon":5.386305,"is_reserved":false,"is_disabled":false,"rental_uris":{"android":"levelo://app?vid=7ca90e72-0b45-447a-a16d-0d2c4452b118","ios":"levelo://app?vid=7ca90e72-0b45-447a-a16d-0d2c4452b118"},"vehicle_type_id":"4","last_reported":1692522347,"current_range_meters":28400,"station_id":"ce4bh2h2rcd13ifvqdh0","pricing_plan_id":"free"},{"bike_id":"4e8ef7cd-2ded-4b79-bb9e-5a7edb60f5d8","system_id":"levelo_inurba_marseille","lat":43.292644,"lon":5.384257,"is_reserved":false,"is_disabled":false,"rental_uris":{"android":"levelo://app?vid=4e8ef7cd-2ded-4b79-bb9e-5a7edb60f5d8","ios":"levelo://app?vid=4e8ef7cd-2ded-4b79-bb9e-5a7edb60f5d8"},"vehicle_type_id":"4","last_reported":1692522347,"current_range_meters":24000,"station_id":"ce4bh692rcd13ifvqea0","pricing_plan_id":"free"},{"bike_id":"5250c97a-d928-4c37-a519-f5e6e12a392e","system_id":"levelo_inurba_marseille","lat":43.29273,"lon":5.3845,"is_reserved":false,"is_disabled":false,"rental_uris":{"android":"levelo://app?vid=5250c97a-d928-4c37-a519-f5e6e12a392e","ios":"levelo://app?vid=5250c97a-d928-4c37-a519-f5e6e12a392e"},"vehicle_type_id":"4","last_reported":1692522347,"current_range_meters":12400,"station_id":"","pricing_plan_id":"free"},{"bike_id":"e968eb39-f604-4f1c-9915-f5122b5420a3","system_id":"levelo_inurba_marseille","lat":43.304296,"lon":5.397513,"is_reserved":false,"is_disabled":false,"rental_uris":{"android":"levelo://app?vid=e968eb39-f604-4f1c-9915-f5122b5420a3","ios":"levelo://app?vid=e968eb39-f604-4f1c-9915-f5122b5420a3"},"vehicle_type_id":"4","last_reported":1692522347,"current_range_meters":29600,"station_id":"ce4bh092rcd13ifvqd20","pricing_plan_id":"free"},{"bike_id":"f148d69d-9570-4455-b8cb-4df9f2836069","system_id":"levelo_inurba_marseille","lat":43.295748,"lon":5.37522,"is_reserved":false,"is_disabled":false,"rental_uris":{"android":"levelo://app?vid=f148d69d-9570-4455-b8cb-4df9f2836069","ios":"levelo://app?vid=f148d69d-9570-4455-b8cb-4df9f2836069"},"vehicle_type_id":"4","last_reported":1692522347,"current_range_meters":22800,"station_id":"ce4bgh92rcd13ifvqb50","pricing_plan_id":"free"},{"bike_id":"7dee72c8-a3a4-4116-95b0-bd960299542c","system_id":"levelo_inurba_marseille","lat":43.29012,"lon":5.35615,"is_reserved":false,"is_disabled":false,"rental_uris":{"android":"levelo://app?vid=7dee72c8-a3a4-4116-95b0-bd960299542c","ios":"levelo://app?vid=7dee72c8-a3a4-4116-95b0-bd960299542c"},"vehicle_type_id":"4","last_reported":1692522347,"current_range_meters":30400,"station_id":"ce4bhb92rcd13ifvqen0","pricing_plan_id":"free"},{"bike_id":"e9183941-6594-4086-af9a-dcea4442d4f5","system_id":"levelo_inurba_marseille","lat":43.2901,"lon":5.35621,"is_reserved":false,"is_disabled":false,"rental_uris":{"android":"levelo://app?vid=e9183941-6594-4086-af9a-dcea4442d4f5","ios":"levelo://app?vid=e9183941-6594-4086-af9a-dcea4442d4f5"},"vehicle_type_id":"4","last_reported":1692522347,"current_range_meters":25200,"station_id":"ce4bhb92rcd13ifvqen0","pricing_plan_id":"free"},{"bike_id":"5036c72a-6252-47f4-a9fb-50fd514d506a","system_id":"levelo_inurba_marseille","lat":43.33039,"lon":5.38918,"is_reserved":false,"is_disabled":false,"rental_uris":{"android":"levelo://app?vid=5036c72a-6252-47f4-a9fb-50fd514d506a","ios":"levelo://app?vid=5036c72a-6252-47f4-a9fb-50fd514d506a"},"vehicle_type_id":"4","last_reported":1692522347,"current_range_meters":20800,"station_id":"ce4bhr92rcd13ifvqhrg","pricing_plan_id":"free"},{"bike_id":"16105e4d-cb4a-4aae-91bb-2ecd41a7406b","system_id":"levelo_inurba_marseille","lat":43.33042,"lon":5.38916,"is_reserved":false,"is_disabled":false,"rental_uris":{"android":"levelo://app?vid=16105e4d-cb4a-4aae-91bb-2ecd41a7406b","ios":"levelo://app?vid=16105e4d-cb4a-4aae-91bb-2ecd41a7406b"},"vehicle_type_id":"4","last_reported":1692522347,"current_range_meters":20800,"station_id":"ce4bhr92rcd13ifvqhrg","pricing_plan_id":"free"},{"bike_id":"331b6e0a-8cfc-4305-9eef-0266cde03da7","system_id":"levelo_inurba_marseille","lat":43.3304,"lon":5.38921,"is_reserved":false,"is_disabled":false,"rental_uris":{"android":"levelo://app?vid=331b6e0a-8cfc-4305-9eef-0266cde03da7","ios":"levelo://app?vid=331b6e0a-8cfc-4305-9eef-0266cde03da7"},"vehicle_type_id":"4","last_reported":1692522347,"current_range_meters":14000,"station_id":"ce4bhr92rcd13ifvqhrg","pricing_plan_id":"free"},{"bike_id":"e87842db-6583-4e08-82f9-3dbff949d18d","system_id":"levelo_inurba_marseille","lat":43.29009,"lon":5.35613,"is_reserved":false,"is_disabled":false,"rental_uris":{"android":"levelo://app?vid=e87842db-6583-4e08-82f9-3dbff949d18d","ios":"levelo://app?vid=e87842db-6583-4e08-82f9-3dbff949d18d"},"vehicle_type_id":"4","last_reported":1692522347,"current_range_meters":21200,"station_id":"ce4bhb92rcd13ifvqen0","pricing_plan_id":"free"},{"bike_id":"aa5970aa-4eb4-4d7f-bdde-1410f0c5026b","system_id":"levelo_inurba_marseille","lat":43.29011,"lon":5.35605,"is_reserved":false,"is_disabled":false,"rental_uris":{"android":"levelo://app?vid=aa5970aa-4eb4-4d7f-bdde-1410f0c5026b","ios":"levelo://app?vid=aa5970aa-4eb4-4d7f-bdde-1410f0c5026b"},"vehicle_type_id":"4","last_reported":1692522347,"current_range_meters":26800,"station_id":"ce4bhb92rcd13ifvqen0","pricing_plan_id":"free"},{"bike_id":"de450cac-4370-4660-9455-3e94463307a2","system_id":"levelo_inurba_marseille","lat":43.3304,"lon":5.38922,"is_reserved":false,"is_disabled":false,"rental_uris":{"android":"levelo://app?vid=de450cac-4370-4660-9455-3e94463307a2","ios":"levelo://app?vid=de450cac-4370-4660-9455-3e94463307a2"},"vehicle_type_id":"4","last_reported":1692522347,"current_range_meters":16000,"station_id":"ce4bhr92rcd13ifvqhrg","pricing_plan_id":"free"},{"bike_id":"09fc32b9-9cad-4093-8a8b-6f7361f23b6f","system_id":"levelo_inurba_marseille","lat":43.2901,"lon":5.35606,"is_reserved":false,"is_disabled":false,"rental_uris":{"android":"levelo://app?vid=09fc32b9-9cad-4093-8a8b-6f7361f23b6f","ios":"levelo://app?vid=09fc32b9-9cad-4093-8a8b-6f7361f23b6f"},"vehicle_type_id":"4","last_reported":1692522347,"current_range_meters":24800,"station_id":"ce4bhb92rcd13ifvqen0","pricing_plan_id":"free"},{"bike_id":"a5d7998c-4c76-4390-bbcf-8c2a2abd7eba","system_id":"levelo_inurba_marseille","lat":43.3304,"lon":5.38923,"is_reserved":false,"is_disabled":false,"rental_uris":{"android":"levelo://app?vid=a5d7998c-4c76-4390-bbcf-8c2a2abd7eba","ios":"levelo://app?vid=a5d7998c-4c76-4390-bbcf-8c2a2abd7eba"},"vehicle_type_id":"4","last_reported":1692522347,"current_range_meters":29600,"station_id":"ce4bhr92rcd13ifvqhrg","pricing_plan_id":"free"},{"bike_id":"a64b8170-4f22-42b1-bf04-f0ea7767b287","system_id":"levelo_inurba_marseille","lat":43.33047,"lon":5.38914,"is_reserved":false,"is_disabled":false,"rental_uris":{"android":"levelo://app?vid=a64b8170-4f22-42b1-bf04-f0ea7767b287","ios":"levelo://app?vid=a64b8170-4f22-42b1-bf04-f0ea7767b287"},"vehicle_type_id":"4","last_reported":1692522347,"current_range_meters":26800,"station_id":"ce4bhr92rcd13ifvqhrg","pricing_plan_id":"free"},{"bike_id":"c8619c93-5f6a-45f4-8e07-c81fcc1e21be","system_id":"levelo_inurba_marseille","lat":43.33044,"lon":5.38919,"is_reserved":false,"is_disabled":false,"rental_uris":{"android":"levelo://app?vid=c8619c93-5f6a-45f4-8e07-c81fcc1e21be","ios":"levelo://app?vid=c8619c93-5f6a-45f4-8e07-c81fcc1e21be"},"vehicle_type_id":"4","last_reported":1692522347,"current_range_meters":25200,"station_id":"ce4bhr92rcd13ifvqhrg","pricing_plan_id":"free"},{"bike_id":"86eac789-1e56-496d-abfa-705e29d378c7","system_id":"levelo_inurba_marseille","lat":43.33043,"lon":5.38921,"is_reserved":false,"is_disabled":false,"rental_uris":{"android":"levelo://app?vid=86eac789-1e56-496d-abfa-705e29d378c7","ios":"levelo://app?vid=86eac789-1e56-496d-abfa-705e29d378c7"},"vehicle_type_id":"4","last_reported":1692522347,"current_range_meters":28000,"station_id":"ce4bhr92rcd13ifvqhrg","pricing_plan_id":"free"},{"bike_id":"9e24a65c-fe1e-45dc-88b9-dd0cad85064c","system_id":"levelo_inurba_marseille","lat":43.33046,"lon":5.38917,"is_reserved":false,"is_disabled":false,"rental_uris":{"android":"levelo://app?vid=9e24a65c-fe1e-45dc-88b9-dd0cad85064c","ios":"levelo://app?vid=9e24a65c-fe1e-45dc-88b9-dd0cad85064c"},"vehicle_type_id":"4","last_reported":1692522347,"current_range_meters":28000,"station_id":"ce4bhr92rcd13ifvqhrg","pricing_plan_id":"free"},{"bike_id":"3b3e7c42-cded-4bde-b175-99650afa4f17","system_id":"levelo_inurba_marseille","lat":43.33046,"lon":5.38918,"is_reserved":false,"is_disabled":false,"rental_uris":{"android":"levelo://app?vid=3b3e7c42-cded-4bde-b175-99650afa4f17","ios":"levelo://app?vid=3b3e7c42-cded-4bde-b175-99650afa4f17"},"vehicle_type_id":"4","last_reported":1692522347,"current_range_meters":22400,"station_id":"ce4bhr92rcd13ifvqhrg","pricing_plan_id":"free"},{"bike_id":"708f7f21-b221-4c14-94b6-b5d8e3289350","system_id":"levelo_inurba_marseille","lat":43.33045,"lon":5.3892,"is_reserved":false,"is_disabled":false,"rental_uris":{"android":"levelo://app?vid=708f7f21-b221-4c14-94b6-b5d8e3289350","ios":"levelo://app?vid=708f7f21-b221-4c14-94b6-b5d8e3289350"},"vehicle_type_id":"4","last_reported":1692522347,"current_range_meters":19200,"station_id":"ce4bhr92rcd13ifvqhrg","pricing_plan_id":"free"},{"bike_id":"20d816b3-f28e-43cb-8799-88d52aa25eea","system_id":"levelo_inurba_marseille","lat":43.29005,"lon":5.35615,"is_reserved":false,"is_disabled":false,"rental_uris":{"android":"levelo://app?vid=20d816b3-f28e-43cb-8799-88d52aa25eea","ios":"levelo://app?vid=20d816b3-f28e-43cb-8799-88d52aa25eea"},"vehicle_type_id":"4","last_reported":1692522347,"current_range_meters":30800,"station_id":"ce4bhb92rcd13ifvqen0","pricing_plan_id":"free"},{"bike_id":"fd294525-4438-40f9-a6c7-be2a15ddc66f","system_id":"levelo_inurba_marseille","lat":43.29007,"lon":5.35607,"is_reserved":false,"is_disabled":false,"rental_uris":{"android":"levelo://app?vid=fd294525-4438-40f9-a6c7-be2a15ddc66f","ios":"levelo://app?vid=fd294525-4438-40f9-a6c7-be2a15ddc66f"},"vehicle_type_id":"4","last_reported":1692522347,"current_range_meters":27600,"station_id":"ce4bhb92rcd13ifvqen0","pricing_plan_id":"free"},{"bike_id":"86535332-25ae-4735-984f-2b7a7387a6af","system_id":"levelo_inurba_marseille","lat":43.33044,"lon":5.38922,"is_reserved":false,"is_disabled":false,"rental_uris":{"android":"levelo://app?vid=86535332-25ae-4735-984f-2b7a7387a6af","ios":"levelo://app?vid=86535332-25ae-4735-984f-2b7a7387a6af"},"vehicle_type_id":"4","last_reported":1692522347,"current_range_meters":28400,"station_id":"ce4bhr92rcd13ifvqhrg","pricing_plan_id":"free"},{"bike_id":"70576a93-fbdb-4696-908e-c08c0f1995f8","system_id":"levelo_inurba_marseille","lat":43.33046,"lon":5.3892,"is_reserved":false,"is_disabled":false,"rental_uris":{"android":"levelo://app?vid=70576a93-fbdb-4696-908e-c08c0f1995f8","ios":"levelo://app?vid=70576a93-fbdb-4696-908e-c08c0f1995f8"},"vehicle_type_id":"4","last_reported":1692522347,"current_range_meters":24000,"station_id":"ce4bhr92rcd13ifvqhrg","pricing_plan_id":"free"},{"bike_id":"e429b713-493c-491c-995b-bd395ab69951","system_id":"levelo_inurba_marseille","lat":43.29006,"lon":5.35607,"is_reserved":false,"is_disabled":false,"rental_uris":{"android":"levelo://app?vid=e429b713-493c-491c-995b-bd395ab69951","ios":"levelo://app?vid=e429b713-493c-491c-995b-bd395ab69951"},"vehicle_type_id":"4","last_reported":1692522347,"current_range_meters":12800,"station_id":"ce4bhb92rcd13ifvqen0","pricing_plan_id":"free"},{"bike_id":"4acef044-58d4-4046-9f8b-3557af517e74","system_id":"levelo_inurba_marseille","lat":43.33045,"lon":5.38923,"is_reserved":false,"is_disabled":false,"rental_uris":{"android":"levelo://app?vid=4acef044-58d4-4046-9f8b-3557af517e74","ios":"levelo://app?vid=4acef044-58d4-4046-9f8b-3557af517e74"},"vehicle_type_id":"4","last_reported":1692522347,"current_range_meters":10400,"station_id":"ce4bhr92rcd13ifvqhrg","pricing_plan_id":"free"},{"bike_id":"d2b15eb2-4474-4e56-aace-fe335ab0092e","system_id":"levelo_inurba_marseille","lat":43.33047,"lon":5.3892,"is_reserved":false,"is_disabled":false,"rental_uris":{"android":"levelo://app?vid=d2b15eb2-4474-4e56-aace-fe335ab0092e","ios":"levelo://app?vid=d2b15eb2-4474-4e56-aace-fe335ab0092e"},"vehicle_type_id":"4","last_reported":1692522347,"current_range_meters":13200,"station_id":"ce4bhr92rcd13ifvqhrg","pricing_plan_id":"free"},{"bike_id":"024f4d94-1555-4991-925c-5e7448051bbb","system_id":"levelo_inurba_marseille","lat":43.33046,"lon":5.38922,"is_reserved":false,"is_disabled":false,"rental_uris":{"android":"levelo://app?vid=024f4d94-1555-4991-925c-5e7448051bbb","ios":"levelo://app?vid=024f4d94-1555-4991-925c-5e7448051bbb"},"vehicle_type_id":"4","last_reported":1692522347,"current_range_meters":26800,"station_id":"ce4bhr92rcd13ifvqhrg","pricing_plan_id":"free"},{"bike_id":"5c8c244a-8618-42d9-abf2-521b07f6577d","system_id":"levelo_inurba_marseille","lat":43.33044,"lon":5.38925,"is_reserved":false,"is_disabled":false,"rental_uris":{"android":"levelo://app?vid=5c8c244a-8618-42d9-abf2-521b07f6577d","ios":"levelo://app?vid=5c8c244a-8618-42d9-abf2-521b07f6577d"},"vehicle_type_id":"4","last_reported":1692522347,"current_range_meters":25600,"station_id":"ce4bhr92rcd13ifvqhrg","pricing_plan_id":"free"},{"bike_id":"eb950724-6c95-4fb2-915f-35b08a8cfd23","system_id":"levelo_inurba_marseille","lat":43.33048,"lon":5.38919,"is_reserved":false,"is_disabled":false,"rental_uris":{"android":"levelo://app?vid=eb950724-6c95-4fb2-915f-35b08a8cfd23","ios":"levelo://app?vid=eb950724-6c95-4fb2-915f-35b08a8cfd23"},"vehicle_type_id":"4","last_reported":1692522347,"current_range_meters":18000,"station_id":"ce4bhr92rcd13ifvqhrg","pricing_plan_id":"free"},{"bike_id":"52662068-d06a-40c1-bfee-ce6664dc3a83","system_id":"levelo_inurba_marseille","lat":43.33048,"lon":5.3892,"is_reserved":false,"is_disabled":false,"rental_uris":{"android":"levelo://app?vid=52662068-d06a-40c1-bfee-ce6664dc3a83","ios":"levelo://app?vid=52662068-d06a-40c1-bfee-ce6664dc3a83"},"vehicle_type_id":"4","last_reported":1692522347,"current_range_meters":1600,"station_id":"ce4bhr92rcd13ifvqhrg","pricing_plan_id":"free"},{"bike_id":"a949fd01-3483-42f9-9716-f3bdd91d7978","system_id":"levelo_inurba_marseille","lat":43.290104,"lon":5.356111,"is_reserved":false,"is_disabled":false,"rental_uris":{"android":"levelo://app?vid=a949fd01-3483-42f9-9716-f3bdd91d7978","ios":"levelo://app?vid=a949fd01-3483-42f9-9716-f3bdd91d7978"},"vehicle_type_id":"4","last_reported":1692522347,"current_range_meters":18800,"station_id":"ce4bhb92rcd13ifvqen0","pricing_plan_id":"free"},{"bike_id":"a3c1b0d6-f869-47ff-a49f-88656b63506a","system_id":"levelo_inurba_marseille","lat":43.29004,"lon":5.35606,"is_reserved":false,"is_disabled":false,"rental_uris":{"android":"levelo://app?vid=a3c1b0d6-f869-47ff-a49f-88656b63506a","ios":"levelo://app?vid=a3c1b0d6-f869-47ff-a49f-88656b63506a"},"vehicle_type_id":"4","last_reported":1692522347,"current_range_meters":30800,"station_id":"ce4bhb92rcd13ifvqen0","pricing_plan_id":"free"},{"bike_id":"d6553020-5423-4eef-a1ad-6fdd14bbcc9d","system_id":"levelo_inurba_marseille","lat":43.290103,"lon":5.356114,"is_reserved":false,"is_disabled":false,"rental_uris":{"android":"levelo://app?vid=d6553020-5423-4eef-a1ad-6fdd14bbcc9d","ios":"levelo://app?vid=d6553020-5423-4eef-a1ad-6fdd14bbcc9d"},"vehicle_type_id":"4","last_reported":1692522347,"current_range_meters":31200,"station_id":"ce4bhb92rcd13ifvqen0","pricing_plan_id":"free"},{"bike_id":"7d19a255-9f7a-4d0e-beba-2bfebb3c7b5e","system_id":"levelo_inurba_marseille","lat":43.3305,"lon":5.3892,"is_reserved":false,"is_disabled":false,"rental_uris":{"android":"levelo://app?vid=7d19a255-9f7a-4d0e-beba-2bfebb3c7b5e","ios":"levelo://app?vid=7d19a255-9f7a-4d0e-beba-2bfebb3c7b5e"},"vehicle_type_id":"4","last_reported":1692522347,"current_range_meters":20400,"station_id":"ce4bhr92rcd13ifvqhrg","pricing_plan_id":"free"},{"bike_id":"ac4d5439-e326-499c-a8a2-58d7b01dbaff","system_id":"levelo_inurba_marseille","lat":43.29001,"lon":5.35608,"is_reserved":false,"is_disabled":false,"rental_uris":{"android":"levelo://app?vid=ac4d5439-e326-499c-a8a2-58d7b01dbaff","ios":"levelo://app?vid=ac4d5439-e326-499c-a8a2-58d7b01dbaff"},"vehicle_type_id":"4","last_reported":1692522347,"current_range_meters":28800,"station_id":"ce4bhb92rcd13ifvqen0","pricing_plan_id":"free"},{"bike_id":"fa949043-8cd5-4b66-9692-929f9285fa12","system_id":"levelo_inurba_marseille","lat":43.289741,"lon":5.378306,"is_reserved":false,"is_disabled":false,"rental_uris":{"android":"levelo://app?vid=fa949043-8cd5-4b66-9692-929f9285fa12","ios":"levelo://app?vid=fa949043-8cd5-4b66-9692-929f9285fa12"},"vehicle_type_id":"4","last_reported":1692522347,"current_range_meters":20400,"station_id":"ce4bh9p2rcd13ifvqed0","pricing_plan_id":"free"},{"bike_id":"fb14a4bf-21ba-46b9-9ae0-71e16b9b747b","system_id":"levelo_inurba_marseille","lat":43.28856,"lon":5.358371,"is_reserved":false,"is_disabled":false,"rental_uris":{"android":"levelo://app?vid=fb14a4bf-21ba-46b9-9ae0-71e16b9b747b","ios":"levelo://app?vid=fb14a4bf-21ba-46b9-9ae0-71e16b9b747b"},"vehicle_type_id":"4","last_reported":1692522347,"current_range_meters":27600,"station_id":"ce4bhb12rcd13ifvqem0","pricing_plan_id":"free"},{"bike_id":"e37f733b-1c1a-48de-a33d-1c7dff22e55f","system_id":"levelo_inurba_marseille","lat":43.28856,"lon":5.358371,"is_reserved":false,"is_disabled":false,"rental_uris":{"android":"levelo://app?vid=e37f733b-1c1a-48de-a33d-1c7dff22e55f","ios":"levelo://app?vid=e37f733b-1c1a-48de-a33d-1c7dff22e55f"},"vehicle_type_id":"4","last_reported":1692522347,"current_range_meters":21200,"station_id":"ce4bhb12rcd13ifvqem0","pricing_plan_id":"free"},{"bike_id":"e8beb082-7d1e-476d-92c9-fb30dfa826fc","system_id":"levelo_inurba_marseille","lat":43.28856,"lon":5.358371,"is_reserved":false,"is_disabled":false,"rental_uris":{"android":"levelo://app?vid=e8beb082-7d1e-476d-92c9-fb30dfa826fc","ios":"levelo://app?vid=e8beb082-7d1e-476d-92c9-fb30dfa826fc"},"vehicle_type_id":"4","last_reported":1692522347,"current_range_meters":3600,"station_id":"ce4bhb12rcd13ifvqem0","pricing_plan_id":"free"},{"bike_id":"bf964fc1-de32-44d5-b1c1-b70ea222973b","system_id":"levelo_inurba_marseille","lat":43.31269,"lon":5.40165,"is_reserved":false,"is_disabled":false,"rental_uris":{"android":"levelo://app?vid=bf964fc1-de32-44d5-b1c1-b70ea222973b","ios":"levelo://app?vid=bf964fc1-de32-44d5-b1c1-b70ea222973b"},"vehicle_type_id":"4","last_reported":1692522347,"current_range_meters":31200,"station_id":"ce4bh092rcd13ifvqd30","pricing_plan_id":"free"},{"bike_id":"a39594cb-feef-4e88-b68a-b6ca976c5339","system_id":"levelo_inurba_marseille","lat":43.312609,"lon":5.401662,"is_reserved":false,"is_disabled":false,"rental_uris":{"android":"levelo://app?vid=a39594cb-feef-4e88-b68a-b6ca976c5339","ios":"levelo://app?vid=a39594cb-feef-4e88-b68a-b6ca976c5339"},"vehicle_type_id":"4","last_reported":1692522347,"current_range_meters":31200,"station_id":"ce4bh092rcd13ifvqd30","pricing_plan_id":"free"},{"bike_id":"471f8556-e37e-45cc-b492-c844b9c98ef6","system_id":"levelo_inurba_marseille","lat":43.30937,"lon":5.40147,"is_reserved":false,"is_disabled":false,"rental_uris":{"android":"levelo://app?vid=471f8556-e37e-45cc-b492-c844b9c98ef6","ios":"levelo://app?vid=471f8556-e37e-45cc-b492-c844b9c98ef6"},"vehicle_type_id":"4","last_reported":1692522347,"current_range_meters":0,"station_id":"ce4bgvp2rcd13ifvqct0","pricing_plan_id":"free"},{"bike_id":"87a887d0-c650-447b-89ea-af13ab0c6a81","system_id":"levelo_inurba_marseille","lat":43.3066,"lon":5.40087,"is_reserved":false,"is_disabled":false,"rental_uris":{"android":"levelo://app?vid=87a887d0-c650-447b-89ea-af13ab0c6a81","ios":"levelo://app?vid=87a887d0-c650-447b-89ea-af13ab0c6a81"},"vehicle_type_id":"4","last_reported":1692522347,"current_range_meters":0,"station_id":"ce4bh112rcd13ifvqda0","pricing_plan_id":"free"},{"bike_id":"f965c954-9206-4a97-b035-75895b629336","system_id":"levelo_inurba_marseille","lat":43.304188,"lon":5.412904,"is_reserved":false,"is_disabled":false,"rental_uris":{"android":"levelo://app?vid=f965c954-9206-4a97-b035-75895b629336","ios":"levelo://app?vid=f965c954-9206-4a97-b035-75895b629336"},"vehicle_type_id":"4","last_reported":1692522347,"current_range_meters":26400,"station_id":"ce4bhop2rcd13ifvqh8g","pricing_plan_id":"free"},{"bike_id":"75199276-b705-4ad7-b6a9-49aeaa84628a","system_id":"levelo_inurba_marseille","lat":43.286591,"lon":5.363346,"is_reserved":false,"is_disabled":false,"rental_uris":{"android":"levelo://app?vid=75199276-b705-4ad7-b6a9-49aeaa84628a","ios":"levelo://app?vid=75199276-b705-4ad7-b6a9-49aeaa84628a"},"vehicle_type_id":"4","last_reported":1692522347,"current_range_meters":30400,"station_id":"ce4bhah2rcd13ifvqej0","pricing_plan_id":"free"},{"bike_id":"ec5bfe2d-29ec-4123-b1c5-83b7eb64d795","system_id":"levelo_inurba_marseille","lat":43.287185,"lon":5.379373,"is_reserved":false,"is_disabled":false,"rental_uris":{"android":"levelo://app?vid=ec5bfe2d-29ec-4123-b1c5-83b7eb64d795","ios":"levelo://app?vid=ec5bfe2d-29ec-4123-b1c5-83b7eb64d795"},"vehicle_type_id":"4","last_reported":1692522347,"current_range_meters":15200,"station_id":"ce4bh9p2rcd13ifvqec0","pricing_plan_id":"free"},{"bike_id":"7da9e437-1e79-4b5f-9ab0-65254ac17dd7","system_id":"levelo_inurba_marseille","lat":43.31645,"lon":5.40433,"is_reserved":false,"is_disabled":false,"rental_uris":{"android":"levelo://app?vid=7da9e437-1e79-4b5f-9ab0-65254ac17dd7","ios":"levelo://app?vid=7da9e437-1e79-4b5f-9ab0-65254ac17dd7"},"vehicle_type_id":"4","last_reported":1692522347,"current_range_meters":22000,"station_id":"ce4bh012rcd13ifvqd00","pricing_plan_id":"free"},{"bike_id":"77f690d2-59aa-4836-8abb-a03fd6b57c3c","system_id":"levelo_inurba_marseille","lat":43.31643,"lon":5.40434,"is_reserved":false,"is_disabled":false,"rental_uris":{"android":"levelo://app?vid=77f690d2-59aa-4836-8abb-a03fd6b57c3c","ios":"levelo://app?vid=77f690d2-59aa-4836-8abb-a03fd6b57c3c"},"vehicle_type_id":"4","last_reported":1692522347,"current_range_meters":30000,"station_id":"ce4bh012rcd13ifvqd00","pricing_plan_id":"free"},{"bike_id":"6a13e00c-5c02-4bf2-a000-3257752288a2","system_id":"levelo_inurba_marseille","lat":43.31645,"lon":5.40437,"is_reserved":false,"is_disabled":false,"rental_uris":{"android":"levelo://app?vid=6a13e00c-5c02-4bf2-a000-3257752288a2","ios":"levelo://app?vid=6a13e00c-5c02-4bf2-a000-3257752288a2"},"vehicle_type_id":"4","last_reported":1692522347,"current_range_meters":10800,"station_id":"ce4bh012rcd13ifvqd00","pricing_plan_id":"free"},{"bike_id":"bb05d5de-a596-4577-ba70-a59463fa439c","system_id":"levelo_inurba_marseille","lat":43.31645,"lon":5.40439,"is_reserved":false,"is_disabled":false,"rental_uris":{"android":"levelo://app?vid=bb05d5de-a596-4577-ba70-a59463fa439c","ios":"levelo://app?vid=bb05d5de-a596-4577-ba70-a59463fa439c"},"vehicle_type_id":"4","last_reported":1692522347,"current_range_meters":30800,"station_id":"ce4bh012rcd13ifvqd00","pricing_plan_id":"free"},{"bike_id":"ede3cb35-ef45-47b7-8e45-bfa997cf1250","system_id":"levelo_inurba_marseille","lat":43.31646,"lon":5.40439,"is_reserved":false,"is_disabled":false,"rental_uris":{"android":"levelo://app?vid=ede3cb35-ef45-47b7-8e45-bfa997cf1250","ios":"levelo://app?vid=ede3cb35-ef45-47b7-8e45-bfa997cf1250"},"vehicle_type_id":"4","last_reported":1692522347,"current_range_meters":30000,"station_id":"ce4bh012rcd13ifvqd00","pricing_plan_id":"free"},{"bike_id":"ef6b7f8a-9c62-47ba-b968-c1cbe7e38855","system_id":"levelo_inurba_marseille","lat":43.29196,"lon":5.39315,"is_reserved":false,"is_disabled":false,"rental_uris":{"android":"levelo://app?vid=ef6b7f8a-9c62-47ba-b968-c1cbe7e38855","ios":"levelo://app?vid=ef6b7f8a-9c62-47ba-b968-c1cbe7e38855"},"vehicle_type_id":"4","last_reported":1692522347,"current_range_meters":16800,"station_id":"ce4bh192rcd13ifvqdd0","pricing_plan_id":"free"},{"bike_id":"b073666a-3b1e-4ef4-820f-bccd3f9e8a82","system_id":"levelo_inurba_marseille","lat":43.285856,"lon":5.350771,"is_reserved":false,"is_disabled":false,"rental_uris":{"android":"levelo://app?vid=b073666a-3b1e-4ef4-820f-bccd3f9e8a82","ios":"levelo://app?vid=b073666a-3b1e-4ef4-820f-bccd3f9e8a82"},"vehicle_type_id":"4","last_reported":1692522347,"current_range_meters":28800,"station_id":"ce4bhch2rcd13ifvqeug","pricing_plan_id":"free"},{"bike_id":"35eec3a1-aa54-4990-8eb4-78e6c0dd24d0","system_id":"levelo_inurba_marseille","lat":43.285856,"lon":5.350771,"is_reserved":false,"is_disabled":false,"rental_uris":{"android":"levelo://app?vid=35eec3a1-aa54-4990-8eb4-78e6c0dd24d0","ios":"levelo://app?vid=35eec3a1-aa54-4990-8eb4-78e6c0dd24d0"},"vehicle_type_id":"4","last_reported":1692522347,"current_range_meters":30000,"station_id":"ce4bhch2rcd13ifvqeug","pricing_plan_id":"free"},{"bike_id":"bb34c18e-7936-47b4-8871-011fa616e7fb","system_id":"levelo_inurba_marseille","lat":43.28418,"lon":5.37504,"is_reserved":false,"is_disabled":false,"rental_uris":{"android":"levelo://app?vid=bb34c18e-7936-47b4-8871-011fa616e7fb","ios":"levelo://app?vid=bb34c18e-7936-47b4-8871-011fa616e7fb"},"vehicle_type_id":"4","last_reported":1692522347,"current_range_meters":0,"station_id":"ce4bh412rcd13ifvqds0","pricing_plan_id":"free"},{"bike_id":"2363d3b5-6c15-401a-a59c-ee80bd4af927","system_id":"levelo_inurba_marseille","lat":43.28415,"lon":5.37522,"is_reserved":false,"is_disabled":false,"rental_uris":{"android":"levelo://app?vid=2363d3b5-6c15-401a-a59c-ee80bd4af927","ios":"levelo://app?vid=2363d3b5-6c15-401a-a59c-ee80bd4af927"},"vehicle_type_id":"4","last_reported":1692522347,"current_range_meters":17600,"station_id":"ce4bh412rcd13ifvqds0","pricing_plan_id":"free"},{"bike_id":"e63a24e9-4d9d-4b90-829e-bb9789271d21","system_id":"levelo_inurba_marseille","lat":43.319179,"lon":5.407725,"is_reserved":false,"is_disabled":false,"rental_uris":{"android":"levelo://app?vid=e63a24e9-4d9d-4b90-829e-bb9789271d21","ios":"levelo://app?vid=e63a24e9-4d9d-4b90-829e-bb9789271d21"},"vehicle_type_id":"4","last_reported":1692522347,"current_range_meters":23600,"station_id":"ce4bhq12rcd13ifvqhig","pricing_plan_id":"free"},{"bike_id":"bdc3f47b-e1d1-4a3a-b0c1-e8a91d4b0833","system_id":"levelo_inurba_marseille","lat":43.319179,"lon":5.407725,"is_reserved":false,"is_disabled":false,"rental_uris":{"android":"levelo://app?vid=bdc3f47b-e1d1-4a3a-b0c1-e8a91d4b0833","ios":"levelo://app?vid=bdc3f47b-e1d1-4a3a-b0c1-e8a91d4b0833"},"vehicle_type_id":"4","last_reported":1692522347,"current_range_meters":17600,"station_id":"ce4bhq12rcd13ifvqhig","pricing_plan_id":"free"},{"bike_id":"1b87b56f-4215-463a-b1c5-b340fcd8ac67","system_id":"levelo_inurba_marseille","lat":43.31892,"lon":5.40724,"is_reserved":false,"is_disabled":false,"rental_uris":{"android":"levelo://app?vid=1b87b56f-4215-463a-b1c5-b340fcd8ac67","ios":"levelo://app?vid=1b87b56f-4215-463a-b1c5-b340fcd8ac67"},"vehicle_type_id":"4","last_reported":1692522347,"current_range_meters":2000,"station_id":"ce4bhq12rcd13ifvqhig","pricing_plan_id":"free"},{"bike_id":"f13d5e3e-fdf4-4bdd-8a95-6e8a1ceb27f9","system_id":"levelo_inurba_marseille","lat":43.319179,"lon":5.407725,"is_reserved":false,"is_disabled":false,"rental_uris":{"android":"levelo://app?vid=f13d5e3e-fdf4-4bdd-8a95-6e8a1ceb27f9","ios":"levelo://app?vid=f13d5e3e-fdf4-4bdd-8a95-6e8a1ceb27f9"},"vehicle_type_id":"4","last_reported":1692522347,"current_range_meters":30800,"station_id":"ce4bhq12rcd13ifvqhig","pricing_plan_id":"free"},{"bike_id":"877a0b6d-e768-4923-8ce1-6527d0d0cdf6","system_id":"levelo_inurba_marseille","lat":43.31895,"lon":5.4074,"is_reserved":false,"is_disabled":false,"rental_uris":{"android":"levelo://app?vid=877a0b6d-e768-4923-8ce1-6527d0d0cdf6","ios":"levelo://app?vid=877a0b6d-e768-4923-8ce1-6527d0d0cdf6"},"vehicle_type_id":"4","last_reported":1692522347,"current_range_meters":26400,"station_id":"ce4bhq12rcd13ifvqhig","pricing_plan_id":"free"},{"bike_id":"7d2969ab-a065-4a23-b19e-667095d799c9","system_id":"levelo_inurba_marseille","lat":43.33716,"lon":5.39184,"is_reserved":false,"is_disabled":false,"rental_uris":{"android":"levelo://app?vid=7d2969ab-a065-4a23-b19e-667095d799c9","ios":"levelo://app?vid=7d2969ab-a065-4a23-b19e-667095d799c9"},"vehicle_type_id":"4","last_reported":1692522347,"current_range_meters":6800,"station_id":"ce4bhr92rcd13ifvqhsg","pricing_plan_id":"free"},{"bike_id":"c24cecf2-0503-470c-b3d3-fc37f377f710","system_id":"levelo_inurba_marseille","lat":43.3372,"lon":5.39183,"is_reserved":false,"is_disabled":false,"rental_uris":{"android":"levelo://app?vid=c24cecf2-0503-470c-b3d3-fc37f377f710","ios":"levelo://app?vid=c24cecf2-0503-470c-b3d3-fc37f377f710"},"vehicle_type_id":"4","last_reported":1692522347,"current_range_meters":26000,"station_id":"ce4bhr92rcd13ifvqhsg","pricing_plan_id":"free"},{"bike_id":"72fc020d-a1d4-460a-a3d1-6187a1ea65d2","system_id":"levelo_inurba_marseille","lat":43.33721,"lon":5.39183,"is_reserved":false,"is_disabled":false,"rental_uris":{"android":"levelo://app?vid=72fc020d-a1d4-460a-a3d1-6187a1ea65d2","ios":"levelo://app?vid=72fc020d-a1d4-460a-a3d1-6187a1ea65d2"},"vehicle_type_id":"4","last_reported":1692522347,"current_range_meters":24000,"station_id":"ce4bhr92rcd13ifvqhsg","pricing_plan_id":"free"},{"bike_id":"2b3f06e0-8f2d-4133-9563-f19f57fe46e5","system_id":"levelo_inurba_marseille","lat":43.337168,"lon":5.391825,"is_reserved":false,"is_disabled":false,"rental_uris":{"android":"levelo://app?vid=2b3f06e0-8f2d-4133-9563-f19f57fe46e5","ios":"levelo://app?vid=2b3f06e0-8f2d-4133-9563-f19f57fe46e5"},"vehicle_type_id":"4","last_reported":1692522347,"current_range_meters":7200,"station_id":"ce4bhr92rcd13ifvqhsg","pricing_plan_id":"free"},{"bike_id":"e45012d8-673a-4bd6-93d3-a427f767a00d","system_id":"levelo_inurba_marseille","lat":43.33719,"lon":5.39189,"is_reserved":false,"is_disabled":false,"rental_uris":{"android":"levelo://app?vid=e45012d8-673a-4bd6-93d3-a427f767a00d","ios":"levelo://app?vid=e45012d8-673a-4bd6-93d3-a427f767a00d"},"vehicle_type_id":"4","last_reported":1692522347,"current_range_meters":24800,"station_id":"ce4bhr92rcd13ifvqhsg","pricing_plan_id":"free"},{"bike_id":"db0a8054-293b-4caa-b72d-316d0557cd0c","system_id":"levelo_inurba_marseille","lat":43.323464,"lon":5.406297,"is_reserved":false,"is_disabled":false,"rental_uris":{"android":"levelo://app?vid=db0a8054-293b-4caa-b72d-316d0557cd0c","ios":"levelo://app?vid=db0a8054-293b-4caa-b72d-316d0557cd0c"},"vehicle_type_id":"4","last_reported":1692522347,"current_range_meters":28400,"station_id":"ce4bhq92rcd13ifvqhjg","pricing_plan_id":"free"},{"bike_id":"17105054-6fd8-493b-b0be-1ed88688055c","system_id":"levelo_inurba_marseille","lat":43.337168,"lon":5.391825,"is_reserved":false,"is_disabled":false,"rental_uris":{"android":"levelo://app?vid=17105054-6fd8-493b-b0be-1ed88688055c","ios":"levelo://app?vid=17105054-6fd8-493b-b0be-1ed88688055c"},"vehicle_type_id":"4","last_reported":1692522347,"current_range_meters":27200,"station_id":"ce4bhr92rcd13ifvqhsg","pricing_plan_id":"free"},{"bike_id":"0dda2562-498f-4f90-abfb-f3c666db2d2e","system_id":"levelo_inurba_marseille","lat":43.33725,"lon":5.39183,"is_reserved":false,"is_disabled":false,"rental_uris":{"android":"levelo://app?vid=0dda2562-498f-4f90-abfb-f3c666db2d2e","ios":"levelo://app?vid=0dda2562-498f-4f90-abfb-f3c666db2d2e"},"vehicle_type_id":"4","last_reported":1692522347,"current_range_meters":20800,"station_id":"ce4bhr92rcd13ifvqhsg","pricing_plan_id":"free"},{"bike_id":"12c0f407-4ac2-49d3-b1e8-783bd26a8644","system_id":"levelo_inurba_marseille","lat":43.33724,"lon":5.39185,"is_reserved":false,"is_disabled":false,"rental_uris":{"android":"levelo://app?vid=12c0f407-4ac2-49d3-b1e8-783bd26a8644","ios":"levelo://app?vid=12c0f407-4ac2-49d3-b1e8-783bd26a8644"},"vehicle_type_id":"4","last_reported":1692522347,"current_range_meters":26400,"station_id":"ce4bhr92rcd13ifvqhsg","pricing_plan_id":"free"},{"bike_id":"01f563c5-7ac0-4d44-b1b3-0549f3b949f3","system_id":"levelo_inurba_marseille","lat":43.33723,"lon":5.39188,"is_reserved":false,"is_disabled":false,"rental_uris":{"android":"levelo://app?vid=01f563c5-7ac0-4d44-b1b3-0549f3b949f3","ios":"levelo://app?vid=01f563c5-7ac0-4d44-b1b3-0549f3b949f3"},"vehicle_type_id":"4","last_reported":1692522347,"current_range_meters":27200,"station_id":"ce4bhr92rcd13ifvqhsg","pricing_plan_id":"free"},{"bike_id":"baef72cb-b22b-4d30-82e9-ac3a300140d7","system_id":"levelo_inurba_marseille","lat":43.323464,"lon":5.406297,"is_reserved":false,"is_disabled":false,"rental_uris":{"android":"levelo://app?vid=baef72cb-b22b-4d30-82e9-ac3a300140d7","ios":"levelo://app?vid=baef72cb-b22b-4d30-82e9-ac3a300140d7"},"vehicle_type_id":"4","last_reported":1692522347,"current_range_meters":29600,"station_id":"ce4bhq92rcd13ifvqhjg","pricing_plan_id":"free"},{"bike_id":"afec74e1-dc2b-42ed-af0f-94d00f5fc581","system_id":"levelo_inurba_marseille","lat":43.32346,"lon":5.40617,"is_reserved":false,"is_disabled":false,"rental_uris":{"android":"levelo://app?vid=afec74e1-dc2b-42ed-af0f-94d00f5fc581","ios":"levelo://app?vid=afec74e1-dc2b-42ed-af0f-94d00f5fc581"},"vehicle_type_id":"4","last_reported":1692522347,"current_range_meters":30800,"station_id":"ce4bhq92rcd13ifvqhjg","pricing_plan_id":"free"},{"bike_id":"d3b7ca63-e616-456b-9e2d-d17ed72c8be4","system_id":"levelo_inurba_marseille","lat":43.323464,"lon":5.406297,"is_reserved":false,"is_disabled":false,"rental_uris":{"android":"levelo://app?vid=d3b7ca63-e616-456b-9e2d-d17ed72c8be4","ios":"levelo://app?vid=d3b7ca63-e616-456b-9e2d-d17ed72c8be4"},"vehicle_type_id":"4","last_reported":1692522347,"current_range_meters":30000,"station_id":"ce4bhq92rcd13ifvqhjg","pricing_plan_id":"free"},{"bike_id":"efe8b264-ad35-4139-b98d-40041f267f16","system_id":"levelo_inurba_marseille","lat":43.33731,"lon":5.39181,"is_reserved":false,"is_disabled":false,"rental_uris":{"android":"levelo://app?vid=efe8b264-ad35-4139-b98d-40041f267f16","ios":"levelo://app?vid=efe8b264-ad35-4139-b98d-40041f267f16"},"vehicle_type_id":"4","last_reported":1692522347,"current_range_meters":24000,"station_id":"ce4bhr92rcd13ifvqhsg","pricing_plan_id":"free"},{"bike_id":"186ddf38-a5ca-44a9-9dd3-9bfe2a53544b","system_id":"levelo_inurba_marseille","lat":43.33728,"lon":5.39187,"is_reserved":false,"is_disabled":false,"rental_uris":{"android":"levelo://app?vid=186ddf38-a5ca-44a9-9dd3-9bfe2a53544b","ios":"levelo://app?vid=186ddf38-a5ca-44a9-9dd3-9bfe2a53544b"},"vehicle_type_id":"4","last_reported":1692522347,"current_range_meters":25600,"station_id":"ce4bhr92rcd13ifvqhsg","pricing_plan_id":"free"},{"bike_id":"02f29c2d-847e-4148-9200-bdb4c19acc46","system_id":"levelo_inurba_marseille","lat":43.3373,"lon":5.39184,"is_reserved":false,"is_disabled":false,"rental_uris":{"android":"levelo://app?vid=02f29c2d-847e-4148-9200-bdb4c19acc46","ios":"levelo://app?vid=02f29c2d-847e-4148-9200-bdb4c19acc46"},"vehicle_type_id":"4","last_reported":1692522347,"current_range_meters":26800,"station_id":"ce4bhr92rcd13ifvqhsg","pricing_plan_id":"free"},{"bike_id":"8bd09c71-02ae-4371-8b55-ce1e7e2bf2df","system_id":"levelo_inurba_marseille","lat":43.33731,"lon":5.39188,"is_reserved":false,"is_disabled":false,"rental_uris":{"android":"levelo://app?vid=8bd09c71-02ae-4371-8b55-ce1e7e2bf2df","ios":"levelo://app?vid=8bd09c71-02ae-4371-8b55-ce1e7e2bf2df"},"vehicle_type_id":"4","last_reported":1692522347,"current_range_meters":27200,"station_id":"ce4bhr92rcd13ifvqhsg","pricing_plan_id":"free"},{"bike_id":"bd7badb3-5d9e-460f-983e-21a382a4e73f","system_id":"levelo_inurba_marseille","lat":43.297946,"lon":5.404063,"is_reserved":false,"is_disabled":false,"rental_uris":{"android":"levelo://app?vid=bd7badb3-5d9e-460f-983e-21a382a4e73f","ios":"levelo://app?vid=bd7badb3-5d9e-460f-983e-21a382a4e73f"},"vehicle_type_id":"4","last_reported":1692522347,"current_range_meters":14800,"station_id":"ce4bh112rcd13ifvqd90","pricing_plan_id":"free"},{"bike_id":"42244a1f-c791-4e6b-a2b4-a2d356f83549","system_id":"levelo_inurba_marseille","lat":43.288497,"lon":5.393089,"is_reserved":false,"is_disabled":false,"rental_uris":{"android":"levelo://app?vid=42244a1f-c791-4e6b-a2b4-a2d356f83549","ios":"levelo://app?vid=42244a1f-c791-4e6b-a2b4-a2d356f83549"},"vehicle_type_id":"4","last_reported":1692522347,"current_range_meters":3600,"station_id":"ce4bh2p2rcd13ifvqdi0","pricing_plan_id":"free"},{"bike_id":"e8815cb7-cdb0-40b7-8b37-291ba5527b4e","system_id":"levelo_inurba_marseille","lat":43.288501,"lon":5.393087,"is_reserved":false,"is_disabled":false,"rental_uris":{"android":"levelo://app?vid=e8815cb7-cdb0-40b7-8b37-291ba5527b4e","ios":"levelo://app?vid=e8815cb7-cdb0-40b7-8b37-291ba5527b4e"},"vehicle_type_id":"4","last_reported":1692522347,"current_range_meters":29600,"station_id":"ce4bh2p2rcd13ifvqdi0","pricing_plan_id":"free"},{"bike_id":"903dc5d8-ee87-4c0e-8fcc-21b29b68e246","system_id":"levelo_inurba_marseille","lat":43.297946,"lon":5.404063,"is_reserved":false,"is_disabled":false,"rental_uris":{"android":"levelo://app?vid=903dc5d8-ee87-4c0e-8fcc-21b29b68e246","ios":"levelo://app?vid=903dc5d8-ee87-4c0e-8fcc-21b29b68e246"},"vehicle_type_id":"4","last_reported":1692522347,"current_range_meters":19600,"station_id":"ce4bh112rcd13ifvqd90","pricing_plan_id":"free"},{"bike_id":"9601bc0b-7cec-44d4-afd1-7f02a22af5c2","system_id":"levelo_inurba_marseille","lat":43.29799,"lon":5.40402,"is_reserved":false,"is_disabled":false,"rental_uris":{"android":"levelo://app?vid=9601bc0b-7cec-44d4-afd1-7f02a22af5c2","ios":"levelo://app?vid=9601bc0b-7cec-44d4-afd1-7f02a22af5c2"},"vehicle_type_id":"4","last_reported":1692522347,"current_range_meters":31200,"station_id":"ce4bh112rcd13ifvqd90","pricing_plan_id":"free"},{"bike_id":"cb358c0c-a894-49cf-ba2f-d9c616d87d69","system_id":"levelo_inurba_marseille","lat":43.297946,"lon":5.404063,"is_reserved":false,"is_disabled":false,"rental_uris":{"android":"levelo://app?vid=cb358c0c-a894-49cf-ba2f-d9c616d87d69","ios":"levelo://app?vid=cb358c0c-a894-49cf-ba2f-d9c616d87d69"},"vehicle_type_id":"4","last_reported":1692522347,"current_range_meters":8000,"station_id":"ce4bh112rcd13ifvqd90","pricing_plan_id":"free"},{"bike_id":"5334cee5-c9ac-46f5-9b83-1487973bf88b","system_id":"levelo_inurba_marseille","lat":43.29805,"lon":5.40413,"is_reserved":false,"is_disabled":false,"rental_uris":{"android":"levelo://app?vid=5334cee5-c9ac-46f5-9b83-1487973bf88b","ios":"levelo://app?vid=5334cee5-c9ac-46f5-9b83-1487973bf88b"},"vehicle_type_id":"4","last_reported":1692522347,"current_range_meters":31200,"station_id":"ce4bh112rcd13ifvqd90","pricing_plan_id":"free"},{"bike_id":"2ecee9b2-c4d2-4822-8cea-211901c909c0","system_id":"levelo_inurba_marseille","lat":43.288501,"lon":5.393087,"is_reserved":false,"is_disabled":false,"rental_uris":{"android":"levelo://app?vid=2ecee9b2-c4d2-4822-8cea-211901c909c0","ios":"levelo://app?vid=2ecee9b2-c4d2-4822-8cea-211901c909c0"},"vehicle_type_id":"4","last_reported":1692522347,"current_range_meters":20000,"station_id":"ce4bh2p2rcd13ifvqdi0","pricing_plan_id":"free"},{"bike_id":"6681e177-5268-4320-8283-0ed62c87fafa","system_id":"levelo_inurba_marseille","lat":43.283498,"lon":5.380948,"is_reserved":false,"is_disabled":false,"rental_uris":{"android":"levelo://app?vid=6681e177-5268-4320-8283-0ed62c87fafa","ios":"levelo://app?vid=6681e177-5268-4320-8283-0ed62c87fafa"},"vehicle_type_id":"4","last_reported":1692522347,"current_range_meters":27600,"station_id":"ce4bh412rcd13ifvqdr0","pricing_plan_id":"free"},{"bike_id":"e44d1e31-fb7d-4d45-b4eb-c060512db9cb","system_id":"levelo_inurba_marseille","lat":43.2843,"lon":5.34993,"is_reserved":false,"is_disabled":false,"rental_uris":{"android":"levelo://app?vid=e44d1e31-fb7d-4d45-b4eb-c060512db9cb","ios":"levelo://app?vid=e44d1e31-fb7d-4d45-b4eb-c060512db9cb"},"vehicle_type_id":"4","last_reported":1692522347,"current_range_meters":30400,"station_id":"ce4bhbh2rcd13ifvqepg","pricing_plan_id":"free"},{"bike_id":"8f6893bb-ec38-4728-b8d9-d234ff347755","system_id":"levelo_inurba_marseille","lat":43.28428,"lon":5.3498,"is_reserved":false,"is_disabled":false,"rental_uris":{"android":"levelo://app?vid=8f6893bb-ec38-4728-b8d9-d234ff347755","ios":"levelo://app?vid=8f6893bb-ec38-4728-b8d9-d234ff347755"},"vehicle_type_id":"4","last_reported":1692522347,"current_range_meters":24000,"station_id":"ce4bhbh2rcd13ifvqepg","pricing_plan_id":"free"},{"bike_id":"9b4b587b-24f8-4427-a599-ca521fbb0882","system_id":"levelo_inurba_marseille","lat":43.28428,"lon":5.34974,"is_reserved":false,"is_disabled":false,"rental_uris":{"android":"levelo://app?vid=9b4b587b-24f8-4427-a599-ca521fbb0882","ios":"levelo://app?vid=9b4b587b-24f8-4427-a599-ca521fbb0882"},"vehicle_type_id":"4","last_reported":1692522347,"current_range_meters":26800,"station_id":"ce4bhbh2rcd13ifvqepg","pricing_plan_id":"free"},{"bike_id":"ba3691b5-3c59-476d-a171-f578ef6422e2","system_id":"levelo_inurba_marseille","lat":43.28426,"lon":5.34978,"is_reserved":false,"is_disabled":false,"rental_uris":{"android":"levelo://app?vid=ba3691b5-3c59-476d-a171-f578ef6422e2","ios":"levelo://app?vid=ba3691b5-3c59-476d-a171-f578ef6422e2"},"vehicle_type_id":"4","last_reported":1692522347,"current_range_meters":30000,"station_id":"ce4bhbh2rcd13ifvqepg","pricing_plan_id":"free"},{"bike_id":"0c4b6542-aeb1-4ff5-b556-5dc03a8c9046","system_id":"levelo_inurba_marseille","lat":43.28425,"lon":5.34978,"is_reserved":false,"is_disabled":false,"rental_uris":{"android":"levelo://app?vid=0c4b6542-aeb1-4ff5-b556-5dc03a8c9046","ios":"levelo://app?vid=0c4b6542-aeb1-4ff5-b556-5dc03a8c9046"},"vehicle_type_id":"4","last_reported":1692522347,"current_range_meters":24800,"station_id":"ce4bhbh2rcd13ifvqepg","pricing_plan_id":"free"},{"bike_id":"3a78b823-185c-439d-af78-03f7e0b4a6ce","system_id":"levelo_inurba_marseille","lat":43.28422,"lon":5.34983,"is_reserved":false,"is_disabled":false,"rental_uris":{"android":"levelo://app?vid=3a78b823-185c-439d-af78-03f7e0b4a6ce","ios":"levelo://app?vid=3a78b823-185c-439d-af78-03f7e0b4a6ce"},"vehicle_type_id":"4","last_reported":1692522347,"current_range_meters":27200,"station_id":"ce4bhbh2rcd13ifvqepg","pricing_plan_id":"free"},{"bike_id":"1c51d1d5-ab99-47e6-a431-bb9337f29bb3","system_id":"levelo_inurba_marseille","lat":43.28424,"lon":5.34975,"is_reserved":false,"is_disabled":false,"rental_uris":{"android":"levelo://app?vid=1c51d1d5-ab99-47e6-a431-bb9337f29bb3","ios":"levelo://app?vid=1c51d1d5-ab99-47e6-a431-bb9337f29bb3"},"vehicle_type_id":"4","last_reported":1692522347,"current_range_meters":23600,"station_id":"ce4bhbh2rcd13ifvqepg","pricing_plan_id":"free"},{"bike_id":"66139586-765e-4df4-852b-17d508c1991d","system_id":"levelo_inurba_marseille","lat":43.28422,"lon":5.34977,"is_reserved":false,"is_disabled":false,"rental_uris":{"android":"levelo://app?vid=66139586-765e-4df4-852b-17d508c1991d","ios":"levelo://app?vid=66139586-765e-4df4-852b-17d508c1991d"},"vehicle_type_id":"4","last_reported":1692522347,"current_range_meters":14000,"station_id":"ce4bhbh2rcd13ifvqepg","pricing_plan_id":"free"},{"bike_id":"bf590359-a6e5-40e1-b4ac-dd91551bde50","system_id":"levelo_inurba_marseille","lat":43.28419,"lon":5.34977,"is_reserved":false,"is_disabled":false,"rental_uris":{"android":"levelo://app?vid=bf590359-a6e5-40e1-b4ac-dd91551bde50","ios":"levelo://app?vid=bf590359-a6e5-40e1-b4ac-dd91551bde50"},"vehicle_type_id":"4","last_reported":1692522347,"current_range_meters":23600,"station_id":"ce4bhbh2rcd13ifvqepg","pricing_plan_id":"free"},{"bike_id":"f50aca5f-cf5b-4020-925f-826a2e34874f","system_id":"levelo_inurba_marseille","lat":43.289363,"lon":5.396322,"is_reserved":false,"is_disabled":false,"rental_uris":{"android":"levelo://app?vid=f50aca5f-cf5b-4020-925f-826a2e34874f","ios":"levelo://app?vid=f50aca5f-cf5b-4020-925f-826a2e34874f"},"vehicle_type_id":"4","last_reported":1692522347,"current_range_meters":30800,"station_id":"ce4bh3h2rcd13ifvqdn0","pricing_plan_id":"free"},{"bike_id":"5cec26ac-344f-432b-af34-450b75305b9b","system_id":"levelo_inurba_marseille","lat":43.292724,"lon":5.401131,"is_reserved":false,"is_disabled":false,"rental_uris":{"android":"levelo://app?vid=5cec26ac-344f-432b-af34-450b75305b9b","ios":"levelo://app?vid=5cec26ac-344f-432b-af34-450b75305b9b"},"vehicle_type_id":"4","last_reported":1692522347,"current_range_meters":31600,"station_id":"ce4bh312rcd13ifvqdk0","pricing_plan_id":"free"},{"bike_id":"242bc270-8d13-4aee-8dd6-ad5fa065a5b0","system_id":"levelo_inurba_marseille","lat":43.282754,"lon":5.350519,"is_reserved":false,"is_disabled":false,"rental_uris":{"android":"levelo://app?vid=242bc270-8d13-4aee-8dd6-ad5fa065a5b0","ios":"levelo://app?vid=242bc270-8d13-4aee-8dd6-ad5fa065a5b0"},"vehicle_type_id":"4","last_reported":1692522347,"current_range_meters":26400,"station_id":"ce4bhbp2rcd13ifvqerg","pricing_plan_id":"free"},{"bike_id":"145b267d-265f-46f0-9d0a-6a254abbf0c4","system_id":"levelo_inurba_marseille","lat":43.282754,"lon":5.350519,"is_reserved":false,"is_disabled":false,"rental_uris":{"android":"levelo://app?vid=145b267d-265f-46f0-9d0a-6a254abbf0c4","ios":"levelo://app?vid=145b267d-265f-46f0-9d0a-6a254abbf0c4"},"vehicle_type_id":"4","last_reported":1692522347,"current_range_meters":7600,"station_id":"ce4bhbp2rcd13ifvqerg","pricing_plan_id":"free"},{"bike_id":"fb0b0916-b999-4caa-b0f9-75625387f48a","system_id":"levelo_inurba_marseille","lat":43.282754,"lon":5.350519,"is_reserved":false,"is_disabled":false,"rental_uris":{"android":"levelo://app?vid=fb0b0916-b999-4caa-b0f9-75625387f48a","ios":"levelo://app?vid=fb0b0916-b999-4caa-b0f9-75625387f48a"},"vehicle_type_id":"4","last_reported":1692522347,"current_range_meters":29600,"station_id":"ce4bhbp2rcd13ifvqerg","pricing_plan_id":"free"},{"bike_id":"774442f0-8b0a-4080-8314-dad4d0377226","system_id":"levelo_inurba_marseille","lat":43.282754,"lon":5.350519,"is_reserved":false,"is_disabled":false,"rental_uris":{"android":"levelo://app?vid=774442f0-8b0a-4080-8314-dad4d0377226","ios":"levelo://app?vid=774442f0-8b0a-4080-8314-dad4d0377226"},"vehicle_type_id":"4","last_reported":1692522347,"current_range_meters":30000,"station_id":"ce4bhbp2rcd13ifvqerg","pricing_plan_id":"free"},{"bike_id":"626fc86a-e8d2-4e0c-b341-83008c4330c0","system_id":"levelo_inurba_marseille","lat":43.282754,"lon":5.350519,"is_reserved":false,"is_disabled":false,"rental_uris":{"android":"levelo://app?vid=626fc86a-e8d2-4e0c-b341-83008c4330c0","ios":"levelo://app?vid=626fc86a-e8d2-4e0c-b341-83008c4330c0"},"vehicle_type_id":"4","last_reported":1692522347,"current_range_meters":24800,"station_id":"ce4bhbp2rcd13ifvqerg","pricing_plan_id":"free"},{"bike_id":"a1ec2c43-f069-469b-8d3b-f5fe539489be","system_id":"levelo_inurba_marseille","lat":43.282754,"lon":5.350519,"is_reserved":false,"is_disabled":false,"rental_uris":{"android":"levelo://app?vid=a1ec2c43-f069-469b-8d3b-f5fe539489be","ios":"levelo://app?vid=a1ec2c43-f069-469b-8d3b-f5fe539489be"},"vehicle_type_id":"4","last_reported":1692522347,"current_range_meters":29600,"station_id":"ce4bhbp2rcd13ifvqerg","pricing_plan_id":"free"},{"bike_id":"e64d85b9-4d96-48e9-b17d-5ec672d7c9ba","system_id":"levelo_inurba_marseille","lat":43.282754,"lon":5.350519,"is_reserved":false,"is_disabled":false,"rental_uris":{"android":"levelo://app?vid=e64d85b9-4d96-48e9-b17d-5ec672d7c9ba","ios":"levelo://app?vid=e64d85b9-4d96-48e9-b17d-5ec672d7c9ba"},"vehicle_type_id":"4","last_reported":1692522347,"current_range_meters":25600,"station_id":"ce4bhbp2rcd13ifvqerg","pricing_plan_id":"free"},{"bike_id":"a328a892-409c-468d-be85-b591f045c0d3","system_id":"levelo_inurba_marseille","lat":43.282754,"lon":5.350519,"is_reserved":false,"is_disabled":false,"rental_uris":{"android":"levelo://app?vid=a328a892-409c-468d-be85-b591f045c0d3","ios":"levelo://app?vid=a328a892-409c-468d-be85-b591f045c0d3"},"vehicle_type_id":"4","last_reported":1692522347,"current_range_meters":31200,"station_id":"ce4bhbp2rcd13ifvqerg","pricing_plan_id":"free"},{"bike_id":"9c584a0b-85c5-4968-af5e-22ed1f8518aa","system_id":"levelo_inurba_marseille","lat":43.282744,"lon":5.350533,"is_reserved":false,"is_disabled":false,"rental_uris":{"android":"levelo://app?vid=9c584a0b-85c5-4968-af5e-22ed1f8518aa","ios":"levelo://app?vid=9c584a0b-85c5-4968-af5e-22ed1f8518aa"},"vehicle_type_id":"4","last_reported":1692522347,"current_range_meters":31200,"station_id":"ce4bhbp2rcd13ifvqerg","pricing_plan_id":"free"},{"bike_id":"d69d08b6-bd59-4a18-8324-faf390e0b511","system_id":"levelo_inurba_marseille","lat":43.282744,"lon":5.350533,"is_reserved":false,"is_disabled":false,"rental_uris":{"android":"levelo://app?vid=d69d08b6-bd59-4a18-8324-faf390e0b511","ios":"levelo://app?vid=d69d08b6-bd59-4a18-8324-faf390e0b511"},"vehicle_type_id":"4","last_reported":1692522347,"current_range_meters":22800,"station_id":"ce4bhbp2rcd13ifvqerg","pricing_plan_id":"free"},{"bike_id":"c7207a2d-6c4e-4378-82ac-80b1b978d9f4","system_id":"levelo_inurba_marseille","lat":43.282754,"lon":5.350519,"is_reserved":false,"is_disabled":false,"rental_uris":{"android":"levelo://app?vid=c7207a2d-6c4e-4378-82ac-80b1b978d9f4","ios":"levelo://app?vid=c7207a2d-6c4e-4378-82ac-80b1b978d9f4"},"vehicle_type_id":"4","last_reported":1692522347,"current_range_meters":21200,"station_id":"ce4bhbp2rcd13ifvqerg","pricing_plan_id":"free"},{"bike_id":"5a898c22-dc17-4ee8-8ace-3376c99b7358","system_id":"levelo_inurba_marseille","lat":43.282744,"lon":5.350533,"is_reserved":false,"is_disabled":false,"rental_uris":{"android":"levelo://app?vid=5a898c22-dc17-4ee8-8ace-3376c99b7358","ios":"levelo://app?vid=5a898c22-dc17-4ee8-8ace-3376c99b7358"},"vehicle_type_id":"4","last_reported":1692522347,"current_range_meters":21200,"station_id":"ce4bhbp2rcd13ifvqerg","pricing_plan_id":"free"},{"bike_id":"6054a4d4-565e-4ba8-81a5-3b2a8a24c13b","system_id":"levelo_inurba_marseille","lat":43.282754,"lon":5.350519,"is_reserved":false,"is_disabled":false,"rental_uris":{"android":"levelo://app?vid=6054a4d4-565e-4ba8-81a5-3b2a8a24c13b","ios":"levelo://app?vid=6054a4d4-565e-4ba8-81a5-3b2a8a24c13b"},"vehicle_type_id":"4","last_reported":1692522347,"current_range_meters":21600,"station_id":"ce4bhbp2rcd13ifvqerg","pricing_plan_id":"free"},{"bike_id":"65ff2078-0a8f-4fb4-8317-1f442d9ab6b2","system_id":"levelo_inurba_marseille","lat":43.282744,"lon":5.350533,"is_reserved":false,"is_disabled":false,"rental_uris":{"android":"levelo://app?vid=65ff2078-0a8f-4fb4-8317-1f442d9ab6b2","ios":"levelo://app?vid=65ff2078-0a8f-4fb4-8317-1f442d9ab6b2"},"vehicle_type_id":"4","last_reported":1692522347,"current_range_meters":30800,"station_id":"ce4bhbp2rcd13ifvqerg","pricing_plan_id":"free"},{"bike_id":"88940920-727e-47f8-bee6-24feedff1167","system_id":"levelo_inurba_marseille","lat":43.282744,"lon":5.350533,"is_reserved":false,"is_disabled":false,"rental_uris":{"android":"levelo://app?vid=88940920-727e-47f8-bee6-24feedff1167","ios":"levelo://app?vid=88940920-727e-47f8-bee6-24feedff1167"},"vehicle_type_id":"4","last_reported":1692522347,"current_range_meters":30000,"station_id":"ce4bhbp2rcd13ifvqerg","pricing_plan_id":"free"},{"bike_id":"421c2217-caf8-460f-9ec2-a4dc4101d66b","system_id":"levelo_inurba_marseille","lat":43.282754,"lon":5.350519,"is_reserved":false,"is_disabled":false,"rental_uris":{"android":"levelo://app?vid=421c2217-caf8-460f-9ec2-a4dc4101d66b","ios":"levelo://app?vid=421c2217-caf8-460f-9ec2-a4dc4101d66b"},"vehicle_type_id":"4","last_reported":1692522347,"current_range_meters":22000,"station_id":"ce4bhbp2rcd13ifvqerg","pricing_plan_id":"free"},{"bike_id":"3fd79558-6e24-433c-953a-76770acde23b","system_id":"levelo_inurba_marseille","lat":43.282744,"lon":5.350533,"is_reserved":false,"is_disabled":false,"rental_uris":{"android":"levelo://app?vid=3fd79558-6e24-433c-953a-76770acde23b","ios":"levelo://app?vid=3fd79558-6e24-433c-953a-76770acde23b"},"vehicle_type_id":"4","last_reported":1692522347,"current_range_meters":27200,"station_id":"ce4bhbp2rcd13ifvqerg","pricing_plan_id":"free"},{"bike_id":"d59165b0-af81-4ceb-9390-a6bb93b0dd93","system_id":"levelo_inurba_marseille","lat":43.282744,"lon":5.350533,"is_reserved":false,"is_disabled":false,"rental_uris":{"android":"levelo://app?vid=d59165b0-af81-4ceb-9390-a6bb93b0dd93","ios":"levelo://app?vid=d59165b0-af81-4ceb-9390-a6bb93b0dd93"},"vehicle_type_id":"4","last_reported":1692522347,"current_range_meters":26000,"station_id":"ce4bhbp2rcd13ifvqerg","pricing_plan_id":"free"},{"bike_id":"3a6c47b8-ac43-450c-b300-75dd3fae7f6a","system_id":"levelo_inurba_marseille","lat":43.282744,"lon":5.350533,"is_reserved":false,"is_disabled":false,"rental_uris":{"android":"levelo://app?vid=3a6c47b8-ac43-450c-b300-75dd3fae7f6a","ios":"levelo://app?vid=3a6c47b8-ac43-450c-b300-75dd3fae7f6a"},"vehicle_type_id":"4","last_reported":1692522347,"current_range_meters":15200,"station_id":"ce4bhbp2rcd13ifvqerg","pricing_plan_id":"free"},{"bike_id":"af7818eb-54be-420c-a54e-8dca147a552a","system_id":"levelo_inurba_marseille","lat":43.282744,"lon":5.350533,"is_reserved":false,"is_disabled":false,"rental_uris":{"android":"levelo://app?vid=af7818eb-54be-420c-a54e-8dca147a552a","ios":"levelo://app?vid=af7818eb-54be-420c-a54e-8dca147a552a"},"vehicle_type_id":"4","last_reported":1692522347,"current_range_meters":0,"station_id":"ce4bhbp2rcd13ifvqerg","pricing_plan_id":"free"},{"bike_id":"9f46cfde-4f76-4076-bade-5765c2d3d473","system_id":"levelo_inurba_marseille","lat":43.28039,"lon":5.369297,"is_reserved":false,"is_disabled":false,"rental_uris":{"android":"levelo://app?vid=9f46cfde-4f76-4076-bade-5765c2d3d473","ios":"levelo://app?vid=9f46cfde-4f76-4076-bade-5765c2d3d473"},"vehicle_type_id":"4","last_reported":1692522347,"current_range_meters":31200,"station_id":"ce4bha12rcd13ifvqef0","pricing_plan_id":"free"},{"bike_id":"bb5bfcb9-e6a8-4bcf-bd68-54a8b35e02cb","system_id":"levelo_inurba_marseille","lat":43.29047,"lon":5.39961,"is_reserved":false,"is_disabled":false,"rental_uris":{"android":"levelo://app?vid=bb5bfcb9-e6a8-4bcf-bd68-54a8b35e02cb","ios":"levelo://app?vid=bb5bfcb9-e6a8-4bcf-bd68-54a8b35e02cb"},"vehicle_type_id":"4","last_reported":1692522347,"current_range_meters":30800,"station_id":"ce4bh392rcd13ifvqdm0","pricing_plan_id":"free"},{"bike_id":"d397ee0a-2792-49ce-b55b-5d1772af80c1","system_id":"levelo_inurba_marseille","lat":43.28121,"lon":5.3518,"is_reserved":false,"is_disabled":false,"rental_uris":{"android":"levelo://app?vid=d397ee0a-2792-49ce-b55b-5d1772af80c1","ios":"levelo://app?vid=d397ee0a-2792-49ce-b55b-5d1772af80c1"},"vehicle_type_id":"4","last_reported":1692522347,"current_range_meters":21200,"station_id":"","pricing_plan_id":"free"},