{"last_updated":1706393174,"ttl":30,"version":"2.2","data":{"bikes":[{"bike_id":"b08dc5fa-7a57-4826-93c7-1626f1bc0fbb","system_id":"levelo_inurba_marseille","lat":43.312239,"lon":5.368562,"is_reserved":false,"is_disabled":false,"rental_uris":{"android":"levelo://app?vid=b08dc5fa-7a57-4826-93c7-1626f1bc0fbb","ios":"levelo://app?vid=b08dc5fa-7a57-4826-93c7-1626f1bc0fbb"},"vehicle_type_id":"4","last_reported":1706393174,"current_range_meters":30000,"station_id":"ce4bgl92rcd13ifvqbq0","pricing_plan_id":"free"},{"bike_id":"a2be3f06-a9b0-4e0d-b2d9-f9c86bf79236","system_id":"levelo_inurba_marseille","lat":43.314811,"lon":5.373103,"is_reserved":false,"is_disabled":false,"rental_uris":{"android":"levelo://app?vid=a2be3f06-a9b0-4e0d-b2d9-f9c86bf79236","ios":"levelo://app?vid=a2be3f06-a9b0-4e0d-b2d9-f9c86bf79236"},"vehicle_type_id":"4","last_reported":1706393174,"current_range_meters":10800,"station_id":"ce4bgt12rcd13ifvqcd0","pricing_plan_id":"free"},{"bike_id":"12f95cbc-863c-42ba-b841-e8ca191106ea","system_id":"levelo_inurba_marseille","lat":43.314811,"lon":5.373103,"is_reserved":false,"is_disabled":false,"rental_uris":{"android":"levelo://app?vid=12f95cbc-863c-42ba-b841-e8ca191106ea","ios":"levelo://app?vid=12f95cbc-863c-42ba-b841-e8ca191106ea"},"vehicle_type_id":"4","last_reported":1706393174,"current_range_meters":9600,"station_id":"ce4bgt12rcd13ifvqcd0","pricing_plan_id":"free"},{"bike_id":"467c4c75-dd0f-473d-9525-656680071d83","system_id":"levelo_inurba_marseille","lat":43.309039,"lon":5.371797,"is_reserved":false,"is_disabled":false,"rental_uris":{"android":"levelo://app?vid=467c4c75-dd0f-473d-9525-656680071d83","ios":"levelo://app?vid=467c4c75-dd0f-473d-9525-656680071d83"},"vehicle_type_id":"4","last_reported":1706393174,"current_range_meters":8800,"station_id":"ce4bguh2rcd13ifvqckg","pricing_plan_id":"free"},{"bike_id":"75472d2f-c33b-4291-9ef3-06d76d15d270","system_id":"levelo_inurba_marseille","lat":43.309039,"lon":5.371797,"is_reserved":false,"is_disabled":false,"rental_uris":{"android":"levelo://app?vid=75472d2f-c33b-4291-9ef3-06d76d15d270","ios":"levelo://app?vid=75472d2f-c33b-4291-9ef3-06d76d15d270"},"vehicle_type_id":"4","last_reported":1706393174,"current_range_meters":14000,"station_id":"ce4bguh2rcd13ifvqckg","pricing_plan_id":"free"},{"bike_id":"bda51473-b6be-4f34-845c-fe39f005a126","system_id":"levelo_inurba_marseille","lat":43.309039,"lon":5.371797,"is_reserved":false,"is_disabled":false,"rental_uris":{"android":"levelo://app?vid=bda51473-b6be-4f34-845c-fe39f005a126","ios":"levelo://app?vid=bda51473-b6be-4f34-845c-fe39f005a126"},"vehicle_type_id":"4","last_reported":1706393174,"current_range_meters":28000,"station_id":"ce4bguh2rcd13ifvqckg","pricing_plan_id":"free"},{"bike_id":"cf666fee-9862-40f0-8271-74852148745c","system_id":"levelo_inurba_marseille","lat":43.309039,"lon":5.371797,"is_reserved":false,"is_disabled":false,"rental_uris":{"android":"levelo://app?vid=cf666fee-9862-40f0-8271-74852148745c","ios":"levelo://app?vid=cf666fee-9862-40f0-8271-74852148745c"},"vehicle_type_id":"4","last_reported":1706393174,"current_range_meters":29200,"station_id":"ce4bguh2rcd13ifvqckg","pricing_plan_id":"free"},{"bike_id":"f0223e44-7f80-4774-80b9-2bd330cab4a9","system_id":"levelo_inurba_marseille","lat":43.308857,"lon":5.371883,"is_reserved":false,"is_disabled":false,"rental_uris":{"android":"levelo://app?vid=f0223e44-7f80-4774-80b9-2bd330cab4a9","ios":"levelo://app?vid=f0223e44-7f80-4774-80b9-2bd330cab4a9"},"vehicle_type_id":"4","last_reported":1706393174,"current_range_meters":4400,"station_id":"ce4bguh2rcd13ifvqckg","pricing_plan_id":"free"},{"bike_id":"ff6c1c25-8287-4f32-9d54-133fa7cb156b","system_id":"levelo_inurba_marseille","lat":43.309039,"lon":5.371797,"is_reserved":false,"is_disabled":false,"rental_uris":{"android":"levelo://app?vid=ff6c1c25-8287-4f32-9d54-133fa7cb156b","ios":"levelo://app?vid=ff6c1c25-8287-4f32-9d54-133fa7cb156b"},"vehicle_type_id":"4","last_reported":1706393174,"current_range_meters":21200,"station_id":"ce4bguh2rcd13ifvqckg","pricing_plan_id":"free"},{"bike_id":"fcfb76ac-e555-448d-8901-05ef46ca5c6e","system_id":"levelo_inurba_marseille","lat":43.305368,"lon":5.367343,"is_reserved":false,"is_disabled":false,"rental_uris":{"android":"levelo://app?vid=fcfb76ac-e555-448d-8901-05ef46ca5c6e","ios":"levelo://app?vid=fcfb76ac-e555-448d-8901-05ef46ca5c6e"},"vehicle_type_id":"4","last_reported":1706393174,"current_range_meters":20800,"station_id":"ce4bgrp2rcd13ifvqc9g","pricing_plan_id":"free"},{"bike_id":"b3a4c76c-4b91-4838-bce7-c17a779a0349","system_id":"levelo_inurba_marseille","lat":43.305471,"lon":5.36532,"is_reserved":false,"is_disabled":false,"rental_uris":{"android":"levelo://app?vid=b3a4c76c-4b91-4838-bce7-c17a779a0349","ios":"levelo://app?vid=b3a4c76c-4b91-4838-bce7-c17a779a0349"},"vehicle_type_id":"4","last_reported":1706393174,"current_range_meters":0,"station_id":"ce4bgs12rcd13ifvqcag","pricing_plan_id":"free"},{"bike_id":"ad773d73-8efe-42fd-aa88-d1df3e4f122c","system_id":"levelo_inurba_marseille","lat":43.305368,"lon":5.367343,"is_reserved":false,"is_disabled":false,"rental_uris":{"android":"levelo://app?vid=ad773d73-8efe-42fd-aa88-d1df3e4f122c","ios":"levelo://app?vid=ad773d73-8efe-42fd-aa88-d1df3e4f122c"},"vehicle_type_id":"4","last_reported":1706393174,"current_range_meters":20800,"station_id":"ce4bgrp2rcd13ifvqc9g","pricing_plan_id":"free"},{"bike_id":"3e8cede9-feb3-44ed-ab1d-f07a6ee8c359","system_id":"levelo_inurba_marseille","lat":43.305989,"lon":5.37225,"is_reserved":false,"is_disabled":false,"rental_uris":{"android":"levelo://app?vid=3e8cede9-feb3-44ed-ab1d-f07a6ee8c359","ios":"levelo://app?vid=3e8cede9-feb3-44ed-ab1d-f07a6ee8c359"},"vehicle_type_id":"4","last_reported":1706393174,"current_range_meters":6800,"station_id":"ce4bgqh2rcd13ifvqc4g","pricing_plan_id":"free"},{"bike_id":"c0aca7fd-4281-4ec5-937e-70d16daadeeb","system_id":"levelo_inurba_marseille","lat":43.311131,"lon":5.377651,"is_reserved":false,"is_disabled":false,"rental_uris":{"android":"levelo://app?vid=c0aca7fd-4281-4ec5-937e-70d16daadeeb","ios":"levelo://app?vid=c0aca7fd-4281-4ec5-937e-70d16daadeeb"},"vehicle_type_id":"4","last_reported":1706393174,"current_range_meters":0,"station_id":"ce4bgt92rcd13ifvqcg0","pricing_plan_id":"free"},{"bike_id":"e6c874a7-4c53-46c7-b3b9-101410bd4b5b","system_id":"levelo_inurba_marseille","lat":43.317075,"lon":5.377367,"is_reserved":false,"is_disabled":false,"rental_uris":{"android":"levelo://app?vid=e6c874a7-4c53-46c7-b3b9-101410bd4b5b","ios":"levelo://app?vid=e6c874a7-4c53-46c7-b3b9-101410bd4b5b"},"vehicle_type_id":"4","last_reported":1706393174,"current_range_meters":6400,"station_id":"ce4bgth2rcd13ifvqch0","pricing_plan_id":"free"},{"bike_id":"6fff0b7d-2514-4e0c-a138-b6e9cb85be95","system_id":"levelo_inurba_marseille","lat":43.317075,"lon":5.377367,"is_reserved":false,"is_disabled":false,"rental_uris":{"android":"levelo://app?vid=6fff0b7d-2514-4e0c-a138-b6e9cb85be95","ios":"levelo://app?vid=6fff0b7d-2514-4e0c-a138-b6e9cb85be95"},"vehicle_type_id":"4","last_reported":1706393174,"current_range_meters":30400,"station_id":"ce4bgth2rcd13ifvqch0","pricing_plan_id":"free"},{"bike_id":"bf70306f-e475-47ca-8724-a7e42b25d923","system_id":"levelo_inurba_marseille","lat":43.317075,"lon":5.377367,"is_reserved":false,"is_disabled":false,"rental_uris":{"android":"levelo://app?vid=bf70306f-e475-47ca-8724-a7e42b25d923","ios":"levelo://app?vid=bf70306f-e475-47ca-8724-a7e42b25d923"},"vehicle_type_id":"4","last_reported":1706393174,"current_range_meters":23600,"station_id":"ce4bgth2rcd13ifvqch0","pricing_plan_id":"free"},{"bike_id":"760e8431-4505-4e25-89a2-d05baf70ef01","system_id":"levelo_inurba_marseille","lat":43.303103,"lon":5.36897,"is_reserved":false,"is_disabled":false,"rental_uris":{"android":"levelo://app?vid=760e8431-4505-4e25-89a2-d05baf70ef01","ios":"levelo://app?vid=760e8431-4505-4e25-89a2-d05baf70ef01"},"vehicle_type_id":"4","last_reported":1706393174,"current_range_meters":0,"station_id":"ce4bgqh2rcd13ifvqc5g","pricing_plan_id":"free"},{"bike_id":"ec894be0-5b47-4f8d-90b2-46550607de1d","system_id":"levelo_inurba_marseille","lat":43.303046,"lon":5.368981,"is_reserved":false,"is_disabled":false,"rental_uris":{"android":"levelo://app?vid=ec894be0-5b47-4f8d-90b2-46550607de1d","ios":"levelo://app?vid=ec894be0-5b47-4f8d-90b2-46550607de1d"},"vehicle_type_id":"4","last_reported":1706393174,"current_range_meters":6000,"station_id":"ce4bgqh2rcd13ifvqc5g","pricing_plan_id":"free"},{"bike_id":"b83daeb9-a39c-4884-86e2-16a37c651f7f","system_id":"levelo_inurba_marseille","lat":43.320005,"lon":5.376249,"is_reserved":false,"is_disabled":false,"rental_uris":{"android":"levelo://app?vid=b83daeb9-a39c-4884-86e2-16a37c651f7f","ios":"levelo://app?vid=b83daeb9-a39c-4884-86e2-16a37c651f7f"},"vehicle_type_id":"4","last_reported":1706393174,"current_range_meters":9200,"station_id":"","pricing_plan_id":"free"},{"bike_id":"2b9973b9-e21f-458a-9e13-6cc909633bbf","system_id":"levelo_inurba_marseille","lat":43.31537,"lon":5.38034,"is_reserved":false,"is_disabled":false,"rental_uris":{"android":"levelo://app?vid=2b9973b9-e21f-458a-9e13-6cc909633bbf","ios":"levelo://app?vid=2b9973b9-e21f-458a-9e13-6cc909633bbf"},"vehicle_type_id":"4","last_reported":1706393174,"current_range_meters":400,"station_id":"ce4bhsp2rcd13ifvqi50","pricing_plan_id":"free"},{"bike_id":"e44bd02c-d6bb-4f3f-ab11-d56ce90a801e","system_id":"levelo_inurba_marseille","lat":43.301939,"lon":5.366286,"is_reserved":false,"is_disabled":false,"rental_uris":{"android":"levelo://app?vid=e44bd02c-d6bb-4f3f-ab11-d56ce90a801e","ios":"levelo://app?vid=e44bd02c-d6bb-4f3f-ab11-d56ce90a801e"},"vehicle_type_id":"4","last_reported":1706393174,"current_range_meters":18400,"station_id":"ce4bgrh2rcd13ifvqc8g","pricing_plan_id":"free"},{"bike_id":"7f9c6bd7-a1bd-4751-955f-bbdc78090dce","system_id":"levelo_inurba_marseille","lat":43.308096,"lon":5.381536,"is_reserved":false,"is_disabled":false,"rental_uris":{"android":"levelo://app?vid=7f9c6bd7-a1bd-4751-955f-bbdc78090dce","ios":"levelo://app?vid=7f9c6bd7-a1bd-4751-955f-bbdc78090dce"},"vehicle_type_id":"4","last_reported":1706393174,"current_range_meters":0,"station_id":"ce4bgt12rcd13ifvqce0","pricing_plan_id":"free"},{"bike_id":"53894421-8230-437d-82e8-eb9dddc3473f","system_id":"levelo_inurba_marseille","lat":43.308012,"lon":5.381511,"is_reserved":false,"is_disabled":false,"rental_uris":{"android":"levelo://app?vid=53894421-8230-437d-82e8-eb9dddc3473f","ios":"levelo://app?vid=53894421-8230-437d-82e8-eb9dddc3473f"},"vehicle_type_id":"4","last_reported":1706393174,"current_range_meters":20000,"station_id":"ce4bgt12rcd13ifvqce0","pricing_plan_id":"free"},{"bike_id":"dc00bdf8-dc57-4b02-8d44-8ea4906debe3","system_id":"levelo_inurba_marseille","lat":43.324771,"lon":5.36557,"is_reserved":false,"is_disabled":false,"rental_uris":{"android":"levelo://app?vid=dc00bdf8-dc57-4b02-8d44-8ea4906debe3","ios":"levelo://app?vid=dc00bdf8-dc57-4b02-8d44-8ea4906debe3"},"vehicle_type_id":"4","last_reported":1706393174,"current_range_meters":8400,"station_id":"ce4bhs12rcd13ifvqhvg","pricing_plan_id":"free"},{"bike_id":"1aa02228-2f1b-463e-8efd-48a87ba76624","system_id":"levelo_inurba_marseille","lat":43.324771,"lon":5.36557,"is_reserved":false,"is_disabled":false,"rental_uris":{"android":"levelo://app?vid=1aa02228-2f1b-463e-8efd-48a87ba76624","ios":"levelo://app?vid=1aa02228-2f1b-463e-8efd-48a87ba76624"},"vehicle_type_id":"4","last_reported":1706393174,"current_range_meters":6000,"station_id":"ce4bhs12rcd13ifvqhvg","pricing_plan_id":"free"},{"bike_id":"ed6ddac7-660c-488e-a5cb-28d416d8e481","system_id":"levelo_inurba_marseille","lat":43.324808,"lon":5.365625,"is_reserved":false,"is_disabled":false,"rental_uris":{"android":"levelo://app?vid=ed6ddac7-660c-488e-a5cb-28d416d8e481","ios":"levelo://app?vid=ed6ddac7-660c-488e-a5cb-28d416d8e481"},"vehicle_type_id":"4","last_reported":1706393174,"current_range_meters":22000,"station_id":"ce4bhs12rcd13ifvqhvg","pricing_plan_id":"free"},{"bike_id":"686d1336-6154-44a2-a815-74da2771d8d3","system_id":"levelo_inurba_marseille","lat":43.30292,"lon":5.37691,"is_reserved":false,"is_disabled":false,"rental_uris":{"android":"levelo://app?vid=686d1336-6154-44a2-a815-74da2771d8d3","ios":"levelo://app?vid=686d1336-6154-44a2-a815-74da2771d8d3"},"vehicle_type_id":"4","last_reported":1706393174,"current_range_meters":0,"station_id":"ce4bguh2rcd13ifvqcj0","pricing_plan_id":"free"},{"bike_id":"0a7e6cb7-a296-4427-9321-e25fb7e34e86","system_id":"levelo_inurba_marseille","lat":43.30273,"lon":5.376945,"is_reserved":false,"is_disabled":false,"rental_uris":{"android":"levelo://app?vid=0a7e6cb7-a296-4427-9321-e25fb7e34e86","ios":"levelo://app?vid=0a7e6cb7-a296-4427-9321-e25fb7e34e86"},"vehicle_type_id":"4","last_reported":1706393174,"current_range_meters":5200,"station_id":"ce4bguh2rcd13ifvqcj0","pricing_plan_id":"free"},{"bike_id":"ae7ab608-8fac-4c0d-9f43-8ffacb07a49d","system_id":"levelo_inurba_marseille","lat":43.319935,"lon":5.381699,"is_reserved":false,"is_disabled":false,"rental_uris":{"android":"levelo://app?vid=ae7ab608-8fac-4c0d-9f43-8ffacb07a49d","ios":"levelo://app?vid=ae7ab608-8fac-4c0d-9f43-8ffacb07a49d"},"vehicle_type_id":"4","last_reported":1706393174,"current_range_meters":0,"station_id":"ce4bhr12rcd13ifvqhpg","pricing_plan_id":"free"},{"bike_id":"d74e7c8f-48ff-4858-9ba8-20ecb6f49546","system_id":"levelo_inurba_marseille","lat":43.313571,"lon":5.384829,"is_reserved":false,"is_disabled":false,"rental_uris":{"android":"levelo://app?vid=d74e7c8f-48ff-4858-9ba8-20ecb6f49546","ios":"levelo://app?vid=d74e7c8f-48ff-4858-9ba8-20ecb6f49546"},"vehicle_type_id":"4","last_reported":1706393174,"current_range_meters":4000,"station_id":"ce4bgt92rcd13ifvqcf0","pricing_plan_id":"free"},{"bike_id":"a7f469c3-6d74-4848-bc37-17e95acb2eb3","system_id":"levelo_inurba_marseille","lat":43.313692,"lon":5.384866,"is_reserved":false,"is_disabled":false,"rental_uris":{"android":"levelo://app?vid=a7f469c3-6d74-4848-bc37-17e95acb2eb3","ios":"levelo://app?vid=a7f469c3-6d74-4848-bc37-17e95acb2eb3"},"vehicle_type_id":"4","last_reported":1706393174,"current_range_meters":0,"station_id":"ce4bgt92rcd13ifvqcf0","pricing_plan_id":"free"},{"bike_id":"16dde943-30de-448b-926b-37edf9320ed3","system_id":"levelo_inurba_marseille","lat":43.313571,"lon":5.384829,"is_reserved":false,"is_disabled":false,"rental_uris":{"android":"levelo://app?vid=16dde943-30de-448b-926b-37edf9320ed3","ios":"levelo://app?vid=16dde943-30de-448b-926b-37edf9320ed3"},"vehicle_type_id":"4","last_reported":1706393174,"current_range_meters":26400,"station_id":"ce4bgt92rcd13ifvqcf0","pricing_plan_id":"free"},{"bike_id":"591f1386-8084-4b93-867a-472377ddecb3","system_id":"levelo_inurba_marseille","lat":43.313571,"lon":5.384829,"is_reserved":false,"is_disabled":false,"rental_uris":{"android":"levelo://app?vid=591f1386-8084-4b93-867a-472377ddecb3","ios":"levelo://app?vid=591f1386-8084-4b93-867a-472377ddecb3"},"vehicle_type_id":"4","last_reported":1706393174,"current_range_meters":6400,"station_id":"ce4bgt92rcd13ifvqcf0","pricing_plan_id":"free"},{"bike_id":"f6362a64-d57a-4165-a7c6-2fb54151550b","system_id":"levelo_inurba_marseille","lat":43.299724,"lon":5.371829,"is_reserved":false,"is_disabled":false,"rental_uris":{"android":"levelo://app?vid=f6362a64-d57a-4165-a7c6-2fb54151550b","ios":"levelo://app?vid=f6362a64-d57a-4165-a7c6-2fb54151550b"},"vehicle_type_id":"4","last_reported":1706393174,"current_range_meters":22800,"station_id":"ce4bgr92rcd13ifvqc7g","pricing_plan_id":"free"},{"bike_id":"e26121f7-b5a4-47b4-af14-02dac69a1dda","system_id":"levelo_inurba_marseille","lat":43.299222,"lon":5.365554,"is_reserved":false,"is_disabled":false,"rental_uris":{"android":"levelo://app?vid=e26121f7-b5a4-47b4-af14-02dac69a1dda","ios":"levelo://app?vid=e26121f7-b5a4-47b4-af14-02dac69a1dda"},"vehicle_type_id":"4","last_reported":1706393174,"current_range_meters":3200,"station_id":"ce4bgm92rcd13ifvqbr0","pricing_plan_id":"free"},{"bike_id":"ac4aca9c-ca4c-4538-9391-bbaa7ffab41d","system_id":"levelo_inurba_marseille","lat":43.305364,"lon":5.384119,"is_reserved":false,"is_disabled":false,"rental_uris":{"android":"levelo://app?vid=ac4aca9c-ca4c-4538-9391-bbaa7ffab41d","ios":"levelo://app?vid=ac4aca9c-ca4c-4538-9391-bbaa7ffab41d"},"vehicle_type_id":"4","last_reported":1706393174,"current_range_meters":8000,"station_id":"ce4bgg92rcd13ifvqb30","pricing_plan_id":"free"},{"bike_id":"f8e37669-ede4-4707-9000-bf967cc73fb1","system_id":"levelo_inurba_marseille","lat":43.305364,"lon":5.384119,"is_reserved":false,"is_disabled":false,"rental_uris":{"android":"levelo://app?vid=f8e37669-ede4-4707-9000-bf967cc73fb1","ios":"levelo://app?vid=f8e37669-ede4-4707-9000-bf967cc73fb1"},"vehicle_type_id":"4","last_reported":1706393174,"current_range_meters":10400,"station_id":"ce4bgg92rcd13ifvqb30","pricing_plan_id":"free"},{"bike_id":"769772a2-4f9e-42e5-8ec1-79abc19e803f","system_id":"levelo_inurba_marseille","lat":43.298433,"lon":5.362774,"is_reserved":false,"is_disabled":false,"rental_uris":{"android":"levelo://app?vid=769772a2-4f9e-42e5-8ec1-79abc19e803f","ios":"levelo://app?vid=769772a2-4f9e-42e5-8ec1-79abc19e803f"},"vehicle_type_id":"4","last_reported":1706393174,"current_range_meters":14000,"station_id":"ce4bgpp2rcd13ifvqc3g","pricing_plan_id":"free"},{"bike_id":"f10fa397-31c1-4cf1-82f9-a240e6de7e26","system_id":"levelo_inurba_marseille","lat":43.305382,"lon":5.384288,"is_reserved":false,"is_disabled":false,"rental_uris":{"android":"levelo://app?vid=f10fa397-31c1-4cf1-82f9-a240e6de7e26","ios":"levelo://app?vid=f10fa397-31c1-4cf1-82f9-a240e6de7e26"},"vehicle_type_id":"4","last_reported":1706393174,"current_range_meters":0,"station_id":"ce4bgg92rcd13ifvqb30","pricing_plan_id":"free"},{"bike_id":"9dbedc0e-de93-49f0-9e8a-f31552902195","system_id":"levelo_inurba_marseille","lat":43.311697,"lon":5.38712,"is_reserved":false,"is_disabled":false,"rental_uris":{"android":"levelo://app?vid=9dbedc0e-de93-49f0-9e8a-f31552902195","ios":"levelo://app?vid=9dbedc0e-de93-49f0-9e8a-f31552902195"},"vehicle_type_id":"4","last_reported":1706393174,"current_range_meters":0,"station_id":"ce4bgv12rcd13ifvqcp0","pricing_plan_id":"free"},{"bike_id":"f333593b-a055-4773-b1bc-9da5ee05312e","system_id":"levelo_inurba_marseille","lat":43.322872,"lon":5.382756,"is_reserved":false,"is_disabled":false,"rental_uris":{"android":"levelo://app?vid=f333593b-a055-4773-b1bc-9da5ee05312e","ios":"levelo://app?vid=f333593b-a055-4773-b1bc-9da5ee05312e"},"vehicle_type_id":"4","last_reported":1706393174,"current_range_meters":30000,"station_id":"ce4bhr12rcd13ifvqhqg","pricing_plan_id":"free"},{"bike_id":"1d49984b-445f-4b82-8787-ee30123d6b41","system_id":"levelo_inurba_marseille","lat":43.297794,"lon":5.370888,"is_reserved":false,"is_disabled":false,"rental_uris":{"android":"levelo://app?vid=1d49984b-445f-4b82-8787-ee30123d6b41","ios":"levelo://app?vid=1d49984b-445f-4b82-8787-ee30123d6b41"},"vehicle_type_id":"4","last_reported":1706393174,"current_range_meters":17200,"station_id":"ce4bgop2rcd13ifvqc1g","pricing_plan_id":"free"},{"bike_id":"965a5dab-e227-4efc-b518-9780186a9de9","system_id":"levelo_inurba_marseille","lat":43.322872,"lon":5.382756,"is_reserved":false,"is_disabled":false,"rental_uris":{"android":"levelo://app?vid=965a5dab-e227-4efc-b518-9780186a9de9","ios":"levelo://app?vid=965a5dab-e227-4efc-b518-9780186a9de9"},"vehicle_type_id":"4","last_reported":1706393174,"current_range_meters":27600,"station_id":"ce4bhr12rcd13ifvqhqg","pricing_plan_id":"free"},{"bike_id":"a3b74381-0d58-448f-9a1c-2f1261e3769d","system_id":"levelo_inurba_marseille","lat":43.322872,"lon":5.382756,"is_reserved":false,"is_disabled":false,"rental_uris":{"android":"levelo://app?vid=a3b74381-0d58-448f-9a1c-2f1261e3769d","ios":"levelo://app?vid=a3b74381-0d58-448f-9a1c-2f1261e3769d"},"vehicle_type_id":"4","last_reported":1706393174,"current_range_meters":31200,"station_id":"ce4bhr12rcd13ifvqhqg","pricing_plan_id":"free"},{"bike_id":"ab98e573-92e3-4c87-b938-e8306447ae15","system_id":"levelo_inurba_marseille","lat":43.322872,"lon":5.382756,"is_reserved":false,"is_disabled":false,"rental_uris":{"android":"levelo://app?vid=ab98e573-92e3-4c87-b938-e8306447ae15","ios":"levelo://app?vid=ab98e573-92e3-4c87-b938-e8306447ae15"},"vehicle_type_id":"4","last_reported":1706393174,"current_range_meters":25600,"station_id":"ce4bhr12rcd13ifvqhqg","pricing_plan_id":"free"},{"bike_id":"5e98879a-df25-42d7-a72e-59c9369b5f46","system_id":"levelo_inurba_marseille","lat":43.32291,"lon":5.382664,"is_reserved":false,"is_disabled":false,"rental_uris":{"android":"levelo://app?vid=5e98879a-df25-42d7-a72e-59c9369b5f46","ios":"levelo://app?vid=5e98879a-df25-42d7-a72e-59c9369b5f46"},"vehicle_type_id":"4","last_reported":1706393174,"current_range_meters":30400,"station_id":"ce4bhr12rcd13ifvqhqg","pricing_plan_id":"free"},{"bike_id":"12edd8fe-ac42-424b-86a0-ddbc64b4f114","system_id":"levelo_inurba_marseille","lat":43.328334,"lon":5.366911,"is_reserved":false,"is_disabled":false,"rental_uris":{"android":"levelo://app?vid=12edd8fe-ac42-424b-86a0-ddbc64b4f114","ios":"levelo://app?vid=12edd8fe-ac42-424b-86a0-ddbc64b4f114"},"vehicle_type_id":"4","last_reported":1706393174,"current_range_meters":16400,"station_id":"ce4bhs92rcd13ifvqi0g","pricing_plan_id":"free"},{"bike_id":"40b2641f-8520-4d27-a6ca-9862807d00ac","system_id":"levelo_inurba_marseille","lat":43.297163,"lon":5.365866,"is_reserved":false,"is_disabled":false,"rental_uris":{"android":"levelo://app?vid=40b2641f-8520-4d27-a6ca-9862807d00ac","ios":"levelo://app?vid=40b2641f-8520-4d27-a6ca-9862807d00ac"},"vehicle_type_id":"4","last_reported":1706393174,"current_range_meters":6000,"station_id":"ce4bgn12rcd13ifvqbt0","pricing_plan_id":"free"},{"bike_id":"c0578521-d866-423f-9407-a4ab371bc661","system_id":"levelo_inurba_marseille","lat":43.297163,"lon":5.365866,"is_reserved":false,"is_disabled":false,"rental_uris":{"android":"levelo://app?vid=c0578521-d866-423f-9407-a4ab371bc661","ios":"levelo://app?vid=c0578521-d866-423f-9407-a4ab371bc661"},"vehicle_type_id":"4","last_reported":1706393174,"current_range_meters":14400,"station_id":"ce4bgn12rcd13ifvqbt0","pricing_plan_id":"free"},{"bike_id":"8e7174ec-d29f-47c6-bde8-e9809206730d","system_id":"levelo_inurba_marseille","lat":43.297163,"lon":5.365866,"is_reserved":false,"is_disabled":false,"rental_uris":{"android":"levelo://app?vid=8e7174ec-d29f-47c6-bde8-e9809206730d","ios":"levelo://app?vid=8e7174ec-d29f-47c6-bde8-e9809206730d"},"vehicle_type_id":"4","last_reported":1706393174,"current_range_meters":17600,"station_id":"ce4bgn12rcd13ifvqbt0","pricing_plan_id":"free"},{"bike_id":"7f19f856-2700-4d91-a489-893bd8d2e212","system_id":"levelo_inurba_marseille","lat":43.309589,"lon":5.390258,"is_reserved":false,"is_disabled":false,"rental_uris":{"android":"levelo://app?vid=7f19f856-2700-4d91-a489-893bd8d2e212","ios":"levelo://app?vid=7f19f856-2700-4d91-a489-893bd8d2e212"},"vehicle_type_id":"4","last_reported":1706393174,"current_range_meters":12400,"station_id":"ce4bgup2rcd13ifvqco0","pricing_plan_id":"free"},{"bike_id":"50481ac1-6e1b-4276-9156-0694fb510b33","system_id":"levelo_inurba_marseille","lat":43.309589,"lon":5.390258,"is_reserved":false,"is_disabled":false,"rental_uris":{"android":"levelo://app?vid=50481ac1-6e1b-4276-9156-0694fb510b33","ios":"levelo://app?vid=50481ac1-6e1b-4276-9156-0694fb510b33"},"vehicle_type_id":"4","last_reported":1706393174,"current_range_meters":16000,"station_id":"ce4bgup2rcd13ifvqco0","pricing_plan_id":"free"},{"bike_id":"5849c8f1-de07-480c-ab10-c023b55280ba","system_id":"levelo_inurba_marseille","lat":43.322564,"lon":5.386868,"is_reserved":false,"is_disabled":false,"rental_uris":{"android":"levelo://app?vid=5849c8f1-de07-480c-ab10-c023b55280ba","ios":"levelo://app?vid=5849c8f1-de07-480c-ab10-c023b55280ba"},"vehicle_type_id":"4","last_reported":1706393174,"current_range_meters":400,"station_id":"","pricing_plan_id":"free"},{"bike_id":"003be8bb-e19b-4ce3-bebc-b9877864fa6b","system_id":"levelo_inurba_marseille","lat":43.317557,"lon":5.390173,"is_reserved":false,"is_disabled":false,"rental_uris":{"android":"levelo://app?vid=003be8bb-e19b-4ce3-bebc-b9877864fa6b","ios":"levelo://app?vid=003be8bb-e19b-4ce3-bebc-b9877864fa6b"},"vehicle_type_id":"4","last_reported":1706393174,"current_range_meters":23200,"station_id":"ce4bhqp2rcd13ifvqhng","pricing_plan_id":"free"},{"bike_id":"dc13d793-baa7-4a1a-baac-0e7101f4c736","system_id":"levelo_inurba_marseille","lat":43.295748,"lon":5.37522,"is_reserved":false,"is_disabled":false,"rental_uris":{"android":"levelo://app?vid=dc13d793-baa7-4a1a-baac-0e7101f4c736","ios":"levelo://app?vid=dc13d793-baa7-4a1a-baac-0e7101f4c736"},"vehicle_type_id":"4","last_reported":1706393174,"current_range_meters":23600,"station_id":"ce4bgh92rcd13ifvqb50","pricing_plan_id":"free"},{"bike_id":"2fd72a1b-c1fe-427d-bfc0-8b3cc8863b1d","system_id":"levelo_inurba_marseille","lat":43.304278,"lon":5.388868,"is_reserved":false,"is_disabled":false,"rental_uris":{"android":"levelo://app?vid=2fd72a1b-c1fe-427d-bfc0-8b3cc8863b1d","ios":"levelo://app?vid=2fd72a1b-c1fe-427d-bfc0-8b3cc8863b1d"},"vehicle_type_id":"4","last_reported":1706393174,"current_range_meters":20800,"station_id":"ce4bgk12rcd13ifvqbi0","pricing_plan_id":"free"},{"bike_id":"a1e1abf5-0fe2-4c64-a46a-18e6016ff9ee","system_id":"levelo_inurba_marseille","lat":43.304278,"lon":5.388868,"is_reserved":false,"is_disabled":false,"rental_uris":{"android":"levelo://app?vid=a1e1abf5-0fe2-4c64-a46a-18e6016ff9ee","ios":"levelo://app?vid=a1e1abf5-0fe2-4c64-a46a-18e6016ff9ee"},"vehicle_type_id":"4","last_reported":1706393174,"current_range_meters":20400,"station_id":"ce4bgk12rcd13ifvqbi0","pricing_plan_id":"free"},{"bike_id":"70605af0-3b87-42a5-a951-4a63dddf52ee","system_id":"levelo_inurba_marseille","lat":43.29974,"lon":5.38485,"is_reserved":false,"is_disabled":false,"rental_uris":{"android":"levelo://app?vid=70605af0-3b87-42a5-a951-4a63dddf52ee","ios":"levelo://app?vid=70605af0-3b87-42a5-a951-4a63dddf52ee"},"vehicle_type_id":"4","last_reported":1706393174,"current_range_meters":0,"station_id":"ce4bgj92rcd13ifvqbd0","pricing_plan_id":"free"},{"bike_id":"fd6dce2a-eb99-485b-a839-9d829db41d88","system_id":"levelo_inurba_marseille","lat":43.299707,"lon":5.384859,"is_reserved":false,"is_disabled":false,"rental_uris":{"android":"levelo://app?vid=fd6dce2a-eb99-485b-a839-9d829db41d88","ios":"levelo://app?vid=fd6dce2a-eb99-485b-a839-9d829db41d88"},"vehicle_type_id":"4","last_reported":1706393174,"current_range_meters":0,"station_id":"ce4bgj92rcd13ifvqbd0","pricing_plan_id":"free"},{"bike_id":"e216c413-70f2-4fb1-85b6-6989a34837a6","system_id":"levelo_inurba_marseille","lat":43.295279,"lon":5.375048,"is_reserved":false,"is_disabled":false,"rental_uris":{"android":"levelo://app?vid=e216c413-70f2-4fb1-85b6-6989a34837a6","ios":"levelo://app?vid=e216c413-70f2-4fb1-85b6-6989a34837a6"},"vehicle_type_id":"4","last_reported":1706393174,"current_range_meters":4000,"station_id":"ce4bgkp2rcd13ifvqbmg","pricing_plan_id":"free"},{"bike_id":"5643207f-0055-432c-a28c-641299db2902","system_id":"levelo_inurba_marseille","lat":43.298037,"lon":5.381066,"is_reserved":false,"is_disabled":false,"rental_uris":{"android":"levelo://app?vid=5643207f-0055-432c-a28c-641299db2902","ios":"levelo://app?vid=5643207f-0055-432c-a28c-641299db2902"},"vehicle_type_id":"4","last_reported":1706393174,"current_range_meters":12800,"station_id":"ce4bgip2rcd13ifvqbb0","pricing_plan_id":"free"},{"bike_id":"311f2bb5-da85-44fc-915b-153e21fa0c75","system_id":"levelo_inurba_marseille","lat":43.32367,"lon":5.388836,"is_reserved":false,"is_disabled":false,"rental_uris":{"android":"levelo://app?vid=311f2bb5-da85-44fc-915b-153e21fa0c75","ios":"levelo://app?vid=311f2bb5-da85-44fc-915b-153e21fa0c75"},"vehicle_type_id":"4","last_reported":1706393174,"current_range_meters":3200,"station_id":"ce4bhqp2rcd13ifvqhog","pricing_plan_id":"free"},{"bike_id":"e98c1561-21a0-441d-9954-5e91311044ba","system_id":"levelo_inurba_marseille","lat":43.32367,"lon":5.388836,"is_reserved":false,"is_disabled":false,"rental_uris":{"android":"levelo://app?vid=e98c1561-21a0-441d-9954-5e91311044ba","ios":"levelo://app?vid=e98c1561-21a0-441d-9954-5e91311044ba"},"vehicle_type_id":"4","last_reported":1706393174,"current_range_meters":0,"station_id":"ce4bhqp2rcd13ifvqhog","pricing_plan_id":"free"},{"bike_id":"74a6517a-2a3e-482c-abd3-6c87ed3b053b","system_id":"levelo_inurba_marseille","lat":43.32367,"lon":5.388836,"is_reserved":false,"is_disabled":false,"rental_uris":{"android":"levelo://app?vid=74a6517a-2a3e-482c-abd3-6c87ed3b053b","ios":"levelo://app?vid=74a6517a-2a3e-482c-abd3-6c87ed3b053b"},"vehicle_type_id":"4","last_reported":1706393174,"current_range_meters":0,"station_id":"ce4bhqp2rcd13ifvqhog","pricing_plan_id":"free"},{"bike_id":"36fdf3a9-6637-4abe-9106-b80fdb7b6025","system_id":"levelo_inurba_marseille","lat":43.32367,"lon":5.388836,"is_reserved":false,"is_disabled":false,"rental_uris":{"android":"levelo://app?vid=36fdf3a9-6637-4abe-9106-b80fdb7b6025","ios":"levelo://app?vid=36fdf3a9-6637-4abe-9106-b80fdb7b6025"},"vehicle_type_id":"4","last_reported":1706393174,"current_range_meters":16000,"station_id":"ce4bhqp2rcd13ifvqhog","pricing_plan_id":"free"},{"bike_id":"18a51545-c32e-4a40-bcff-065c6bd42c0f","system_id":"levelo_inurba_marseille","lat":43.29306,"lon":5.3717,"is_reserved":false,"is_disabled":false,"rental_uris":{"android":"levelo://app?vid=18a51545-c32e-4a40-bcff-065c6bd42c0f","ios":"levelo://app?vid=18a51545-c32e-4a40-bcff-065c6bd42c0f"},"vehicle_type_id":"4","last_reported":1706393174,"current_range_meters":0,"station_id":"ce4bgh92rcd13ifvqb40","pricing_plan_id":"free"},{"bike_id":"ae6aa349-8492-41d9-ab85-f47dc0855de0","system_id":"levelo_inurba_marseille","lat":43.29276,"lon":5.36845,"is_reserved":false,"is_disabled":false,"rental_uris":{"android":"levelo://app?vid=ae6aa349-8492-41d9-ab85-f47dc0855de0","ios":"levelo://app?vid=ae6aa349-8492-41d9-ab85-f47dc0855de0"},"vehicle_type_id":"4","last_reported":1706393174,"current_range_meters":0,"station_id":"ce4bhbp2rcd13ifvqesg","pricing_plan_id":"free"},{"bike_id":"4878ff4a-cef8-42f7-925f-872825eac88f","system_id":"levelo_inurba_marseille","lat":43.292749,"lon":5.368398,"is_reserved":false,"is_disabled":false,"rental_uris":{"android":"levelo://app?vid=4878ff4a-cef8-42f7-925f-872825eac88f","ios":"levelo://app?vid=4878ff4a-cef8-42f7-925f-872825eac88f"},"vehicle_type_id":"4","last_reported":1706393174,"current_range_meters":0,"station_id":"ce4bhbp2rcd13ifvqesg","pricing_plan_id":"free"},{"bike_id":"9f1d5f02-5e69-4afb-9572-a4ac22ad15c3","system_id":"levelo_inurba_marseille","lat":43.29302,"lon":5.37452,"is_reserved":false,"is_disabled":false,"rental_uris":{"android":"levelo://app?vid=9f1d5f02-5e69-4afb-9572-a4ac22ad15c3","ios":"levelo://app?vid=9f1d5f02-5e69-4afb-9572-a4ac22ad15c3"},"vehicle_type_id":"4","last_reported":1706393174,"current_range_meters":0,"station_id":"ce4bgi12rcd13ifvqb70","pricing_plan_id":"free"},{"bike_id":"25aa3a54-632b-4587-bc7d-41c24cb3374b","system_id":"levelo_inurba_marseille","lat":43.29301,"lon":5.37448,"is_reserved":false,"is_disabled":false,"rental_uris":{"android":"levelo://app?vid=25aa3a54-632b-4587-bc7d-41c24cb3374b","ios":"levelo://app?vid=25aa3a54-632b-4587-bc7d-41c24cb3374b"},"vehicle_type_id":"4","last_reported":1706393174,"current_range_meters":0,"station_id":"ce4bgi12rcd13ifvqb70","pricing_plan_id":"free"},{"bike_id":"8e6557db-8e3e-4cd9-87c3-0a7e161cab7b","system_id":"levelo_inurba_marseille","lat":43.306006,"lon":5.393558,"is_reserved":false,"is_disabled":false,"rental_uris":{"android":"levelo://app?vid=8e6557db-8e3e-4cd9-87c3-0a7e161cab7b","ios":"levelo://app?vid=8e6557db-8e3e-4cd9-87c3-0a7e161cab7b"},"vehicle_type_id":"4","last_reported":1706393174,"current_range_meters":0,"station_id":"ce4bh0p2rcd13ifvqd80","pricing_plan_id":"free"},{"bike_id":"2f9c8622-8515-44a9-b087-a5f1162d1dfb","system_id":"levelo_inurba_marseille","lat":43.29291,"lon":5.37445,"is_reserved":false,"is_disabled":false,"rental_uris":{"android":"levelo://app?vid=2f9c8622-8515-44a9-b087-a5f1162d1dfb","ios":"levelo://app?vid=2f9c8622-8515-44a9-b087-a5f1162d1dfb"},"vehicle_type_id":"4","last_reported":1706393174,"current_range_meters":0,"station_id":"ce4bgi12rcd13ifvqb70","pricing_plan_id":"free"},{"bike_id":"dd781ccd-3b82-411b-9ab5-e1f5d88ea8bd","system_id":"levelo_inurba_marseille","lat":43.303002,"lon":5.392142,"is_reserved":false,"is_disabled":false,"rental_uris":{"android":"levelo://app?vid=dd781ccd-3b82-411b-9ab5-e1f5d88ea8bd","ios":"levelo://app?vid=dd781ccd-3b82-411b-9ab5-e1f5d88ea8bd"},"vehicle_type_id":"4","last_reported":1706393174,"current_range_meters":400,"station_id":"ce4bgkh2rcd13ifvqbk0","pricing_plan_id":"free"},{"bike_id":"e79cf0f6-27bb-4ee3-a368-c3e0ac2c5e31","system_id":"levelo_inurba_marseille","lat":43.313291,"lon":5.396838,"is_reserved":false,"is_disabled":false,"rental_uris":{"android":"levelo://app?vid=e79cf0f6-27bb-4ee3-a368-c3e0ac2c5e31","ios":"levelo://app?vid=e79cf0f6-27bb-4ee3-a368-c3e0ac2c5e31"},"vehicle_type_id":"4","last_reported":1706393174,"current_range_meters":11600,"station_id":"ce4bgvp2rcd13ifvqcu0","pricing_plan_id":"free"},{"bike_id":"4c0fb44f-09ab-41a9-84d6-2db7e29c2253","system_id":"levelo_inurba_marseille","lat":43.309038,"lon":5.396546,"is_reserved":false,"is_disabled":false,"rental_uris":{"android":"levelo://app?vid=4c0fb44f-09ab-41a9-84d6-2db7e29c2253","ios":"levelo://app?vid=4c0fb44f-09ab-41a9-84d6-2db7e29c2253"},"vehicle_type_id":"4","last_reported":1706393174,"current_range_meters":4400,"station_id":"ce4bh012rcd13ifvqcv0","pricing_plan_id":"free"},{"bike_id":"91b6ce03-8d50-4ff9-ab43-eb203913956f","system_id":"levelo_inurba_marseille","lat":43.309038,"lon":5.396546,"is_reserved":false,"is_disabled":false,"rental_uris":{"android":"levelo://app?vid=91b6ce03-8d50-4ff9-ab43-eb203913956f","ios":"levelo://app?vid=91b6ce03-8d50-4ff9-ab43-eb203913956f"},"vehicle_type_id":"4","last_reported":1706393174,"current_range_meters":14400,"station_id":"ce4bh012rcd13ifvqcv0","pricing_plan_id":"free"},{"bike_id":"9533ac50-bb67-4d33-96e4-1b8fe9745f5c","system_id":"levelo_inurba_marseille","lat":43.309047,"lon":5.396551,"is_reserved":false,"is_disabled":false,"rental_uris":{"android":"levelo://app?vid=9533ac50-bb67-4d33-96e4-1b8fe9745f5c","ios":"levelo://app?vid=9533ac50-bb67-4d33-96e4-1b8fe9745f5c"},"vehicle_type_id":"4","last_reported":1706393174,"current_range_meters":21600,"station_id":"ce4bh012rcd13ifvqcv0","pricing_plan_id":"free"},{"bike_id":"96d7f536-13ce-448f-bc17-2f8afbc4f2e5","system_id":"levelo_inurba_marseille","lat":43.309038,"lon":5.396546,"is_reserved":false,"is_disabled":false,"rental_uris":{"android":"levelo://app?vid=96d7f536-13ce-448f-bc17-2f8afbc4f2e5","ios":"levelo://app?vid=96d7f536-13ce-448f-bc17-2f8afbc4f2e5"},"vehicle_type_id":"4","last_reported":1706393174,"current_range_meters":14400,"station_id":"ce4bh012rcd13ifvqcv0","pricing_plan_id":"free"},{"bike_id":"35a5a8f9-cff3-4876-955f-37d30e34a46e","system_id":"levelo_inurba_marseille","lat":43.295326,"lon":5.385438,"is_reserved":false,"is_disabled":false,"rental_uris":{"android":"levelo://app?vid=35a5a8f9-cff3-4876-955f-37d30e34a46e","ios":"levelo://app?vid=35a5a8f9-cff3-4876-955f-37d30e34a46e"},"vehicle_type_id":"4","last_reported":1706393174,"current_range_meters":0,"station_id":"ce4bgih2rcd13ifvqba0","pricing_plan_id":"free"},{"bike_id":"7a88baef-7765-4d21-b7a4-d18b783baf9d","system_id":"levelo_inurba_marseille","lat":43.302008,"lon":5.394694,"is_reserved":false,"is_disabled":false,"rental_uris":{"android":"levelo://app?vid=7a88baef-7765-4d21-b7a4-d18b783baf9d","ios":"levelo://app?vid=7a88baef-7765-4d21-b7a4-d18b783baf9d"},"vehicle_type_id":"4","last_reported":1706393174,"current_range_meters":0,"station_id":"ce4bh0p2rcd13ifvqd70","pricing_plan_id":"free"},{"bike_id":"a7d85f0f-61ee-4761-a65e-c26e4b7cb4e7","system_id":"levelo_inurba_marseille","lat":43.290441,"lon":5.359123,"is_reserved":false,"is_disabled":false,"rental_uris":{"android":"levelo://app?vid=a7d85f0f-61ee-4761-a65e-c26e4b7cb4e7","ios":"levelo://app?vid=a7d85f0f-61ee-4761-a65e-c26e4b7cb4e7"},"vehicle_type_id":"4","last_reported":1706393174,"current_range_meters":28000,"station_id":"","pricing_plan_id":"free"},{"bike_id":"3661d287-6810-42a6-937e-fa80876a9493","system_id":"levelo_inurba_marseille","lat":43.289933,"lon":5.371683,"is_reserved":false,"is_disabled":false,"rental_uris":{"android":"levelo://app?vid=3661d287-6810-42a6-937e-fa80876a9493","ios":"levelo://app?vid=3661d287-6810-42a6-937e-fa80876a9493"},"vehicle_type_id":"4","last_reported":1706393174,"current_range_meters":0,"station_id":"","pricing_plan_id":"free"},{"bike_id":"67e2c4f2-82c3-459e-959d-f23fb9af6bf5","system_id":"levelo_inurba_marseille","lat":43.290327,"lon":5.375711,"is_reserved":false,"is_disabled":false,"rental_uris":{"android":"levelo://app?vid=67e2c4f2-82c3-459e-959d-f23fb9af6bf5","ios":"levelo://app?vid=67e2c4f2-82c3-459e-959d-f23fb9af6bf5"},"vehicle_type_id":"4","last_reported":1706393174,"current_range_meters":0,"station_id":"ce4bh692rcd13ifvqe90","pricing_plan_id":"free"},{"bike_id":"4cc9114f-8d9b-4756-9c98-50179065917b","system_id":"levelo_inurba_marseille","lat":43.289184,"lon":5.366408,"is_reserved":false,"is_disabled":false,"rental_uris":{"android":"levelo://app?vid=4cc9114f-8d9b-4756-9c98-50179065917b","ios":"levelo://app?vid=4cc9114f-8d9b-4756-9c98-50179065917b"},"vehicle_type_id":"4","last_reported":1706393174,"current_range_meters":4000,"station_id":"ce4bhap2rcd13ifvqek0","pricing_plan_id":"free"},{"bike_id":"34352741-92b6-46cb-a96b-05c6fbd86707","system_id":"levelo_inurba_marseille","lat":43.29415,"lon":5.38623,"is_reserved":false,"is_disabled":false,"rental_uris":{"android":"levelo://app?vid=34352741-92b6-46cb-a96b-05c6fbd86707","ios":"levelo://app?vid=34352741-92b6-46cb-a96b-05c6fbd86707"},"vehicle_type_id":"4","last_reported":1706393174,"current_range_meters":0,"station_id":"ce4bh2h2rcd13ifvqdh0","pricing_plan_id":"free"},{"bike_id":"41772e7a-9baa-42cd-8354-92c1640fe8b8","system_id":"levelo_inurba_marseille","lat":43.292726,"lon":5.38441,"is_reserved":false,"is_disabled":false,"rental_uris":{"android":"levelo://app?vid=41772e7a-9baa-42cd-8354-92c1640fe8b8","ios":"levelo://app?vid=41772e7a-9baa-42cd-8354-92c1640fe8b8"},"vehicle_type_id":"4","last_reported":1706393174,"current_range_meters":0,"station_id":"ce4bh692rcd13ifvqea0","pricing_plan_id":"free"},{"bike_id":"dbddf17b-f217-4a18-b2b8-a8d63e416f42","system_id":"levelo_inurba_marseille","lat":43.297993,"lon":5.39329,"is_reserved":false,"is_disabled":false,"rental_uris":{"android":"levelo://app?vid=dbddf17b-f217-4a18-b2b8-a8d63e416f42","ios":"levelo://app?vid=dbddf17b-f217-4a18-b2b8-a8d63e416f42"},"vehicle_type_id":"4","last_reported":1706393174,"current_range_meters":4800,"station_id":"chh1huq6cuj3fo74tm60","pricing_plan_id":"free"},{"bike_id":"eaba0230-97b4-4bf4-a22f-856e0c9c0e8c","system_id":"levelo_inurba_marseille","lat":43.295169,"lon":5.390426,"is_reserved":false,"is_disabled":false,"rental_uris":{"android":"levelo://app?vid=eaba0230-97b4-4bf4-a22f-856e0c9c0e8c","ios":"levelo://app?vid=eaba0230-97b4-4bf4-a22f-856e0c9c0e8c"},"vehicle_type_id":"4","last_reported":1706393174,"current_range_meters":0,"station_id":"ce4bh3p2rcd13ifvqdp0","pricing_plan_id":"free"},{"bike_id":"342af207-fe36-4b30-8624-da2d5a2d0679","system_id":"levelo_inurba_marseille","lat":43.28986,"lon":5.378286,"is_reserved":false,"is_disabled":false,"rental_uris":{"android":"levelo://app?vid=342af207-fe36-4b30-8624-da2d5a2d0679","ios":"levelo://app?vid=342af207-fe36-4b30-8624-da2d5a2d0679"},"vehicle_type_id":"4","last_reported":1706393174,"current_range_meters":0,"station_id":"ce4bh9p2rcd13ifvqed0","pricing_plan_id":"free"},{"bike_id":"bfd0be84-bd7d-431f-aa85-9617794ebb2e","system_id":"levelo_inurba_marseille","lat":43.290995,"lon":5.381361,"is_reserved":false,"is_disabled":false,"rental_uris":{"android":"levelo://app?vid=bfd0be84-bd7d-431f-aa85-9617794ebb2e","ios":"levelo://app?vid=bfd0be84-bd7d-431f-aa85-9617794ebb2e"},"vehicle_type_id":"4","last_reported":1706393174,"current_range_meters":22000,"station_id":"ce4bh512rcd13ifvqe2g","pricing_plan_id":"free"},{"bike_id":"d56a1d2f-22f7-4538-bc8b-518c694d3674","system_id":"levelo_inurba_marseille","lat":43.295169,"lon":5.390426,"is_reserved":false,"is_disabled":false,"rental_uris":{"android":"levelo://app?vid=d56a1d2f-22f7-4538-bc8b-518c694d3674","ios":"levelo://app?vid=d56a1d2f-22f7-4538-bc8b-518c694d3674"},"vehicle_type_id":"4","last_reported":1706393174,"current_range_meters":20000,"station_id":"ce4bh3p2rcd13ifvqdp0","pricing_plan_id":"free"},{"bike_id":"04179be9-2029-42b1-a9f4-cc62e730c33f","system_id":"levelo_inurba_marseille","lat":43.2901,"lon":5.381269,"is_reserved":false,"is_disabled":false,"rental_uris":{"android":"levelo://app?vid=04179be9-2029-42b1-a9f4-cc62e730c33f","ios":"levelo://app?vid=04179be9-2029-42b1-a9f4-cc62e730c33f"},"vehicle_type_id":"4","last_reported":1706393174,"current_range_meters":15200,"station_id":"ce4bh4p2rcd13ifvqe1g","pricing_plan_id":"free"},{"bike_id":"a563cdbf-78b8-441c-8dce-8da1c3325b92","system_id":"levelo_inurba_marseille","lat":43.33749,"lon":5.37463,"is_reserved":false,"is_disabled":false,"rental_uris":{"android":"levelo://app?vid=a563cdbf-78b8-441c-8dce-8da1c3325b92","ios":"levelo://app?vid=a563cdbf-78b8-441c-8dce-8da1c3325b92"},"vehicle_type_id":"4","last_reported":1706393174,"current_range_meters":16400,"station_id":"","pricing_plan_id":"free"},{"bike_id":"b7f12eab-e0a6-499e-87ec-2b4381c4602a","system_id":"levelo_inurba_marseille","lat":43.337579,"lon":5.374913,"is_reserved":false,"is_disabled":false,"rental_uris":{"android":"levelo://app?vid=b7f12eab-e0a6-499e-87ec-2b4381c4602a","ios":"levelo://app?vid=b7f12eab-e0a6-499e-87ec-2b4381c4602a"},"vehicle_type_id":"4","last_reported":1706393174,"current_range_meters":22400,"station_id":"","pricing_plan_id":"free"},{"bike_id":"02cc1ce4-717f-4b60-a8ae-e32a4e8fb56c","system_id":"levelo_inurba_marseille","lat":43.337587,"lon":5.374866,"is_reserved":false,"is_disabled":false,"rental_uris":{"android":"levelo://app?vid=02cc1ce4-717f-4b60-a8ae-e32a4e8fb56c","ios":"levelo://app?vid=02cc1ce4-717f-4b60-a8ae-e32a4e8fb56c"},"vehicle_type_id":"4","last_reported":1706393174,"current_range_meters":10400,"station_id":"","pricing_plan_id":"free"},{"bike_id":"a9554a78-0f9d-4cdd-9ecd-598bb2d54931","system_id":"levelo_inurba_marseille","lat":43.337593,"lon":5.374838,"is_reserved":false,"is_disabled":false,"rental_uris":{"android":"levelo://app?vid=a9554a78-0f9d-4cdd-9ecd-598bb2d54931","ios":"levelo://app?vid=a9554a78-0f9d-4cdd-9ecd-598bb2d54931"},"vehicle_type_id":"4","last_reported":1706393174,"current_range_meters":30400,"station_id":"","pricing_plan_id":"free"},{"bike_id":"bf15bd6d-c834-4361-b722-f21e11fae632","system_id":"levelo_inurba_marseille","lat":43.30642,"lon":5.401031,"is_reserved":false,"is_disabled":false,"rental_uris":{"android":"levelo://app?vid=bf15bd6d-c834-4361-b722-f21e11fae632","ios":"levelo://app?vid=bf15bd6d-c834-4361-b722-f21e11fae632"},"vehicle_type_id":"4","last_reported":1706393174,"current_range_meters":6800,"station_id":"ce4bh112rcd13ifvqda0","pricing_plan_id":"free"},{"bike_id":"b7d3b81d-d85a-44b5-a0c7-8f9c9f74639e","system_id":"levelo_inurba_marseille","lat":43.33765,"lon":5.374672,"is_reserved":false,"is_disabled":false,"rental_uris":{"android":"levelo://app?vid=b7d3b81d-d85a-44b5-a0c7-8f9c9f74639e","ios":"levelo://app?vid=b7d3b81d-d85a-44b5-a0c7-8f9c9f74639e"},"vehicle_type_id":"4","last_reported":1706393174,"current_range_meters":29200,"station_id":"","pricing_plan_id":"free"},{"bike_id":"8d26c2b8-0837-4e8a-9c79-092e4a8df856","system_id":"levelo_inurba_marseille","lat":43.306412,"lon":5.401035,"is_reserved":false,"is_disabled":false,"rental_uris":{"android":"levelo://app?vid=8d26c2b8-0837-4e8a-9c79-092e4a8df856","ios":"levelo://app?vid=8d26c2b8-0837-4e8a-9c79-092e4a8df856"},"vehicle_type_id":"4","last_reported":1706393174,"current_range_meters":8000,"station_id":"ce4bh112rcd13ifvqda0","pricing_plan_id":"free"},{"bike_id":"1facbbf3-baac-42f8-85eb-cb1e36f3e4b9","system_id":"levelo_inurba_marseille","lat":43.33763,"lon":5.37486,"is_reserved":false,"is_disabled":false,"rental_uris":{"android":"levelo://app?vid=1facbbf3-baac-42f8-85eb-cb1e36f3e4b9","ios":"levelo://app?vid=1facbbf3-baac-42f8-85eb-cb1e36f3e4b9"},"vehicle_type_id":"4","last_reported":1706393174,"current_range_meters":17200,"station_id":"","pricing_plan_id":"free"},{"bike_id":"bd7c49e0-243f-4049-bc25-2de8f060bb29","system_id":"levelo_inurba_marseille","lat":43.33764,"lon":5.37489,"is_reserved":false,"is_disabled":false,"rental_uris":{"android":"levelo://app?vid=bd7c49e0-243f-4049-bc25-2de8f060bb29","ios":"levelo://app?vid=bd7c49e0-243f-4049-bc25-2de8f060bb29"},"vehicle_type_id":"4","last_reported":1706393174,"current_range_meters":23200,"station_id":"","pricing_plan_id":"free"},{"bike_id":"eaeff2f9-be33-4cbc-b315-c230be10dd9b","system_id":"levelo_inurba_marseille","lat":43.33766,"lon":5.37495,"is_reserved":false,"is_disabled":false,"rental_uris":{"android":"levelo://app?vid=eaeff2f9-be33-4cbc-b315-c230be10dd9b","ios":"levelo://app?vid=eaeff2f9-be33-4cbc-b315-c230be10dd9b"},"vehicle_type_id":"4","last_reported":1706393174,"current_range_meters":8400,"station_id":"","pricing_plan_id":"free"},{"bike_id":"e6c621d2-c67a-477d-a62d-eafba36d052e","system_id":"levelo_inurba_marseille","lat":43.301117,"lon":5.398795,"is_reserved":false,"is_disabled":false,"rental_uris":{"android":"levelo://app?vid=e6c621d2-c67a-477d-a62d-eafba36d052e","ios":"levelo://app?vid=e6c621d2-c67a-477d-a62d-eafba36d052e"},"vehicle_type_id":"4","last_reported":1706393174,"current_range_meters":5200,"station_id":"ce4bh0h2rcd13ifvqd40","pricing_plan_id":"free"},{"bike_id":"08e018e6-f212-4f99-9d7b-119b1ecb9bfc","system_id":"levelo_inurba_marseille","lat":43.301117,"lon":5.398795,"is_reserved":false,"is_disabled":false,"rental_uris":{"android":"levelo://app?vid=08e018e6-f212-4f99-9d7b-119b1ecb9bfc","ios":"levelo://app?vid=08e018e6-f212-4f99-9d7b-119b1ecb9bfc"},"vehicle_type_id":"4","last_reported":1706393174,"current_range_meters":11600,"station_id":"ce4bh0h2rcd13ifvqd40","pricing_plan_id":"free"},{"bike_id":"ecb7c8e2-42eb-4156-a934-f0836db9303a","system_id":"levelo_inurba_marseille","lat":43.298681,"lon":5.397225,"is_reserved":false,"is_disabled":false,"rental_uris":{"android":"levelo://app?vid=ecb7c8e2-42eb-4156-a934-f0836db9303a","ios":"levelo://app?vid=ecb7c8e2-42eb-4156-a934-f0836db9303a"},"vehicle_type_id":"4","last_reported":1706393174,"current_range_meters":2000,"station_id":"ce4bh0h2rcd13ifvqd50","pricing_plan_id":"free"},{"bike_id":"2fe24097-b1c2-4583-ba1f-cf8501171a4c","system_id":"levelo_inurba_marseille","lat":43.33767,"lon":5.377706,"is_reserved":false,"is_disabled":false,"rental_uris":{"android":"levelo://app?vid=2fe24097-b1c2-4583-ba1f-cf8501171a4c","ios":"levelo://app?vid=2fe24097-b1c2-4583-ba1f-cf8501171a4c"},"vehicle_type_id":"4","last_reported":1706393174,"current_range_meters":14800,"station_id":"","pricing_plan_id":"free"},{"bike_id":"31a59fe4-e4fb-4720-81c2-42f236664377","system_id":"levelo_inurba_marseille","lat":43.286961,"lon":5.373785,"is_reserved":false,"is_disabled":false,"rental_uris":{"android":"levelo://app?vid=31a59fe4-e4fb-4720-81c2-42f236664377","ios":"levelo://app?vid=31a59fe4-e4fb-4720-81c2-42f236664377"},"vehicle_type_id":"4","last_reported":1706393174,"current_range_meters":16400,"station_id":"ce4bh3p2rcd13ifvqdq0","pricing_plan_id":"free"},{"bike_id":"24a23882-3264-4306-918c-44eeaa3380a8","system_id":"levelo_inurba_marseille","lat":43.295194,"lon":5.39397,"is_reserved":false,"is_disabled":false,"rental_uris":{"android":"levelo://app?vid=24a23882-3264-4306-918c-44eeaa3380a8","ios":"levelo://app?vid=24a23882-3264-4306-918c-44eeaa3380a8"},"vehicle_type_id":"4","last_reported":1706393174,"current_range_meters":2400,"station_id":"ce4bh292rcd13ifvqdf0","pricing_plan_id":"free"},{"bike_id":"3c01dfb4-947a-4a24-ad25-74e89a3ca980","system_id":"levelo_inurba_marseille","lat":43.290345,"lon":5.38646,"is_reserved":false,"is_disabled":false,"rental_uris":{"android":"levelo://app?vid=3c01dfb4-947a-4a24-ad25-74e89a3ca980","ios":"levelo://app?vid=3c01dfb4-947a-4a24-ad25-74e89a3ca980"},"vehicle_type_id":"4","last_reported":1706393174,"current_range_meters":0,"station_id":"ce4bh4p2rcd13ifvqe0g","pricing_plan_id":"free"},{"bike_id":"7cdf7104-5a33-4e06-a795-e6aa86f77f29","system_id":"levelo_inurba_marseille","lat":43.29029,"lon":5.386377,"is_reserved":false,"is_disabled":false,"rental_uris":{"android":"levelo://app?vid=7cdf7104-5a33-4e06-a795-e6aa86f77f29","ios":"levelo://app?vid=7cdf7104-5a33-4e06-a795-e6aa86f77f29"},"vehicle_type_id":"4","last_reported":1706393174,"current_range_meters":0,"station_id":"ce4bh4p2rcd13ifvqe0g","pricing_plan_id":"free"},{"bike_id":"cb419dc8-49a4-4b16-8ab7-d07a55d883c4","system_id":"levelo_inurba_marseille","lat":43.290336,"lon":5.386425,"is_reserved":false,"is_disabled":false,"rental_uris":{"android":"levelo://app?vid=cb419dc8-49a4-4b16-8ab7-d07a55d883c4","ios":"levelo://app?vid=cb419dc8-49a4-4b16-8ab7-d07a55d883c4"},"vehicle_type_id":"4","last_reported":1706393174,"current_range_meters":6000,"station_id":"ce4bh4p2rcd13ifvqe0g","pricing_plan_id":"free"},{"bike_id":"183bb1c1-398f-466c-b05d-327ac4efc436","system_id":"levelo_inurba_marseille","lat":43.302511,"lon":5.400653,"is_reserved":false,"is_disabled":false,"rental_uris":{"android":"levelo://app?vid=183bb1c1-398f-466c-b05d-327ac4efc436","ios":"levelo://app?vid=183bb1c1-398f-466c-b05d-327ac4efc436"},"vehicle_type_id":"4","last_reported":1706393174,"current_range_meters":13600,"station_id":"ce4bgth2rcd13ifvqch0","pricing_plan_id":"free"},{"bike_id":"285c6f92-9402-4605-b497-fc24d4b1f364","system_id":"levelo_inurba_marseille","lat":43.289214,"lon":5.383956,"is_reserved":false,"is_disabled":false,"rental_uris":{"android":"levelo://app?vid=285c6f92-9402-4605-b497-fc24d4b1f364","ios":"levelo://app?vid=285c6f92-9402-4605-b497-fc24d4b1f364"},"vehicle_type_id":"4","last_reported":1706393174,"current_range_meters":0,"station_id":"ce4bh612rcd13ifvqe6g","pricing_plan_id":"free"},{"bike_id":"667c9776-60fa-46f6-938f-3e8727765853","system_id":"levelo_inurba_marseille","lat":43.30253,"lon":5.40071,"is_reserved":false,"is_disabled":false,"rental_uris":{"android":"levelo://app?vid=667c9776-60fa-46f6-938f-3e8727765853","ios":"levelo://app?vid=667c9776-60fa-46f6-938f-3e8727765853"},"vehicle_type_id":"4","last_reported":1706393174,"current_range_meters":800,"station_id":"ce4bgvh2rcd13ifvqcs0","pricing_plan_id":"free"},{"bike_id":"1b1f88f4-df68-4def-ac35-d4f7f6c8c955","system_id":"levelo_inurba_marseille","lat":43.29023,"lon":5.38657,"is_reserved":false,"is_disabled":false,"rental_uris":{"android":"levelo://app?vid=1b1f88f4-df68-4def-ac35-d4f7f6c8c955","ios":"levelo://app?vid=1b1f88f4-df68-4def-ac35-d4f7f6c8c955"},"vehicle_type_id":"4","last_reported":1706393174,"current_range_meters":0,"station_id":"ce4bh4p2rcd13ifvqe0g","pricing_plan_id":"free"},{"bike_id":"03447749-0c25-43f9-b101-2dd420e40b4a","system_id":"levelo_inurba_marseille","lat":43.286039,"lon":5.370681,"is_reserved":false,"is_disabled":false,"rental_uris":{"android":"levelo://app?vid=03447749-0c25-43f9-b101-2dd420e40b4a","ios":"levelo://app?vid=03447749-0c25-43f9-b101-2dd420e40b4a"},"vehicle_type_id":"4","last_reported":1706393174,"current_range_meters":8000,"station_id":"ce4bht12rcd13ifvqi60","pricing_plan_id":"free"},{"bike_id":"5adef036-cc6a-4db6-85e4-e5a2779a4b47","system_id":"levelo_inurba_marseille","lat":43.302759,"lon":5.400793,"is_reserved":false,"is_disabled":false,"rental_uris":{"android":"levelo://app?vid=5adef036-cc6a-4db6-85e4-e5a2779a4b47","ios":"levelo://app?vid=5adef036-cc6a-4db6-85e4-e5a2779a4b47"},"vehicle_type_id":"4","last_reported":1706393174,"current_range_meters":4400,"station_id":"ce4bgvh2rcd13ifvqcs0","pricing_plan_id":"free"},{"bike_id":"042646a1-a2e9-4214-8d19-77b9116708fc","system_id":"levelo_inurba_marseille","lat":43.287184,"lon":5.37937,"is_reserved":false,"is_disabled":false,"rental_uris":{"android":"levelo://app?vid=042646a1-a2e9-4214-8d19-77b9116708fc","ios":"levelo://app?vid=042646a1-a2e9-4214-8d19-77b9116708fc"},"vehicle_type_id":"4","last_reported":1706393174,"current_range_meters":4800,"station_id":"ce4bh9p2rcd13ifvqec0","pricing_plan_id":"free"},{"bike_id":"2210b93a-5598-4209-9797-7868b5569de9","system_id":"levelo_inurba_marseille","lat":43.291994,"lon":5.392907,"is_reserved":false,"is_disabled":false,"rental_uris":{"android":"levelo://app?vid=2210b93a-5598-4209-9797-7868b5569de9","ios":"levelo://app?vid=2210b93a-5598-4209-9797-7868b5569de9"},"vehicle_type_id":"4","last_reported":1706393174,"current_range_meters":18400,"station_id":"ce4bh192rcd13ifvqdd0","pricing_plan_id":"free"},{"bike_id":"c8c1c79c-4794-4fab-8b1a-fa36d90d783f","system_id":"levelo_inurba_marseille","lat":43.291994,"lon":5.392907,"is_reserved":false,"is_disabled":false,"rental_uris":{"android":"levelo://app?vid=c8c1c79c-4794-4fab-8b1a-fa36d90d783f","ios":"levelo://app?vid=c8c1c79c-4794-4fab-8b1a-fa36d90d783f"},"vehicle_type_id":"4","last_reported":1706393174,"current_range_meters":17200,"station_id":"ce4bh192rcd13ifvqdd0","pricing_plan_id":"free"},{"bike_id":"d5ad36f4-1365-4cda-9660-2f04755d1815","system_id":"levelo_inurba_marseille","lat":43.294314,"lon":5.397498,"is_reserved":false,"is_disabled":false,"rental_uris":{"android":"levelo://app?vid=d5ad36f4-1365-4cda-9660-2f04755d1815","ios":"levelo://app?vid=d5ad36f4-1365-4cda-9660-2f04755d1815"},"vehicle_type_id":"4","last_reported":1706393174,"current_range_meters":30000,"station_id":"ce4bh3h2rcd13ifvqdo0","pricing_plan_id":"free"},{"bike_id":"627d0d6d-5ebb-4711-9faf-8f53ee903ceb","system_id":"levelo_inurba_marseille","lat":43.294314,"lon":5.397498,"is_reserved":false,"is_disabled":false,"rental_uris":{"android":"levelo://app?vid=627d0d6d-5ebb-4711-9faf-8f53ee903ceb","ios":"levelo://app?vid=627d0d6d-5ebb-4711-9faf-8f53ee903ceb"},"vehicle_type_id":"4","last_reported":1706393174,"current_range_meters":27600,"station_id":"ce4bh3h2rcd13ifvqdo0","pricing_plan_id":"free"},{"bike_id":"d464a807-7e7f-4991-bd28-630bfbfd1e92","system_id":"levelo_inurba_marseille","lat":43.295713,"lon":5.399639,"is_reserved":false,"is_disabled":false,"rental_uris":{"android":"levelo://app?vid=d464a807-7e7f-4991-bd28-630bfbfd1e92","ios":"levelo://app?vid=d464a807-7e7f-4991-bd28-630bfbfd1e92"},"vehicle_type_id":"4","last_reported":1706393174,"current_range_meters":0,"station_id":"ce4bh312rcd13ifvqdj0","pricing_plan_id":"free"},{"bike_id":"d857ccfe-fe6f-44ca-8cb4-418a361337cd","system_id":"levelo_inurba_marseille","lat":43.295713,"lon":5.399639,"is_reserved":false,"is_disabled":false,"rental_uris":{"android":"levelo://app?vid=d857ccfe-fe6f-44ca-8cb4-418a361337cd","ios":"levelo://app?vid=d857ccfe-fe6f-44ca-8cb4-418a361337cd"},"vehicle_type_id":"4","last_reported":1706393174,"current_range_meters":26000,"station_id":"ce4bh312rcd13ifvqdj0","pricing_plan_id":"free"},{"bike_id":"0e26b1ea-95fb-4555-9e18-0f73a3b37904","system_id":"levelo_inurba_marseille","lat":43.286595,"lon":5.386795,"is_reserved":false,"is_disabled":false,"rental_uris":{"android":"levelo://app?vid=0e26b1ea-95fb-4555-9e18-0f73a3b37904","ios":"levelo://app?vid=0e26b1ea-95fb-4555-9e18-0f73a3b37904"},"vehicle_type_id":"4","last_reported":1706393174,"current_range_meters":8400,"station_id":"ce4bh492rcd13ifvqdug","pricing_plan_id":"free"},{"bike_id":"0aaafe82-2b66-4b19-8213-91c8c8775ac7","system_id":"levelo_inurba_marseille","lat":43.286595,"lon":5.386795,"is_reserved":false,"is_disabled":false,"rental_uris":{"android":"levelo://app?vid=0aaafe82-2b66-4b19-8213-91c8c8775ac7","ios":"levelo://app?vid=0aaafe82-2b66-4b19-8213-91c8c8775ac7"},"vehicle_type_id":"4","last_reported":1706393174,"current_range_meters":24000,"station_id":"ce4bh492rcd13ifvqdug","pricing_plan_id":"free"},{"bike_id":"6574cac2-cbe4-48bf-b966-0abe097c61f7","system_id":"levelo_inurba_marseille","lat":43.286595,"lon":5.386795,"is_reserved":false,"is_disabled":false,"rental_uris":{"android":"levelo://app?vid=6574cac2-cbe4-48bf-b966-0abe097c61f7","ios":"levelo://app?vid=6574cac2-cbe4-48bf-b966-0abe097c61f7"},"vehicle_type_id":"4","last_reported":1706393174,"current_range_meters":13200,"station_id":"ce4bh492rcd13ifvqdug","pricing_plan_id":"free"},{"bike_id":"a933f3b1-87d0-4218-9b6f-2f93e8b3d5bb","system_id":"levelo_inurba_marseille","lat":43.286595,"lon":5.386795,"is_reserved":false,"is_disabled":false,"rental_uris":{"android":"levelo://app?vid=a933f3b1-87d0-4218-9b6f-2f93e8b3d5bb","ios":"levelo://app?vid=a933f3b1-87d0-4218-9b6f-2f93e8b3d5bb"},"vehicle_type_id":"4","last_reported":1706393174,"current_range_meters":9600,"station_id":"ce4bh492rcd13ifvqdug","pricing_plan_id":"free"},{"bike_id":"4ed148e5-1c31-4df7-b39a-5bb838397399","system_id":"levelo_inurba_marseille","lat":43.286595,"lon":5.386795,"is_reserved":false,"is_disabled":false,"rental_uris":{"android":"levelo://app?vid=4ed148e5-1c31-4df7-b39a-5bb838397399","ios":"levelo://app?vid=4ed148e5-1c31-4df7-b39a-5bb838397399"},"vehicle_type_id":"4","last_reported":1706393174,"current_range_meters":10400,"station_id":"ce4bh492rcd13ifvqdug","pricing_plan_id":"free"},{"bike_id":"b0aa9168-35cd-47bc-8379-c83afb07e727","system_id":"levelo_inurba_marseille","lat":43.286595,"lon":5.386795,"is_reserved":false,"is_disabled":false,"rental_uris":{"android":"levelo://app?vid=b0aa9168-35cd-47bc-8379-c83afb07e727","ios":"levelo://app?vid=b0aa9168-35cd-47bc-8379-c83afb07e727"},"vehicle_type_id":"4","last_reported":1706393174,"current_range_meters":9200,"station_id":"ce4bh492rcd13ifvqdug","pricing_plan_id":"free"},{"bike_id":"07206f66-67ea-423d-92cc-c4a1575a94e2","system_id":"levelo_inurba_marseille","lat":43.286595,"lon":5.386795,"is_reserved":false,"is_disabled":false,"rental_uris":{"android":"levelo://app?vid=07206f66-67ea-423d-92cc-c4a1575a94e2","ios":"levelo://app?vid=07206f66-67ea-423d-92cc-c4a1575a94e2"},"vehicle_type_id":"4","last_reported":1706393174,"current_range_meters":12800,"station_id":"ce4bh492rcd13ifvqdug","pricing_plan_id":"free"},{"bike_id":"104f275a-2283-43ac-96be-fc14de6f737a","system_id":"levelo_inurba_marseille","lat":43.286595,"lon":5.386795,"is_reserved":false,"is_disabled":false,"rental_uris":{"android":"levelo://app?vid=104f275a-2283-43ac-96be-fc14de6f737a","ios":"levelo://app?vid=104f275a-2283-43ac-96be-fc14de6f737a"},"vehicle_type_id":"4","last_reported":1706393174,"current_range_meters":18400,"station_id":"ce4bh492rcd13ifvqdug","pricing_plan_id":"free"},{"bike_id":"b29b4b3a-7a43-4939-bb05-5f4f2fe881f9","system_id":"levelo_inurba_marseille","lat":43.319179,"lon":5.407725,"is_reserved":false,"is_disabled":false,"rental_uris":{"android":"levelo://app?vid=b29b4b3a-7a43-4939-bb05-5f4f2fe881f9","ios":"levelo://app?vid=b29b4b3a-7a43-4939-bb05-5f4f2fe881f9"},"vehicle_type_id":"4","last_reported":1706393174,"current_range_meters":400,"station_id":"ce4bhq12rcd13ifvqhig","pricing_plan_id":"free"},{"bike_id":"4e630ad7-3185-43e3-ae92-6b92cc0697b6","system_id":"levelo_inurba_marseille","lat":43.319179,"lon":5.407725,"is_reserved":false,"is_disabled":false,"rental_uris":{"android":"levelo://app?vid=4e630ad7-3185-43e3-ae92-6b92cc0697b6","ios":"levelo://app?vid=4e630ad7-3185-43e3-ae92-6b92cc0697b6"},"vehicle_type_id":"4","last_reported":1706393174,"current_range_meters":23600,"station_id":"ce4bhq12rcd13ifvqhig","pricing_plan_id":"free"},{"bike_id":"2b5f4982-548b-4158-a72b-a9e801ba15e5","system_id":"levelo_inurba_marseille","lat":43.323464,"lon":5.406297,"is_reserved":false,"is_disabled":false,"rental_uris":{"android":"levelo://app?vid=2b5f4982-548b-4158-a72b-a9e801ba15e5","ios":"levelo://app?vid=2b5f4982-548b-4158-a72b-a9e801ba15e5"},"vehicle_type_id":"4","last_reported":1706393174,"current_range_meters":29200,"station_id":"ce4bhq92rcd13ifvqhjg","pricing_plan_id":"free"},{"bike_id":"2bb38835-1a5e-4d01-8935-6396d43e5266","system_id":"levelo_inurba_marseille","lat":43.337168,"lon":5.391825,"is_reserved":false,"is_disabled":false,"rental_uris":{"android":"levelo://app?vid=2bb38835-1a5e-4d01-8935-6396d43e5266","ios":"levelo://app?vid=2bb38835-1a5e-4d01-8935-6396d43e5266"},"vehicle_type_id":"4","last_reported":1706393174,"current_range_meters":23600,"station_id":"ce4bhr92rcd13ifvqhsg","pricing_plan_id":"free"},{"bike_id":"a3f30509-feaf-4375-af71-8a441027e5bd","system_id":"levelo_inurba_marseille","lat":43.33717,"lon":5.391857,"is_reserved":false,"is_disabled":false,"rental_uris":{"android":"levelo://app?vid=a3f30509-feaf-4375-af71-8a441027e5bd","ios":"levelo://app?vid=a3f30509-feaf-4375-af71-8a441027e5bd"},"vehicle_type_id":"4","last_reported":1706393174,"current_range_meters":27200,"station_id":"ce4bhr92rcd13ifvqhsg","pricing_plan_id":"free"},{"bike_id":"3c982f92-c162-4958-96ed-bd3ab8ee1412","system_id":"levelo_inurba_marseille","lat":43.323464,"lon":5.406297,"is_reserved":false,"is_disabled":false,"rental_uris":{"android":"levelo://app?vid=3c982f92-c162-4958-96ed-bd3ab8ee1412","ios":"levelo://app?vid=3c982f92-c162-4958-96ed-bd3ab8ee1412"},"vehicle_type_id":"4","last_reported":1706393174,"current_range_meters":20400,"station_id":"ce4bhq92rcd13ifvqhjg","pricing_plan_id":"free"},{"bike_id":"f0a3e5fc-9d7c-4da2-b1b0-e45efcaa6a87","system_id":"levelo_inurba_marseille","lat":43.284793,"lon":5.384113,"is_reserved":false,"is_disabled":false,"rental_uris":{"android":"levelo://app?vid=f0a3e5fc-9d7c-4da2-b1b0-e45efcaa6a87","ios":"levelo://app?vid=f0a3e5fc-9d7c-4da2-b1b0-e45efcaa6a87"},"vehicle_type_id":"4","last_reported":1706393174,"current_range_meters":18800,"station_id":"ce4bh512rcd13ifvqe3g","pricing_plan_id":"free"},{"bike_id":"02eb3749-e4c0-459b-a28b-7286fb7444ff","system_id":"levelo_inurba_marseille","lat":43.284793,"lon":5.384119,"is_reserved":false,"is_disabled":false,"rental_uris":{"android":"levelo://app?vid=02eb3749-e4c0-459b-a28b-7286fb7444ff","ios":"levelo://app?vid=02eb3749-e4c0-459b-a28b-7286fb7444ff"},"vehicle_type_id":"4","last_reported":1706393174,"current_range_meters":2000,"station_id":"ce4bh512rcd13ifvqe3g","pricing_plan_id":"free"},{"bike_id":"3676d0db-772b-4f6b-b8a8-ea0651b4c22a","system_id":"levelo_inurba_marseille","lat":43.284787,"lon":5.384116,"is_reserved":false,"is_disabled":false,"rental_uris":{"android":"levelo://app?vid=3676d0db-772b-4f6b-b8a8-ea0651b4c22a","ios":"levelo://app?vid=3676d0db-772b-4f6b-b8a8-ea0651b4c22a"},"vehicle_type_id":"4","last_reported":1706393174,"current_range_meters":3600,"station_id":"ce4bh512rcd13ifvqe3g","pricing_plan_id":"free"},{"bike_id":"0dac303a-9b07-48f7-97cd-0cc8ac861930","system_id":"levelo_inurba_marseille","lat":43.283494,"lon":5.380945,"is_reserved":false,"is_disabled":false,"rental_uris":{"android":"levelo://app?vid=0dac303a-9b07-48f7-97cd-0cc8ac861930","ios":"levelo://app?vid=0dac303a-9b07-48f7-97cd-0cc8ac861930"},"vehicle_type_id":"4","last_reported":1706393174,"current_range_meters":800,"station_id":"ce4bh412rcd13ifvqdr0","pricing_plan_id":"free"},{"bike_id":"3a330916-ddbf-4c1b-aa02-f263d7e67157","system_id":"levelo_inurba_marseille","lat":43.288458,"lon":5.3931,"is_reserved":false,"is_disabled":false,"rental_uris":{"android":"levelo://app?vid=3a330916-ddbf-4c1b-aa02-f263d7e67157","ios":"levelo://app?vid=3a330916-ddbf-4c1b-aa02-f263d7e67157"},"vehicle_type_id":"4","last_reported":1706393174,"current_range_meters":0,"station_id":"ce4bh2p2rcd13ifvqdi0","pricing_plan_id":"free"},{"bike_id":"345391b5-e039-4469-9c3a-ecdc15645f0c","system_id":"levelo_inurba_marseille","lat":43.283498,"lon":5.380948,"is_reserved":false,"is_disabled":false,"rental_uris":{"android":"levelo://app?vid=345391b5-e039-4469-9c3a-ecdc15645f0c","ios":"levelo://app?vid=345391b5-e039-4469-9c3a-ecdc15645f0c"},"vehicle_type_id":"4","last_reported":1706393174,"current_range_meters":21600,"station_id":"ce4bh412rcd13ifvqdr0","pricing_plan_id":"free"},{"bike_id":"b41bcd76-cb12-4b33-95cd-9444d1e23578","system_id":"levelo_inurba_marseille","lat":43.293556,"lon":5.401561,"is_reserved":false,"is_disabled":false,"rental_uris":{"android":"levelo://app?vid=b41bcd76-cb12-4b33-95cd-9444d1e23578","ios":"levelo://app?vid=b41bcd76-cb12-4b33-95cd-9444d1e23578"},"vehicle_type_id":"4","last_reported":1706393174,"current_range_meters":8400,"station_id":"","pricing_plan_id":"free"},{"bike_id":"9c44152c-7d5d-45bd-a809-4c5dec73d8e8","system_id":"levelo_inurba_marseille","lat":43.289363,"lon":5.396322,"is_reserved":false,"is_disabled":false,"rental_uris":{"android":"levelo://app?vid=9c44152c-7d5d-45bd-a809-4c5dec73d8e8","ios":"levelo://app?vid=9c44152c-7d5d-45bd-a809-4c5dec73d8e8"},"vehicle_type_id":"4","last_reported":1706393174,"current_range_meters":0,"station_id":"ce4bh3h2rcd13ifvqdn0","pricing_plan_id":"free"},{"bike_id":"c07669b8-7477-4de7-b9ed-51c2ee95c1a6","system_id":"levelo_inurba_marseille","lat":43.292724,"lon":5.401131,"is_reserved":false,"is_disabled":false,"rental_uris":{"android":"levelo://app?vid=c07669b8-7477-4de7-b9ed-51c2ee95c1a6","ios":"levelo://app?vid=c07669b8-7477-4de7-b9ed-51c2ee95c1a6"},"vehicle_type_id":"4","last_reported":1706393174,"current_range_meters":8000,"station_id":"ce4bh312rcd13ifvqdk0","pricing_plan_id":"free"},{"bike_id":"966ade0a-0225-4431-957c-5bc996a7f784","system_id":"levelo_inurba_marseille","lat":43.292724,"lon":5.401131,"is_reserved":false,"is_disabled":false,"rental_uris":{"android":"levelo://app?vid=966ade0a-0225-4431-957c-5bc996a7f784","ios":"levelo://app?vid=966ade0a-0225-4431-957c-5bc996a7f784"},"vehicle_type_id":"4","last_reported":1706393174,"current_range_meters":11200,"station_id":"ce4bh312rcd13ifvqdk0","pricing_plan_id":"free"},{"bike_id":"f7d4e601-ef44-48be-98d9-621364370410","system_id":"levelo_inurba_marseille","lat":43.29269,"lon":5.40122,"is_reserved":false,"is_disabled":false,"rental_uris":{"android":"levelo://app?vid=f7d4e601-ef44-48be-98d9-621364370410","ios":"levelo://app?vid=f7d4e601-ef44-48be-98d9-621364370410"},"vehicle_type_id":"4","last_reported":1706393174,"current_range_meters":20400,"station_id":"ce4bh312rcd13ifvqdk0","pricing_plan_id":"free"},{"bike_id":"20327c85-a765-40c3-8e2c-2f88a70bcf31","system_id":"levelo_inurba_marseille","lat":43.28261,"lon":5.35062,"is_reserved":false,"is_disabled":false,"rental_uris":{"android":"levelo://app?vid=20327c85-a765-40c3-8e2c-2f88a70bcf31","ios":"levelo://app?vid=20327c85-a765-40c3-8e2c-2f88a70bcf31"},"vehicle_type_id":"4","last_reported":1706393174,"current_range_meters":10800,"station_id":"ce4bhbp2rcd13ifvqerg","pricing_plan_id":"free"},{"bike_id":"7e97b05d-4262-409b-b424-62f564fd7923","system_id":"levelo_inurba_marseille","lat":43.280382,"lon":5.369291,"is_reserved":false,"is_disabled":false,"rental_uris":{"android":"levelo://app?vid=7e97b05d-4262-409b-b424-62f564fd7923","ios":"levelo://app?vid=7e97b05d-4262-409b-b424-62f564fd7923"},"vehicle_type_id":"4","last_reported":1706393174,"current_range_meters":16800,"station_id":"ce4bha12rcd13ifvqef0","pricing_plan_id":"free"},{"bike_id":"b24d3f3b-f4bc-42c8-a4e9-e0ee81e33637","system_id":"levelo_inurba_marseille","lat":43.28039,"lon":5.369297,"is_reserved":false,"is_disabled":false,"rental_uris":{"android":"levelo://app?vid=b24d3f3b-f4bc-42c8-a4e9-e0ee81e33637","ios":"levelo://app?vid=b24d3f3b-f4bc-42c8-a4e9-e0ee81e33637"},"vehicle_type_id":"4","last_reported":1706393174,"current_range_meters":5200,"station_id":"ce4bha12rcd13ifvqef0","pricing_plan_id":"free"},{"bike_id":"bedd07bf-1366-4b98-96dd-5f8f7e8bf8c1","system_id":"levelo_inurba_marseille","lat":43.28039,"lon":5.369297,"is_reserved":false,"is_disabled":false,"rental_uris":{"android":"levelo://app?vid=bedd07bf-1366-4b98-96dd-5f8f7e8bf8c1","ios":"levelo://app?vid=bedd07bf-1366-4b98-96dd-5f8f7e8bf8c1"},"vehicle_type_id":"4","last_reported":1706393174,"current_range_meters":3200,"station_id":"ce4bha12rcd13ifvqef0","pricing_plan_id":"free"},{"bike_id":"6244c858-3b3c-44c2-ac05-b27d4965fabc","system_id":"levelo_inurba_marseille","lat":43.29041,"lon":5.399634,"is_reserved":false,"is_disabled":false,"rental_uris":{"android":"levelo://app?vid=6244c858-3b3c-44c2-ac05-b27d4965fabc","ios":"levelo://app?vid=6244c858-3b3c-44c2-ac05-b27d4965fabc"},"vehicle_type_id":"4","last_reported":1706393174,"current_range_meters":800,"station_id":"ce4bh392rcd13ifvqdm0","pricing_plan_id":"free"},{"bike_id":"9c6d4e97-d7ff-478a-a163-aa8e8af0297b","system_id":"levelo_inurba_marseille","lat":43.281044,"lon":5.378308,"is_reserved":false,"is_disabled":false,"rental_uris":{"android":"levelo://app?vid=9c6d4e97-d7ff-478a-a163-aa8e8af0297b","ios":"levelo://app?vid=9c6d4e97-d7ff-478a-a163-aa8e8af0297b"},"vehicle_type_id":"4","last_reported":1706393174,"current_range_meters":18800,"station_id":"ce4bha12rcd13ifvqee0","pricing_plan_id":"free"},{"bike_id":"e9923cc4-b9d2-4aa3-974d-bd03808d8050","system_id":"levelo_inurba_marseille","lat":43.29041,"lon":5.399634,"is_reserved":false,"is_disabled":false,"rental_uris":{"android":"levelo://app?vid=e9923cc4-b9d2-4aa3-974d-bd03808d8050","ios":"levelo://app?vid=e9923cc4-b9d2-4aa3-974d-bd03808d8050"},"vehicle_type_id":"4","last_reported":1706393174,"current_range_meters":7600,"station_id":"ce4bh392rcd13ifvqdm0","pricing_plan_id":"free"},{"bike_id":"7792ccd8-4db6-4d64-b733-ea6e4a16a389","system_id":"levelo_inurba_marseille","lat":43.296263,"lon":5.40601,"is_reserved":false,"is_disabled":false,"rental_uris":{"android":"levelo://app?vid=7792ccd8-4db6-4d64-b733-ea6e4a16a389","ios":"levelo://app?vid=7792ccd8-4db6-4d64-b733-ea6e4a16a389"},"vehicle_type_id":"4","last_reported":1706393174,"current_range_meters":8800,"station_id":"ce4bh0h2rcd13ifvqd60","pricing_plan_id":"free"},{"bike_id":"6ad524ec-8dc6-4cb3-b55e-f661989d8fc0","system_id":"levelo_inurba_marseille","lat":43.281044,"lon":5.378308,"is_reserved":false,"is_disabled":false,"rental_uris":{"android":"levelo://app?vid=6ad524ec-8dc6-4cb3-b55e-f661989d8fc0","ios":"levelo://app?vid=6ad524ec-8dc6-4cb3-b55e-f661989d8fc0"},"vehicle_type_id":"4","last_reported":1706393174,"current_range_meters":30400,"station_id":"ce4bha12rcd13ifvqee0","pricing_plan_id":"free"},{"bike_id":"82ea761d-f23a-4d46-a459-4230548b688b","system_id":"levelo_inurba_marseille","lat":43.28573,"lon":5.394992,"is_reserved":false,"is_disabled":false,"rental_uris":{"android":"levelo://app?vid=82ea761d-f23a-4d46-a459-4230548b688b","ios":"levelo://app?vid=82ea761d-f23a-4d46-a459-4230548b688b"},"vehicle_type_id":"4","last_reported":1706393174,"current_range_meters":11200,"station_id":"ce4bh292rcd13ifvqdg0","pricing_plan_id":"free"},{"bike_id":"0b06d2eb-4b86-4521-b262-b5461273decc","system_id":"levelo_inurba_marseille","lat":43.284462,"lon":5.392121,"is_reserved":false,"is_disabled":false,"rental_uris":{"android":"levelo://app?vid=0b06d2eb-4b86-4521-b262-b5461273decc","ios":"levelo://app?vid=0b06d2eb-4b86-4521-b262-b5461273decc"},"vehicle_type_id":"4","last_reported":1706393174,"current_range_meters":22800,"station_id":"ce4bhoh2rcd13ifvqh5g","pricing_plan_id":"free"},{"bike_id":"389446d9-6922-4319-a6fd-c02e7d12e3e1","system_id":"levelo_inurba_marseille","lat":43.28573,"lon":5.394992,"is_reserved":false,"is_disabled":false,"rental_uris":{"android":"levelo://app?vid=389446d9-6922-4319-a6fd-c02e7d12e3e1","ios":"levelo://app?vid=389446d9-6922-4319-a6fd-c02e7d12e3e1"},"vehicle_type_id":"4","last_reported":1706393174,"current_range_meters":13200,"station_id":"ce4bh292rcd13ifvqdg0","pricing_plan_id":"free"},{"bike_id":"046406e2-3124-4f65-a46c-e831ec439c33","system_id":"levelo_inurba_marseille","lat":43.326605,"lon":5.409903,"is_reserved":false,"is_disabled":false,"rental_uris":{"android":"levelo://app?vid=046406e2-3124-4f65-a46c-e831ec439c33","ios":"levelo://app?vid=046406e2-3124-4f65-a46c-e831ec439c33"},"vehicle_type_id":"4","last_reported":1706393174,"current_range_meters":30000,"station_id":"ce4bhpp2rcd13ifvqhgg","pricing_plan_id":"free"},{"bike_id":"7b2e6cc4-d84f-4dd1-98b9-fc9f8c3a9992","system_id":"levelo_inurba_marseille","lat":43.28295,"lon":5.390938,"is_reserved":false,"is_disabled":false,"rental_uris":{"android":"levelo://app?vid=7b2e6cc4-d84f-4dd1-98b9-fc9f8c3a9992","ios":"levelo://app?vid=7b2e6cc4-d84f-4dd1-98b9-fc9f8c3a9992"},"vehicle_type_id":"4","last_reported":1706393174,"current_range_meters":0,"station_id":"","pricing_plan_id":"free"},{"bike_id":"ae0c10aa-7f2a-444a-833c-6a81e35da4cf","system_id":"levelo_inurba_marseille","lat":43.279087,"lon":5.380114,"is_reserved":false,"is_disabled":false,"rental_uris":{"android":"levelo://app?vid=ae0c10aa-7f2a-444a-833c-6a81e35da4cf","ios":"levelo://app?vid=ae0c10aa-7f2a-444a-833c-6a81e35da4cf"},"vehicle_type_id":"4","last_reported":1706393174,"current_range_meters":0,"station_id":"ce4bhf92rcd13ifvqf50","pricing_plan_id":"free"},{"bike_id":"9114dfde-63c5-490b-8080-cb1c7a31fe39","system_id":"levelo_inurba_marseille","lat":43.279087,"lon":5.380114,"is_reserved":false,"is_disabled":false,"rental_uris":{"android":"levelo://app?vid=9114dfde-63c5-490b-8080-cb1c7a31fe39","ios":"levelo://app?vid=9114dfde-63c5-490b-8080-cb1c7a31fe39"},"vehicle_type_id":"4","last_reported":1706393174,"current_range_meters":0,"station_id":"ce4bhf92rcd13ifvqf50","pricing_plan_id":"free"},{"bike_id":"388a7e3a-fedb-4e1f-bdc7-f33bc5a1260e","system_id":"levelo_inurba_marseille","lat":43.287154,"lon":5.399979,"is_reserved":false,"is_disabled":false,"rental_uris":{"android":"levelo://app?vid=388a7e3a-fedb-4e1f-bdc7-f33bc5a1260e","ios":"levelo://app?vid=388a7e3a-fedb-4e1f-bdc7-f33bc5a1260e"},"vehicle_type_id":"4","last_reported":1706393174,"current_range_meters":24400,"station_id":"ce4bho92rcd13ifvqh3g","pricing_plan_id":"free"},{"bike_id":"3bb97bac-72f4-4034-b5c6-039901b30c29","system_id":"levelo_inurba_marseille","lat":43.287154,"lon":5.399979,"is_reserved":false,"is_disabled":false,"rental_uris":{"android":"levelo://app?vid=3bb97bac-72f4-4034-b5c6-039901b30c29","ios":"levelo://app?vid=3bb97bac-72f4-4034-b5c6-039901b30c29"},"vehicle_type_id":"4","last_reported":1706393174,"current_range_meters":14400,"station_id":"ce4bho92rcd13ifvqh3g","pricing_plan_id":"free"},{"bike_id":"a11a790b-415e-4ca7-a04c-30522329e588","system_id":"levelo_inurba_marseille","lat":43.287154,"lon":5.399979,"is_reserved":false,"is_disabled":false,"rental_uris":{"android":"levelo://app?vid=a11a790b-415e-4ca7-a04c-30522329e588","ios":"levelo://app?vid=a11a790b-415e-4ca7-a04c-30522329e588"},"vehicle_type_id":"4","last_reported":1706393174,"current_range_meters":22800,"station_id":"ce4bho92rcd13ifvqh3g","pricing_plan_id":"free"},{"bike_id":"4977dd65-369e-417b-9c52-fe977a945b82","system_id":"levelo_inurba_marseille","lat":43.320045,"lon":5.415048,"is_reserved":false,"is_disabled":false,"rental_uris":{"android":"levelo://app?vid=4977dd65-369e-417b-9c52-fe977a945b82","ios":"levelo://app?vid=4977dd65-369e-417b-9c52-fe977a945b82"},"vehicle_type_id":"4","last_reported":1706393174,"current_range_meters":28400,"station_id":"ce4bhq92rcd13ifvqhkg","pricing_plan_id":"free"},{"bike_id":"3d1c37b9-39b8-438c-b040-f872b42fe519","system_id":"levelo_inurba_marseille","lat":43.27964,"lon":5.38712,"is_reserved":false,"is_disabled":false,"rental_uris":{"android":"levelo://app?vid=3d1c37b9-39b8-438c-b040-f872b42fe519","ios":"levelo://app?vid=3d1c37b9-39b8-438c-b040-f872b42fe519"},"vehicle_type_id":"4","last_reported":1706393174,"current_range_meters":17200,"station_id":"ce4bhg12rcd13ifvqf80","pricing_plan_id":"free"},{"bike_id":"1b456cd4-399e-4a68-9799-30eda539205f","system_id":"levelo_inurba_marseille","lat":43.292571,"lon":5.409107,"is_reserved":false,"is_disabled":false,"rental_uris":{"android":"levelo://app?vid=1b456cd4-399e-4a68-9799-30eda539205f","ios":"levelo://app?vid=1b456cd4-399e-4a68-9799-30eda539205f"},"vehicle_type_id":"4","last_reported":1706393174,"current_range_meters":8400,"station_id":"ce4bh192rcd13ifvqdc0","pricing_plan_id":"free"},{"bike_id":"ac4a25d1-753e-4a51-935f-e3f0309c7eaa","system_id":"levelo_inurba_marseille","lat":43.325243,"lon":5.414326,"is_reserved":false,"is_disabled":false,"rental_uris":{"android":"levelo://app?vid=ac4a25d1-753e-4a51-935f-e3f0309c7eaa","ios":"levelo://app?vid=ac4a25d1-753e-4a51-935f-e3f0309c7eaa"},"vehicle_type_id":"4","last_reported":1706393174,"current_range_meters":14800,"station_id":"ce4bhq12rcd13ifvqhhg","pricing_plan_id":"free"},{"bike_id":"f8cc7572-1e5c-4009-b7a6-3d902a2b38b0","system_id":"levelo_inurba_marseille","lat":43.292569,"lon":5.409107,"is_reserved":false,"is_disabled":false,"rental_uris":{"android":"levelo://app?vid=f8cc7572-1e5c-4009-b7a6-3d902a2b38b0","ios":"levelo://app?vid=f8cc7572-1e5c-4009-b7a6-3d902a2b38b0"},"vehicle_type_id":"4","last_reported":1706393174,"current_range_meters":12400,"station_id":"ce4bh192rcd13ifvqdc0","pricing_plan_id":"free"},{"bike_id":"d996d290-e6fd-4548-bb86-aa3c38ac8963","system_id":"levelo_inurba_marseille","lat":43.292571,"lon":5.409107,"is_reserved":false,"is_disabled":false,"rental_uris":{"android":"levelo://app?vid=d996d290-e6fd-4548-bb86-aa3c38ac8963","ios":"levelo://app?vid=d996d290-e6fd-4548-bb86-aa3c38ac8963"},"vehicle_type_id":"4","last_reported":1706393174,"current_range_meters":10400,"station_id":"ce4bh192rcd13ifvqdc0","pricing_plan_id":"free"},{"bike_id":"46832847-8b3e-4612-b82f-c428c66a62dc","system_id":"levelo_inurba_marseille","lat":43.27618,"lon":5.361009,"is_reserved":false,"is_disabled":false,"rental_uris":{"android":"levelo://app?vid=46832847-8b3e-4612-b82f-c428c66a62dc","ios":"levelo://app?vid=46832847-8b3e-4612-b82f-c428c66a62dc"},"vehicle_type_id":"4","last_reported":1706393174,"current_range_meters":25200,"station_id":"ce4bgj92rcd13ifvqbe0","pricing_plan_id":"free"},{"bike_id":"ed20b58d-ea3b-42d2-8388-0bc616a6cd4a","system_id":"levelo_inurba_marseille","lat":43.336134,"lon":5.410341,"is_reserved":false,"is_disabled":false,"rental_uris":{"android":"levelo://app?vid=ed20b58d-ea3b-42d2-8388-0bc616a6cd4a","ios":"levelo://app?vid=ed20b58d-ea3b-42d2-8388-0bc616a6cd4a"},"vehicle_type_id":"4","last_reported":1706393174,"current_range_meters":800,"station_id":"ce4bhqh2rcd13ifvqhmg","pricing_plan_id":"free"},{"bike_id":"34628232-9127-4c9b-a83e-fde590a62be6","system_id":"levelo_inurba_marseille","lat":43.280784,"lon":5.396622,"is_reserved":false,"is_disabled":false,"rental_uris":{"android":"levelo://app?vid=34628232-9127-4c9b-a83e-fde590a62be6","ios":"levelo://app?vid=34628232-9127-4c9b-a83e-fde590a62be6"},"vehicle_type_id":"4","last_reported":1706393174,"current_range_meters":26000,"station_id":"ce4bho12rcd13ifvqh2g","pricing_plan_id":"free"},{"bike_id":"9a417061-d415-48e8-9e5b-cd111674e5c4","system_id":"levelo_inurba_marseille","lat":43.280784,"lon":5.396622,"is_reserved":false,"is_disabled":false,"rental_uris":{"android":"levelo://app?vid=9a417061-d415-48e8-9e5b-cd111674e5c4","ios":"levelo://app?vid=9a417061-d415-48e8-9e5b-cd111674e5c4"},"vehicle_type_id":"4","last_reported":1706393174,"current_range_meters":30000,"station_id":"ce4bho12rcd13ifvqh2g","pricing_plan_id":"free"},{"bike_id":"92e8da09-3409-4000-9985-171117abb951","system_id":"levelo_inurba_marseille","lat":43.303837,"lon":5.418724,"is_reserved":false,"is_disabled":false,"rental_uris":{"android":"levelo://app?vid=92e8da09-3409-4000-9985-171117abb951","ios":"levelo://app?vid=92e8da09-3409-4000-9985-171117abb951"},"vehicle_type_id":"4","last_reported":1706393174,"current_range_meters":25200,"station_id":"ce4bhop2rcd13ifvqh7g","pricing_plan_id":"free"},{"bike_id":"33403f65-7f5e-4335-bfde-cbf758fedf56","system_id":"levelo_inurba_marseille","lat":43.303837,"lon":5.418724,"is_reserved":false,"is_disabled":false,"rental_uris":{"android":"levelo://app?vid=33403f65-7f5e-4335-bfde-cbf758fedf56","ios":"levelo://app?vid=33403f65-7f5e-4335-bfde-cbf758fedf56"},"vehicle_type_id":"4","last_reported":1706393174,"current_range_meters":17600,"station_id":"ce4bhop2rcd13ifvqh7g","pricing_plan_id":"free"},{"bike_id":"88d2c9b0-3248-4ccc-a383-1e24083a1f43","system_id":"levelo_inurba_marseille","lat":43.30355,"lon":5.41876,"is_reserved":false,"is_disabled":false,"rental_uris":{"android":"levelo://app?vid=88d2c9b0-3248-4ccc-a383-1e24083a1f43","ios":"levelo://app?vid=88d2c9b0-3248-4ccc-a383-1e24083a1f43"},"vehicle_type_id":"4","last_reported":1706393174,"current_range_meters":4000,"station_id":"ce4bhop2rcd13ifvqh7g","pricing_plan_id":"free"},{"bike_id":"662dc768-8d66-452a-9022-759985e18a90","system_id":"levelo_inurba_marseille","lat":43.336134,"lon":5.410341,"is_reserved":false,"is_disabled":false,"rental_uris":{"android":"levelo://app?vid=662dc768-8d66-452a-9022-759985e18a90","ios":"levelo://app?vid=662dc768-8d66-452a-9022-759985e18a90"},"vehicle_type_id":"4","last_reported":1706393174,"current_range_meters":5600,"station_id":"ce4bhqh2rcd13ifvqhmg","pricing_plan_id":"free"},{"bike_id":"8dec0c10-6cf2-4b36-a839-6533b7665a85","system_id":"levelo_inurba_marseille","lat":43.303837,"lon":5.418724,"is_reserved":false,"is_disabled":false,"rental_uris":{"android":"levelo://app?vid=8dec0c10-6cf2-4b36-a839-6533b7665a85","ios":"levelo://app?vid=8dec0c10-6cf2-4b36-a839-6533b7665a85"},"vehicle_type_id":"4","last_reported":1706393174,"current_range_meters":25600,"station_id":"ce4bhop2rcd13ifvqh7g","pricing_plan_id":"free"},{"bike_id":"219e447c-b35e-46a8-81b5-85429626dfb5","system_id":"levelo_inurba_marseille","lat":43.278349,"lon":5.391974,"is_reserved":false,"is_disabled":false,"rental_uris":{"android":"levelo://app?vid=219e447c-b35e-46a8-81b5-85429626dfb5","ios":"levelo://app?vid=219e447c-b35e-46a8-81b5-85429626dfb5"},"vehicle_type_id":"4","last_reported":1706393174,"current_range_meters":0,"station_id":"ce4bhjp2rcd13ifvqga0","pricing_plan_id":"free"},{"bike_id":"95145945-734a-479b-88cc-a08d78ca2658","system_id":"levelo_inurba_marseille","lat":43.278401,"lon":5.392152,"is_reserved":false,"is_disabled":false,"rental_uris":{"android":"levelo://app?vid=95145945-734a-479b-88cc-a08d78ca2658","ios":"levelo://app?vid=95145945-734a-479b-88cc-a08d78ca2658"},"vehicle_type_id":"4","last_reported":1706393174,"current_range_meters":13200,"station_id":"ce4bhjp2rcd13ifvqga0","pricing_plan_id":"free"},{"bike_id":"e405ec28-3991-4d6e-be28-ded1ab199d77","system_id":"levelo_inurba_marseille","lat":43.278297,"lon":5.391997,"is_reserved":false,"is_disabled":false,"rental_uris":{"android":"levelo://app?vid=e405ec28-3991-4d6e-be28-ded1ab199d77","ios":"levelo://app?vid=e405ec28-3991-4d6e-be28-ded1ab199d77"},"vehicle_type_id":"4","last_reported":1706393174,"current_range_meters":0,"station_id":"ce4bhjp2rcd13ifvqga0","pricing_plan_id":"free"},{"bike_id":"3a62dd08-4bc1-4a20-adc8-d422b968856e","system_id":"levelo_inurba_marseille","lat":43.2738,"lon":5.36255,"is_reserved":false,"is_disabled":false,"rental_uris":{"android":"levelo://app?vid=3a62dd08-4bc1-4a20-adc8-d422b968856e","ios":"levelo://app?vid=3a62dd08-4bc1-4a20-adc8-d422b968856e"},"vehicle_type_id":"4","last_reported":1706393174,"current_range_meters":0,"station_id":"ce4bhbh2rcd13ifvqeo0","pricing_plan_id":"free"},{"bike_id":"6efb4429-849d-4adb-a6c9-fd0ca243764f","system_id":"levelo_inurba_marseille","lat":43.2738,"lon":5.36253,"is_reserved":false,"is_disabled":false,"rental_uris":{"android":"levelo://app?vid=6efb4429-849d-4adb-a6c9-fd0ca243764f","ios":"levelo://app?vid=6efb4429-849d-4adb-a6c9-fd0ca243764f"},"vehicle_type_id":"4","last_reported":1706393174,"current_range_meters":0,"station_id":"ce4bhbh2rcd13ifvqeo0","pricing_plan_id":"free"},{"bike_id":"e9eca0d9-ae6f-41af-9d44-e1d4401be1e0","system_id":"levelo_inurba_marseille","lat":43.273609,"lon":5.362708,"is_reserved":false,"is_disabled":false,"rental_uris":{"android":"levelo://app?vid=e9eca0d9-ae6f-41af-9d44-e1d4401be1e0","ios":"levelo://app?vid=e9eca0d9-ae6f-41af-9d44-e1d4401be1e0"},"vehicle_type_id":"4","last_reported":1706393174,"current_range_meters":25200,"station_id":"ce4bhbh2rcd13ifvqeo0","pricing_plan_id":"free"},{"bike_id":"710a6d3b-7695-45f4-926e-1e8a9793c4ad","system_id":"levelo_inurba_marseille","lat":43.336134,"lon":5.410341,"is_reserved":false,"is_disabled":false,"rental_uris":{"android":"levelo://app?vid=710a6d3b-7695-45f4-926e-1e8a9793c4ad","ios":"levelo://app?vid=710a6d3b-7695-45f4-926e-1e8a9793c4ad"},"vehicle_type_id":"4","last_reported":1706393174,"current_range_meters":16000,"station_id":"ce4bhqh2rcd13ifvqhmg","pricing_plan_id":"free"},{"bike_id":"e5c90429-6479-42a5-8251-79e94794ed0e","system_id":"levelo_inurba_marseille","lat":43.336134,"lon":5.410341,"is_reserved":false,"is_disabled":false,"rental_uris":{"android":"levelo://app?vid=e5c90429-6479-42a5-8251-79e94794ed0e","ios":"levelo://app?vid=e5c90429-6479-42a5-8251-79e94794ed0e"},"vehicle_type_id":"4","last_reported":1706393174,"current_range_meters":0,"station_id":"ce4bhqh2rcd13ifvqhmg","pricing_plan_id":"free"},{"bike_id":"0bd470c3-afd0-46ed-b569-4279e2016a2d","system_id":"levelo_inurba_marseille","lat":43.336134,"lon":5.410341,"is_reserved":false,"is_disabled":false,"rental_uris":{"android":"levelo://app?vid=0bd470c3-afd0-46ed-b569-4279e2016a2d","ios":"levelo://app?vid=0bd470c3-afd0-46ed-b569-4279e2016a2d"},"vehicle_type_id":"4","last_reported":1706393174,"current_range_meters":6400,"station_id":"ce4bhqh2rcd13ifvqhmg","pricing_plan_id":"free"},{"bike_id":"9f6f24ea-1749-4e2a-8811-657325fbc10a","system_id":"levelo_inurba_marseille","lat":43.336134,"lon":5.410341,"is_reserved":false,"is_disabled":false,"rental_uris":{"android":"levelo://app?vid=9f6f24ea-1749-4e2a-8811-657325fbc10a","ios":"levelo://app?vid=9f6f24ea-1749-4e2a-8811-657325fbc10a"},"vehicle_type_id":"4","last_reported":1706393174,"current_range_meters":28800,"station_id":"ce4bhqh2rcd13ifvqhmg","pricing_plan_id":"free"},{"bike_id":"7c340cc5-8aa7-449a-bbcf-bbd63e0d35df","system_id":"levelo_inurba_marseille","lat":43.336134,"lon":5.410341,"is_reserved":false,"is_disabled":false,"rental_uris":{"android":"levelo://app?vid=7c340cc5-8aa7-449a-bbcf-bbd63e0d35df","ios":"levelo://app?vid=7c340cc5-8aa7-449a-bbcf-bbd63e0d35df"},"vehicle_type_id":"4","last_reported":1706393174,"current_range_meters":21600,"station_id":"ce4bhqh2rcd13ifvqhmg","pricing_plan_id":"free"},{"bike_id":"8f5a4b00-5747-43af-8fb9-6bf63647eb7f","system_id":"levelo_inurba_marseille","lat":43.336134,"lon":5.410341,"is_reserved":false,"is_disabled":false,"rental_uris":{"android":"levelo://app?vid=8f5a4b00-5747-43af-8fb9-6bf63647eb7f","ios":"levelo://app?vid=8f5a4b00-5747-43af-8fb9-6bf63647eb7f"},"vehicle_type_id":"4","last_reported":1706393174,"current_range_meters":12400,"station_id":"ce4bhqh2rcd13ifvqhmg","pricing_plan_id":"free"},{"bike_id":"4c803e42-72e5-45e3-972e-237817b0d1bb","system_id":"levelo_inurba_marseille","lat":43.27682,"lon":5.388893,"is_reserved":false,"is_disabled":false,"rental_uris":{"android":"levelo://app?vid=4c803e42-72e5-45e3-972e-237817b0d1bb","ios":"levelo://app?vid=4c803e42-72e5-45e3-972e-237817b0d1bb"},"vehicle_type_id":"4","last_reported":1706393174,"current_range_meters":0,"station_id":"ce4bhi12rcd13ifvqfo0","pricing_plan_id":"free"},{"bike_id":"f735ded7-37df-41e9-a094-f7380e6d5e97","system_id":"levelo_inurba_marseille","lat":43.28005,"lon":5.40003,"is_reserved":false,"is_disabled":false,"rental_uris":{"android":"levelo://app?vid=f735ded7-37df-41e9-a094-f7380e6d5e97","ios":"levelo://app?vid=f735ded7-37df-41e9-a094-f7380e6d5e97"},"vehicle_type_id":"4","last_reported":1706393174,"current_range_meters":3200,"station_id":"ce4bho92rcd13ifvqh4g","pricing_plan_id":"free"},{"bike_id":"252afe26-ec0a-4f11-8150-edf163f98ab6","system_id":"levelo_inurba_marseille","lat":43.280023,"lon":5.400046,"is_reserved":false,"is_disabled":false,"rental_uris":{"android":"levelo://app?vid=252afe26-ec0a-4f11-8150-edf163f98ab6","ios":"levelo://app?vid=252afe26-ec0a-4f11-8150-edf163f98ab6"},"vehicle_type_id":"4","last_reported":1706393174,"current_range_meters":12800,"station_id":"ce4bho92rcd13ifvqh4g","pricing_plan_id":"free"},{"bike_id":"0520e41c-1900-438e-b035-0c52fa2237ab","system_id":"levelo_inurba_marseille","lat":43.279952,"lon":5.400085,"is_reserved":false,"is_disabled":false,"rental_uris":{"android":"levelo://app?vid=0520e41c-1900-438e-b035-0c52fa2237ab","ios":"levelo://app?vid=0520e41c-1900-438e-b035-0c52fa2237ab"},"vehicle_type_id":"4","last_reported":1706393174,"current_range_meters":7600,"station_id":"ce4bho92rcd13ifvqh4g","pricing_plan_id":"free"},{"bike_id":"5f1d2cfe-ae9a-4499-b3e5-66ede9a75fee","system_id":"levelo_inurba_marseille","lat":43.279952,"lon":5.400085,"is_reserved":false,"is_disabled":false,"rental_uris":{"android":"levelo://app?vid=5f1d2cfe-ae9a-4499-b3e5-66ede9a75fee","ios":"levelo://app?vid=5f1d2cfe-ae9a-4499-b3e5-66ede9a75fee"},"vehicle_type_id":"4","last_reported":1706393174,"current_range_meters":18400,"station_id":"ce4bho92rcd13ifvqh4g","pricing_plan_id":"free"},{"bike_id":"ea0d2951-586c-4e59-b307-88de37e5376b","system_id":"levelo_inurba_marseille","lat":43.279975,"lon":5.40009,"is_reserved":false,"is_disabled":false,"rental_uris":{"android":"levelo://app?vid=ea0d2951-586c-4e59-b307-88de37e5376b","ios":"levelo://app?vid=ea0d2951-586c-4e59-b307-88de37e5376b"},"vehicle_type_id":"4","last_reported":1706393174,"current_range_meters":23600,"station_id":"ce4bho92rcd13ifvqh4g","pricing_plan_id":"free"},{"bike_id":"6f46a34b-d5d1-4592-8607-98eec5146735","system_id":"levelo_inurba_marseille","lat":43.283702,"lon":5.407099,"is_reserved":false,"is_disabled":false,"rental_uris":{"android":"levelo://app?vid=6f46a34b-d5d1-4592-8607-98eec5146735","ios":"levelo://app?vid=6f46a34b-d5d1-4592-8607-98eec5146735"},"vehicle_type_id":"4","last_reported":1706393174,"current_range_meters":5600,"station_id":"","pricing_plan_id":"free"},{"bike_id":"71d90591-5f7c-490f-af55-6817cf4e60cc","system_id":"levelo_inurba_marseille","lat":43.274881,"lon":5.38971,"is_reserved":false,"is_disabled":false,"rental_uris":{"android":"levelo://app?vid=71d90591-5f7c-490f-af55-6817cf4e60cc","ios":"levelo://app?vid=71d90591-5f7c-490f-af55-6817cf4e60cc"},"vehicle_type_id":"4","last_reported":1706393174,"current_range_meters":0,"station_id":"","pricing_plan_id":"free"},{"bike_id":"1dc6aee1-185a-4c87-8b91-93bb335cd229","system_id":"levelo_inurba_marseille","lat":43.310785,"lon":5.424305,"is_reserved":false,"is_disabled":false,"rental_uris":{"android":"levelo://app?vid=1dc6aee1-185a-4c87-8b91-93bb335cd229","ios":"levelo://app?vid=1dc6aee1-185a-4c87-8b91-93bb335cd229"},"vehicle_type_id":"4","last_reported":1706393174,"current_range_meters":24400,"station_id":"ce4bhp92rcd13ifvqhag","pricing_plan_id":"free"},{"bike_id":"ee875769-e8b7-4caa-b3b8-2dad519b3fb1","system_id":"levelo_inurba_marseille","lat":43.31088,"lon":5.42429,"is_reserved":false,"is_disabled":false,"rental_uris":{"android":"levelo://app?vid=ee875769-e8b7-4caa-b3b8-2dad519b3fb1","ios":"levelo://app?vid=ee875769-e8b7-4caa-b3b8-2dad519b3fb1"},"vehicle_type_id":"4","last_reported":1706393174,"current_range_meters":17200,"station_id":"ce4bhp92rcd13ifvqhag","pricing_plan_id":"free"},{"bike_id":"76a1444e-7429-4c72-9ae5-313749a04157","system_id":"levelo_inurba_marseille","lat":43.3108,"lon":5.42435,"is_reserved":false,"is_disabled":false,"rental_uris":{"android":"levelo://app?vid=76a1444e-7429-4c72-9ae5-313749a04157","ios":"levelo://app?vid=76a1444e-7429-4c72-9ae5-313749a04157"},"vehicle_type_id":"4","last_reported":1706393174,"current_range_meters":16800,"station_id":"ce4bhp92rcd13ifvqhag","pricing_plan_id":"free"},{"bike_id":"a98e2a5e-bdd6-494e-9351-adac87bae90b","system_id":"levelo_inurba_marseille","lat":43.2765,"lon":5.39764,"is_reserved":false,"is_disabled":false,"rental_uris":{"android":"levelo://app?vid=a98e2a5e-bdd6-494e-9351-adac87bae90b","ios":"levelo://app?vid=a98e2a5e-bdd6-494e-9351-adac87bae90b"},"vehicle_type_id":"4","last_reported":1706393174,"current_range_meters":0,"station_id":"","pricing_plan_id":"free"},{"bike_id":"b05aa716-e993-4c70-99c4-dbe272cbcc26","system_id":"levelo_inurba_marseille","lat":43.27319,"lon":5.39088,"is_reserved":false,"is_disabled":false,"rental_uris":{"android":"levelo://app?vid=b05aa716-e993-4c70-99c4-dbe272cbcc26","ios":"levelo://app?vid=b05aa716-e993-4c70-99c4-dbe272cbcc26"},"vehicle_type_id":"4","last_reported":1706393174,"current_range_meters":0,"station_id":"ce4bhgp2rcd13ifvqfe0","pricing_plan_id":"free"},{"bike_id":"b5e52bf3-7a58-4f29-9adc-4051a0ac6e17","system_id":"levelo_inurba_marseille","lat":43.274278,"lon":5.39407,"is_reserved":false,"is_disabled":false,"rental_uris":{"android":"levelo://app?vid=b5e52bf3-7a58-4f29-9adc-4051a0ac6e17","ios":"levelo://app?vid=b5e52bf3-7a58-4f29-9adc-4051a0ac6e17"},"vehicle_type_id":"4","last_reported":1706393174,"current_range_meters":15600,"station_id":"ce4bhdp2rcd13ifvqf20","pricing_plan_id":"free"},{"bike_id":"79aba3fd-e7b6-41fe-974b-a11d6cc1ed17","system_id":"levelo_inurba_marseille","lat":43.295187,"lon":5.422608,"is_reserved":false,"is_disabled":false,"rental_uris":{"android":"levelo://app?vid=79aba3fd-e7b6-41fe-974b-a11d6cc1ed17","ios":"levelo://app?vid=79aba3fd-e7b6-41fe-974b-a11d6cc1ed17"},"vehicle_type_id":"4","last_reported":1706393174,"current_range_meters":20400,"station_id":"ce4bhph2rcd13ifvqhdg","pricing_plan_id":"free"},{"bike_id":"da044c65-8344-4ffe-bef4-f362ad4bfa1b","system_id":"levelo_inurba_marseille","lat":43.295511,"lon":5.422926,"is_reserved":false,"is_disabled":false,"rental_uris":{"android":"levelo://app?vid=da044c65-8344-4ffe-bef4-f362ad4bfa1b","ios":"levelo://app?vid=da044c65-8344-4ffe-bef4-f362ad4bfa1b"},"vehicle_type_id":"4","last_reported":1706393174,"current_range_meters":17200,"station_id":"ce4bhph2rcd13ifvqhdg","pricing_plan_id":"free"},{"bike_id":"b2d4d8a5-9c8f-4c1f-9cd4-c63e9c58d660","system_id":"levelo_inurba_marseille","lat":43.27217,"lon":5.39175,"is_reserved":false,"is_disabled":false,"rental_uris":{"android":"levelo://app?vid=b2d4d8a5-9c8f-4c1f-9cd4-c63e9c58d660","ios":"levelo://app?vid=b2d4d8a5-9c8f-4c1f-9cd4-c63e9c58d660"},"vehicle_type_id":"4","last_reported":1706393174,"current_range_meters":0,"station_id":"ce4bhhp2rcd13ifvqfm0","pricing_plan_id":"free"},{"bike_id":"098dda6a-8ac5-4190-9f3f-3b5bd525d4ff","system_id":"levelo_inurba_marseille","lat":43.27208,"lon":5.3918,"is_reserved":false,"is_disabled":false,"rental_uris":{"android":"levelo://app?vid=098dda6a-8ac5-4190-9f3f-3b5bd525d4ff","ios":"levelo://app?vid=098dda6a-8ac5-4190-9f3f-3b5bd525d4ff"},"vehicle_type_id":"4","last_reported":1706393174,"current_range_meters":0,"station_id":"ce4bhhp2rcd13ifvqfm0","pricing_plan_id":"free"},{"bike_id":"967d4c4c-d680-47bc-9c6d-3973e884e152","system_id":"levelo_inurba_marseille","lat":43.278128,"lon":5.407195,"is_reserved":false,"is_disabled":false,"rental_uris":{"android":"levelo://app?vid=967d4c4c-d680-47bc-9c6d-3973e884e152","ios":"levelo://app?vid=967d4c4c-d680-47bc-9c6d-3973e884e152"},"vehicle_type_id":"4","last_reported":1706393174,"current_range_meters":23200,"station_id":"ce4bhnh2rcd13ifvqgtg","pricing_plan_id":"free"},{"bike_id":"30960197-f73f-476d-bb41-35ff6f03ade0","system_id":"levelo_inurba_marseille","lat":43.269525,"lon":5.386377,"is_reserved":false,"is_disabled":false,"rental_uris":{"android":"levelo://app?vid=30960197-f73f-476d-bb41-35ff6f03ade0","ios":"levelo://app?vid=30960197-f73f-476d-bb41-35ff6f03ade0"},"vehicle_type_id":"4","last_reported":1706393174,"current_range_meters":0,"station_id":"ce4bhh92rcd13ifvqfh0","pricing_plan_id":"free"},{"bike_id":"0f11d406-7590-44e0-bd8d-cb92808bfe07","system_id":"levelo_inurba_marseille","lat":43.279465,"lon":5.410561,"is_reserved":false,"is_disabled":false,"rental_uris":{"android":"levelo://app?vid=0f11d406-7590-44e0-bd8d-cb92808bfe07","ios":"levelo://app?vid=0f11d406-7590-44e0-bd8d-cb92808bfe07"},"vehicle_type_id":"4","last_reported":1706393174,"current_range_meters":14000,"station_id":"ce4bhnp2rcd13ifvqh0g","pricing_plan_id":"free"},{"bike_id":"c6584083-8842-41d0-ae2e-2930473b10e6","system_id":"levelo_inurba_marseille","lat":43.279465,"lon":5.410561,"is_reserved":false,"is_disabled":false,"rental_uris":{"android":"levelo://app?vid=c6584083-8842-41d0-ae2e-2930473b10e6","ios":"levelo://app?vid=c6584083-8842-41d0-ae2e-2930473b10e6"},"vehicle_type_id":"4","last_reported":1706393174,"current_range_meters":0,"station_id":"ce4bhnp2rcd13ifvqh0g","pricing_plan_id":"free"},{"bike_id":"30a27a06-0774-4cb9-9899-b8ab3790ab52","system_id":"levelo_inurba_marseille","lat":43.279465,"lon":5.410561,"is_reserved":false,"is_disabled":false,"rental_uris":{"android":"levelo://app?vid=30a27a06-0774-4cb9-9899-b8ab3790ab52","ios":"levelo://app?vid=30a27a06-0774-4cb9-9899-b8ab3790ab52"},"vehicle_type_id":"4","last_reported":1706393174,"current_range_meters":17600,"station_id":"ce4bhnp2rcd13ifvqh0g","pricing_plan_id":"free"},{"bike_id":"32b64e15-81eb-4ca1-83e9-19d1902cdf45","system_id":"levelo_inurba_marseille","lat":43.279465,"lon":5.410561,"is_reserved":false,"is_disabled":false,"rental_uris":{"android":"levelo://app?vid=32b64e15-81eb-4ca1-83e9-19d1902cdf45","ios":"levelo://app?vid=32b64e15-81eb-4ca1-83e9-19d1902cdf45"},"vehicle_type_id":"4","last_reported":1706393174,"current_range_meters":5200,"station_id":"ce4bhnp2rcd13ifvqh0g","pricing_plan_id":"free"},{"bike_id":"b0782314-3536-4e91-bad0-41ed9d871198","system_id":"levelo_inurba_marseille","lat":43.279465,"lon":5.410561,"is_reserved":false,"is_disabled":false,"rental_uris":{"android":"levelo://app?vid=b0782314-3536-4e91-bad0-41ed9d871198","ios":"levelo://app?vid=b0782314-3536-4e91-bad0-41ed9d871198"},"vehicle_type_id":"4","last_reported":1706393174,"current_range_meters":20800,"station_id":"ce4bhnp2rcd13ifvqh0g","pricing_plan_id":"free"},{"bike_id":"c5c54cd4-2c56-4f80-a50f-2edb495bb9df","system_id":"levelo_inurba_marseille","lat":43.26681,"lon":5.382694,"is_reserved":false,"is_disabled":false,"rental_uris":{"android":"levelo://app?vid=c5c54cd4-2c56-4f80-a50f-2edb495bb9df","ios":"levelo://app?vid=c5c54cd4-2c56-4f80-a50f-2edb495bb9df"},"vehicle_type_id":"4","last_reported":1706393174,"current_range_meters":2000,"station_id":"ce4bhg92rcd13ifvqf90","pricing_plan_id":"free"},{"bike_id":"7a913a33-f432-409e-a2e0-d69e83ab4c4c","system_id":"levelo_inurba_marseille","lat":43.267966,"lon":5.393976,"is_reserved":false,"is_disabled":false,"rental_uris":{"android":"levelo://app?vid=7a913a33-f432-409e-a2e0-d69e83ab4c4c","ios":"levelo://app?vid=7a913a33-f432-409e-a2e0-d69e83ab4c4c"},"vehicle_type_id":"4","last_reported":1706393174,"current_range_meters":0,"station_id":"ce4bhh12rcd13ifvqfg0","pricing_plan_id":"free"},{"bike_id":"e515107f-d284-4a36-a195-f165f6207fc2","system_id":"levelo_inurba_marseille","lat":43.308051,"lon":5.43527,"is_reserved":false,"is_disabled":false,"rental_uris":{"android":"levelo://app?vid=e515107f-d284-4a36-a195-f165f6207fc2","ios":"levelo://app?vid=e515107f-d284-4a36-a195-f165f6207fc2"},"vehicle_type_id":"4","last_reported":1706393174,"current_range_meters":24400,"station_id":"ce4bhph2rcd13ifvqheg","pricing_plan_id":"free"},{"bike_id":"6bd50710-6045-4b02-9525-cb14b509720d","system_id":"levelo_inurba_marseille","lat":43.26567,"lon":5.38997,"is_reserved":false,"is_disabled":false,"rental_uris":{"android":"levelo://app?vid=6bd50710-6045-4b02-9525-cb14b509720d","ios":"levelo://app?vid=6bd50710-6045-4b02-9525-cb14b509720d"},"vehicle_type_id":"4","last_reported":1706393174,"current_range_meters":0,"station_id":"ce4bhe12rcd13ifvqf30","pricing_plan_id":"free"},{"bike_id":"52b546b1-99d3-4926-89f7-c7d4500af751","system_id":"levelo_inurba_marseille","lat":43.2695,"lon":5.40245,"is_reserved":false,"is_disabled":false,"rental_uris":{"android":"levelo://app?vid=52b546b1-99d3-4926-89f7-c7d4500af751","ios":"levelo://app?vid=52b546b1-99d3-4926-89f7-c7d4500af751"},"vehicle_type_id":"4","last_reported":1706393174,"current_range_meters":0,"station_id":"cjm6bp8fraef2m0cb0m0","pricing_plan_id":"free"},{"bike_id":"7d6f5aed-43de-4d08-a316-6f6c09529631","system_id":"levelo_inurba_marseille","lat":43.26944,"lon":5.4024,"is_reserved":false,"is_disabled":false,"rental_uris":{"android":"levelo://app?vid=7d6f5aed-43de-4d08-a316-6f6c09529631","ios":"levelo://app?vid=7d6f5aed-43de-4d08-a316-6f6c09529631"},"vehicle_type_id":"4","last_reported":1706393174,"current_range_meters":13600,"station_id":"cjm6bp8fraef2m0cb0m0","pricing_plan_id":"free"},