{"last_updated":1728493680,"ttl":60,"version":"2.2","data":{"bikes":[{"bike_id":"b53f77ab-ba1c-4ba1-af64-411b74248eb8","system_id":"levelo_inurba_marseille","lat":43.32398,"lon":5.38872,"is_reserved":false,"is_disabled":false,"rental_uris":{"android":"levelo://app?vid=b53f77ab-ba1c-4ba1-af64-411b74248eb8","ios":"levelo://app?vid=b53f77ab-ba1c-4ba1-af64-411b74248eb8"},"vehicle_type_id":"4","last_reported":1728493680,"current_range_meters":6000,"station_id":"ce4bhqp2rcd13ifvqhog","pricing_plan_id":"cebpf4jnsgd1na2vs0mg"},{"bike_id":"2b9de801-4944-4b89-ac1e-d0606188b06a","system_id":"levelo_inurba_marseille","lat":43.32196,"lon":5.39212,"is_reserved":false,"is_disabled":false,"rental_uris":{"android":"levelo://app?vid=2b9de801-4944-4b89-ac1e-d0606188b06a","ios":"levelo://app?vid=2b9de801-4944-4b89-ac1e-d0606188b06a"},"vehicle_type_id":"4","last_reported":1728493680,"current_range_meters":30400,"station_id":"","pricing_plan_id":"cebpf4jnsgd1na2vs0mg"},{"bike_id":"6b8918a4-396b-43e5-9a7f-f056357bf660","system_id":"levelo_inurba_marseille","lat":43.23068,"lon":5.35494,"is_reserved":false,"is_disabled":false,"rental_uris":{"android":"levelo://app?vid=6b8918a4-396b-43e5-9a7f-f056357bf660","ios":"levelo://app?vid=6b8918a4-396b-43e5-9a7f-f056357bf660"},"vehicle_type_id":"4","last_reported":1728493680,"current_range_meters":8000,"station_id":"cpo3342slgdg3j2ifvpg","pricing_plan_id":"cebpf4jnsgd1na2vs0mg"},{"bike_id":"ee577f9e-1d0f-42ca-9b6a-e282909864b2","system_id":"levelo_inurba_marseille","lat":43.28037,"lon":5.36949,"is_reserved":false,"is_disabled":false,"rental_uris":{"android":"levelo://app?vid=ee577f9e-1d0f-42ca-9b6a-e282909864b2","ios":"levelo://app?vid=ee577f9e-1d0f-42ca-9b6a-e282909864b2"},"vehicle_type_id":"4","last_reported":1728493680,"current_range_meters":6000,"station_id":"ce4bha12rcd13ifvqef0","pricing_plan_id":"cebpf4jnsgd1na2vs0mg"},{"bike_id":"b0e337b9-1d94-4500-af40-0d75eb79759f","system_id":"levelo_inurba_marseille","lat":43.27973,"lon":5.38742,"is_reserved":false,"is_disabled":false,"rental_uris":{"android":"levelo://app?vid=b0e337b9-1d94-4500-af40-0d75eb79759f","ios":"levelo://app?vid=b0e337b9-1d94-4500-af40-0d75eb79759f"},"vehicle_type_id":"4","last_reported":1728493680,"current_range_meters":20800,"station_id":"ce4bhg12rcd13ifvqf80","pricing_plan_id":"cebpf4jnsgd1na2vs0mg"},{"bike_id":"cee7b4fc-b12b-412a-8546-e9c3c52fde0e","system_id":"levelo_inurba_marseille","lat":43.33023,"lon":5.39045,"is_reserved":false,"is_disabled":false,"rental_uris":{"android":"levelo://app?vid=cee7b4fc-b12b-412a-8546-e9c3c52fde0e","ios":"levelo://app?vid=cee7b4fc-b12b-412a-8546-e9c3c52fde0e"},"vehicle_type_id":"4","last_reported":1728493680,"current_range_meters":24400,"station_id":"ce4bhr92rcd13ifvqhrg","pricing_plan_id":"cebpf4jnsgd1na2vs0mg"},{"bike_id":"f74e6377-c0b5-4e10-8194-fc4616df6b74","system_id":"levelo_inurba_marseille","lat":43.2454,"lon":5.39538,"is_reserved":false,"is_disabled":false,"rental_uris":{"android":"levelo://app?vid=f74e6377-c0b5-4e10-8194-fc4616df6b74","ios":"levelo://app?vid=f74e6377-c0b5-4e10-8194-fc4616df6b74"},"vehicle_type_id":"4","last_reported":1728493680,"current_range_meters":0,"station_id":"ce4bhlp2rcd13ifvqgjg","pricing_plan_id":"cebpf4jnsgd1na2vs0mg"},{"bike_id":"64c9abdc-a744-4b43-9856-a64e8ee5db15","system_id":"levelo_inurba_marseille","lat":43.23063,"lon":5.35496,"is_reserved":false,"is_disabled":false,"rental_uris":{"android":"levelo://app?vid=64c9abdc-a744-4b43-9856-a64e8ee5db15","ios":"levelo://app?vid=64c9abdc-a744-4b43-9856-a64e8ee5db15"},"vehicle_type_id":"4","last_reported":1728493680,"current_range_meters":37600,"station_id":"cpo3342slgdg3j2ifvpg","pricing_plan_id":"cebpf4jnsgd1na2vs0mg"},{"bike_id":"6af3e30a-d335-4e86-ac3b-087e12ee54c2","system_id":"levelo_inurba_marseille","lat":43.2707,"lon":5.42282,"is_reserved":false,"is_disabled":false,"rental_uris":{"android":"levelo://app?vid=6af3e30a-d335-4e86-ac3b-087e12ee54c2","ios":"levelo://app?vid=6af3e30a-d335-4e86-ac3b-087e12ee54c2"},"vehicle_type_id":"4","last_reported":1728493680,"current_range_meters":36400,"station_id":"ce4bhk92rcd13ifvqgb0","pricing_plan_id":"cebpf4jnsgd1na2vs0mg"},{"bike_id":"81362c8e-6feb-4c2b-ad27-f5f3d2d521f6","system_id":"levelo_inurba_marseille","lat":43.27966,"lon":5.3875,"is_reserved":false,"is_disabled":false,"rental_uris":{"android":"levelo://app?vid=81362c8e-6feb-4c2b-ad27-f5f3d2d521f6","ios":"levelo://app?vid=81362c8e-6feb-4c2b-ad27-f5f3d2d521f6"},"vehicle_type_id":"4","last_reported":1728493680,"current_range_meters":12800,"station_id":"ce4bhg12rcd13ifvqf80","pricing_plan_id":"cebpf4jnsgd1na2vs0mg"},{"bike_id":"1dd91bb3-5a6b-4923-8d68-6dfc5ebaf25f","system_id":"levelo_inurba_marseille","lat":43.27944,"lon":5.41047,"is_reserved":false,"is_disabled":false,"rental_uris":{"android":"levelo://app?vid=1dd91bb3-5a6b-4923-8d68-6dfc5ebaf25f","ios":"levelo://app?vid=1dd91bb3-5a6b-4923-8d68-6dfc5ebaf25f"},"vehicle_type_id":"4","last_reported":1728493680,"current_range_meters":24800,"station_id":"ce4bhnp2rcd13ifvqh0g","pricing_plan_id":"cebpf4jnsgd1na2vs0mg"},{"bike_id":"56ce137e-37b8-4da0-8ddb-243cffb9239c","system_id":"levelo_inurba_marseille","lat":43.3172,"lon":5.42406,"is_reserved":false,"is_disabled":false,"rental_uris":{"android":"levelo://app?vid=56ce137e-37b8-4da0-8ddb-243cffb9239c","ios":"levelo://app?vid=56ce137e-37b8-4da0-8ddb-243cffb9239c"},"vehicle_type_id":"4","last_reported":1728493680,"current_range_meters":38800,"station_id":"ce4bhp92rcd13ifvqhbg","pricing_plan_id":"cebpf4jnsgd1na2vs0mg"},{"bike_id":"90dba26f-e5a7-46bf-bdc1-4ddf724e3379","system_id":"levelo_inurba_marseille","lat":43.31706,"lon":5.37744,"is_reserved":false,"is_disabled":false,"rental_uris":{"android":"levelo://app?vid=90dba26f-e5a7-46bf-bdc1-4ddf724e3379","ios":"levelo://app?vid=90dba26f-e5a7-46bf-bdc1-4ddf724e3379"},"vehicle_type_id":"4","last_reported":1728493680,"current_range_meters":23200,"station_id":"ce4bgth2rcd13ifvqch0","pricing_plan_id":"cebpf4jnsgd1na2vs0mg"},{"bike_id":"0fc1ebfe-0ef8-4da4-9f7b-9fc488cf19bc","system_id":"levelo_inurba_marseille","lat":43.231934,"lon":5.399811,"is_reserved":false,"is_disabled":false,"rental_uris":{"android":"levelo://app?vid=0fc1ebfe-0ef8-4da4-9f7b-9fc488cf19bc","ios":"levelo://app?vid=0fc1ebfe-0ef8-4da4-9f7b-9fc488cf19bc"},"vehicle_type_id":"4","last_reported":1728493680,"current_range_meters":5600,"station_id":"ce4bhn12rcd13ifvqgqg","pricing_plan_id":"cebpf4jnsgd1na2vs0mg"},{"bike_id":"59a20882-e884-470e-b111-32ed424e7cc3","system_id":"levelo_inurba_marseille","lat":43.33728,"lon":5.39193,"is_reserved":false,"is_disabled":false,"rental_uris":{"android":"levelo://app?vid=59a20882-e884-470e-b111-32ed424e7cc3","ios":"levelo://app?vid=59a20882-e884-470e-b111-32ed424e7cc3"},"vehicle_type_id":"4","last_reported":1728493680,"current_range_meters":30000,"station_id":"ce4bhr92rcd13ifvqhsg","pricing_plan_id":"cebpf4jnsgd1na2vs0mg"},{"bike_id":"ea000187-06f9-4fb2-b9a9-232e7056b110","system_id":"levelo_inurba_marseille","lat":43.29899,"lon":5.43669,"is_reserved":false,"is_disabled":false,"rental_uris":{"android":"levelo://app?vid=ea000187-06f9-4fb2-b9a9-232e7056b110","ios":"levelo://app?vid=ea000187-06f9-4fb2-b9a9-232e7056b110"},"vehicle_type_id":"4","last_reported":1728493680,"current_range_meters":14800,"station_id":"ce4bhpp2rcd13ifvqhfg","pricing_plan_id":"cebpf4jnsgd1na2vs0mg"},{"bike_id":"72078f29-e154-4c5b-836a-c7e362ba1f09","system_id":"levelo_inurba_marseille","lat":43.3376,"lon":5.37472,"is_reserved":false,"is_disabled":false,"rental_uris":{"android":"levelo://app?vid=72078f29-e154-4c5b-836a-c7e362ba1f09","ios":"levelo://app?vid=72078f29-e154-4c5b-836a-c7e362ba1f09"},"vehicle_type_id":"4","last_reported":1728493680,"current_range_meters":10800,"station_id":"ce4rr2p2rcd13i802rgg","pricing_plan_id":"cebpf4jnsgd1na2vs0mg"},{"bike_id":"7d7ab187-9965-49a4-bf26-b6ade39671fc","system_id":"levelo_inurba_marseille","lat":43.23187,"lon":5.35552,"is_reserved":false,"is_disabled":false,"rental_uris":{"android":"levelo://app?vid=7d7ab187-9965-49a4-bf26-b6ade39671fc","ios":"levelo://app?vid=7d7ab187-9965-49a4-bf26-b6ade39671fc"},"vehicle_type_id":"4","last_reported":1728493680,"current_range_meters":24400,"station_id":"ce4bhu92rcd13ifvqi70","pricing_plan_id":"cebpf4jnsgd1na2vs0mg"},{"bike_id":"360322b1-d61d-4f20-b634-12f35eae1d1c","system_id":"levelo_inurba_marseille","lat":43.3017,"lon":5.36611,"is_reserved":false,"is_disabled":false,"rental_uris":{"android":"levelo://app?vid=360322b1-d61d-4f20-b634-12f35eae1d1c","ios":"levelo://app?vid=360322b1-d61d-4f20-b634-12f35eae1d1c"},"vehicle_type_id":"4","last_reported":1728493680,"current_range_meters":30800,"station_id":"ce4bgrh2rcd13ifvqc8g","pricing_plan_id":"cebpf4jnsgd1na2vs0mg"},{"bike_id":"d51f0193-0dff-4957-8877-479daabe2300","system_id":"levelo_inurba_marseille","lat":43.337444,"lon":5.374475,"is_reserved":false,"is_disabled":false,"rental_uris":{"android":"levelo://app?vid=d51f0193-0dff-4957-8877-479daabe2300","ios":"levelo://app?vid=d51f0193-0dff-4957-8877-479daabe2300"},"vehicle_type_id":"4","last_reported":1728493680,"current_range_meters":37600,"station_id":"ce4rr2p2rcd13i802rgg","pricing_plan_id":"cebpf4jnsgd1na2vs0mg"},{"bike_id":"dc80b0e4-e686-4875-9991-4f06e3429d36","system_id":"levelo_inurba_marseille","lat":43.31744,"lon":5.39026,"is_reserved":false,"is_disabled":false,"rental_uris":{"android":"levelo://app?vid=dc80b0e4-e686-4875-9991-4f06e3429d36","ios":"levelo://app?vid=dc80b0e4-e686-4875-9991-4f06e3429d36"},"vehicle_type_id":"4","last_reported":1728493680,"current_range_meters":12400,"station_id":"ce4bhqp2rcd13ifvqhng","pricing_plan_id":"cebpf4jnsgd1na2vs0mg"},{"bike_id":"812e6e33-2195-4c3d-8655-001a3297acfb","system_id":"levelo_inurba_marseille","lat":43.30887,"lon":5.39645,"is_reserved":false,"is_disabled":false,"rental_uris":{"android":"levelo://app?vid=812e6e33-2195-4c3d-8655-001a3297acfb","ios":"levelo://app?vid=812e6e33-2195-4c3d-8655-001a3297acfb"},"vehicle_type_id":"4","last_reported":1728493680,"current_range_meters":37600,"station_id":"ce4bh012rcd13ifvqcv0","pricing_plan_id":"cebpf4jnsgd1na2vs0mg"},{"bike_id":"b149bf8c-24ec-415d-b234-f0b11661de68","system_id":"levelo_inurba_marseille","lat":43.25084,"lon":5.39526,"is_reserved":false,"is_disabled":false,"rental_uris":{"android":"levelo://app?vid=b149bf8c-24ec-415d-b234-f0b11661de68","ios":"levelo://app?vid=b149bf8c-24ec-415d-b234-f0b11661de68"},"vehicle_type_id":"4","last_reported":1728493680,"current_range_meters":8800,"station_id":"ce4bhm12rcd13ifvqgkg","pricing_plan_id":"cebpf4jnsgd1na2vs0mg"},{"bike_id":"9d518c49-6855-49d6-ab02-97ef81f6e330","system_id":"levelo_inurba_marseille","lat":43.307648,"lon":5.372494,"is_reserved":false,"is_disabled":false,"rental_uris":{"android":"levelo://app?vid=9d518c49-6855-49d6-ab02-97ef81f6e330","ios":"levelo://app?vid=9d518c49-6855-49d6-ab02-97ef81f6e330"},"vehicle_type_id":"4","last_reported":1728493680,"current_range_meters":22800,"station_id":"ce4bguh2rcd13ifvqckg","pricing_plan_id":"cebpf4jnsgd1na2vs0mg"},{"bike_id":"1a9a3cc6-2502-4c80-8b31-7bb36d7cba31","system_id":"levelo_inurba_marseille","lat":43.22935,"lon":5.35376,"is_reserved":false,"is_disabled":false,"rental_uris":{"android":"levelo://app?vid=1a9a3cc6-2502-4c80-8b31-7bb36d7cba31","ios":"levelo://app?vid=1a9a3cc6-2502-4c80-8b31-7bb36d7cba31"},"vehicle_type_id":"4","last_reported":1728493680,"current_range_meters":38800,"station_id":"cpo3532slgdg3j2ikp40","pricing_plan_id":"cebpf4jnsgd1na2vs0mg"},{"bike_id":"74e9ce9d-9e9f-4c6b-92fb-2f9a88c1f0f4","system_id":"levelo_inurba_marseille","lat":43.24171,"lon":5.364,"is_reserved":false,"is_disabled":false,"rental_uris":{"android":"levelo://app?vid=74e9ce9d-9e9f-4c6b-92fb-2f9a88c1f0f4","ios":"levelo://app?vid=74e9ce9d-9e9f-4c6b-92fb-2f9a88c1f0f4"},"vehicle_type_id":"4","last_reported":1728493680,"current_range_meters":36800,"station_id":"cpo36qri1sfpv3e86is0","pricing_plan_id":"cebpf4jnsgd1na2vs0mg"},{"bike_id":"b6686461-4b48-4eae-9ce8-8178b8df331b","system_id":"levelo_inurba_marseille","lat":43.24658,"lon":5.38159,"is_reserved":false,"is_disabled":false,"rental_uris":{"android":"levelo://app?vid=b6686461-4b48-4eae-9ce8-8178b8df331b","ios":"levelo://app?vid=b6686461-4b48-4eae-9ce8-8178b8df331b"},"vehicle_type_id":"4","last_reported":1728493680,"current_range_meters":38800,"station_id":"ce4bhih2rcd13ifvqfr0","pricing_plan_id":"cebpf4jnsgd1na2vs0mg"},{"bike_id":"0b742625-6454-43f4-b0b9-9a6d20cc66e2","system_id":"levelo_inurba_marseille","lat":43.248005,"lon":5.374438,"is_reserved":false,"is_disabled":false,"rental_uris":{"android":"levelo://app?vid=0b742625-6454-43f4-b0b9-9a6d20cc66e2","ios":"levelo://app?vid=0b742625-6454-43f4-b0b9-9a6d20cc66e2"},"vehicle_type_id":"4","last_reported":1728493680,"current_range_meters":27200,"station_id":"ce4bhgh2rcd13ifvqfb0","pricing_plan_id":"cebpf4jnsgd1na2vs0mg"},{"bike_id":"8e801870-ae83-48fd-9cfb-5f562702ff3a","system_id":"levelo_inurba_marseille","lat":43.32536,"lon":5.4146,"is_reserved":false,"is_disabled":false,"rental_uris":{"android":"levelo://app?vid=8e801870-ae83-48fd-9cfb-5f562702ff3a","ios":"levelo://app?vid=8e801870-ae83-48fd-9cfb-5f562702ff3a"},"vehicle_type_id":"4","last_reported":1728493680,"current_range_meters":37600,"station_id":"ce4bhq12rcd13ifvqhhg","pricing_plan_id":"cebpf4jnsgd1na2vs0mg"},{"bike_id":"db987a92-e803-415b-affb-5a34d246e1b2","system_id":"levelo_inurba_marseille","lat":43.31706,"lon":5.37762,"is_reserved":false,"is_disabled":false,"rental_uris":{"android":"levelo://app?vid=db987a92-e803-415b-affb-5a34d246e1b2","ios":"levelo://app?vid=db987a92-e803-415b-affb-5a34d246e1b2"},"vehicle_type_id":"4","last_reported":1728493680,"current_range_meters":14400,"station_id":"ce4bgth2rcd13ifvqch0","pricing_plan_id":"cebpf4jnsgd1na2vs0mg"},{"bike_id":"6ce63cfa-5730-47eb-80ee-91a03543d622","system_id":"levelo_inurba_marseille","lat":43.29893,"lon":5.43674,"is_reserved":false,"is_disabled":false,"rental_uris":{"android":"levelo://app?vid=6ce63cfa-5730-47eb-80ee-91a03543d622","ios":"levelo://app?vid=6ce63cfa-5730-47eb-80ee-91a03543d622"},"vehicle_type_id":"4","last_reported":1728493680,"current_range_meters":8400,"station_id":"ce4bhpp2rcd13ifvqhfg","pricing_plan_id":"cebpf4jnsgd1na2vs0mg"},{"bike_id":"e7509dad-7ff3-4047-95a8-3d2fc4a49e8c","system_id":"levelo_inurba_marseille","lat":43.301941,"lon":5.387259,"is_reserved":false,"is_disabled":false,"rental_uris":{"android":"levelo://app?vid=e7509dad-7ff3-4047-95a8-3d2fc4a49e8c","ios":"levelo://app?vid=e7509dad-7ff3-4047-95a8-3d2fc4a49e8c"},"vehicle_type_id":"4","last_reported":1728493680,"current_range_meters":12400,"station_id":"ce4bghh2rcd13ifvqb60","pricing_plan_id":"cebpf4jnsgd1na2vs0mg"},{"bike_id":"67f5c9ce-d342-43bc-a463-b94ab74a1fe0","system_id":"levelo_inurba_marseille","lat":43.3301,"lon":5.39044,"is_reserved":false,"is_disabled":false,"rental_uris":{"android":"levelo://app?vid=67f5c9ce-d342-43bc-a463-b94ab74a1fe0","ios":"levelo://app?vid=67f5c9ce-d342-43bc-a463-b94ab74a1fe0"},"vehicle_type_id":"4","last_reported":1728493680,"current_range_meters":16000,"station_id":"ce4bhr92rcd13ifvqhrg","pricing_plan_id":"cebpf4jnsgd1na2vs0mg"},{"bike_id":"8513be67-a978-4cfc-9563-19285ed6fe5a","system_id":"levelo_inurba_marseille","lat":43.23196,"lon":5.35544,"is_reserved":false,"is_disabled":false,"rental_uris":{"android":"levelo://app?vid=8513be67-a978-4cfc-9563-19285ed6fe5a","ios":"levelo://app?vid=8513be67-a978-4cfc-9563-19285ed6fe5a"},"vehicle_type_id":"4","last_reported":1728493680,"current_range_meters":10800,"station_id":"ce4bhu92rcd13ifvqi70","pricing_plan_id":"cebpf4jnsgd1na2vs0mg"},{"bike_id":"1197f692-639d-4fb0-ae7f-c285068db770","system_id":"levelo_inurba_marseille","lat":43.25089,"lon":5.39524,"is_reserved":false,"is_disabled":false,"rental_uris":{"android":"levelo://app?vid=1197f692-639d-4fb0-ae7f-c285068db770","ios":"levelo://app?vid=1197f692-639d-4fb0-ae7f-c285068db770"},"vehicle_type_id":"4","last_reported":1728493680,"current_range_meters":26800,"station_id":"ce4bhm12rcd13ifvqgkg","pricing_plan_id":"cebpf4jnsgd1na2vs0mg"},{"bike_id":"922252e8-02c2-4987-8eed-1d6d69073568","system_id":"levelo_inurba_marseille","lat":43.26689,"lon":5.38276,"is_reserved":false,"is_disabled":false,"rental_uris":{"android":"levelo://app?vid=922252e8-02c2-4987-8eed-1d6d69073568","ios":"levelo://app?vid=922252e8-02c2-4987-8eed-1d6d69073568"},"vehicle_type_id":"4","last_reported":1728493680,"current_range_meters":30800,"station_id":"ce4bhg92rcd13ifvqf90","pricing_plan_id":"cebpf4jnsgd1na2vs0mg"},{"bike_id":"c283bee0-b392-40e1-b183-58fab03c3b3d","system_id":"levelo_inurba_marseille","lat":43.28407,"lon":5.34985,"is_reserved":false,"is_disabled":false,"rental_uris":{"android":"levelo://app?vid=c283bee0-b392-40e1-b183-58fab03c3b3d","ios":"levelo://app?vid=c283bee0-b392-40e1-b183-58fab03c3b3d"},"vehicle_type_id":"4","last_reported":1728493680,"current_range_meters":19200,"station_id":"ce4bhbh2rcd13ifvqepg","pricing_plan_id":"cebpf4jnsgd1na2vs0mg"},{"bike_id":"23a1e5de-2772-43ff-9efe-587bdb16aa23","system_id":"levelo_inurba_marseille","lat":43.29189,"lon":5.35616,"is_reserved":false,"is_disabled":false,"rental_uris":{"android":"levelo://app?vid=23a1e5de-2772-43ff-9efe-587bdb16aa23","ios":"levelo://app?vid=23a1e5de-2772-43ff-9efe-587bdb16aa23"},"vehicle_type_id":"4","last_reported":1728493680,"current_range_meters":22000,"station_id":"ce4bhb12rcd13ifvqel0","pricing_plan_id":"cebpf4jnsgd1na2vs0mg"},{"bike_id":"321ff2c6-cc16-4857-84cd-6f10af9a2a6d","system_id":"levelo_inurba_marseille","lat":43.317582,"lon":5.390124,"is_reserved":false,"is_disabled":false,"rental_uris":{"android":"levelo://app?vid=321ff2c6-cc16-4857-84cd-6f10af9a2a6d","ios":"levelo://app?vid=321ff2c6-cc16-4857-84cd-6f10af9a2a6d"},"vehicle_type_id":"4","last_reported":1728493680,"current_range_meters":38000,"station_id":"ce4bhqp2rcd13ifvqhng","pricing_plan_id":"cebpf4jnsgd1na2vs0mg"},{"bike_id":"495bb24f-72af-47e0-b301-f86c01157a90","system_id":"levelo_inurba_marseille","lat":43.28411,"lon":5.3752,"is_reserved":false,"is_disabled":false,"rental_uris":{"android":"levelo://app?vid=495bb24f-72af-47e0-b301-f86c01157a90","ios":"levelo://app?vid=495bb24f-72af-47e0-b301-f86c01157a90"},"vehicle_type_id":"4","last_reported":1728493680,"current_range_meters":29600,"station_id":"ce4bh412rcd13ifvqds0","pricing_plan_id":"cebpf4jnsgd1na2vs0mg"},{"bike_id":"a56210de-1b04-4f46-b9da-ba4a9392b542","system_id":"levelo_inurba_marseille","lat":43.3107,"lon":5.38353,"is_reserved":false,"is_disabled":false,"rental_uris":{"android":"levelo://app?vid=a56210de-1b04-4f46-b9da-ba4a9392b542","ios":"levelo://app?vid=a56210de-1b04-4f46-b9da-ba4a9392b542"},"vehicle_type_id":"4","last_reported":1728493680,"current_range_meters":38800,"station_id":"ce4bgv92rcd13ifvqcr0","pricing_plan_id":"cebpf4jnsgd1na2vs0mg"},{"bike_id":"d38dd870-fb35-4ebe-8242-7b8d175eed8b","system_id":"levelo_inurba_marseille","lat":43.32267,"lon":5.40677,"is_reserved":false,"is_disabled":false,"rental_uris":{"android":"levelo://app?vid=d38dd870-fb35-4ebe-8242-7b8d175eed8b","ios":"levelo://app?vid=d38dd870-fb35-4ebe-8242-7b8d175eed8b"},"vehicle_type_id":"4","last_reported":1728493680,"current_range_meters":10000,"station_id":"","pricing_plan_id":"cebpf4jnsgd1na2vs0mg"},{"bike_id":"f620ca7d-f28a-4cb7-9337-4e4737d3aa50","system_id":"levelo_inurba_marseille","lat":43.30114,"lon":5.38776,"is_reserved":false,"is_disabled":false,"rental_uris":{"android":"levelo://app?vid=f620ca7d-f28a-4cb7-9337-4e4737d3aa50","ios":"levelo://app?vid=f620ca7d-f28a-4cb7-9337-4e4737d3aa50"},"vehicle_type_id":"4","last_reported":1728493680,"current_range_meters":34000,"station_id":"ce4bghh2rcd13ifvqb60","pricing_plan_id":"cebpf4jnsgd1na2vs0mg"},{"bike_id":"80da3476-30fe-4649-bbb3-4895ff26897a","system_id":"levelo_inurba_marseille","lat":43.29566,"lon":5.39976,"is_reserved":false,"is_disabled":false,"rental_uris":{"android":"levelo://app?vid=80da3476-30fe-4649-bbb3-4895ff26897a","ios":"levelo://app?vid=80da3476-30fe-4649-bbb3-4895ff26897a"},"vehicle_type_id":"4","last_reported":1728493680,"current_range_meters":4400,"station_id":"ce4bh312rcd13ifvqdj0","pricing_plan_id":"cebpf4jnsgd1na2vs0mg"},{"bike_id":"dd2cfa34-e17b-40c7-a770-d4b1ec6810c9","system_id":"levelo_inurba_marseille","lat":43.28255,"lon":5.35068,"is_reserved":false,"is_disabled":false,"rental_uris":{"android":"levelo://app?vid=dd2cfa34-e17b-40c7-a770-d4b1ec6810c9","ios":"levelo://app?vid=dd2cfa34-e17b-40c7-a770-d4b1ec6810c9"},"vehicle_type_id":"4","last_reported":1728493680,"current_range_meters":36400,"station_id":"ce4bhbp2rcd13ifvqerg","pricing_plan_id":"cebpf4jnsgd1na2vs0mg"},{"bike_id":"9193e869-9168-492c-ae42-18f5dd306084","system_id":"levelo_inurba_marseille","lat":43.2707,"lon":5.42281,"is_reserved":false,"is_disabled":false,"rental_uris":{"android":"levelo://app?vid=9193e869-9168-492c-ae42-18f5dd306084","ios":"levelo://app?vid=9193e869-9168-492c-ae42-18f5dd306084"},"vehicle_type_id":"4","last_reported":1728493680,"current_range_meters":30000,"station_id":"ce4bhk92rcd13ifvqgb0","pricing_plan_id":"cebpf4jnsgd1na2vs0mg"},{"bike_id":"2df730a7-89e5-413d-9bed-72b64744a6f2","system_id":"levelo_inurba_marseille","lat":43.22931,"lon":5.35378,"is_reserved":false,"is_disabled":false,"rental_uris":{"android":"levelo://app?vid=2df730a7-89e5-413d-9bed-72b64744a6f2","ios":"levelo://app?vid=2df730a7-89e5-413d-9bed-72b64744a6f2"},"vehicle_type_id":"4","last_reported":1728493680,"current_range_meters":38800,"station_id":"cpo3532slgdg3j2ikp40","pricing_plan_id":"cebpf4jnsgd1na2vs0mg"},{"bike_id":"74dea6e5-f1b2-476b-95da-8353d0ac07f5","system_id":"levelo_inurba_marseille","lat":43.22924,"lon":5.35384,"is_reserved":false,"is_disabled":false,"rental_uris":{"android":"levelo://app?vid=74dea6e5-f1b2-476b-95da-8353d0ac07f5","ios":"levelo://app?vid=74dea6e5-f1b2-476b-95da-8353d0ac07f5"},"vehicle_type_id":"4","last_reported":1728493680,"current_range_meters":38800,"station_id":"cpo3532slgdg3j2ikp40","pricing_plan_id":"cebpf4jnsgd1na2vs0mg"},{"bike_id":"3988724c-5a72-4d8c-bc40-db1cd63dc8b0","system_id":"levelo_inurba_marseille","lat":43.27492,"lon":5.42453,"is_reserved":false,"is_disabled":false,"rental_uris":{"android":"levelo://app?vid=3988724c-5a72-4d8c-bc40-db1cd63dc8b0","ios":"levelo://app?vid=3988724c-5a72-4d8c-bc40-db1cd63dc8b0"},"vehicle_type_id":"4","last_reported":1728493680,"current_range_meters":8400,"station_id":"ce4bhn92rcd13ifvqgrg","pricing_plan_id":"cebpf4jnsgd1na2vs0mg"},{"bike_id":"2a4b481b-34e5-4042-a833-039e39ff3f74","system_id":"levelo_inurba_marseille","lat":43.28948,"lon":5.36404,"is_reserved":false,"is_disabled":false,"rental_uris":{"android":"levelo://app?vid=2a4b481b-34e5-4042-a833-039e39ff3f74","ios":"levelo://app?vid=2a4b481b-34e5-4042-a833-039e39ff3f74"},"vehicle_type_id":"4","last_reported":1728493680,"current_range_meters":4400,"station_id":"ce4bhc92rcd13ifvqetg","pricing_plan_id":"cebpf4jnsgd1na2vs0mg"},{"bike_id":"be2acaab-76c6-4c71-8dd3-3f0f00b78585","system_id":"levelo_inurba_marseille","lat":43.31535,"lon":5.38037,"is_reserved":false,"is_disabled":false,"rental_uris":{"android":"levelo://app?vid=be2acaab-76c6-4c71-8dd3-3f0f00b78585","ios":"levelo://app?vid=be2acaab-76c6-4c71-8dd3-3f0f00b78585"},"vehicle_type_id":"4","last_reported":1728493680,"current_range_meters":28000,"station_id":"ce4bhsp2rcd13ifvqi50","pricing_plan_id":"cebpf4jnsgd1na2vs0mg"},{"bike_id":"29cb1526-8d04-42cd-afd9-4af7c5cbfad4","system_id":"levelo_inurba_marseille","lat":43.23191,"lon":5.35561,"is_reserved":false,"is_disabled":false,"rental_uris":{"android":"levelo://app?vid=29cb1526-8d04-42cd-afd9-4af7c5cbfad4","ios":"levelo://app?vid=29cb1526-8d04-42cd-afd9-4af7c5cbfad4"},"vehicle_type_id":"4","last_reported":1728493680,"current_range_meters":38800,"station_id":"ce4bhu92rcd13ifvqi70","pricing_plan_id":"cebpf4jnsgd1na2vs0mg"},{"bike_id":"62930a7f-74ee-49d2-82a3-62a466b84fb0","system_id":"levelo_inurba_marseille","lat":43.32324,"lon":5.38164,"is_reserved":false,"is_disabled":false,"rental_uris":{"android":"levelo://app?vid=62930a7f-74ee-49d2-82a3-62a466b84fb0","ios":"levelo://app?vid=62930a7f-74ee-49d2-82a3-62a466b84fb0"},"vehicle_type_id":"4","last_reported":1728493680,"current_range_meters":8000,"station_id":"","pricing_plan_id":"cebpf4jnsgd1na2vs0mg"},{"bike_id":"d27a61a9-213c-4b1d-bbcf-4d01e0d48179","system_id":"levelo_inurba_marseille","lat":43.29596,"lon":5.38112,"is_reserved":false,"is_disabled":false,"rental_uris":{"android":"levelo://app?vid=d27a61a9-213c-4b1d-bbcf-4d01e0d48179","ios":"levelo://app?vid=d27a61a9-213c-4b1d-bbcf-4d01e0d48179"},"vehicle_type_id":"4","last_reported":1728493680,"current_range_meters":8400,"station_id":"ce4bgl12rcd13ifvqbo0","pricing_plan_id":"cebpf4jnsgd1na2vs0mg"},{"bike_id":"cfe8373c-d75a-467d-b6a6-a6cf7260d65a","system_id":"levelo_inurba_marseille","lat":43.28938,"lon":5.3639,"is_reserved":false,"is_disabled":false,"rental_uris":{"android":"levelo://app?vid=cfe8373c-d75a-467d-b6a6-a6cf7260d65a","ios":"levelo://app?vid=cfe8373c-d75a-467d-b6a6-a6cf7260d65a"},"vehicle_type_id":"4","last_reported":1728493680,"current_range_meters":4400,"station_id":"ce4bhc92rcd13ifvqetg","pricing_plan_id":"cebpf4jnsgd1na2vs0mg"},{"bike_id":"a18662f8-7c5d-40ed-a87d-88d8a14f8320","system_id":"levelo_inurba_marseille","lat":43.31758,"lon":5.39013,"is_reserved":false,"is_disabled":false,"rental_uris":{"android":"levelo://app?vid=a18662f8-7c5d-40ed-a87d-88d8a14f8320","ios":"levelo://app?vid=a18662f8-7c5d-40ed-a87d-88d8a14f8320"},"vehicle_type_id":"4","last_reported":1728493680,"current_range_meters":27200,"station_id":"ce4bhqp2rcd13ifvqhng","pricing_plan_id":"cebpf4jnsgd1na2vs0mg"},{"bike_id":"6217f0d4-29aa-4911-a3f9-c02e45328700","system_id":"levelo_inurba_marseille","lat":43.23193,"lon":5.35551,"is_reserved":false,"is_disabled":false,"rental_uris":{"android":"levelo://app?vid=6217f0d4-29aa-4911-a3f9-c02e45328700","ios":"levelo://app?vid=6217f0d4-29aa-4911-a3f9-c02e45328700"},"vehicle_type_id":"4","last_reported":1728493680,"current_range_meters":31200,"station_id":"ce4bhu92rcd13ifvqi70","pricing_plan_id":"cebpf4jnsgd1na2vs0mg"},{"bike_id":"a28600f4-2692-471e-bc6e-36c634e54b88","system_id":"levelo_inurba_marseille","lat":43.25488,"lon":5.3765,"is_reserved":false,"is_disabled":false,"rental_uris":{"android":"levelo://app?vid=a28600f4-2692-471e-bc6e-36c634e54b88","ios":"levelo://app?vid=a28600f4-2692-471e-bc6e-36c634e54b88"},"vehicle_type_id":"4","last_reported":1728493680,"current_range_meters":32400,"station_id":"ce4bhh12rcd13ifvqff0","pricing_plan_id":"cebpf4jnsgd1na2vs0mg"},{"bike_id":"d8d9e195-0b53-46b7-a4e3-f2b2c532f4ae","system_id":"levelo_inurba_marseille","lat":43.23197,"lon":5.35549,"is_reserved":false,"is_disabled":false,"rental_uris":{"android":"levelo://app?vid=d8d9e195-0b53-46b7-a4e3-f2b2c532f4ae","ios":"levelo://app?vid=d8d9e195-0b53-46b7-a4e3-f2b2c532f4ae"},"vehicle_type_id":"4","last_reported":1728493680,"current_range_meters":38400,"station_id":"ce4bhu92rcd13ifvqi70","pricing_plan_id":"cebpf4jnsgd1na2vs0mg"},{"bike_id":"6d78fb79-3cdc-4592-9f87-fe8663fe0883","system_id":"levelo_inurba_marseille","lat":43.27977,"lon":5.38746,"is_reserved":false,"is_disabled":false,"rental_uris":{"android":"levelo://app?vid=6d78fb79-3cdc-4592-9f87-fe8663fe0883","ios":"levelo://app?vid=6d78fb79-3cdc-4592-9f87-fe8663fe0883"},"vehicle_type_id":"4","last_reported":1728493680,"current_range_meters":38800,"station_id":"ce4bhg12rcd13ifvqf80","pricing_plan_id":"cebpf4jnsgd1na2vs0mg"},{"bike_id":"8d802848-87a3-45d2-b23a-cc6bf70bb637","system_id":"levelo_inurba_marseille","lat":43.28561,"lon":5.39495,"is_reserved":false,"is_disabled":false,"rental_uris":{"android":"levelo://app?vid=8d802848-87a3-45d2-b23a-cc6bf70bb637","ios":"levelo://app?vid=8d802848-87a3-45d2-b23a-cc6bf70bb637"},"vehicle_type_id":"4","last_reported":1728493680,"current_range_meters":36000,"station_id":"ce4bh292rcd13ifvqdg0","pricing_plan_id":"cebpf4jnsgd1na2vs0mg"},{"bike_id":"4371898b-0507-43ef-b9fb-3148d9fab431","system_id":"levelo_inurba_marseille","lat":43.31215,"lon":5.36857,"is_reserved":false,"is_disabled":false,"rental_uris":{"android":"levelo://app?vid=4371898b-0507-43ef-b9fb-3148d9fab431","ios":"levelo://app?vid=4371898b-0507-43ef-b9fb-3148d9fab431"},"vehicle_type_id":"4","last_reported":1728493680,"current_range_meters":26800,"station_id":"ce4bgl92rcd13ifvqbq0","pricing_plan_id":"cebpf4jnsgd1na2vs0mg"},{"bike_id":"317ff003-128f-4b2a-b078-ec0cf3508ab4","system_id":"levelo_inurba_marseille","lat":43.28614,"lon":5.35103,"is_reserved":false,"is_disabled":false,"rental_uris":{"android":"levelo://app?vid=317ff003-128f-4b2a-b078-ec0cf3508ab4","ios":"levelo://app?vid=317ff003-128f-4b2a-b078-ec0cf3508ab4"},"vehicle_type_id":"4","last_reported":1728493680,"current_range_meters":27600,"station_id":"ce4bhch2rcd13ifvqeug","pricing_plan_id":"cebpf4jnsgd1na2vs0mg"},{"bike_id":"3fed2c29-1785-4a61-aa34-c76120861948","system_id":"levelo_inurba_marseille","lat":43.29031,"lon":5.37559,"is_reserved":false,"is_disabled":false,"rental_uris":{"android":"levelo://app?vid=3fed2c29-1785-4a61-aa34-c76120861948","ios":"levelo://app?vid=3fed2c29-1785-4a61-aa34-c76120861948"},"vehicle_type_id":"4","last_reported":1728493680,"current_range_meters":8400,"station_id":"ce4bh692rcd13ifvqe90","pricing_plan_id":"cebpf4jnsgd1na2vs0mg"},{"bike_id":"25afecff-8faf-4ca5-beb4-ce74280dcb13","system_id":"levelo_inurba_marseille","lat":43.23194,"lon":5.35552,"is_reserved":false,"is_disabled":false,"rental_uris":{"android":"levelo://app?vid=25afecff-8faf-4ca5-beb4-ce74280dcb13","ios":"levelo://app?vid=25afecff-8faf-4ca5-beb4-ce74280dcb13"},"vehicle_type_id":"4","last_reported":1728493680,"current_range_meters":38800,"station_id":"ce4bhu92rcd13ifvqi70","pricing_plan_id":"cebpf4jnsgd1na2vs0mg"},{"bike_id":"bc5da530-264e-4907-ad43-308cc5fa4656","system_id":"levelo_inurba_marseille","lat":43.33023,"lon":5.39036,"is_reserved":false,"is_disabled":false,"rental_uris":{"android":"levelo://app?vid=bc5da530-264e-4907-ad43-308cc5fa4656","ios":"levelo://app?vid=bc5da530-264e-4907-ad43-308cc5fa4656"},"vehicle_type_id":"4","last_reported":1728493680,"current_range_meters":28400,"station_id":"ce4bhr92rcd13ifvqhrg","pricing_plan_id":"cebpf4jnsgd1na2vs0mg"},{"bike_id":"569922a6-b9e7-4466-92bd-417a0e9fe2d8","system_id":"levelo_inurba_marseille","lat":43.3058,"lon":5.39353,"is_reserved":false,"is_disabled":false,"rental_uris":{"android":"levelo://app?vid=569922a6-b9e7-4466-92bd-417a0e9fe2d8","ios":"levelo://app?vid=569922a6-b9e7-4466-92bd-417a0e9fe2d8"},"vehicle_type_id":"4","last_reported":1728493680,"current_range_meters":3600,"station_id":"ce4bh0p2rcd13ifvqd80","pricing_plan_id":"cebpf4jnsgd1na2vs0mg"},{"bike_id":"ccb294e4-4be2-4189-b896-2127edf1217d","system_id":"levelo_inurba_marseille","lat":43.289307,"lon":5.363919,"is_reserved":false,"is_disabled":false,"rental_uris":{"android":"levelo://app?vid=ccb294e4-4be2-4189-b896-2127edf1217d","ios":"levelo://app?vid=ccb294e4-4be2-4189-b896-2127edf1217d"},"vehicle_type_id":"4","last_reported":1728493680,"current_range_meters":37600,"station_id":"ce4bhc92rcd13ifvqetg","pricing_plan_id":"cebpf4jnsgd1na2vs0mg"},{"bike_id":"7219fee0-219f-4cfa-8633-b620db7597ae","system_id":"levelo_inurba_marseille","lat":43.29846,"lon":5.37091,"is_reserved":false,"is_disabled":false,"rental_uris":{"android":"levelo://app?vid=7219fee0-219f-4cfa-8633-b620db7597ae","ios":"levelo://app?vid=7219fee0-219f-4cfa-8633-b620db7597ae"},"vehicle_type_id":"4","last_reported":1728493680,"current_range_meters":8800,"station_id":"","pricing_plan_id":"cebpf4jnsgd1na2vs0mg"},{"bike_id":"5d146cd5-ee57-4fde-af7b-f811c10cc749","system_id":"levelo_inurba_marseille","lat":43.28611,"lon":5.35104,"is_reserved":false,"is_disabled":false,"rental_uris":{"android":"levelo://app?vid=5d146cd5-ee57-4fde-af7b-f811c10cc749","ios":"levelo://app?vid=5d146cd5-ee57-4fde-af7b-f811c10cc749"},"vehicle_type_id":"4","last_reported":1728493680,"current_range_meters":32800,"station_id":"ce4bhch2rcd13ifvqeug","pricing_plan_id":"cebpf4jnsgd1na2vs0mg"},{"bike_id":"b52859fa-1473-41d0-8931-0922e48a2dcc","system_id":"levelo_inurba_marseille","lat":43.23194,"lon":5.35553,"is_reserved":false,"is_disabled":false,"rental_uris":{"android":"levelo://app?vid=b52859fa-1473-41d0-8931-0922e48a2dcc","ios":"levelo://app?vid=b52859fa-1473-41d0-8931-0922e48a2dcc"},"vehicle_type_id":"4","last_reported":1728493680,"current_range_meters":8800,"station_id":"ce4bhu92rcd13ifvqi70","pricing_plan_id":"cebpf4jnsgd1na2vs0mg"},{"bike_id":"c74d9bd0-5c1b-48c7-9ad7-a318cfe9f07b","system_id":"levelo_inurba_marseille","lat":43.312743,"lon":5.401745,"is_reserved":false,"is_disabled":false,"rental_uris":{"android":"levelo://app?vid=c74d9bd0-5c1b-48c7-9ad7-a318cfe9f07b","ios":"levelo://app?vid=c74d9bd0-5c1b-48c7-9ad7-a318cfe9f07b"},"vehicle_type_id":"4","last_reported":1728493680,"current_range_meters":9200,"station_id":"ce4bh092rcd13ifvqd30","pricing_plan_id":"cebpf4jnsgd1na2vs0mg"},{"bike_id":"880c372f-8c99-4489-ba06-6b3c6ad0dd7f","system_id":"levelo_inurba_marseille","lat":43.30337,"lon":5.40428,"is_reserved":false,"is_disabled":false,"rental_uris":{"android":"levelo://app?vid=880c372f-8c99-4489-ba06-6b3c6ad0dd7f","ios":"levelo://app?vid=880c372f-8c99-4489-ba06-6b3c6ad0dd7f"},"vehicle_type_id":"4","last_reported":1728493680,"current_range_meters":38800,"station_id":"ce4bh012rcd13ifvqd10","pricing_plan_id":"cebpf4jnsgd1na2vs0mg"},{"bike_id":"32ba7206-1d47-41e8-8584-b368f9498ed8","system_id":"levelo_inurba_marseille","lat":43.289337,"lon":5.366358,"is_reserved":false,"is_disabled":false,"rental_uris":{"android":"levelo://app?vid=32ba7206-1d47-41e8-8584-b368f9498ed8","ios":"levelo://app?vid=32ba7206-1d47-41e8-8584-b368f9498ed8"},"vehicle_type_id":"4","last_reported":1728493680,"current_range_meters":20000,"station_id":"ce4bgh92rcd13ifvqb40","pricing_plan_id":"cebpf4jnsgd1na2vs0mg"},{"bike_id":"d7229c41-b335-405f-aec7-70b38b01cf1a","system_id":"levelo_inurba_marseille","lat":43.24993,"lon":5.38935,"is_reserved":false,"is_disabled":false,"rental_uris":{"android":"levelo://app?vid=d7229c41-b335-405f-aec7-70b38b01cf1a","ios":"levelo://app?vid=d7229c41-b335-405f-aec7-70b38b01cf1a"},"vehicle_type_id":"4","last_reported":1728493680,"current_range_meters":38800,"station_id":"ce4bhgp2rcd13ifvqfd0","pricing_plan_id":"cebpf4jnsgd1na2vs0mg"},{"bike_id":"c8b6526c-2966-48bd-9ea9-f66649525bf1","system_id":"levelo_inurba_marseille","lat":43.3172,"lon":5.43719,"is_reserved":false,"is_disabled":false,"rental_uris":{"android":"levelo://app?vid=c8b6526c-2966-48bd-9ea9-f66649525bf1","ios":"levelo://app?vid=c8b6526c-2966-48bd-9ea9-f66649525bf1"},"vehicle_type_id":"4","last_reported":1728493680,"current_range_meters":26800,"station_id":"ce4bhp92rcd13ifvqhcg","pricing_plan_id":"cebpf4jnsgd1na2vs0mg"},{"bike_id":"952d31ed-2cfd-4a87-912e-fa39166b06cb","system_id":"levelo_inurba_marseille","lat":43.31477,"lon":5.37311,"is_reserved":false,"is_disabled":false,"rental_uris":{"android":"levelo://app?vid=952d31ed-2cfd-4a87-912e-fa39166b06cb","ios":"levelo://app?vid=952d31ed-2cfd-4a87-912e-fa39166b06cb"},"vehicle_type_id":"4","last_reported":1728493680,"current_range_meters":19600,"station_id":"ce4bgt12rcd13ifvqcd0","pricing_plan_id":"cebpf4jnsgd1na2vs0mg"},{"bike_id":"dca7c60b-d25d-4583-83b1-af4390c055f4","system_id":"levelo_inurba_marseille","lat":43.23183,"lon":5.35563,"is_reserved":false,"is_disabled":false,"rental_uris":{"android":"levelo://app?vid=dca7c60b-d25d-4583-83b1-af4390c055f4","ios":"levelo://app?vid=dca7c60b-d25d-4583-83b1-af4390c055f4"},"vehicle_type_id":"4","last_reported":1728493680,"current_range_meters":7200,"station_id":"ce4bhu92rcd13ifvqi70","pricing_plan_id":"cebpf4jnsgd1na2vs0mg"},{"bike_id":"c46c24ad-b402-4f86-932a-523dbc149b90","system_id":"levelo_inurba_marseille","lat":43.23958,"lon":5.36636,"is_reserved":false,"is_disabled":false,"rental_uris":{"android":"levelo://app?vid=c46c24ad-b402-4f86-932a-523dbc149b90","ios":"levelo://app?vid=c46c24ad-b402-4f86-932a-523dbc149b90"},"vehicle_type_id":"4","last_reported":1728493680,"current_range_meters":9600,"station_id":"ce4bhi12rcd13ifvqfp0","pricing_plan_id":"cebpf4jnsgd1na2vs0mg"},{"bike_id":"9430c576-d4f8-4518-9504-d5d0cf07d3a5","system_id":"levelo_inurba_marseille","lat":43.31486,"lon":5.37308,"is_reserved":false,"is_disabled":false,"rental_uris":{"android":"levelo://app?vid=9430c576-d4f8-4518-9504-d5d0cf07d3a5","ios":"levelo://app?vid=9430c576-d4f8-4518-9504-d5d0cf07d3a5"},"vehicle_type_id":"4","last_reported":1728493680,"current_range_meters":22000,"station_id":"ce4bgt12rcd13ifvqcd0","pricing_plan_id":"cebpf4jnsgd1na2vs0mg"},{"bike_id":"53f0f78a-1842-45cd-9f51-f0709690e91a","system_id":"levelo_inurba_marseille","lat":43.29512,"lon":5.39401,"is_reserved":false,"is_disabled":false,"rental_uris":{"android":"levelo://app?vid=53f0f78a-1842-45cd-9f51-f0709690e91a","ios":"levelo://app?vid=53f0f78a-1842-45cd-9f51-f0709690e91a"},"vehicle_type_id":"4","last_reported":1728493680,"current_range_meters":6800,"station_id":"ce4bh292rcd13ifvqdf0","pricing_plan_id":"cebpf4jnsgd1na2vs0mg"},{"bike_id":"263d09ba-84af-4de0-81d4-d35f55ac3eb7","system_id":"levelo_inurba_marseille","lat":43.30317,"lon":5.40434,"is_reserved":false,"is_disabled":false,"rental_uris":{"android":"levelo://app?vid=263d09ba-84af-4de0-81d4-d35f55ac3eb7","ios":"levelo://app?vid=263d09ba-84af-4de0-81d4-d35f55ac3eb7"},"vehicle_type_id":"4","last_reported":1728493680,"current_range_meters":22800,"station_id":"ce4bh012rcd13ifvqd10","pricing_plan_id":"cebpf4jnsgd1na2vs0mg"},{"bike_id":"da4c1ef8-80bb-4294-9e35-c3a78404952e","system_id":"levelo_inurba_marseille","lat":43.23193,"lon":5.35552,"is_reserved":false,"is_disabled":false,"rental_uris":{"android":"levelo://app?vid=da4c1ef8-80bb-4294-9e35-c3a78404952e","ios":"levelo://app?vid=da4c1ef8-80bb-4294-9e35-c3a78404952e"},"vehicle_type_id":"4","last_reported":1728493680,"current_range_meters":38800,"station_id":"ce4bhu92rcd13ifvqi70","pricing_plan_id":"cebpf4jnsgd1na2vs0mg"},{"bike_id":"d55794f0-8488-4159-9bfe-e8631d39f43e","system_id":"levelo_inurba_marseille","lat":43.24545,"lon":5.39526,"is_reserved":false,"is_disabled":false,"rental_uris":{"android":"levelo://app?vid=d55794f0-8488-4159-9bfe-e8631d39f43e","ios":"levelo://app?vid=d55794f0-8488-4159-9bfe-e8631d39f43e"},"vehicle_type_id":"4","last_reported":1728493680,"current_range_meters":0,"station_id":"ce4bhlp2rcd13ifvqgjg","pricing_plan_id":"cebpf4jnsgd1na2vs0mg"},{"bike_id":"d94ea41b-dd99-4d85-a2dd-68ff3e54dbed","system_id":"levelo_inurba_marseille","lat":43.26199,"lon":5.37932,"is_reserved":false,"is_disabled":false,"rental_uris":{"android":"levelo://app?vid=d94ea41b-dd99-4d85-a2dd-68ff3e54dbed","ios":"levelo://app?vid=d94ea41b-dd99-4d85-a2dd-68ff3e54dbed"},"vehicle_type_id":"4","last_reported":1728493680,"current_range_meters":22800,"station_id":"ce4bhjp2rcd13ifvqg90","pricing_plan_id":"cebpf4jnsgd1na2vs0mg"},{"bike_id":"73e5476b-e1c9-4a5d-9e10-41361ad16636","system_id":"levelo_inurba_marseille","lat":43.25118,"lon":5.4032,"is_reserved":false,"is_disabled":false,"rental_uris":{"android":"levelo://app?vid=73e5476b-e1c9-4a5d-9e10-41361ad16636","ios":"levelo://app?vid=73e5476b-e1c9-4a5d-9e10-41361ad16636"},"vehicle_type_id":"4","last_reported":1728493680,"current_range_meters":39200,"station_id":"ce4bhlh2rcd13ifvqgig","pricing_plan_id":"cebpf4jnsgd1na2vs0mg"},{"bike_id":"94f16000-6848-449a-bbf7-74461eca9bb9","system_id":"levelo_inurba_marseille","lat":43.31121,"lon":5.37763,"is_reserved":false,"is_disabled":false,"rental_uris":{"android":"levelo://app?vid=94f16000-6848-449a-bbf7-74461eca9bb9","ios":"levelo://app?vid=94f16000-6848-449a-bbf7-74461eca9bb9"},"vehicle_type_id":"4","last_reported":1728493680,"current_range_meters":24400,"station_id":"ce4bgt92rcd13ifvqcg0","pricing_plan_id":"cebpf4jnsgd1na2vs0mg"},{"bike_id":"a7b2479a-5b2f-4742-ad69-9cd2b84fbf24","system_id":"levelo_inurba_marseille","lat":43.23962,"lon":5.36641,"is_reserved":false,"is_disabled":false,"rental_uris":{"android":"levelo://app?vid=a7b2479a-5b2f-4742-ad69-9cd2b84fbf24","ios":"levelo://app?vid=a7b2479a-5b2f-4742-ad69-9cd2b84fbf24"},"vehicle_type_id":"4","last_reported":1728493680,"current_range_meters":2800,"station_id":"ce4bhi12rcd13ifvqfp0","pricing_plan_id":"cebpf4jnsgd1na2vs0mg"},{"bike_id":"711ebf15-05f7-40f1-a47b-ed2745d08f63","system_id":"levelo_inurba_marseille","lat":43.262,"lon":5.37931,"is_reserved":false,"is_disabled":false,"rental_uris":{"android":"levelo://app?vid=711ebf15-05f7-40f1-a47b-ed2745d08f63","ios":"levelo://app?vid=711ebf15-05f7-40f1-a47b-ed2745d08f63"},"vehicle_type_id":"4","last_reported":1728493680,"current_range_meters":37600,"station_id":"ce4bhjp2rcd13ifvqg90","pricing_plan_id":"cebpf4jnsgd1na2vs0mg"},{"bike_id":"86bf8701-d752-48ef-8dbe-d972d2a87849","system_id":"levelo_inurba_marseille","lat":43.28855,"lon":5.39317,"is_reserved":false,"is_disabled":false,"rental_uris":{"android":"levelo://app?vid=86bf8701-d752-48ef-8dbe-d972d2a87849","ios":"levelo://app?vid=86bf8701-d752-48ef-8dbe-d972d2a87849"},"vehicle_type_id":"4","last_reported":1728493680,"current_range_meters":3600,"station_id":"ce4bh2p2rcd13ifvqdi0","pricing_plan_id":"cebpf4jnsgd1na2vs0mg"},{"bike_id":"854a16a3-734e-4543-8f33-aec7f3d577f4","system_id":"levelo_inurba_marseille","lat":43.29626,"lon":5.37701,"is_reserved":false,"is_disabled":false,"rental_uris":{"android":"levelo://app?vid=854a16a3-734e-4543-8f33-aec7f3d577f4","ios":"levelo://app?vid=854a16a3-734e-4543-8f33-aec7f3d577f4"},"vehicle_type_id":"4","last_reported":1728493680,"current_range_meters":38800,"station_id":"ce4bgi92rcd13ifvqb90","pricing_plan_id":"cebpf4jnsgd1na2vs0mg"},{"bike_id":"ec288dae-3107-4c6f-984d-d9ec7845b8f8","system_id":"levelo_inurba_marseille","lat":43.27971,"lon":5.38743,"is_reserved":false,"is_disabled":false,"rental_uris":{"android":"levelo://app?vid=ec288dae-3107-4c6f-984d-d9ec7845b8f8","ios":"levelo://app?vid=ec288dae-3107-4c6f-984d-d9ec7845b8f8"},"vehicle_type_id":"4","last_reported":1728493680,"current_range_meters":4800,"station_id":"ce4bhg12rcd13ifvqf80","pricing_plan_id":"cebpf4jnsgd1na2vs0mg"},{"bike_id":"6401cbf8-0d67-44c6-b99c-164eca16ecb0","system_id":"levelo_inurba_marseille","lat":43.28551,"lon":5.38947,"is_reserved":false,"is_disabled":false,"rental_uris":{"android":"levelo://app?vid=6401cbf8-0d67-44c6-b99c-164eca16ecb0","ios":"levelo://app?vid=6401cbf8-0d67-44c6-b99c-164eca16ecb0"},"vehicle_type_id":"4","last_reported":1728493680,"current_range_meters":2800,"station_id":"ce4bho92rcd13ifvqh4g","pricing_plan_id":"cebpf4jnsgd1na2vs0mg"},{"bike_id":"727feefc-c2a7-4628-8170-7923b79f4736","system_id":"levelo_inurba_marseille","lat":43.34144,"lon":5.40907,"is_reserved":false,"is_disabled":false,"rental_uris":{"android":"levelo://app?vid=727feefc-c2a7-4628-8170-7923b79f4736","ios":"levelo://app?vid=727feefc-c2a7-4628-8170-7923b79f4736"},"vehicle_type_id":"4","last_reported":1728493680,"current_range_meters":2800,"station_id":"ce4bhqh2rcd13ifvqhlg","pricing_plan_id":"cebpf4jnsgd1na2vs0mg"},{"bike_id":"cf90b0de-943a-4fe6-9a3c-094803d9e75b","system_id":"levelo_inurba_marseille","lat":43.28413,"lon":5.37507,"is_reserved":false,"is_disabled":false,"rental_uris":{"android":"levelo://app?vid=cf90b0de-943a-4fe6-9a3c-094803d9e75b","ios":"levelo://app?vid=cf90b0de-943a-4fe6-9a3c-094803d9e75b"},"vehicle_type_id":"4","last_reported":1728493680,"current_range_meters":20000,"station_id":"ce4bh412rcd13ifvqds0","pricing_plan_id":"cebpf4jnsgd1na2vs0mg"},{"bike_id":"2312979e-9428-4f63-bdef-77b40f52c2f7","system_id":"levelo_inurba_marseille","lat":43.30792,"lon":5.43528,"is_reserved":false,"is_disabled":false,"rental_uris":{"android":"levelo://app?vid=2312979e-9428-4f63-bdef-77b40f52c2f7","ios":"levelo://app?vid=2312979e-9428-4f63-bdef-77b40f52c2f7"},"vehicle_type_id":"4","last_reported":1728493680,"current_range_meters":24000,"station_id":"ce4bhph2rcd13ifvqheg","pricing_plan_id":"cebpf4jnsgd1na2vs0mg"},{"bike_id":"6caf95ac-909f-41e1-8bc7-0f91444d16fb","system_id":"levelo_inurba_marseille","lat":43.23069,"lon":5.35494,"is_reserved":false,"is_disabled":false,"rental_uris":{"android":"levelo://app?vid=6caf95ac-909f-41e1-8bc7-0f91444d16fb","ios":"levelo://app?vid=6caf95ac-909f-41e1-8bc7-0f91444d16fb"},"vehicle_type_id":"4","last_reported":1728493680,"current_range_meters":17200,"station_id":"cpo3342slgdg3j2ifvpg","pricing_plan_id":"cebpf4jnsgd1na2vs0mg"},{"bike_id":"3fab305b-1728-4a45-9f4f-fb39052b80d2","system_id":"levelo_inurba_marseille","lat":43.25488,"lon":5.3765,"is_reserved":false,"is_disabled":false,"rental_uris":{"android":"levelo://app?vid=3fab305b-1728-4a45-9f4f-fb39052b80d2","ios":"levelo://app?vid=3fab305b-1728-4a45-9f4f-fb39052b80d2"},"vehicle_type_id":"4","last_reported":1728493680,"current_range_meters":36400,"station_id":"ce4bhh12rcd13ifvqff0","pricing_plan_id":"cebpf4jnsgd1na2vs0mg"},{"bike_id":"cb439072-15f2-4299-919f-ba4b86460e53","system_id":"levelo_inurba_marseille","lat":43.28031,"lon":5.36957,"is_reserved":false,"is_disabled":false,"rental_uris":{"android":"levelo://app?vid=cb439072-15f2-4299-919f-ba4b86460e53","ios":"levelo://app?vid=cb439072-15f2-4299-919f-ba4b86460e53"},"vehicle_type_id":"4","last_reported":1728493680,"current_range_meters":20800,"station_id":"ce4bha12rcd13ifvqef0","pricing_plan_id":"cebpf4jnsgd1na2vs0mg"},{"bike_id":"ede68b2f-f53f-4ad5-a3f5-950bc936b5eb","system_id":"levelo_inurba_marseille","lat":43.33773,"lon":5.37398,"is_reserved":false,"is_disabled":false,"rental_uris":{"android":"levelo://app?vid=ede68b2f-f53f-4ad5-a3f5-950bc936b5eb","ios":"levelo://app?vid=ede68b2f-f53f-4ad5-a3f5-950bc936b5eb"},"vehicle_type_id":"4","last_reported":1728493680,"current_range_meters":32800,"station_id":"","pricing_plan_id":"cebpf4jnsgd1na2vs0mg"},{"bike_id":"bb2e048a-c55f-4f68-98e0-9f12edc3e4d6","system_id":"levelo_inurba_marseille","lat":43.24174,"lon":5.39722,"is_reserved":false,"is_disabled":false,"rental_uris":{"android":"levelo://app?vid=bb2e048a-c55f-4f68-98e0-9f12edc3e4d6","ios":"levelo://app?vid=bb2e048a-c55f-4f68-98e0-9f12edc3e4d6"},"vehicle_type_id":"4","last_reported":1728493680,"current_range_meters":6400,"station_id":"ce4bhn12rcd13ifvqgpg","pricing_plan_id":"cebpf4jnsgd1na2vs0mg"},{"bike_id":"ffb667f0-ace4-45c4-9eaa-53c6f66faecd","system_id":"levelo_inurba_marseille","lat":43.33716,"lon":5.39189,"is_reserved":false,"is_disabled":false,"rental_uris":{"android":"levelo://app?vid=ffb667f0-ace4-45c4-9eaa-53c6f66faecd","ios":"levelo://app?vid=ffb667f0-ace4-45c4-9eaa-53c6f66faecd"},"vehicle_type_id":"4","last_reported":1728493680,"current_range_meters":16000,"station_id":"ce4bhr92rcd13ifvqhsg","pricing_plan_id":"cebpf4jnsgd1na2vs0mg"},{"bike_id":"5d378526-5716-411b-b4b1-79e697cfb815","system_id":"levelo_inurba_marseille","lat":43.30792,"lon":5.43525,"is_reserved":false,"is_disabled":false,"rental_uris":{"android":"levelo://app?vid=5d378526-5716-411b-b4b1-79e697cfb815","ios":"levelo://app?vid=5d378526-5716-411b-b4b1-79e697cfb815"},"vehicle_type_id":"4","last_reported":1728493680,"current_range_meters":30800,"station_id":"ce4bhph2rcd13ifvqheg","pricing_plan_id":"cebpf4jnsgd1na2vs0mg"},{"bike_id":"acde0f41-fc86-4e85-b745-95d7a2328fc7","system_id":"levelo_inurba_marseille","lat":43.28929,"lon":5.36641,"is_reserved":false,"is_disabled":false,"rental_uris":{"android":"levelo://app?vid=acde0f41-fc86-4e85-b745-95d7a2328fc7","ios":"levelo://app?vid=acde0f41-fc86-4e85-b745-95d7a2328fc7"},"vehicle_type_id":"4","last_reported":1728493680,"current_range_meters":6800,"station_id":"ce4bhap2rcd13ifvqek0","pricing_plan_id":"cebpf4jnsgd1na2vs0mg"},{"bike_id":"c834194a-39ba-4fa4-ba45-8836b8980bf9","system_id":"levelo_inurba_marseille","lat":43.27375,"lon":5.36255,"is_reserved":false,"is_disabled":false,"rental_uris":{"android":"levelo://app?vid=c834194a-39ba-4fa4-ba45-8836b8980bf9","ios":"levelo://app?vid=c834194a-39ba-4fa4-ba45-8836b8980bf9"},"vehicle_type_id":"4","last_reported":1728493680,"current_range_meters":24000,"station_id":"ce4bhbh2rcd13ifvqeo0","pricing_plan_id":"cebpf4jnsgd1na2vs0mg"},{"bike_id":"810b32d6-b30c-480b-a6ee-5bd54d112eb8","system_id":"levelo_inurba_marseille","lat":43.33749,"lon":5.37442,"is_reserved":false,"is_disabled":false,"rental_uris":{"android":"levelo://app?vid=810b32d6-b30c-480b-a6ee-5bd54d112eb8","ios":"levelo://app?vid=810b32d6-b30c-480b-a6ee-5bd54d112eb8"},"vehicle_type_id":"4","last_reported":1728493680,"current_range_meters":27200,"station_id":"ce4rr2p2rcd13i802rgg","pricing_plan_id":"cebpf4jnsgd1na2vs0mg"},{"bike_id":"a8981e44-8423-44bb-8289-6f72c8125ec6","system_id":"levelo_inurba_marseille","lat":43.30268,"lon":5.3976,"is_reserved":false,"is_disabled":false,"rental_uris":{"android":"levelo://app?vid=a8981e44-8423-44bb-8289-6f72c8125ec6","ios":"levelo://app?vid=a8981e44-8423-44bb-8289-6f72c8125ec6"},"vehicle_type_id":"4","last_reported":1728493680,"current_range_meters":38000,"station_id":"","pricing_plan_id":"cebpf4jnsgd1na2vs0mg"},{"bike_id":"ca8262d8-ac20-464d-9f25-29b11fe8cf11","system_id":"levelo_inurba_marseille","lat":43.28099,"lon":5.37836,"is_reserved":false,"is_disabled":false,"rental_uris":{"android":"levelo://app?vid=ca8262d8-ac20-464d-9f25-29b11fe8cf11","ios":"levelo://app?vid=ca8262d8-ac20-464d-9f25-29b11fe8cf11"},"vehicle_type_id":"4","last_reported":1728493680,"current_range_meters":6400,"station_id":"ce4bha12rcd13ifvqee0","pricing_plan_id":"cebpf4jnsgd1na2vs0mg"},{"bike_id":"ff322f05-4adb-4a7e-91c4-3ba05a968244","system_id":"levelo_inurba_marseille","lat":43.3107,"lon":5.38349,"is_reserved":false,"is_disabled":false,"rental_uris":{"android":"levelo://app?vid=ff322f05-4adb-4a7e-91c4-3ba05a968244","ios":"levelo://app?vid=ff322f05-4adb-4a7e-91c4-3ba05a968244"},"vehicle_type_id":"4","last_reported":1728493680,"current_range_meters":1200,"station_id":"ce4bgv92rcd13ifvqcr0","pricing_plan_id":"cebpf4jnsgd1na2vs0mg"},{"bike_id":"62f8e322-f6b9-46e4-a024-db853ada9433","system_id":"levelo_inurba_marseille","lat":43.28668,"lon":5.38655,"is_reserved":false,"is_disabled":false,"rental_uris":{"android":"levelo://app?vid=62f8e322-f6b9-46e4-a024-db853ada9433","ios":"levelo://app?vid=62f8e322-f6b9-46e4-a024-db853ada9433"},"vehicle_type_id":"4","last_reported":1728493680,"current_range_meters":14400,"station_id":"ce4bhb12rcd13ifvqel0","pricing_plan_id":"cebpf4jnsgd1na2vs0mg"},{"bike_id":"057b9242-6aee-41c5-b71c-d34375e7c6cc","system_id":"levelo_inurba_marseille","lat":43.28832,"lon":5.36633,"is_reserved":false,"is_disabled":false,"rental_uris":{"android":"levelo://app?vid=057b9242-6aee-41c5-b71c-d34375e7c6cc","ios":"levelo://app?vid=057b9242-6aee-41c5-b71c-d34375e7c6cc"},"vehicle_type_id":"4","last_reported":1728493680,"current_range_meters":10000,"station_id":"ce4bhah2rcd13ifvqei0","pricing_plan_id":"cebpf4jnsgd1na2vs0mg"},{"bike_id":"c157a5d2-bf83-466d-a995-73d7c68dc338","system_id":"levelo_inurba_marseille","lat":43.29865,"lon":5.38914,"is_reserved":false,"is_disabled":false,"rental_uris":{"android":"levelo://app?vid=c157a5d2-bf83-466d-a995-73d7c68dc338","ios":"levelo://app?vid=c157a5d2-bf83-466d-a995-73d7c68dc338"},"vehicle_type_id":"4","last_reported":1728493680,"current_range_meters":19200,"station_id":"ce4bh392rcd13ifvqdl0","pricing_plan_id":"cebpf4jnsgd1na2vs0mg"},{"bike_id":"04b49b0b-9381-4005-8526-a48552668ec0","system_id":"levelo_inurba_marseille","lat":43.31166,"lon":5.38715,"is_reserved":false,"is_disabled":false,"rental_uris":{"android":"levelo://app?vid=04b49b0b-9381-4005-8526-a48552668ec0","ios":"levelo://app?vid=04b49b0b-9381-4005-8526-a48552668ec0"},"vehicle_type_id":"4","last_reported":1728493680,"current_range_meters":11600,"station_id":"ce4bgv12rcd13ifvqcp0","pricing_plan_id":"cebpf4jnsgd1na2vs0mg"},{"bike_id":"088e01ce-9ff6-438f-b528-d750dc432410","system_id":"levelo_inurba_marseille","lat":43.29585,"lon":5.36734,"is_reserved":false,"is_disabled":false,"rental_uris":{"android":"levelo://app?vid=088e01ce-9ff6-438f-b528-d750dc432410","ios":"levelo://app?vid=088e01ce-9ff6-438f-b528-d750dc432410"},"vehicle_type_id":"4","last_reported":1728493680,"current_range_meters":37600,"station_id":"ce4bgph2rcd13ifvqc2g","pricing_plan_id":"cebpf4jnsgd1na2vs0mg"},{"bike_id":"efaf8d57-c872-4ccd-bc35-a316c5162f8c","system_id":"levelo_inurba_marseille","lat":43.296875,"lon":5.376673,"is_reserved":false,"is_disabled":false,"rental_uris":{"android":"levelo://app?vid=efaf8d57-c872-4ccd-bc35-a316c5162f8c","ios":"levelo://app?vid=efaf8d57-c872-4ccd-bc35-a316c5162f8c"},"vehicle_type_id":"4","last_reported":1728493680,"current_range_meters":38000,"station_id":"ce4bgj92rcd13ifvqbd0","pricing_plan_id":"cebpf4jnsgd1na2vs0mg"},{"bike_id":"13ba7aee-ff28-442f-91e9-0f5d49cccdd8","system_id":"levelo_inurba_marseille","lat":43.25492,"lon":5.3765,"is_reserved":false,"is_disabled":false,"rental_uris":{"android":"levelo://app?vid=13ba7aee-ff28-442f-91e9-0f5d49cccdd8","ios":"levelo://app?vid=13ba7aee-ff28-442f-91e9-0f5d49cccdd8"},"vehicle_type_id":"4","last_reported":1728493680,"current_range_meters":36800,"station_id":"ce4bhh12rcd13ifvqff0","pricing_plan_id":"cebpf4jnsgd1na2vs0mg"},{"bike_id":"eecaf3ac-c5ac-4858-9bf1-6f2c82437562","system_id":"levelo_inurba_marseille","lat":43.32268,"lon":5.40662,"is_reserved":false,"is_disabled":false,"rental_uris":{"android":"levelo://app?vid=eecaf3ac-c5ac-4858-9bf1-6f2c82437562","ios":"levelo://app?vid=eecaf3ac-c5ac-4858-9bf1-6f2c82437562"},"vehicle_type_id":"4","last_reported":1728493680,"current_range_meters":17200,"station_id":"ce4bhqh2rcd13ifvqhmg","pricing_plan_id":"cebpf4jnsgd1na2vs0mg"},{"bike_id":"a853e0a9-1509-4ef8-9421-fb9a0465ec3b","system_id":"levelo_inurba_marseille","lat":43.28934,"lon":5.36636,"is_reserved":false,"is_disabled":false,"rental_uris":{"android":"levelo://app?vid=a853e0a9-1509-4ef8-9421-fb9a0465ec3b","ios":"levelo://app?vid=a853e0a9-1509-4ef8-9421-fb9a0465ec3b"},"vehicle_type_id":"4","last_reported":1728493680,"current_range_meters":16400,"station_id":"ce4bhap2rcd13ifvqek0","pricing_plan_id":"cebpf4jnsgd1na2vs0mg"},{"bike_id":"dcbd1fbb-7615-41d7-84bc-a4b8aef1dc67","system_id":"levelo_inurba_marseille","lat":43.25487,"lon":5.37647,"is_reserved":false,"is_disabled":false,"rental_uris":{"android":"levelo://app?vid=dcbd1fbb-7615-41d7-84bc-a4b8aef1dc67","ios":"levelo://app?vid=dcbd1fbb-7615-41d7-84bc-a4b8aef1dc67"},"vehicle_type_id":"4","last_reported":1728493680,"current_range_meters":3600,"station_id":"ce4bhh12rcd13ifvqff0","pricing_plan_id":"cebpf4jnsgd1na2vs0mg"},{"bike_id":"115f99b9-4f17-436d-b64b-539a809a91f1","system_id":"levelo_inurba_marseille","lat":43.33017,"lon":5.39041,"is_reserved":false,"is_disabled":false,"rental_uris":{"android":"levelo://app?vid=115f99b9-4f17-436d-b64b-539a809a91f1","ios":"levelo://app?vid=115f99b9-4f17-436d-b64b-539a809a91f1"},"vehicle_type_id":"4","last_reported":1728493680,"current_range_meters":38000,"station_id":"ce4bhr92rcd13ifvqhrg","pricing_plan_id":"cebpf4jnsgd1na2vs0mg"},{"bike_id":"28f900fa-03ea-4632-81cb-a4fa88947f3d","system_id":"levelo_inurba_marseille","lat":43.27418,"lon":5.39414,"is_reserved":false,"is_disabled":false,"rental_uris":{"android":"levelo://app?vid=28f900fa-03ea-4632-81cb-a4fa88947f3d","ios":"levelo://app?vid=28f900fa-03ea-4632-81cb-a4fa88947f3d"},"vehicle_type_id":"4","last_reported":1728493680,"current_range_meters":14800,"station_id":"ce4bhdp2rcd13ifvqf20","pricing_plan_id":"cebpf4jnsgd1na2vs0mg"},{"bike_id":"5c1a8458-a3a4-4acf-a609-5cf70095ff7a","system_id":"levelo_inurba_marseille","lat":43.25007,"lon":5.38932,"is_reserved":false,"is_disabled":false,"rental_uris":{"android":"levelo://app?vid=5c1a8458-a3a4-4acf-a609-5cf70095ff7a","ios":"levelo://app?vid=5c1a8458-a3a4-4acf-a609-5cf70095ff7a"},"vehicle_type_id":"4","last_reported":1728493680,"current_range_meters":38000,"station_id":"ce4bhgp2rcd13ifvqfd0","pricing_plan_id":"cebpf4jnsgd1na2vs0mg"},{"bike_id":"7e58e11c-48ba-41a2-86b0-395bdd1d6afc","system_id":"levelo_inurba_marseille","lat":43.27379,"lon":5.36263,"is_reserved":false,"is_disabled":false,"rental_uris":{"android":"levelo://app?vid=7e58e11c-48ba-41a2-86b0-395bdd1d6afc","ios":"levelo://app?vid=7e58e11c-48ba-41a2-86b0-395bdd1d6afc"},"vehicle_type_id":"4","last_reported":1728493680,"current_range_meters":22800,"station_id":"ce4bhbh2rcd13ifvqeo0","pricing_plan_id":"cebpf4jnsgd1na2vs0mg"},{"bike_id":"4745caff-0453-478a-8963-025636bcb912","system_id":"levelo_inurba_marseille","lat":43.33018,"lon":5.39042,"is_reserved":false,"is_disabled":false,"rental_uris":{"android":"levelo://app?vid=4745caff-0453-478a-8963-025636bcb912","ios":"levelo://app?vid=4745caff-0453-478a-8963-025636bcb912"},"vehicle_type_id":"4","last_reported":1728493680,"current_range_meters":17600,"station_id":"ce4bhr92rcd13ifvqhrg","pricing_plan_id":"cebpf4jnsgd1na2vs0mg"},{"bike_id":"5313992a-f6d1-4718-902d-743fe30c7e96","system_id":"levelo_inurba_marseille","lat":43.24654,"lon":5.38892,"is_reserved":false,"is_disabled":false,"rental_uris":{"android":"levelo://app?vid=5313992a-f6d1-4718-902d-743fe30c7e96","ios":"levelo://app?vid=5313992a-f6d1-4718-902d-743fe30c7e96"},"vehicle_type_id":"4","last_reported":1728493680,"current_range_meters":38800,"station_id":"ce4bhg12rcd13ifvqf60","pricing_plan_id":"cebpf4jnsgd1na2vs0mg"},{"bike_id":"18c2577c-d323-4b4b-ac64-b4f01584394c","system_id":"levelo_inurba_marseille","lat":43.2983,"lon":5.38269,"is_reserved":false,"is_disabled":false,"rental_uris":{"android":"levelo://app?vid=18c2577c-d323-4b4b-ac64-b4f01584394c","ios":"levelo://app?vid=18c2577c-d323-4b4b-ac64-b4f01584394c"},"vehicle_type_id":"4","last_reported":1728493680,"current_range_meters":28400,"station_id":"ce4bhf92rcd13ifvqf50","pricing_plan_id":"cebpf4jnsgd1na2vs0mg"},{"bike_id":"af81ecfa-37a7-4691-b9eb-1f782a3b6b3a","system_id":"levelo_inurba_marseille","lat":43.30294,"lon":5.40103,"is_reserved":false,"is_disabled":false,"rental_uris":{"android":"levelo://app?vid=af81ecfa-37a7-4691-b9eb-1f782a3b6b3a","ios":"levelo://app?vid=af81ecfa-37a7-4691-b9eb-1f782a3b6b3a"},"vehicle_type_id":"4","last_reported":1728493680,"current_range_meters":38800,"station_id":"ce4bgkh2rcd13ifvqbk0","pricing_plan_id":"cebpf4jnsgd1na2vs0mg"},{"bike_id":"f38a24d0-0d24-455e-ab53-1c0229078fcc","system_id":"levelo_inurba_marseille","lat":43.2961,"lon":5.37713,"is_reserved":false,"is_disabled":false,"rental_uris":{"android":"levelo://app?vid=f38a24d0-0d24-455e-ab53-1c0229078fcc","ios":"levelo://app?vid=f38a24d0-0d24-455e-ab53-1c0229078fcc"},"vehicle_type_id":"4","last_reported":1728493680,"current_range_meters":38800,"station_id":"ce4bgi92rcd13ifvqb90","pricing_plan_id":"cebpf4jnsgd1na2vs0mg"},{"bike_id":"6d08992d-d3f3-46b7-94c9-daf6934f03f1","system_id":"levelo_inurba_marseille","lat":43.31155,"lon":5.38724,"is_reserved":false,"is_disabled":false,"rental_uris":{"android":"levelo://app?vid=6d08992d-d3f3-46b7-94c9-daf6934f03f1","ios":"levelo://app?vid=6d08992d-d3f3-46b7-94c9-daf6934f03f1"},"vehicle_type_id":"4","last_reported":1728493680,"current_range_meters":38800,"station_id":"ce4bgv12rcd13ifvqcp0","pricing_plan_id":"cebpf4jnsgd1na2vs0mg"},{"bike_id":"ba1a049e-4d7d-4a54-a5da-385a74234604","system_id":"levelo_inurba_marseille","lat":43.24995,"lon":5.38935,"is_reserved":false,"is_disabled":false,"rental_uris":{"android":"levelo://app?vid=ba1a049e-4d7d-4a54-a5da-385a74234604","ios":"levelo://app?vid=ba1a049e-4d7d-4a54-a5da-385a74234604"},"vehicle_type_id":"4","last_reported":1728493680,"current_range_meters":12000,"station_id":"ce4bhgp2rcd13ifvqfd0","pricing_plan_id":"cebpf4jnsgd1na2vs0mg"},{"bike_id":"7b1bf317-3623-49e6-8469-a0ef982989f1","system_id":"levelo_inurba_marseille","lat":43.24995,"lon":5.38938,"is_reserved":false,"is_disabled":false,"rental_uris":{"android":"levelo://app?vid=7b1bf317-3623-49e6-8469-a0ef982989f1","ios":"levelo://app?vid=7b1bf317-3623-49e6-8469-a0ef982989f1"},"vehicle_type_id":"4","last_reported":1728493680,"current_range_meters":38800,"station_id":"ce4bhgp2rcd13ifvqfd0","pricing_plan_id":"cebpf4jnsgd1na2vs0mg"},{"bike_id":"b2f4f4c5-0930-45ff-a5d7-577243144d79","system_id":"levelo_inurba_marseille","lat":43.30314,"lon":5.40435,"is_reserved":false,"is_disabled":false,"rental_uris":{"android":"levelo://app?vid=b2f4f4c5-0930-45ff-a5d7-577243144d79","ios":"levelo://app?vid=b2f4f4c5-0930-45ff-a5d7-577243144d79"},"vehicle_type_id":"4","last_reported":1728493680,"current_range_meters":22800,"station_id":"ce4bh012rcd13ifvqd10","pricing_plan_id":"cebpf4jnsgd1na2vs0mg"},{"bike_id":"2dad4a6c-6cf3-424e-a9ab-236b31cd8518","system_id":"levelo_inurba_marseille","lat":43.28933,"lon":5.36389,"is_reserved":false,"is_disabled":false,"rental_uris":{"android":"levelo://app?vid=2dad4a6c-6cf3-424e-a9ab-236b31cd8518","ios":"levelo://app?vid=2dad4a6c-6cf3-424e-a9ab-236b31cd8518"},"vehicle_type_id":"4","last_reported":1728493680,"current_range_meters":9200,"station_id":"ce4bhc92rcd13ifvqetg","pricing_plan_id":"cebpf4jnsgd1na2vs0mg"},{"bike_id":"3066ee6e-fd04-4201-8003-365596ffe7b1","system_id":"levelo_inurba_marseille","lat":43.2989,"lon":5.38902,"is_reserved":false,"is_disabled":false,"rental_uris":{"android":"levelo://app?vid=3066ee6e-fd04-4201-8003-365596ffe7b1","ios":"levelo://app?vid=3066ee6e-fd04-4201-8003-365596ffe7b1"},"vehicle_type_id":"4","last_reported":1728493680,"current_range_meters":12400,"station_id":"ce4bh392rcd13ifvqdl0","pricing_plan_id":"cebpf4jnsgd1na2vs0mg"},{"bike_id":"3c0c81ea-a461-4643-9738-371be1c05cb5","system_id":"levelo_inurba_marseille","lat":43.29572,"lon":5.37517,"is_reserved":false,"is_disabled":false,"rental_uris":{"android":"levelo://app?vid=3c0c81ea-a461-4643-9738-371be1c05cb5","ios":"levelo://app?vid=3c0c81ea-a461-4643-9738-371be1c05cb5"},"vehicle_type_id":"4","last_reported":1728493680,"current_range_meters":10800,"station_id":"ce4bgh92rcd13ifvqb50","pricing_plan_id":"cebpf4jnsgd1na2vs0mg"},{"bike_id":"81d49c0c-b020-45f2-8d81-6459353c9809","system_id":"levelo_inurba_marseille","lat":43.3175,"lon":5.39013,"is_reserved":false,"is_disabled":false,"rental_uris":{"android":"levelo://app?vid=81d49c0c-b020-45f2-8d81-6459353c9809","ios":"levelo://app?vid=81d49c0c-b020-45f2-8d81-6459353c9809"},"vehicle_type_id":"4","last_reported":1728493680,"current_range_meters":22800,"station_id":"ce4bhqp2rcd13ifvqhng","pricing_plan_id":"cebpf4jnsgd1na2vs0mg"},{"bike_id":"8c4041bc-083c-4076-898d-8e69cbe522e1","system_id":"levelo_inurba_marseille","lat":43.25815,"lon":5.39428,"is_reserved":false,"is_disabled":false,"rental_uris":{"android":"levelo://app?vid=8c4041bc-083c-4076-898d-8e69cbe522e1","ios":"levelo://app?vid=8c4041bc-083c-4076-898d-8e69cbe522e1"},"vehicle_type_id":"4","last_reported":1728493680,"current_range_meters":2800,"station_id":"ce4bhip2rcd13ifvqft0","pricing_plan_id":"cebpf4jnsgd1na2vs0mg"},{"bike_id":"bdc90660-44fe-4eee-a7b9-b65910940dda","system_id":"levelo_inurba_marseille","lat":43.27809,"lon":5.40722,"is_reserved":false,"is_disabled":false,"rental_uris":{"android":"levelo://app?vid=bdc90660-44fe-4eee-a7b9-b65910940dda","ios":"levelo://app?vid=bdc90660-44fe-4eee-a7b9-b65910940dda"},"vehicle_type_id":"4","last_reported":1728493680,"current_range_meters":38400,"station_id":"ce4bhnh2rcd13ifvqgtg","pricing_plan_id":"cebpf4jnsgd1na2vs0mg"},{"bike_id":"92ed4025-32d2-43d5-8e60-e3c0ef293359","system_id":"levelo_inurba_marseille","lat":43.32288,"lon":5.38269,"is_reserved":false,"is_disabled":false,"rental_uris":{"android":"levelo://app?vid=92ed4025-32d2-43d5-8e60-e3c0ef293359","ios":"levelo://app?vid=92ed4025-32d2-43d5-8e60-e3c0ef293359"},"vehicle_type_id":"4","last_reported":1728493680,"current_range_meters":8800,"station_id":"ce4bhr12rcd13ifvqhqg","pricing_plan_id":"cebpf4jnsgd1na2vs0mg"},{"bike_id":"8523fe4d-2d7b-4a96-a923-b96c618938bb","system_id":"levelo_inurba_marseille","lat":43.32337,"lon":5.40621,"is_reserved":false,"is_disabled":false,"rental_uris":{"android":"levelo://app?vid=8523fe4d-2d7b-4a96-a923-b96c618938bb","ios":"levelo://app?vid=8523fe4d-2d7b-4a96-a923-b96c618938bb"},"vehicle_type_id":"4","last_reported":1728493680,"current_range_meters":36800,"station_id":"ce4bhq92rcd13ifvqhjg","pricing_plan_id":"cebpf4jnsgd1na2vs0mg"},{"bike_id":"72b092ae-c5dc-45e7-b701-e1ed277c3154","system_id":"levelo_inurba_marseille","lat":43.30244,"lon":5.40064,"is_reserved":false,"is_disabled":false,"rental_uris":{"android":"levelo://app?vid=72b092ae-c5dc-45e7-b701-e1ed277c3154","ios":"levelo://app?vid=72b092ae-c5dc-45e7-b701-e1ed277c3154"},"vehicle_type_id":"4","last_reported":1728493680,"current_range_meters":38800,"station_id":"ce4bgvh2rcd13ifvqcs0","pricing_plan_id":"cebpf4jnsgd1na2vs0mg"},{"bike_id":"37e77a67-04a0-48fe-85bc-018142938cbb","system_id":"levelo_inurba_marseille","lat":43.28611,"lon":5.35102,"is_reserved":false,"is_disabled":false,"rental_uris":{"android":"levelo://app?vid=37e77a67-04a0-48fe-85bc-018142938cbb","ios":"levelo://app?vid=37e77a67-04a0-48fe-85bc-018142938cbb"},"vehicle_type_id":"4","last_reported":1728493680,"current_range_meters":5600,"station_id":"ce4bhch2rcd13ifvqeug","pricing_plan_id":"cebpf4jnsgd1na2vs0mg"},{"bike_id":"298a5ee2-9185-467b-b0ff-852ea4063f29","system_id":"levelo_inurba_marseille","lat":43.29017,"lon":5.38653,"is_reserved":false,"is_disabled":false,"rental_uris":{"android":"levelo://app?vid=298a5ee2-9185-467b-b0ff-852ea4063f29","ios":"levelo://app?vid=298a5ee2-9185-467b-b0ff-852ea4063f29"},"vehicle_type_id":"4","last_reported":1728493680,"current_range_meters":12400,"station_id":"ce4bh4p2rcd13ifvqe0g","pricing_plan_id":"cebpf4jnsgd1na2vs0mg"},{"bike_id":"0df4cd87-37e1-412f-9735-46e6325c58b0","system_id":"levelo_inurba_marseille","lat":43.24551,"lon":5.39523,"is_reserved":false,"is_disabled":false,"rental_uris":{"android":"levelo://app?vid=0df4cd87-37e1-412f-9735-46e6325c58b0","ios":"levelo://app?vid=0df4cd87-37e1-412f-9735-46e6325c58b0"},"vehicle_type_id":"4","last_reported":1728493680,"current_range_meters":3200,"station_id":"ce4bhlp2rcd13ifvqgjg","pricing_plan_id":"cebpf4jnsgd1na2vs0mg"},{"bike_id":"b475dfe8-6c89-4597-9704-9f74d4d063ba","system_id":"levelo_inurba_marseille","lat":43.23198,"lon":5.35559,"is_reserved":false,"is_disabled":false,"rental_uris":{"android":"levelo://app?vid=b475dfe8-6c89-4597-9704-9f74d4d063ba","ios":"levelo://app?vid=b475dfe8-6c89-4597-9704-9f74d4d063ba"},"vehicle_type_id":"4","last_reported":1728493680,"current_range_meters":38000,"station_id":"ce4bhu92rcd13ifvqi70","pricing_plan_id":"cebpf4jnsgd1na2vs0mg"},{"bike_id":"77e2d85d-a0bb-4ca1-9858-8f41e1584409","system_id":"levelo_inurba_marseille","lat":43.30799,"lon":5.43534,"is_reserved":false,"is_disabled":false,"rental_uris":{"android":"levelo://app?vid=77e2d85d-a0bb-4ca1-9858-8f41e1584409","ios":"levelo://app?vid=77e2d85d-a0bb-4ca1-9858-8f41e1584409"},"vehicle_type_id":"4","last_reported":1728493680,"current_range_meters":22400,"station_id":"ce4bhph2rcd13ifvqheg","pricing_plan_id":"cebpf4jnsgd1na2vs0mg"},{"bike_id":"87fde805-7305-4e36-9712-7c71a4938b49","system_id":"levelo_inurba_marseille","lat":43.30135,"lon":5.39871,"is_reserved":false,"is_disabled":false,"rental_uris":{"android":"levelo://app?vid=87fde805-7305-4e36-9712-7c71a4938b49","ios":"levelo://app?vid=87fde805-7305-4e36-9712-7c71a4938b49"},"vehicle_type_id":"4","last_reported":1728493680,"current_range_meters":38800,"station_id":"ce4bh0h2rcd13ifvqd40","pricing_plan_id":"cebpf4jnsgd1na2vs0mg"},{"bike_id":"4bca65e7-f083-4a86-bb95-67042f0cf645","system_id":"levelo_inurba_marseille","lat":43.310037,"lon":5.395909,"is_reserved":false,"is_disabled":false,"rental_uris":{"android":"levelo://app?vid=4bca65e7-f083-4a86-bb95-67042f0cf645","ios":"levelo://app?vid=4bca65e7-f083-4a86-bb95-67042f0cf645"},"vehicle_type_id":"4","last_reported":1728493680,"current_range_meters":5600,"station_id":"ce4bgvp2rcd13ifvqcu0","pricing_plan_id":"cebpf4jnsgd1na2vs0mg"},{"bike_id":"70b2912f-3eaa-4535-b48b-2b124925c9b1","system_id":"levelo_inurba_marseille","lat":43.27625,"lon":5.36105,"is_reserved":false,"is_disabled":false,"rental_uris":{"android":"levelo://app?vid=70b2912f-3eaa-4535-b48b-2b124925c9b1","ios":"levelo://app?vid=70b2912f-3eaa-4535-b48b-2b124925c9b1"},"vehicle_type_id":"4","last_reported":1728493680,"current_range_meters":8800,"station_id":"ce4bgj92rcd13ifvqbe0","pricing_plan_id":"cebpf4jnsgd1na2vs0mg"},{"bike_id":"de373eac-885b-462a-90a0-273d9697d526","system_id":"levelo_inurba_marseille","lat":43.31115,"lon":5.37784,"is_reserved":false,"is_disabled":false,"rental_uris":{"android":"levelo://app?vid=de373eac-885b-462a-90a0-273d9697d526","ios":"levelo://app?vid=de373eac-885b-462a-90a0-273d9697d526"},"vehicle_type_id":"4","last_reported":1728493680,"current_range_meters":24400,"station_id":"ce4bgt92rcd13ifvqcg0","pricing_plan_id":"cebpf4jnsgd1na2vs0mg"},{"bike_id":"a72b5415-9148-4f2f-9a5d-336c79775dc3","system_id":"levelo_inurba_marseille","lat":43.26682,"lon":5.38274,"is_reserved":false,"is_disabled":false,"rental_uris":{"android":"levelo://app?vid=a72b5415-9148-4f2f-9a5d-336c79775dc3","ios":"levelo://app?vid=a72b5415-9148-4f2f-9a5d-336c79775dc3"},"vehicle_type_id":"4","last_reported":1728493680,"current_range_meters":10800,"station_id":"ce4bhg92rcd13ifvqf90","pricing_plan_id":"cebpf4jnsgd1na2vs0mg"},{"bike_id":"51440785-2105-4fe8-9ced-61f3b7fe58f6","system_id":"levelo_inurba_marseille","lat":43.33772,"lon":5.37452,"is_reserved":false,"is_disabled":false,"rental_uris":{"android":"levelo://app?vid=51440785-2105-4fe8-9ced-61f3b7fe58f6","ios":"levelo://app?vid=51440785-2105-4fe8-9ced-61f3b7fe58f6"},"vehicle_type_id":"4","last_reported":1728493680,"current_range_meters":36000,"station_id":"","pricing_plan_id":"cebpf4jnsgd1na2vs0mg"},{"bike_id":"a368d76e-e9c1-467f-82cb-b9fe018668fa","system_id":"levelo_inurba_marseille","lat":43.33759,"lon":5.37448,"is_reserved":false,"is_disabled":false,"rental_uris":{"android":"levelo://app?vid=a368d76e-e9c1-467f-82cb-b9fe018668fa","ios":"levelo://app?vid=a368d76e-e9c1-467f-82cb-b9fe018668fa"},"vehicle_type_id":"4","last_reported":1728493680,"current_range_meters":36400,"station_id":"ce4rr2p2rcd13i802rgg","pricing_plan_id":"cebpf4jnsgd1na2vs0mg"},{"bike_id":"ec83839b-1239-4642-878e-21ede3ee7df8","system_id":"levelo_inurba_marseille","lat":43.29006,"lon":5.36685,"is_reserved":false,"is_disabled":false,"rental_uris":{"android":"levelo://app?vid=ec83839b-1239-4642-878e-21ede3ee7df8","ios":"levelo://app?vid=ec83839b-1239-4642-878e-21ede3ee7df8"},"vehicle_type_id":"4","last_reported":1728493680,"current_range_meters":6000,"station_id":"ce4bhi12rcd13ifvqfq0","pricing_plan_id":"cebpf4jnsgd1na2vs0mg"},{"bike_id":"be3c8c4f-6baf-45cd-9e47-8ca15886b09d","system_id":"levelo_inurba_marseille","lat":43.31062,"lon":5.38349,"is_reserved":false,"is_disabled":false,"rental_uris":{"android":"levelo://app?vid=be3c8c4f-6baf-45cd-9e47-8ca15886b09d","ios":"levelo://app?vid=be3c8c4f-6baf-45cd-9e47-8ca15886b09d"},"vehicle_type_id":"4","last_reported":1728493680,"current_range_meters":39200,"station_id":"ce4bgv92rcd13ifvqcr0","pricing_plan_id":"cebpf4jnsgd1na2vs0mg"},{"bike_id":"1c034d1a-afec-4b9e-882c-ff4d7b8c8e9c","system_id":"levelo_inurba_marseille","lat":43.33746,"lon":5.37449,"is_reserved":false,"is_disabled":false,"rental_uris":{"android":"levelo://app?vid=1c034d1a-afec-4b9e-882c-ff4d7b8c8e9c","ios":"levelo://app?vid=1c034d1a-afec-4b9e-882c-ff4d7b8c8e9c"},"vehicle_type_id":"4","last_reported":1728493680,"current_range_meters":24000,"station_id":"ce4rr2p2rcd13i802rgg","pricing_plan_id":"cebpf4jnsgd1na2vs0mg"},{"bike_id":"3e3c199b-5889-41b5-8ef3-932feffcfbb0","system_id":"levelo_inurba_marseille","lat":43.23058,"lon":5.35489,"is_reserved":false,"is_disabled":false,"rental_uris":{"android":"levelo://app?vid=3e3c199b-5889-41b5-8ef3-932feffcfbb0","ios":"levelo://app?vid=3e3c199b-5889-41b5-8ef3-932feffcfbb0"},"vehicle_type_id":"4","last_reported":1728493680,"current_range_meters":25200,"station_id":"cpo3342slgdg3j2ifvpg","pricing_plan_id":"cebpf4jnsgd1na2vs0mg"},{"bike_id":"c1f59cef-a94b-491c-9dc7-897ca7f86e61","system_id":"levelo_inurba_marseille","lat":43.24998,"lon":5.38928,"is_reserved":false,"is_disabled":false,"rental_uris":{"android":"levelo://app?vid=c1f59cef-a94b-491c-9dc7-897ca7f86e61","ios":"levelo://app?vid=c1f59cef-a94b-491c-9dc7-897ca7f86e61"},"vehicle_type_id":"4","last_reported":1728493680,"current_range_meters":12400,"station_id":"ce4bhgp2rcd13ifvqfd0","pricing_plan_id":"cebpf4jnsgd1na2vs0mg"},{"bike_id":"3a5af563-b96c-49ec-9b0e-d0af15a4b232","system_id":"levelo_inurba_marseille","lat":43.24805,"lon":5.37458,"is_reserved":false,"is_disabled":false,"rental_uris":{"android":"levelo://app?vid=3a5af563-b96c-49ec-9b0e-d0af15a4b232","ios":"levelo://app?vid=3a5af563-b96c-49ec-9b0e-d0af15a4b232"},"vehicle_type_id":"4","last_reported":1728493680,"current_range_meters":10800,"station_id":"ce4bhgh2rcd13ifvqfb0","pricing_plan_id":"cebpf4jnsgd1na2vs0mg"},{"bike_id":"7fcb7e36-0d26-41d0-ac04-a56646146102","system_id":"levelo_inurba_marseille","lat":43.22933,"lon":5.35379,"is_reserved":false,"is_disabled":false,"rental_uris":{"android":"levelo://app?vid=7fcb7e36-0d26-41d0-ac04-a56646146102","ios":"levelo://app?vid=7fcb7e36-0d26-41d0-ac04-a56646146102"},"vehicle_type_id":"4","last_reported":1728493680,"current_range_meters":16000,"station_id":"cpo3532slgdg3j2ikp40","pricing_plan_id":"cebpf4jnsgd1na2vs0mg"},{"bike_id":"c121f1bc-4e90-4968-bc70-b16b384e50c2","system_id":"levelo_inurba_marseille","lat":43.27179,"lon":5.40998,"is_reserved":false,"is_disabled":false,"rental_uris":{"android":"levelo://app?vid=c121f1bc-4e90-4968-bc70-b16b384e50c2","ios":"levelo://app?vid=c121f1bc-4e90-4968-bc70-b16b384e50c2"},"vehicle_type_id":"4","last_reported":1728493680,"current_range_meters":28800,"station_id":"ce4bhl12rcd13ifvqgf0","pricing_plan_id":"cebpf4jnsgd1na2vs0mg"},{"bike_id":"2e4e52ae-7a22-488f-b24f-6c734df05ab9","system_id":"levelo_inurba_marseille","lat":43.23191,"lon":5.3555,"is_reserved":false,"is_disabled":false,"rental_uris":{"android":"levelo://app?vid=2e4e52ae-7a22-488f-b24f-6c734df05ab9","ios":"levelo://app?vid=2e4e52ae-7a22-488f-b24f-6c734df05ab9"},"vehicle_type_id":"4","last_reported":1728493680,"current_range_meters":32400,"station_id":"ce4bhu92rcd13ifvqi70","pricing_plan_id":"cebpf4jnsgd1na2vs0mg"},{"bike_id":"7ae8331c-ff2e-402f-8b12-e9912d0758b5","system_id":"levelo_inurba_marseille","lat":43.31723,"lon":5.42404,"is_reserved":false,"is_disabled":false,"rental_uris":{"android":"levelo://app?vid=7ae8331c-ff2e-402f-8b12-e9912d0758b5","ios":"levelo://app?vid=7ae8331c-ff2e-402f-8b12-e9912d0758b5"},"vehicle_type_id":"4","last_reported":1728493680,"current_range_meters":34800,"station_id":"ce4bhp92rcd13ifvqhbg","pricing_plan_id":"cebpf4jnsgd1na2vs0mg"},{"bike_id":"59c893c5-1149-42f6-b12c-e879ba247010","system_id":"levelo_inurba_marseille","lat":43.337444,"lon":5.374475,"is_reserved":false,"is_disabled":false,"rental_uris":{"android":"levelo://app?vid=59c893c5-1149-42f6-b12c-e879ba247010","ios":"levelo://app?vid=59c893c5-1149-42f6-b12c-e879ba247010"},"vehicle_type_id":"4","last_reported":1728493680,"current_range_meters":35600,"station_id":"","pricing_plan_id":"cebpf4jnsgd1na2vs0mg"},{"bike_id":"f12ac68d-1d58-4d95-84a5-28943168a2f8","system_id":"levelo_inurba_marseille","lat":43.31533,"lon":5.38041,"is_reserved":false,"is_disabled":false,"rental_uris":{"android":"levelo://app?vid=f12ac68d-1d58-4d95-84a5-28943168a2f8","ios":"levelo://app?vid=f12ac68d-1d58-4d95-84a5-28943168a2f8"},"vehicle_type_id":"4","last_reported":1728493680,"current_range_meters":30000,"station_id":"ce4bhsp2rcd13ifvqi50","pricing_plan_id":"cebpf4jnsgd1na2vs0mg"},{"bike_id":"8bd707fd-e741-44a2-b325-8cf5c3978064","system_id":"levelo_inurba_marseille","lat":43.29191,"lon":5.35807,"is_reserved":false,"is_disabled":false,"rental_uris":{"android":"levelo://app?vid=8bd707fd-e741-44a2-b325-8cf5c3978064","ios":"levelo://app?vid=8bd707fd-e741-44a2-b325-8cf5c3978064"},"vehicle_type_id":"4","last_reported":1728493680,"current_range_meters":32000,"station_id":"ce4bhb12rcd13ifvqel0","pricing_plan_id":"cebpf4jnsgd1na2vs0mg"},{"bike_id":"8ee7eab9-1270-4e3f-9727-0377a612973c","system_id":"levelo_inurba_marseille","lat":43.24997,"lon":5.38941,"is_reserved":false,"is_disabled":false,"rental_uris":{"android":"levelo://app?vid=8ee7eab9-1270-4e3f-9727-0377a612973c","ios":"levelo://app?vid=8ee7eab9-1270-4e3f-9727-0377a612973c"},"vehicle_type_id":"4","last_reported":1728493680,"current_range_meters":38800,"station_id":"ce4bhgp2rcd13ifvqfd0","pricing_plan_id":"cebpf4jnsgd1na2vs0mg"},{"bike_id":"dc495036-479f-4f0d-a031-62911c10a975","system_id":"levelo_inurba_marseille","lat":43.23198,"lon":5.35546,"is_reserved":false,"is_disabled":false,"rental_uris":{"android":"levelo://app?vid=dc495036-479f-4f0d-a031-62911c10a975","ios":"levelo://app?vid=dc495036-479f-4f0d-a031-62911c10a975"},"vehicle_type_id":"4","last_reported":1728493680,"current_range_meters":7200,"station_id":"ce4bhu92rcd13ifvqi70","pricing_plan_id":"cebpf4jnsgd1na2vs0mg"},{"bike_id":"99ca8af9-004a-49a2-93c9-f8269c0c2c3c","system_id":"levelo_inurba_marseille","lat":43.31362,"lon":5.3849,"is_reserved":false,"is_disabled":false,"rental_uris":{"android":"levelo://app?vid=99ca8af9-004a-49a2-93c9-f8269c0c2c3c","ios":"levelo://app?vid=99ca8af9-004a-49a2-93c9-f8269c0c2c3c"},"vehicle_type_id":"4","last_reported":1728493680,"current_range_meters":16000,"station_id":"ce4bgt92rcd13ifvqcf0","pricing_plan_id":"cebpf4jnsgd1na2vs0mg"},{"bike_id":"791ec63a-baa3-44ab-92b0-36d1b28d36f4","system_id":"levelo_inurba_marseille","lat":43.316977,"lon":5.404726,"is_reserved":false,"is_disabled":false,"rental_uris":{"android":"levelo://app?vid=791ec63a-baa3-44ab-92b0-36d1b28d36f4","ios":"levelo://app?vid=791ec63a-baa3-44ab-92b0-36d1b28d36f4"},"vehicle_type_id":"4","last_reported":1728493680,"current_range_meters":27600,"station_id":"ce4bh012rcd13ifvqd00","pricing_plan_id":"cebpf4jnsgd1na2vs0mg"},{"bike_id":"575e9efc-2e3e-41e0-82cd-69b3c2bee70e","system_id":"levelo_inurba_marseille","lat":43.29779,"lon":5.39362,"is_reserved":false,"is_disabled":false,"rental_uris":{"android":"levelo://app?vid=575e9efc-2e3e-41e0-82cd-69b3c2bee70e","ios":"levelo://app?vid=575e9efc-2e3e-41e0-82cd-69b3c2bee70e"},"vehicle_type_id":"4","last_reported":1728493680,"current_range_meters":27200,"station_id":"chh1huq6cuj3fo74tm60","pricing_plan_id":"cebpf4jnsgd1na2vs0mg"},{"bike_id":"50eb3747-2257-4292-8378-8225ae82bf3c","system_id":"levelo_inurba_marseille","lat":43.31527,"lon":5.38031,"is_reserved":false,"is_disabled":false,"rental_uris":{"android":"levelo://app?vid=50eb3747-2257-4292-8378-8225ae82bf3c","ios":"levelo://app?vid=50eb3747-2257-4292-8378-8225ae82bf3c"},"vehicle_type_id":"4","last_reported":1728493680,"current_range_meters":38800,"station_id":"ce4bhsp2rcd13ifvqi50","pricing_plan_id":"cebpf4jnsgd1na2vs0mg"},{"bike_id":"2c5f01a2-78d5-453f-8e21-329290c6856f","system_id":"levelo_inurba_marseille","lat":43.28629,"lon":5.35119,"is_reserved":false,"is_disabled":false,"rental_uris":{"android":"levelo://app?vid=2c5f01a2-78d5-453f-8e21-329290c6856f","ios":"levelo://app?vid=2c5f01a2-78d5-453f-8e21-329290c6856f"},"vehicle_type_id":"4","last_reported":1728493680,"current_range_meters":36400,"station_id":"ce4bhch2rcd13ifvqeug","pricing_plan_id":"cebpf4jnsgd1na2vs0mg"},{"bike_id":"c3c31d12-52b1-45c1-a79d-2b64b1656a37","system_id":"levelo_inurba_marseille","lat":43.308,"lon":5.43524,"is_reserved":false,"is_disabled":false,"rental_uris":{"android":"levelo://app?vid=c3c31d12-52b1-45c1-a79d-2b64b1656a37","ios":"levelo://app?vid=c3c31d12-52b1-45c1-a79d-2b64b1656a37"},"vehicle_type_id":"4","last_reported":1728493680,"current_range_meters":22000,"station_id":"ce4bhph2rcd13ifvqheg","pricing_plan_id":"cebpf4jnsgd1na2vs0mg"},{"bike_id":"1abedf1c-c274-4219-9a69-4f170de6e459","system_id":"levelo_inurba_marseille","lat":43.23191,"lon":5.35568,"is_reserved":false,"is_disabled":false,"rental_uris":{"android":"levelo://app?vid=1abedf1c-c274-4219-9a69-4f170de6e459","ios":"levelo://app?vid=1abedf1c-c274-4219-9a69-4f170de6e459"},"vehicle_type_id":"4","last_reported":1728493680,"current_range_meters":38800,"station_id":"ce4bhu92rcd13ifvqi70","pricing_plan_id":"cebpf4jnsgd1na2vs0mg"},{"bike_id":"e67b3dca-b2d8-4b67-953c-12b2fe953105","system_id":"levelo_inurba_marseille","lat":43.24669,"lon":5.38166,"is_reserved":false,"is_disabled":false,"rental_uris":{"android":"levelo://app?vid=e67b3dca-b2d8-4b67-953c-12b2fe953105","ios":"levelo://app?vid=e67b3dca-b2d8-4b67-953c-12b2fe953105"},"vehicle_type_id":"4","last_reported":1728493680,"current_range_meters":38800,"station_id":"ce4bhih2rcd13ifvqfr0","pricing_plan_id":"cebpf4jnsgd1na2vs0mg"},{"bike_id":"11863676-ef88-444f-84ac-cab465bfca94","system_id":"levelo_inurba_marseille","lat":43.31745,"lon":5.3903,"is_reserved":false,"is_disabled":false,"rental_uris":{"android":"levelo://app?vid=11863676-ef88-444f-84ac-cab465bfca94","ios":"levelo://app?vid=11863676-ef88-444f-84ac-cab465bfca94"},"vehicle_type_id":"4","last_reported":1728493680,"current_range_meters":39200,"station_id":"ce4bhqp2rcd13ifvqhng","pricing_plan_id":"cebpf4jnsgd1na2vs0mg"},{"bike_id":"4d605c0d-553d-456b-949b-ddf3e6a3b764","system_id":"levelo_inurba_marseille","lat":43.26579,"lon":5.39006,"is_reserved":false,"is_disabled":false,"rental_uris":{"android":"levelo://app?vid=4d605c0d-553d-456b-949b-ddf3e6a3b764","ios":"levelo://app?vid=4d605c0d-553d-456b-949b-ddf3e6a3b764"},"vehicle_type_id":"4","last_reported":1728493680,"current_range_meters":22000,"station_id":"ce4bhe12rcd13ifvqf30","pricing_plan_id":"cebpf4jnsgd1na2vs0mg"},{"bike_id":"e151746d-2a92-4f62-b4cf-071e0bbfa2f0","system_id":"levelo_inurba_marseille","lat":43.29851,"lon":5.36291,"is_reserved":false,"is_disabled":false,"rental_uris":{"android":"levelo://app?vid=e151746d-2a92-4f62-b4cf-071e0bbfa2f0","ios":"levelo://app?vid=e151746d-2a92-4f62-b4cf-071e0bbfa2f0"},"vehicle_type_id":"4","last_reported":1728493680,"current_range_meters":38800,"station_id":"ce4bgpp2rcd13ifvqc3g","pricing_plan_id":"cebpf4jnsgd1na2vs0mg"},{"bike_id":"e88977d7-024a-4c2c-8ecb-fb4dbff1f31a","system_id":"levelo_inurba_marseille","lat":43.26565,"lon":5.39013,"is_reserved":false,"is_disabled":false,"rental_uris":{"android":"levelo://app?vid=e88977d7-024a-4c2c-8ecb-fb4dbff1f31a","ios":"levelo://app?vid=e88977d7-024a-4c2c-8ecb-fb4dbff1f31a"},"vehicle_type_id":"4","last_reported":1728493680,"current_range_meters":4000,"station_id":"ce4bhe12rcd13ifvqf30","pricing_plan_id":"cebpf4jnsgd1na2vs0mg"},{"bike_id":"5c124aab-26d5-4188-b332-7f660b962a35","system_id":"levelo_inurba_marseille","lat":43.33025,"lon":5.39046,"is_reserved":false,"is_disabled":false,"rental_uris":{"android":"levelo://app?vid=5c124aab-26d5-4188-b332-7f660b962a35","ios":"levelo://app?vid=5c124aab-26d5-4188-b332-7f660b962a35"},"vehicle_type_id":"4","last_reported":1728493680,"current_range_meters":26000,"station_id":"ce4bhr92rcd13ifvqhrg","pricing_plan_id":"cebpf4jnsgd1na2vs0mg"},{"bike_id":"e8325acd-8ff4-470b-8e27-26045a2a6261","system_id":"levelo_inurba_marseille","lat":43.23054,"lon":5.35495,"is_reserved":false,"is_disabled":false,"rental_uris":{"android":"levelo://app?vid=e8325acd-8ff4-470b-8e27-26045a2a6261","ios":"levelo://app?vid=e8325acd-8ff4-470b-8e27-26045a2a6261"},"vehicle_type_id":"4","last_reported":1728493680,"current_range_meters":26000,"station_id":"cpo3342slgdg3j2ifvpg","pricing_plan_id":"cebpf4jnsgd1na2vs0mg"},{"bike_id":"74dda7af-a4ab-46fd-8c59-53010d3fec68","system_id":"levelo_inurba_marseille","lat":43.23193,"lon":5.35555,"is_reserved":false,"is_disabled":false,"rental_uris":{"android":"levelo://app?vid=74dda7af-a4ab-46fd-8c59-53010d3fec68","ios":"levelo://app?vid=74dda7af-a4ab-46fd-8c59-53010d3fec68"},"vehicle_type_id":"4","last_reported":1728493680,"current_range_meters":35600,"station_id":"ce4bhu92rcd13ifvqi70","pricing_plan_id":"cebpf4jnsgd1na2vs0mg"},{"bike_id":"a87b0ae6-361d-463f-982b-484f11dae15a","system_id":"levelo_inurba_marseille","lat":43.313621,"lon":5.367055,"is_reserved":false,"is_disabled":false,"rental_uris":{"android":"levelo://app?vid=a87b0ae6-361d-463f-982b-484f11dae15a","ios":"levelo://app?vid=a87b0ae6-361d-463f-982b-484f11dae15a"},"vehicle_type_id":"4","last_reported":1728493680,"current_range_meters":9600,"station_id":"ce4bgr92rcd13ifvqc6g","pricing_plan_id":"cebpf4jnsgd1na2vs0mg"},{"bike_id":"ab2ef9b9-b70c-4414-9870-a02311b50f86","system_id":"levelo_inurba_marseille","lat":43.28611,"lon":5.3511,"is_reserved":false,"is_disabled":false,"rental_uris":{"android":"levelo://app?vid=ab2ef9b9-b70c-4414-9870-a02311b50f86","ios":"levelo://app?vid=ab2ef9b9-b70c-4414-9870-a02311b50f86"},"vehicle_type_id":"4","last_reported":1728493680,"current_range_meters":4800,"station_id":"ce4bhch2rcd13ifvqeug","pricing_plan_id":"cebpf4jnsgd1na2vs0mg"},{"bike_id":"8f1cd012-9e6d-4f87-91a8-8ae1960e4e30","system_id":"levelo_inurba_marseille","lat":43.29031,"lon":5.3997,"is_reserved":false,"is_disabled":false,"rental_uris":{"android":"levelo://app?vid=8f1cd012-9e6d-4f87-91a8-8ae1960e4e30","ios":"levelo://app?vid=8f1cd012-9e6d-4f87-91a8-8ae1960e4e30"},"vehicle_type_id":"4","last_reported":1728493680,"current_range_meters":23200,"station_id":"ce4bh392rcd13ifvqdm0","pricing_plan_id":"cebpf4jnsgd1na2vs0mg"},{"bike_id":"7af74a3d-83ff-464b-b6ec-0178e2596022","system_id":"levelo_inurba_marseille","lat":43.24656,"lon":5.38897,"is_reserved":false,"is_disabled":false,"rental_uris":{"android":"levelo://app?vid=7af74a3d-83ff-464b-b6ec-0178e2596022","ios":"levelo://app?vid=7af74a3d-83ff-464b-b6ec-0178e2596022"},"vehicle_type_id":"4","last_reported":1728493680,"current_range_meters":38800,"station_id":"ce4bhg12rcd13ifvqf60","pricing_plan_id":"cebpf4jnsgd1na2vs0mg"},{"bike_id":"d20cdc04-cfe9-4c47-a63f-de9428fac62d","system_id":"levelo_inurba_marseille","lat":43.3171,"lon":5.37761,"is_reserved":false,"is_disabled":false,"rental_uris":{"android":"levelo://app?vid=d20cdc04-cfe9-4c47-a63f-de9428fac62d","ios":"levelo://app?vid=d20cdc04-cfe9-4c47-a63f-de9428fac62d"},"vehicle_type_id":"4","last_reported":1728493680,"current_range_meters":20400,"station_id":"ce4bgth2rcd13ifvqch0","pricing_plan_id":"cebpf4jnsgd1na2vs0mg"},{"bike_id":"afd65a1d-c3e9-4faf-b7af-2c3a555f7e3b","system_id":"levelo_inurba_marseille","lat":43.27994,"lon":5.4165,"is_reserved":false,"is_disabled":false,"rental_uris":{"android":"levelo://app?vid=afd65a1d-c3e9-4faf-b7af-2c3a555f7e3b","ios":"levelo://app?vid=afd65a1d-c3e9-4faf-b7af-2c3a555f7e3b"},"vehicle_type_id":"4","last_reported":1728493680,"current_range_meters":30000,"station_id":"ce4bho12rcd13ifvqh1g","pricing_plan_id":"cebpf4jnsgd1na2vs0mg"},{"bike_id":"902c768d-9998-41de-80d4-1fc8aea05298","system_id":"levelo_inurba_marseille","lat":43.25497,"lon":5.37655,"is_reserved":false,"is_disabled":false,"rental_uris":{"android":"levelo://app?vid=902c768d-9998-41de-80d4-1fc8aea05298","ios":"levelo://app?vid=902c768d-9998-41de-80d4-1fc8aea05298"},"vehicle_type_id":"4","last_reported":1728493680,"current_range_meters":24800,"station_id":"ce4bhh12rcd13ifvqff0","pricing_plan_id":"cebpf4jnsgd1na2vs0mg"},{"bike_id":"01d7fb27-b2fc-476a-bea6-0d5995118cf7","system_id":"levelo_inurba_marseille","lat":43.30339,"lon":5.38605,"is_reserved":false,"is_disabled":false,"rental_uris":{"android":"levelo://app?vid=01d7fb27-b2fc-476a-bea6-0d5995118cf7","ios":"levelo://app?vid=01d7fb27-b2fc-476a-bea6-0d5995118cf7"},"vehicle_type_id":"4","last_reported":1728493680,"current_range_meters":23200,"station_id":"ce4bghh2rcd13ifvqb60","pricing_plan_id":"cebpf4jnsgd1na2vs0mg"},{"bike_id":"92ca7f18-0d53-456d-8e0a-750147f59409","system_id":"levelo_inurba_marseille","lat":43.292002,"lon":5.357982,"is_reserved":false,"is_disabled":false,"rental_uris":{"android":"levelo://app?vid=92ca7f18-0d53-456d-8e0a-750147f59409","ios":"levelo://app?vid=92ca7f18-0d53-456d-8e0a-750147f59409"},"vehicle_type_id":"4","last_reported":1728493680,"current_range_meters":6000,"station_id":"ce4bhb12rcd13ifvqel0","pricing_plan_id":"cebpf4jnsgd1na2vs0mg"},{"bike_id":"5f8355c2-e97e-44cb-b101-b2fcbbb0bb7f","system_id":"levelo_inurba_marseille","lat":43.28938,"lon":5.39641,"is_reserved":false,"is_disabled":false,"rental_uris":{"android":"levelo://app?vid=5f8355c2-e97e-44cb-b101-b2fcbbb0bb7f","ios":"levelo://app?vid=5f8355c2-e97e-44cb-b101-b2fcbbb0bb7f"},"vehicle_type_id":"4","last_reported":1728493680,"current_range_meters":24000,"station_id":"ce4bhap2rcd13ifvqek0","pricing_plan_id":"cebpf4jnsgd1na2vs0mg"},{"bike_id":"177175df-04ca-49e6-9e18-eedffa4bd18b","system_id":"levelo_inurba_marseille","lat":43.24646,"lon":5.3889,"is_reserved":false,"is_disabled":false,"rental_uris":{"android":"levelo://app?vid=177175df-04ca-49e6-9e18-eedffa4bd18b","ios":"levelo://app?vid=177175df-04ca-49e6-9e18-eedffa4bd18b"},"vehicle_type_id":"4","last_reported":1728493680,"current_range_meters":38800,"station_id":"ce4bhg12rcd13ifvqf60","pricing_plan_id":"cebpf4jnsgd1na2vs0mg"},{"bike_id":"fbfecab9-671f-45b0-9194-a7b2a9c09610","system_id":"levelo_inurba_marseille","lat":43.33024,"lon":5.39042,"is_reserved":false,"is_disabled":false,"rental_uris":{"android":"levelo://app?vid=fbfecab9-671f-45b0-9194-a7b2a9c09610","ios":"levelo://app?vid=fbfecab9-671f-45b0-9194-a7b2a9c09610"},"vehicle_type_id":"4","last_reported":1728493680,"current_range_meters":25600,"station_id":"ce4bhr92rcd13ifvqhrg","pricing_plan_id":"cebpf4jnsgd1na2vs0mg"},{"bike_id":"c44a8777-4c5f-4c50-bbfa-6d4f6a1abc87","system_id":"levelo_inurba_marseille","lat":43.229303,"lon":5.35381,"is_reserved":false,"is_disabled":false,"rental_uris":{"android":"levelo://app?vid=c44a8777-4c5f-4c50-bbfa-6d4f6a1abc87","ios":"levelo://app?vid=c44a8777-4c5f-4c50-bbfa-6d4f6a1abc87"},"vehicle_type_id":"4","last_reported":1728493680,"current_range_meters":38800,"station_id":"cpo3532slgdg3j2ikp40","pricing_plan_id":"cebpf4jnsgd1na2vs0mg"},{"bike_id":"9f43aace-411b-4ba8-aee9-b70000d4e708","system_id":"levelo_inurba_marseille","lat":43.30243,"lon":5.40056,"is_reserved":false,"is_disabled":false,"rental_uris":{"android":"levelo://app?vid=9f43aace-411b-4ba8-aee9-b70000d4e708","ios":"levelo://app?vid=9f43aace-411b-4ba8-aee9-b70000d4e708"},"vehicle_type_id":"4","last_reported":1728493680,"current_range_meters":24400,"station_id":"ce4bgvh2rcd13ifvqcs0","pricing_plan_id":"cebpf4jnsgd1na2vs0mg"},{"bike_id":"a5e36113-f467-4957-9e7a-5d4885dc49d3","system_id":"levelo_inurba_marseille","lat":43.30185,"lon":5.36629,"is_reserved":false,"is_disabled":false,"rental_uris":{"android":"levelo://app?vid=a5e36113-f467-4957-9e7a-5d4885dc49d3","ios":"levelo://app?vid=a5e36113-f467-4957-9e7a-5d4885dc49d3"},"vehicle_type_id":"4","last_reported":1728493680,"current_range_meters":4000,"station_id":"ce4bgrh2rcd13ifvqc8g","pricing_plan_id":"cebpf4jnsgd1na2vs0mg"},{"bike_id":"a94a9070-410f-405b-8607-a4596c1cd274","system_id":"levelo_inurba_marseille","lat":43.31492,"lon":5.37303,"is_reserved":false,"is_disabled":false,"rental_uris":{"android":"levelo://app?vid=a94a9070-410f-405b-8607-a4596c1cd274","ios":"levelo://app?vid=a94a9070-410f-405b-8607-a4596c1cd274"},"vehicle_type_id":"4","last_reported":1728493680,"current_range_meters":6400,"station_id":"ce4bgt12rcd13ifvqcd0","pricing_plan_id":"cebpf4jnsgd1na2vs0mg"},{"bike_id":"3557f898-f108-4a4c-953f-37c85faf1721","system_id":"levelo_inurba_marseille","lat":43.29565,"lon":5.39972,"is_reserved":false,"is_disabled":false,"rental_uris":{"android":"levelo://app?vid=3557f898-f108-4a4c-953f-37c85faf1721","ios":"levelo://app?vid=3557f898-f108-4a4c-953f-37c85faf1721"},"vehicle_type_id":"4","last_reported":1728493680,"current_range_meters":6800,"station_id":"ce4bh312rcd13ifvqdj0","pricing_plan_id":"cebpf4jnsgd1na2vs0mg"},{"bike_id":"ebac0c67-d147-4086-a6e7-ae21ba149cfa","system_id":"levelo_inurba_marseille","lat":43.2979,"lon":5.37093,"is_reserved":false,"is_disabled":false,"rental_uris":{"android":"levelo://app?vid=ebac0c67-d147-4086-a6e7-ae21ba149cfa","ios":"levelo://app?vid=ebac0c67-d147-4086-a6e7-ae21ba149cfa"},"vehicle_type_id":"4","last_reported":1728493680,"current_range_meters":28400,"station_id":"ce4bgop2rcd13ifvqc1g","pricing_plan_id":"cebpf4jnsgd1na2vs0mg"},{"bike_id":"eba6b5d7-a6e0-4b35-9aa0-d7ce69473db3","system_id":"levelo_inurba_marseille","lat":43.27374,"lon":5.36255,"is_reserved":false,"is_disabled":false,"rental_uris":{"android":"levelo://app?vid=eba6b5d7-a6e0-4b35-9aa0-d7ce69473db3","ios":"levelo://app?vid=eba6b5d7-a6e0-4b35-9aa0-d7ce69473db3"},"vehicle_type_id":"4","last_reported":1728493680,"current_range_meters":8400,"station_id":"ce4bhbh2rcd13ifvqeo0","pricing_plan_id":"cebpf4jnsgd1na2vs0mg"},{"bike_id":"f4eb78c4-2b53-4113-a95c-8edad396204e","system_id":"levelo_inurba_marseille","lat":43.33719,"lon":5.39187,"is_reserved":false,"is_disabled":false,"rental_uris":{"android":"levelo://app?vid=f4eb78c4-2b53-4113-a95c-8edad396204e","ios":"levelo://app?vid=f4eb78c4-2b53-4113-a95c-8edad396204e"},"vehicle_type_id":"4","last_reported":1728493680,"current_range_meters":38800,"station_id":"ce4bhr92rcd13ifvqhsg","pricing_plan_id":"cebpf4jnsgd1na2vs0mg"},{"bike_id":"a53b9ae4-6567-42d7-bfbc-4ce278876d0f","system_id":"levelo_inurba_marseille","lat":43.2305,"lon":5.35499,"is_reserved":false,"is_disabled":false,"rental_uris":{"android":"levelo://app?vid=a53b9ae4-6567-42d7-bfbc-4ce278876d0f","ios":"levelo://app?vid=a53b9ae4-6567-42d7-bfbc-4ce278876d0f"},"vehicle_type_id":"4","last_reported":1728493680,"current_range_meters":38800,"station_id":"cpo3342slgdg3j2ifvpg","pricing_plan_id":"cebpf4jnsgd1na2vs0mg"},{"bike_id":"aefe5d89-0768-43ee-bfe3-b782b63136c6","system_id":"levelo_inurba_marseille","lat":43.31709,"lon":5.37753,"is_reserved":false,"is_disabled":false,"rental_uris":{"android":"levelo://app?vid=aefe5d89-0768-43ee-bfe3-b782b63136c6","ios":"levelo://app?vid=aefe5d89-0768-43ee-bfe3-b782b63136c6"},"vehicle_type_id":"4","last_reported":1728493680,"current_range_meters":38400,"station_id":"ce4bgth2rcd13ifvqch0","pricing_plan_id":"cebpf4jnsgd1na2vs0mg"},{"bike_id":"df09fe9b-4513-4bec-bb7c-d5ca9a9ad293","system_id":"levelo_inurba_marseille","lat":43.27671,"lon":5.38882,"is_reserved":false,"is_disabled":false,"rental_uris":{"android":"levelo://app?vid=df09fe9b-4513-4bec-bb7c-d5ca9a9ad293","ios":"levelo://app?vid=df09fe9b-4513-4bec-bb7c-d5ca9a9ad293"},"vehicle_type_id":"4","last_reported":1728493680,"current_range_meters":3600,"station_id":"ce4bhi12rcd13ifvqfo0","pricing_plan_id":"cebpf4jnsgd1na2vs0mg"},{"bike_id":"2edbf6a5-8067-41ec-a2f1-591614215f01","system_id":"levelo_inurba_marseille","lat":43.28415,"lon":5.34985,"is_reserved":false,"is_disabled":false,"rental_uris":{"android":"levelo://app?vid=2edbf6a5-8067-41ec-a2f1-591614215f01","ios":"levelo://app?vid=2edbf6a5-8067-41ec-a2f1-591614215f01"},"vehicle_type_id":"4","last_reported":1728493680,"current_range_meters":36000,"station_id":"ce4bhbh2rcd13ifvqepg","pricing_plan_id":"cebpf4jnsgd1na2vs0mg"},{"bike_id":"fb44a75f-ee82-42f2-bfb1-b9477a426c24","system_id":"levelo_inurba_marseille","lat":43.2953,"lon":5.38533,"is_reserved":false,"is_disabled":false,"rental_uris":{"android":"levelo://app?vid=fb44a75f-ee82-42f2-bfb1-b9477a426c24","ios":"levelo://app?vid=fb44a75f-ee82-42f2-bfb1-b9477a426c24"},"vehicle_type_id":"4","last_reported":1728493680,"current_range_meters":18000,"station_id":"ce4bgih2rcd13ifvqba0","pricing_plan_id":"cebpf4jnsgd1na2vs0mg"},{"bike_id":"c31bf2a3-d0fb-47d1-9664-4e3b6382e15c","system_id":"levelo_inurba_marseille","lat":43.3376,"lon":5.37444,"is_reserved":false,"is_disabled":false,"rental_uris":{"android":"levelo://app?vid=c31bf2a3-d0fb-47d1-9664-4e3b6382e15c","ios":"levelo://app?vid=c31bf2a3-d0fb-47d1-9664-4e3b6382e15c"},"vehicle_type_id":"4","last_reported":1728493680,"current_range_meters":27200,"station_id":"ce4rr2p2rcd13i802rgg","pricing_plan_id":"cebpf4jnsgd1na2vs0mg"},{"bike_id":"e4095adc-fc2a-4e4a-bce5-8dea7922e7ea","system_id":"levelo_inurba_marseille","lat":43.24065,"lon":5.37763,"is_reserved":false,"is_disabled":false,"rental_uris":{"android":"levelo://app?vid=e4095adc-fc2a-4e4a-bce5-8dea7922e7ea","ios":"levelo://app?vid=e4095adc-fc2a-4e4a-bce5-8dea7922e7ea"},"vehicle_type_id":"4","last_reported":1728493680,"current_range_meters":38800,"station_id":"ce4bhnp2rcd13ifvqgvg","pricing_plan_id":"cebpf4jnsgd1na2vs0mg"},{"bike_id":"38006157-25f3-43ff-8e83-b1bf8d1e8c46","system_id":"levelo_inurba_marseille","lat":43.33716,"lon":5.39195,"is_reserved":false,"is_disabled":false,"rental_uris":{"android":"levelo://app?vid=38006157-25f3-43ff-8e83-b1bf8d1e8c46","ios":"levelo://app?vid=38006157-25f3-43ff-8e83-b1bf8d1e8c46"},"vehicle_type_id":"4","last_reported":1728493680,"current_range_meters":9600,"station_id":"ce4bhr92rcd13ifvqhsg","pricing_plan_id":"cebpf4jnsgd1na2vs0mg"},{"bike_id":"c2b18262-adce-4301-9291-8f7c96cf9e8f","system_id":"levelo_inurba_marseille","lat":43.23054,"lon":5.3549,"is_reserved":false,"is_disabled":false,"rental_uris":{"android":"levelo://app?vid=c2b18262-adce-4301-9291-8f7c96cf9e8f","ios":"levelo://app?vid=c2b18262-adce-4301-9291-8f7c96cf9e8f"},"vehicle_type_id":"4","last_reported":1728493680,"current_range_meters":27600,"station_id":"cpo3342slgdg3j2ifvpg","pricing_plan_id":"cebpf4jnsgd1na2vs0mg"},{"bike_id":"9e116396-058c-4b1b-a85e-6079214aea0d","system_id":"levelo_inurba_marseille","lat":43.28724,"lon":5.36098,"is_reserved":false,"is_disabled":false,"rental_uris":{"android":"levelo://app?vid=9e116396-058c-4b1b-a85e-6079214aea0d","ios":"levelo://app?vid=9e116396-058c-4b1b-a85e-6079214aea0d"},"vehicle_type_id":"4","last_reported":1728493680,"current_range_meters":11200,"station_id":"cki0cbj6b192h4jlfktg","pricing_plan_id":"cebpf4jnsgd1na2vs0mg"},{"bike_id":"2be4be12-0f62-4618-8859-a078471fc0f3","system_id":"levelo_inurba_marseille","lat":43.24805,"lon":5.37459,"is_reserved":false,"is_disabled":false,"rental_uris":{"android":"levelo://app?vid=2be4be12-0f62-4618-8859-a078471fc0f3","ios":"levelo://app?vid=2be4be12-0f62-4618-8859-a078471fc0f3"},"vehicle_type_id":"4","last_reported":1728493680,"current_range_meters":3200,"station_id":"ce4bhgh2rcd13ifvqfb0","pricing_plan_id":"cebpf4jnsgd1na2vs0mg"},{"bike_id":"c6f778ad-4bcf-435d-b278-8c36bb09af38","system_id":"levelo_inurba_marseille","lat":43.26778,"lon":5.39422,"is_reserved":false,"is_disabled":false,"rental_uris":{"android":"levelo://app?vid=c6f778ad-4bcf-435d-b278-8c36bb09af38","ios":"levelo://app?vid=c6f778ad-4bcf-435d-b278-8c36bb09af38"},"vehicle_type_id":"4","last_reported":1728493680,"current_range_meters":9200,"station_id":"ce4bhh12rcd13ifvqfg0","pricing_plan_id":"cebpf4jnsgd1na2vs0mg"},{"bike_id":"3c33e60e-4a2f-4844-ba8f-f80d1f6862a4","system_id":"levelo_inurba_marseille","lat":43.33023,"lon":5.39039,"is_reserved":false,"is_disabled":false,"rental_uris":{"android":"levelo://app?vid=3c33e60e-4a2f-4844-ba8f-f80d1f6862a4","ios":"levelo://app?vid=3c33e60e-4a2f-4844-ba8f-f80d1f6862a4"},"vehicle_type_id":"4","last_reported":1728493680,"current_range_meters":28400,"station_id":"ce4bhr92rcd13ifvqhrg","pricing_plan_id":"cebpf4jnsgd1na2vs0mg"},{"bike_id":"2574b98c-92dc-44a0-a323-32c2083a376b","system_id":"levelo_inurba_marseille","lat":43.30315,"lon":5.40442,"is_reserved":false,"is_disabled":false,"rental_uris":{"android":"levelo://app?vid=2574b98c-92dc-44a0-a323-32c2083a376b","ios":"levelo://app?vid=2574b98c-92dc-44a0-a323-32c2083a376b"},"vehicle_type_id":"4","last_reported":1728493680,"current_range_meters":38800,"station_id":"ce4bh012rcd13ifvqd10","pricing_plan_id":"cebpf4jnsgd1na2vs0mg"},{"bike_id":"20520d24-66dd-4437-9976-6b63892a310b","system_id":"levelo_inurba_marseille","lat":43.23189,"lon":5.35557,"is_reserved":false,"is_disabled":false,"rental_uris":{"android":"levelo://app?vid=20520d24-66dd-4437-9976-6b63892a310b","ios":"levelo://app?vid=20520d24-66dd-4437-9976-6b63892a310b"},"vehicle_type_id":"4","last_reported":1728493680,"current_range_meters":36000,"station_id":"ce4bhu92rcd13ifvqi70","pricing_plan_id":"cebpf4jnsgd1na2vs0mg"},{"bike_id":"8f2867db-06b5-4c90-a2e3-a73ccc73e6d4","system_id":"levelo_inurba_marseille","lat":43.302842,"lon":5.368567,"is_reserved":false,"is_disabled":false,"rental_uris":{"android":"levelo://app?vid=8f2867db-06b5-4c90-a2e3-a73ccc73e6d4","ios":"levelo://app?vid=8f2867db-06b5-4c90-a2e3-a73ccc73e6d4"},"vehicle_type_id":"4","last_reported":1728493680,"current_range_meters":22400,"station_id":"ce4bgqh2rcd13ifvqc5g","pricing_plan_id":"cebpf4jnsgd1na2vs0mg"},