{"last_updated":1733911881,"ttl":60,"version":"2.2","data":{"bikes":[{"bike_id":"c37fd0ef-94bf-426b-854c-de5f521c0be1","system_id":"levelo_inurba_marseille","lat":43.24664,"lon":5.38174,"is_reserved":false,"is_disabled":false,"rental_uris":{"android":"levelo://app?vid=c37fd0ef-94bf-426b-854c-de5f521c0be1","ios":"levelo://app?vid=c37fd0ef-94bf-426b-854c-de5f521c0be1"},"vehicle_type_id":"4","last_reported":1733911881,"current_range_meters":38800,"station_id":"ce4bhih2rcd13ifvqfr0","pricing_plan_id":"cebpf4jnsgd1na2vs0mg"},{"bike_id":"7183d4d9-bc41-4dd1-8b77-8e3da75f73aa","system_id":"levelo_inurba_marseille","lat":43.28274,"lon":5.35067,"is_reserved":false,"is_disabled":false,"rental_uris":{"android":"levelo://app?vid=7183d4d9-bc41-4dd1-8b77-8e3da75f73aa","ios":"levelo://app?vid=7183d4d9-bc41-4dd1-8b77-8e3da75f73aa"},"vehicle_type_id":"4","last_reported":1733911881,"current_range_meters":38800,"station_id":"ce4bhbp2rcd13ifvqerg","pricing_plan_id":"cebpf4jnsgd1na2vs0mg"},{"bike_id":"ff94f1c1-b6a8-4dd4-94e4-23582750de11","system_id":"levelo_inurba_marseille","lat":43.337444,"lon":5.374475,"is_reserved":false,"is_disabled":false,"rental_uris":{"android":"levelo://app?vid=ff94f1c1-b6a8-4dd4-94e4-23582750de11","ios":"levelo://app?vid=ff94f1c1-b6a8-4dd4-94e4-23582750de11"},"vehicle_type_id":"4","last_reported":1733911881,"current_range_meters":15200,"station_id":"ce4bgj92rcd13ifvqbe0","pricing_plan_id":"cebpf4jnsgd1na2vs0mg"},{"bike_id":"e790b77f-2455-4629-9a75-b546c4d90882","system_id":"levelo_inurba_marseille","lat":43.32465,"lon":5.36552,"is_reserved":false,"is_disabled":false,"rental_uris":{"android":"levelo://app?vid=e790b77f-2455-4629-9a75-b546c4d90882","ios":"levelo://app?vid=e790b77f-2455-4629-9a75-b546c4d90882"},"vehicle_type_id":"4","last_reported":1733911881,"current_range_meters":39200,"station_id":"ce4bhs12rcd13ifvqhvg","pricing_plan_id":"cebpf4jnsgd1na2vs0mg"},{"bike_id":"3bba5ec8-cf77-479f-9393-e396c47a1f4b","system_id":"levelo_inurba_marseille","lat":43.24159,"lon":5.36395,"is_reserved":false,"is_disabled":false,"rental_uris":{"android":"levelo://app?vid=3bba5ec8-cf77-479f-9393-e396c47a1f4b","ios":"levelo://app?vid=3bba5ec8-cf77-479f-9393-e396c47a1f4b"},"vehicle_type_id":"4","last_reported":1733911881,"current_range_meters":10000,"station_id":"cpo36qri1sfpv3e86is0","pricing_plan_id":"cebpf4jnsgd1na2vs0mg"},{"bike_id":"3d539875-9089-4807-b914-d0bb7b3bb166","system_id":"levelo_inurba_marseille","lat":43.26061,"lon":5.39386,"is_reserved":false,"is_disabled":false,"rental_uris":{"android":"levelo://app?vid=3d539875-9089-4807-b914-d0bb7b3bb166","ios":"levelo://app?vid=3d539875-9089-4807-b914-d0bb7b3bb166"},"vehicle_type_id":"4","last_reported":1733911881,"current_range_meters":30000,"station_id":"ce4bhh92rcd13ifvqfj0","pricing_plan_id":"cebpf4jnsgd1na2vs0mg"},{"bike_id":"8c228acb-cc2a-4d89-8c1a-baab1494d0f9","system_id":"levelo_inurba_marseille","lat":43.25002,"lon":5.38947,"is_reserved":false,"is_disabled":false,"rental_uris":{"android":"levelo://app?vid=8c228acb-cc2a-4d89-8c1a-baab1494d0f9","ios":"levelo://app?vid=8c228acb-cc2a-4d89-8c1a-baab1494d0f9"},"vehicle_type_id":"4","last_reported":1733911881,"current_range_meters":38800,"station_id":"ce4bhgp2rcd13ifvqfd0","pricing_plan_id":"cebpf4jnsgd1na2vs0mg"},{"bike_id":"55bb7787-3d52-4551-b948-68fece7c271f","system_id":"levelo_inurba_marseille","lat":43.30066,"lon":5.39128,"is_reserved":false,"is_disabled":false,"rental_uris":{"android":"levelo://app?vid=55bb7787-3d52-4551-b948-68fece7c271f","ios":"levelo://app?vid=55bb7787-3d52-4551-b948-68fece7c271f"},"vehicle_type_id":"4","last_reported":1733911881,"current_range_meters":36400,"station_id":"ce4bh192rcd13ifvqdb0","pricing_plan_id":"cebpf4jnsgd1na2vs0mg"},{"bike_id":"c9ac06e9-d765-4589-9e04-4f489fe4223f","system_id":"levelo_inurba_marseille","lat":43.301376,"lon":5.374146,"is_reserved":false,"is_disabled":false,"rental_uris":{"android":"levelo://app?vid=c9ac06e9-d765-4589-9e04-4f489fe4223f","ios":"levelo://app?vid=c9ac06e9-d765-4589-9e04-4f489fe4223f"},"vehicle_type_id":"4","last_reported":1733911881,"current_range_meters":24800,"station_id":"ce4bgs92rcd13ifvqcc0","pricing_plan_id":"cebpf4jnsgd1na2vs0mg"},{"bike_id":"ebe42f33-20da-4f45-bfac-0659dc23fce1","system_id":"levelo_inurba_marseille","lat":43.30953,"lon":5.39038,"is_reserved":false,"is_disabled":false,"rental_uris":{"android":"levelo://app?vid=ebe42f33-20da-4f45-bfac-0659dc23fce1","ios":"levelo://app?vid=ebe42f33-20da-4f45-bfac-0659dc23fce1"},"vehicle_type_id":"4","last_reported":1733911881,"current_range_meters":38800,"station_id":"ce4bgup2rcd13ifvqco0","pricing_plan_id":"cebpf4jnsgd1na2vs0mg"},{"bike_id":"53cef0b2-6475-4bb2-8154-bba3ec436f73","system_id":"levelo_inurba_marseille","lat":43.27455,"lon":5.40073,"is_reserved":false,"is_disabled":true,"rental_uris":{"android":"levelo://app?vid=53cef0b2-6475-4bb2-8154-bba3ec436f73","ios":"levelo://app?vid=53cef0b2-6475-4bb2-8154-bba3ec436f73"},"vehicle_type_id":"4","last_reported":1733911881,"current_range_meters":0,"station_id":"","pricing_plan_id":"cebpf4jnsgd1na2vs0mg"},{"bike_id":"524803cd-da34-42f6-89fe-ec0ae3d4a503","system_id":"levelo_inurba_marseille","lat":43.27066,"lon":5.42284,"is_reserved":false,"is_disabled":true,"rental_uris":{"android":"levelo://app?vid=524803cd-da34-42f6-89fe-ec0ae3d4a503","ios":"levelo://app?vid=524803cd-da34-42f6-89fe-ec0ae3d4a503"},"vehicle_type_id":"4","last_reported":1733911881,"current_range_meters":26000,"station_id":"ce4bhk92rcd13ifvqgb0","pricing_plan_id":"cebpf4jnsgd1na2vs0mg"},{"bike_id":"4b4febd1-9990-49c8-9df6-d0f54865dca2","system_id":"levelo_inurba_marseille","lat":43.29876,"lon":5.39734,"is_reserved":false,"is_disabled":false,"rental_uris":{"android":"levelo://app?vid=4b4febd1-9990-49c8-9df6-d0f54865dca2","ios":"levelo://app?vid=4b4febd1-9990-49c8-9df6-d0f54865dca2"},"vehicle_type_id":"4","last_reported":1733911881,"current_range_meters":36800,"station_id":"ce4bh0h2rcd13ifvqd50","pricing_plan_id":"cebpf4jnsgd1na2vs0mg"},{"bike_id":"7f7382ed-1709-4fcd-881c-e0664694eef9","system_id":"levelo_inurba_marseille","lat":43.24063,"lon":5.37762,"is_reserved":false,"is_disabled":false,"rental_uris":{"android":"levelo://app?vid=7f7382ed-1709-4fcd-881c-e0664694eef9","ios":"levelo://app?vid=7f7382ed-1709-4fcd-881c-e0664694eef9"},"vehicle_type_id":"4","last_reported":1733911881,"current_range_meters":22000,"station_id":"ce4bhnp2rcd13ifvqgvg","pricing_plan_id":"cebpf4jnsgd1na2vs0mg"},{"bike_id":"60084a49-95b3-4ebd-aaf1-f51652956ad9","system_id":"levelo_inurba_marseille","lat":43.3091,"lon":5.3685,"is_reserved":false,"is_disabled":false,"rental_uris":{"android":"levelo://app?vid=60084a49-95b3-4ebd-aaf1-f51652956ad9","ios":"levelo://app?vid=60084a49-95b3-4ebd-aaf1-f51652956ad9"},"vehicle_type_id":"4","last_reported":1733911881,"current_range_meters":34800,"station_id":"ce4bgn92rcd13ifvqbvg","pricing_plan_id":"cebpf4jnsgd1na2vs0mg"},{"bike_id":"0df078b9-26b0-41ca-b66d-be65fe2fc0eb","system_id":"levelo_inurba_marseille","lat":43.26807,"lon":5.4027,"is_reserved":false,"is_disabled":false,"rental_uris":{"android":"levelo://app?vid=0df078b9-26b0-41ca-b66d-be65fe2fc0eb","ios":"levelo://app?vid=0df078b9-26b0-41ca-b66d-be65fe2fc0eb"},"vehicle_type_id":"4","last_reported":1733911881,"current_range_meters":37600,"station_id":"ce501612rcd8frsf0b60","pricing_plan_id":"cebpf4jnsgd1na2vs0mg"},{"bike_id":"5792e82b-6e6e-4ee5-9e56-ed9242686c56","system_id":"levelo_inurba_marseille","lat":43.337444,"lon":5.374475,"is_reserved":false,"is_disabled":true,"rental_uris":{"android":"levelo://app?vid=5792e82b-6e6e-4ee5-9e56-ed9242686c56","ios":"levelo://app?vid=5792e82b-6e6e-4ee5-9e56-ed9242686c56"},"vehicle_type_id":"4","last_reported":1733911881,"current_range_meters":30000,"station_id":"ce4bhoh2rcd13ifvqh5g","pricing_plan_id":"cebpf4jnsgd1na2vs0mg"},{"bike_id":"5b714bca-5f42-4fc6-aea5-67c841fed16f","system_id":"levelo_inurba_marseille","lat":43.27834,"lon":5.40692,"is_reserved":false,"is_disabled":false,"rental_uris":{"android":"levelo://app?vid=5b714bca-5f42-4fc6-aea5-67c841fed16f","ios":"levelo://app?vid=5b714bca-5f42-4fc6-aea5-67c841fed16f"},"vehicle_type_id":"4","last_reported":1733911881,"current_range_meters":35200,"station_id":"ce4bhnh2rcd13ifvqgtg","pricing_plan_id":"cebpf4jnsgd1na2vs0mg"},{"bike_id":"9da52c15-b527-4e49-a3bd-1bd9af1be8e4","system_id":"levelo_inurba_marseille","lat":43.31325,"lon":5.39692,"is_reserved":false,"is_disabled":false,"rental_uris":{"android":"levelo://app?vid=9da52c15-b527-4e49-a3bd-1bd9af1be8e4","ios":"levelo://app?vid=9da52c15-b527-4e49-a3bd-1bd9af1be8e4"},"vehicle_type_id":"4","last_reported":1733911881,"current_range_meters":30800,"station_id":"ce4bgvp2rcd13ifvqcu0","pricing_plan_id":"cebpf4jnsgd1na2vs0mg"},{"bike_id":"555b76d2-0ea2-43b3-a83c-ea29c2211899","system_id":"levelo_inurba_marseille","lat":43.26209,"lon":5.37443,"is_reserved":false,"is_disabled":false,"rental_uris":{"android":"levelo://app?vid=555b76d2-0ea2-43b3-a83c-ea29c2211899","ios":"levelo://app?vid=555b76d2-0ea2-43b3-a83c-ea29c2211899"},"vehicle_type_id":"4","last_reported":1733911881,"current_range_meters":17200,"station_id":"ce4bhgp2rcd13ifvqfc0","pricing_plan_id":"cebpf4jnsgd1na2vs0mg"},{"bike_id":"4dffb2d0-45cd-45a1-a5f8-48f20003e567","system_id":"levelo_inurba_marseille","lat":43.27495,"lon":5.42449,"is_reserved":false,"is_disabled":false,"rental_uris":{"android":"levelo://app?vid=4dffb2d0-45cd-45a1-a5f8-48f20003e567","ios":"levelo://app?vid=4dffb2d0-45cd-45a1-a5f8-48f20003e567"},"vehicle_type_id":"4","last_reported":1733911881,"current_range_meters":33600,"station_id":"ce4bhn92rcd13ifvqgrg","pricing_plan_id":"cebpf4jnsgd1na2vs0mg"},{"bike_id":"1878549b-6aaf-4657-98a2-3297a4b459d5","system_id":"levelo_inurba_marseille","lat":43.29037,"lon":5.37566,"is_reserved":false,"is_disabled":false,"rental_uris":{"android":"levelo://app?vid=1878549b-6aaf-4657-98a2-3297a4b459d5","ios":"levelo://app?vid=1878549b-6aaf-4657-98a2-3297a4b459d5"},"vehicle_type_id":"4","last_reported":1733911881,"current_range_meters":7200,"station_id":"ce4bh692rcd13ifvqe90","pricing_plan_id":"cebpf4jnsgd1na2vs0mg"},{"bike_id":"628ee561-ba69-4c4b-aeff-d1e521d2575d","system_id":"levelo_inurba_marseille","lat":43.2894,"lon":5.36625,"is_reserved":false,"is_disabled":true,"rental_uris":{"android":"levelo://app?vid=628ee561-ba69-4c4b-aeff-d1e521d2575d","ios":"levelo://app?vid=628ee561-ba69-4c4b-aeff-d1e521d2575d"},"vehicle_type_id":"4","last_reported":1733911881,"current_range_meters":400,"station_id":"ce4bhap2rcd13ifvqek0","pricing_plan_id":"cebpf4jnsgd1na2vs0mg"},{"bike_id":"708cbfcf-43ca-44b3-905d-ac0819ef2ef7","system_id":"levelo_inurba_marseille","lat":43.30206,"lon":5.39467,"is_reserved":false,"is_disabled":false,"rental_uris":{"android":"levelo://app?vid=708cbfcf-43ca-44b3-905d-ac0819ef2ef7","ios":"levelo://app?vid=708cbfcf-43ca-44b3-905d-ac0819ef2ef7"},"vehicle_type_id":"4","last_reported":1733911881,"current_range_meters":38400,"station_id":"ce4bh0p2rcd13ifvqd70","pricing_plan_id":"cebpf4jnsgd1na2vs0mg"},{"bike_id":"4c471bf1-3a60-4c2b-9507-32b6ba849dda","system_id":"levelo_inurba_marseille","lat":43.30143,"lon":5.37417,"is_reserved":false,"is_disabled":false,"rental_uris":{"android":"levelo://app?vid=4c471bf1-3a60-4c2b-9507-32b6ba849dda","ios":"levelo://app?vid=4c471bf1-3a60-4c2b-9507-32b6ba849dda"},"vehicle_type_id":"4","last_reported":1733911881,"current_range_meters":23200,"station_id":"ce4bgs92rcd13ifvqcc0","pricing_plan_id":"cebpf4jnsgd1na2vs0mg"},{"bike_id":"967815f2-b6b9-4496-94ab-89979e104449","system_id":"levelo_inurba_marseille","lat":43.31692,"lon":5.40465,"is_reserved":false,"is_disabled":false,"rental_uris":{"android":"levelo://app?vid=967815f2-b6b9-4496-94ab-89979e104449","ios":"levelo://app?vid=967815f2-b6b9-4496-94ab-89979e104449"},"vehicle_type_id":"4","last_reported":1733911881,"current_range_meters":16000,"station_id":"ce4bh012rcd13ifvqd00","pricing_plan_id":"cebpf4jnsgd1na2vs0mg"},{"bike_id":"05ceecd8-6c9d-4fc7-ba40-9fa423e85a95","system_id":"levelo_inurba_marseille","lat":43.313551,"lon":5.367064,"is_reserved":false,"is_disabled":false,"rental_uris":{"android":"levelo://app?vid=05ceecd8-6c9d-4fc7-ba40-9fa423e85a95","ios":"levelo://app?vid=05ceecd8-6c9d-4fc7-ba40-9fa423e85a95"},"vehicle_type_id":"4","last_reported":1733911881,"current_range_meters":38000,"station_id":"ce4bgr92rcd13ifvqc6g","pricing_plan_id":"cebpf4jnsgd1na2vs0mg"},{"bike_id":"3d1abfd9-b542-4819-bec5-f06c6eff1c2a","system_id":"levelo_inurba_marseille","lat":43.26955,"lon":5.38618,"is_reserved":false,"is_disabled":false,"rental_uris":{"android":"levelo://app?vid=3d1abfd9-b542-4819-bec5-f06c6eff1c2a","ios":"levelo://app?vid=3d1abfd9-b542-4819-bec5-f06c6eff1c2a"},"vehicle_type_id":"4","last_reported":1733911881,"current_range_meters":11200,"station_id":"ce4bhh92rcd13ifvqfh0","pricing_plan_id":"cebpf4jnsgd1na2vs0mg"},{"bike_id":"c9c3b70b-8363-49e7-871d-c7489e17487c","system_id":"levelo_inurba_marseille","lat":43.25919,"lon":5.40906,"is_reserved":false,"is_disabled":false,"rental_uris":{"android":"levelo://app?vid=c9c3b70b-8363-49e7-871d-c7489e17487c","ios":"levelo://app?vid=c9c3b70b-8363-49e7-871d-c7489e17487c"},"vehicle_type_id":"4","last_reported":1733911881,"current_range_meters":28800,"station_id":"ce4bhm92rcd13ifvqglg","pricing_plan_id":"cebpf4jnsgd1na2vs0mg"},{"bike_id":"12d7b237-cd22-468b-a693-7ea97236bf30","system_id":"levelo_inurba_marseille","lat":43.29442,"lon":5.39757,"is_reserved":false,"is_disabled":true,"rental_uris":{"android":"levelo://app?vid=12d7b237-cd22-468b-a693-7ea97236bf30","ios":"levelo://app?vid=12d7b237-cd22-468b-a693-7ea97236bf30"},"vehicle_type_id":"4","last_reported":1733911881,"current_range_meters":36000,"station_id":"ce4bh3h2rcd13ifvqdo0","pricing_plan_id":"cebpf4jnsgd1na2vs0mg"},{"bike_id":"3742d0cd-d1c7-4122-8112-85b681daf6e3","system_id":"levelo_inurba_marseille","lat":43.29543,"lon":5.42289,"is_reserved":false,"is_disabled":false,"rental_uris":{"android":"levelo://app?vid=3742d0cd-d1c7-4122-8112-85b681daf6e3","ios":"levelo://app?vid=3742d0cd-d1c7-4122-8112-85b681daf6e3"},"vehicle_type_id":"4","last_reported":1733911881,"current_range_meters":38800,"station_id":"ce4bhph2rcd13ifvqhdg","pricing_plan_id":"cebpf4jnsgd1na2vs0mg"},{"bike_id":"a07532b3-a306-47c5-975f-23b17c68fb58","system_id":"levelo_inurba_marseille","lat":43.31541,"lon":5.36509,"is_reserved":false,"is_disabled":false,"rental_uris":{"android":"levelo://app?vid=a07532b3-a306-47c5-975f-23b17c68fb58","ios":"levelo://app?vid=a07532b3-a306-47c5-975f-23b17c68fb58"},"vehicle_type_id":"4","last_reported":1733911881,"current_range_meters":39200,"station_id":"","pricing_plan_id":"cebpf4jnsgd1na2vs0mg"},{"bike_id":"f83c4b57-4418-45de-948f-2928c8f03577","system_id":"levelo_inurba_marseille","lat":43.31322,"lon":5.36647,"is_reserved":false,"is_disabled":true,"rental_uris":{"android":"levelo://app?vid=f83c4b57-4418-45de-948f-2928c8f03577","ios":"levelo://app?vid=f83c4b57-4418-45de-948f-2928c8f03577"},"vehicle_type_id":"4","last_reported":1733911881,"current_range_meters":0,"station_id":"","pricing_plan_id":"cebpf4jnsgd1na2vs0mg"},{"bike_id":"815e0f57-34c0-493c-9c5c-357f578a49b7","system_id":"levelo_inurba_marseille","lat":43.27208,"lon":5.39195,"is_reserved":false,"is_disabled":false,"rental_uris":{"android":"levelo://app?vid=815e0f57-34c0-493c-9c5c-357f578a49b7","ios":"levelo://app?vid=815e0f57-34c0-493c-9c5c-357f578a49b7"},"vehicle_type_id":"4","last_reported":1733911881,"current_range_meters":5600,"station_id":"ce4bhhp2rcd13ifvqfm0","pricing_plan_id":"cebpf4jnsgd1na2vs0mg"},{"bike_id":"0a6e1668-8e9e-42c3-86d3-f731ac262b38","system_id":"levelo_inurba_marseille","lat":43.32544,"lon":5.41439,"is_reserved":false,"is_disabled":false,"rental_uris":{"android":"levelo://app?vid=0a6e1668-8e9e-42c3-86d3-f731ac262b38","ios":"levelo://app?vid=0a6e1668-8e9e-42c3-86d3-f731ac262b38"},"vehicle_type_id":"4","last_reported":1733911881,"current_range_meters":34800,"station_id":"ce4bhq12rcd13ifvqhhg","pricing_plan_id":"cebpf4jnsgd1na2vs0mg"},{"bike_id":"273567d8-1fcb-4647-88c9-99f3924821d4","system_id":"levelo_inurba_marseille","lat":43.3091,"lon":5.3685,"is_reserved":false,"is_disabled":false,"rental_uris":{"android":"levelo://app?vid=273567d8-1fcb-4647-88c9-99f3924821d4","ios":"levelo://app?vid=273567d8-1fcb-4647-88c9-99f3924821d4"},"vehicle_type_id":"4","last_reported":1733911881,"current_range_meters":20800,"station_id":"ce4bgn92rcd13ifvqbvg","pricing_plan_id":"cebpf4jnsgd1na2vs0mg"},{"bike_id":"34a36b1a-824a-4326-a049-a7d9b55d04a2","system_id":"levelo_inurba_marseille","lat":43.279728,"lon":5.387265,"is_reserved":false,"is_disabled":false,"rental_uris":{"android":"levelo://app?vid=34a36b1a-824a-4326-a049-a7d9b55d04a2","ios":"levelo://app?vid=34a36b1a-824a-4326-a049-a7d9b55d04a2"},"vehicle_type_id":"4","last_reported":1733911881,"current_range_meters":20400,"station_id":"ce4bhg12rcd13ifvqf80","pricing_plan_id":"cebpf4jnsgd1na2vs0mg"},{"bike_id":"459cb080-d1ea-4787-b3c6-41fa38e161b1","system_id":"levelo_inurba_marseille","lat":43.27989,"lon":5.40023,"is_reserved":false,"is_disabled":true,"rental_uris":{"android":"levelo://app?vid=459cb080-d1ea-4787-b3c6-41fa38e161b1","ios":"levelo://app?vid=459cb080-d1ea-4787-b3c6-41fa38e161b1"},"vehicle_type_id":"4","last_reported":1733911881,"current_range_meters":38400,"station_id":"ce4bho92rcd13ifvqh4g","pricing_plan_id":"cebpf4jnsgd1na2vs0mg"},{"bike_id":"aa51e8a2-d98e-4c5d-8cab-37a8dfaa86a0","system_id":"levelo_inurba_marseille","lat":43.255755,"lon":5.38236,"is_reserved":false,"is_disabled":false,"rental_uris":{"android":"levelo://app?vid=aa51e8a2-d98e-4c5d-8cab-37a8dfaa86a0","ios":"levelo://app?vid=aa51e8a2-d98e-4c5d-8cab-37a8dfaa86a0"},"vehicle_type_id":"4","last_reported":1733911881,"current_range_meters":27600,"station_id":"ce4bhih2rcd13ifvqfs0","pricing_plan_id":"cebpf4jnsgd1na2vs0mg"},{"bike_id":"a22584a6-0abe-4605-a8f9-aae02a203985","system_id":"levelo_inurba_marseille","lat":43.32483,"lon":5.36557,"is_reserved":false,"is_disabled":false,"rental_uris":{"android":"levelo://app?vid=a22584a6-0abe-4605-a8f9-aae02a203985","ios":"levelo://app?vid=a22584a6-0abe-4605-a8f9-aae02a203985"},"vehicle_type_id":"4","last_reported":1733911881,"current_range_meters":16800,"station_id":"ce4bhs12rcd13ifvqhvg","pricing_plan_id":"cebpf4jnsgd1na2vs0mg"},{"bike_id":"33e117dd-08b3-4148-9378-5dcdf97e8584","system_id":"levelo_inurba_marseille","lat":43.25451,"lon":5.38214,"is_reserved":false,"is_disabled":false,"rental_uris":{"android":"levelo://app?vid=33e117dd-08b3-4148-9378-5dcdf97e8584","ios":"levelo://app?vid=33e117dd-08b3-4148-9378-5dcdf97e8584"},"vehicle_type_id":"4","last_reported":1733911881,"current_range_meters":38000,"station_id":"","pricing_plan_id":"cebpf4jnsgd1na2vs0mg"},{"bike_id":"65aff867-420c-4453-b2d6-1d3f174ccc98","system_id":"levelo_inurba_marseille","lat":43.29296,"lon":5.37467,"is_reserved":false,"is_disabled":false,"rental_uris":{"android":"levelo://app?vid=65aff867-420c-4453-b2d6-1d3f174ccc98","ios":"levelo://app?vid=65aff867-420c-4453-b2d6-1d3f174ccc98"},"vehicle_type_id":"4","last_reported":1733911881,"current_range_meters":39200,"station_id":"ce4bgi12rcd13ifvqb70","pricing_plan_id":"cebpf4jnsgd1na2vs0mg"},{"bike_id":"87a840a2-2d66-4cd8-879b-d5d05fbc66b0","system_id":"levelo_inurba_marseille","lat":43.30942,"lon":5.3899,"is_reserved":false,"is_disabled":false,"rental_uris":{"android":"levelo://app?vid=87a840a2-2d66-4cd8-879b-d5d05fbc66b0","ios":"levelo://app?vid=87a840a2-2d66-4cd8-879b-d5d05fbc66b0"},"vehicle_type_id":"4","last_reported":1733911881,"current_range_meters":36800,"station_id":"ce4bgup2rcd13ifvqco0","pricing_plan_id":"cebpf4jnsgd1na2vs0mg"},{"bike_id":"ecc39d3b-cc54-44f1-8df1-5172ba40d9c6","system_id":"levelo_inurba_marseille","lat":43.30479,"lon":5.37905,"is_reserved":false,"is_disabled":false,"rental_uris":{"android":"levelo://app?vid=ecc39d3b-cc54-44f1-8df1-5172ba40d9c6","ios":"levelo://app?vid=ecc39d3b-cc54-44f1-8df1-5172ba40d9c6"},"vehicle_type_id":"4","last_reported":1733911881,"current_range_meters":30000,"station_id":"ce4bgup2rcd13ifvqcn0","pricing_plan_id":"cebpf4jnsgd1na2vs0mg"},{"bike_id":"bc037e9d-5142-4a01-b736-137c01e94c24","system_id":"levelo_inurba_marseille","lat":43.30159,"lon":5.38086,"is_reserved":false,"is_disabled":true,"rental_uris":{"android":"levelo://app?vid=bc037e9d-5142-4a01-b736-137c01e94c24","ios":"levelo://app?vid=bc037e9d-5142-4a01-b736-137c01e94c24"},"vehicle_type_id":"4","last_reported":1733911881,"current_range_meters":23200,"station_id":"ce4bgjp2rcd13ifvqbh0","pricing_plan_id":"cebpf4jnsgd1na2vs0mg"},{"bike_id":"aab5ef98-c621-4516-913f-f158d82ba29c","system_id":"levelo_inurba_marseille","lat":43.28936,"lon":5.3662,"is_reserved":false,"is_disabled":true,"rental_uris":{"android":"levelo://app?vid=aab5ef98-c621-4516-913f-f158d82ba29c","ios":"levelo://app?vid=aab5ef98-c621-4516-913f-f158d82ba29c"},"vehicle_type_id":"4","last_reported":1733911881,"current_range_meters":30800,"station_id":"ce4bhap2rcd13ifvqek0","pricing_plan_id":"cebpf4jnsgd1na2vs0mg"},{"bike_id":"e111453f-7382-4178-80df-62423b5cc9c9","system_id":"levelo_inurba_marseille","lat":43.27508,"lon":5.4243,"is_reserved":false,"is_disabled":true,"rental_uris":{"android":"levelo://app?vid=e111453f-7382-4178-80df-62423b5cc9c9","ios":"levelo://app?vid=e111453f-7382-4178-80df-62423b5cc9c9"},"vehicle_type_id":"4","last_reported":1733911881,"current_range_meters":35600,"station_id":"ce4bhn92rcd13ifvqgrg","pricing_plan_id":"cebpf4jnsgd1na2vs0mg"},{"bike_id":"f0aace09-182b-4712-98de-680eed76dabe","system_id":"levelo_inurba_marseille","lat":43.30547,"lon":5.36714,"is_reserved":false,"is_disabled":false,"rental_uris":{"android":"levelo://app?vid=f0aace09-182b-4712-98de-680eed76dabe","ios":"levelo://app?vid=f0aace09-182b-4712-98de-680eed76dabe"},"vehicle_type_id":"4","last_reported":1733911881,"current_range_meters":38800,"station_id":"ce4bgrp2rcd13ifvqc9g","pricing_plan_id":"cebpf4jnsgd1na2vs0mg"},{"bike_id":"be38f45e-2037-4e82-9d29-59bae5a77cb6","system_id":"levelo_inurba_marseille","lat":43.31368,"lon":5.38495,"is_reserved":false,"is_disabled":false,"rental_uris":{"android":"levelo://app?vid=be38f45e-2037-4e82-9d29-59bae5a77cb6","ios":"levelo://app?vid=be38f45e-2037-4e82-9d29-59bae5a77cb6"},"vehicle_type_id":"4","last_reported":1733911881,"current_range_meters":27200,"station_id":"ce4bgt92rcd13ifvqcf0","pricing_plan_id":"cebpf4jnsgd1na2vs0mg"},{"bike_id":"acf61be8-66eb-4f86-9c0d-b6fed0a8d6cf","system_id":"levelo_inurba_marseille","lat":43.29606,"lon":5.37716,"is_reserved":false,"is_disabled":false,"rental_uris":{"android":"levelo://app?vid=acf61be8-66eb-4f86-9c0d-b6fed0a8d6cf","ios":"levelo://app?vid=acf61be8-66eb-4f86-9c0d-b6fed0a8d6cf"},"vehicle_type_id":"4","last_reported":1733911881,"current_range_meters":24000,"station_id":"ce4bgi92rcd13ifvqb90","pricing_plan_id":"cebpf4jnsgd1na2vs0mg"},{"bike_id":"0c6b862b-b421-4dea-8df4-a5814f07b28c","system_id":"levelo_inurba_marseille","lat":43.27364,"lon":5.36253,"is_reserved":false,"is_disabled":false,"rental_uris":{"android":"levelo://app?vid=0c6b862b-b421-4dea-8df4-a5814f07b28c","ios":"levelo://app?vid=0c6b862b-b421-4dea-8df4-a5814f07b28c"},"vehicle_type_id":"4","last_reported":1733911881,"current_range_meters":38800,"station_id":"ce4bhbh2rcd13ifvqeo0","pricing_plan_id":"cebpf4jnsgd1na2vs0mg"},{"bike_id":"9c3c31dc-e766-44cd-a42f-009463d889a0","system_id":"levelo_inurba_marseille","lat":43.336095,"lon":5.41025,"is_reserved":false,"is_disabled":false,"rental_uris":{"android":"levelo://app?vid=9c3c31dc-e766-44cd-a42f-009463d889a0","ios":"levelo://app?vid=9c3c31dc-e766-44cd-a42f-009463d889a0"},"vehicle_type_id":"4","last_reported":1733911881,"current_range_meters":31200,"station_id":"ce4bhqh2rcd13ifvqhmg","pricing_plan_id":"cebpf4jnsgd1na2vs0mg"},{"bike_id":"3d652a3f-3b28-4e3f-ad1b-74adb5a32df8","system_id":"levelo_inurba_marseille","lat":43.25578,"lon":5.38231,"is_reserved":false,"is_disabled":false,"rental_uris":{"android":"levelo://app?vid=3d652a3f-3b28-4e3f-ad1b-74adb5a32df8","ios":"levelo://app?vid=3d652a3f-3b28-4e3f-ad1b-74adb5a32df8"},"vehicle_type_id":"4","last_reported":1733911881,"current_range_meters":28000,"station_id":"ce4bhih2rcd13ifvqfs0","pricing_plan_id":"cebpf4jnsgd1na2vs0mg"},{"bike_id":"1ae3f3bd-9284-41f5-b2ec-03bff65a21ee","system_id":"levelo_inurba_marseille","lat":43.2306,"lon":5.35486,"is_reserved":false,"is_disabled":false,"rental_uris":{"android":"levelo://app?vid=1ae3f3bd-9284-41f5-b2ec-03bff65a21ee","ios":"levelo://app?vid=1ae3f3bd-9284-41f5-b2ec-03bff65a21ee"},"vehicle_type_id":"4","last_reported":1733911881,"current_range_meters":14800,"station_id":"cpo3342slgdg3j2ifvpg","pricing_plan_id":"cebpf4jnsgd1na2vs0mg"},{"bike_id":"a7ea0e72-c89c-4d14-be18-f7367cda2249","system_id":"levelo_inurba_marseille","lat":43.33002,"lon":5.39053,"is_reserved":false,"is_disabled":true,"rental_uris":{"android":"levelo://app?vid=a7ea0e72-c89c-4d14-be18-f7367cda2249","ios":"levelo://app?vid=a7ea0e72-c89c-4d14-be18-f7367cda2249"},"vehicle_type_id":"4","last_reported":1733911881,"current_range_meters":2000,"station_id":"ce4bhr92rcd13ifvqhrg","pricing_plan_id":"cebpf4jnsgd1na2vs0mg"},{"bike_id":"5236d717-d6a6-4c64-a48e-cc5ce69e6ef0","system_id":"levelo_inurba_marseille","lat":43.29615,"lon":5.37728,"is_reserved":false,"is_disabled":false,"rental_uris":{"android":"levelo://app?vid=5236d717-d6a6-4c64-a48e-cc5ce69e6ef0","ios":"levelo://app?vid=5236d717-d6a6-4c64-a48e-cc5ce69e6ef0"},"vehicle_type_id":"4","last_reported":1733911881,"current_range_meters":26800,"station_id":"ce4bgi92rcd13ifvqb90","pricing_plan_id":"cebpf4jnsgd1na2vs0mg"},{"bike_id":"b83e6aae-ab57-4e0c-9ebc-385183267cb3","system_id":"levelo_inurba_marseille","lat":43.25581,"lon":5.38231,"is_reserved":false,"is_disabled":false,"rental_uris":{"android":"levelo://app?vid=b83e6aae-ab57-4e0c-9ebc-385183267cb3","ios":"levelo://app?vid=b83e6aae-ab57-4e0c-9ebc-385183267cb3"},"vehicle_type_id":"4","last_reported":1733911881,"current_range_meters":4000,"station_id":"ce4bhih2rcd13ifvqfs0","pricing_plan_id":"cebpf4jnsgd1na2vs0mg"},{"bike_id":"5f819d38-83ba-4715-8e6a-911ea72fb272","system_id":"levelo_inurba_marseille","lat":43.303125,"lon":5.369025,"is_reserved":false,"is_disabled":false,"rental_uris":{"android":"levelo://app?vid=5f819d38-83ba-4715-8e6a-911ea72fb272","ios":"levelo://app?vid=5f819d38-83ba-4715-8e6a-911ea72fb272"},"vehicle_type_id":"4","last_reported":1733911881,"current_range_meters":38800,"station_id":"ce4bgqh2rcd13ifvqc5g","pricing_plan_id":"cebpf4jnsgd1na2vs0mg"},{"bike_id":"3a1975ff-7f35-4468-b3f5-140282cf458f","system_id":"levelo_inurba_marseille","lat":43.29198,"lon":5.35799,"is_reserved":false,"is_disabled":false,"rental_uris":{"android":"levelo://app?vid=3a1975ff-7f35-4468-b3f5-140282cf458f","ios":"levelo://app?vid=3a1975ff-7f35-4468-b3f5-140282cf458f"},"vehicle_type_id":"4","last_reported":1733911881,"current_range_meters":24800,"station_id":"ce4bhb12rcd13ifvqel0","pricing_plan_id":"cebpf4jnsgd1na2vs0mg"},{"bike_id":"404b8b43-6956-4e87-a7ea-413d375da8aa","system_id":"levelo_inurba_marseille","lat":43.25118,"lon":5.40319,"is_reserved":false,"is_disabled":false,"rental_uris":{"android":"levelo://app?vid=404b8b43-6956-4e87-a7ea-413d375da8aa","ios":"levelo://app?vid=404b8b43-6956-4e87-a7ea-413d375da8aa"},"vehicle_type_id":"4","last_reported":1733911881,"current_range_meters":30000,"station_id":"ce4bhlh2rcd13ifvqgig","pricing_plan_id":"cebpf4jnsgd1na2vs0mg"},{"bike_id":"35e08bf1-05db-4166-be3b-3953cab11f62","system_id":"levelo_inurba_marseille","lat":43.29974,"lon":5.38476,"is_reserved":false,"is_disabled":false,"rental_uris":{"android":"levelo://app?vid=35e08bf1-05db-4166-be3b-3953cab11f62","ios":"levelo://app?vid=35e08bf1-05db-4166-be3b-3953cab11f62"},"vehicle_type_id":"4","last_reported":1733911881,"current_range_meters":36400,"station_id":"ce4bgj92rcd13ifvqbd0","pricing_plan_id":"cebpf4jnsgd1na2vs0mg"},{"bike_id":"ff9e9d41-6ac3-4107-a1b9-140dd11102f9","system_id":"levelo_inurba_marseille","lat":43.24158,"lon":5.36394,"is_reserved":false,"is_disabled":false,"rental_uris":{"android":"levelo://app?vid=ff9e9d41-6ac3-4107-a1b9-140dd11102f9","ios":"levelo://app?vid=ff9e9d41-6ac3-4107-a1b9-140dd11102f9"},"vehicle_type_id":"4","last_reported":1733911881,"current_range_meters":17600,"station_id":"cpo36qri1sfpv3e86is0","pricing_plan_id":"cebpf4jnsgd1na2vs0mg"},{"bike_id":"e0689805-4f3f-4465-904f-094a461e2e14","system_id":"levelo_inurba_marseille","lat":43.31224,"lon":5.36852,"is_reserved":false,"is_disabled":false,"rental_uris":{"android":"levelo://app?vid=e0689805-4f3f-4465-904f-094a461e2e14","ios":"levelo://app?vid=e0689805-4f3f-4465-904f-094a461e2e14"},"vehicle_type_id":"4","last_reported":1733911881,"current_range_meters":27200,"station_id":"ce4bgl92rcd13ifvqbq0","pricing_plan_id":"cebpf4jnsgd1na2vs0mg"},{"bike_id":"cddd1d64-70c5-4349-8d32-edda58a9a707","system_id":"levelo_inurba_marseille","lat":43.30318,"lon":5.40441,"is_reserved":false,"is_disabled":true,"rental_uris":{"android":"levelo://app?vid=cddd1d64-70c5-4349-8d32-edda58a9a707","ios":"levelo://app?vid=cddd1d64-70c5-4349-8d32-edda58a9a707"},"vehicle_type_id":"4","last_reported":1733911881,"current_range_meters":35200,"station_id":"ce4bh012rcd13ifvqd10","pricing_plan_id":"cebpf4jnsgd1na2vs0mg"},{"bike_id":"3b6eae02-5f78-4930-8331-e8a238598e1d","system_id":"levelo_inurba_marseille","lat":43.28448,"lon":5.3918,"is_reserved":false,"is_disabled":true,"rental_uris":{"android":"levelo://app?vid=3b6eae02-5f78-4930-8331-e8a238598e1d","ios":"levelo://app?vid=3b6eae02-5f78-4930-8331-e8a238598e1d"},"vehicle_type_id":"4","last_reported":1733911881,"current_range_meters":36400,"station_id":"ce4bhoh2rcd13ifvqh5g","pricing_plan_id":"cebpf4jnsgd1na2vs0mg"},{"bike_id":"60b34520-70db-46d4-a38d-00155a47bb5c","system_id":"levelo_inurba_marseille","lat":43.26063,"lon":5.39392,"is_reserved":false,"is_disabled":false,"rental_uris":{"android":"levelo://app?vid=60b34520-70db-46d4-a38d-00155a47bb5c","ios":"levelo://app?vid=60b34520-70db-46d4-a38d-00155a47bb5c"},"vehicle_type_id":"4","last_reported":1733911881,"current_range_meters":4400,"station_id":"ce4bhh92rcd13ifvqfj0","pricing_plan_id":"cebpf4jnsgd1na2vs0mg"},{"bike_id":"c8ff312d-fa2e-42ca-9722-485a68ff4148","system_id":"levelo_inurba_marseille","lat":43.25004,"lon":5.38912,"is_reserved":false,"is_disabled":false,"rental_uris":{"android":"levelo://app?vid=c8ff312d-fa2e-42ca-9722-485a68ff4148","ios":"levelo://app?vid=c8ff312d-fa2e-42ca-9722-485a68ff4148"},"vehicle_type_id":"4","last_reported":1733911881,"current_range_meters":38800,"station_id":"ce4bhgp2rcd13ifvqfd0","pricing_plan_id":"cebpf4jnsgd1na2vs0mg"},{"bike_id":"68ffa3b2-04cb-4a8e-a3a9-ef5e7c19ded2","system_id":"levelo_inurba_marseille","lat":43.3148,"lon":5.37306,"is_reserved":false,"is_disabled":true,"rental_uris":{"android":"levelo://app?vid=68ffa3b2-04cb-4a8e-a3a9-ef5e7c19ded2","ios":"levelo://app?vid=68ffa3b2-04cb-4a8e-a3a9-ef5e7c19ded2"},"vehicle_type_id":"4","last_reported":1733911881,"current_range_meters":38800,"station_id":"ce4bgt12rcd13ifvqcd0","pricing_plan_id":"cebpf4jnsgd1na2vs0mg"},{"bike_id":"a98806e3-f827-4e87-b075-9b63c101b3ff","system_id":"levelo_inurba_marseille","lat":43.27497,"lon":5.42454,"is_reserved":false,"is_disabled":false,"rental_uris":{"android":"levelo://app?vid=a98806e3-f827-4e87-b075-9b63c101b3ff","ios":"levelo://app?vid=a98806e3-f827-4e87-b075-9b63c101b3ff"},"vehicle_type_id":"4","last_reported":1733911881,"current_range_meters":32000,"station_id":"ce4bhn92rcd13ifvqgrg","pricing_plan_id":"cebpf4jnsgd1na2vs0mg"},{"bike_id":"b811f1ab-706f-4401-ac3b-f6d92af104c6","system_id":"levelo_inurba_marseille","lat":43.278805,"lon":5.388003,"is_reserved":false,"is_disabled":true,"rental_uris":{"android":"levelo://app?vid=b811f1ab-706f-4401-ac3b-f6d92af104c6","ios":"levelo://app?vid=b811f1ab-706f-4401-ac3b-f6d92af104c6"},"vehicle_type_id":"4","last_reported":1733911881,"current_range_meters":0,"station_id":"","pricing_plan_id":"cebpf4jnsgd1na2vs0mg"},{"bike_id":"bb50c7a0-b42f-41e3-8786-238867b73d94","system_id":"levelo_inurba_marseille","lat":43.29447,"lon":5.39761,"is_reserved":false,"is_disabled":true,"rental_uris":{"android":"levelo://app?vid=bb50c7a0-b42f-41e3-8786-238867b73d94","ios":"levelo://app?vid=bb50c7a0-b42f-41e3-8786-238867b73d94"},"vehicle_type_id":"4","last_reported":1733911881,"current_range_meters":2000,"station_id":"ce4bh3h2rcd13ifvqdo0","pricing_plan_id":"cebpf4jnsgd1na2vs0mg"},{"bike_id":"4ed68ff0-853c-4794-bc9a-25248ad98efe","system_id":"levelo_inurba_marseille","lat":43.30468,"lon":5.40186,"is_reserved":false,"is_disabled":false,"rental_uris":{"android":"levelo://app?vid=4ed68ff0-853c-4794-bc9a-25248ad98efe","ios":"levelo://app?vid=4ed68ff0-853c-4794-bc9a-25248ad98efe"},"vehicle_type_id":"4","last_reported":1733911881,"current_range_meters":23200,"station_id":"","pricing_plan_id":"cebpf4jnsgd1na2vs0mg"},{"bike_id":"c3400d19-38e7-46e8-9a8b-85169a9d81a7","system_id":"levelo_inurba_marseille","lat":43.28489,"lon":5.38428,"is_reserved":false,"is_disabled":true,"rental_uris":{"android":"levelo://app?vid=c3400d19-38e7-46e8-9a8b-85169a9d81a7","ios":"levelo://app?vid=c3400d19-38e7-46e8-9a8b-85169a9d81a7"},"vehicle_type_id":"4","last_reported":1733911881,"current_range_meters":0,"station_id":"ce4bh512rcd13ifvqe3g","pricing_plan_id":"cebpf4jnsgd1na2vs0mg"},{"bike_id":"8d2bae4e-84a5-44f0-b71a-aaa0d6985ae8","system_id":"levelo_inurba_marseille","lat":43.30516,"lon":5.36536,"is_reserved":false,"is_disabled":true,"rental_uris":{"android":"levelo://app?vid=8d2bae4e-84a5-44f0-b71a-aaa0d6985ae8","ios":"levelo://app?vid=8d2bae4e-84a5-44f0-b71a-aaa0d6985ae8"},"vehicle_type_id":"4","last_reported":1733911881,"current_range_meters":0,"station_id":"","pricing_plan_id":"cebpf4jnsgd1na2vs0mg"},{"bike_id":"a2275747-8111-48b6-9e36-288fda275392","system_id":"levelo_inurba_marseille","lat":43.3049,"lon":5.3792,"is_reserved":false,"is_disabled":false,"rental_uris":{"android":"levelo://app?vid=a2275747-8111-48b6-9e36-288fda275392","ios":"levelo://app?vid=a2275747-8111-48b6-9e36-288fda275392"},"vehicle_type_id":"4","last_reported":1733911881,"current_range_meters":31200,"station_id":"ce4bgup2rcd13ifvqcn0","pricing_plan_id":"cebpf4jnsgd1na2vs0mg"},{"bike_id":"fcff6ef7-94ad-4cc4-a93c-defdb216c3cf","system_id":"levelo_inurba_marseille","lat":43.30533,"lon":5.36531,"is_reserved":false,"is_disabled":false,"rental_uris":{"android":"levelo://app?vid=fcff6ef7-94ad-4cc4-a93c-defdb216c3cf","ios":"levelo://app?vid=fcff6ef7-94ad-4cc4-a93c-defdb216c3cf"},"vehicle_type_id":"4","last_reported":1733911881,"current_range_meters":39200,"station_id":"ce4bgs12rcd13ifvqcag","pricing_plan_id":"cebpf4jnsgd1na2vs0mg"},{"bike_id":"7d22986a-6a0c-40c4-b0c3-c2f86c36f305","system_id":"levelo_inurba_marseille","lat":43.297363,"lon":5.368788,"is_reserved":false,"is_disabled":false,"rental_uris":{"android":"levelo://app?vid=7d22986a-6a0c-40c4-b0c3-c2f86c36f305","ios":"levelo://app?vid=7d22986a-6a0c-40c4-b0c3-c2f86c36f305"},"vehicle_type_id":"4","last_reported":1733911881,"current_range_meters":11200,"station_id":"ce4bgn12rcd13ifvqbt0","pricing_plan_id":"cebpf4jnsgd1na2vs0mg"},{"bike_id":"808b9b71-43e4-446d-820c-9a8d5c89fb2d","system_id":"levelo_inurba_marseille","lat":43.27971,"lon":5.38756,"is_reserved":false,"is_disabled":false,"rental_uris":{"android":"levelo://app?vid=808b9b71-43e4-446d-820c-9a8d5c89fb2d","ios":"levelo://app?vid=808b9b71-43e4-446d-820c-9a8d5c89fb2d"},"vehicle_type_id":"4","last_reported":1733911881,"current_range_meters":20800,"station_id":"ce4bhg12rcd13ifvqf80","pricing_plan_id":"cebpf4jnsgd1na2vs0mg"},{"bike_id":"c45b3f9d-18a1-4c86-a1e2-db559d23cac1","system_id":"levelo_inurba_marseille","lat":43.23141,"lon":5.43706,"is_reserved":false,"is_disabled":false,"rental_uris":{"android":"levelo://app?vid=c45b3f9d-18a1-4c86-a1e2-db559d23cac1","ios":"levelo://app?vid=c45b3f9d-18a1-4c86-a1e2-db559d23cac1"},"vehicle_type_id":"4","last_reported":1733911881,"current_range_meters":38800,"station_id":"ce4bhmp2rcd13ifvqgog","pricing_plan_id":"cebpf4jnsgd1na2vs0mg"},{"bike_id":"acf28fa7-005b-43aa-adfe-e63f8f398e5c","system_id":"levelo_inurba_marseille","lat":43.28608,"lon":5.35104,"is_reserved":false,"is_disabled":false,"rental_uris":{"android":"levelo://app?vid=acf28fa7-005b-43aa-adfe-e63f8f398e5c","ios":"levelo://app?vid=acf28fa7-005b-43aa-adfe-e63f8f398e5c"},"vehicle_type_id":"4","last_reported":1733911881,"current_range_meters":9600,"station_id":"ce4bhch2rcd13ifvqeug","pricing_plan_id":"cebpf4jnsgd1na2vs0mg"},{"bike_id":"071074ee-9c3f-46b5-aff1-1c557efed0ad","system_id":"levelo_inurba_marseille","lat":43.304748,"lon":5.37898,"is_reserved":false,"is_disabled":false,"rental_uris":{"android":"levelo://app?vid=071074ee-9c3f-46b5-aff1-1c557efed0ad","ios":"levelo://app?vid=071074ee-9c3f-46b5-aff1-1c557efed0ad"},"vehicle_type_id":"4","last_reported":1733911881,"current_range_meters":39200,"station_id":"ce4bgup2rcd13ifvqcn0","pricing_plan_id":"cebpf4jnsgd1na2vs0mg"},{"bike_id":"7996855b-2b74-488a-a3e3-4b9a4213412a","system_id":"levelo_inurba_marseille","lat":43.30466,"lon":5.379,"is_reserved":false,"is_disabled":false,"rental_uris":{"android":"levelo://app?vid=7996855b-2b74-488a-a3e3-4b9a4213412a","ios":"levelo://app?vid=7996855b-2b74-488a-a3e3-4b9a4213412a"},"vehicle_type_id":"4","last_reported":1733911881,"current_range_meters":33600,"station_id":"ce4bgup2rcd13ifvqcn0","pricing_plan_id":"cebpf4jnsgd1na2vs0mg"},{"bike_id":"aaa68f32-fc68-4373-a313-6b8429bc0daf","system_id":"levelo_inurba_marseille","lat":43.30537,"lon":5.36514,"is_reserved":false,"is_disabled":false,"rental_uris":{"android":"levelo://app?vid=aaa68f32-fc68-4373-a313-6b8429bc0daf","ios":"levelo://app?vid=aaa68f32-fc68-4373-a313-6b8429bc0daf"},"vehicle_type_id":"4","last_reported":1733911881,"current_range_meters":38800,"station_id":"ce4bgs12rcd13ifvqcag","pricing_plan_id":"cebpf4jnsgd1na2vs0mg"},{"bike_id":"a21895a3-728c-4723-be4c-596319d652a4","system_id":"levelo_inurba_marseille","lat":43.29576,"lon":5.37503,"is_reserved":false,"is_disabled":true,"rental_uris":{"android":"levelo://app?vid=a21895a3-728c-4723-be4c-596319d652a4","ios":"levelo://app?vid=a21895a3-728c-4723-be4c-596319d652a4"},"vehicle_type_id":"4","last_reported":1733911881,"current_range_meters":33600,"station_id":"ce4bgh92rcd13ifvqb50","pricing_plan_id":"cebpf4jnsgd1na2vs0mg"},{"bike_id":"9ae17f67-8253-472c-a8e3-dc4b0fd95898","system_id":"levelo_inurba_marseille","lat":43.30283,"lon":5.37695,"is_reserved":false,"is_disabled":false,"rental_uris":{"android":"levelo://app?vid=9ae17f67-8253-472c-a8e3-dc4b0fd95898","ios":"levelo://app?vid=9ae17f67-8253-472c-a8e3-dc4b0fd95898"},"vehicle_type_id":"4","last_reported":1733911881,"current_range_meters":36800,"station_id":"ce4bguh2rcd13ifvqcj0","pricing_plan_id":"cebpf4jnsgd1na2vs0mg"},{"bike_id":"94f52d26-2e60-4187-92c9-84ffc5d33945","system_id":"levelo_inurba_marseille","lat":43.24644,"lon":5.38887,"is_reserved":false,"is_disabled":false,"rental_uris":{"android":"levelo://app?vid=94f52d26-2e60-4187-92c9-84ffc5d33945","ios":"levelo://app?vid=94f52d26-2e60-4187-92c9-84ffc5d33945"},"vehicle_type_id":"4","last_reported":1733911881,"current_range_meters":29600,"station_id":"ce4bhg12rcd13ifvqf60","pricing_plan_id":"cebpf4jnsgd1na2vs0mg"},{"bike_id":"bb767bca-fa8a-445b-bd67-752d2acda430","system_id":"levelo_inurba_marseille","lat":43.32294,"lon":5.3826,"is_reserved":false,"is_disabled":false,"rental_uris":{"android":"levelo://app?vid=bb767bca-fa8a-445b-bd67-752d2acda430","ios":"levelo://app?vid=bb767bca-fa8a-445b-bd67-752d2acda430"},"vehicle_type_id":"4","last_reported":1733911881,"current_range_meters":38800,"station_id":"ce4bhr12rcd13ifvqhqg","pricing_plan_id":"cebpf4jnsgd1na2vs0mg"},{"bike_id":"1738578f-cdec-4d2a-b345-f8d6b4c57970","system_id":"levelo_inurba_marseille","lat":43.3254,"lon":5.41442,"is_reserved":false,"is_disabled":false,"rental_uris":{"android":"levelo://app?vid=1738578f-cdec-4d2a-b345-f8d6b4c57970","ios":"levelo://app?vid=1738578f-cdec-4d2a-b345-f8d6b4c57970"},"vehicle_type_id":"4","last_reported":1733911881,"current_range_meters":38800,"station_id":"ce4bhq12rcd13ifvqhhg","pricing_plan_id":"cebpf4jnsgd1na2vs0mg"},{"bike_id":"06eb4fc3-3d44-4896-8d12-97e829412981","system_id":"levelo_inurba_marseille","lat":43.32479,"lon":5.36552,"is_reserved":false,"is_disabled":false,"rental_uris":{"android":"levelo://app?vid=06eb4fc3-3d44-4896-8d12-97e829412981","ios":"levelo://app?vid=06eb4fc3-3d44-4896-8d12-97e829412981"},"vehicle_type_id":"4","last_reported":1733911881,"current_range_meters":29600,"station_id":"ce4bhs12rcd13ifvqhvg","pricing_plan_id":"cebpf4jnsgd1na2vs0mg"},{"bike_id":"0bd471c1-6dbc-4dd6-be7c-8edd5f7b8fff","system_id":"levelo_inurba_marseille","lat":43.2705,"lon":5.40258,"is_reserved":false,"is_disabled":false,"rental_uris":{"android":"levelo://app?vid=0bd471c1-6dbc-4dd6-be7c-8edd5f7b8fff","ios":"levelo://app?vid=0bd471c1-6dbc-4dd6-be7c-8edd5f7b8fff"},"vehicle_type_id":"4","last_reported":1733911881,"current_range_meters":3600,"station_id":"ce4bhk92rcd13ifvqgc0","pricing_plan_id":"cebpf4jnsgd1na2vs0mg"},{"bike_id":"1f11d1a3-acf7-456a-8334-9026b8797074","system_id":"levelo_inurba_marseille","lat":43.29272,"lon":5.36835,"is_reserved":false,"is_disabled":false,"rental_uris":{"android":"levelo://app?vid=1f11d1a3-acf7-456a-8334-9026b8797074","ios":"levelo://app?vid=1f11d1a3-acf7-456a-8334-9026b8797074"},"vehicle_type_id":"4","last_reported":1733911881,"current_range_meters":37600,"station_id":"ce4bhbp2rcd13ifvqesg","pricing_plan_id":"cebpf4jnsgd1na2vs0mg"},{"bike_id":"a882073b-067e-41c2-b6b6-bffb0381d516","system_id":"levelo_inurba_marseille","lat":43.29917,"lon":5.37478,"is_reserved":false,"is_disabled":false,"rental_uris":{"android":"levelo://app?vid=a882073b-067e-41c2-b6b6-bffb0381d516","ios":"levelo://app?vid=a882073b-067e-41c2-b6b6-bffb0381d516"},"vehicle_type_id":"4","last_reported":1733911881,"current_range_meters":30800,"station_id":"ce4bgjh2rcd13ifvqbg0","pricing_plan_id":"cebpf4jnsgd1na2vs0mg"},{"bike_id":"104c469d-b9ab-447f-98c8-4d84ccec329e","system_id":"levelo_inurba_marseille","lat":43.23964,"lon":5.36629,"is_reserved":false,"is_disabled":false,"rental_uris":{"android":"levelo://app?vid=104c469d-b9ab-447f-98c8-4d84ccec329e","ios":"levelo://app?vid=104c469d-b9ab-447f-98c8-4d84ccec329e"},"vehicle_type_id":"4","last_reported":1733911881,"current_range_meters":38800,"station_id":"ce4bhi12rcd13ifvqfp0","pricing_plan_id":"cebpf4jnsgd1na2vs0mg"},{"bike_id":"d5704aad-e71d-4937-99bf-7e2c757802e5","system_id":"levelo_inurba_marseille","lat":43.31358,"lon":5.3672,"is_reserved":false,"is_disabled":false,"rental_uris":{"android":"levelo://app?vid=d5704aad-e71d-4937-99bf-7e2c757802e5","ios":"levelo://app?vid=d5704aad-e71d-4937-99bf-7e2c757802e5"},"vehicle_type_id":"4","last_reported":1733911881,"current_range_meters":38800,"station_id":"ce4bgr92rcd13ifvqc6g","pricing_plan_id":"cebpf4jnsgd1na2vs0mg"},{"bike_id":"d05b079f-5d77-4ba4-8de3-e8b0948cb728","system_id":"levelo_inurba_marseille","lat":43.25585,"lon":5.38227,"is_reserved":false,"is_disabled":false,"rental_uris":{"android":"levelo://app?vid=d05b079f-5d77-4ba4-8de3-e8b0948cb728","ios":"levelo://app?vid=d05b079f-5d77-4ba4-8de3-e8b0948cb728"},"vehicle_type_id":"4","last_reported":1733911881,"current_range_meters":38000,"station_id":"ce4bhih2rcd13ifvqfs0","pricing_plan_id":"cebpf4jnsgd1na2vs0mg"},{"bike_id":"8d4d4ad3-984a-4fa0-8d4f-5ab5227d465f","system_id":"levelo_inurba_marseille","lat":43.30278,"lon":5.37703,"is_reserved":false,"is_disabled":false,"rental_uris":{"android":"levelo://app?vid=8d4d4ad3-984a-4fa0-8d4f-5ab5227d465f","ios":"levelo://app?vid=8d4d4ad3-984a-4fa0-8d4f-5ab5227d465f"},"vehicle_type_id":"4","last_reported":1733911881,"current_range_meters":20400,"station_id":"ce4bguh2rcd13ifvqcj0","pricing_plan_id":"cebpf4jnsgd1na2vs0mg"},{"bike_id":"ba66e46a-d17d-40bd-8759-00cd77a92448","system_id":"levelo_inurba_marseille","lat":43.32283,"lon":5.38262,"is_reserved":false,"is_disabled":false,"rental_uris":{"android":"levelo://app?vid=ba66e46a-d17d-40bd-8759-00cd77a92448","ios":"levelo://app?vid=ba66e46a-d17d-40bd-8759-00cd77a92448"},"vehicle_type_id":"4","last_reported":1733911881,"current_range_meters":38800,"station_id":"ce4bhr12rcd13ifvqhqg","pricing_plan_id":"cebpf4jnsgd1na2vs0mg"},{"bike_id":"e0420a91-bd43-4f24-a968-6f6107167c30","system_id":"levelo_inurba_marseille","lat":43.2603,"lon":5.3755,"is_reserved":false,"is_disabled":false,"rental_uris":{"android":"levelo://app?vid=e0420a91-bd43-4f24-a968-6f6107167c30","ios":"levelo://app?vid=e0420a91-bd43-4f24-a968-6f6107167c30"},"vehicle_type_id":"4","last_reported":1733911881,"current_range_meters":39200,"station_id":"ce4bhgh2rcd13ifvqfa0","pricing_plan_id":"cebpf4jnsgd1na2vs0mg"},{"bike_id":"a656553b-94ab-4cab-8687-599f40f9985d","system_id":"levelo_inurba_marseille","lat":43.26067,"lon":5.39385,"is_reserved":false,"is_disabled":false,"rental_uris":{"android":"levelo://app?vid=a656553b-94ab-4cab-8687-599f40f9985d","ios":"levelo://app?vid=a656553b-94ab-4cab-8687-599f40f9985d"},"vehicle_type_id":"4","last_reported":1733911881,"current_range_meters":36000,"station_id":"ce4bhh92rcd13ifvqfj0","pricing_plan_id":"cebpf4jnsgd1na2vs0mg"},{"bike_id":"c4f67178-c75a-4ec1-bd17-5a99861fa199","system_id":"levelo_inurba_marseille","lat":43.29417,"lon":5.38611,"is_reserved":false,"is_disabled":true,"rental_uris":{"android":"levelo://app?vid=c4f67178-c75a-4ec1-bd17-5a99861fa199","ios":"levelo://app?vid=c4f67178-c75a-4ec1-bd17-5a99861fa199"},"vehicle_type_id":"4","last_reported":1733911881,"current_range_meters":11600,"station_id":"ce4bh2h2rcd13ifvqdh0","pricing_plan_id":"cebpf4jnsgd1na2vs0mg"},{"bike_id":"08f4926d-464f-403c-b8af-103c2d81ddff","system_id":"levelo_inurba_marseille","lat":43.24062,"lon":5.37754,"is_reserved":false,"is_disabled":false,"rental_uris":{"android":"levelo://app?vid=08f4926d-464f-403c-b8af-103c2d81ddff","ios":"levelo://app?vid=08f4926d-464f-403c-b8af-103c2d81ddff"},"vehicle_type_id":"4","last_reported":1733911881,"current_range_meters":32400,"station_id":"ce4bhnp2rcd13ifvqgvg","pricing_plan_id":"cebpf4jnsgd1na2vs0mg"},{"bike_id":"cd8a5821-f4c7-47bc-9251-cc655a3eeb8a","system_id":"levelo_inurba_marseille","lat":43.29629,"lon":5.37698,"is_reserved":false,"is_disabled":false,"rental_uris":{"android":"levelo://app?vid=cd8a5821-f4c7-47bc-9251-cc655a3eeb8a","ios":"levelo://app?vid=cd8a5821-f4c7-47bc-9251-cc655a3eeb8a"},"vehicle_type_id":"4","last_reported":1733911881,"current_range_meters":25600,"station_id":"ce4bgi92rcd13ifvqb90","pricing_plan_id":"cebpf4jnsgd1na2vs0mg"},{"bike_id":"2b711cfc-6f93-4efc-b3a6-3c45cb3d3970","system_id":"levelo_inurba_marseille","lat":43.30472,"lon":5.37902,"is_reserved":false,"is_disabled":false,"rental_uris":{"android":"levelo://app?vid=2b711cfc-6f93-4efc-b3a6-3c45cb3d3970","ios":"levelo://app?vid=2b711cfc-6f93-4efc-b3a6-3c45cb3d3970"},"vehicle_type_id":"4","last_reported":1733911881,"current_range_meters":38400,"station_id":"ce4bgup2rcd13ifvqcn0","pricing_plan_id":"cebpf4jnsgd1na2vs0mg"},{"bike_id":"a169b0ef-2d2a-4b0c-a0c3-a21af612b077","system_id":"levelo_inurba_marseille","lat":43.30137,"lon":5.37425,"is_reserved":false,"is_disabled":false,"rental_uris":{"android":"levelo://app?vid=a169b0ef-2d2a-4b0c-a0c3-a21af612b077","ios":"levelo://app?vid=a169b0ef-2d2a-4b0c-a0c3-a21af612b077"},"vehicle_type_id":"4","last_reported":1733911881,"current_range_meters":39200,"station_id":"ce4bgs92rcd13ifvqcc0","pricing_plan_id":"cebpf4jnsgd1na2vs0mg"},{"bike_id":"3d3d5c35-e6d0-4e21-8748-230818dc7ff2","system_id":"levelo_inurba_marseille","lat":43.337444,"lon":5.374475,"is_reserved":false,"is_disabled":true,"rental_uris":{"android":"levelo://app?vid=3d3d5c35-e6d0-4e21-8748-230818dc7ff2","ios":"levelo://app?vid=3d3d5c35-e6d0-4e21-8748-230818dc7ff2"},"vehicle_type_id":"4","last_reported":1733911881,"current_range_meters":0,"station_id":"","pricing_plan_id":"cebpf4jnsgd1na2vs0mg"},{"bike_id":"18a4840e-c672-4470-9074-0b6ed9e26312","system_id":"levelo_inurba_marseille","lat":43.26024,"lon":5.37547,"is_reserved":false,"is_disabled":false,"rental_uris":{"android":"levelo://app?vid=18a4840e-c672-4470-9074-0b6ed9e26312","ios":"levelo://app?vid=18a4840e-c672-4470-9074-0b6ed9e26312"},"vehicle_type_id":"4","last_reported":1733911881,"current_range_meters":37600,"station_id":"ce4bhgh2rcd13ifvqfa0","pricing_plan_id":"cebpf4jnsgd1na2vs0mg"},{"bike_id":"4372bd0e-b607-4089-acd4-f89079d6913f","system_id":"levelo_inurba_marseille","lat":43.30948,"lon":5.39039,"is_reserved":false,"is_disabled":false,"rental_uris":{"android":"levelo://app?vid=4372bd0e-b607-4089-acd4-f89079d6913f","ios":"levelo://app?vid=4372bd0e-b607-4089-acd4-f89079d6913f"},"vehicle_type_id":"4","last_reported":1733911881,"current_range_meters":38800,"station_id":"ce4bgup2rcd13ifvqco0","pricing_plan_id":"cebpf4jnsgd1na2vs0mg"},{"bike_id":"d294215c-533d-434f-9d70-004dc6446f88","system_id":"levelo_inurba_marseille","lat":43.29535,"lon":5.37492,"is_reserved":false,"is_disabled":false,"rental_uris":{"android":"levelo://app?vid=d294215c-533d-434f-9d70-004dc6446f88","ios":"levelo://app?vid=d294215c-533d-434f-9d70-004dc6446f88"},"vehicle_type_id":"4","last_reported":1733911881,"current_range_meters":29600,"station_id":"ce4bgkp2rcd13ifvqbmg","pricing_plan_id":"cebpf4jnsgd1na2vs0mg"},{"bike_id":"b557d7d9-431c-4a75-b666-3e17a0087d7c","system_id":"levelo_inurba_marseille","lat":43.23965,"lon":5.36632,"is_reserved":false,"is_disabled":false,"rental_uris":{"android":"levelo://app?vid=b557d7d9-431c-4a75-b666-3e17a0087d7c","ios":"levelo://app?vid=b557d7d9-431c-4a75-b666-3e17a0087d7c"},"vehicle_type_id":"4","last_reported":1733911881,"current_range_meters":31200,"station_id":"ce4bhi12rcd13ifvqfp0","pricing_plan_id":"cebpf4jnsgd1na2vs0mg"},{"bike_id":"92df736c-f10d-4a3b-b6ad-c671613793fd","system_id":"levelo_inurba_marseille","lat":43.29368,"lon":5.37839,"is_reserved":false,"is_disabled":false,"rental_uris":{"android":"levelo://app?vid=92df736c-f10d-4a3b-b6ad-c671613793fd","ios":"levelo://app?vid=92df736c-f10d-4a3b-b6ad-c671613793fd"},"vehicle_type_id":"4","last_reported":1733911881,"current_range_meters":38400,"station_id":"ce4bgjh2rcd13ifvqbf0","pricing_plan_id":"cebpf4jnsgd1na2vs0mg"},{"bike_id":"103a80c1-21ad-4fa4-9d36-0f294bf28d5e","system_id":"levelo_inurba_marseille","lat":43.26208,"lon":5.37927,"is_reserved":false,"is_disabled":false,"rental_uris":{"android":"levelo://app?vid=103a80c1-21ad-4fa4-9d36-0f294bf28d5e","ios":"levelo://app?vid=103a80c1-21ad-4fa4-9d36-0f294bf28d5e"},"vehicle_type_id":"4","last_reported":1733911881,"current_range_meters":29600,"station_id":"ce4bhjp2rcd13ifvqg90","pricing_plan_id":"cebpf4jnsgd1na2vs0mg"},{"bike_id":"010148bb-10a0-4e1c-989d-ab9806861b44","system_id":"levelo_inurba_marseille","lat":43.24076,"lon":5.37749,"is_reserved":false,"is_disabled":false,"rental_uris":{"android":"levelo://app?vid=010148bb-10a0-4e1c-989d-ab9806861b44","ios":"levelo://app?vid=010148bb-10a0-4e1c-989d-ab9806861b44"},"vehicle_type_id":"4","last_reported":1733911881,"current_range_meters":34800,"station_id":"ce4bhnp2rcd13ifvqgvg","pricing_plan_id":"cebpf4jnsgd1na2vs0mg"},{"bike_id":"67a533fe-dbf8-484f-bcc9-3cd07a3430db","system_id":"levelo_inurba_marseille","lat":43.2871,"lon":5.37935,"is_reserved":false,"is_disabled":true,"rental_uris":{"android":"levelo://app?vid=67a533fe-dbf8-484f-bcc9-3cd07a3430db","ios":"levelo://app?vid=67a533fe-dbf8-484f-bcc9-3cd07a3430db"},"vehicle_type_id":"4","last_reported":1733911881,"current_range_meters":1200,"station_id":"ce4bh9p2rcd13ifvqec0","pricing_plan_id":"cebpf4jnsgd1na2vs0mg"},{"bike_id":"c0c8aa30-cbb2-4864-a1ff-de357491d6e4","system_id":"levelo_inurba_marseille","lat":43.27068,"lon":5.4228,"is_reserved":false,"is_disabled":false,"rental_uris":{"android":"levelo://app?vid=c0c8aa30-cbb2-4864-a1ff-de357491d6e4","ios":"levelo://app?vid=c0c8aa30-cbb2-4864-a1ff-de357491d6e4"},"vehicle_type_id":"4","last_reported":1733911881,"current_range_meters":38000,"station_id":"ce4bhk92rcd13ifvqgb0","pricing_plan_id":"cebpf4jnsgd1na2vs0mg"},{"bike_id":"c0a5882d-e82e-4fbd-9214-d49aa4c03d8f","system_id":"levelo_inurba_marseille","lat":43.27692,"lon":5.3889,"is_reserved":false,"is_disabled":false,"rental_uris":{"android":"levelo://app?vid=c0a5882d-e82e-4fbd-9214-d49aa4c03d8f","ios":"levelo://app?vid=c0a5882d-e82e-4fbd-9214-d49aa4c03d8f"},"vehicle_type_id":"4","last_reported":1733911881,"current_range_meters":38800,"station_id":"ce4bhi12rcd13ifvqfo0","pricing_plan_id":"cebpf4jnsgd1na2vs0mg"},{"bike_id":"8a92ffa7-2306-4a68-ba32-850ac7494f1b","system_id":"levelo_inurba_marseille","lat":43.29623,"lon":5.37735,"is_reserved":false,"is_disabled":false,"rental_uris":{"android":"levelo://app?vid=8a92ffa7-2306-4a68-ba32-850ac7494f1b","ios":"levelo://app?vid=8a92ffa7-2306-4a68-ba32-850ac7494f1b"},"vehicle_type_id":"4","last_reported":1733911881,"current_range_meters":7200,"station_id":"ce4bgi92rcd13ifvqb90","pricing_plan_id":"cebpf4jnsgd1na2vs0mg"},{"bike_id":"105f0aef-4a64-459e-b575-13a71ab8dd5f","system_id":"levelo_inurba_marseille","lat":43.30209,"lon":5.39464,"is_reserved":false,"is_disabled":false,"rental_uris":{"android":"levelo://app?vid=105f0aef-4a64-459e-b575-13a71ab8dd5f","ios":"levelo://app?vid=105f0aef-4a64-459e-b575-13a71ab8dd5f"},"vehicle_type_id":"4","last_reported":1733911881,"current_range_meters":37600,"station_id":"ce4bh0p2rcd13ifvqd70","pricing_plan_id":"cebpf4jnsgd1na2vs0mg"},{"bike_id":"51ae68f5-431a-45d0-9900-08d4e1a0b488","system_id":"levelo_inurba_marseille","lat":43.27555,"lon":5.4092,"is_reserved":false,"is_disabled":true,"rental_uris":{"android":"levelo://app?vid=51ae68f5-431a-45d0-9900-08d4e1a0b488","ios":"levelo://app?vid=51ae68f5-431a-45d0-9900-08d4e1a0b488"},"vehicle_type_id":"4","last_reported":1733911881,"current_range_meters":2000,"station_id":"","pricing_plan_id":"cebpf4jnsgd1na2vs0mg"},{"bike_id":"1d40ce44-bfc4-4b23-afa5-3f53eb13dc96","system_id":"levelo_inurba_marseille","lat":43.29296,"lon":5.37458,"is_reserved":false,"is_disabled":false,"rental_uris":{"android":"levelo://app?vid=1d40ce44-bfc4-4b23-afa5-3f53eb13dc96","ios":"levelo://app?vid=1d40ce44-bfc4-4b23-afa5-3f53eb13dc96"},"vehicle_type_id":"4","last_reported":1733911881,"current_range_meters":14000,"station_id":"ce4bgi12rcd13ifvqb70","pricing_plan_id":"cebpf4jnsgd1na2vs0mg"},{"bike_id":"fdaeca76-980f-49ca-9a11-656250b61670","system_id":"levelo_inurba_marseille","lat":43.29578,"lon":5.37521,"is_reserved":false,"is_disabled":false,"rental_uris":{"android":"levelo://app?vid=fdaeca76-980f-49ca-9a11-656250b61670","ios":"levelo://app?vid=fdaeca76-980f-49ca-9a11-656250b61670"},"vehicle_type_id":"4","last_reported":1733911881,"current_range_meters":16000,"station_id":"ce4bgh92rcd13ifvqb50","pricing_plan_id":"cebpf4jnsgd1na2vs0mg"},{"bike_id":"ef60c46b-bd27-4ae8-b204-16a1b31ad2a8","system_id":"levelo_inurba_marseille","lat":43.26031,"lon":5.37548,"is_reserved":false,"is_disabled":false,"rental_uris":{"android":"levelo://app?vid=ef60c46b-bd27-4ae8-b204-16a1b31ad2a8","ios":"levelo://app?vid=ef60c46b-bd27-4ae8-b204-16a1b31ad2a8"},"vehicle_type_id":"4","last_reported":1733911881,"current_range_meters":36800,"station_id":"ce4bhgh2rcd13ifvqfa0","pricing_plan_id":"cebpf4jnsgd1na2vs0mg"},{"bike_id":"e9c72e08-d257-45ae-8bd4-9d1c1ec1fa08","system_id":"levelo_inurba_marseille","lat":43.33766,"lon":5.3743,"is_reserved":false,"is_disabled":false,"rental_uris":{"android":"levelo://app?vid=e9c72e08-d257-45ae-8bd4-9d1c1ec1fa08","ios":"levelo://app?vid=e9c72e08-d257-45ae-8bd4-9d1c1ec1fa08"},"vehicle_type_id":"4","last_reported":1733911881,"current_range_meters":38800,"station_id":"","pricing_plan_id":"cebpf4jnsgd1na2vs0mg"},{"bike_id":"e07b6be0-7a41-4ad1-b410-96d4e5fd2f02","system_id":"levelo_inurba_marseille","lat":43.23199,"lon":5.35546,"is_reserved":false,"is_disabled":false,"rental_uris":{"android":"levelo://app?vid=e07b6be0-7a41-4ad1-b410-96d4e5fd2f02","ios":"levelo://app?vid=e07b6be0-7a41-4ad1-b410-96d4e5fd2f02"},"vehicle_type_id":"4","last_reported":1733911881,"current_range_meters":38400,"station_id":"ce4bhu92rcd13ifvqi70","pricing_plan_id":"cebpf4jnsgd1na2vs0mg"},{"bike_id":"b97727ba-5c45-46b9-bb0d-7a5b43568d3a","system_id":"levelo_inurba_marseille","lat":43.24074,"lon":5.3774,"is_reserved":false,"is_disabled":false,"rental_uris":{"android":"levelo://app?vid=b97727ba-5c45-46b9-bb0d-7a5b43568d3a","ios":"levelo://app?vid=b97727ba-5c45-46b9-bb0d-7a5b43568d3a"},"vehicle_type_id":"4","last_reported":1733911881,"current_range_meters":32000,"station_id":"ce4bhnp2rcd13ifvqgvg","pricing_plan_id":"cebpf4jnsgd1na2vs0mg"},{"bike_id":"d481d02b-8004-45c6-aeac-8832a2e514ea","system_id":"levelo_inurba_marseille","lat":43.24649,"lon":5.3889,"is_reserved":false,"is_disabled":false,"rental_uris":{"android":"levelo://app?vid=d481d02b-8004-45c6-aeac-8832a2e514ea","ios":"levelo://app?vid=d481d02b-8004-45c6-aeac-8832a2e514ea"},"vehicle_type_id":"4","last_reported":1733911881,"current_range_meters":38800,"station_id":"ce4bhg12rcd13ifvqf60","pricing_plan_id":"cebpf4jnsgd1na2vs0mg"},{"bike_id":"97e32785-9796-4350-a252-f3ee62f2c478","system_id":"levelo_inurba_marseille","lat":43.31376,"lon":5.36728,"is_reserved":false,"is_disabled":false,"rental_uris":{"android":"levelo://app?vid=97e32785-9796-4350-a252-f3ee62f2c478","ios":"levelo://app?vid=97e32785-9796-4350-a252-f3ee62f2c478"},"vehicle_type_id":"4","last_reported":1733911881,"current_range_meters":38800,"station_id":"ce4bgr92rcd13ifvqc6g","pricing_plan_id":"cebpf4jnsgd1na2vs0mg"},{"bike_id":"4d35392d-44bc-42b4-a67c-42f47adad8cf","system_id":"levelo_inurba_marseille","lat":43.29802,"lon":5.38087,"is_reserved":false,"is_disabled":false,"rental_uris":{"android":"levelo://app?vid=4d35392d-44bc-42b4-a67c-42f47adad8cf","ios":"levelo://app?vid=4d35392d-44bc-42b4-a67c-42f47adad8cf"},"vehicle_type_id":"4","last_reported":1733911881,"current_range_meters":9600,"station_id":"ce4bgip2rcd13ifvqbb0","pricing_plan_id":"cebpf4jnsgd1na2vs0mg"},{"bike_id":"b3a22bc6-14f9-460d-ad03-cef69eb4dee8","system_id":"levelo_inurba_marseille","lat":43.30539,"lon":5.36546,"is_reserved":false,"is_disabled":false,"rental_uris":{"android":"levelo://app?vid=b3a22bc6-14f9-460d-ad03-cef69eb4dee8","ios":"levelo://app?vid=b3a22bc6-14f9-460d-ad03-cef69eb4dee8"},"vehicle_type_id":"4","last_reported":1733911881,"current_range_meters":36400,"station_id":"ce4bgs12rcd13ifvqcag","pricing_plan_id":"cebpf4jnsgd1na2vs0mg"},{"bike_id":"b49c4c7f-5387-490b-847b-5c6db97a98b5","system_id":"levelo_inurba_marseille","lat":43.28348,"lon":5.38104,"is_reserved":false,"is_disabled":true,"rental_uris":{"android":"levelo://app?vid=b49c4c7f-5387-490b-847b-5c6db97a98b5","ios":"levelo://app?vid=b49c4c7f-5387-490b-847b-5c6db97a98b5"},"vehicle_type_id":"4","last_reported":1733911881,"current_range_meters":26800,"station_id":"ce4bh412rcd13ifvqdr0","pricing_plan_id":"cebpf4jnsgd1na2vs0mg"},{"bike_id":"fb895c41-551f-4be9-8738-8d3671f3d7e9","system_id":"levelo_inurba_marseille","lat":43.29894,"lon":5.39747,"is_reserved":false,"is_disabled":true,"rental_uris":{"android":"levelo://app?vid=fb895c41-551f-4be9-8738-8d3671f3d7e9","ios":"levelo://app?vid=fb895c41-551f-4be9-8738-8d3671f3d7e9"},"vehicle_type_id":"4","last_reported":1733911881,"current_range_meters":38800,"station_id":"ce4bh0h2rcd13ifvqd50","pricing_plan_id":"cebpf4jnsgd1na2vs0mg"},{"bike_id":"d4310be8-220c-47d4-8653-030b2ccb4de5","system_id":"levelo_inurba_marseille","lat":43.26214,"lon":5.37444,"is_reserved":false,"is_disabled":false,"rental_uris":{"android":"levelo://app?vid=d4310be8-220c-47d4-8653-030b2ccb4de5","ios":"levelo://app?vid=d4310be8-220c-47d4-8653-030b2ccb4de5"},"vehicle_type_id":"4","last_reported":1733911881,"current_range_meters":25200,"station_id":"ce4bhgp2rcd13ifvqfc0","pricing_plan_id":"cebpf4jnsgd1na2vs0mg"},{"bike_id":"27d2430a-3f72-49a8-ad98-e1455521cc4f","system_id":"levelo_inurba_marseille","lat":43.28657,"lon":5.36347,"is_reserved":false,"is_disabled":true,"rental_uris":{"android":"levelo://app?vid=27d2430a-3f72-49a8-ad98-e1455521cc4f","ios":"levelo://app?vid=27d2430a-3f72-49a8-ad98-e1455521cc4f"},"vehicle_type_id":"4","last_reported":1733911881,"current_range_meters":38000,"station_id":"ce4bhah2rcd13ifvqej0","pricing_plan_id":"cebpf4jnsgd1na2vs0mg"},{"bike_id":"eeee2253-9b5e-4e3f-8547-f76b146165ba","system_id":"levelo_inurba_marseille","lat":43.26218,"lon":5.37447,"is_reserved":false,"is_disabled":false,"rental_uris":{"android":"levelo://app?vid=eeee2253-9b5e-4e3f-8547-f76b146165ba","ios":"levelo://app?vid=eeee2253-9b5e-4e3f-8547-f76b146165ba"},"vehicle_type_id":"4","last_reported":1733911881,"current_range_meters":38800,"station_id":"ce4bhgp2rcd13ifvqfc0","pricing_plan_id":"cebpf4jnsgd1na2vs0mg"},{"bike_id":"75086e2a-f3a3-474c-b300-2b113e5ea1b3","system_id":"levelo_inurba_marseille","lat":43.33033,"lon":5.39035,"is_reserved":false,"is_disabled":false,"rental_uris":{"android":"levelo://app?vid=75086e2a-f3a3-474c-b300-2b113e5ea1b3","ios":"levelo://app?vid=75086e2a-f3a3-474c-b300-2b113e5ea1b3"},"vehicle_type_id":"4","last_reported":1733911881,"current_range_meters":14400,"station_id":"ce4bhr92rcd13ifvqhrg","pricing_plan_id":"cebpf4jnsgd1na2vs0mg"},{"bike_id":"47289081-a6db-471a-8989-f0e026c4d853","system_id":"levelo_inurba_marseille","lat":43.29289,"lon":5.37442,"is_reserved":false,"is_disabled":false,"rental_uris":{"android":"levelo://app?vid=47289081-a6db-471a-8989-f0e026c4d853","ios":"levelo://app?vid=47289081-a6db-471a-8989-f0e026c4d853"},"vehicle_type_id":"4","last_reported":1733911881,"current_range_meters":36000,"station_id":"ce4bgi12rcd13ifvqb70","pricing_plan_id":"cebpf4jnsgd1na2vs0mg"},{"bike_id":"5f6ef995-04a5-4b55-bc7a-babb45a29e24","system_id":"levelo_inurba_marseille","lat":43.279689,"lon":5.38726,"is_reserved":false,"is_disabled":false,"rental_uris":{"android":"levelo://app?vid=5f6ef995-04a5-4b55-bc7a-babb45a29e24","ios":"levelo://app?vid=5f6ef995-04a5-4b55-bc7a-babb45a29e24"},"vehicle_type_id":"4","last_reported":1733911881,"current_range_meters":34800,"station_id":"ce4bhg12rcd13ifvqf80","pricing_plan_id":"cebpf4jnsgd1na2vs0mg"},{"bike_id":"3fe17563-1e07-4a03-9bc4-cd8d7308cdaf","system_id":"levelo_inurba_marseille","lat":43.30904,"lon":5.36857,"is_reserved":false,"is_disabled":false,"rental_uris":{"android":"levelo://app?vid=3fe17563-1e07-4a03-9bc4-cd8d7308cdaf","ios":"levelo://app?vid=3fe17563-1e07-4a03-9bc4-cd8d7308cdaf"},"vehicle_type_id":"4","last_reported":1733911881,"current_range_meters":20400,"station_id":"ce4bgn92rcd13ifvqbvg","pricing_plan_id":"cebpf4jnsgd1na2vs0mg"},{"bike_id":"93b9422d-31c4-4156-ae8b-ebeabc3e89e9","system_id":"levelo_inurba_marseille","lat":43.30461,"lon":5.37905,"is_reserved":false,"is_disabled":false,"rental_uris":{"android":"levelo://app?vid=93b9422d-31c4-4156-ae8b-ebeabc3e89e9","ios":"levelo://app?vid=93b9422d-31c4-4156-ae8b-ebeabc3e89e9"},"vehicle_type_id":"4","last_reported":1733911881,"current_range_meters":25600,"station_id":"ce4bgup2rcd13ifvqcn0","pricing_plan_id":"cebpf4jnsgd1na2vs0mg"},{"bike_id":"4e46d456-975c-4b16-ac4b-c0551220f587","system_id":"levelo_inurba_marseille","lat":43.30307,"lon":5.36885,"is_reserved":false,"is_disabled":false,"rental_uris":{"android":"levelo://app?vid=4e46d456-975c-4b16-ac4b-c0551220f587","ios":"levelo://app?vid=4e46d456-975c-4b16-ac4b-c0551220f587"},"vehicle_type_id":"4","last_reported":1733911881,"current_range_meters":29600,"station_id":"ce4bgqh2rcd13ifvqc5g","pricing_plan_id":"cebpf4jnsgd1na2vs0mg"},{"bike_id":"2ab194eb-ec99-43a3-910f-22029f7ff260","system_id":"levelo_inurba_marseille","lat":43.31226,"lon":5.3686,"is_reserved":false,"is_disabled":false,"rental_uris":{"android":"levelo://app?vid=2ab194eb-ec99-43a3-910f-22029f7ff260","ios":"levelo://app?vid=2ab194eb-ec99-43a3-910f-22029f7ff260"},"vehicle_type_id":"4","last_reported":1733911881,"current_range_meters":39200,"station_id":"ce4bgl92rcd13ifvqbq0","pricing_plan_id":"cebpf4jnsgd1na2vs0mg"},{"bike_id":"6337849f-32d8-4ea3-8eb2-648e911df54c","system_id":"levelo_inurba_marseille","lat":43.32358,"lon":5.38882,"is_reserved":false,"is_disabled":true,"rental_uris":{"android":"levelo://app?vid=6337849f-32d8-4ea3-8eb2-648e911df54c","ios":"levelo://app?vid=6337849f-32d8-4ea3-8eb2-648e911df54c"},"vehicle_type_id":"4","last_reported":1733911881,"current_range_meters":2000,"station_id":"ce4bhqp2rcd13ifvqhog","pricing_plan_id":"cebpf4jnsgd1na2vs0mg"},{"bike_id":"5132be51-7a2e-401c-abbb-f1595074d947","system_id":"levelo_inurba_marseille","lat":43.324799,"lon":5.365716,"is_reserved":false,"is_disabled":true,"rental_uris":{"android":"levelo://app?vid=5132be51-7a2e-401c-abbb-f1595074d947","ios":"levelo://app?vid=5132be51-7a2e-401c-abbb-f1595074d947"},"vehicle_type_id":"4","last_reported":1733911881,"current_range_meters":0,"station_id":"","pricing_plan_id":"cebpf4jnsgd1na2vs0mg"},{"bike_id":"ac3df5ab-d05f-4aaa-b28f-8811afddde5d","system_id":"levelo_inurba_marseille","lat":43.24166,"lon":5.36397,"is_reserved":false,"is_disabled":false,"rental_uris":{"android":"levelo://app?vid=ac3df5ab-d05f-4aaa-b28f-8811afddde5d","ios":"levelo://app?vid=ac3df5ab-d05f-4aaa-b28f-8811afddde5d"},"vehicle_type_id":"4","last_reported":1733911881,"current_range_meters":26000,"station_id":"cpo36qri1sfpv3e86is0","pricing_plan_id":"cebpf4jnsgd1na2vs0mg"},{"bike_id":"38076877-5783-4698-a56b-c592cc3bc106","system_id":"levelo_inurba_marseille","lat":43.31888,"lon":5.40745,"is_reserved":false,"is_disabled":false,"rental_uris":{"android":"levelo://app?vid=38076877-5783-4698-a56b-c592cc3bc106","ios":"levelo://app?vid=38076877-5783-4698-a56b-c592cc3bc106"},"vehicle_type_id":"4","last_reported":1733911881,"current_range_meters":36400,"station_id":"ce4bhq12rcd13ifvqhig","pricing_plan_id":"cebpf4jnsgd1na2vs0mg"},{"bike_id":"88680308-1f91-4a3f-b7c5-78cb09b12929","system_id":"levelo_inurba_marseille","lat":43.24169,"lon":5.36405,"is_reserved":false,"is_disabled":false,"rental_uris":{"android":"levelo://app?vid=88680308-1f91-4a3f-b7c5-78cb09b12929","ios":"levelo://app?vid=88680308-1f91-4a3f-b7c5-78cb09b12929"},"vehicle_type_id":"4","last_reported":1733911881,"current_range_meters":33600,"station_id":"cpo36qri1sfpv3e86is0","pricing_plan_id":"cebpf4jnsgd1na2vs0mg"},{"bike_id":"25de1adf-8999-49fc-a8a6-ac1a15c9a0cd","system_id":"levelo_inurba_marseille","lat":43.2396,"lon":5.3663,"is_reserved":false,"is_disabled":false,"rental_uris":{"android":"levelo://app?vid=25de1adf-8999-49fc-a8a6-ac1a15c9a0cd","ios":"levelo://app?vid=25de1adf-8999-49fc-a8a6-ac1a15c9a0cd"},"vehicle_type_id":"4","last_reported":1733911881,"current_range_meters":22800,"station_id":"ce4bhi12rcd13ifvqfp0","pricing_plan_id":"cebpf4jnsgd1na2vs0mg"},{"bike_id":"c1e289b7-8bf7-4696-b41e-ee02f84f6aea","system_id":"levelo_inurba_marseille","lat":43.309634,"lon":5.390308,"is_reserved":false,"is_disabled":false,"rental_uris":{"android":"levelo://app?vid=c1e289b7-8bf7-4696-b41e-ee02f84f6aea","ios":"levelo://app?vid=c1e289b7-8bf7-4696-b41e-ee02f84f6aea"},"vehicle_type_id":"4","last_reported":1733911881,"current_range_meters":38000,"station_id":"ce4bgup2rcd13ifvqco0","pricing_plan_id":"cebpf4jnsgd1na2vs0mg"},{"bike_id":"b82c2c54-f0ee-4d58-a829-5d487bfe5f00","system_id":"levelo_inurba_marseille","lat":43.24646,"lon":5.38892,"is_reserved":false,"is_disabled":false,"rental_uris":{"android":"levelo://app?vid=b82c2c54-f0ee-4d58-a829-5d487bfe5f00","ios":"levelo://app?vid=b82c2c54-f0ee-4d58-a829-5d487bfe5f00"},"vehicle_type_id":"4","last_reported":1733911881,"current_range_meters":28800,"station_id":"ce4bhg12rcd13ifvqf60","pricing_plan_id":"cebpf4jnsgd1na2vs0mg"},{"bike_id":"5f60ad2c-0e52-415a-88b4-6296c1ebd3e4","system_id":"levelo_inurba_marseille","lat":43.24057,"lon":5.37756,"is_reserved":false,"is_disabled":false,"rental_uris":{"android":"levelo://app?vid=5f60ad2c-0e52-415a-88b4-6296c1ebd3e4","ios":"levelo://app?vid=5f60ad2c-0e52-415a-88b4-6296c1ebd3e4"},"vehicle_type_id":"4","last_reported":1733911881,"current_range_meters":14400,"station_id":"ce4bhnp2rcd13ifvqgvg","pricing_plan_id":"cebpf4jnsgd1na2vs0mg"},{"bike_id":"01b3f7d2-5a98-4127-8df2-aae8e125447a","system_id":"levelo_inurba_marseille","lat":43.32653,"lon":5.40991,"is_reserved":false,"is_disabled":false,"rental_uris":{"android":"levelo://app?vid=01b3f7d2-5a98-4127-8df2-aae8e125447a","ios":"levelo://app?vid=01b3f7d2-5a98-4127-8df2-aae8e125447a"},"vehicle_type_id":"4","last_reported":1733911881,"current_range_meters":38800,"station_id":"ce4bhpp2rcd13ifvqhgg","pricing_plan_id":"cebpf4jnsgd1na2vs0mg"},{"bike_id":"3188ed49-d8a3-4e3c-ba74-8984a75bbdaa","system_id":"levelo_inurba_marseille","lat":43.26952,"lon":5.38633,"is_reserved":false,"is_disabled":false,"rental_uris":{"android":"levelo://app?vid=3188ed49-d8a3-4e3c-ba74-8984a75bbdaa","ios":"levelo://app?vid=3188ed49-d8a3-4e3c-ba74-8984a75bbdaa"},"vehicle_type_id":"4","last_reported":1733911881,"current_range_meters":34000,"station_id":"ce4bhh92rcd13ifvqfh0","pricing_plan_id":"cebpf4jnsgd1na2vs0mg"},{"bike_id":"7f5c087a-e4ff-4406-838b-91c5e5cbcfbe","system_id":"levelo_inurba_marseille","lat":43.26947,"lon":5.38637,"is_reserved":false,"is_disabled":false,"rental_uris":{"android":"levelo://app?vid=7f5c087a-e4ff-4406-838b-91c5e5cbcfbe","ios":"levelo://app?vid=7f5c087a-e4ff-4406-838b-91c5e5cbcfbe"},"vehicle_type_id":"4","last_reported":1733911881,"current_range_meters":39200,"station_id":"ce4bhh92rcd13ifvqfh0","pricing_plan_id":"cebpf4jnsgd1na2vs0mg"},{"bike_id":"fb7752ff-885d-48b3-a398-0d9c859be44c","system_id":"levelo_inurba_marseille","lat":43.336072,"lon":5.410338,"is_reserved":false,"is_disabled":false,"rental_uris":{"android":"levelo://app?vid=fb7752ff-885d-48b3-a398-0d9c859be44c","ios":"levelo://app?vid=fb7752ff-885d-48b3-a398-0d9c859be44c"},"vehicle_type_id":"4","last_reported":1733911881,"current_range_meters":38800,"station_id":"ce4bhqh2rcd13ifvqhmg","pricing_plan_id":"cebpf4jnsgd1na2vs0mg"},{"bike_id":"ded56029-534b-48f1-beea-32f91baf21f7","system_id":"levelo_inurba_marseille","lat":43.23957,"lon":5.36633,"is_reserved":false,"is_disabled":false,"rental_uris":{"android":"levelo://app?vid=ded56029-534b-48f1-beea-32f91baf21f7","ios":"levelo://app?vid=ded56029-534b-48f1-beea-32f91baf21f7"},"vehicle_type_id":"4","last_reported":1733911881,"current_range_meters":38800,"station_id":"ce4bhi12rcd13ifvqfp0","pricing_plan_id":"cebpf4jnsgd1na2vs0mg"},{"bike_id":"ec27805f-4d70-4e40-ad5a-03c7168d043b","system_id":"levelo_inurba_marseille","lat":43.29584,"lon":5.36752,"is_reserved":false,"is_disabled":false,"rental_uris":{"android":"levelo://app?vid=ec27805f-4d70-4e40-ad5a-03c7168d043b","ios":"levelo://app?vid=ec27805f-4d70-4e40-ad5a-03c7168d043b"},"vehicle_type_id":"4","last_reported":1733911881,"current_range_meters":38800,"station_id":"ce4bgph2rcd13ifvqc2g","pricing_plan_id":"cebpf4jnsgd1na2vs0mg"},{"bike_id":"89b856ae-6f3c-4a4f-b1b8-5a952d2c79c9","system_id":"levelo_inurba_marseille","lat":43.30535,"lon":5.36705,"is_reserved":false,"is_disabled":false,"rental_uris":{"android":"levelo://app?vid=89b856ae-6f3c-4a4f-b1b8-5a952d2c79c9","ios":"levelo://app?vid=89b856ae-6f3c-4a4f-b1b8-5a952d2c79c9"},"vehicle_type_id":"4","last_reported":1733911881,"current_range_meters":17200,"station_id":"ce4bgrp2rcd13ifvqc9g","pricing_plan_id":"cebpf4jnsgd1na2vs0mg"},{"bike_id":"c0c7d85b-d910-4fb5-bebd-349d37c4dea7","system_id":"levelo_inurba_marseille","lat":43.30532,"lon":5.36539,"is_reserved":false,"is_disabled":false,"rental_uris":{"android":"levelo://app?vid=c0c7d85b-d910-4fb5-bebd-349d37c4dea7","ios":"levelo://app?vid=c0c7d85b-d910-4fb5-bebd-349d37c4dea7"},"vehicle_type_id":"4","last_reported":1733911881,"current_range_meters":39200,"station_id":"ce4bgs12rcd13ifvqcag","pricing_plan_id":"cebpf4jnsgd1na2vs0mg"},{"bike_id":"2602b302-082f-42cc-b994-f91e8b54159d","system_id":"levelo_inurba_marseille","lat":43.28271,"lon":5.35062,"is_reserved":false,"is_disabled":false,"rental_uris":{"android":"levelo://app?vid=2602b302-082f-42cc-b994-f91e8b54159d","ios":"levelo://app?vid=2602b302-082f-42cc-b994-f91e8b54159d"},"vehicle_type_id":"4","last_reported":1733911881,"current_range_meters":38000,"station_id":"ce4bhbp2rcd13ifvqerg","pricing_plan_id":"cebpf4jnsgd1na2vs0mg"},{"bike_id":"4230479f-775b-4f94-b0ae-2a58cdc4c2c8","system_id":"levelo_inurba_marseille","lat":43.2319,"lon":5.35565,"is_reserved":false,"is_disabled":false,"rental_uris":{"android":"levelo://app?vid=4230479f-775b-4f94-b0ae-2a58cdc4c2c8","ios":"levelo://app?vid=4230479f-775b-4f94-b0ae-2a58cdc4c2c8"},"vehicle_type_id":"4","last_reported":1733911881,"current_range_meters":20800,"station_id":"ce4bhu92rcd13ifvqi70","pricing_plan_id":"cebpf4jnsgd1na2vs0mg"},{"bike_id":"22b211fb-b1dc-499b-a5fd-9516b60bc3e2","system_id":"levelo_inurba_marseille","lat":43.30209,"lon":5.39476,"is_reserved":false,"is_disabled":false,"rental_uris":{"android":"levelo://app?vid=22b211fb-b1dc-499b-a5fd-9516b60bc3e2","ios":"levelo://app?vid=22b211fb-b1dc-499b-a5fd-9516b60bc3e2"},"vehicle_type_id":"4","last_reported":1733911881,"current_range_meters":37600,"station_id":"ce4bh0p2rcd13ifvqd70","pricing_plan_id":"cebpf4jnsgd1na2vs0mg"},{"bike_id":"e1d0895a-2e50-4080-bc8f-b1ca0e2d1eb8","system_id":"levelo_inurba_marseille","lat":43.27201,"lon":5.3918,"is_reserved":false,"is_disabled":false,"rental_uris":{"android":"levelo://app?vid=e1d0895a-2e50-4080-bc8f-b1ca0e2d1eb8","ios":"levelo://app?vid=e1d0895a-2e50-4080-bc8f-b1ca0e2d1eb8"},"vehicle_type_id":"4","last_reported":1733911881,"current_range_meters":20800,"station_id":"ce4bhhp2rcd13ifvqfm0","pricing_plan_id":"cebpf4jnsgd1na2vs0mg"},{"bike_id":"ce5bc265-bfbd-4584-8c08-2d01e553a473","system_id":"levelo_inurba_marseille","lat":43.30905,"lon":5.36843,"is_reserved":false,"is_disabled":false,"rental_uris":{"android":"levelo://app?vid=ce5bc265-bfbd-4584-8c08-2d01e553a473","ios":"levelo://app?vid=ce5bc265-bfbd-4584-8c08-2d01e553a473"},"vehicle_type_id":"4","last_reported":1733911881,"current_range_meters":31200,"station_id":"ce4bgn92rcd13ifvqbvg","pricing_plan_id":"cebpf4jnsgd1na2vs0mg"},{"bike_id":"eb6a4a94-13e2-4f22-8629-cab3b4d2f1ac","system_id":"levelo_inurba_marseille","lat":43.27209,"lon":5.39177,"is_reserved":false,"is_disabled":false,"rental_uris":{"android":"levelo://app?vid=eb6a4a94-13e2-4f22-8629-cab3b4d2f1ac","ios":"levelo://app?vid=eb6a4a94-13e2-4f22-8629-cab3b4d2f1ac"},"vehicle_type_id":"4","last_reported":1733911881,"current_range_meters":36800,"station_id":"ce4bhhp2rcd13ifvqfm0","pricing_plan_id":"cebpf4jnsgd1na2vs0mg"},{"bike_id":"13125435-ce82-43f3-8b60-63383cc8ce8e","system_id":"levelo_inurba_marseille","lat":43.30892,"lon":5.37197,"is_reserved":false,"is_disabled":false,"rental_uris":{"android":"levelo://app?vid=13125435-ce82-43f3-8b60-63383cc8ce8e","ios":"levelo://app?vid=13125435-ce82-43f3-8b60-63383cc8ce8e"},"vehicle_type_id":"4","last_reported":1733911881,"current_range_meters":38400,"station_id":"ce4bguh2rcd13ifvqckg","pricing_plan_id":"cebpf4jnsgd1na2vs0mg"},{"bike_id":"96f0edcc-19f4-4ffd-9eb3-6c9ac6a78242","system_id":"levelo_inurba_marseille","lat":43.23957,"lon":5.36625,"is_reserved":false,"is_disabled":true,"rental_uris":{"android":"levelo://app?vid=96f0edcc-19f4-4ffd-9eb3-6c9ac6a78242","ios":"levelo://app?vid=96f0edcc-19f4-4ffd-9eb3-6c9ac6a78242"},"vehicle_type_id":"4","last_reported":1733911881,"current_range_meters":28000,"station_id":"ce4bhi12rcd13ifvqfp0","pricing_plan_id":"cebpf4jnsgd1na2vs0mg"},{"bike_id":"eeb740ff-d78f-4a3c-974b-d75f5c23140c","system_id":"levelo_inurba_marseille","lat":43.26554,"lon":5.37326,"is_reserved":false,"is_disabled":false,"rental_uris":{"android":"levelo://app?vid=eeb740ff-d78f-4a3c-974b-d75f5c23140c","ios":"levelo://app?vid=eeb740ff-d78f-4a3c-974b-d75f5c23140c"},"vehicle_type_id":"4","last_reported":1733911881,"current_range_meters":28800,"station_id":"ce4bhg12rcd13ifvqf70","pricing_plan_id":"cebpf4jnsgd1na2vs0mg"},{"bike_id":"82bac905-caeb-4753-a61c-8e712b5ced34","system_id":"levelo_inurba_marseille","lat":43.24077,"lon":5.37745,"is_reserved":false,"is_disabled":false,"rental_uris":{"android":"levelo://app?vid=82bac905-caeb-4753-a61c-8e712b5ced34","ios":"levelo://app?vid=82bac905-caeb-4753-a61c-8e712b5ced34"},"vehicle_type_id":"4","last_reported":1733911881,"current_range_meters":38800,"station_id":"ce4bhnp2rcd13ifvqgvg","pricing_plan_id":"cebpf4jnsgd1na2vs0mg"},{"bike_id":"1e47f645-9789-4c1c-b502-da1717231b34","system_id":"levelo_inurba_marseille","lat":43.27998,"lon":5.44209,"is_reserved":false,"is_disabled":false,"rental_uris":{"android":"levelo://app?vid=1e47f645-9789-4c1c-b502-da1717231b34","ios":"levelo://app?vid=1e47f645-9789-4c1c-b502-da1717231b34"},"vehicle_type_id":"4","last_reported":1733911881,"current_range_meters":26800,"station_id":"","pricing_plan_id":"cebpf4jnsgd1na2vs0mg"},{"bike_id":"d42f640f-ad35-45ab-ab76-016960a6d823","system_id":"levelo_inurba_marseille","lat":43.32095,"lon":5.4155,"is_reserved":false,"is_disabled":false,"rental_uris":{"android":"levelo://app?vid=d42f640f-ad35-45ab-ab76-016960a6d823","ios":"levelo://app?vid=d42f640f-ad35-45ab-ab76-016960a6d823"},"vehicle_type_id":"4","last_reported":1733911881,"current_range_meters":38800,"station_id":"ce4bhq92rcd13ifvqhkg","pricing_plan_id":"cebpf4jnsgd1na2vs0mg"},{"bike_id":"40045b03-cf4e-41ae-8aa6-8358dde4b1a3","system_id":"levelo_inurba_marseille","lat":43.25947,"lon":5.40915,"is_reserved":false,"is_disabled":false,"rental_uris":{"android":"levelo://app?vid=40045b03-cf4e-41ae-8aa6-8358dde4b1a3","ios":"levelo://app?vid=40045b03-cf4e-41ae-8aa6-8358dde4b1a3"},"vehicle_type_id":"4","last_reported":1733911881,"current_range_meters":27200,"station_id":"ce4bhm92rcd13ifvqglg","pricing_plan_id":"cebpf4jnsgd1na2vs0mg"},{"bike_id":"9f3b982f-450c-4d50-b533-60b41da04423","system_id":"levelo_inurba_marseille","lat":43.23076,"lon":5.35502,"is_reserved":false,"is_disabled":false,"rental_uris":{"android":"levelo://app?vid=9f3b982f-450c-4d50-b533-60b41da04423","ios":"levelo://app?vid=9f3b982f-450c-4d50-b533-60b41da04423"},"vehicle_type_id":"4","last_reported":1733911881,"current_range_meters":31200,"station_id":"cpo3342slgdg3j2ifvpg","pricing_plan_id":"cebpf4jnsgd1na2vs0mg"},{"bike_id":"6f9f8a21-ad87-44b0-9529-399998ccfca0","system_id":"levelo_inurba_marseille","lat":43.293663,"lon":5.37839,"is_reserved":false,"is_disabled":false,"rental_uris":{"android":"levelo://app?vid=6f9f8a21-ad87-44b0-9529-399998ccfca0","ios":"levelo://app?vid=6f9f8a21-ad87-44b0-9529-399998ccfca0"},"vehicle_type_id":"4","last_reported":1733911881,"current_range_meters":25200,"station_id":"ce4bgjh2rcd13ifvqbf0","pricing_plan_id":"cebpf4jnsgd1na2vs0mg"},{"bike_id":"c1d64eab-9478-4b9d-b661-0ea6843dcb3f","system_id":"levelo_inurba_marseille","lat":43.25932,"lon":5.40907,"is_reserved":false,"is_disabled":false,"rental_uris":{"android":"levelo://app?vid=c1d64eab-9478-4b9d-b661-0ea6843dcb3f","ios":"levelo://app?vid=c1d64eab-9478-4b9d-b661-0ea6843dcb3f"},"vehicle_type_id":"4","last_reported":1733911881,"current_range_meters":25600,"station_id":"ce4bhm92rcd13ifvqglg","pricing_plan_id":"cebpf4jnsgd1na2vs0mg"},{"bike_id":"f113b681-6f57-41f6-bd04-6c105850549a","system_id":"levelo_inurba_marseille","lat":43.26202,"lon":5.37434,"is_reserved":false,"is_disabled":false,"rental_uris":{"android":"levelo://app?vid=f113b681-6f57-41f6-bd04-6c105850549a","ios":"levelo://app?vid=f113b681-6f57-41f6-bd04-6c105850549a"},"vehicle_type_id":"4","last_reported":1733911881,"current_range_meters":38800,"station_id":"ce4bhgp2rcd13ifvqfc0","pricing_plan_id":"cebpf4jnsgd1na2vs0mg"},{"bike_id":"eff32f2b-a6b4-42ee-ac09-8566cdf2f7f1","system_id":"levelo_inurba_marseille","lat":43.29603,"lon":5.37718,"is_reserved":false,"is_disabled":true,"rental_uris":{"android":"levelo://app?vid=eff32f2b-a6b4-42ee-ac09-8566cdf2f7f1","ios":"levelo://app?vid=eff32f2b-a6b4-42ee-ac09-8566cdf2f7f1"},"vehicle_type_id":"4","last_reported":1733911881,"current_range_meters":24400,"station_id":"ce4bgi92rcd13ifvqb90","pricing_plan_id":"cebpf4jnsgd1na2vs0mg"},{"bike_id":"f50f3e3a-8943-4be9-a8cf-da673e825f19","system_id":"levelo_inurba_marseille","lat":43.31493,"lon":5.37323,"is_reserved":false,"is_disabled":false,"rental_uris":{"android":"levelo://app?vid=f50f3e3a-8943-4be9-a8cf-da673e825f19","ios":"levelo://app?vid=f50f3e3a-8943-4be9-a8cf-da673e825f19"},"vehicle_type_id":"4","last_reported":1733911881,"current_range_meters":37600,"station_id":"ce4bgt12rcd13ifvqcd0","pricing_plan_id":"cebpf4jnsgd1na2vs0mg"},{"bike_id":"39c0db4d-67ab-468e-bca7-98afc6eaabbd","system_id":"levelo_inurba_marseille","lat":43.30949,"lon":5.39045,"is_reserved":false,"is_disabled":false,"rental_uris":{"android":"levelo://app?vid=39c0db4d-67ab-468e-bca7-98afc6eaabbd","ios":"levelo://app?vid=39c0db4d-67ab-468e-bca7-98afc6eaabbd"},"vehicle_type_id":"4","last_reported":1733911881,"current_range_meters":38800,"station_id":"ce4bgup2rcd13ifvqco0","pricing_plan_id":"cebpf4jnsgd1na2vs0mg"},{"bike_id":"42ab5a18-8ce1-4c75-8e38-dad260c09799","system_id":"levelo_inurba_marseille","lat":43.23061,"lon":5.3549,"is_reserved":false,"is_disabled":false,"rental_uris":{"android":"levelo://app?vid=42ab5a18-8ce1-4c75-8e38-dad260c09799","ios":"levelo://app?vid=42ab5a18-8ce1-4c75-8e38-dad260c09799"},"vehicle_type_id":"4","last_reported":1733911881,"current_range_meters":31200,"station_id":"cpo3342slgdg3j2ifvpg","pricing_plan_id":"cebpf4jnsgd1na2vs0mg"},{"bike_id":"cfc0f90a-7905-482d-b8e3-6ff80805b207","system_id":"levelo_inurba_marseille","lat":43.29909,"lon":5.3814,"is_reserved":false,"is_disabled":false,"rental_uris":{"android":"levelo://app?vid=cfc0f90a-7905-482d-b8e3-6ff80805b207","ios":"levelo://app?vid=cfc0f90a-7905-482d-b8e3-6ff80805b207"},"vehicle_type_id":"4","last_reported":1733911881,"current_range_meters":38000,"station_id":"ce4bgj12rcd13ifvqbc0","pricing_plan_id":"cebpf4jnsgd1na2vs0mg"},{"bike_id":"339cfd43-fce0-41e8-a9f2-26013a5e2235","system_id":"levelo_inurba_marseille","lat":43.31246,"lon":5.36881,"is_reserved":false,"is_disabled":false,"rental_uris":{"android":"levelo://app?vid=339cfd43-fce0-41e8-a9f2-26013a5e2235","ios":"levelo://app?vid=339cfd43-fce0-41e8-a9f2-26013a5e2235"},"vehicle_type_id":"4","last_reported":1733911881,"current_range_meters":25600,"station_id":"ce4bgl92rcd13ifvqbq0","pricing_plan_id":"cebpf4jnsgd1na2vs0mg"},{"bike_id":"db838eed-171b-44e7-b30e-bcc0c98a6207","system_id":"levelo_inurba_marseille","lat":43.30521,"lon":5.38138,"is_reserved":false,"is_disabled":true,"rental_uris":{"android":"levelo://app?vid=db838eed-171b-44e7-b30e-bcc0c98a6207","ios":"levelo://app?vid=db838eed-171b-44e7-b30e-bcc0c98a6207"},"vehicle_type_id":"4","last_reported":1733911881,"current_range_meters":25200,"station_id":"ce4bgup2rcd13ifvqcn0","pricing_plan_id":"cebpf4jnsgd1na2vs0mg"},{"bike_id":"b0069b27-0ae0-4a52-b54e-79bea1c695dd","system_id":"levelo_inurba_marseille","lat":43.23144,"lon":5.43706,"is_reserved":false,"is_disabled":true,"rental_uris":{"android":"levelo://app?vid=b0069b27-0ae0-4a52-b54e-79bea1c695dd","ios":"levelo://app?vid=b0069b27-0ae0-4a52-b54e-79bea1c695dd"},"vehicle_type_id":"4","last_reported":1733911881,"current_range_meters":400,"station_id":"ce4bhmp2rcd13ifvqgog","pricing_plan_id":"cebpf4jnsgd1na2vs0mg"},{"bike_id":"2f29286e-8e58-4b09-b9cb-c37bf3f43300","system_id":"levelo_inurba_marseille","lat":43.30544,"lon":5.36522,"is_reserved":false,"is_disabled":false,"rental_uris":{"android":"levelo://app?vid=2f29286e-8e58-4b09-b9cb-c37bf3f43300","ios":"levelo://app?vid=2f29286e-8e58-4b09-b9cb-c37bf3f43300"},"vehicle_type_id":"4","last_reported":1733911881,"current_range_meters":38800,"station_id":"ce4bgs12rcd13ifvqcag","pricing_plan_id":"cebpf4jnsgd1na2vs0mg"},{"bike_id":"1681aefe-18ea-4284-8dcc-3d66395c35cc","system_id":"levelo_inurba_marseille","lat":43.30135,"lon":5.37427,"is_reserved":false,"is_disabled":false,"rental_uris":{"android":"levelo://app?vid=1681aefe-18ea-4284-8dcc-3d66395c35cc","ios":"levelo://app?vid=1681aefe-18ea-4284-8dcc-3d66395c35cc"},"vehicle_type_id":"4","last_reported":1733911881,"current_range_meters":32800,"station_id":"ce4bgs92rcd13ifvqcc0","pricing_plan_id":"cebpf4jnsgd1na2vs0mg"},{"bike_id":"66264d0f-78d7-44c3-b8e8-f7ad761c9a2c","system_id":"levelo_inurba_marseille","lat":43.28578,"lon":5.39484,"is_reserved":false,"is_disabled":true,"rental_uris":{"android":"levelo://app?vid=66264d0f-78d7-44c3-b8e8-f7ad761c9a2c","ios":"levelo://app?vid=66264d0f-78d7-44c3-b8e8-f7ad761c9a2c"},"vehicle_type_id":"4","last_reported":1733911881,"current_range_meters":0,"station_id":"ce4bh292rcd13ifvqdg0","pricing_plan_id":"cebpf4jnsgd1na2vs0mg"},{"bike_id":"dc39d991-1abd-4bbc-a597-62b6f2ebe6e3","system_id":"levelo_inurba_marseille","lat":43.30536,"lon":5.36541,"is_reserved":false,"is_disabled":false,"rental_uris":{"android":"levelo://app?vid=dc39d991-1abd-4bbc-a597-62b6f2ebe6e3","ios":"levelo://app?vid=dc39d991-1abd-4bbc-a597-62b6f2ebe6e3"},"vehicle_type_id":"4","last_reported":1733911881,"current_range_meters":15200,"station_id":"ce4bgs12rcd13ifvqcag","pricing_plan_id":"cebpf4jnsgd1na2vs0mg"},{"bike_id":"dc5117eb-8cee-4268-9968-44c0855de549","system_id":"levelo_inurba_marseille","lat":43.29575,"lon":5.39976,"is_reserved":false,"is_disabled":true,"rental_uris":{"android":"levelo://app?vid=dc5117eb-8cee-4268-9968-44c0855de549","ios":"levelo://app?vid=dc5117eb-8cee-4268-9968-44c0855de549"},"vehicle_type_id":"4","last_reported":1733911881,"current_range_meters":1600,"station_id":"ce4bh312rcd13ifvqdj0","pricing_plan_id":"cebpf4jnsgd1na2vs0mg"},{"bike_id":"40bfe4f4-d98a-4324-9759-7eab80ee794d","system_id":"levelo_inurba_marseille","lat":43.25493,"lon":5.3765,"is_reserved":false,"is_disabled":false,"rental_uris":{"android":"levelo://app?vid=40bfe4f4-d98a-4324-9759-7eab80ee794d","ios":"levelo://app?vid=40bfe4f4-d98a-4324-9759-7eab80ee794d"},"vehicle_type_id":"4","last_reported":1733911881,"current_range_meters":32000,"station_id":"ce4bhh12rcd13ifvqff0","pricing_plan_id":"cebpf4jnsgd1na2vs0mg"},{"bike_id":"829c6480-de49-4340-b2e7-8a23c6fa8413","system_id":"levelo_inurba_marseille","lat":43.27495,"lon":5.42448,"is_reserved":false,"is_disabled":true,"rental_uris":{"android":"levelo://app?vid=829c6480-de49-4340-b2e7-8a23c6fa8413","ios":"levelo://app?vid=829c6480-de49-4340-b2e7-8a23c6fa8413"},"vehicle_type_id":"4","last_reported":1733911881,"current_range_meters":400,"station_id":"ce4bhn92rcd13ifvqgrg","pricing_plan_id":"cebpf4jnsgd1na2vs0mg"},{"bike_id":"b36d4a2f-7ecb-4535-a3a9-78466f331e84","system_id":"levelo_inurba_marseille","lat":43.29524,"lon":5.37492,"is_reserved":false,"is_disabled":true,"rental_uris":{"android":"levelo://app?vid=b36d4a2f-7ecb-4535-a3a9-78466f331e84","ios":"levelo://app?vid=b36d4a2f-7ecb-4535-a3a9-78466f331e84"},"vehicle_type_id":"4","last_reported":1733911881,"current_range_meters":22400,"station_id":"ce4bgkp2rcd13ifvqbmg","pricing_plan_id":"cebpf4jnsgd1na2vs0mg"},{"bike_id":"54ed9c73-c1b1-40d2-a8a0-555c6aa90a3e","system_id":"levelo_inurba_marseille","lat":43.23053,"lon":5.35498,"is_reserved":false,"is_disabled":false,"rental_uris":{"android":"levelo://app?vid=54ed9c73-c1b1-40d2-a8a0-555c6aa90a3e","ios":"levelo://app?vid=54ed9c73-c1b1-40d2-a8a0-555c6aa90a3e"},"vehicle_type_id":"4","last_reported":1733911881,"current_range_meters":22000,"station_id":"cpo3342slgdg3j2ifvpg","pricing_plan_id":"cebpf4jnsgd1na2vs0mg"},{"bike_id":"f0296270-9a69-41a7-8742-2ef83029f3c7","system_id":"levelo_inurba_marseille","lat":43.2927,"lon":5.40113,"is_reserved":false,"is_disabled":true,"rental_uris":{"android":"levelo://app?vid=f0296270-9a69-41a7-8742-2ef83029f3c7","ios":"levelo://app?vid=f0296270-9a69-41a7-8742-2ef83029f3c7"},"vehicle_type_id":"4","last_reported":1733911881,"current_range_meters":0,"station_id":"ce4bh312rcd13ifvqdk0","pricing_plan_id":"cebpf4jnsgd1na2vs0mg"},{"bike_id":"eea4c325-4976-408f-a814-88e887032028","system_id":"levelo_inurba_marseille","lat":43.27494,"lon":5.42451,"is_reserved":false,"is_disabled":false,"rental_uris":{"android":"levelo://app?vid=eea4c325-4976-408f-a814-88e887032028","ios":"levelo://app?vid=eea4c325-4976-408f-a814-88e887032028"},"vehicle_type_id":"4","last_reported":1733911881,"current_range_meters":24800,"station_id":"ce4bhn92rcd13ifvqgrg","pricing_plan_id":"cebpf4jnsgd1na2vs0mg"},{"bike_id":"b6cb8ef7-5e19-46fb-aa60-f97f2df43c5f","system_id":"levelo_inurba_marseille","lat":43.27369,"lon":5.36259,"is_reserved":false,"is_disabled":false,"rental_uris":{"android":"levelo://app?vid=b6cb8ef7-5e19-46fb-aa60-f97f2df43c5f","ios":"levelo://app?vid=b6cb8ef7-5e19-46fb-aa60-f97f2df43c5f"},"vehicle_type_id":"4","last_reported":1733911881,"current_range_meters":36000,"station_id":"ce4bhbh2rcd13ifvqeo0","pricing_plan_id":"cebpf4jnsgd1na2vs0mg"},{"bike_id":"f9cfd6a7-fdb9-499b-8b2e-e12c07a46bb5","system_id":"levelo_inurba_marseille","lat":43.24071,"lon":5.37759,"is_reserved":false,"is_disabled":false,"rental_uris":{"android":"levelo://app?vid=f9cfd6a7-fdb9-499b-8b2e-e12c07a46bb5","ios":"levelo://app?vid=f9cfd6a7-fdb9-499b-8b2e-e12c07a46bb5"},"vehicle_type_id":"4","last_reported":1733911881,"current_range_meters":23200,"station_id":"ce4bhnp2rcd13ifvqgvg","pricing_plan_id":"cebpf4jnsgd1na2vs0mg"},{"bike_id":"d7fd27eb-2de4-4152-89ce-80accd37dbf4","system_id":"levelo_inurba_marseille","lat":43.26253,"lon":5.39131,"is_reserved":false,"is_disabled":true,"rental_uris":{"android":"levelo://app?vid=d7fd27eb-2de4-4152-89ce-80accd37dbf4","ios":"levelo://app?vid=d7fd27eb-2de4-4152-89ce-80accd37dbf4"},"vehicle_type_id":"4","last_reported":1733911881,"current_range_meters":0,"station_id":"","pricing_plan_id":"cebpf4jnsgd1na2vs0mg"},{"bike_id":"4e370446-6410-45f2-b223-157aa350ab63","system_id":"levelo_inurba_marseille","lat":43.2408,"lon":5.37748,"is_reserved":false,"is_disabled":false,"rental_uris":{"android":"levelo://app?vid=4e370446-6410-45f2-b223-157aa350ab63","ios":"levelo://app?vid=4e370446-6410-45f2-b223-157aa350ab63"},"vehicle_type_id":"4","last_reported":1733911881,"current_range_meters":36000,"station_id":"ce4bhnp2rcd13ifvqgvg","pricing_plan_id":"cebpf4jnsgd1na2vs0mg"},{"bike_id":"0ff0f824-6db7-4e91-8893-01654ea0cd25","system_id":"levelo_inurba_marseille","lat":43.30275,"lon":5.37703,"is_reserved":false,"is_disabled":false,"rental_uris":{"android":"levelo://app?vid=0ff0f824-6db7-4e91-8893-01654ea0cd25","ios":"levelo://app?vid=0ff0f824-6db7-4e91-8893-01654ea0cd25"},"vehicle_type_id":"4","last_reported":1733911881,"current_range_meters":27600,"station_id":"ce4bguh2rcd13ifvqcj0","pricing_plan_id":"cebpf4jnsgd1na2vs0mg"},{"bike_id":"6d41cb9b-ac52-44da-a31b-caed77c15de7","system_id":"levelo_inurba_marseille","lat":43.309427,"lon":5.390245,"is_reserved":false,"is_disabled":false,"rental_uris":{"android":"levelo://app?vid=6d41cb9b-ac52-44da-a31b-caed77c15de7","ios":"levelo://app?vid=6d41cb9b-ac52-44da-a31b-caed77c15de7"},"vehicle_type_id":"4","last_reported":1733911881,"current_range_meters":35200,"station_id":"ce4bgup2rcd13ifvqco0","pricing_plan_id":"cebpf4jnsgd1na2vs0mg"},{"bike_id":"a48b21b3-098e-4abd-9917-79c405d545dd","system_id":"levelo_inurba_marseille","lat":43.3108,"lon":5.42433,"is_reserved":false,"is_disabled":false,"rental_uris":{"android":"levelo://app?vid=a48b21b3-098e-4abd-9917-79c405d545dd","ios":"levelo://app?vid=a48b21b3-098e-4abd-9917-79c405d545dd"},"vehicle_type_id":"4","last_reported":1733911881,"current_range_meters":6000,"station_id":"ce4bhp92rcd13ifvqhag","pricing_plan_id":"cebpf4jnsgd1na2vs0mg"},{"bike_id":"c25f23e5-62ce-4407-8af8-f0d0f4da7692","system_id":"levelo_inurba_marseille","lat":43.3015,"lon":5.38084,"is_reserved":false,"is_disabled":false,"rental_uris":{"android":"levelo://app?vid=c25f23e5-62ce-4407-8af8-f0d0f4da7692","ios":"levelo://app?vid=c25f23e5-62ce-4407-8af8-f0d0f4da7692"},"vehicle_type_id":"4","last_reported":1733911881,"current_range_meters":36800,"station_id":"ce4bgjp2rcd13ifvqbh0","pricing_plan_id":"cebpf4jnsgd1na2vs0mg"},{"bike_id":"26f934ec-bae4-4950-8b44-883734a14bdb","system_id":"levelo_inurba_marseille","lat":43.2619,"lon":5.37448,"is_reserved":false,"is_disabled":false,"rental_uris":{"android":"levelo://app?vid=26f934ec-bae4-4950-8b44-883734a14bdb","ios":"levelo://app?vid=26f934ec-bae4-4950-8b44-883734a14bdb"},"vehicle_type_id":"4","last_reported":1733911881,"current_range_meters":30800,"station_id":"ce4bhgp2rcd13ifvqfc0","pricing_plan_id":"cebpf4jnsgd1na2vs0mg"},{"bike_id":"ce582a4f-74fd-4a05-9913-48eaf74c60a1","system_id":"levelo_inurba_marseille","lat":43.32548,"lon":5.41442,"is_reserved":false,"is_disabled":false,"rental_uris":{"android":"levelo://app?vid=ce582a4f-74fd-4a05-9913-48eaf74c60a1","ios":"levelo://app?vid=ce582a4f-74fd-4a05-9913-48eaf74c60a1"},"vehicle_type_id":"4","last_reported":1733911881,"current_range_meters":32000,"station_id":"ce4bhq12rcd13ifvqhhg","pricing_plan_id":"cebpf4jnsgd1na2vs0mg"},{"bike_id":"3b6bdff0-ae6b-4e5b-ae69-e585ae315b7e","system_id":"levelo_inurba_marseille","lat":43.337444,"lon":5.374475,"is_reserved":false,"is_disabled":true,"rental_uris":{"android":"levelo://app?vid=3b6bdff0-ae6b-4e5b-ae69-e585ae315b7e","ios":"levelo://app?vid=3b6bdff0-ae6b-4e5b-ae69-e585ae315b7e"},"vehicle_type_id":"4","last_reported":1733911881,"current_range_meters":0,"station_id":"","pricing_plan_id":"cebpf4jnsgd1na2vs0mg"},{"bike_id":"6a3f813d-d5dc-40c0-a916-c8877d759720","system_id":"levelo_inurba_marseille","lat":43.26949,"lon":5.38637,"is_reserved":false,"is_disabled":false,"rental_uris":{"android":"levelo://app?vid=6a3f813d-d5dc-40c0-a916-c8877d759720","ios":"levelo://app?vid=6a3f813d-d5dc-40c0-a916-c8877d759720"},"vehicle_type_id":"4","last_reported":1733911881,"current_range_meters":8800,"station_id":"ce4bhh92rcd13ifvqfh0","pricing_plan_id":"cebpf4jnsgd1na2vs0mg"},{"bike_id":"09b0e3dd-a63d-4a4c-bcb5-26acae6e2d9e","system_id":"levelo_inurba_marseille","lat":43.29846,"lon":5.36268,"is_reserved":false,"is_disabled":false,"rental_uris":{"android":"levelo://app?vid=09b0e3dd-a63d-4a4c-bcb5-26acae6e2d9e","ios":"levelo://app?vid=09b0e3dd-a63d-4a4c-bcb5-26acae6e2d9e"},"vehicle_type_id":"4","last_reported":1733911881,"current_range_meters":38400,"station_id":"ce4bgpp2rcd13ifvqc3g","pricing_plan_id":"cebpf4jnsgd1na2vs0mg"},{"bike_id":"75444a86-f4e1-4ed1-ae73-8f0097591bc6","system_id":"levelo_inurba_marseille","lat":43.33762,"lon":5.37475,"is_reserved":false,"is_disabled":false,"rental_uris":{"android":"levelo://app?vid=75444a86-f4e1-4ed1-ae73-8f0097591bc6","ios":"levelo://app?vid=75444a86-f4e1-4ed1-ae73-8f0097591bc6"},"vehicle_type_id":"4","last_reported":1733911881,"current_range_meters":37600,"station_id":"","pricing_plan_id":"cebpf4jnsgd1na2vs0mg"},{"bike_id":"4c23dcf8-d137-4702-b840-c2fb73af0a1d","system_id":"levelo_inurba_marseille","lat":43.31355,"lon":5.36714,"is_reserved":false,"is_disabled":false,"rental_uris":{"android":"levelo://app?vid=4c23dcf8-d137-4702-b840-c2fb73af0a1d","ios":"levelo://app?vid=4c23dcf8-d137-4702-b840-c2fb73af0a1d"},"vehicle_type_id":"4","last_reported":1733911881,"current_range_meters":18800,"station_id":"ce4bgr92rcd13ifvqc6g","pricing_plan_id":"cebpf4jnsgd1na2vs0mg"},{"bike_id":"4b47492d-7ed1-4578-b676-c6c872fb7c63","system_id":"levelo_inurba_marseille","lat":43.322918,"lon":5.382602,"is_reserved":false,"is_disabled":true,"rental_uris":{"android":"levelo://app?vid=4b47492d-7ed1-4578-b676-c6c872fb7c63","ios":"levelo://app?vid=4b47492d-7ed1-4578-b676-c6c872fb7c63"},"vehicle_type_id":"4","last_reported":1733911881,"current_range_meters":16000,"station_id":"ce4bhr12rcd13ifvqhqg","pricing_plan_id":"cebpf4jnsgd1na2vs0mg"},{"bike_id":"c03db2f8-b592-47eb-87ca-dfc6f0279174","system_id":"levelo_inurba_marseille","lat":43.30216,"lon":5.39472,"is_reserved":false,"is_disabled":true,"rental_uris":{"android":"levelo://app?vid=c03db2f8-b592-47eb-87ca-dfc6f0279174","ios":"levelo://app?vid=c03db2f8-b592-47eb-87ca-dfc6f0279174"},"vehicle_type_id":"4","last_reported":1733911881,"current_range_meters":1200,"station_id":"ce4bh0p2rcd13ifvqd70","pricing_plan_id":"cebpf4jnsgd1na2vs0mg"},{"bike_id":"cf473e24-c60d-4250-b71b-77676fd6b61c","system_id":"levelo_inurba_marseille","lat":43.24076,"lon":5.37747,"is_reserved":false,"is_disabled":false,"rental_uris":{"android":"levelo://app?vid=cf473e24-c60d-4250-b71b-77676fd6b61c","ios":"levelo://app?vid=cf473e24-c60d-4250-b71b-77676fd6b61c"},"vehicle_type_id":"4","last_reported":1733911881,"current_range_meters":38000,"station_id":"ce4bhnp2rcd13ifvqgvg","pricing_plan_id":"cebpf4jnsgd1na2vs0mg"},{"bike_id":"641ed75f-02ec-4fd6-9dff-ece5624eafa7","system_id":"levelo_inurba_marseille","lat":43.26679,"lon":5.38258,"is_reserved":false,"is_disabled":false,"rental_uris":{"android":"levelo://app?vid=641ed75f-02ec-4fd6-9dff-ece5624eafa7","ios":"levelo://app?vid=641ed75f-02ec-4fd6-9dff-ece5624eafa7"},"vehicle_type_id":"4","last_reported":1733911881,"current_range_meters":38000,"station_id":"ce4bhg92rcd13ifvqf90","pricing_plan_id":"cebpf4jnsgd1na2vs0mg"},{"bike_id":"598a3f45-55fb-48ee-8279-aad11835ae0a","system_id":"levelo_inurba_marseille","lat":43.28437,"lon":5.35001,"is_reserved":false,"is_disabled":false,"rental_uris":{"android":"levelo://app?vid=598a3f45-55fb-48ee-8279-aad11835ae0a","ios":"levelo://app?vid=598a3f45-55fb-48ee-8279-aad11835ae0a"},"vehicle_type_id":"4","last_reported":1733911881,"current_range_meters":27600,"station_id":"ce4bhbh2rcd13ifvqepg","pricing_plan_id":"cebpf4jnsgd1na2vs0mg"},{"bike_id":"f5028e5e-3a50-4528-96ce-f620df4a58c5","system_id":"levelo_inurba_marseille","lat":43.24649,"lon":5.38892,"is_reserved":false,"is_disabled":false,"rental_uris":{"android":"levelo://app?vid=f5028e5e-3a50-4528-96ce-f620df4a58c5","ios":"levelo://app?vid=f5028e5e-3a50-4528-96ce-f620df4a58c5"},"vehicle_type_id":"4","last_reported":1733911881,"current_range_meters":24000,"station_id":"ce4bhg12rcd13ifvqf60","pricing_plan_id":"cebpf4jnsgd1na2vs0mg"},{"bike_id":"9f23b6b0-0059-4e61-827b-346c1b8b5a4e","system_id":"levelo_inurba_marseille","lat":43.305983,"lon":5.393665,"is_reserved":false,"is_disabled":true,"rental_uris":{"android":"levelo://app?vid=9f23b6b0-0059-4e61-827b-346c1b8b5a4e","ios":"levelo://app?vid=9f23b6b0-0059-4e61-827b-346c1b8b5a4e"},"vehicle_type_id":"4","last_reported":1733911881,"current_range_meters":1600,"station_id":"ce4bh0p2rcd13ifvqd80","pricing_plan_id":"cebpf4jnsgd1na2vs0mg"},{"bike_id":"b87413aa-619a-46f8-8a36-9199a28a35d0","system_id":"levelo_inurba_marseille","lat":43.23189,"lon":5.35545,"is_reserved":false,"is_disabled":false,"rental_uris":{"android":"levelo://app?vid=b87413aa-619a-46f8-8a36-9199a28a35d0","ios":"levelo://app?vid=b87413aa-619a-46f8-8a36-9199a28a35d0"},"vehicle_type_id":"4","last_reported":1733911881,"current_range_meters":15200,"station_id":"ce4bhu92rcd13ifvqi70","pricing_plan_id":"cebpf4jnsgd1na2vs0mg"},{"bike_id":"3f1fe00a-b15c-4a2c-9aab-94a95cbae530","system_id":"levelo_inurba_marseille","lat":43.29615,"lon":5.37711,"is_reserved":false,"is_disabled":true,"rental_uris":{"android":"levelo://app?vid=3f1fe00a-b15c-4a2c-9aab-94a95cbae530","ios":"levelo://app?vid=3f1fe00a-b15c-4a2c-9aab-94a95cbae530"},"vehicle_type_id":"4","last_reported":1733911881,"current_range_meters":10000,"station_id":"","pricing_plan_id":"cebpf4jnsgd1na2vs0mg"},{"bike_id":"8d32103c-8726-40a1-b05b-364ee5b9acac","system_id":"levelo_inurba_marseille","lat":43.337444,"lon":5.374475,"is_reserved":false,"is_disabled":false,"rental_uris":{"android":"levelo://app?vid=8d32103c-8726-40a1-b05b-364ee5b9acac","ios":"levelo://app?vid=8d32103c-8726-40a1-b05b-364ee5b9acac"},"vehicle_type_id":"4","last_reported":1733911881,"current_range_meters":38800,"station_id":"","pricing_plan_id":"cebpf4jnsgd1na2vs0mg"},{"bike_id":"31b4be0b-1b36-4d54-839b-a597e51a20c1","system_id":"levelo_inurba_marseille","lat":43.337444,"lon":5.374475,"is_reserved":false,"is_disabled":false,"rental_uris":{"android":"levelo://app?vid=31b4be0b-1b36-4d54-839b-a597e51a20c1","ios":"levelo://app?vid=31b4be0b-1b36-4d54-839b-a597e51a20c1"},"vehicle_type_id":"4","last_reported":1733911881,"current_range_meters":38800,"station_id":"ce4bhg12rcd13ifvqf80","pricing_plan_id":"cebpf4jnsgd1na2vs0mg"},{"bike_id":"e6ab4067-b28e-4931-9177-03c97319ec41","system_id":"levelo_inurba_marseille","lat":43.2947,"lon":5.37699,"is_reserved":false,"is_disabled":true,"rental_uris":{"android":"levelo://app?vid=e6ab4067-b28e-4931-9177-03c97319ec41","ios":"levelo://app?vid=e6ab4067-b28e-4931-9177-03c97319ec41"},