{"last_updated":1773995389,"ttl":60,"version":"2.2","data":{"bikes":[{"bike_id":"11eed559-0a6f-4c50-a5f5-46e0b93f41d3","system_id":"levelo_inurba_marseille","lat":43.29278,"lon":5.36834,"is_reserved":false,"is_disabled":false,"rental_uris":{"android":"levelo://app?vid=11eed559-0a6f-4c50-a5f5-46e0b93f41d3","ios":"levelo://app?vid=11eed559-0a6f-4c50-a5f5-46e0b93f41d3"},"vehicle_type_id":"4","last_reported":1773995389,"current_range_meters":2800,"station_id":"ce4bhbp2rcd13ifvqesg","pricing_plan_id":"cebpf4jnsgd1na2vs0mg"},{"bike_id":"2f0354fc-31aa-4398-9c3e-f0f50b7b2184","system_id":"levelo_inurba_marseille","lat":43.24146,"lon":5.39728,"is_reserved":false,"is_disabled":false,"rental_uris":{"android":"levelo://app?vid=2f0354fc-31aa-4398-9c3e-f0f50b7b2184","ios":"levelo://app?vid=2f0354fc-31aa-4398-9c3e-f0f50b7b2184"},"vehicle_type_id":"4","last_reported":1773995389,"current_range_meters":2800,"station_id":"ce4bhn12rcd13ifvqgpg","pricing_plan_id":"cebpf4jnsgd1na2vs0mg"},{"bike_id":"69eb8448-c0e0-496f-831c-8ada77fd31e2","system_id":"levelo_inurba_marseille","lat":43.2306,"lon":5.35487,"is_reserved":false,"is_disabled":false,"rental_uris":{"android":"levelo://app?vid=69eb8448-c0e0-496f-831c-8ada77fd31e2","ios":"levelo://app?vid=69eb8448-c0e0-496f-831c-8ada77fd31e2"},"vehicle_type_id":"4","last_reported":1773995389,"current_range_meters":2800,"station_id":"cpo3342slgdg3j2ifvpg","pricing_plan_id":"cebpf4jnsgd1na2vs0mg"},{"bike_id":"1c51670a-46e5-4a0c-9d9c-3c2806d077a8","system_id":"levelo_inurba_marseille","lat":43.29055,"lon":5.3814,"is_reserved":false,"is_disabled":true,"rental_uris":{"android":"levelo://app?vid=1c51670a-46e5-4a0c-9d9c-3c2806d077a8","ios":"levelo://app?vid=1c51670a-46e5-4a0c-9d9c-3c2806d077a8"},"vehicle_type_id":"4","last_reported":1773995389,"current_range_meters":2800,"station_id":"ce4bh512rcd13ifvqe2g","pricing_plan_id":"cebpf4jnsgd1na2vs0mg"},{"bike_id":"326041aa-dca3-4b10-8601-80dee4dd32bb","system_id":"levelo_inurba_marseille","lat":43.29448,"lon":5.43329,"is_reserved":false,"is_disabled":false,"rental_uris":{"android":"levelo://app?vid=326041aa-dca3-4b10-8601-80dee4dd32bb","ios":"levelo://app?vid=326041aa-dca3-4b10-8601-80dee4dd32bb"},"vehicle_type_id":"4","last_reported":1773995389,"current_range_meters":2800,"station_id":"","pricing_plan_id":"cebpf4jnsgd1na2vs0mg"},{"bike_id":"a424990f-3052-48e0-895c-8bd9a527cdb2","system_id":"levelo_inurba_marseille","lat":43.27966,"lon":5.41047,"is_reserved":false,"is_disabled":false,"rental_uris":{"android":"levelo://app?vid=a424990f-3052-48e0-895c-8bd9a527cdb2","ios":"levelo://app?vid=a424990f-3052-48e0-895c-8bd9a527cdb2"},"vehicle_type_id":"4","last_reported":1773995389,"current_range_meters":2800,"station_id":"ce4bhnp2rcd13ifvqh0g","pricing_plan_id":"cebpf4jnsgd1na2vs0mg"},{"bike_id":"5ca549f0-505a-4064-906b-4df4d9af1ca5","system_id":"levelo_inurba_marseille","lat":43.29363,"lon":5.37884,"is_reserved":false,"is_disabled":false,"rental_uris":{"android":"levelo://app?vid=5ca549f0-505a-4064-906b-4df4d9af1ca5","ios":"levelo://app?vid=5ca549f0-505a-4064-906b-4df4d9af1ca5"},"vehicle_type_id":"4","last_reported":1773995389,"current_range_meters":2800,"station_id":"ce4bgjh2rcd13ifvqbf0","pricing_plan_id":"cebpf4jnsgd1na2vs0mg"},{"bike_id":"0ee4ce16-829f-49ee-9a2a-4b4670dfbc6f","system_id":"levelo_inurba_marseille","lat":43.28474,"lon":5.48393,"is_reserved":false,"is_disabled":false,"rental_uris":{"android":"levelo://app?vid=0ee4ce16-829f-49ee-9a2a-4b4670dfbc6f","ios":"levelo://app?vid=0ee4ce16-829f-49ee-9a2a-4b4670dfbc6f"},"vehicle_type_id":"4","last_reported":1773995389,"current_range_meters":2800,"station_id":"st_d3svhcjqgbts73a3dn0g","pricing_plan_id":"cebpf4jnsgd1na2vs0mg"},{"bike_id":"6f0da953-2adc-429d-bb7c-360d8a3447c9","system_id":"levelo_inurba_marseille","lat":43.27458,"lon":5.41697,"is_reserved":false,"is_disabled":false,"rental_uris":{"android":"levelo://app?vid=6f0da953-2adc-429d-bb7c-360d8a3447c9","ios":"levelo://app?vid=6f0da953-2adc-429d-bb7c-360d8a3447c9"},"vehicle_type_id":"4","last_reported":1773995389,"current_range_meters":2800,"station_id":"st_d6im8g6chgec73a5pndg","pricing_plan_id":"cebpf4jnsgd1na2vs0mg"},{"bike_id":"46d5a887-e69e-4b92-9937-af16138c60d7","system_id":"levelo_inurba_marseille","lat":43.25603,"lon":5.38263,"is_reserved":false,"is_disabled":false,"rental_uris":{"android":"levelo://app?vid=46d5a887-e69e-4b92-9937-af16138c60d7","ios":"levelo://app?vid=46d5a887-e69e-4b92-9937-af16138c60d7"},"vehicle_type_id":"4","last_reported":1773995389,"current_range_meters":2800,"station_id":"ce4bhih2rcd13ifvqfs0","pricing_plan_id":"cebpf4jnsgd1na2vs0mg"},{"bike_id":"5d1e9979-c668-4065-aecd-df1d6c40419d","system_id":"levelo_inurba_marseille","lat":43.27348,"lon":5.41697,"is_reserved":false,"is_disabled":false,"rental_uris":{"android":"levelo://app?vid=5d1e9979-c668-4065-aecd-df1d6c40419d","ios":"levelo://app?vid=5d1e9979-c668-4065-aecd-df1d6c40419d"},"vehicle_type_id":"4","last_reported":1773995389,"current_range_meters":2800,"station_id":"st_d6im8g6chgec73a5pndg","pricing_plan_id":"cebpf4jnsgd1na2vs0mg"},{"bike_id":"a88ba061-565f-427b-a896-d760d40dd687","system_id":"levelo_inurba_marseille","lat":43.27423,"lon":5.394,"is_reserved":false,"is_disabled":false,"rental_uris":{"android":"levelo://app?vid=a88ba061-565f-427b-a896-d760d40dd687","ios":"levelo://app?vid=a88ba061-565f-427b-a896-d760d40dd687"},"vehicle_type_id":"4","last_reported":1773995389,"current_range_meters":2800,"station_id":"ce4bhdp2rcd13ifvqf20","pricing_plan_id":"cebpf4jnsgd1na2vs0mg"},{"bike_id":"3f5cd70c-7332-4c06-8cd6-f1e79c35bb0c","system_id":"levelo_inurba_marseille","lat":43.30366,"lon":5.4249,"is_reserved":false,"is_disabled":false,"rental_uris":{"android":"levelo://app?vid=3f5cd70c-7332-4c06-8cd6-f1e79c35bb0c","ios":"levelo://app?vid=3f5cd70c-7332-4c06-8cd6-f1e79c35bb0c"},"vehicle_type_id":"4","last_reported":1773995389,"current_range_meters":2800,"station_id":"ce4bhoh2rcd13ifvqh6g","pricing_plan_id":"cebpf4jnsgd1na2vs0mg"},{"bike_id":"e3cfd8e8-028d-4aa1-a9b0-8c56ec8d2ff4","system_id":"levelo_inurba_marseille","lat":43.29183,"lon":5.35814,"is_reserved":false,"is_disabled":false,"rental_uris":{"android":"levelo://app?vid=e3cfd8e8-028d-4aa1-a9b0-8c56ec8d2ff4","ios":"levelo://app?vid=e3cfd8e8-028d-4aa1-a9b0-8c56ec8d2ff4"},"vehicle_type_id":"4","last_reported":1773995389,"current_range_meters":3200,"station_id":"ce4bhb12rcd13ifvqel0","pricing_plan_id":"cebpf4jnsgd1na2vs0mg"},{"bike_id":"61abe7b6-a1d5-4fb1-8e97-6efff73823a7","system_id":"levelo_inurba_marseille","lat":43.23796,"lon":5.36633,"is_reserved":false,"is_disabled":true,"rental_uris":{"android":"levelo://app?vid=61abe7b6-a1d5-4fb1-8e97-6efff73823a7","ios":"levelo://app?vid=61abe7b6-a1d5-4fb1-8e97-6efff73823a7"},"vehicle_type_id":"4","last_reported":1773995389,"current_range_meters":3200,"station_id":"st_d3nk18o9ro0c73en2l3g","pricing_plan_id":"cebpf4jnsgd1na2vs0mg"},{"bike_id":"9d0dfbbd-9a03-414e-892f-3ebca1006d3c","system_id":"levelo_inurba_marseille","lat":43.29033,"lon":5.39945,"is_reserved":false,"is_disabled":false,"rental_uris":{"android":"levelo://app?vid=9d0dfbbd-9a03-414e-892f-3ebca1006d3c","ios":"levelo://app?vid=9d0dfbbd-9a03-414e-892f-3ebca1006d3c"},"vehicle_type_id":"4","last_reported":1773995389,"current_range_meters":3200,"station_id":"ce4bh392rcd13ifvqdm0","pricing_plan_id":"cebpf4jnsgd1na2vs0mg"},{"bike_id":"ed6051f8-d3e3-4dd8-b529-3dbcc1526735","system_id":"levelo_inurba_marseille","lat":43.2968,"lon":5.37285,"is_reserved":false,"is_disabled":false,"rental_uris":{"android":"levelo://app?vid=ed6051f8-d3e3-4dd8-b529-3dbcc1526735","ios":"levelo://app?vid=ed6051f8-d3e3-4dd8-b529-3dbcc1526735"},"vehicle_type_id":"4","last_reported":1773995389,"current_range_meters":3200,"station_id":"ce4bgk12rcd13ifvqbj0","pricing_plan_id":"cebpf4jnsgd1na2vs0mg"},{"bike_id":"719e9861-af82-4022-a2ea-bd7d6f00ff5f","system_id":"levelo_inurba_marseille","lat":43.28761,"lon":5.42515,"is_reserved":false,"is_disabled":true,"rental_uris":{"android":"levelo://app?vid=719e9861-af82-4022-a2ea-bd7d6f00ff5f","ios":"levelo://app?vid=719e9861-af82-4022-a2ea-bd7d6f00ff5f"},"vehicle_type_id":"4","last_reported":1773995389,"current_range_meters":3200,"station_id":"","pricing_plan_id":"cebpf4jnsgd1na2vs0mg"},{"bike_id":"cbc8599d-0f53-4276-b29f-85b323d36cb9","system_id":"levelo_inurba_marseille","lat":43.25486,"lon":5.37653,"is_reserved":false,"is_disabled":false,"rental_uris":{"android":"levelo://app?vid=cbc8599d-0f53-4276-b29f-85b323d36cb9","ios":"levelo://app?vid=cbc8599d-0f53-4276-b29f-85b323d36cb9"},"vehicle_type_id":"4","last_reported":1773995389,"current_range_meters":3200,"station_id":"ce4bhh12rcd13ifvqff0","pricing_plan_id":"cebpf4jnsgd1na2vs0mg"},{"bike_id":"8c29270d-5d11-446e-a3f0-f5c56ae9c816","system_id":"levelo_inurba_marseille","lat":43.27582,"lon":5.43282,"is_reserved":false,"is_disabled":false,"rental_uris":{"android":"levelo://app?vid=8c29270d-5d11-446e-a3f0-f5c56ae9c816","ios":"levelo://app?vid=8c29270d-5d11-446e-a3f0-f5c56ae9c816"},"vehicle_type_id":"4","last_reported":1773995389,"current_range_meters":3200,"station_id":"","pricing_plan_id":"cebpf4jnsgd1na2vs0mg"},{"bike_id":"9fc38c93-7b0d-4494-8c0f-407f4a5e4eed","system_id":"levelo_inurba_marseille","lat":43.29971,"lon":5.38501,"is_reserved":false,"is_disabled":false,"rental_uris":{"android":"levelo://app?vid=9fc38c93-7b0d-4494-8c0f-407f4a5e4eed","ios":"levelo://app?vid=9fc38c93-7b0d-4494-8c0f-407f4a5e4eed"},"vehicle_type_id":"4","last_reported":1773995389,"current_range_meters":3200,"station_id":"ce4bgj92rcd13ifvqbd0","pricing_plan_id":"cebpf4jnsgd1na2vs0mg"},{"bike_id":"82cf9b6c-bb16-4e3c-9fb4-e331ebf59e36","system_id":"levelo_inurba_marseille","lat":43.24398,"lon":5.37065,"is_reserved":false,"is_disabled":false,"rental_uris":{"android":"levelo://app?vid=82cf9b6c-bb16-4e3c-9fb4-e331ebf59e36","ios":"levelo://app?vid=82cf9b6c-bb16-4e3c-9fb4-e331ebf59e36"},"vehicle_type_id":"4","last_reported":1773995389,"current_range_meters":3200,"station_id":"ce4bhhh2rcd13ifvqfk0","pricing_plan_id":"cebpf4jnsgd1na2vs0mg"},{"bike_id":"3fd8ef50-88b4-42ca-93ad-316de6f9e9bc","system_id":"levelo_inurba_marseille","lat":43.28149,"lon":5.42647,"is_reserved":false,"is_disabled":false,"rental_uris":{"android":"levelo://app?vid=3fd8ef50-88b4-42ca-93ad-316de6f9e9bc","ios":"levelo://app?vid=3fd8ef50-88b4-42ca-93ad-316de6f9e9bc"},"vehicle_type_id":"4","last_reported":1773995389,"current_range_meters":3200,"station_id":"ce4bhnh2rcd13ifvqgug","pricing_plan_id":"cebpf4jnsgd1na2vs0mg"},{"bike_id":"caf5e45c-f3f2-43eb-99a6-b11ec33451e8","system_id":"levelo_inurba_marseille","lat":43.23967,"lon":5.3658,"is_reserved":false,"is_disabled":false,"rental_uris":{"android":"levelo://app?vid=caf5e45c-f3f2-43eb-99a6-b11ec33451e8","ios":"levelo://app?vid=caf5e45c-f3f2-43eb-99a6-b11ec33451e8"},"vehicle_type_id":"4","last_reported":1773995389,"current_range_meters":3200,"station_id":"ce4bhi12rcd13ifvqfp0","pricing_plan_id":"cebpf4jnsgd1na2vs0mg"},{"bike_id":"566c34a4-8c08-4de6-a769-04e88fa9449a","system_id":"levelo_inurba_marseille","lat":43.2932,"lon":5.37169,"is_reserved":false,"is_disabled":false,"rental_uris":{"android":"levelo://app?vid=566c34a4-8c08-4de6-a769-04e88fa9449a","ios":"levelo://app?vid=566c34a4-8c08-4de6-a769-04e88fa9449a"},"vehicle_type_id":"4","last_reported":1773995389,"current_range_meters":3200,"station_id":"ce4bgh92rcd13ifvqb40","pricing_plan_id":"cebpf4jnsgd1na2vs0mg"},{"bike_id":"daf33eda-02cf-4455-8db3-d3a9767047ae","system_id":"levelo_inurba_marseille","lat":43.30556,"lon":5.3652,"is_reserved":false,"is_disabled":true,"rental_uris":{"android":"levelo://app?vid=daf33eda-02cf-4455-8db3-d3a9767047ae","ios":"levelo://app?vid=daf33eda-02cf-4455-8db3-d3a9767047ae"},"vehicle_type_id":"4","last_reported":1773995389,"current_range_meters":3200,"station_id":"ce4bgs12rcd13ifvqcag","pricing_plan_id":"cebpf4jnsgd1na2vs0mg"},{"bike_id":"73e44213-1cd8-4593-a09e-a9c4a914a5d2","system_id":"levelo_inurba_marseille","lat":43.28483,"lon":5.4839,"is_reserved":false,"is_disabled":false,"rental_uris":{"android":"levelo://app?vid=73e44213-1cd8-4593-a09e-a9c4a914a5d2","ios":"levelo://app?vid=73e44213-1cd8-4593-a09e-a9c4a914a5d2"},"vehicle_type_id":"4","last_reported":1773995389,"current_range_meters":3200,"station_id":"st_d3svhcjqgbts73a3dn0g","pricing_plan_id":"cebpf4jnsgd1na2vs0mg"},{"bike_id":"9498c8f2-c523-43e1-b81a-8e00c3421660","system_id":"levelo_inurba_marseille","lat":43.2894,"lon":5.36638,"is_reserved":false,"is_disabled":false,"rental_uris":{"android":"levelo://app?vid=9498c8f2-c523-43e1-b81a-8e00c3421660","ios":"levelo://app?vid=9498c8f2-c523-43e1-b81a-8e00c3421660"},"vehicle_type_id":"4","last_reported":1773995389,"current_range_meters":3200,"station_id":"ce4bhap2rcd13ifvqek0","pricing_plan_id":"cebpf4jnsgd1na2vs0mg"},{"bike_id":"37b975f8-1f84-4e4b-92cd-3bedcf69760d","system_id":"levelo_inurba_marseille","lat":43.30489,"lon":5.37896,"is_reserved":false,"is_disabled":false,"rental_uris":{"android":"levelo://app?vid=37b975f8-1f84-4e4b-92cd-3bedcf69760d","ios":"levelo://app?vid=37b975f8-1f84-4e4b-92cd-3bedcf69760d"},"vehicle_type_id":"4","last_reported":1773995389,"current_range_meters":3200,"station_id":"","pricing_plan_id":"cebpf4jnsgd1na2vs0mg"},{"bike_id":"f8002e32-7d40-48f8-99b3-a631b985eba5","system_id":"levelo_inurba_marseille","lat":43.337566,"lon":5.374557,"is_reserved":false,"is_disabled":false,"rental_uris":{"android":"levelo://app?vid=f8002e32-7d40-48f8-99b3-a631b985eba5","ios":"levelo://app?vid=f8002e32-7d40-48f8-99b3-a631b985eba5"},"vehicle_type_id":"4","last_reported":1773995389,"current_range_meters":3600,"station_id":"","pricing_plan_id":"cebpf4jnsgd1na2vs0mg"},{"bike_id":"bd60a6ec-18d4-4476-ab1b-f354043c4b72","system_id":"levelo_inurba_marseille","lat":43.29794,"lon":5.42576,"is_reserved":false,"is_disabled":false,"rental_uris":{"android":"levelo://app?vid=bd60a6ec-18d4-4476-ab1b-f354043c4b72","ios":"levelo://app?vid=bd60a6ec-18d4-4476-ab1b-f354043c4b72"},"vehicle_type_id":"4","last_reported":1773995389,"current_range_meters":3600,"station_id":"","pricing_plan_id":"cebpf4jnsgd1na2vs0mg"},{"bike_id":"6680f9b2-0b47-46c5-80d8-49c606d98be0","system_id":"levelo_inurba_marseille","lat":43.30807,"lon":5.3813,"is_reserved":false,"is_disabled":false,"rental_uris":{"android":"levelo://app?vid=6680f9b2-0b47-46c5-80d8-49c606d98be0","ios":"levelo://app?vid=6680f9b2-0b47-46c5-80d8-49c606d98be0"},"vehicle_type_id":"4","last_reported":1773995389,"current_range_meters":3600,"station_id":"ce4bgt12rcd13ifvqce0","pricing_plan_id":"cebpf4jnsgd1na2vs0mg"},{"bike_id":"653417a1-4b3e-4d39-9c57-a85e662a0357","system_id":"levelo_inurba_marseille","lat":43.32103,"lon":5.36782,"is_reserved":false,"is_disabled":false,"rental_uris":{"android":"levelo://app?vid=653417a1-4b3e-4d39-9c57-a85e662a0357","ios":"levelo://app?vid=653417a1-4b3e-4d39-9c57-a85e662a0357"},"vehicle_type_id":"4","last_reported":1773995389,"current_range_meters":3600,"station_id":"ce4bhrh2rcd13ifvqhug","pricing_plan_id":"cebpf4jnsgd1na2vs0mg"},{"bike_id":"d1b3007a-7e12-44d8-a4e1-56a1e49ed491","system_id":"levelo_inurba_marseille","lat":43.301172,"lon":5.387916,"is_reserved":false,"is_disabled":false,"rental_uris":{"android":"levelo://app?vid=d1b3007a-7e12-44d8-a4e1-56a1e49ed491","ios":"levelo://app?vid=d1b3007a-7e12-44d8-a4e1-56a1e49ed491"},"vehicle_type_id":"4","last_reported":1773995389,"current_range_meters":3600,"station_id":"ce4bgkh2rcd13ifvqbk0","pricing_plan_id":"cebpf4jnsgd1na2vs0mg"},{"bike_id":"acb3feac-d311-4175-82ed-f856df7ee5aa","system_id":"levelo_inurba_marseille","lat":43.29278,"lon":5.36843,"is_reserved":false,"is_disabled":false,"rental_uris":{"android":"levelo://app?vid=acb3feac-d311-4175-82ed-f856df7ee5aa","ios":"levelo://app?vid=acb3feac-d311-4175-82ed-f856df7ee5aa"},"vehicle_type_id":"4","last_reported":1773995389,"current_range_meters":3600,"station_id":"ce4bhbp2rcd13ifvqesg","pricing_plan_id":"cebpf4jnsgd1na2vs0mg"},{"bike_id":"efcab4bb-5842-4b8b-8b21-e8d671fb09bc","system_id":"levelo_inurba_marseille","lat":43.25939,"lon":5.40911,"is_reserved":false,"is_disabled":false,"rental_uris":{"android":"levelo://app?vid=efcab4bb-5842-4b8b-8b21-e8d671fb09bc","ios":"levelo://app?vid=efcab4bb-5842-4b8b-8b21-e8d671fb09bc"},"vehicle_type_id":"4","last_reported":1773995389,"current_range_meters":3600,"station_id":"ce4bhm92rcd13ifvqglg","pricing_plan_id":"cebpf4jnsgd1na2vs0mg"},{"bike_id":"23685e85-2e6b-430a-8538-93756884e731","system_id":"levelo_inurba_marseille","lat":43.26554,"lon":5.37288,"is_reserved":false,"is_disabled":false,"rental_uris":{"android":"levelo://app?vid=23685e85-2e6b-430a-8538-93756884e731","ios":"levelo://app?vid=23685e85-2e6b-430a-8538-93756884e731"},"vehicle_type_id":"4","last_reported":1773995389,"current_range_meters":3600,"station_id":"ce4bhg12rcd13ifvqf70","pricing_plan_id":"cebpf4jnsgd1na2vs0mg"},{"bike_id":"56ce235d-0ec9-464a-9249-461ae17cba36","system_id":"levelo_inurba_marseille","lat":43.29843,"lon":5.36268,"is_reserved":false,"is_disabled":false,"rental_uris":{"android":"levelo://app?vid=56ce235d-0ec9-464a-9249-461ae17cba36","ios":"levelo://app?vid=56ce235d-0ec9-464a-9249-461ae17cba36"},"vehicle_type_id":"4","last_reported":1773995389,"current_range_meters":3600,"station_id":"ce4bgpp2rcd13ifvqc3g","pricing_plan_id":"cebpf4jnsgd1na2vs0mg"},{"bike_id":"ceae5790-5a8c-4302-9d8f-05d43203cb19","system_id":"levelo_inurba_marseille","lat":43.30269,"lon":5.40077,"is_reserved":false,"is_disabled":false,"rental_uris":{"android":"levelo://app?vid=ceae5790-5a8c-4302-9d8f-05d43203cb19","ios":"levelo://app?vid=ceae5790-5a8c-4302-9d8f-05d43203cb19"},"vehicle_type_id":"4","last_reported":1773995389,"current_range_meters":3600,"station_id":"ce4bgvh2rcd13ifvqcs0","pricing_plan_id":"cebpf4jnsgd1na2vs0mg"},{"bike_id":"e1fcda96-10f8-4416-a2de-b3c0381d6f12","system_id":"levelo_inurba_marseille","lat":43.27391,"lon":5.36253,"is_reserved":false,"is_disabled":true,"rental_uris":{"android":"levelo://app?vid=e1fcda96-10f8-4416-a2de-b3c0381d6f12","ios":"levelo://app?vid=e1fcda96-10f8-4416-a2de-b3c0381d6f12"},"vehicle_type_id":"4","last_reported":1773995389,"current_range_meters":3600,"station_id":"ce4bhbh2rcd13ifvqeo0","pricing_plan_id":"cebpf4jnsgd1na2vs0mg"},{"bike_id":"e8307527-0d8d-4592-b2f6-3d729566367c","system_id":"levelo_inurba_marseille","lat":43.30803,"lon":5.38158,"is_reserved":false,"is_disabled":false,"rental_uris":{"android":"levelo://app?vid=e8307527-0d8d-4592-b2f6-3d729566367c","ios":"levelo://app?vid=e8307527-0d8d-4592-b2f6-3d729566367c"},"vehicle_type_id":"4","last_reported":1773995389,"current_range_meters":3600,"station_id":"ce4bgt12rcd13ifvqce0","pricing_plan_id":"cebpf4jnsgd1na2vs0mg"},{"bike_id":"3cdb9282-92ea-46a0-a841-f2dd988ecc68","system_id":"levelo_inurba_marseille","lat":43.22941,"lon":5.35376,"is_reserved":false,"is_disabled":false,"rental_uris":{"android":"levelo://app?vid=3cdb9282-92ea-46a0-a841-f2dd988ecc68","ios":"levelo://app?vid=3cdb9282-92ea-46a0-a841-f2dd988ecc68"},"vehicle_type_id":"4","last_reported":1773995389,"current_range_meters":3600,"station_id":"cpo3532slgdg3j2ikp40","pricing_plan_id":"cebpf4jnsgd1na2vs0mg"},{"bike_id":"a0ae2982-85c4-4de7-b9eb-5ab3919346ff","system_id":"levelo_inurba_marseille","lat":43.23173,"lon":5.39988,"is_reserved":false,"is_disabled":false,"rental_uris":{"android":"levelo://app?vid=a0ae2982-85c4-4de7-b9eb-5ab3919346ff","ios":"levelo://app?vid=a0ae2982-85c4-4de7-b9eb-5ab3919346ff"},"vehicle_type_id":"4","last_reported":1773995389,"current_range_meters":4000,"station_id":"ce4bhn12rcd13ifvqgqg","pricing_plan_id":"cebpf4jnsgd1na2vs0mg"},{"bike_id":"24dc1ce5-2db6-421b-869a-69d6f082b300","system_id":"levelo_inurba_marseille","lat":43.29842,"lon":5.36264,"is_reserved":false,"is_disabled":false,"rental_uris":{"android":"levelo://app?vid=24dc1ce5-2db6-421b-869a-69d6f082b300","ios":"levelo://app?vid=24dc1ce5-2db6-421b-869a-69d6f082b300"},"vehicle_type_id":"4","last_reported":1773995389,"current_range_meters":4000,"station_id":"ce4bgpp2rcd13ifvqc3g","pricing_plan_id":"cebpf4jnsgd1na2vs0mg"},{"bike_id":"6017d492-fda2-455e-90f4-a9b91fba9506","system_id":"levelo_inurba_marseille","lat":43.313349,"lon":5.367195,"is_reserved":false,"is_disabled":false,"rental_uris":{"android":"levelo://app?vid=6017d492-fda2-455e-90f4-a9b91fba9506","ios":"levelo://app?vid=6017d492-fda2-455e-90f4-a9b91fba9506"},"vehicle_type_id":"4","last_reported":1773995389,"current_range_meters":4000,"station_id":"ce4bgr92rcd13ifvqc6g","pricing_plan_id":"cebpf4jnsgd1na2vs0mg"},{"bike_id":"af71369c-c378-4f8b-b4f5-1daa49288327","system_id":"levelo_inurba_marseille","lat":43.307899,"lon":5.381569,"is_reserved":false,"is_disabled":false,"rental_uris":{"android":"levelo://app?vid=af71369c-c378-4f8b-b4f5-1daa49288327","ios":"levelo://app?vid=af71369c-c378-4f8b-b4f5-1daa49288327"},"vehicle_type_id":"4","last_reported":1773995389,"current_range_meters":4000,"station_id":"ce4bgt12rcd13ifvqce0","pricing_plan_id":"cebpf4jnsgd1na2vs0mg"},{"bike_id":"df6151be-883c-4935-9789-b73c3478f684","system_id":"levelo_inurba_marseille","lat":43.31693,"lon":5.40461,"is_reserved":false,"is_disabled":false,"rental_uris":{"android":"levelo://app?vid=df6151be-883c-4935-9789-b73c3478f684","ios":"levelo://app?vid=df6151be-883c-4935-9789-b73c3478f684"},"vehicle_type_id":"4","last_reported":1773995389,"current_range_meters":4000,"station_id":"ce4bh012rcd13ifvqd00","pricing_plan_id":"cebpf4jnsgd1na2vs0mg"},{"bike_id":"7dc32dc4-8628-48b2-96f3-5096ed6518de","system_id":"levelo_inurba_marseille","lat":43.30191,"lon":5.37484,"is_reserved":false,"is_disabled":false,"rental_uris":{"android":"levelo://app?vid=7dc32dc4-8628-48b2-96f3-5096ed6518de","ios":"levelo://app?vid=7dc32dc4-8628-48b2-96f3-5096ed6518de"},"vehicle_type_id":"4","last_reported":1773995389,"current_range_meters":4000,"station_id":"","pricing_plan_id":"cebpf4jnsgd1na2vs0mg"},{"bike_id":"17a139df-17a2-4cb5-8cdc-aa40d036a00a","system_id":"levelo_inurba_marseille","lat":43.23794,"lon":5.36628,"is_reserved":false,"is_disabled":false,"rental_uris":{"android":"levelo://app?vid=17a139df-17a2-4cb5-8cdc-aa40d036a00a","ios":"levelo://app?vid=17a139df-17a2-4cb5-8cdc-aa40d036a00a"},"vehicle_type_id":"4","last_reported":1773995389,"current_range_meters":4000,"station_id":"st_d3nk18o9ro0c73en2l3g","pricing_plan_id":"cebpf4jnsgd1na2vs0mg"},{"bike_id":"b95663f5-6897-4a1f-95c3-fb1f86d1ea73","system_id":"levelo_inurba_marseille","lat":43.305835,"lon":5.365762,"is_reserved":false,"is_disabled":false,"rental_uris":{"android":"levelo://app?vid=b95663f5-6897-4a1f-95c3-fb1f86d1ea73","ios":"levelo://app?vid=b95663f5-6897-4a1f-95c3-fb1f86d1ea73"},"vehicle_type_id":"4","last_reported":1773995389,"current_range_meters":4000,"station_id":"ce4bgs12rcd13ifvqcag","pricing_plan_id":"cebpf4jnsgd1na2vs0mg"},{"bike_id":"82a2b933-8311-4ade-a5b0-f44c84d3e05d","system_id":"levelo_inurba_marseille","lat":43.29598,"lon":5.37502,"is_reserved":false,"is_disabled":false,"rental_uris":{"android":"levelo://app?vid=82a2b933-8311-4ade-a5b0-f44c84d3e05d","ios":"levelo://app?vid=82a2b933-8311-4ade-a5b0-f44c84d3e05d"},"vehicle_type_id":"4","last_reported":1773995389,"current_range_meters":4000,"station_id":"ce4bgh92rcd13ifvqb50","pricing_plan_id":"cebpf4jnsgd1na2vs0mg"},{"bike_id":"cf21a704-d1d6-45ac-b508-b7d48f023c9f","system_id":"levelo_inurba_marseille","lat":43.32124,"lon":5.36777,"is_reserved":false,"is_disabled":false,"rental_uris":{"android":"levelo://app?vid=cf21a704-d1d6-45ac-b508-b7d48f023c9f","ios":"levelo://app?vid=cf21a704-d1d6-45ac-b508-b7d48f023c9f"},"vehicle_type_id":"4","last_reported":1773995389,"current_range_meters":4400,"station_id":"ce4bhrh2rcd13ifvqhug","pricing_plan_id":"cebpf4jnsgd1na2vs0mg"},{"bike_id":"08990703-4070-4f71-9c82-2abb5bdc847a","system_id":"levelo_inurba_marseille","lat":43.30951,"lon":5.39043,"is_reserved":false,"is_disabled":false,"rental_uris":{"android":"levelo://app?vid=08990703-4070-4f71-9c82-2abb5bdc847a","ios":"levelo://app?vid=08990703-4070-4f71-9c82-2abb5bdc847a"},"vehicle_type_id":"4","last_reported":1773995389,"current_range_meters":4400,"station_id":"ce4bgup2rcd13ifvqco0","pricing_plan_id":"cebpf4jnsgd1na2vs0mg"},{"bike_id":"75707260-728c-4931-8387-7bb087758c91","system_id":"levelo_inurba_marseille","lat":43.26395,"lon":5.41033,"is_reserved":false,"is_disabled":false,"rental_uris":{"android":"levelo://app?vid=75707260-728c-4931-8387-7bb087758c91","ios":"levelo://app?vid=75707260-728c-4931-8387-7bb087758c91"},"vehicle_type_id":"4","last_reported":1773995389,"current_range_meters":4400,"station_id":"st_d4e5ca6na9uc73bfl5fg","pricing_plan_id":"cebpf4jnsgd1na2vs0mg"},{"bike_id":"dd2f7881-755c-4593-bb3a-7ba359f1b823","system_id":"levelo_inurba_marseille","lat":43.29102,"lon":5.38144,"is_reserved":false,"is_disabled":false,"rental_uris":{"android":"levelo://app?vid=dd2f7881-755c-4593-bb3a-7ba359f1b823","ios":"levelo://app?vid=dd2f7881-755c-4593-bb3a-7ba359f1b823"},"vehicle_type_id":"4","last_reported":1773995389,"current_range_meters":4400,"station_id":"ce4bh512rcd13ifvqe2g","pricing_plan_id":"cebpf4jnsgd1na2vs0mg"},{"bike_id":"dd10efc5-28b9-436a-be78-8011941e89fc","system_id":"levelo_inurba_marseille","lat":43.28473,"lon":5.48391,"is_reserved":false,"is_disabled":false,"rental_uris":{"android":"levelo://app?vid=dd10efc5-28b9-436a-be78-8011941e89fc","ios":"levelo://app?vid=dd10efc5-28b9-436a-be78-8011941e89fc"},"vehicle_type_id":"4","last_reported":1773995389,"current_range_meters":4400,"station_id":"st_d3svhcjqgbts73a3dn0g","pricing_plan_id":"cebpf4jnsgd1na2vs0mg"},{"bike_id":"cd8e074c-5d51-42cd-b95f-935d5af10ad3","system_id":"levelo_inurba_marseille","lat":43.26686,"lon":5.38266,"is_reserved":false,"is_disabled":false,"rental_uris":{"android":"levelo://app?vid=cd8e074c-5d51-42cd-b95f-935d5af10ad3","ios":"levelo://app?vid=cd8e074c-5d51-42cd-b95f-935d5af10ad3"},"vehicle_type_id":"4","last_reported":1773995389,"current_range_meters":4400,"station_id":"ce4bhg92rcd13ifvqf90","pricing_plan_id":"cebpf4jnsgd1na2vs0mg"},{"bike_id":"47b958a5-a9e9-4494-8472-abb0f760256b","system_id":"levelo_inurba_marseille","lat":43.2378,"lon":5.36614,"is_reserved":false,"is_disabled":false,"rental_uris":{"android":"levelo://app?vid=47b958a5-a9e9-4494-8472-abb0f760256b","ios":"levelo://app?vid=47b958a5-a9e9-4494-8472-abb0f760256b"},"vehicle_type_id":"4","last_reported":1773995389,"current_range_meters":4400,"station_id":"st_d3nk18o9ro0c73en2l3g","pricing_plan_id":"cebpf4jnsgd1na2vs0mg"},{"bike_id":"13243d3c-36f1-423c-9b1a-5632aef121d8","system_id":"levelo_inurba_marseille","lat":43.337444,"lon":5.374475,"is_reserved":false,"is_disabled":false,"rental_uris":{"android":"levelo://app?vid=13243d3c-36f1-423c-9b1a-5632aef121d8","ios":"levelo://app?vid=13243d3c-36f1-423c-9b1a-5632aef121d8"},"vehicle_type_id":"4","last_reported":1773995389,"current_range_meters":4400,"station_id":"","pricing_plan_id":"cebpf4jnsgd1na2vs0mg"},{"bike_id":"3f9fb310-6fac-4137-b487-279ff0e33710","system_id":"levelo_inurba_marseille","lat":43.26042,"lon":5.37553,"is_reserved":false,"is_disabled":false,"rental_uris":{"android":"levelo://app?vid=3f9fb310-6fac-4137-b487-279ff0e33710","ios":"levelo://app?vid=3f9fb310-6fac-4137-b487-279ff0e33710"},"vehicle_type_id":"4","last_reported":1773995389,"current_range_meters":4800,"station_id":"ce4bhgh2rcd13ifvqfa0","pricing_plan_id":"cebpf4jnsgd1na2vs0mg"},{"bike_id":"24e02049-7d35-48ad-9eee-757709960f87","system_id":"levelo_inurba_marseille","lat":43.2606,"lon":5.37546,"is_reserved":false,"is_disabled":false,"rental_uris":{"android":"levelo://app?vid=24e02049-7d35-48ad-9eee-757709960f87","ios":"levelo://app?vid=24e02049-7d35-48ad-9eee-757709960f87"},"vehicle_type_id":"4","last_reported":1773995389,"current_range_meters":4800,"station_id":"ce4bhgh2rcd13ifvqfa0","pricing_plan_id":"cebpf4jnsgd1na2vs0mg"},{"bike_id":"d5f7f0bf-c4f5-45e1-bf7d-f4959ca7505e","system_id":"levelo_inurba_marseille","lat":43.24396,"lon":5.37075,"is_reserved":false,"is_disabled":false,"rental_uris":{"android":"levelo://app?vid=d5f7f0bf-c4f5-45e1-bf7d-f4959ca7505e","ios":"levelo://app?vid=d5f7f0bf-c4f5-45e1-bf7d-f4959ca7505e"},"vehicle_type_id":"4","last_reported":1773995389,"current_range_meters":4800,"station_id":"ce4bhhh2rcd13ifvqfk0","pricing_plan_id":"cebpf4jnsgd1na2vs0mg"},{"bike_id":"78beea6e-fd38-45c1-919e-297e7a3c4aab","system_id":"levelo_inurba_marseille","lat":43.28581,"lon":5.37076,"is_reserved":false,"is_disabled":false,"rental_uris":{"android":"levelo://app?vid=78beea6e-fd38-45c1-919e-297e7a3c4aab","ios":"levelo://app?vid=78beea6e-fd38-45c1-919e-297e7a3c4aab"},"vehicle_type_id":"4","last_reported":1773995389,"current_range_meters":4800,"station_id":"ce4bht12rcd13ifvqi60","pricing_plan_id":"cebpf4jnsgd1na2vs0mg"},{"bike_id":"b89d795d-1c98-46d3-9f6b-d6f260b371c3","system_id":"levelo_inurba_marseille","lat":43.31481,"lon":5.37307,"is_reserved":false,"is_disabled":false,"rental_uris":{"android":"levelo://app?vid=b89d795d-1c98-46d3-9f6b-d6f260b371c3","ios":"levelo://app?vid=b89d795d-1c98-46d3-9f6b-d6f260b371c3"},"vehicle_type_id":"4","last_reported":1773995389,"current_range_meters":4800,"station_id":"ce4bgt12rcd13ifvqcd0","pricing_plan_id":"cebpf4jnsgd1na2vs0mg"},{"bike_id":"053f8522-012b-466a-8fd2-fb4021e98000","system_id":"levelo_inurba_marseille","lat":43.27188,"lon":5.40994,"is_reserved":false,"is_disabled":false,"rental_uris":{"android":"levelo://app?vid=053f8522-012b-466a-8fd2-fb4021e98000","ios":"levelo://app?vid=053f8522-012b-466a-8fd2-fb4021e98000"},"vehicle_type_id":"4","last_reported":1773995389,"current_range_meters":4800,"station_id":"ce4bhl12rcd13ifvqgf0","pricing_plan_id":"cebpf4jnsgd1na2vs0mg"},{"bike_id":"a7589a93-7e92-46e3-9adb-33c382fc7b2d","system_id":"levelo_inurba_marseille","lat":43.23955,"lon":5.36636,"is_reserved":false,"is_disabled":false,"rental_uris":{"android":"levelo://app?vid=a7589a93-7e92-46e3-9adb-33c382fc7b2d","ios":"levelo://app?vid=a7589a93-7e92-46e3-9adb-33c382fc7b2d"},"vehicle_type_id":"4","last_reported":1773995389,"current_range_meters":4800,"station_id":"ce4bhi12rcd13ifvqfp0","pricing_plan_id":"cebpf4jnsgd1na2vs0mg"},{"bike_id":"1f852a85-29c9-4aef-ba07-18f9a7e50848","system_id":"levelo_inurba_marseille","lat":43.25006,"lon":5.38932,"is_reserved":false,"is_disabled":false,"rental_uris":{"android":"levelo://app?vid=1f852a85-29c9-4aef-ba07-18f9a7e50848","ios":"levelo://app?vid=1f852a85-29c9-4aef-ba07-18f9a7e50848"},"vehicle_type_id":"4","last_reported":1773995389,"current_range_meters":4800,"station_id":"ce4bhgp2rcd13ifvqfd0","pricing_plan_id":"cebpf4jnsgd1na2vs0mg"},{"bike_id":"47003c25-f80d-4818-ae81-494fda4842b3","system_id":"levelo_inurba_marseille","lat":43.30905,"lon":5.36845,"is_reserved":false,"is_disabled":false,"rental_uris":{"android":"levelo://app?vid=47003c25-f80d-4818-ae81-494fda4842b3","ios":"levelo://app?vid=47003c25-f80d-4818-ae81-494fda4842b3"},"vehicle_type_id":"4","last_reported":1773995389,"current_range_meters":4800,"station_id":"ce4bgn92rcd13ifvqbvg","pricing_plan_id":"cebpf4jnsgd1na2vs0mg"},{"bike_id":"501967fc-24ab-446e-9945-2eeefe2d1b4c","system_id":"levelo_inurba_marseille","lat":43.30864,"lon":5.37217,"is_reserved":false,"is_disabled":false,"rental_uris":{"android":"levelo://app?vid=501967fc-24ab-446e-9945-2eeefe2d1b4c","ios":"levelo://app?vid=501967fc-24ab-446e-9945-2eeefe2d1b4c"},"vehicle_type_id":"4","last_reported":1773995389,"current_range_meters":4800,"station_id":"","pricing_plan_id":"cebpf4jnsgd1na2vs0mg"},{"bike_id":"bb010feb-f5b5-4b1f-b5ee-90b79d5fd617","system_id":"levelo_inurba_marseille","lat":43.30304,"lon":5.39203,"is_reserved":false,"is_disabled":false,"rental_uris":{"android":"levelo://app?vid=bb010feb-f5b5-4b1f-b5ee-90b79d5fd617","ios":"levelo://app?vid=bb010feb-f5b5-4b1f-b5ee-90b79d5fd617"},"vehicle_type_id":"4","last_reported":1773995389,"current_range_meters":4800,"station_id":"ce4bgkh2rcd13ifvqbk0","pricing_plan_id":"cebpf4jnsgd1na2vs0mg"},{"bike_id":"bc010d6b-9f4d-46de-8559-466c532f3412","system_id":"levelo_inurba_marseille","lat":43.31258,"lon":5.36849,"is_reserved":false,"is_disabled":false,"rental_uris":{"android":"levelo://app?vid=bc010d6b-9f4d-46de-8559-466c532f3412","ios":"levelo://app?vid=bc010d6b-9f4d-46de-8559-466c532f3412"},"vehicle_type_id":"4","last_reported":1773995389,"current_range_meters":4800,"station_id":"ce4bgl92rcd13ifvqbq0","pricing_plan_id":"cebpf4jnsgd1na2vs0mg"},{"bike_id":"8d5674df-ab48-4722-bf79-c4299042c0a4","system_id":"levelo_inurba_marseille","lat":43.29307,"lon":5.37145,"is_reserved":false,"is_disabled":false,"rental_uris":{"android":"levelo://app?vid=8d5674df-ab48-4722-bf79-c4299042c0a4","ios":"levelo://app?vid=8d5674df-ab48-4722-bf79-c4299042c0a4"},"vehicle_type_id":"4","last_reported":1773995389,"current_range_meters":5600,"station_id":"ce4bgh92rcd13ifvqb40","pricing_plan_id":"cebpf4jnsgd1na2vs0mg"},{"bike_id":"ecdc58a3-0bca-41bd-ae51-c34318ccbeb2","system_id":"levelo_inurba_marseille","lat":43.2842,"lon":5.34973,"is_reserved":false,"is_disabled":false,"rental_uris":{"android":"levelo://app?vid=ecdc58a3-0bca-41bd-ae51-c34318ccbeb2","ios":"levelo://app?vid=ecdc58a3-0bca-41bd-ae51-c34318ccbeb2"},"vehicle_type_id":"4","last_reported":1773995389,"current_range_meters":5600,"station_id":"ce4bhbh2rcd13ifvqepg","pricing_plan_id":"cebpf4jnsgd1na2vs0mg"},{"bike_id":"711352dd-0699-46f3-9a17-d04b3688b2e7","system_id":"levelo_inurba_marseille","lat":43.30141,"lon":5.38077,"is_reserved":false,"is_disabled":false,"rental_uris":{"android":"levelo://app?vid=711352dd-0699-46f3-9a17-d04b3688b2e7","ios":"levelo://app?vid=711352dd-0699-46f3-9a17-d04b3688b2e7"},"vehicle_type_id":"4","last_reported":1773995389,"current_range_meters":5600,"station_id":"ce4bgjp2rcd13ifvqbh0","pricing_plan_id":"cebpf4jnsgd1na2vs0mg"},{"bike_id":"ce9a6f3f-4235-49b6-8387-dc351cf490b0","system_id":"levelo_inurba_marseille","lat":43.28854,"lon":5.39328,"is_reserved":false,"is_disabled":true,"rental_uris":{"android":"levelo://app?vid=ce9a6f3f-4235-49b6-8387-dc351cf490b0","ios":"levelo://app?vid=ce9a6f3f-4235-49b6-8387-dc351cf490b0"},"vehicle_type_id":"4","last_reported":1773995389,"current_range_meters":5600,"station_id":"ce4bh2p2rcd13ifvqdi0","pricing_plan_id":"cebpf4jnsgd1na2vs0mg"},{"bike_id":"b5e77e3b-05f2-48a6-adb9-46808171c2f2","system_id":"levelo_inurba_marseille","lat":43.27305,"lon":5.39114,"is_reserved":false,"is_disabled":false,"rental_uris":{"android":"levelo://app?vid=b5e77e3b-05f2-48a6-adb9-46808171c2f2","ios":"levelo://app?vid=b5e77e3b-05f2-48a6-adb9-46808171c2f2"},"vehicle_type_id":"4","last_reported":1773995389,"current_range_meters":5600,"station_id":"ce4bhgp2rcd13ifvqfe0","pricing_plan_id":"cebpf4jnsgd1na2vs0mg"},{"bike_id":"d51fe815-5335-4e1f-8e42-efe91c7e85aa","system_id":"levelo_inurba_marseille","lat":43.22931,"lon":5.3538,"is_reserved":false,"is_disabled":false,"rental_uris":{"android":"levelo://app?vid=d51fe815-5335-4e1f-8e42-efe91c7e85aa","ios":"levelo://app?vid=d51fe815-5335-4e1f-8e42-efe91c7e85aa"},"vehicle_type_id":"4","last_reported":1773995389,"current_range_meters":5600,"station_id":"cpo3532slgdg3j2ikp40","pricing_plan_id":"cebpf4jnsgd1na2vs0mg"},{"bike_id":"be523ae7-f0fc-4e2a-970b-30a3029fa717","system_id":"levelo_inurba_marseille","lat":43.28481,"lon":5.48394,"is_reserved":false,"is_disabled":false,"rental_uris":{"android":"levelo://app?vid=be523ae7-f0fc-4e2a-970b-30a3029fa717","ios":"levelo://app?vid=be523ae7-f0fc-4e2a-970b-30a3029fa717"},"vehicle_type_id":"4","last_reported":1773995389,"current_range_meters":5600,"station_id":"st_d3svhcjqgbts73a3dn0g","pricing_plan_id":"cebpf4jnsgd1na2vs0mg"},{"bike_id":"15750178-4f9b-426f-bafa-493e04eb7e36","system_id":"levelo_inurba_marseille","lat":43.308,"lon":5.40665,"is_reserved":false,"is_disabled":false,"rental_uris":{"android":"levelo://app?vid=15750178-4f9b-426f-bafa-493e04eb7e36","ios":"levelo://app?vid=15750178-4f9b-426f-bafa-493e04eb7e36"},"vehicle_type_id":"4","last_reported":1773995389,"current_range_meters":5600,"station_id":"","pricing_plan_id":"cebpf4jnsgd1na2vs0mg"},{"bike_id":"27cfd7f2-48c6-4fe4-9d82-e5b76120df75","system_id":"levelo_inurba_marseille","lat":43.29815,"lon":5.44071,"is_reserved":false,"is_disabled":false,"rental_uris":{"android":"levelo://app?vid=27cfd7f2-48c6-4fe4-9d82-e5b76120df75","ios":"levelo://app?vid=27cfd7f2-48c6-4fe4-9d82-e5b76120df75"},"vehicle_type_id":"4","last_reported":1773995389,"current_range_meters":6000,"station_id":"st_d3jp68qikq2c7381ktn0","pricing_plan_id":"cebpf4jnsgd1na2vs0mg"},{"bike_id":"7cc424d0-4757-4807-9d38-ef81e442e1f0","system_id":"levelo_inurba_marseille","lat":43.29046,"lon":5.3994,"is_reserved":false,"is_disabled":false,"rental_uris":{"android":"levelo://app?vid=7cc424d0-4757-4807-9d38-ef81e442e1f0","ios":"levelo://app?vid=7cc424d0-4757-4807-9d38-ef81e442e1f0"},"vehicle_type_id":"4","last_reported":1773995389,"current_range_meters":6000,"station_id":"ce4bh392rcd13ifvqdm0","pricing_plan_id":"cebpf4jnsgd1na2vs0mg"},{"bike_id":"9083b64c-9df9-44ed-95a6-7fe8603be4f3","system_id":"levelo_inurba_marseille","lat":43.29268,"lon":5.36847,"is_reserved":false,"is_disabled":false,"rental_uris":{"android":"levelo://app?vid=9083b64c-9df9-44ed-95a6-7fe8603be4f3","ios":"levelo://app?vid=9083b64c-9df9-44ed-95a6-7fe8603be4f3"},"vehicle_type_id":"4","last_reported":1773995389,"current_range_meters":6000,"station_id":"ce4bhbp2rcd13ifvqesg","pricing_plan_id":"cebpf4jnsgd1na2vs0mg"},{"bike_id":"fa3fef4a-7158-420b-ae72-95575b87e45e","system_id":"levelo_inurba_marseille","lat":43.28624,"lon":5.35113,"is_reserved":false,"is_disabled":false,"rental_uris":{"android":"levelo://app?vid=fa3fef4a-7158-420b-ae72-95575b87e45e","ios":"levelo://app?vid=fa3fef4a-7158-420b-ae72-95575b87e45e"},"vehicle_type_id":"4","last_reported":1773995389,"current_range_meters":6000,"station_id":"ce4bhch2rcd13ifvqeug","pricing_plan_id":"cebpf4jnsgd1na2vs0mg"},{"bike_id":"52f6a6b9-7af9-4956-b458-baf5061e66bf","system_id":"levelo_inurba_marseille","lat":43.23327,"lon":5.44455,"is_reserved":false,"is_disabled":false,"rental_uris":{"android":"levelo://app?vid=52f6a6b9-7af9-4956-b458-baf5061e66bf","ios":"levelo://app?vid=52f6a6b9-7af9-4956-b458-baf5061e66bf"},"vehicle_type_id":"4","last_reported":1773995389,"current_range_meters":6000,"station_id":"","pricing_plan_id":"cebpf4jnsgd1na2vs0mg"},{"bike_id":"347a0133-45d3-4213-ae48-606f4453bbf3","system_id":"levelo_inurba_marseille","lat":43.23054,"lon":5.35494,"is_reserved":false,"is_disabled":false,"rental_uris":{"android":"levelo://app?vid=347a0133-45d3-4213-ae48-606f4453bbf3","ios":"levelo://app?vid=347a0133-45d3-4213-ae48-606f4453bbf3"},"vehicle_type_id":"4","last_reported":1773995389,"current_range_meters":6000,"station_id":"cpo3342slgdg3j2ifvpg","pricing_plan_id":"cebpf4jnsgd1na2vs0mg"},{"bike_id":"88f62a4c-1dd5-4d07-a59a-902271acdb70","system_id":"levelo_inurba_marseille","lat":43.28174,"lon":5.42633,"is_reserved":false,"is_disabled":false,"rental_uris":{"android":"levelo://app?vid=88f62a4c-1dd5-4d07-a59a-902271acdb70","ios":"levelo://app?vid=88f62a4c-1dd5-4d07-a59a-902271acdb70"},"vehicle_type_id":"4","last_reported":1773995389,"current_range_meters":6000,"station_id":"ce4bhnh2rcd13ifvqgug","pricing_plan_id":"cebpf4jnsgd1na2vs0mg"},{"bike_id":"2a46947c-d8af-4bbd-9279-06c678e5b3bf","system_id":"levelo_inurba_marseille","lat":43.31102,"lon":5.37769,"is_reserved":false,"is_disabled":false,"rental_uris":{"android":"levelo://app?vid=2a46947c-d8af-4bbd-9279-06c678e5b3bf","ios":"levelo://app?vid=2a46947c-d8af-4bbd-9279-06c678e5b3bf"},"vehicle_type_id":"4","last_reported":1773995389,"current_range_meters":6000,"station_id":"ce4bgt92rcd13ifvqcg0","pricing_plan_id":"cebpf4jnsgd1na2vs0mg"},{"bike_id":"f6aea14a-72ef-4586-b343-d62580af1a1b","system_id":"levelo_inurba_marseille","lat":43.27317,"lon":5.39077,"is_reserved":false,"is_disabled":false,"rental_uris":{"android":"levelo://app?vid=f6aea14a-72ef-4586-b343-d62580af1a1b","ios":"levelo://app?vid=f6aea14a-72ef-4586-b343-d62580af1a1b"},"vehicle_type_id":"4","last_reported":1773995389,"current_range_meters":6000,"station_id":"ce4bhgp2rcd13ifvqfe0","pricing_plan_id":"cebpf4jnsgd1na2vs0mg"},{"bike_id":"cbdfaa76-d4e9-4d56-a6b9-e9e92c638b7e","system_id":"levelo_inurba_marseille","lat":43.28328,"lon":5.38096,"is_reserved":false,"is_disabled":false,"rental_uris":{"android":"levelo://app?vid=cbdfaa76-d4e9-4d56-a6b9-e9e92c638b7e","ios":"levelo://app?vid=cbdfaa76-d4e9-4d56-a6b9-e9e92c638b7e"},"vehicle_type_id":"4","last_reported":1773995389,"current_range_meters":6400,"station_id":"ce4bh412rcd13ifvqdr0","pricing_plan_id":"cebpf4jnsgd1na2vs0mg"},{"bike_id":"b790cc6c-beda-4dcd-96dd-e541806c10fa","system_id":"levelo_inurba_marseille","lat":43.27521,"lon":5.41592,"is_reserved":false,"is_disabled":false,"rental_uris":{"android":"levelo://app?vid=b790cc6c-beda-4dcd-96dd-e541806c10fa","ios":"levelo://app?vid=b790cc6c-beda-4dcd-96dd-e541806c10fa"},"vehicle_type_id":"4","last_reported":1773995389,"current_range_meters":6400,"station_id":"st_d6im8g6chgec73a5pndg","pricing_plan_id":"cebpf4jnsgd1na2vs0mg"},{"bike_id":"addd9e53-bfde-4c2f-8c89-4a891b6a7add","system_id":"levelo_inurba_marseille","lat":43.31348,"lon":5.37912,"is_reserved":false,"is_disabled":false,"rental_uris":{"android":"levelo://app?vid=addd9e53-bfde-4c2f-8c89-4a891b6a7add","ios":"levelo://app?vid=addd9e53-bfde-4c2f-8c89-4a891b6a7add"},"vehicle_type_id":"4","last_reported":1773995389,"current_range_meters":6400,"station_id":"","pricing_plan_id":"cebpf4jnsgd1na2vs0mg"},{"bike_id":"8b699ea7-b22c-498f-80e0-9f808583494e","system_id":"levelo_inurba_marseille","lat":43.29566,"lon":5.42268,"is_reserved":false,"is_disabled":false,"rental_uris":{"android":"levelo://app?vid=8b699ea7-b22c-498f-80e0-9f808583494e","ios":"levelo://app?vid=8b699ea7-b22c-498f-80e0-9f808583494e"},"vehicle_type_id":"4","last_reported":1773995389,"current_range_meters":6400,"station_id":"ce4bhph2rcd13ifvqhdg","pricing_plan_id":"cebpf4jnsgd1na2vs0mg"},{"bike_id":"741ca2ef-c085-4c7a-a9dd-c998b701c041","system_id":"levelo_inurba_marseille","lat":43.31737,"lon":5.39028,"is_reserved":false,"is_disabled":false,"rental_uris":{"android":"levelo://app?vid=741ca2ef-c085-4c7a-a9dd-c998b701c041","ios":"levelo://app?vid=741ca2ef-c085-4c7a-a9dd-c998b701c041"},"vehicle_type_id":"4","last_reported":1773995389,"current_range_meters":6400,"station_id":"ce4bhqp2rcd13ifvqhng","pricing_plan_id":"cebpf4jnsgd1na2vs0mg"},{"bike_id":"d20fe808-e687-447e-bd57-e26f24a89071","system_id":"levelo_inurba_marseille","lat":43.24175,"lon":5.36399,"is_reserved":false,"is_disabled":false,"rental_uris":{"android":"levelo://app?vid=d20fe808-e687-447e-bd57-e26f24a89071","ios":"levelo://app?vid=d20fe808-e687-447e-bd57-e26f24a89071"},"vehicle_type_id":"4","last_reported":1773995389,"current_range_meters":6400,"station_id":"cpo36qri1sfpv3e86is0","pricing_plan_id":"cebpf4jnsgd1na2vs0mg"},{"bike_id":"ff15d011-374e-455f-8afd-ddf3bfc3962d","system_id":"levelo_inurba_marseille","lat":43.29015,"lon":5.39969,"is_reserved":false,"is_disabled":false,"rental_uris":{"android":"levelo://app?vid=ff15d011-374e-455f-8afd-ddf3bfc3962d","ios":"levelo://app?vid=ff15d011-374e-455f-8afd-ddf3bfc3962d"},"vehicle_type_id":"4","last_reported":1773995389,"current_range_meters":6400,"station_id":"ce4bh392rcd13ifvqdm0","pricing_plan_id":"cebpf4jnsgd1na2vs0mg"},{"bike_id":"22dbebf7-889c-4196-a90d-63fc97997096","system_id":"levelo_inurba_marseille","lat":43.27993,"lon":5.41646,"is_reserved":false,"is_disabled":false,"rental_uris":{"android":"levelo://app?vid=22dbebf7-889c-4196-a90d-63fc97997096","ios":"levelo://app?vid=22dbebf7-889c-4196-a90d-63fc97997096"},"vehicle_type_id":"4","last_reported":1773995389,"current_range_meters":6400,"station_id":"ce4bho12rcd13ifvqh1g","pricing_plan_id":"cebpf4jnsgd1na2vs0mg"},{"bike_id":"e28e3985-a7a1-4404-9dfa-7b23b1dda10c","system_id":"levelo_inurba_marseille","lat":43.31698,"lon":5.40463,"is_reserved":false,"is_disabled":false,"rental_uris":{"android":"levelo://app?vid=e28e3985-a7a1-4404-9dfa-7b23b1dda10c","ios":"levelo://app?vid=e28e3985-a7a1-4404-9dfa-7b23b1dda10c"},"vehicle_type_id":"4","last_reported":1773995389,"current_range_meters":6400,"station_id":"ce4bh012rcd13ifvqd00","pricing_plan_id":"cebpf4jnsgd1na2vs0mg"},{"bike_id":"19fbf114-3574-4546-b6f7-1b7251311367","system_id":"levelo_inurba_marseille","lat":43.28706,"lon":5.3793,"is_reserved":false,"is_disabled":false,"rental_uris":{"android":"levelo://app?vid=19fbf114-3574-4546-b6f7-1b7251311367","ios":"levelo://app?vid=19fbf114-3574-4546-b6f7-1b7251311367"},"vehicle_type_id":"4","last_reported":1773995389,"current_range_meters":6400,"station_id":"ce4bh9p2rcd13ifvqec0","pricing_plan_id":"cebpf4jnsgd1na2vs0mg"},{"bike_id":"b1144be4-4642-4dc6-9a38-cb8cd1471a8e","system_id":"levelo_inurba_marseille","lat":43.26687,"lon":5.38257,"is_reserved":false,"is_disabled":false,"rental_uris":{"android":"levelo://app?vid=b1144be4-4642-4dc6-9a38-cb8cd1471a8e","ios":"levelo://app?vid=b1144be4-4642-4dc6-9a38-cb8cd1471a8e"},"vehicle_type_id":"4","last_reported":1773995389,"current_range_meters":6400,"station_id":"ce4bhg92rcd13ifvqf90","pricing_plan_id":"cebpf4jnsgd1na2vs0mg"},{"bike_id":"b3c6ee7e-839e-47ca-8bd1-12618e78dd87","system_id":"levelo_inurba_marseille","lat":43.23961,"lon":5.36624,"is_reserved":false,"is_disabled":false,"rental_uris":{"android":"levelo://app?vid=b3c6ee7e-839e-47ca-8bd1-12618e78dd87","ios":"levelo://app?vid=b3c6ee7e-839e-47ca-8bd1-12618e78dd87"},"vehicle_type_id":"4","last_reported":1773995389,"current_range_meters":6400,"station_id":"ce4bhi12rcd13ifvqfp0","pricing_plan_id":"cebpf4jnsgd1na2vs0mg"},{"bike_id":"1fc87fed-6040-40bc-99c6-6f694d257aa1","system_id":"levelo_inurba_marseille","lat":43.30943,"lon":5.40859,"is_reserved":false,"is_disabled":false,"rental_uris":{"android":"levelo://app?vid=1fc87fed-6040-40bc-99c6-6f694d257aa1","ios":"levelo://app?vid=1fc87fed-6040-40bc-99c6-6f694d257aa1"},"vehicle_type_id":"4","last_reported":1773995389,"current_range_meters":6400,"station_id":"","pricing_plan_id":"cebpf4jnsgd1na2vs0mg"},{"bike_id":"b656aabe-7c73-4de4-a3ab-51dc49496f82","system_id":"levelo_inurba_marseille","lat":43.29312,"lon":5.37185,"is_reserved":false,"is_disabled":true,"rental_uris":{"android":"levelo://app?vid=b656aabe-7c73-4de4-a3ab-51dc49496f82","ios":"levelo://app?vid=b656aabe-7c73-4de4-a3ab-51dc49496f82"},"vehicle_type_id":"4","last_reported":1773995389,"current_range_meters":6800,"station_id":"ce4bgh92rcd13ifvqb40","pricing_plan_id":"cebpf4jnsgd1na2vs0mg"},{"bike_id":"adc37302-b25c-40e8-b947-c68ece37f278","system_id":"levelo_inurba_marseille","lat":43.2409,"lon":5.37736,"is_reserved":false,"is_disabled":false,"rental_uris":{"android":"levelo://app?vid=adc37302-b25c-40e8-b947-c68ece37f278","ios":"levelo://app?vid=adc37302-b25c-40e8-b947-c68ece37f278"},"vehicle_type_id":"4","last_reported":1773995389,"current_range_meters":6800,"station_id":"ce4bhnp2rcd13ifvqgvg","pricing_plan_id":"cebpf4jnsgd1na2vs0mg"},{"bike_id":"0836c59c-4e19-4ca7-8410-a79df9dfcc6b","system_id":"levelo_inurba_marseille","lat":43.28534,"lon":5.44097,"is_reserved":false,"is_disabled":false,"rental_uris":{"android":"levelo://app?vid=0836c59c-4e19-4ca7-8410-a79df9dfcc6b","ios":"levelo://app?vid=0836c59c-4e19-4ca7-8410-a79df9dfcc6b"},"vehicle_type_id":"4","last_reported":1773995389,"current_range_meters":6800,"station_id":"st_d3j3df2ikq2c7380ej80","pricing_plan_id":"cebpf4jnsgd1na2vs0mg"},{"bike_id":"a7dd1c2f-1863-4db6-9064-755a90a3283b","system_id":"levelo_inurba_marseille","lat":43.2972,"lon":5.42605,"is_reserved":false,"is_disabled":false,"rental_uris":{"android":"levelo://app?vid=a7dd1c2f-1863-4db6-9064-755a90a3283b","ios":"levelo://app?vid=a7dd1c2f-1863-4db6-9064-755a90a3283b"},"vehicle_type_id":"4","last_reported":1773995389,"current_range_meters":6800,"station_id":"","pricing_plan_id":"cebpf4jnsgd1na2vs0mg"},{"bike_id":"aeb7302a-3823-48d7-bc1a-a12e447f1952","system_id":"levelo_inurba_marseille","lat":43.28622,"lon":5.35104,"is_reserved":false,"is_disabled":false,"rental_uris":{"android":"levelo://app?vid=aeb7302a-3823-48d7-bc1a-a12e447f1952","ios":"levelo://app?vid=aeb7302a-3823-48d7-bc1a-a12e447f1952"},"vehicle_type_id":"4","last_reported":1773995389,"current_range_meters":6800,"station_id":"ce4bhch2rcd13ifvqeug","pricing_plan_id":"cebpf4jnsgd1na2vs0mg"},{"bike_id":"8170058a-0d4e-45e9-9962-71973bdc55ca","system_id":"levelo_inurba_marseille","lat":43.303,"lon":5.37695,"is_reserved":false,"is_disabled":false,"rental_uris":{"android":"levelo://app?vid=8170058a-0d4e-45e9-9962-71973bdc55ca","ios":"levelo://app?vid=8170058a-0d4e-45e9-9962-71973bdc55ca"},"vehicle_type_id":"4","last_reported":1773995389,"current_range_meters":6800,"station_id":"ce4bguh2rcd13ifvqcj0","pricing_plan_id":"cebpf4jnsgd1na2vs0mg"},{"bike_id":"8ba5e59c-1b23-4850-921f-9f05aa4326d2","system_id":"levelo_inurba_marseille","lat":43.32661,"lon":5.40995,"is_reserved":false,"is_disabled":true,"rental_uris":{"android":"levelo://app?vid=8ba5e59c-1b23-4850-921f-9f05aa4326d2","ios":"levelo://app?vid=8ba5e59c-1b23-4850-921f-9f05aa4326d2"},"vehicle_type_id":"4","last_reported":1773995389,"current_range_meters":6800,"station_id":"ce4bhpp2rcd13ifvqhgg","pricing_plan_id":"cebpf4jnsgd1na2vs0mg"},{"bike_id":"e9ae8485-b6fe-482c-a8f8-d9c8e85d1f82","system_id":"levelo_inurba_marseille","lat":43.25721,"lon":5.41112,"is_reserved":false,"is_disabled":false,"rental_uris":{"android":"levelo://app?vid=e9ae8485-b6fe-482c-a8f8-d9c8e85d1f82","ios":"levelo://app?vid=e9ae8485-b6fe-482c-a8f8-d9c8e85d1f82"},"vehicle_type_id":"4","last_reported":1773995389,"current_range_meters":6800,"station_id":"ce4bhkp2rcd13ifvqgd0","pricing_plan_id":"cebpf4jnsgd1na2vs0mg"},{"bike_id":"d03a2022-6922-4b85-aada-659333694e5e","system_id":"levelo_inurba_marseille","lat":43.31178,"lon":5.38711,"is_reserved":false,"is_disabled":true,"rental_uris":{"android":"levelo://app?vid=d03a2022-6922-4b85-aada-659333694e5e","ios":"levelo://app?vid=d03a2022-6922-4b85-aada-659333694e5e"},"vehicle_type_id":"4","last_reported":1773995389,"current_range_meters":6800,"station_id":"ce4bgv12rcd13ifvqcp0","pricing_plan_id":"cebpf4jnsgd1na2vs0mg"},{"bike_id":"33e015f6-34a2-44b9-a37e-fd5fd3630f6d","system_id":"levelo_inurba_marseille","lat":43.24164,"lon":5.36417,"is_reserved":false,"is_disabled":false,"rental_uris":{"android":"levelo://app?vid=33e015f6-34a2-44b9-a37e-fd5fd3630f6d","ios":"levelo://app?vid=33e015f6-34a2-44b9-a37e-fd5fd3630f6d"},"vehicle_type_id":"4","last_reported":1773995389,"current_range_meters":6800,"station_id":"cpo36qri1sfpv3e86is0","pricing_plan_id":"cebpf4jnsgd1na2vs0mg"},{"bike_id":"35b98144-a8e9-4b84-b91d-3513211f7aa1","system_id":"levelo_inurba_marseille","lat":43.24807,"lon":5.37465,"is_reserved":false,"is_disabled":false,"rental_uris":{"android":"levelo://app?vid=35b98144-a8e9-4b84-b91d-3513211f7aa1","ios":"levelo://app?vid=35b98144-a8e9-4b84-b91d-3513211f7aa1"},"vehicle_type_id":"4","last_reported":1773995389,"current_range_meters":6800,"station_id":"ce4bhgh2rcd13ifvqfb0","pricing_plan_id":"cebpf4jnsgd1na2vs0mg"},{"bike_id":"edb7cf80-3f94-4586-9af2-5071780c7a4c","system_id":"levelo_inurba_marseille","lat":43.29699,"lon":5.3769,"is_reserved":false,"is_disabled":false,"rental_uris":{"android":"levelo://app?vid=edb7cf80-3f94-4586-9af2-5071780c7a4c","ios":"levelo://app?vid=edb7cf80-3f94-4586-9af2-5071780c7a4c"},"vehicle_type_id":"4","last_reported":1773995389,"current_range_meters":6800,"station_id":"ce4bgkh2rcd13ifvqbl0","pricing_plan_id":"cebpf4jnsgd1na2vs0mg"},{"bike_id":"e08d225b-8f4a-4ce0-895d-d9f7f842408c","system_id":"levelo_inurba_marseille","lat":43.24181,"lon":5.36394,"is_reserved":false,"is_disabled":false,"rental_uris":{"android":"levelo://app?vid=e08d225b-8f4a-4ce0-895d-d9f7f842408c","ios":"levelo://app?vid=e08d225b-8f4a-4ce0-895d-d9f7f842408c"},"vehicle_type_id":"4","last_reported":1773995389,"current_range_meters":6800,"station_id":"cpo36qri1sfpv3e86is0","pricing_plan_id":"cebpf4jnsgd1na2vs0mg"},{"bike_id":"4ebc5a1c-fa8c-44d8-a7fc-38229c55eb9d","system_id":"levelo_inurba_marseille","lat":43.24655,"lon":5.38906,"is_reserved":false,"is_disabled":false,"rental_uris":{"android":"levelo://app?vid=4ebc5a1c-fa8c-44d8-a7fc-38229c55eb9d","ios":"levelo://app?vid=4ebc5a1c-fa8c-44d8-a7fc-38229c55eb9d"},"vehicle_type_id":"4","last_reported":1773995389,"current_range_meters":6800,"station_id":"ce4bhg12rcd13ifvqf60","pricing_plan_id":"cebpf4jnsgd1na2vs0mg"},{"bike_id":"f76be1bf-b839-4363-b725-31a2cfaf3f32","system_id":"levelo_inurba_marseille","lat":43.2378,"lon":5.36652,"is_reserved":false,"is_disabled":false,"rental_uris":{"android":"levelo://app?vid=f76be1bf-b839-4363-b725-31a2cfaf3f32","ios":"levelo://app?vid=f76be1bf-b839-4363-b725-31a2cfaf3f32"},"vehicle_type_id":"4","last_reported":1773995389,"current_range_meters":6800,"station_id":"st_d3nk18o9ro0c73en2l3g","pricing_plan_id":"cebpf4jnsgd1na2vs0mg"},{"bike_id":"26ef90d7-5f6f-40d2-aae0-2b4119f89c3d","system_id":"levelo_inurba_marseille","lat":43.26682,"lon":5.38265,"is_reserved":false,"is_disabled":false,"rental_uris":{"android":"levelo://app?vid=26ef90d7-5f6f-40d2-aae0-2b4119f89c3d","ios":"levelo://app?vid=26ef90d7-5f6f-40d2-aae0-2b4119f89c3d"},"vehicle_type_id":"4","last_reported":1773995389,"current_range_meters":6800,"station_id":"ce4bhg92rcd13ifvqf90","pricing_plan_id":"cebpf4jnsgd1na2vs0mg"},{"bike_id":"681f5372-2ff2-4dd0-a093-84c447cff888","system_id":"levelo_inurba_marseille","lat":43.22558,"lon":5.41591,"is_reserved":false,"is_disabled":false,"rental_uris":{"android":"levelo://app?vid=681f5372-2ff2-4dd0-a093-84c447cff888","ios":"levelo://app?vid=681f5372-2ff2-4dd0-a093-84c447cff888"},"vehicle_type_id":"4","last_reported":1773995389,"current_range_meters":6800,"station_id":"st_d2o4gvlbi1j2169b742g","pricing_plan_id":"cebpf4jnsgd1na2vs0mg"},{"bike_id":"485debf4-8b39-41a2-89f0-9a49a4fbf9d0","system_id":"levelo_inurba_marseille","lat":43.336,"lon":5.41025,"is_reserved":false,"is_disabled":false,"rental_uris":{"android":"levelo://app?vid=485debf4-8b39-41a2-89f0-9a49a4fbf9d0","ios":"levelo://app?vid=485debf4-8b39-41a2-89f0-9a49a4fbf9d0"},"vehicle_type_id":"4","last_reported":1773995389,"current_range_meters":6800,"station_id":"ce4bhqh2rcd13ifvqhmg","pricing_plan_id":"cebpf4jnsgd1na2vs0mg"},{"bike_id":"3bcd3f37-7909-4e8a-be03-a9562a2c0e45","system_id":"levelo_inurba_marseille","lat":43.28476,"lon":5.48398,"is_reserved":false,"is_disabled":false,"rental_uris":{"android":"levelo://app?vid=3bcd3f37-7909-4e8a-be03-a9562a2c0e45","ios":"levelo://app?vid=3bcd3f37-7909-4e8a-be03-a9562a2c0e45"},"vehicle_type_id":"4","last_reported":1773995389,"current_range_meters":7200,"station_id":"","pricing_plan_id":"cebpf4jnsgd1na2vs0mg"},{"bike_id":"69067704-4b9d-4067-8ddd-5b71f4ef1a8a","system_id":"levelo_inurba_marseille","lat":43.25942,"lon":5.40907,"is_reserved":false,"is_disabled":true,"rental_uris":{"android":"levelo://app?vid=69067704-4b9d-4067-8ddd-5b71f4ef1a8a","ios":"levelo://app?vid=69067704-4b9d-4067-8ddd-5b71f4ef1a8a"},"vehicle_type_id":"4","last_reported":1773995389,"current_range_meters":7200,"station_id":"ce4bhm92rcd13ifvqglg","pricing_plan_id":"cebpf4jnsgd1na2vs0mg"},{"bike_id":"7977fd22-7727-4c3b-80a3-f1e8eb972222","system_id":"levelo_inurba_marseille","lat":43.24078,"lon":5.37762,"is_reserved":false,"is_disabled":false,"rental_uris":{"android":"levelo://app?vid=7977fd22-7727-4c3b-80a3-f1e8eb972222","ios":"levelo://app?vid=7977fd22-7727-4c3b-80a3-f1e8eb972222"},"vehicle_type_id":"4","last_reported":1773995389,"current_range_meters":7200,"station_id":"ce4bhnp2rcd13ifvqgvg","pricing_plan_id":"cebpf4jnsgd1na2vs0mg"},{"bike_id":"4cfe9015-a8a7-4fca-9bf7-28a3b27572cf","system_id":"levelo_inurba_marseille","lat":43.29534,"lon":5.37495,"is_reserved":false,"is_disabled":false,"rental_uris":{"android":"levelo://app?vid=4cfe9015-a8a7-4fca-9bf7-28a3b27572cf","ios":"levelo://app?vid=4cfe9015-a8a7-4fca-9bf7-28a3b27572cf"},"vehicle_type_id":"4","last_reported":1773995389,"current_range_meters":7200,"station_id":"ce4bgkp2rcd13ifvqbmg","pricing_plan_id":"cebpf4jnsgd1na2vs0mg"},{"bike_id":"6f0de27a-db02-41cb-9376-9fa9cdb18cf7","system_id":"levelo_inurba_marseille","lat":43.23892,"lon":5.37461,"is_reserved":false,"is_disabled":false,"rental_uris":{"android":"levelo://app?vid=6f0de27a-db02-41cb-9376-9fa9cdb18cf7","ios":"levelo://app?vid=6f0de27a-db02-41cb-9376-9fa9cdb18cf7"},"vehicle_type_id":"4","last_reported":1773995389,"current_range_meters":7200,"station_id":"st_d6sm7csbq4hs73f8fpjg","pricing_plan_id":"cebpf4jnsgd1na2vs0mg"},{"bike_id":"042d28d3-0a6e-4ec5-9610-697965251099","system_id":"levelo_inurba_marseille","lat":43.28158,"lon":5.42646,"is_reserved":false,"is_disabled":false,"rental_uris":{"android":"levelo://app?vid=042d28d3-0a6e-4ec5-9610-697965251099","ios":"levelo://app?vid=042d28d3-0a6e-4ec5-9610-697965251099"},"vehicle_type_id":"4","last_reported":1773995389,"current_range_meters":7200,"station_id":"ce4bhnh2rcd13ifvqgug","pricing_plan_id":"cebpf4jnsgd1na2vs0mg"},{"bike_id":"29705345-7a8e-4bdd-8b65-5ba8856c877f","system_id":"levelo_inurba_marseille","lat":43.3029,"lon":5.44954,"is_reserved":false,"is_disabled":false,"rental_uris":{"android":"levelo://app?vid=29705345-7a8e-4bdd-8b65-5ba8856c877f","ios":"levelo://app?vid=29705345-7a8e-4bdd-8b65-5ba8856c877f"},"vehicle_type_id":"4","last_reported":1773995389,"current_range_meters":7200,"station_id":"","pricing_plan_id":"cebpf4jnsgd1na2vs0mg"},{"bike_id":"f75bb327-d9cf-497e-a878-2304dd726bb7","system_id":"levelo_inurba_marseille","lat":43.30115,"lon":5.37424,"is_reserved":false,"is_disabled":false,"rental_uris":{"android":"levelo://app?vid=f75bb327-d9cf-497e-a878-2304dd726bb7","ios":"levelo://app?vid=f75bb327-d9cf-497e-a878-2304dd726bb7"},"vehicle_type_id":"4","last_reported":1773995389,"current_range_meters":7200,"station_id":"ce4bgs92rcd13ifvqcc0","pricing_plan_id":"cebpf4jnsgd1na2vs0mg"},{"bike_id":"5d093622-4e87-4d50-9da4-eab65f5eb92c","system_id":"levelo_inurba_marseille","lat":43.2637,"lon":5.41065,"is_reserved":false,"is_disabled":false,"rental_uris":{"android":"levelo://app?vid=5d093622-4e87-4d50-9da4-eab65f5eb92c","ios":"levelo://app?vid=5d093622-4e87-4d50-9da4-eab65f5eb92c"},"vehicle_type_id":"4","last_reported":1773995389,"current_range_meters":7200,"station_id":"st_d4e5ca6na9uc73bfl5fg","pricing_plan_id":"cebpf4jnsgd1na2vs0mg"},{"bike_id":"838facc6-705d-4411-aaa7-8238f88e5bb9","system_id":"levelo_inurba_marseille","lat":43.27953,"lon":5.38693,"is_reserved":false,"is_disabled":false,"rental_uris":{"android":"levelo://app?vid=838facc6-705d-4411-aaa7-8238f88e5bb9","ios":"levelo://app?vid=838facc6-705d-4411-aaa7-8238f88e5bb9"},"vehicle_type_id":"4","last_reported":1773995389,"current_range_meters":8000,"station_id":"ce4bhg12rcd13ifvqf80","pricing_plan_id":"cebpf4jnsgd1na2vs0mg"},{"bike_id":"a775511c-9985-4a58-8c4c-775aad7f3e36","system_id":"levelo_inurba_marseille","lat":43.29898,"lon":5.43663,"is_reserved":false,"is_disabled":false,"rental_uris":{"android":"levelo://app?vid=a775511c-9985-4a58-8c4c-775aad7f3e36","ios":"levelo://app?vid=a775511c-9985-4a58-8c4c-775aad7f3e36"},"vehicle_type_id":"4","last_reported":1773995389,"current_range_meters":8000,"station_id":"ce4bhpp2rcd13ifvqhfg","pricing_plan_id":"cebpf4jnsgd1na2vs0mg"},{"bike_id":"12118d88-8157-4d76-ad00-12ce3bc20921","system_id":"levelo_inurba_marseille","lat":43.30863,"lon":5.37106,"is_reserved":false,"is_disabled":false,"rental_uris":{"android":"levelo://app?vid=12118d88-8157-4d76-ad00-12ce3bc20921","ios":"levelo://app?vid=12118d88-8157-4d76-ad00-12ce3bc20921"},"vehicle_type_id":"4","last_reported":1773995389,"current_range_meters":8000,"station_id":"","pricing_plan_id":"cebpf4jnsgd1na2vs0mg"},{"bike_id":"349ea28b-d62f-495c-9d28-cb14d29d97f5","system_id":"levelo_inurba_marseille","lat":43.30877,"lon":5.36881,"is_reserved":false,"is_disabled":false,"rental_uris":{"android":"levelo://app?vid=349ea28b-d62f-495c-9d28-cb14d29d97f5","ios":"levelo://app?vid=349ea28b-d62f-495c-9d28-cb14d29d97f5"},"vehicle_type_id":"4","last_reported":1773995389,"current_range_meters":8000,"station_id":"ce4bgn92rcd13ifvqbvg","pricing_plan_id":"cebpf4jnsgd1na2vs0mg"},{"bike_id":"366fec37-91f4-4924-8183-931eace5c708","system_id":"levelo_inurba_marseille","lat":43.30557,"lon":5.37882,"is_reserved":false,"is_disabled":false,"rental_uris":{"android":"levelo://app?vid=366fec37-91f4-4924-8183-931eace5c708","ios":"levelo://app?vid=366fec37-91f4-4924-8183-931eace5c708"},"vehicle_type_id":"4","last_reported":1773995389,"current_range_meters":8000,"station_id":"","pricing_plan_id":"cebpf4jnsgd1na2vs0mg"},{"bike_id":"0264288d-82fa-4432-8751-6c08c0e54bb7","system_id":"levelo_inurba_marseille","lat":43.30281,"lon":5.42496,"is_reserved":false,"is_disabled":false,"rental_uris":{"android":"levelo://app?vid=0264288d-82fa-4432-8751-6c08c0e54bb7","ios":"levelo://app?vid=0264288d-82fa-4432-8751-6c08c0e54bb7"},"vehicle_type_id":"4","last_reported":1773995389,"current_range_meters":8000,"station_id":"","pricing_plan_id":"cebpf4jnsgd1na2vs0mg"},{"bike_id":"be9b4f06-9d1a-41ee-b10b-9de4e628d9db","system_id":"levelo_inurba_marseille","lat":43.25601,"lon":5.38246,"is_reserved":false,"is_disabled":false,"rental_uris":{"android":"levelo://app?vid=be9b4f06-9d1a-41ee-b10b-9de4e628d9db","ios":"levelo://app?vid=be9b4f06-9d1a-41ee-b10b-9de4e628d9db"},"vehicle_type_id":"4","last_reported":1773995389,"current_range_meters":8000,"station_id":"ce4bhih2rcd13ifvqfs0","pricing_plan_id":"cebpf4jnsgd1na2vs0mg"},{"bike_id":"4962d21e-cde3-4527-bd5b-917c2eb4bb67","system_id":"levelo_inurba_marseille","lat":43.25582,"lon":5.38244,"is_reserved":false,"is_disabled":false,"rental_uris":{"android":"levelo://app?vid=4962d21e-cde3-4527-bd5b-917c2eb4bb67","ios":"levelo://app?vid=4962d21e-cde3-4527-bd5b-917c2eb4bb67"},"vehicle_type_id":"4","last_reported":1773995389,"current_range_meters":8000,"station_id":"ce4bhih2rcd13ifvqfs0","pricing_plan_id":"cebpf4jnsgd1na2vs0mg"},{"bike_id":"48567491-374a-40f1-a9a6-a3006d29fb2c","system_id":"levelo_inurba_marseille","lat":43.28555,"lon":5.441,"is_reserved":false,"is_disabled":false,"rental_uris":{"android":"levelo://app?vid=48567491-374a-40f1-a9a6-a3006d29fb2c","ios":"levelo://app?vid=48567491-374a-40f1-a9a6-a3006d29fb2c"},"vehicle_type_id":"4","last_reported":1773995389,"current_range_meters":8000,"station_id":"st_d3j3df2ikq2c7380ej80","pricing_plan_id":"cebpf4jnsgd1na2vs0mg"},{"bike_id":"dd74091b-705a-4531-bc39-afff2195d9a1","system_id":"levelo_inurba_marseille","lat":43.24805,"lon":5.3745,"is_reserved":false,"is_disabled":false,"rental_uris":{"android":"levelo://app?vid=dd74091b-705a-4531-bc39-afff2195d9a1","ios":"levelo://app?vid=dd74091b-705a-4531-bc39-afff2195d9a1"},"vehicle_type_id":"4","last_reported":1773995389,"current_range_meters":8000,"station_id":"ce4bhgh2rcd13ifvqfb0","pricing_plan_id":"cebpf4jnsgd1na2vs0mg"},{"bike_id":"29ceb06a-4df8-4e2a-9dd9-b070e185b37f","system_id":"levelo_inurba_marseille","lat":43.28481,"lon":5.48398,"is_reserved":false,"is_disabled":false,"rental_uris":{"android":"levelo://app?vid=29ceb06a-4df8-4e2a-9dd9-b070e185b37f","ios":"levelo://app?vid=29ceb06a-4df8-4e2a-9dd9-b070e185b37f"},"vehicle_type_id":"4","last_reported":1773995389,"current_range_meters":8000,"station_id":"st_d3svhcjqgbts73a3dn0g","pricing_plan_id":"cebpf4jnsgd1na2vs0mg"},{"bike_id":"4c924e0f-7bf7-4aff-a215-fe98ac0c8b95","system_id":"levelo_inurba_marseille","lat":43.31359,"lon":5.36729,"is_reserved":false,"is_disabled":false,"rental_uris":{"android":"levelo://app?vid=4c924e0f-7bf7-4aff-a215-fe98ac0c8b95","ios":"levelo://app?vid=4c924e0f-7bf7-4aff-a215-fe98ac0c8b95"},"vehicle_type_id":"4","last_reported":1773995389,"current_range_meters":8000,"station_id":"ce4bgr92rcd13ifvqc6g","pricing_plan_id":"cebpf4jnsgd1na2vs0mg"},{"bike_id":"e5eba928-e3a4-441b-9540-937747ee47b9","system_id":"levelo_inurba_marseille","lat":43.2257,"lon":5.4163,"is_reserved":false,"is_disabled":false,"rental_uris":{"android":"levelo://app?vid=e5eba928-e3a4-441b-9540-937747ee47b9","ios":"levelo://app?vid=e5eba928-e3a4-441b-9540-937747ee47b9"},"vehicle_type_id":"4","last_reported":1773995389,"current_range_meters":8000,"station_id":"st_d2o4gvlbi1j2169b742g","pricing_plan_id":"cebpf4jnsgd1na2vs0mg"},{"bike_id":"0f77ab19-02c3-4b4a-be9a-c8801aa3d4b5","system_id":"levelo_inurba_marseille","lat":43.33161,"lon":5.37687,"is_reserved":false,"is_disabled":false,"rental_uris":{"android":"levelo://app?vid=0f77ab19-02c3-4b4a-be9a-c8801aa3d4b5","ios":"levelo://app?vid=0f77ab19-02c3-4b4a-be9a-c8801aa3d4b5"},"vehicle_type_id":"4","last_reported":1773995389,"current_range_meters":8000,"station_id":"st_d46cu089ee8s73dldbu0","pricing_plan_id":"cebpf4jnsgd1na2vs0mg"},{"bike_id":"adc327fc-a306-4347-8ba7-9c6b1ba7462e","system_id":"levelo_inurba_marseille","lat":43.32044,"lon":5.41554,"is_reserved":false,"is_disabled":false,"rental_uris":{"android":"levelo://app?vid=adc327fc-a306-4347-8ba7-9c6b1ba7462e","ios":"levelo://app?vid=adc327fc-a306-4347-8ba7-9c6b1ba7462e"},"vehicle_type_id":"4","last_reported":1773995389,"current_range_meters":8000,"station_id":"ce4bhq92rcd13ifvqhkg","pricing_plan_id":"cebpf4jnsgd1na2vs0mg"},{"bike_id":"c48440d7-f4d5-4be3-a842-7dc1a317748e","system_id":"levelo_inurba_marseille","lat":43.33939,"lon":5.35734,"is_reserved":false,"is_disabled":false,"rental_uris":{"android":"levelo://app?vid=c48440d7-f4d5-4be3-a842-7dc1a317748e","ios":"levelo://app?vid=c48440d7-f4d5-4be3-a842-7dc1a317748e"},"vehicle_type_id":"4","last_reported":1773995389,"current_range_meters":8000,"station_id":"","pricing_plan_id":"cebpf4jnsgd1na2vs0mg"},{"bike_id":"ab09d209-60f6-4303-8d09-86dc43261279","system_id":"levelo_inurba_marseille","lat":43.21195,"lon":5.35074,"is_reserved":false,"is_disabled":false,"rental_uris":{"android":"levelo://app?vid=ab09d209-60f6-4303-8d09-86dc43261279","ios":"levelo://app?vid=ab09d209-60f6-4303-8d09-86dc43261279"},"vehicle_type_id":"4","last_reported":1773995389,"current_range_meters":8000,"station_id":"st_cvj6sg6p6f1abm77japg","pricing_plan_id":"cebpf4jnsgd1na2vs0mg"},{"bike_id":"259aad17-f290-4544-bd16-81553eed94df","system_id":"levelo_inurba_marseille","lat":43.28721,"lon":5.36092,"is_reserved":false,"is_disabled":false,"rental_uris":{"android":"levelo://app?vid=259aad17-f290-4544-bd16-81553eed94df","ios":"levelo://app?vid=259aad17-f290-4544-bd16-81553eed94df"},"vehicle_type_id":"4","last_reported":1773995389,"current_range_meters":8000,"station_id":"cki0cbj6b192h4jlfktg","pricing_plan_id":"cebpf4jnsgd1na2vs0mg"},{"bike_id":"205c7927-471c-4776-ad56-beff26fa8648","system_id":"levelo_inurba_marseille","lat":43.30883,"lon":5.39652,"is_reserved":false,"is_disabled":false,"rental_uris":{"android":"levelo://app?vid=205c7927-471c-4776-ad56-beff26fa8648","ios":"levelo://app?vid=205c7927-471c-4776-ad56-beff26fa8648"},"vehicle_type_id":"4","last_reported":1773995389,"current_range_meters":8400,"station_id":"ce4bh012rcd13ifvqcv0","pricing_plan_id":"cebpf4jnsgd1na2vs0mg"},{"bike_id":"f328e3b6-a38c-49fe-80e0-c552630893a5","system_id":"levelo_inurba_marseille","lat":43.22931,"lon":5.35374,"is_reserved":false,"is_disabled":false,"rental_uris":{"android":"levelo://app?vid=f328e3b6-a38c-49fe-80e0-c552630893a5","ios":"levelo://app?vid=f328e3b6-a38c-49fe-80e0-c552630893a5"},"vehicle_type_id":"4","last_reported":1773995389,"current_range_meters":8400,"station_id":"cpo3532slgdg3j2ikp40","pricing_plan_id":"cebpf4jnsgd1na2vs0mg"},{"bike_id":"53f48266-4564-420b-96ab-d243233055dc","system_id":"levelo_inurba_marseille","lat":43.28467,"lon":5.48405,"is_reserved":false,"is_disabled":false,"rental_uris":{"android":"levelo://app?vid=53f48266-4564-420b-96ab-d243233055dc","ios":"levelo://app?vid=53f48266-4564-420b-96ab-d243233055dc"},"vehicle_type_id":"4","last_reported":1773995389,"current_range_meters":8400,"station_id":"","pricing_plan_id":"cebpf4jnsgd1na2vs0mg"},{"bike_id":"6b38b1c6-26df-4687-9e45-481ab73a195b","system_id":"levelo_inurba_marseille","lat":43.2798,"lon":5.41669,"is_reserved":false,"is_disabled":false,"rental_uris":{"android":"levelo://app?vid=6b38b1c6-26df-4687-9e45-481ab73a195b","ios":"levelo://app?vid=6b38b1c6-26df-4687-9e45-481ab73a195b"},"vehicle_type_id":"4","last_reported":1773995389,"current_range_meters":8400,"station_id":"ce4bho12rcd13ifvqh1g","pricing_plan_id":"cebpf4jnsgd1na2vs0mg"},{"bike_id":"8648ff3d-a49d-4491-be6c-bab3f9812603","system_id":"levelo_inurba_marseille","lat":43.28249,"lon":5.43837,"is_reserved":false,"is_disabled":false,"rental_uris":{"android":"levelo://app?vid=8648ff3d-a49d-4491-be6c-bab3f9812603","ios":"levelo://app?vid=8648ff3d-a49d-4491-be6c-bab3f9812603"},"vehicle_type_id":"4","last_reported":1773995389,"current_range_meters":8400,"station_id":"","pricing_plan_id":"cebpf4jnsgd1na2vs0mg"},{"bike_id":"2d691b07-636c-4a25-bcb6-b415067a8bfc","system_id":"levelo_inurba_marseille","lat":43.32457,"lon":5.36561,"is_reserved":false,"is_disabled":false,"rental_uris":{"android":"levelo://app?vid=2d691b07-636c-4a25-bcb6-b415067a8bfc","ios":"levelo://app?vid=2d691b07-636c-4a25-bcb6-b415067a8bfc"},"vehicle_type_id":"4","last_reported":1773995389,"current_range_meters":8400,"station_id":"ce4bhs12rcd13ifvqhvg","pricing_plan_id":"cebpf4jnsgd1na2vs0mg"},{"bike_id":"bd7d9b1f-c10b-4b80-8e0c-02ec764760fe","system_id":"levelo_inurba_marseille","lat":43.26072,"lon":5.39393,"is_reserved":false,"is_disabled":false,"rental_uris":{"android":"levelo://app?vid=bd7d9b1f-c10b-4b80-8e0c-02ec764760fe","ios":"levelo://app?vid=bd7d9b1f-c10b-4b80-8e0c-02ec764760fe"},"vehicle_type_id":"4","last_reported":1773995389,"current_range_meters":8400,"station_id":"ce4bhh92rcd13ifvqfj0","pricing_plan_id":"cebpf4jnsgd1na2vs0mg"},{"bike_id":"0f0ec3e7-954e-4cbf-8ae3-c6f7f4826e6a","system_id":"levelo_inurba_marseille","lat":43.28718,"lon":5.3795,"is_reserved":false,"is_disabled":true,"rental_uris":{"android":"levelo://app?vid=0f0ec3e7-954e-4cbf-8ae3-c6f7f4826e6a","ios":"levelo://app?vid=0f0ec3e7-954e-4cbf-8ae3-c6f7f4826e6a"},"vehicle_type_id":"4","last_reported":1773995389,"current_range_meters":8400,"station_id":"ce4bh9p2rcd13ifvqec0","pricing_plan_id":"cebpf4jnsgd1na2vs0mg"},{"bike_id":"89ad46cf-ad84-4e5e-be57-87ac2cebe69c","system_id":"levelo_inurba_marseille","lat":43.2848,"lon":5.48386,"is_reserved":false,"is_disabled":false,"rental_uris":{"android":"levelo://app?vid=89ad46cf-ad84-4e5e-be57-87ac2cebe69c","ios":"levelo://app?vid=89ad46cf-ad84-4e5e-be57-87ac2cebe69c"},"vehicle_type_id":"4","last_reported":1773995389,"current_range_meters":8400,"station_id":"st_d3svhcjqgbts73a3dn0g","pricing_plan_id":"cebpf4jnsgd1na2vs0mg"},{"bike_id":"8911e592-806c-4ca2-9551-dc6022173986","system_id":"levelo_inurba_marseille","lat":43.32083,"lon":5.36782,"is_reserved":false,"is_disabled":false,"rental_uris":{"android":"levelo://app?vid=8911e592-806c-4ca2-9551-dc6022173986","ios":"levelo://app?vid=8911e592-806c-4ca2-9551-dc6022173986"},"vehicle_type_id":"4","last_reported":1773995389,"current_range_meters":8400,"station_id":"ce4bhrh2rcd13ifvqhug","pricing_plan_id":"cebpf4jnsgd1na2vs0mg"},{"bike_id":"8a3376e4-039b-4ebb-bb66-41d3002e47a3","system_id":"levelo_inurba_marseille","lat":43.30551,"lon":5.36543,"is_reserved":false,"is_disabled":false,"rental_uris":{"android":"levelo://app?vid=8a3376e4-039b-4ebb-bb66-41d3002e47a3","ios":"levelo://app?vid=8a3376e4-039b-4ebb-bb66-41d3002e47a3"},"vehicle_type_id":"4","last_reported":1773995389,"current_range_meters":8400,"station_id":"ce4bgs12rcd13ifvqcag","pricing_plan_id":"cebpf4jnsgd1na2vs0mg"},{"bike_id":"4e864c7e-8c56-4442-8a7f-711e53a22077","system_id":"levelo_inurba_marseille","lat":43.29259,"lon":5.38442,"is_reserved":false,"is_disabled":true,"rental_uris":{"android":"levelo://app?vid=4e864c7e-8c56-4442-8a7f-711e53a22077","ios":"levelo://app?vid=4e864c7e-8c56-4442-8a7f-711e53a22077"},"vehicle_type_id":"4","last_reported":1773995389,"current_range_meters":8400,"station_id":"ce4bh692rcd13ifvqea0","pricing_plan_id":"cebpf4jnsgd1na2vs0mg"},{"bike_id":"9e2308d9-37dd-470c-aa56-a0dd7a027efb","system_id":"levelo_inurba_marseille","lat":43.2954,"lon":5.37503,"is_reserved":false,"is_disabled":false,"rental_uris":{"android":"levelo://app?vid=9e2308d9-37dd-470c-aa56-a0dd7a027efb","ios":"levelo://app?vid=9e2308d9-37dd-470c-aa56-a0dd7a027efb"},"vehicle_type_id":"4","last_reported":1773995389,"current_range_meters":8400,"station_id":"ce4bgkp2rcd13ifvqbmg","pricing_plan_id":"cebpf4jnsgd1na2vs0mg"},{"bike_id":"59d2267f-7247-4a75-b01c-e6739320c121","system_id":"levelo_inurba_marseille","lat":43.29002,"lon":5.37836,"is_reserved":false,"is_disabled":true,"rental_uris":{"android":"levelo://app?vid=59d2267f-7247-4a75-b01c-e6739320c121","ios":"levelo://app?vid=59d2267f-7247-4a75-b01c-e6739320c121"},"vehicle_type_id":"4","last_reported":1773995389,"current_range_meters":8400,"station_id":"ce4bh9p2rcd13ifvqed0","pricing_plan_id":"cebpf4jnsgd1na2vs0mg"},{"bike_id":"646c7015-5400-49b6-9ecb-1fc782efa767","system_id":"levelo_inurba_marseille","lat":43.21756,"lon":5.34601,"is_reserved":false,"is_disabled":false,"rental_uris":{"android":"levelo://app?vid=646c7015-5400-49b6-9ecb-1fc782efa767","ios":"levelo://app?vid=646c7015-5400-49b6-9ecb-1fc782efa767"},"vehicle_type_id":"4","last_reported":1773995389,"current_range_meters":8400,"station_id":"st_cvj6r9ubvosntc0bgbag","pricing_plan_id":"cebpf4jnsgd1na2vs0mg"},{"bike_id":"a545c754-e350-45a1-864b-ec76871d3bf7","system_id":"levelo_inurba_marseille","lat":43.21752,"lon":5.34656,"is_reserved":false,"is_disabled":true,"rental_uris":{"android":"levelo://app?vid=a545c754-e350-45a1-864b-ec76871d3bf7","ios":"levelo://app?vid=a545c754-e350-45a1-864b-ec76871d3bf7"},"vehicle_type_id":"4","last_reported":1773995389,"current_range_meters":8400,"station_id":"","pricing_plan_id":"cebpf4jnsgd1na2vs0mg"},{"bike_id":"b8af7d45-c198-42a0-a3da-edeb4ef58804","system_id":"levelo_inurba_marseille","lat":43.30788,"lon":5.37641,"is_reserved":false,"is_disabled":false,"rental_uris":{"android":"levelo://app?vid=b8af7d45-c198-42a0-a3da-edeb4ef58804","ios":"levelo://app?vid=b8af7d45-c198-42a0-a3da-edeb4ef58804"},"vehicle_type_id":"4","last_reported":1773995389,"current_range_meters":8400,"station_id":"ce4bgv92rcd13ifvqcq0","pricing_plan_id":"cebpf4jnsgd1na2vs0mg"},{"bike_id":"912e5f30-2e0b-48a9-85db-a984611241c9","system_id":"levelo_inurba_marseille","lat":43.29826,"lon":5.44068,"is_reserved":false,"is_disabled":false,"rental_uris":{"android":"levelo://app?vid=912e5f30-2e0b-48a9-85db-a984611241c9","ios":"levelo://app?vid=912e5f30-2e0b-48a9-85db-a984611241c9"},"vehicle_type_id":"4","last_reported":1773995389,"current_range_meters":8800,"station_id":"st_d3jp68qikq2c7381ktn0","pricing_plan_id":"cebpf4jnsgd1na2vs0mg"},{"bike_id":"9ec1942c-b173-4801-9f27-3e6493805e2b","system_id":"levelo_inurba_marseille","lat":43.24649,"lon":5.38885,"is_reserved":false,"is_disabled":false,"rental_uris":{"android":"levelo://app?vid=9ec1942c-b173-4801-9f27-3e6493805e2b","ios":"levelo://app?vid=9ec1942c-b173-4801-9f27-3e6493805e2b"},"vehicle_type_id":"4","last_reported":1773995389,"current_range_meters":8800,"station_id":"ce4bhg12rcd13ifvqf60","pricing_plan_id":"cebpf4jnsgd1na2vs0mg"},{"bike_id":"e19c730d-a673-4302-9b78-2050168c95f1","system_id":"levelo_inurba_marseille","lat":43.25581,"lon":5.38248,"is_reserved":false,"is_disabled":false,"rental_uris":{"android":"levelo://app?vid=e19c730d-a673-4302-9b78-2050168c95f1","ios":"levelo://app?vid=e19c730d-a673-4302-9b78-2050168c95f1"},"vehicle_type_id":"4","last_reported":1773995389,"current_range_meters":8800,"station_id":"ce4bhih2rcd13ifvqfs0","pricing_plan_id":"cebpf4jnsgd1na2vs0mg"},{"bike_id":"5c37a49c-ab60-4c11-8a61-6592ff444186","system_id":"levelo_inurba_marseille","lat":43.27908,"lon":5.39175,"is_reserved":false,"is_disabled":false,"rental_uris":{"android":"levelo://app?vid=5c37a49c-ab60-4c11-8a61-6592ff444186","ios":"levelo://app?vid=5c37a49c-ab60-4c11-8a61-6592ff444186"},"vehicle_type_id":"4","last_reported":1773995389,"current_range_meters":8800,"station_id":"","pricing_plan_id":"cebpf4jnsgd1na2vs0mg"},{"bike_id":"97dc21d4-f745-4c2a-b0a9-0abdf5c15159","system_id":"levelo_inurba_marseille","lat":43.31118,"lon":5.37744,"is_reserved":false,"is_disabled":false,"rental_uris":{"android":"levelo://app?vid=97dc21d4-f745-4c2a-b0a9-0abdf5c15159","ios":"levelo://app?vid=97dc21d4-f745-4c2a-b0a9-0abdf5c15159"},"vehicle_type_id":"4","last_reported":1773995389,"current_range_meters":8800,"station_id":"ce4bgt92rcd13ifvqcg0","pricing_plan_id":"cebpf4jnsgd1na2vs0mg"},{"bike_id":"3395119f-ee7e-4cfd-9331-85a33adc1f8c","system_id":"levelo_inurba_marseille","lat":43.28726,"lon":5.37923,"is_reserved":false,"is_disabled":false,"rental_uris":{"android":"levelo://app?vid=3395119f-ee7e-4cfd-9331-85a33adc1f8c","ios":"levelo://app?vid=3395119f-ee7e-4cfd-9331-85a33adc1f8c"},"vehicle_type_id":"4","last_reported":1773995389,"current_range_meters":8800,"station_id":"ce4bh9p2rcd13ifvqec0","pricing_plan_id":"cebpf4jnsgd1na2vs0mg"},{"bike_id":"ac94a75f-91df-4818-a357-956d25b78ee0","system_id":"levelo_inurba_marseille","lat":43.30419,"lon":5.40928,"is_reserved":false,"is_disabled":false,"rental_uris":{"android":"levelo://app?vid=ac94a75f-91df-4818-a357-956d25b78ee0","ios":"levelo://app?vid=ac94a75f-91df-4818-a357-956d25b78ee0"},"vehicle_type_id":"4","last_reported":1773995389,"current_range_meters":8800,"station_id":"","pricing_plan_id":"cebpf4jnsgd1na2vs0mg"},{"bike_id":"a8c8307b-e1e9-4950-a785-578e1a82f805","system_id":"levelo_inurba_marseille","lat":43.31272,"lon":5.37786,"is_reserved":false,"is_disabled":false,"rental_uris":{"android":"levelo://app?vid=a8c8307b-e1e9-4950-a785-578e1a82f805","ios":"levelo://app?vid=a8c8307b-e1e9-4950-a785-578e1a82f805"},"vehicle_type_id":"4","last_reported":1773995389,"current_range_meters":8800,"station_id":"","pricing_plan_id":"cebpf4jnsgd1na2vs0mg"},{"bike_id":"3e0b9bfd-c6b5-4ad9-8940-b1537c358547","system_id":"levelo_inurba_marseille","lat":43.25861,"lon":5.39901,"is_reserved":false,"is_disabled":false,"rental_uris":{"android":"levelo://app?vid=3e0b9bfd-c6b5-4ad9-8940-b1537c358547","ios":"levelo://app?vid=3e0b9bfd-c6b5-4ad9-8940-b1537c358547"},"vehicle_type_id":"4","last_reported":1773995389,"current_range_meters":8800,"station_id":"ce4bhl92rcd13ifvqghg","pricing_plan_id":"cebpf4jnsgd1na2vs0mg"},{"bike_id":"91aa598b-3fb8-4341-b0c3-0da042590735","system_id":"levelo_inurba_marseille","lat":43.28537,"lon":5.441,"is_reserved":false,"is_disabled":false,"rental_uris":{"android":"levelo://app?vid=91aa598b-3fb8-4341-b0c3-0da042590735","ios":"levelo://app?vid=91aa598b-3fb8-4341-b0c3-0da042590735"},"vehicle_type_id":"4","last_reported":1773995389,"current_range_meters":8800,"station_id":"st_d3j3df2ikq2c7380ej80","pricing_plan_id":"cebpf4jnsgd1na2vs0mg"},{"bike_id":"89e694fe-6f55-401e-a7aa-e6100d20e9a6","system_id":"levelo_inurba_marseille","lat":43.32654,"lon":5.41005,"is_reserved":false,"is_disabled":false,"rental_uris":{"android":"levelo://app?vid=89e694fe-6f55-401e-a7aa-e6100d20e9a6","ios":"levelo://app?vid=89e694fe-6f55-401e-a7aa-e6100d20e9a6"},"vehicle_type_id":"4","last_reported":1773995389,"current_range_meters":8800,"station_id":"ce4bhpp2rcd13ifvqhgg","pricing_plan_id":"cebpf4jnsgd1na2vs0mg"},{"bike_id":"7fa64d84-cd92-4f02-a79d-c348b129b15f","system_id":"levelo_inurba_marseille","lat":43.24179,"lon":5.36415,"is_reserved":false,"is_disabled":false,"rental_uris":{"android":"levelo://app?vid=7fa64d84-cd92-4f02-a79d-c348b129b15f","ios":"levelo://app?vid=7fa64d84-cd92-4f02-a79d-c348b129b15f"},"vehicle_type_id":"4","last_reported":1773995389,"current_range_meters":8800,"station_id":"cpo36qri1sfpv3e86is0","pricing_plan_id":"cebpf4jnsgd1na2vs0mg"},{"bike_id":"e05d1ed7-bbc1-4b39-bce6-dc34bf6cb512","system_id":"levelo_inurba_marseille","lat":43.24076,"lon":5.37734,"is_reserved":false,"is_disabled":false,"rental_uris":{"android":"levelo://app?vid=e05d1ed7-bbc1-4b39-bce6-dc34bf6cb512","ios":"levelo://app?vid=e05d1ed7-bbc1-4b39-bce6-dc34bf6cb512"},"vehicle_type_id":"4","last_reported":1773995389,"current_range_meters":8800,"station_id":"ce4bhnp2rcd13ifvqgvg","pricing_plan_id":"cebpf4jnsgd1na2vs0mg"},{"bike_id":"fe7e8afa-502f-4288-a75f-d6e489b174c6","system_id":"levelo_inurba_marseille","lat":43.26963,"lon":5.38626,"is_reserved":false,"is_disabled":false,"rental_uris":{"android":"levelo://app?vid=fe7e8afa-502f-4288-a75f-d6e489b174c6","ios":"levelo://app?vid=fe7e8afa-502f-4288-a75f-d6e489b174c6"},"vehicle_type_id":"4","last_reported":1773995389,"current_range_meters":8800,"station_id":"ce4bhh92rcd13ifvqfh0","pricing_plan_id":"cebpf4jnsgd1na2vs0mg"},{"bike_id":"38179d89-dd3a-49f9-a223-da1591e8af05","system_id":"levelo_inurba_marseille","lat":43.29051,"lon":5.39939,"is_reserved":false,"is_disabled":false,"rental_uris":{"android":"levelo://app?vid=38179d89-dd3a-49f9-a223-da1591e8af05","ios":"levelo://app?vid=38179d89-dd3a-49f9-a223-da1591e8af05"},"vehicle_type_id":"4","last_reported":1773995389,"current_range_meters":8800,"station_id":"ce4bh392rcd13ifvqdm0","pricing_plan_id":"cebpf4jnsgd1na2vs0mg"},{"bike_id":"fef29ceb-a5ad-4cb2-90dd-970970f5b28d","system_id":"levelo_inurba_marseille","lat":43.30918,"lon":5.36846,"is_reserved":false,"is_disabled":false,"rental_uris":{"android":"levelo://app?vid=fef29ceb-a5ad-4cb2-90dd-970970f5b28d","ios":"levelo://app?vid=fef29ceb-a5ad-4cb2-90dd-970970f5b28d"},"vehicle_type_id":"4","last_reported":1773995389,"current_range_meters":8800,"station_id":"ce4bgn92rcd13ifvqbvg","pricing_plan_id":"cebpf4jnsgd1na2vs0mg"},{"bike_id":"bce3e484-f2d4-4d8b-b536-0eaec628a484","system_id":"levelo_inurba_marseille","lat":43.29625,"lon":5.37715,"is_reserved":false,"is_disabled":true,"rental_uris":{"android":"levelo://app?vid=bce3e484-f2d4-4d8b-b536-0eaec628a484","ios":"levelo://app?vid=bce3e484-f2d4-4d8b-b536-0eaec628a484"},"vehicle_type_id":"4","last_reported":1773995389,"current_range_meters":9200,"station_id":"ce4bgi92rcd13ifvqb90","pricing_plan_id":"cebpf4jnsgd1na2vs0mg"},{"bike_id":"d98676a3-493e-49af-8b89-e7d7e5b495a4","system_id":"levelo_inurba_marseille","lat":43.30554,"lon":5.36703,"is_reserved":false,"is_disabled":false,"rental_uris":{"android":"levelo://app?vid=d98676a3-493e-49af-8b89-e7d7e5b495a4","ios":"levelo://app?vid=d98676a3-493e-49af-8b89-e7d7e5b495a4"},"vehicle_type_id":"4","last_reported":1773995389,"current_range_meters":9200,"station_id":"ce4bgrp2rcd13ifvqc9g","pricing_plan_id":"cebpf4jnsgd1na2vs0mg"},{"bike_id":"e2420c11-4646-4145-aa2e-baedb91a43dc","system_id":"levelo_inurba_marseille","lat":43.3235,"lon":5.36865,"is_reserved":false,"is_disabled":false,"rental_uris":{"android":"levelo://app?vid=e2420c11-4646-4145-aa2e-baedb91a43dc","ios":"levelo://app?vid=e2420c11-4646-4145-aa2e-baedb91a43dc"},"vehicle_type_id":"4","last_reported":1773995389,"current_range_meters":9200,"station_id":"","pricing_plan_id":"cebpf4jnsgd1na2vs0mg"},{"bike_id":"d00ce6b1-d263-4644-9ac8-801c3d34ac19","system_id":"levelo_inurba_marseille","lat":43.22568,"lon":5.41628,"is_reserved":false,"is_disabled":false,"rental_uris":{"android":"levelo://app?vid=d00ce6b1-d263-4644-9ac8-801c3d34ac19","ios":"levelo://app?vid=d00ce6b1-d263-4644-9ac8-801c3d34ac19"},"vehicle_type_id":"4","last_reported":1773995389,"current_range_meters":9200,"station_id":"st_d2o4gvlbi1j2169b742g","pricing_plan_id":"cebpf4jnsgd1na2vs0mg"},{"bike_id":"1b491845-a098-414f-bdf6-ed8b8d983f9f","system_id":"levelo_inurba_marseille","lat":43.27224,"lon":5.39206,"is_reserved":false,"is_disabled":false,"rental_uris":{"android":"levelo://app?vid=1b491845-a098-414f-bdf6-ed8b8d983f9f","ios":"levelo://app?vid=1b491845-a098-414f-bdf6-ed8b8d983f9f"},"vehicle_type_id":"4","last_reported":1773995389,"current_range_meters":9200,"station_id":"ce4bhhp2rcd13ifvqfm0","pricing_plan_id":"cebpf4jnsgd1na2vs0mg"},{"bike_id":"58cc871d-ff3a-406d-a1ed-6dd3d9248448","system_id":"levelo_inurba_marseille","lat":43.25586,"lon":5.38249,"is_reserved":false,"is_disabled":false,"rental_uris":{"android":"levelo://app?vid=58cc871d-ff3a-406d-a1ed-6dd3d9248448","ios":"levelo://app?vid=58cc871d-ff3a-406d-a1ed-6dd3d9248448"},"vehicle_type_id":"4","last_reported":1773995389,"current_range_meters":9200,"station_id":"ce4bhih2rcd13ifvqfs0","pricing_plan_id":"cebpf4jnsgd1na2vs0mg"},{"bike_id":"962e3e51-db50-4f61-a079-9b1c6a103eb5","system_id":"levelo_inurba_marseille","lat":43.30963,"lon":5.36814,"is_reserved":false,"is_disabled":false,"rental_uris":{"android":"levelo://app?vid=962e3e51-db50-4f61-a079-9b1c6a103eb5","ios":"levelo://app?vid=962e3e51-db50-4f61-a079-9b1c6a103eb5"},"vehicle_type_id":"4","last_reported":1773995389,"current_range_meters":9200,"station_id":"","pricing_plan_id":"cebpf4jnsgd1na2vs0mg"},{"bike_id":"a6aee4fb-08dd-44b9-b25b-821449e80992","system_id":"levelo_inurba_marseille","lat":43.24075,"lon":5.37756,"is_reserved":false,"is_disabled":false,"rental_uris":{"android":"levelo://app?vid=a6aee4fb-08dd-44b9-b25b-821449e80992","ios":"levelo://app?vid=a6aee4fb-08dd-44b9-b25b-821449e80992"},"vehicle_type_id":"4","last_reported":1773995389,"current_range_meters":9200,"station_id":"ce4bhnp2rcd13ifvqgvg","pricing_plan_id":"cebpf4jnsgd1na2vs0mg"},{"bike_id":"7f166c91-9eb1-4dc8-a940-85d8139ad9d9","system_id":"levelo_inurba_marseille","lat":43.23957,"lon":5.36628,"is_reserved":false,"is_disabled":false,"rental_uris":{"android":"levelo://app?vid=7f166c91-9eb1-4dc8-a940-85d8139ad9d9","ios":"levelo://app?vid=7f166c91-9eb1-4dc8-a940-85d8139ad9d9"},"vehicle_type_id":"4","last_reported":1773995389,"current_range_meters":9200,"station_id":"ce4bhi12rcd13ifvqfp0","pricing_plan_id":"cebpf4jnsgd1na2vs0mg"},{"bike_id":"0dd8d589-4a6d-4082-a137-d21e10b6d75e","system_id":"levelo_inurba_marseille","lat":43.30155,"lon":5.37416,"is_reserved":false,"is_disabled":false,"rental_uris":{"android":"levelo://app?vid=0dd8d589-4a6d-4082-a137-d21e10b6d75e","ios":"levelo://app?vid=0dd8d589-4a6d-4082-a137-d21e10b6d75e"},"vehicle_type_id":"4","last_reported":1773995389,"current_range_meters":9200,"station_id":"ce4bgs92rcd13ifvqcc0","pricing_plan_id":"cebpf4jnsgd1na2vs0mg"},{"bike_id":"022b4814-689d-4053-937b-7490fcb4fa75","system_id":"levelo_inurba_marseille","lat":43.30139,"lon":5.37422,"is_reserved":false,"is_disabled":false,"rental_uris":{"android":"levelo://app?vid=022b4814-689d-4053-937b-7490fcb4fa75","ios":"levelo://app?vid=022b4814-689d-4053-937b-7490fcb4fa75"},"vehicle_type_id":"4","last_reported":1773995389,"current_range_meters":9200,"station_id":"ce4bgs92rcd13ifvqcc0","pricing_plan_id":"cebpf4jnsgd1na2vs0mg"},{"bike_id":"a1117b0d-adc7-4202-903a-8470d6524d71","system_id":"levelo_inurba_marseille","lat":43.23965,"lon":5.3663,"is_reserved":false,"is_disabled":false,"rental_uris":{"android":"levelo://app?vid=a1117b0d-adc7-4202-903a-8470d6524d71","ios":"levelo://app?vid=a1117b0d-adc7-4202-903a-8470d6524d71"},"vehicle_type_id":"4","last_reported":1773995389,"current_range_meters":9200,"station_id":"ce4bhi12rcd13ifvqfp0","pricing_plan_id":"cebpf4jnsgd1na2vs0mg"},{"bike_id":"43474376-460f-41d4-ad51-839390348830","system_id":"levelo_inurba_marseille","lat":43.29056,"lon":5.37156,"is_reserved":false,"is_disabled":true,"rental_uris":{"android":"levelo://app?vid=43474376-460f-41d4-ad51-839390348830","ios":"levelo://app?vid=43474376-460f-41d4-ad51-839390348830"},"vehicle_type_id":"4","last_reported":1773995389,"current_range_meters":9200,"station_id":"ce4bh5p2rcd13ifvqe4g","pricing_plan_id":"cebpf4jnsgd1na2vs0mg"},{"bike_id":"a25ba43a-c6ee-4b4b-8910-4e69f5535daf","system_id":"levelo_inurba_marseille","lat":43.28143,"lon":5.42649,"is_reserved":false,"is_disabled":false,"rental_uris":{"android":"levelo://app?vid=a25ba43a-c6ee-4b4b-8910-4e69f5535daf","ios":"levelo://app?vid=a25ba43a-c6ee-4b4b-8910-4e69f5535daf"},"vehicle_type_id":"4","last_reported":1773995389,"current_range_meters":9200,"station_id":"ce4bhnh2rcd13ifvqgug","pricing_plan_id":"cebpf4jnsgd1na2vs0mg"},{"bike_id":"086b6e9d-5651-4f8f-8948-d3090ad08b80","system_id":"levelo_inurba_marseille","lat":43.2407,"lon":5.37765,"is_reserved":false,"is_disabled":false,"rental_uris":{"android":"levelo://app?vid=086b6e9d-5651-4f8f-8948-d3090ad08b80","ios":"levelo://app?vid=086b6e9d-5651-4f8f-8948-d3090ad08b80"},"vehicle_type_id":"4","last_reported":1773995389,"current_range_meters":9200,"station_id":"ce4bhnp2rcd13ifvqgvg","pricing_plan_id":"cebpf4jnsgd1na2vs0mg"},{"bike_id":"7101e1d4-1ea9-4538-809a-dba34804b1bc","system_id":"levelo_inurba_marseille","lat":43.24538,"lon":5.39522,"is_reserved":false,"is_disabled":false,"rental_uris":{"android":"levelo://app?vid=7101e1d4-1ea9-4538-809a-dba34804b1bc","ios":"levelo://app?vid=7101e1d4-1ea9-4538-809a-dba34804b1bc"},"vehicle_type_id":"4","last_reported":1773995389,"current_range_meters":9200,"station_id":"ce4bhlp2rcd13ifvqgjg","pricing_plan_id":"cebpf4jnsgd1na2vs0mg"},{"bike_id":"6746a57c-7672-44c4-9c2e-91ebfddf4461","system_id":"levelo_inurba_marseille","lat":43.2736,"lon":5.3911,"is_reserved":false,"is_disabled":false,"rental_uris":{"android":"levelo://app?vid=6746a57c-7672-44c4-9c2e-91ebfddf4461","ios":"levelo://app?vid=6746a57c-7672-44c4-9c2e-91ebfddf4461"},"vehicle_type_id":"4","last_reported":1773995389,"current_range_meters":9200,"station_id":"ce4bhgp2rcd13ifvqfe0","pricing_plan_id":"cebpf4jnsgd1na2vs0mg"},{"bike_id":"a8eb9133-cb99-4e58-a689-d05b4da528a5","system_id":"levelo_inurba_marseille","lat":43.33749,"lon":5.37482,"is_reserved":false,"is_disabled":true,"rental_uris":{"android":"levelo://app?vid=a8eb9133-cb99-4e58-a689-d05b4da528a5","ios":"levelo://app?vid=a8eb9133-cb99-4e58-a689-d05b4da528a5"},"vehicle_type_id":"4","last_reported":1773995389,"current_range_meters":9200,"station_id":"","pricing_plan_id":"cebpf4jnsgd1na2vs0mg"},{"bike_id":"083cb503-4009-4033-842a-8c61123e435b","system_id":"levelo_inurba_marseille","lat":43.3054,"lon":5.36526,"is_reserved":false,"is_disabled":false,"rental_uris":{"android":"levelo://app?vid=083cb503-4009-4033-842a-8c61123e435b","ios":"levelo://app?vid=083cb503-4009-4033-842a-8c61123e435b"},"vehicle_type_id":"4","last_reported":1773995389,"current_range_meters":9200,"station_id":"ce4bgs12rcd13ifvqcag","pricing_plan_id":"cebpf4jnsgd1na2vs0mg"},{"bike_id":"5f3cb7ac-7ae3-44f9-b2d0-1f822681fdae","system_id":"levelo_inurba_marseille","lat":43.2406,"lon":5.37758,"is_reserved":false,"is_disabled":false,"rental_uris":{"android":"levelo://app?vid=5f3cb7ac-7ae3-44f9-b2d0-1f822681fdae","ios":"levelo://app?vid=5f3cb7ac-7ae3-44f9-b2d0-1f822681fdae"},"vehicle_type_id":"4","last_reported":1773995389,"current_range_meters":9600,"station_id":"ce4bhnp2rcd13ifvqgvg","pricing_plan_id":"cebpf4jnsgd1na2vs0mg"},{"bike_id":"31f54568-ee2a-4e1a-8776-1ff926e2109d","system_id":"levelo_inurba_marseille","lat":43.25932,"lon":5.40894,"is_reserved":false,"is_disabled":false,"rental_uris":{"android":"levelo://app?vid=31f54568-ee2a-4e1a-8776-1ff926e2109d","ios":"levelo://app?vid=31f54568-ee2a-4e1a-8776-1ff926e2109d"},"vehicle_type_id":"4","last_reported":1773995389,"current_range_meters":9600,"station_id":"ce4bhm92rcd13ifvqglg","pricing_plan_id":"cebpf4jnsgd1na2vs0mg"},{"bike_id":"54b8391b-9041-426a-8386-b4be1f248145","system_id":"levelo_inurba_marseille","lat":43.25004,"lon":5.38921,"is_reserved":false,"is_disabled":true,"rental_uris":{"android":"levelo://app?vid=54b8391b-9041-426a-8386-b4be1f248145","ios":"levelo://app?vid=54b8391b-9041-426a-8386-b4be1f248145"},"vehicle_type_id":"4","last_reported":1773995389,"current_range_meters":9600,"station_id":"ce4bhgp2rcd13ifvqfd0","pricing_plan_id":"cebpf4jnsgd1na2vs0mg"},{"bike_id":"d4c6f501-fff5-4202-ab66-c28212c8a314","system_id":"levelo_inurba_marseille","lat":43.23182,"lon":5.39987,"is_reserved":false,"is_disabled":false,"rental_uris":{"android":"levelo://app?vid=d4c6f501-fff5-4202-ab66-c28212c8a314","ios":"levelo://app?vid=d4c6f501-fff5-4202-ab66-c28212c8a314"},"vehicle_type_id":"4","last_reported":1773995389,"current_range_meters":9600,"station_id":"ce4bhn12rcd13ifvqgqg","pricing_plan_id":"cebpf4jnsgd1na2vs0mg"},{"bike_id":"2c41bbea-f653-4edc-96d4-bb894966df24","system_id":"levelo_inurba_marseille","lat":43.29256,"lon":5.37612,"is_reserved":false,"is_disabled":false,"rental_uris":{"android":"levelo://app?vid=2c41bbea-f653-4edc-96d4-bb894966df24","ios":"levelo://app?vid=2c41bbea-f653-4edc-96d4-bb894966df24"},"vehicle_type_id":"4","last_reported":1773995389,"current_range_meters":9600,"station_id":"ce4bgi12rcd13ifvqb80","pricing_plan_id":"cebpf4jnsgd1na2vs0mg"},{"bike_id":"f3414e99-2d7c-4b03-96db-df8c1c6d3f2b","system_id":"levelo_inurba_marseille","lat":43.28486,"lon":5.48394,"is_reserved":false,"is_disabled":false,"rental_uris":{"android":"levelo://app?vid=f3414e99-2d7c-4b03-96db-df8c1c6d3f2b","ios":"levelo://app?vid=f3414e99-2d7c-4b03-96db-df8c1c6d3f2b"},"vehicle_type_id":"4","last_reported":1773995389,"current_range_meters":9600,"station_id":"","pricing_plan_id":"cebpf4jnsgd1na2vs0mg"},{"bike_id":"bfa999de-7a32-454a-b31e-f99ace51a3fc","system_id":"levelo_inurba_marseille","lat":43.28471,"lon":5.48396,"is_reserved":false,"is_disabled":false,"rental_uris":{"android":"levelo://app?vid=bfa999de-7a32-454a-b31e-f99ace51a3fc","ios":"levelo://app?vid=bfa999de-7a32-454a-b31e-f99ace51a3fc"},"vehicle_type_id":"4","last_reported":1773995389,"current_range_meters":9600,"station_id":"","pricing_plan_id":"cebpf4jnsgd1na2vs0mg"},{"bike_id":"b3b3bb0b-fb2d-4490-a557-6f80b344e03f","system_id":"levelo_inurba_marseille","lat":43.28943,"lon":5.39636,"is_reserved":false,"is_disabled":true,"rental_uris":{"android":"levelo://app?vid=b3b3bb0b-fb2d-4490-a557-6f80b344e03f","ios":"levelo://app?vid=b3b3bb0b-fb2d-4490-a557-6f80b344e03f"},"vehicle_type_id":"4","last_reported":1773995389,"current_range_meters":9600,"station_id":"ce4bh3h2rcd13ifvqdn0","pricing_plan_id":"cebpf4jnsgd1na2vs0mg"},{"bike_id":"d83d86a0-48a4-442a-9465-a11cff966d5c","system_id":"levelo_inurba_marseille","lat":43.30463,"lon":5.37918,"is_reserved":false,"is_disabled":false,"rental_uris":{"android":"levelo://app?vid=d83d86a0-48a4-442a-9465-a11cff966d5c","ios":"levelo://app?vid=d83d86a0-48a4-442a-9465-a11cff966d5c"},"vehicle_type_id":"4","last_reported":1773995389,"current_range_meters":9600,"station_id":"","pricing_plan_id":"cebpf4jnsgd1na2vs0mg"},{"bike_id":"e0cac70a-102e-45a3-a5cc-d5ba79673d38","system_id":"levelo_inurba_marseille","lat":43.28166,"lon":5.42656,"is_reserved":false,"is_disabled":false,"rental_uris":{"android":"levelo://app?vid=e0cac70a-102e-45a3-a5cc-d5ba79673d38","ios":"levelo://app?vid=e0cac70a-102e-45a3-a5cc-d5ba79673d38"},"vehicle_type_id":"4","last_reported":1773995389,"current_range_meters":9600,"station_id":"ce4bhnh2rcd13ifvqgug","pricing_plan_id":"cebpf4jnsgd1na2vs0mg"},{"bike_id":"fdf3c357-a626-41c0-a3da-d576703751dc","system_id":"levelo_inurba_marseille","lat":43.31687,"lon":5.40476,"is_reserved":false,"is_disabled":false,"rental_uris":{"android":"levelo://app?vid=fdf3c357-a626-41c0-a3da-d576703751dc","ios":"levelo://app?vid=fdf3c357-a626-41c0-a3da-d576703751dc"},"vehicle_type_id":"4","last_reported":1773995389,"current_range_meters":9600,"station_id":"ce4bh012rcd13ifvqd00","pricing_plan_id":"cebpf4jnsgd1na2vs0mg"},{"bike_id":"d2151fe8-93b2-41db-b753-f3ae17dc6dbd","system_id":"levelo_inurba_marseille","lat":43.30952,"lon":5.39034,"is_reserved":false,"is_disabled":false,"rental_uris":{"android":"levelo://app?vid=d2151fe8-93b2-41db-b753-f3ae17dc6dbd","ios":"levelo://app?vid=d2151fe8-93b2-41db-b753-f3ae17dc6dbd"},"vehicle_type_id":"4","last_reported":1773995389,"current_range_meters":9600,"station_id":"ce4bgup2rcd13ifvqco0","pricing_plan_id":"cebpf4jnsgd1na2vs0mg"},{"bike_id":"bd41e192-5def-446f-884b-7636c2db130f","system_id":"levelo_inurba_marseille","lat":43.33153,"lon":5.37694,"is_reserved":false,"is_disabled":false,"rental_uris":{"android":"levelo://app?vid=bd41e192-5def-446f-884b-7636c2db130f","ios":"levelo://app?vid=bd41e192-5def-446f-884b-7636c2db130f"},"vehicle_type_id":"4","last_reported":1773995389,"current_range_meters":9600,"station_id":"st_d46cu089ee8s73dldbu0","pricing_plan_id":"cebpf4jnsgd1na2vs0mg"},{"bike_id":"aef78bd0-ea9a-490e-b29e-79fe1986976a","system_id":"levelo_inurba_marseille","lat":43.24654,"lon":5.38902,"is_reserved":false,"is_disabled":false,"rental_uris":{"android":"levelo://app?vid=aef78bd0-ea9a-490e-b29e-79fe1986976a","ios":"levelo://app?vid=aef78bd0-ea9a-490e-b29e-79fe1986976a"},"vehicle_type_id":"4","last_reported":1773995389,"current_range_meters":9600,"station_id":"ce4bhg12rcd13ifvqf60","pricing_plan_id":"cebpf4jnsgd1na2vs0mg"},{"bike_id":"742e72d0-2b76-4bf8-8e8a-5ba06d2d0ca8","system_id":"levelo_inurba_marseille","lat":43.24654,"lon":5.38892,"is_reserved":false,"is_disabled":false,"rental_uris":{"android":"levelo://app?vid=742e72d0-2b76-4bf8-8e8a-5ba06d2d0ca8","ios":"levelo://app?vid=742e72d0-2b76-4bf8-8e8a-5ba06d2d0ca8"},"vehicle_type_id":"4","last_reported":1773995389,"current_range_meters":9600,"station_id":"ce4bhg12rcd13ifvqf60","pricing_plan_id":"cebpf4jnsgd1na2vs0mg"},{"bike_id":"4658d247-05fe-455a-9e2a-44f5d6302ebe","system_id":"levelo_inurba_marseille","lat":43.30133,"lon":5.38112,"is_reserved":false,"is_disabled":true,"rental_uris":{"android":"levelo://app?vid=4658d247-05fe-455a-9e2a-44f5d6302ebe","ios":"levelo://app?vid=4658d247-05fe-455a-9e2a-44f5d6302ebe"},"vehicle_type_id":"4","last_reported":1773995389,"current_range_meters":9600,"station_id":"ce4bgjp2rcd13ifvqbh0","pricing_plan_id":"cebpf4jnsgd1na2vs0mg"},{"bike_id":"9c69e0d4-90c1-4452-8e5e-e9afbf53d0c6","system_id":"levelo_inurba_marseille","lat":43.30652,"lon":5.39345,"is_reserved":false,"is_disabled":true,"rental_uris":{"android":"levelo://app?vid=9c69e0d4-90c1-4452-8e5e-e9afbf53d0c6","ios":"levelo://app?vid=9c69e0d4-90c1-4452-8e5e-e9afbf53d0c6"},"vehicle_type_id":"4","last_reported":1773995389,"current_range_meters":10000,"station_id":"","pricing_plan_id":"cebpf4jnsgd1na2vs0mg"},{"bike_id":"b63e28c4-e4db-4a92-a9ce-06fc27566f70","system_id":"levelo_inurba_marseille","lat":43.254928,"lon":5.376482,"is_reserved":false,"is_disabled":true,"rental_uris":{"android":"levelo://app?vid=b63e28c4-e4db-4a92-a9ce-06fc27566f70","ios":"levelo://app?vid=b63e28c4-e4db-4a92-a9ce-06fc27566f70"},"vehicle_type_id":"4","last_reported":1773995389,"current_range_meters":10000,"station_id":"ce4bhh12rcd13ifvqff0","pricing_plan_id":"cebpf4jnsgd1na2vs0mg"},{"bike_id":"92f32112-8a58-4a2d-8380-c50aa46da344","system_id":"levelo_inurba_marseille","lat":43.24061,"lon":5.3637,"is_reserved":false,"is_disabled":false,"rental_uris":{"android":"levelo://app?vid=92f32112-8a58-4a2d-8380-c50aa46da344","ios":"levelo://app?vid=92f32112-8a58-4a2d-8380-c50aa46da344"},"vehicle_type_id":"4","last_reported":1773995389,"current_range_meters":10000,"station_id":"","pricing_plan_id":"cebpf4jnsgd1na2vs0mg"},{"bike_id":"1ada5283-9afe-4610-93e7-df507e72c73e","system_id":"levelo_inurba_marseille","lat":43.27224,"lon":5.39183,"is_reserved":false,"is_disabled":false,"rental_uris":{"android":"levelo://app?vid=1ada5283-9afe-4610-93e7-df507e72c73e","ios":"levelo://app?vid=1ada5283-9afe-4610-93e7-df507e72c73e"},"vehicle_type_id":"4","last_reported":1773995389,"current_range_meters":10000,"station_id":"ce4bhhp2rcd13ifvqfm0","pricing_plan_id":"cebpf4jnsgd1na2vs0mg"},{"bike_id":"3676a395-9d4a-4d07-81c5-7b1d4a0acb38","system_id":"levelo_inurba_marseille","lat":43.31565,"lon":5.37278,"is_reserved":false,"is_disabled":false,"rental_uris":{"android":"levelo://app?vid=3676a395-9d4a-4d07-81c5-7b1d4a0acb38","ios":"levelo://app?vid=3676a395-9d4a-4d07-81c5-7b1d4a0acb38"},"vehicle_type_id":"4","last_reported":1773995389,"current_range_meters":10000,"station_id":"","pricing_plan_id":"cebpf4jnsgd1na2vs0mg"},{"bike_id":"47786148-3158-4346-a285-e47a9280a644","system_id":"levelo_inurba_marseille","lat":43.26575,"lon":5.39013,"is_reserved":false,"is_disabled":false,"rental_uris":{"android":"levelo://app?vid=47786148-3158-4346-a285-e47a9280a644","ios":"levelo://app?vid=47786148-3158-4346-a285-e47a9280a644"},"vehicle_type_id":"4","last_reported":1773995389,"current_range_meters":10000,"station_id":"ce4bhe12rcd13ifvqf30","pricing_plan_id":"cebpf4jnsgd1na2vs0mg"},