{"last_updated":1745756222,"ttl":60,"version":"2.2","data":{"bikes":[{"bike_id":"d1ff7e34-d25d-4063-9648-2bd4db47424f","system_id":"levelo_inurba_marseille","lat":43.32455,"lon":5.39145,"is_reserved":false,"is_disabled":true,"rental_uris":{"android":"levelo://app?vid=d1ff7e34-d25d-4063-9648-2bd4db47424f","ios":"levelo://app?vid=d1ff7e34-d25d-4063-9648-2bd4db47424f"},"vehicle_type_id":"4","last_reported":1745756222,"current_range_meters":2800,"station_id":"","pricing_plan_id":"cebpf4jnsgd1na2vs0mg"},{"bike_id":"422b5989-c8b6-43aa-b2b9-3bfeb2e1ddc0","system_id":"levelo_inurba_marseille","lat":43.24732,"lon":5.41175,"is_reserved":false,"is_disabled":false,"rental_uris":{"android":"levelo://app?vid=422b5989-c8b6-43aa-b2b9-3bfeb2e1ddc0","ios":"levelo://app?vid=422b5989-c8b6-43aa-b2b9-3bfeb2e1ddc0"},"vehicle_type_id":"4","last_reported":1745756222,"current_range_meters":3200,"station_id":"","pricing_plan_id":"cebpf4jnsgd1na2vs0mg"},{"bike_id":"65321f1e-6077-4b02-ac21-c71a2e8206f6","system_id":"levelo_inurba_marseille","lat":43.30937,"lon":5.40139,"is_reserved":false,"is_disabled":false,"rental_uris":{"android":"levelo://app?vid=65321f1e-6077-4b02-ac21-c71a2e8206f6","ios":"levelo://app?vid=65321f1e-6077-4b02-ac21-c71a2e8206f6"},"vehicle_type_id":"4","last_reported":1745756222,"current_range_meters":3600,"station_id":"ce4bgvp2rcd13ifvqct0","pricing_plan_id":"cebpf4jnsgd1na2vs0mg"},{"bike_id":"81c73c21-67ed-4f0c-90c5-f77345538f7f","system_id":"levelo_inurba_marseille","lat":43.2319,"lon":5.39985,"is_reserved":false,"is_disabled":false,"rental_uris":{"android":"levelo://app?vid=81c73c21-67ed-4f0c-90c5-f77345538f7f","ios":"levelo://app?vid=81c73c21-67ed-4f0c-90c5-f77345538f7f"},"vehicle_type_id":"4","last_reported":1745756222,"current_range_meters":3600,"station_id":"ce4bhn12rcd13ifvqgqg","pricing_plan_id":"cebpf4jnsgd1na2vs0mg"},{"bike_id":"d01aeacf-5e93-4197-9a5e-6cee46232bde","system_id":"levelo_inurba_marseille","lat":43.32276,"lon":5.38305,"is_reserved":false,"is_disabled":false,"rental_uris":{"android":"levelo://app?vid=d01aeacf-5e93-4197-9a5e-6cee46232bde","ios":"levelo://app?vid=d01aeacf-5e93-4197-9a5e-6cee46232bde"},"vehicle_type_id":"4","last_reported":1745756222,"current_range_meters":3200,"station_id":"ce4bhr12rcd13ifvqhqg","pricing_plan_id":"cebpf4jnsgd1na2vs0mg"},{"bike_id":"3df4e91b-4142-47b8-8023-55ad9db402b0","system_id":"levelo_inurba_marseille","lat":43.30589,"lon":5.3935,"is_reserved":false,"is_disabled":false,"rental_uris":{"android":"levelo://app?vid=3df4e91b-4142-47b8-8023-55ad9db402b0","ios":"levelo://app?vid=3df4e91b-4142-47b8-8023-55ad9db402b0"},"vehicle_type_id":"4","last_reported":1745756222,"current_range_meters":3600,"station_id":"ce4bh0p2rcd13ifvqd80","pricing_plan_id":"cebpf4jnsgd1na2vs0mg"},{"bike_id":"8175a646-32a8-4141-a46e-044507384db4","system_id":"levelo_inurba_marseille","lat":43.29021,"lon":5.38128,"is_reserved":false,"is_disabled":false,"rental_uris":{"android":"levelo://app?vid=8175a646-32a8-4141-a46e-044507384db4","ios":"levelo://app?vid=8175a646-32a8-4141-a46e-044507384db4"},"vehicle_type_id":"4","last_reported":1745756222,"current_range_meters":3600,"station_id":"ce4bh4p2rcd13ifvqe1g","pricing_plan_id":"cebpf4jnsgd1na2vs0mg"},{"bike_id":"67ad6e68-1ba2-41a2-84c8-86c6d1943b89","system_id":"levelo_inurba_marseille","lat":43.26945,"lon":5.40235,"is_reserved":false,"is_disabled":false,"rental_uris":{"android":"levelo://app?vid=67ad6e68-1ba2-41a2-84c8-86c6d1943b89","ios":"levelo://app?vid=67ad6e68-1ba2-41a2-84c8-86c6d1943b89"},"vehicle_type_id":"4","last_reported":1745756222,"current_range_meters":4000,"station_id":"cjm6bp8fraef2m0cb0m0","pricing_plan_id":"cebpf4jnsgd1na2vs0mg"},{"bike_id":"11401a89-1aad-4932-8dc9-873ec02586b9","system_id":"levelo_inurba_marseille","lat":43.22507,"lon":5.34773,"is_reserved":false,"is_disabled":false,"rental_uris":{"android":"levelo://app?vid=11401a89-1aad-4932-8dc9-873ec02586b9","ios":"levelo://app?vid=11401a89-1aad-4932-8dc9-873ec02586b9"},"vehicle_type_id":"4","last_reported":1745756222,"current_range_meters":4800,"station_id":"st_cvj5dfep6f1abm77gieg","pricing_plan_id":"cebpf4jnsgd1na2vs0mg"},{"bike_id":"04d70716-1e19-4e8d-930b-643cd3956115","system_id":"levelo_inurba_marseille","lat":43.29855,"lon":5.36272,"is_reserved":false,"is_disabled":false,"rental_uris":{"android":"levelo://app?vid=04d70716-1e19-4e8d-930b-643cd3956115","ios":"levelo://app?vid=04d70716-1e19-4e8d-930b-643cd3956115"},"vehicle_type_id":"4","last_reported":1745756222,"current_range_meters":4800,"station_id":"ce4bgpp2rcd13ifvqc3g","pricing_plan_id":"cebpf4jnsgd1na2vs0mg"},{"bike_id":"ca570128-a1d8-4fc9-b4ae-d1371ee8f806","system_id":"levelo_inurba_marseille","lat":43.31457,"lon":5.37278,"is_reserved":false,"is_disabled":false,"rental_uris":{"android":"levelo://app?vid=ca570128-a1d8-4fc9-b4ae-d1371ee8f806","ios":"levelo://app?vid=ca570128-a1d8-4fc9-b4ae-d1371ee8f806"},"vehicle_type_id":"4","last_reported":1745756222,"current_range_meters":5600,"station_id":"ce4bgt12rcd13ifvqcd0","pricing_plan_id":"cebpf4jnsgd1na2vs0mg"},{"bike_id":"d48770ea-271d-480f-a83f-8620fe6a1833","system_id":"levelo_inurba_marseille","lat":43.28176,"lon":5.40462,"is_reserved":false,"is_disabled":true,"rental_uris":{"android":"levelo://app?vid=d48770ea-271d-480f-a83f-8620fe6a1833","ios":"levelo://app?vid=d48770ea-271d-480f-a83f-8620fe6a1833"},"vehicle_type_id":"4","last_reported":1745756222,"current_range_meters":5600,"station_id":"","pricing_plan_id":"cebpf4jnsgd1na2vs0mg"},{"bike_id":"5dd650ad-4965-4cc2-9d12-0018adfab3be","system_id":"levelo_inurba_marseille","lat":43.29846,"lon":5.36274,"is_reserved":false,"is_disabled":false,"rental_uris":{"android":"levelo://app?vid=5dd650ad-4965-4cc2-9d12-0018adfab3be","ios":"levelo://app?vid=5dd650ad-4965-4cc2-9d12-0018adfab3be"},"vehicle_type_id":"4","last_reported":1745756222,"current_range_meters":6000,"station_id":"ce4bgpp2rcd13ifvqc3g","pricing_plan_id":"cebpf4jnsgd1na2vs0mg"},{"bike_id":"2fac31c9-ecd4-4c07-9ea5-ab959ac9f813","system_id":"levelo_inurba_marseille","lat":43.2467,"lon":5.38164,"is_reserved":false,"is_disabled":true,"rental_uris":{"android":"levelo://app?vid=2fac31c9-ecd4-4c07-9ea5-ab959ac9f813","ios":"levelo://app?vid=2fac31c9-ecd4-4c07-9ea5-ab959ac9f813"},"vehicle_type_id":"4","last_reported":1745756222,"current_range_meters":6000,"station_id":"ce4bhih2rcd13ifvqfr0","pricing_plan_id":"cebpf4jnsgd1na2vs0mg"},{"bike_id":"0e529d35-5772-4b78-b8bf-d4a455e1782e","system_id":"levelo_inurba_marseille","lat":43.29913,"lon":5.38151,"is_reserved":false,"is_disabled":false,"rental_uris":{"android":"levelo://app?vid=0e529d35-5772-4b78-b8bf-d4a455e1782e","ios":"levelo://app?vid=0e529d35-5772-4b78-b8bf-d4a455e1782e"},"vehicle_type_id":"4","last_reported":1745756222,"current_range_meters":6000,"station_id":"ce4bgj12rcd13ifvqbc0","pricing_plan_id":"cebpf4jnsgd1na2vs0mg"},{"bike_id":"1a218788-c815-4ad6-9544-de13a3fc056c","system_id":"levelo_inurba_marseille","lat":43.30522,"lon":5.36579,"is_reserved":false,"is_disabled":false,"rental_uris":{"android":"levelo://app?vid=1a218788-c815-4ad6-9544-de13a3fc056c","ios":"levelo://app?vid=1a218788-c815-4ad6-9544-de13a3fc056c"},"vehicle_type_id":"4","last_reported":1745756222,"current_range_meters":6800,"station_id":"ce4bgs12rcd13ifvqcag","pricing_plan_id":"cebpf4jnsgd1na2vs0mg"},{"bike_id":"c886bc95-a9f4-4b08-af93-286cc6dbd1ea","system_id":"levelo_inurba_marseille","lat":43.24166,"lon":5.36395,"is_reserved":false,"is_disabled":false,"rental_uris":{"android":"levelo://app?vid=c886bc95-a9f4-4b08-af93-286cc6dbd1ea","ios":"levelo://app?vid=c886bc95-a9f4-4b08-af93-286cc6dbd1ea"},"vehicle_type_id":"4","last_reported":1745756222,"current_range_meters":6800,"station_id":"cpo36qri1sfpv3e86is0","pricing_plan_id":"cebpf4jnsgd1na2vs0mg"},{"bike_id":"b9d9721d-c534-4190-b885-afd25bc0dc94","system_id":"levelo_inurba_marseille","lat":43.29275,"lon":5.37605,"is_reserved":false,"is_disabled":false,"rental_uris":{"android":"levelo://app?vid=b9d9721d-c534-4190-b885-afd25bc0dc94","ios":"levelo://app?vid=b9d9721d-c534-4190-b885-afd25bc0dc94"},"vehicle_type_id":"4","last_reported":1745756222,"current_range_meters":6800,"station_id":"ce4bgi12rcd13ifvqb80","pricing_plan_id":"cebpf4jnsgd1na2vs0mg"},{"bike_id":"315151ff-5355-4995-8330-9351e720c910","system_id":"levelo_inurba_marseille","lat":43.23153,"lon":5.43699,"is_reserved":false,"is_disabled":false,"rental_uris":{"android":"levelo://app?vid=315151ff-5355-4995-8330-9351e720c910","ios":"levelo://app?vid=315151ff-5355-4995-8330-9351e720c910"},"vehicle_type_id":"4","last_reported":1745756222,"current_range_meters":6800,"station_id":"ce4bhmp2rcd13ifvqgog","pricing_plan_id":"cebpf4jnsgd1na2vs0mg"},{"bike_id":"de0c62e6-c060-47d5-8ca0-bd095387a71c","system_id":"levelo_inurba_marseille","lat":43.2861,"lon":5.35106,"is_reserved":false,"is_disabled":true,"rental_uris":{"android":"levelo://app?vid=de0c62e6-c060-47d5-8ca0-bd095387a71c","ios":"levelo://app?vid=de0c62e6-c060-47d5-8ca0-bd095387a71c"},"vehicle_type_id":"4","last_reported":1745756222,"current_range_meters":6800,"station_id":"ce4bhch2rcd13ifvqeug","pricing_plan_id":"cebpf4jnsgd1na2vs0mg"},{"bike_id":"571880c0-0712-439e-9fee-1111267484d9","system_id":"levelo_inurba_marseille","lat":43.28704,"lon":5.37939,"is_reserved":false,"is_disabled":true,"rental_uris":{"android":"levelo://app?vid=571880c0-0712-439e-9fee-1111267484d9","ios":"levelo://app?vid=571880c0-0712-439e-9fee-1111267484d9"},"vehicle_type_id":"4","last_reported":1745756222,"current_range_meters":7200,"station_id":"ce4bh9p2rcd13ifvqec0","pricing_plan_id":"cebpf4jnsgd1na2vs0mg"},{"bike_id":"b4b0266c-631d-4bc0-b722-43b22c86c85f","system_id":"levelo_inurba_marseille","lat":43.30988,"lon":5.41738,"is_reserved":false,"is_disabled":false,"rental_uris":{"android":"levelo://app?vid=b4b0266c-631d-4bc0-b722-43b22c86c85f","ios":"levelo://app?vid=b4b0266c-631d-4bc0-b722-43b22c86c85f"},"vehicle_type_id":"4","last_reported":1745756222,"current_range_meters":7200,"station_id":"","pricing_plan_id":"cebpf4jnsgd1na2vs0mg"},{"bike_id":"a7e6446b-f74e-4540-b1c7-340e7ab615b7","system_id":"levelo_inurba_marseille","lat":43.26059,"lon":5.39397,"is_reserved":false,"is_disabled":false,"rental_uris":{"android":"levelo://app?vid=a7e6446b-f74e-4540-b1c7-340e7ab615b7","ios":"levelo://app?vid=a7e6446b-f74e-4540-b1c7-340e7ab615b7"},"vehicle_type_id":"4","last_reported":1745756222,"current_range_meters":7200,"station_id":"ce4bhh92rcd13ifvqfj0","pricing_plan_id":"cebpf4jnsgd1na2vs0mg"},{"bike_id":"3f485f12-ccbf-4cc6-bfee-26b7c2709069","system_id":"levelo_inurba_marseille","lat":43.28185,"lon":5.49061,"is_reserved":false,"is_disabled":false,"rental_uris":{"android":"levelo://app?vid=3f485f12-ccbf-4cc6-bfee-26b7c2709069","ios":"levelo://app?vid=3f485f12-ccbf-4cc6-bfee-26b7c2709069"},"vehicle_type_id":"4","last_reported":1745756222,"current_range_meters":7200,"station_id":"","pricing_plan_id":"cebpf4jnsgd1na2vs0mg"},{"bike_id":"e768aa58-f78c-4d48-862b-93a92cf87bd8","system_id":"levelo_inurba_marseille","lat":43.32112,"lon":5.36784,"is_reserved":false,"is_disabled":false,"rental_uris":{"android":"levelo://app?vid=e768aa58-f78c-4d48-862b-93a92cf87bd8","ios":"levelo://app?vid=e768aa58-f78c-4d48-862b-93a92cf87bd8"},"vehicle_type_id":"4","last_reported":1745756222,"current_range_meters":8000,"station_id":"ce4bhrh2rcd13ifvqhug","pricing_plan_id":"cebpf4jnsgd1na2vs0mg"},{"bike_id":"18a1da39-80b1-4c63-b612-e0f7920279eb","system_id":"levelo_inurba_marseille","lat":43.284905,"lon":5.395115,"is_reserved":false,"is_disabled":false,"rental_uris":{"android":"levelo://app?vid=18a1da39-80b1-4c63-b612-e0f7920279eb","ios":"levelo://app?vid=18a1da39-80b1-4c63-b612-e0f7920279eb"},"vehicle_type_id":"4","last_reported":1745756222,"current_range_meters":8000,"station_id":"ce4bh0h2rcd13ifvqd50","pricing_plan_id":"cebpf4jnsgd1na2vs0mg"},{"bike_id":"042a36cf-a68c-4f02-8fbe-a3d4f36fa492","system_id":"levelo_inurba_marseille","lat":43.21192,"lon":5.35078,"is_reserved":false,"is_disabled":false,"rental_uris":{"android":"levelo://app?vid=042a36cf-a68c-4f02-8fbe-a3d4f36fa492","ios":"levelo://app?vid=042a36cf-a68c-4f02-8fbe-a3d4f36fa492"},"vehicle_type_id":"4","last_reported":1745756222,"current_range_meters":8000,"station_id":"st_cvj6sg6p6f1abm77japg","pricing_plan_id":"cebpf4jnsgd1na2vs0mg"},{"bike_id":"8aefe16e-4098-4acc-b378-ac641d76d6b7","system_id":"levelo_inurba_marseille","lat":43.32291,"lon":5.38285,"is_reserved":false,"is_disabled":false,"rental_uris":{"android":"levelo://app?vid=8aefe16e-4098-4acc-b378-ac641d76d6b7","ios":"levelo://app?vid=8aefe16e-4098-4acc-b378-ac641d76d6b7"},"vehicle_type_id":"4","last_reported":1745756222,"current_range_meters":8000,"station_id":"ce4bhr12rcd13ifvqhqg","pricing_plan_id":"cebpf4jnsgd1na2vs0mg"},{"bike_id":"aa7dd23a-c50c-4359-a4fa-3d29c4576751","system_id":"levelo_inurba_marseille","lat":43.24191,"lon":5.36418,"is_reserved":false,"is_disabled":false,"rental_uris":{"android":"levelo://app?vid=aa7dd23a-c50c-4359-a4fa-3d29c4576751","ios":"levelo://app?vid=aa7dd23a-c50c-4359-a4fa-3d29c4576751"},"vehicle_type_id":"4","last_reported":1745756222,"current_range_meters":8000,"station_id":"cpo36qri1sfpv3e86is0","pricing_plan_id":"cebpf4jnsgd1na2vs0mg"},{"bike_id":"c1b1b433-bcb9-4a7d-8963-3218bcdcba1e","system_id":"levelo_inurba_marseille","lat":43.233643,"lon":5.360518,"is_reserved":false,"is_disabled":false,"rental_uris":{"android":"levelo://app?vid=c1b1b433-bcb9-4a7d-8963-3218bcdcba1e","ios":"levelo://app?vid=c1b1b433-bcb9-4a7d-8963-3218bcdcba1e"},"vehicle_type_id":"4","last_reported":1745756222,"current_range_meters":8000,"station_id":"","pricing_plan_id":"cebpf4jnsgd1na2vs0mg"},{"bike_id":"994028fe-024e-43f7-a978-f2fbaf0803f2","system_id":"levelo_inurba_marseille","lat":43.27942,"lon":5.41049,"is_reserved":false,"is_disabled":false,"rental_uris":{"android":"levelo://app?vid=994028fe-024e-43f7-a978-f2fbaf0803f2","ios":"levelo://app?vid=994028fe-024e-43f7-a978-f2fbaf0803f2"},"vehicle_type_id":"4","last_reported":1745756222,"current_range_meters":8000,"station_id":"ce4bhnp2rcd13ifvqh0g","pricing_plan_id":"cebpf4jnsgd1na2vs0mg"},{"bike_id":"1a31acbc-2581-4cfd-8de0-0a624c1992f8","system_id":"levelo_inurba_marseille","lat":43.30468,"lon":5.37912,"is_reserved":false,"is_disabled":false,"rental_uris":{"android":"levelo://app?vid=1a31acbc-2581-4cfd-8de0-0a624c1992f8","ios":"levelo://app?vid=1a31acbc-2581-4cfd-8de0-0a624c1992f8"},"vehicle_type_id":"4","last_reported":1745756222,"current_range_meters":8400,"station_id":"ce4bgup2rcd13ifvqcn0","pricing_plan_id":"cebpf4jnsgd1na2vs0mg"},{"bike_id":"4c0b18d5-5f0b-4aaa-b446-bd1499dcdf2b","system_id":"levelo_inurba_marseille","lat":43.29906,"lon":5.38132,"is_reserved":false,"is_disabled":false,"rental_uris":{"android":"levelo://app?vid=4c0b18d5-5f0b-4aaa-b446-bd1499dcdf2b","ios":"levelo://app?vid=4c0b18d5-5f0b-4aaa-b446-bd1499dcdf2b"},"vehicle_type_id":"4","last_reported":1745756222,"current_range_meters":8400,"station_id":"ce4bgj12rcd13ifvqbc0","pricing_plan_id":"cebpf4jnsgd1na2vs0mg"},{"bike_id":"308ce0d7-54d5-4aec-879f-da2149307f93","system_id":"levelo_inurba_marseille","lat":43.22497,"lon":5.34804,"is_reserved":false,"is_disabled":true,"rental_uris":{"android":"levelo://app?vid=308ce0d7-54d5-4aec-879f-da2149307f93","ios":"levelo://app?vid=308ce0d7-54d5-4aec-879f-da2149307f93"},"vehicle_type_id":"4","last_reported":1745756222,"current_range_meters":8400,"station_id":"st_cvj5dfep6f1abm77gieg","pricing_plan_id":"cebpf4jnsgd1na2vs0mg"},{"bike_id":"9a23eaba-ba51-465d-aa37-226bafec3d84","system_id":"levelo_inurba_marseille","lat":43.21757,"lon":5.34604,"is_reserved":false,"is_disabled":false,"rental_uris":{"android":"levelo://app?vid=9a23eaba-ba51-465d-aa37-226bafec3d84","ios":"levelo://app?vid=9a23eaba-ba51-465d-aa37-226bafec3d84"},"vehicle_type_id":"4","last_reported":1745756222,"current_range_meters":8400,"station_id":"st_cvj6r9ubvosntc0bgbag","pricing_plan_id":"cebpf4jnsgd1na2vs0mg"},{"bike_id":"2d4820d4-569a-4ec0-b000-e82a960dd30b","system_id":"levelo_inurba_marseille","lat":43.231272,"lon":5.355126,"is_reserved":false,"is_disabled":false,"rental_uris":{"android":"levelo://app?vid=2d4820d4-569a-4ec0-b000-e82a960dd30b","ios":"levelo://app?vid=2d4820d4-569a-4ec0-b000-e82a960dd30b"},"vehicle_type_id":"4","last_reported":1745756222,"current_range_meters":8400,"station_id":"","pricing_plan_id":"cebpf4jnsgd1na2vs0mg"},{"bike_id":"81159e63-3b35-42d5-8e59-a6400c53568e","system_id":"levelo_inurba_marseille","lat":43.21755,"lon":5.34611,"is_reserved":false,"is_disabled":false,"rental_uris":{"android":"levelo://app?vid=81159e63-3b35-42d5-8e59-a6400c53568e","ios":"levelo://app?vid=81159e63-3b35-42d5-8e59-a6400c53568e"},"vehicle_type_id":"4","last_reported":1745756222,"current_range_meters":8400,"station_id":"st_cvj6r9ubvosntc0bgbag","pricing_plan_id":"cebpf4jnsgd1na2vs0mg"},{"bike_id":"6d7cc870-ccfd-4f48-96fb-e8c1f82a64cc","system_id":"levelo_inurba_marseille","lat":43.29784,"lon":5.37095,"is_reserved":false,"is_disabled":true,"rental_uris":{"android":"levelo://app?vid=6d7cc870-ccfd-4f48-96fb-e8c1f82a64cc","ios":"levelo://app?vid=6d7cc870-ccfd-4f48-96fb-e8c1f82a64cc"},"vehicle_type_id":"4","last_reported":1745756222,"current_range_meters":8400,"station_id":"ce4bgop2rcd13ifvqc1g","pricing_plan_id":"cebpf4jnsgd1na2vs0mg"},{"bike_id":"9d24975d-5989-4c6e-bc54-bdc168e02c5f","system_id":"levelo_inurba_marseille","lat":43.24513,"lon":5.41209,"is_reserved":false,"is_disabled":false,"rental_uris":{"android":"levelo://app?vid=9d24975d-5989-4c6e-bc54-bdc168e02c5f","ios":"levelo://app?vid=9d24975d-5989-4c6e-bc54-bdc168e02c5f"},"vehicle_type_id":"4","last_reported":1745756222,"current_range_meters":8400,"station_id":"","pricing_plan_id":"cebpf4jnsgd1na2vs0mg"},{"bike_id":"28728a0f-e818-49cd-8a68-86b5d1925f3c","system_id":"levelo_inurba_marseille","lat":43.28413,"lon":5.37509,"is_reserved":false,"is_disabled":false,"rental_uris":{"android":"levelo://app?vid=28728a0f-e818-49cd-8a68-86b5d1925f3c","ios":"levelo://app?vid=28728a0f-e818-49cd-8a68-86b5d1925f3c"},"vehicle_type_id":"4","last_reported":1745756222,"current_range_meters":8400,"station_id":"ce4bh412rcd13ifvqds0","pricing_plan_id":"cebpf4jnsgd1na2vs0mg"},{"bike_id":"ed537f9b-b1db-4f7f-87a1-1dbb18dd4577","system_id":"levelo_inurba_marseille","lat":43.33586,"lon":5.42825,"is_reserved":false,"is_disabled":false,"rental_uris":{"android":"levelo://app?vid=ed537f9b-b1db-4f7f-87a1-1dbb18dd4577","ios":"levelo://app?vid=ed537f9b-b1db-4f7f-87a1-1dbb18dd4577"},"vehicle_type_id":"4","last_reported":1745756222,"current_range_meters":8400,"station_id":"","pricing_plan_id":"cebpf4jnsgd1na2vs0mg"},{"bike_id":"0cce7ea2-3151-4739-8e52-340c11e5c4e0","system_id":"levelo_inurba_marseille","lat":43.24677,"lon":5.38133,"is_reserved":false,"is_disabled":false,"rental_uris":{"android":"levelo://app?vid=0cce7ea2-3151-4739-8e52-340c11e5c4e0","ios":"levelo://app?vid=0cce7ea2-3151-4739-8e52-340c11e5c4e0"},"vehicle_type_id":"4","last_reported":1745756222,"current_range_meters":8800,"station_id":"ce4bhih2rcd13ifvqfr0","pricing_plan_id":"cebpf4jnsgd1na2vs0mg"},{"bike_id":"24ababc4-bbcf-4eb0-a1dd-403d1fb78a76","system_id":"levelo_inurba_marseille","lat":43.272173,"lon":5.385772,"is_reserved":false,"is_disabled":false,"rental_uris":{"android":"levelo://app?vid=24ababc4-bbcf-4eb0-a1dd-403d1fb78a76","ios":"levelo://app?vid=24ababc4-bbcf-4eb0-a1dd-403d1fb78a76"},"vehicle_type_id":"4","last_reported":1745756222,"current_range_meters":8800,"station_id":"ce4bhl92rcd13ifvqghg","pricing_plan_id":"cebpf4jnsgd1na2vs0mg"},{"bike_id":"3f8e74df-4b8a-4fe8-9f20-4fbe47605119","system_id":"levelo_inurba_marseille","lat":43.29034,"lon":5.37555,"is_reserved":false,"is_disabled":true,"rental_uris":{"android":"levelo://app?vid=3f8e74df-4b8a-4fe8-9f20-4fbe47605119","ios":"levelo://app?vid=3f8e74df-4b8a-4fe8-9f20-4fbe47605119"},"vehicle_type_id":"4","last_reported":1745756222,"current_range_meters":8800,"station_id":"ce4bh692rcd13ifvqe90","pricing_plan_id":"cebpf4jnsgd1na2vs0mg"},{"bike_id":"d1db9f13-b3b3-4982-a762-4844e808134e","system_id":"levelo_inurba_marseille","lat":43.2926,"lon":5.40925,"is_reserved":false,"is_disabled":false,"rental_uris":{"android":"levelo://app?vid=d1db9f13-b3b3-4982-a762-4844e808134e","ios":"levelo://app?vid=d1db9f13-b3b3-4982-a762-4844e808134e"},"vehicle_type_id":"4","last_reported":1745756222,"current_range_meters":8800,"station_id":"ce4bh192rcd13ifvqdc0","pricing_plan_id":"cebpf4jnsgd1na2vs0mg"},{"bike_id":"8267a175-b5cb-45e0-8d32-cc806f617854","system_id":"levelo_inurba_marseille","lat":43.30527,"lon":5.38857,"is_reserved":false,"is_disabled":false,"rental_uris":{"android":"levelo://app?vid=8267a175-b5cb-45e0-8d32-cc806f617854","ios":"levelo://app?vid=8267a175-b5cb-45e0-8d32-cc806f617854"},"vehicle_type_id":"4","last_reported":1745756222,"current_range_meters":8800,"station_id":"","pricing_plan_id":"cebpf4jnsgd1na2vs0mg"},{"bike_id":"4e09e2f3-6329-4563-9a1f-79c5001029cb","system_id":"levelo_inurba_marseille","lat":43.32355,"lon":5.38887,"is_reserved":false,"is_disabled":false,"rental_uris":{"android":"levelo://app?vid=4e09e2f3-6329-4563-9a1f-79c5001029cb","ios":"levelo://app?vid=4e09e2f3-6329-4563-9a1f-79c5001029cb"},"vehicle_type_id":"4","last_reported":1745756222,"current_range_meters":9200,"station_id":"ce4bhqp2rcd13ifvqhog","pricing_plan_id":"cebpf4jnsgd1na2vs0mg"},{"bike_id":"e4d8173d-d16b-43fc-b5a1-fec0b43cc5f6","system_id":"levelo_inurba_marseille","lat":43.301454,"lon":5.374132,"is_reserved":false,"is_disabled":false,"rental_uris":{"android":"levelo://app?vid=e4d8173d-d16b-43fc-b5a1-fec0b43cc5f6","ios":"levelo://app?vid=e4d8173d-d16b-43fc-b5a1-fec0b43cc5f6"},"vehicle_type_id":"4","last_reported":1745756222,"current_range_meters":8800,"station_id":"ce4bhbp2rcd13ifvqerg","pricing_plan_id":"cebpf4jnsgd1na2vs0mg"},{"bike_id":"9f768413-b0d7-43f3-8150-f1bbe8dcae88","system_id":"levelo_inurba_marseille","lat":43.31066,"lon":5.38344,"is_reserved":false,"is_disabled":false,"rental_uris":{"android":"levelo://app?vid=9f768413-b0d7-43f3-8150-f1bbe8dcae88","ios":"levelo://app?vid=9f768413-b0d7-43f3-8150-f1bbe8dcae88"},"vehicle_type_id":"4","last_reported":1745756222,"current_range_meters":8800,"station_id":"ce4bgv92rcd13ifvqcr0","pricing_plan_id":"cebpf4jnsgd1na2vs0mg"},{"bike_id":"ea2cd8c6-5875-4d10-a775-31b4abb86f84","system_id":"levelo_inurba_marseille","lat":43.296089,"lon":5.381482,"is_reserved":false,"is_disabled":false,"rental_uris":{"android":"levelo://app?vid=ea2cd8c6-5875-4d10-a775-31b4abb86f84","ios":"levelo://app?vid=ea2cd8c6-5875-4d10-a775-31b4abb86f84"},"vehicle_type_id":"4","last_reported":1745756222,"current_range_meters":9200,"station_id":"ce4bgip2rcd13ifvqbb0","pricing_plan_id":"cebpf4jnsgd1na2vs0mg"},{"bike_id":"d8d4a1cd-f568-431c-a71c-6d8fce720292","system_id":"levelo_inurba_marseille","lat":43.32361,"lon":5.36748,"is_reserved":false,"is_disabled":false,"rental_uris":{"android":"levelo://app?vid=d8d4a1cd-f568-431c-a71c-6d8fce720292","ios":"levelo://app?vid=d8d4a1cd-f568-431c-a71c-6d8fce720292"},"vehicle_type_id":"4","last_reported":1745756222,"current_range_meters":9200,"station_id":"ce4bhsh2rcd13ifvqi2g","pricing_plan_id":"cebpf4jnsgd1na2vs0mg"},{"bike_id":"c596ab54-4f89-4649-a442-12778ac8adc4","system_id":"levelo_inurba_marseille","lat":43.317095,"lon":5.436958,"is_reserved":false,"is_disabled":true,"rental_uris":{"android":"levelo://app?vid=c596ab54-4f89-4649-a442-12778ac8adc4","ios":"levelo://app?vid=c596ab54-4f89-4649-a442-12778ac8adc4"},"vehicle_type_id":"4","last_reported":1745756222,"current_range_meters":9200,"station_id":"ce4bhp92rcd13ifvqhcg","pricing_plan_id":"cebpf4jnsgd1na2vs0mg"},{"bike_id":"f9c4da92-e6ba-4082-b9ef-35fa2738e162","system_id":"levelo_inurba_marseille","lat":43.2175,"lon":5.34601,"is_reserved":false,"is_disabled":false,"rental_uris":{"android":"levelo://app?vid=f9c4da92-e6ba-4082-b9ef-35fa2738e162","ios":"levelo://app?vid=f9c4da92-e6ba-4082-b9ef-35fa2738e162"},"vehicle_type_id":"4","last_reported":1745756222,"current_range_meters":4400,"station_id":"st_cvj6r9ubvosntc0bgbag","pricing_plan_id":"cebpf4jnsgd1na2vs0mg"},{"bike_id":"28b4714b-e73d-485f-a044-26f51205bf47","system_id":"levelo_inurba_marseille","lat":43.33778,"lon":5.37449,"is_reserved":false,"is_disabled":false,"rental_uris":{"android":"levelo://app?vid=28b4714b-e73d-485f-a044-26f51205bf47","ios":"levelo://app?vid=28b4714b-e73d-485f-a044-26f51205bf47"},"vehicle_type_id":"4","last_reported":1745756222,"current_range_meters":9200,"station_id":"","pricing_plan_id":"cebpf4jnsgd1na2vs0mg"},{"bike_id":"50567301-7660-45e4-9314-78fdd7ddbf96","system_id":"levelo_inurba_marseille","lat":43.30733,"lon":5.40922,"is_reserved":false,"is_disabled":false,"rental_uris":{"android":"levelo://app?vid=50567301-7660-45e4-9314-78fdd7ddbf96","ios":"levelo://app?vid=50567301-7660-45e4-9314-78fdd7ddbf96"},"vehicle_type_id":"4","last_reported":1745756222,"current_range_meters":9200,"station_id":"","pricing_plan_id":"cebpf4jnsgd1na2vs0mg"},{"bike_id":"0dbe274e-8f6f-4d5c-8df6-4f2d39417812","system_id":"levelo_inurba_marseille","lat":43.28627,"lon":5.35111,"is_reserved":false,"is_disabled":false,"rental_uris":{"android":"levelo://app?vid=0dbe274e-8f6f-4d5c-8df6-4f2d39417812","ios":"levelo://app?vid=0dbe274e-8f6f-4d5c-8df6-4f2d39417812"},"vehicle_type_id":"4","last_reported":1745756222,"current_range_meters":9200,"station_id":"ce4bhch2rcd13ifvqeug","pricing_plan_id":"cebpf4jnsgd1na2vs0mg"},{"bike_id":"374695c7-05ae-441b-90bd-19811cb2defe","system_id":"levelo_inurba_marseille","lat":43.30736,"lon":5.42464,"is_reserved":false,"is_disabled":false,"rental_uris":{"android":"levelo://app?vid=374695c7-05ae-441b-90bd-19811cb2defe","ios":"levelo://app?vid=374695c7-05ae-441b-90bd-19811cb2defe"},"vehicle_type_id":"4","last_reported":1745756222,"current_range_meters":9200,"station_id":"st_cvj6ca6bvosntc0bfgr0","pricing_plan_id":"cebpf4jnsgd1na2vs0mg"},{"bike_id":"5ddba1f1-1747-4179-b91f-b8778028cd60","system_id":"levelo_inurba_marseille","lat":43.2562,"lon":5.4118,"is_reserved":false,"is_disabled":false,"rental_uris":{"android":"levelo://app?vid=5ddba1f1-1747-4179-b91f-b8778028cd60","ios":"levelo://app?vid=5ddba1f1-1747-4179-b91f-b8778028cd60"},"vehicle_type_id":"4","last_reported":1745756222,"current_range_meters":9200,"station_id":"","pricing_plan_id":"cebpf4jnsgd1na2vs0mg"},{"bike_id":"7d727c0a-6c28-48dc-bed3-bc7b1f3ba7ba","system_id":"levelo_inurba_marseille","lat":43.29244,"lon":5.36448,"is_reserved":false,"is_disabled":true,"rental_uris":{"android":"levelo://app?vid=7d727c0a-6c28-48dc-bed3-bc7b1f3ba7ba","ios":"levelo://app?vid=7d727c0a-6c28-48dc-bed3-bc7b1f3ba7ba"},"vehicle_type_id":"4","last_reported":1745756222,"current_range_meters":9600,"station_id":"","pricing_plan_id":"cebpf4jnsgd1na2vs0mg"},{"bike_id":"90aa3f9a-379c-48df-9031-4085be3bb8fd","system_id":"levelo_inurba_marseille","lat":43.309557,"lon":5.390273,"is_reserved":false,"is_disabled":false,"rental_uris":{"android":"levelo://app?vid=90aa3f9a-379c-48df-9031-4085be3bb8fd","ios":"levelo://app?vid=90aa3f9a-379c-48df-9031-4085be3bb8fd"},"vehicle_type_id":"4","last_reported":1745756222,"current_range_meters":9600,"station_id":"ce4bgup2rcd13ifvqco0","pricing_plan_id":"cebpf4jnsgd1na2vs0mg"},{"bike_id":"736ee7d5-708e-48bd-8281-35bb85d0bc7d","system_id":"levelo_inurba_marseille","lat":43.2899,"lon":5.35604,"is_reserved":false,"is_disabled":true,"rental_uris":{"android":"levelo://app?vid=736ee7d5-708e-48bd-8281-35bb85d0bc7d","ios":"levelo://app?vid=736ee7d5-708e-48bd-8281-35bb85d0bc7d"},"vehicle_type_id":"4","last_reported":1745756222,"current_range_meters":9600,"station_id":"ce4bhb92rcd13ifvqen0","pricing_plan_id":"cebpf4jnsgd1na2vs0mg"},{"bike_id":"14c153cb-2a53-4b0b-9eca-586c000a2380","system_id":"levelo_inurba_marseille","lat":43.26482,"lon":5.39547,"is_reserved":false,"is_disabled":false,"rental_uris":{"android":"levelo://app?vid=14c153cb-2a53-4b0b-9eca-586c000a2380","ios":"levelo://app?vid=14c153cb-2a53-4b0b-9eca-586c000a2380"},"vehicle_type_id":"4","last_reported":1745756222,"current_range_meters":10000,"station_id":"ce4bhi12rcd13ifvqfq0","pricing_plan_id":"cebpf4jnsgd1na2vs0mg"},{"bike_id":"cc2977d9-a6cf-4d77-b0c7-5de9fa5e5b11","system_id":"levelo_inurba_marseille","lat":43.2816,"lon":5.42622,"is_reserved":false,"is_disabled":false,"rental_uris":{"android":"levelo://app?vid=cc2977d9-a6cf-4d77-b0c7-5de9fa5e5b11","ios":"levelo://app?vid=cc2977d9-a6cf-4d77-b0c7-5de9fa5e5b11"},"vehicle_type_id":"4","last_reported":1745756222,"current_range_meters":10000,"station_id":"ce4bhnh2rcd13ifvqgug","pricing_plan_id":"cebpf4jnsgd1na2vs0mg"},{"bike_id":"cecf372e-f99d-4092-9fb9-aba0fb187411","system_id":"levelo_inurba_marseille","lat":43.32383,"lon":5.38892,"is_reserved":false,"is_disabled":false,"rental_uris":{"android":"levelo://app?vid=cecf372e-f99d-4092-9fb9-aba0fb187411","ios":"levelo://app?vid=cecf372e-f99d-4092-9fb9-aba0fb187411"},"vehicle_type_id":"4","last_reported":1745756222,"current_range_meters":10000,"station_id":"ce4bhqp2rcd13ifvqhog","pricing_plan_id":"cebpf4jnsgd1na2vs0mg"},{"bike_id":"2df9a12b-33ac-4118-9a2b-b81bb411874c","system_id":"levelo_inurba_marseille","lat":43.2991,"lon":5.38147,"is_reserved":false,"is_disabled":false,"rental_uris":{"android":"levelo://app?vid=2df9a12b-33ac-4118-9a2b-b81bb411874c","ios":"levelo://app?vid=2df9a12b-33ac-4118-9a2b-b81bb411874c"},"vehicle_type_id":"4","last_reported":1745756222,"current_range_meters":10000,"station_id":"ce4bgj12rcd13ifvqbc0","pricing_plan_id":"cebpf4jnsgd1na2vs0mg"},{"bike_id":"6f9efa22-6701-48b6-9dac-71701c013e89","system_id":"levelo_inurba_marseille","lat":43.27995,"lon":5.3999,"is_reserved":false,"is_disabled":false,"rental_uris":{"android":"levelo://app?vid=6f9efa22-6701-48b6-9dac-71701c013e89","ios":"levelo://app?vid=6f9efa22-6701-48b6-9dac-71701c013e89"},"vehicle_type_id":"4","last_reported":1745756222,"current_range_meters":10000,"station_id":"ce4bho92rcd13ifvqh4g","pricing_plan_id":"cebpf4jnsgd1na2vs0mg"},{"bike_id":"dea15188-c098-4794-90f6-0fc4b187f745","system_id":"levelo_inurba_marseille","lat":43.308,"lon":5.43542,"is_reserved":false,"is_disabled":false,"rental_uris":{"android":"levelo://app?vid=dea15188-c098-4794-90f6-0fc4b187f745","ios":"levelo://app?vid=dea15188-c098-4794-90f6-0fc4b187f745"},"vehicle_type_id":"4","last_reported":1745756222,"current_range_meters":10000,"station_id":"ce4bhph2rcd13ifvqheg","pricing_plan_id":"cebpf4jnsgd1na2vs0mg"},{"bike_id":"42872aa3-e710-44e8-beb4-4d5be761764c","system_id":"levelo_inurba_marseille","lat":43.30313,"lon":5.39205,"is_reserved":false,"is_disabled":false,"rental_uris":{"android":"levelo://app?vid=42872aa3-e710-44e8-beb4-4d5be761764c","ios":"levelo://app?vid=42872aa3-e710-44e8-beb4-4d5be761764c"},"vehicle_type_id":"4","last_reported":1745756222,"current_range_meters":10000,"station_id":"ce4bgm92rcd13ifvqbr0","pricing_plan_id":"cebpf4jnsgd1na2vs0mg"},{"bike_id":"91ed758a-fc9e-4e64-a397-938ed3a9ce11","system_id":"levelo_inurba_marseille","lat":43.29934,"lon":5.36555,"is_reserved":false,"is_disabled":false,"rental_uris":{"android":"levelo://app?vid=91ed758a-fc9e-4e64-a397-938ed3a9ce11","ios":"levelo://app?vid=91ed758a-fc9e-4e64-a397-938ed3a9ce11"},"vehicle_type_id":"4","last_reported":1745756222,"current_range_meters":10800,"station_id":"ce4bgm92rcd13ifvqbr0","pricing_plan_id":"cebpf4jnsgd1na2vs0mg"},{"bike_id":"00616192-2e7e-4143-89a7-22ed0fe84242","system_id":"levelo_inurba_marseille","lat":43.31481,"lon":5.37293,"is_reserved":false,"is_disabled":false,"rental_uris":{"android":"levelo://app?vid=00616192-2e7e-4143-89a7-22ed0fe84242","ios":"levelo://app?vid=00616192-2e7e-4143-89a7-22ed0fe84242"},"vehicle_type_id":"4","last_reported":1745756222,"current_range_meters":10800,"station_id":"ce4bgt12rcd13ifvqcd0","pricing_plan_id":"cebpf4jnsgd1na2vs0mg"},{"bike_id":"53de1a35-d25b-4c60-b99d-93e35d33901e","system_id":"levelo_inurba_marseille","lat":43.30417,"lon":5.41277,"is_reserved":false,"is_disabled":false,"rental_uris":{"android":"levelo://app?vid=53de1a35-d25b-4c60-b99d-93e35d33901e","ios":"levelo://app?vid=53de1a35-d25b-4c60-b99d-93e35d33901e"},"vehicle_type_id":"4","last_reported":1745756222,"current_range_meters":10000,"station_id":"ce4bhop2rcd13ifvqh8g","pricing_plan_id":"cebpf4jnsgd1na2vs0mg"},{"bike_id":"574c21c3-5de9-4bfa-a3aa-ac4e3698f0a7","system_id":"levelo_inurba_marseille","lat":43.27207,"lon":5.39195,"is_reserved":false,"is_disabled":true,"rental_uris":{"android":"levelo://app?vid=574c21c3-5de9-4bfa-a3aa-ac4e3698f0a7","ios":"levelo://app?vid=574c21c3-5de9-4bfa-a3aa-ac4e3698f0a7"},"vehicle_type_id":"4","last_reported":1745756222,"current_range_meters":10800,"station_id":"ce4bhhp2rcd13ifvqfm0","pricing_plan_id":"cebpf4jnsgd1na2vs0mg"},{"bike_id":"932991c5-ae60-4f3d-ab3e-2c8b5c94febb","system_id":"levelo_inurba_marseille","lat":43.2988,"lon":5.38136,"is_reserved":false,"is_disabled":false,"rental_uris":{"android":"levelo://app?vid=932991c5-ae60-4f3d-ab3e-2c8b5c94febb","ios":"levelo://app?vid=932991c5-ae60-4f3d-ab3e-2c8b5c94febb"},"vehicle_type_id":"4","last_reported":1745756222,"current_range_meters":10800,"station_id":"ce4bgj12rcd13ifvqbc0","pricing_plan_id":"cebpf4jnsgd1na2vs0mg"},{"bike_id":"0053b840-de47-4900-98aa-cc8575176b05","system_id":"levelo_inurba_marseille","lat":43.24173,"lon":5.36397,"is_reserved":false,"is_disabled":true,"rental_uris":{"android":"levelo://app?vid=0053b840-de47-4900-98aa-cc8575176b05","ios":"levelo://app?vid=0053b840-de47-4900-98aa-cc8575176b05"},"vehicle_type_id":"4","last_reported":1745756222,"current_range_meters":11200,"station_id":"cpo36qri1sfpv3e86is0","pricing_plan_id":"cebpf4jnsgd1na2vs0mg"},{"bike_id":"f74ea91f-89b7-44bd-882a-d0ec5862a3f2","system_id":"levelo_inurba_marseille","lat":43.231562,"lon":5.43709,"is_reserved":false,"is_disabled":false,"rental_uris":{"android":"levelo://app?vid=f74ea91f-89b7-44bd-882a-d0ec5862a3f2","ios":"levelo://app?vid=f74ea91f-89b7-44bd-882a-d0ec5862a3f2"},"vehicle_type_id":"4","last_reported":1745756222,"current_range_meters":11200,"station_id":"ce4bhmp2rcd13ifvqgog","pricing_plan_id":"cebpf4jnsgd1na2vs0mg"},{"bike_id":"30e82ba5-c1a2-4326-80eb-667e06c5c2b5","system_id":"levelo_inurba_marseille","lat":43.29964,"lon":5.385,"is_reserved":false,"is_disabled":false,"rental_uris":{"android":"levelo://app?vid=30e82ba5-c1a2-4326-80eb-667e06c5c2b5","ios":"levelo://app?vid=30e82ba5-c1a2-4326-80eb-667e06c5c2b5"},"vehicle_type_id":"4","last_reported":1745756222,"current_range_meters":11200,"station_id":"ce4bgj92rcd13ifvqbd0","pricing_plan_id":"cebpf4jnsgd1na2vs0mg"},{"bike_id":"ec74b155-1065-4a53-a181-10d9f61c4403","system_id":"levelo_inurba_marseille","lat":43.29255,"lon":5.40914,"is_reserved":false,"is_disabled":false,"rental_uris":{"android":"levelo://app?vid=ec74b155-1065-4a53-a181-10d9f61c4403","ios":"levelo://app?vid=ec74b155-1065-4a53-a181-10d9f61c4403"},"vehicle_type_id":"4","last_reported":1745756222,"current_range_meters":11200,"station_id":"ce4bh192rcd13ifvqdc0","pricing_plan_id":"cebpf4jnsgd1na2vs0mg"},{"bike_id":"30288cb7-e849-4b02-8ab1-96deccfd974f","system_id":"levelo_inurba_marseille","lat":43.23959,"lon":5.36649,"is_reserved":false,"is_disabled":false,"rental_uris":{"android":"levelo://app?vid=30288cb7-e849-4b02-8ab1-96deccfd974f","ios":"levelo://app?vid=30288cb7-e849-4b02-8ab1-96deccfd974f"},"vehicle_type_id":"4","last_reported":1745756222,"current_range_meters":11600,"station_id":"ce4bhi12rcd13ifvqfp0","pricing_plan_id":"cebpf4jnsgd1na2vs0mg"},{"bike_id":"69fddacb-dab9-455a-9c5d-d476dbc440eb","system_id":"levelo_inurba_marseille","lat":43.31323,"lon":5.39696,"is_reserved":false,"is_disabled":false,"rental_uris":{"android":"levelo://app?vid=69fddacb-dab9-455a-9c5d-d476dbc440eb","ios":"levelo://app?vid=69fddacb-dab9-455a-9c5d-d476dbc440eb"},"vehicle_type_id":"4","last_reported":1745756222,"current_range_meters":11600,"station_id":"ce4bgvp2rcd13ifvqcu0","pricing_plan_id":"cebpf4jnsgd1na2vs0mg"},{"bike_id":"ae1d96a0-b0a2-41e1-be14-e78907f9338a","system_id":"levelo_inurba_marseille","lat":43.29511,"lon":5.39386,"is_reserved":false,"is_disabled":true,"rental_uris":{"android":"levelo://app?vid=ae1d96a0-b0a2-41e1-be14-e78907f9338a","ios":"levelo://app?vid=ae1d96a0-b0a2-41e1-be14-e78907f9338a"},"vehicle_type_id":"4","last_reported":1745756222,"current_range_meters":11600,"station_id":"ce4bh292rcd13ifvqdf0","pricing_plan_id":"cebpf4jnsgd1na2vs0mg"},{"bike_id":"af4a97e0-dded-4da0-9eba-7bcd01c44383","system_id":"levelo_inurba_marseille","lat":43.303034,"lon":5.391961,"is_reserved":false,"is_disabled":true,"rental_uris":{"android":"levelo://app?vid=af4a97e0-dded-4da0-9eba-7bcd01c44383","ios":"levelo://app?vid=af4a97e0-dded-4da0-9eba-7bcd01c44383"},"vehicle_type_id":"4","last_reported":1745756222,"current_range_meters":11600,"station_id":"ce4bgkh2rcd13ifvqbk0","pricing_plan_id":"cebpf4jnsgd1na2vs0mg"},{"bike_id":"cf0ee361-6c47-4a99-81ad-2c1b96166467","system_id":"levelo_inurba_marseille","lat":43.21747,"lon":5.34598,"is_reserved":false,"is_disabled":false,"rental_uris":{"android":"levelo://app?vid=cf0ee361-6c47-4a99-81ad-2c1b96166467","ios":"levelo://app?vid=cf0ee361-6c47-4a99-81ad-2c1b96166467"},"vehicle_type_id":"4","last_reported":1745756222,"current_range_meters":11600,"station_id":"st_cvj6r9ubvosntc0bgbag","pricing_plan_id":"cebpf4jnsgd1na2vs0mg"},{"bike_id":"c3936e71-8f79-4ee8-82c6-86b75b9c2793","system_id":"levelo_inurba_marseille","lat":43.297028,"lon":5.366037,"is_reserved":false,"is_disabled":false,"rental_uris":{"android":"levelo://app?vid=c3936e71-8f79-4ee8-82c6-86b75b9c2793","ios":"levelo://app?vid=c3936e71-8f79-4ee8-82c6-86b75b9c2793"},"vehicle_type_id":"4","last_reported":1745756222,"current_range_meters":11600,"station_id":"ce4bgn12rcd13ifvqbt0","pricing_plan_id":"cebpf4jnsgd1na2vs0mg"},{"bike_id":"401a860e-b17d-4f3c-b960-f90f02cab40f","system_id":"levelo_inurba_marseille","lat":43.2706,"lon":5.40256,"is_reserved":false,"is_disabled":false,"rental_uris":{"android":"levelo://app?vid=401a860e-b17d-4f3c-b960-f90f02cab40f","ios":"levelo://app?vid=401a860e-b17d-4f3c-b960-f90f02cab40f"},"vehicle_type_id":"4","last_reported":1745756222,"current_range_meters":11600,"station_id":"ce4bhk92rcd13ifvqgc0","pricing_plan_id":"cebpf4jnsgd1na2vs0mg"},{"bike_id":"21a5b78b-6652-49fa-a8ee-70531791ccf1","system_id":"levelo_inurba_marseille","lat":43.24878,"lon":5.42524,"is_reserved":false,"is_disabled":false,"rental_uris":{"android":"levelo://app?vid=21a5b78b-6652-49fa-a8ee-70531791ccf1","ios":"levelo://app?vid=21a5b78b-6652-49fa-a8ee-70531791ccf1"},"vehicle_type_id":"4","last_reported":1745756222,"current_range_meters":11600,"station_id":"","pricing_plan_id":"cebpf4jnsgd1na2vs0mg"},{"bike_id":"66c89bb7-3b13-49ff-b8c5-0823b0bd91cb","system_id":"levelo_inurba_marseille","lat":43.2619,"lon":5.37456,"is_reserved":false,"is_disabled":true,"rental_uris":{"android":"levelo://app?vid=66c89bb7-3b13-49ff-b8c5-0823b0bd91cb","ios":"levelo://app?vid=66c89bb7-3b13-49ff-b8c5-0823b0bd91cb"},"vehicle_type_id":"4","last_reported":1745756222,"current_range_meters":11600,"station_id":"ce4bhgp2rcd13ifvqfc0","pricing_plan_id":"cebpf4jnsgd1na2vs0mg"},{"bike_id":"91474842-32bf-45c2-856a-80fd91d22aa5","system_id":"levelo_inurba_marseille","lat":43.21187,"lon":5.351,"is_reserved":false,"is_disabled":false,"rental_uris":{"android":"levelo://app?vid=91474842-32bf-45c2-856a-80fd91d22aa5","ios":"levelo://app?vid=91474842-32bf-45c2-856a-80fd91d22aa5"},"vehicle_type_id":"4","last_reported":1745756222,"current_range_meters":11600,"station_id":"st_cvj6sg6p6f1abm77japg","pricing_plan_id":"cebpf4jnsgd1na2vs0mg"},{"bike_id":"8840b7d1-badd-45b4-91db-50feaeb6b7ed","system_id":"levelo_inurba_marseille","lat":43.31067,"lon":5.36711,"is_reserved":false,"is_disabled":false,"rental_uris":{"android":"levelo://app?vid=8840b7d1-badd-45b4-91db-50feaeb6b7ed","ios":"levelo://app?vid=8840b7d1-badd-45b4-91db-50feaeb6b7ed"},"vehicle_type_id":"4","last_reported":1745756222,"current_range_meters":11600,"station_id":"","pricing_plan_id":"cebpf4jnsgd1na2vs0mg"},{"bike_id":"2033a61f-cb0b-456b-8d64-becf84169ae2","system_id":"levelo_inurba_marseille","lat":43.26939,"lon":5.4025,"is_reserved":false,"is_disabled":false,"rental_uris":{"android":"levelo://app?vid=2033a61f-cb0b-456b-8d64-becf84169ae2","ios":"levelo://app?vid=2033a61f-cb0b-456b-8d64-becf84169ae2"},"vehicle_type_id":"4","last_reported":1745756222,"current_range_meters":12000,"station_id":"cjm6bp8fraef2m0cb0m0","pricing_plan_id":"cebpf4jnsgd1na2vs0mg"},{"bike_id":"fc2d884b-ca79-4d61-bfc8-170f787a93f4","system_id":"levelo_inurba_marseille","lat":43.31073,"lon":5.38356,"is_reserved":false,"is_disabled":false,"rental_uris":{"android":"levelo://app?vid=fc2d884b-ca79-4d61-bfc8-170f787a93f4","ios":"levelo://app?vid=fc2d884b-ca79-4d61-bfc8-170f787a93f4"},"vehicle_type_id":"4","last_reported":1745756222,"current_range_meters":12000,"station_id":"ce4bgv92rcd13ifvqcr0","pricing_plan_id":"cebpf4jnsgd1na2vs0mg"},{"bike_id":"e92a6af7-20d9-4adb-8a61-351e97134a1d","system_id":"levelo_inurba_marseille","lat":43.279083,"lon":5.380115,"is_reserved":false,"is_disabled":false,"rental_uris":{"android":"levelo://app?vid=e92a6af7-20d9-4adb-8a61-351e97134a1d","ios":"levelo://app?vid=e92a6af7-20d9-4adb-8a61-351e97134a1d"},"vehicle_type_id":"4","last_reported":1745756222,"current_range_meters":11600,"station_id":"ce4bhf92rcd13ifvqf50","pricing_plan_id":"cebpf4jnsgd1na2vs0mg"},{"bike_id":"44530a1d-b48a-47f5-a929-63b20a3c24dc","system_id":"levelo_inurba_marseille","lat":43.24166,"lon":5.36388,"is_reserved":false,"is_disabled":false,"rental_uris":{"android":"levelo://app?vid=44530a1d-b48a-47f5-a929-63b20a3c24dc","ios":"levelo://app?vid=44530a1d-b48a-47f5-a929-63b20a3c24dc"},"vehicle_type_id":"4","last_reported":1745756222,"current_range_meters":12000,"station_id":"cpo36qri1sfpv3e86is0","pricing_plan_id":"cebpf4jnsgd1na2vs0mg"},{"bike_id":"f33fbf9b-2a42-43bb-b1b3-de1d2b2f7638","system_id":"levelo_inurba_marseille","lat":43.30188,"lon":5.36626,"is_reserved":false,"is_disabled":false,"rental_uris":{"android":"levelo://app?vid=f33fbf9b-2a42-43bb-b1b3-de1d2b2f7638","ios":"levelo://app?vid=f33fbf9b-2a42-43bb-b1b3-de1d2b2f7638"},"vehicle_type_id":"4","last_reported":1745756222,"current_range_meters":12000,"station_id":"ce4bgrh2rcd13ifvqc8g","pricing_plan_id":"cebpf4jnsgd1na2vs0mg"},{"bike_id":"554c7222-d609-4841-a832-33adb157bebb","system_id":"levelo_inurba_marseille","lat":43.21196,"lon":5.35066,"is_reserved":false,"is_disabled":false,"rental_uris":{"android":"levelo://app?vid=554c7222-d609-4841-a832-33adb157bebb","ios":"levelo://app?vid=554c7222-d609-4841-a832-33adb157bebb"},"vehicle_type_id":"4","last_reported":1745756222,"current_range_meters":12000,"station_id":"st_cvj6sg6p6f1abm77japg","pricing_plan_id":"cebpf4jnsgd1na2vs0mg"},{"bike_id":"271958bf-4bb1-496a-8f02-d17bef843f39","system_id":"levelo_inurba_marseille","lat":43.29032,"lon":5.37548,"is_reserved":false,"is_disabled":false,"rental_uris":{"android":"levelo://app?vid=271958bf-4bb1-496a-8f02-d17bef843f39","ios":"levelo://app?vid=271958bf-4bb1-496a-8f02-d17bef843f39"},"vehicle_type_id":"4","last_reported":1745756222,"current_range_meters":12000,"station_id":"ce4bh692rcd13ifvqe90","pricing_plan_id":"cebpf4jnsgd1na2vs0mg"},{"bike_id":"a08e6535-7d97-4f82-b424-5e6daf2d2362","system_id":"levelo_inurba_marseille","lat":43.29534,"lon":5.39411,"is_reserved":false,"is_disabled":true,"rental_uris":{"android":"levelo://app?vid=a08e6535-7d97-4f82-b424-5e6daf2d2362","ios":"levelo://app?vid=a08e6535-7d97-4f82-b424-5e6daf2d2362"},"vehicle_type_id":"4","last_reported":1745756222,"current_range_meters":12400,"station_id":"ce4bh292rcd13ifvqdf0","pricing_plan_id":"cebpf4jnsgd1na2vs0mg"},{"bike_id":"a65d917b-afce-43db-a72d-ec09c1ec388b","system_id":"levelo_inurba_marseille","lat":43.26925,"lon":5.38671,"is_reserved":false,"is_disabled":false,"rental_uris":{"android":"levelo://app?vid=a65d917b-afce-43db-a72d-ec09c1ec388b","ios":"levelo://app?vid=a65d917b-afce-43db-a72d-ec09c1ec388b"},"vehicle_type_id":"4","last_reported":1745756222,"current_range_meters":12400,"station_id":"ce4bhh92rcd13ifvqfh0","pricing_plan_id":"cebpf4jnsgd1na2vs0mg"},{"bike_id":"e31c5f32-91a6-4ce5-aad7-d4c27eb32416","system_id":"levelo_inurba_marseille","lat":43.31342,"lon":5.3671,"is_reserved":false,"is_disabled":false,"rental_uris":{"android":"levelo://app?vid=e31c5f32-91a6-4ce5-aad7-d4c27eb32416","ios":"levelo://app?vid=e31c5f32-91a6-4ce5-aad7-d4c27eb32416"},"vehicle_type_id":"4","last_reported":1745756222,"current_range_meters":12000,"station_id":"ce4bgr92rcd13ifvqc6g","pricing_plan_id":"cebpf4jnsgd1na2vs0mg"},{"bike_id":"5c47417b-1103-44da-8ff6-b442bdcf5332","system_id":"levelo_inurba_marseille","lat":43.30554,"lon":5.36688,"is_reserved":false,"is_disabled":false,"rental_uris":{"android":"levelo://app?vid=5c47417b-1103-44da-8ff6-b442bdcf5332","ios":"levelo://app?vid=5c47417b-1103-44da-8ff6-b442bdcf5332"},"vehicle_type_id":"4","last_reported":1745756222,"current_range_meters":12800,"station_id":"ce4bgrp2rcd13ifvqc9g","pricing_plan_id":"cebpf4jnsgd1na2vs0mg"},{"bike_id":"560f12bb-1614-4d7c-b78e-ccf5bdec9ea6","system_id":"levelo_inurba_marseille","lat":43.28467,"lon":5.35902,"is_reserved":false,"is_disabled":true,"rental_uris":{"android":"levelo://app?vid=560f12bb-1614-4d7c-b78e-ccf5bdec9ea6","ios":"levelo://app?vid=560f12bb-1614-4d7c-b78e-ccf5bdec9ea6"},"vehicle_type_id":"4","last_reported":1745756222,"current_range_meters":12800,"station_id":"ce4bhah2rcd13ifvqei0","pricing_plan_id":"cebpf4jnsgd1na2vs0mg"},{"bike_id":"717cabec-6d1e-4fbd-94f4-9e9366fab599","system_id":"levelo_inurba_marseille","lat":43.225047,"lon":5.347859,"is_reserved":false,"is_disabled":true,"rental_uris":{"android":"levelo://app?vid=717cabec-6d1e-4fbd-94f4-9e9366fab599","ios":"levelo://app?vid=717cabec-6d1e-4fbd-94f4-9e9366fab599"},"vehicle_type_id":"4","last_reported":1745756222,"current_range_meters":13600,"station_id":"","pricing_plan_id":"cebpf4jnsgd1na2vs0mg"},{"bike_id":"356b76a1-af1a-4bef-951e-98e5b057a721","system_id":"levelo_inurba_marseille","lat":43.29257,"lon":5.38431,"is_reserved":false,"is_disabled":true,"rental_uris":{"android":"levelo://app?vid=356b76a1-af1a-4bef-951e-98e5b057a721","ios":"levelo://app?vid=356b76a1-af1a-4bef-951e-98e5b057a721"},"vehicle_type_id":"4","last_reported":1745756222,"current_range_meters":13600,"station_id":"ce4bh692rcd13ifvqea0","pricing_plan_id":"cebpf4jnsgd1na2vs0mg"},{"bike_id":"f4f1e489-f4b8-403d-a8e6-4f7b19a62d61","system_id":"levelo_inurba_marseille","lat":43.30879,"lon":5.39662,"is_reserved":false,"is_disabled":false,"rental_uris":{"android":"levelo://app?vid=f4f1e489-f4b8-403d-a8e6-4f7b19a62d61","ios":"levelo://app?vid=f4f1e489-f4b8-403d-a8e6-4f7b19a62d61"},"vehicle_type_id":"4","last_reported":1745756222,"current_range_meters":13600,"station_id":"ce4bh012rcd13ifvqcv0","pricing_plan_id":"cebpf4jnsgd1na2vs0mg"},{"bike_id":"fd30149d-ad30-4a88-9d4a-e04804be0938","system_id":"levelo_inurba_marseille","lat":43.28919,"lon":5.38389,"is_reserved":false,"is_disabled":false,"rental_uris":{"android":"levelo://app?vid=fd30149d-ad30-4a88-9d4a-e04804be0938","ios":"levelo://app?vid=fd30149d-ad30-4a88-9d4a-e04804be0938"},"vehicle_type_id":"4","last_reported":1745756222,"current_range_meters":13600,"station_id":"ce4bh612rcd13ifvqe6g","pricing_plan_id":"cebpf4jnsgd1na2vs0mg"},{"bike_id":"3a1550d5-025b-46c9-8c72-5eda2fdbf638","system_id":"levelo_inurba_marseille","lat":43.29505,"lon":5.38545,"is_reserved":false,"is_disabled":false,"rental_uris":{"android":"levelo://app?vid=3a1550d5-025b-46c9-8c72-5eda2fdbf638","ios":"levelo://app?vid=3a1550d5-025b-46c9-8c72-5eda2fdbf638"},"vehicle_type_id":"4","last_reported":1745756222,"current_range_meters":14000,"station_id":"ce4bgih2rcd13ifvqba0","pricing_plan_id":"cebpf4jnsgd1na2vs0mg"},{"bike_id":"b1703d4a-6f8b-464c-a3b5-ee1933f67d22","system_id":"levelo_inurba_marseille","lat":43.30788,"lon":5.38166,"is_reserved":false,"is_disabled":false,"rental_uris":{"android":"levelo://app?vid=b1703d4a-6f8b-464c-a3b5-ee1933f67d22","ios":"levelo://app?vid=b1703d4a-6f8b-464c-a3b5-ee1933f67d22"},"vehicle_type_id":"4","last_reported":1745756222,"current_range_meters":14000,"station_id":"ce4bgt12rcd13ifvqce0","pricing_plan_id":"cebpf4jnsgd1na2vs0mg"},{"bike_id":"b4cbc32d-aa27-4977-89f1-0eda7c5d5a6c","system_id":"levelo_inurba_marseille","lat":43.23964,"lon":5.36637,"is_reserved":false,"is_disabled":false,"rental_uris":{"android":"levelo://app?vid=b4cbc32d-aa27-4977-89f1-0eda7c5d5a6c","ios":"levelo://app?vid=b4cbc32d-aa27-4977-89f1-0eda7c5d5a6c"},"vehicle_type_id":"4","last_reported":1745756222,"current_range_meters":13600,"station_id":"ce4bhi12rcd13ifvqfp0","pricing_plan_id":"cebpf4jnsgd1na2vs0mg"},{"bike_id":"1ca538cc-7262-418c-ae5b-fc46e6b3282f","system_id":"levelo_inurba_marseille","lat":43.29934,"lon":5.3652,"is_reserved":false,"is_disabled":false,"rental_uris":{"android":"levelo://app?vid=1ca538cc-7262-418c-ae5b-fc46e6b3282f","ios":"levelo://app?vid=1ca538cc-7262-418c-ae5b-fc46e6b3282f"},"vehicle_type_id":"4","last_reported":1745756222,"current_range_meters":14000,"station_id":"ce4bgm92rcd13ifvqbr0","pricing_plan_id":"cebpf4jnsgd1na2vs0mg"},{"bike_id":"9111363c-e358-4cc0-9632-937d6be3578a","system_id":"levelo_inurba_marseille","lat":43.28,"lon":5.40003,"is_reserved":false,"is_disabled":false,"rental_uris":{"android":"levelo://app?vid=9111363c-e358-4cc0-9632-937d6be3578a","ios":"levelo://app?vid=9111363c-e358-4cc0-9632-937d6be3578a"},"vehicle_type_id":"4","last_reported":1745756222,"current_range_meters":14000,"station_id":"ce4bho92rcd13ifvqh4g","pricing_plan_id":"cebpf4jnsgd1na2vs0mg"},{"bike_id":"e2ebe0b4-27e2-4f46-bdf4-e1916df46672","system_id":"levelo_inurba_marseille","lat":43.31769,"lon":5.40624,"is_reserved":false,"is_disabled":false,"rental_uris":{"android":"levelo://app?vid=e2ebe0b4-27e2-4f46-bdf4-e1916df46672","ios":"levelo://app?vid=e2ebe0b4-27e2-4f46-bdf4-e1916df46672"},"vehicle_type_id":"4","last_reported":1745756222,"current_range_meters":14000,"station_id":"","pricing_plan_id":"cebpf4jnsgd1na2vs0mg"},{"bike_id":"57ebd52c-bbc8-4a4d-8d80-2da8f6250dbd","system_id":"levelo_inurba_marseille","lat":43.27822,"lon":5.40716,"is_reserved":false,"is_disabled":true,"rental_uris":{"android":"levelo://app?vid=57ebd52c-bbc8-4a4d-8d80-2da8f6250dbd","ios":"levelo://app?vid=57ebd52c-bbc8-4a4d-8d80-2da8f6250dbd"},"vehicle_type_id":"4","last_reported":1745756222,"current_range_meters":14400,"station_id":"ce4bhnh2rcd13ifvqgtg","pricing_plan_id":"cebpf4jnsgd1na2vs0mg"},{"bike_id":"8c681472-1cab-49b0-b246-f2811cc1b3cb","system_id":"levelo_inurba_marseille","lat":43.28351,"lon":5.38104,"is_reserved":false,"is_disabled":false,"rental_uris":{"android":"levelo://app?vid=8c681472-1cab-49b0-b246-f2811cc1b3cb","ios":"levelo://app?vid=8c681472-1cab-49b0-b246-f2811cc1b3cb"},"vehicle_type_id":"4","last_reported":1745756222,"current_range_meters":14400,"station_id":"ce4bh412rcd13ifvqdr0","pricing_plan_id":"cebpf4jnsgd1na2vs0mg"},{"bike_id":"fef55279-c360-4dd6-a535-2cacf7a5bd0c","system_id":"levelo_inurba_marseille","lat":43.30546,"lon":5.36529,"is_reserved":false,"is_disabled":false,"rental_uris":{"android":"levelo://app?vid=fef55279-c360-4dd6-a535-2cacf7a5bd0c","ios":"levelo://app?vid=fef55279-c360-4dd6-a535-2cacf7a5bd0c"},"vehicle_type_id":"4","last_reported":1745756222,"current_range_meters":14400,"station_id":"ce4bgs12rcd13ifvqcag","pricing_plan_id":"cebpf4jnsgd1na2vs0mg"},{"bike_id":"a7198c19-fdc9-4a7a-95e0-a894ca54152c","system_id":"levelo_inurba_marseille","lat":43.30987,"lon":5.41711,"is_reserved":false,"is_disabled":false,"rental_uris":{"android":"levelo://app?vid=a7198c19-fdc9-4a7a-95e0-a894ca54152c","ios":"levelo://app?vid=a7198c19-fdc9-4a7a-95e0-a894ca54152c"},"vehicle_type_id":"4","last_reported":1745756222,"current_range_meters":14800,"station_id":"","pricing_plan_id":"cebpf4jnsgd1na2vs0mg"},{"bike_id":"f59e3838-4f3d-46cb-ab35-321acde7bb3b","system_id":"levelo_inurba_marseille","lat":43.26209,"lon":5.37926,"is_reserved":false,"is_disabled":false,"rental_uris":{"android":"levelo://app?vid=f59e3838-4f3d-46cb-ab35-321acde7bb3b","ios":"levelo://app?vid=f59e3838-4f3d-46cb-ab35-321acde7bb3b"},"vehicle_type_id":"4","last_reported":1745756222,"current_range_meters":14400,"station_id":"ce4bhjp2rcd13ifvqg90","pricing_plan_id":"cebpf4jnsgd1na2vs0mg"},{"bike_id":"16b75a5c-0fa3-4253-85ed-5154531053c0","system_id":"levelo_inurba_marseille","lat":43.21191,"lon":5.35077,"is_reserved":false,"is_disabled":false,"rental_uris":{"android":"levelo://app?vid=16b75a5c-0fa3-4253-85ed-5154531053c0","ios":"levelo://app?vid=16b75a5c-0fa3-4253-85ed-5154531053c0"},"vehicle_type_id":"4","last_reported":1745756222,"current_range_meters":15200,"station_id":"ce4bhe12rcd13ifvqf30","pricing_plan_id":"cebpf4jnsgd1na2vs0mg"},{"bike_id":"66e61217-52e3-4d28-9695-fb3ed1a709a7","system_id":"levelo_inurba_marseille","lat":43.29843,"lon":5.36264,"is_reserved":false,"is_disabled":false,"rental_uris":{"android":"levelo://app?vid=66e61217-52e3-4d28-9695-fb3ed1a709a7","ios":"levelo://app?vid=66e61217-52e3-4d28-9695-fb3ed1a709a7"},"vehicle_type_id":"4","last_reported":1745756222,"current_range_meters":15200,"station_id":"ce4bgpp2rcd13ifvqc3g","pricing_plan_id":"cebpf4jnsgd1na2vs0mg"},{"bike_id":"a0702f1d-da4f-44d3-a194-2f747555a1de","system_id":"levelo_inurba_marseille","lat":43.301334,"lon":5.387711,"is_reserved":false,"is_disabled":false,"rental_uris":{"android":"levelo://app?vid=a0702f1d-da4f-44d3-a194-2f747555a1de","ios":"levelo://app?vid=a0702f1d-da4f-44d3-a194-2f747555a1de"},"vehicle_type_id":"4","last_reported":1745756222,"current_range_meters":15200,"station_id":"ce4bh012rcd13ifvqcv0","pricing_plan_id":"cebpf4jnsgd1na2vs0mg"},{"bike_id":"1fe84233-d6e6-400c-ba7e-765c53207954","system_id":"levelo_inurba_marseille","lat":43.2607,"lon":5.394,"is_reserved":false,"is_disabled":false,"rental_uris":{"android":"levelo://app?vid=1fe84233-d6e6-400c-ba7e-765c53207954","ios":"levelo://app?vid=1fe84233-d6e6-400c-ba7e-765c53207954"},"vehicle_type_id":"4","last_reported":1745756222,"current_range_meters":15200,"station_id":"ce4bhh92rcd13ifvqfj0","pricing_plan_id":"cebpf4jnsgd1na2vs0mg"},{"bike_id":"b330c3b4-8203-49c9-a4bf-5485d09a1d2d","system_id":"levelo_inurba_marseille","lat":43.30204,"lon":5.39464,"is_reserved":false,"is_disabled":true,"rental_uris":{"android":"levelo://app?vid=b330c3b4-8203-49c9-a4bf-5485d09a1d2d","ios":"levelo://app?vid=b330c3b4-8203-49c9-a4bf-5485d09a1d2d"},"vehicle_type_id":"4","last_reported":1745756222,"current_range_meters":15200,"station_id":"ce4bh0p2rcd13ifvqd70","pricing_plan_id":"cebpf4jnsgd1na2vs0mg"},{"bike_id":"ffe5006a-8288-44d2-9cf5-66ad041bd6fd","system_id":"levelo_inurba_marseille","lat":43.24167,"lon":5.36394,"is_reserved":false,"is_disabled":false,"rental_uris":{"android":"levelo://app?vid=ffe5006a-8288-44d2-9cf5-66ad041bd6fd","ios":"levelo://app?vid=ffe5006a-8288-44d2-9cf5-66ad041bd6fd"},"vehicle_type_id":"4","last_reported":1745756222,"current_range_meters":15200,"station_id":"cpo36qri1sfpv3e86is0","pricing_plan_id":"cebpf4jnsgd1na2vs0mg"},{"bike_id":"edb7787a-c68b-4c3c-a204-0dcc8d513b0d","system_id":"levelo_inurba_marseille","lat":43.24663,"lon":5.381596,"is_reserved":false,"is_disabled":false,"rental_uris":{"android":"levelo://app?vid=edb7787a-c68b-4c3c-a204-0dcc8d513b0d","ios":"levelo://app?vid=edb7787a-c68b-4c3c-a204-0dcc8d513b0d"},"vehicle_type_id":"4","last_reported":1745756222,"current_range_meters":16000,"station_id":"ce4bhih2rcd13ifvqfr0","pricing_plan_id":"cebpf4jnsgd1na2vs0mg"},{"bike_id":"bbebbef6-e7cd-4587-b081-e618bb8e23ad","system_id":"levelo_inurba_marseille","lat":43.304729,"lon":5.379088,"is_reserved":false,"is_disabled":false,"rental_uris":{"android":"levelo://app?vid=bbebbef6-e7cd-4587-b081-e618bb8e23ad","ios":"levelo://app?vid=bbebbef6-e7cd-4587-b081-e618bb8e23ad"},"vehicle_type_id":"4","last_reported":1745756222,"current_range_meters":16000,"station_id":"ce4bgup2rcd13ifvqcn0","pricing_plan_id":"cebpf4jnsgd1na2vs0mg"},{"bike_id":"0d777af5-4166-475a-a6b9-6a0197032592","system_id":"levelo_inurba_marseille","lat":43.2327,"lon":5.35205,"is_reserved":false,"is_disabled":false,"rental_uris":{"android":"levelo://app?vid=0d777af5-4166-475a-a6b9-6a0197032592","ios":"levelo://app?vid=0d777af5-4166-475a-a6b9-6a0197032592"},"vehicle_type_id":"4","last_reported":1745756222,"current_range_meters":16000,"station_id":"","pricing_plan_id":"cebpf4jnsgd1na2vs0mg"},{"bike_id":"89e7ab08-7fc9-416d-a96f-130de8b43266","system_id":"levelo_inurba_marseille","lat":43.33966,"lon":5.39598,"is_reserved":false,"is_disabled":false,"rental_uris":{"android":"levelo://app?vid=89e7ab08-7fc9-416d-a96f-130de8b43266","ios":"levelo://app?vid=89e7ab08-7fc9-416d-a96f-130de8b43266"},"vehicle_type_id":"4","last_reported":1745756222,"current_range_meters":16400,"station_id":"ce4bhr92rcd13ifvqhsg","pricing_plan_id":"cebpf4jnsgd1na2vs0mg"},{"bike_id":"3d934169-6946-46cc-87a4-ce5d03b77075","system_id":"levelo_inurba_marseille","lat":43.21746,"lon":5.34608,"is_reserved":false,"is_disabled":false,"rental_uris":{"android":"levelo://app?vid=3d934169-6946-46cc-87a4-ce5d03b77075","ios":"levelo://app?vid=3d934169-6946-46cc-87a4-ce5d03b77075"},"vehicle_type_id":"4","last_reported":1745756222,"current_range_meters":16000,"station_id":"st_cvj6r9ubvosntc0bgbag","pricing_plan_id":"cebpf4jnsgd1na2vs0mg"},{"bike_id":"a6ef5e73-9c2a-4c3a-b853-48e28d6dc161","system_id":"levelo_inurba_marseille","lat":43.317095,"lon":5.436869,"is_reserved":false,"is_disabled":true,"rental_uris":{"android":"levelo://app?vid=a6ef5e73-9c2a-4c3a-b853-48e28d6dc161","ios":"levelo://app?vid=a6ef5e73-9c2a-4c3a-b853-48e28d6dc161"},"vehicle_type_id":"4","last_reported":1745756222,"current_range_meters":16000,"station_id":"ce4bhp92rcd13ifvqhcg","pricing_plan_id":"cebpf4jnsgd1na2vs0mg"},{"bike_id":"72d0a8a0-465d-4d8e-95bc-a72b7e69416f","system_id":"levelo_inurba_marseille","lat":43.304,"lon":5.41296,"is_reserved":false,"is_disabled":false,"rental_uris":{"android":"levelo://app?vid=72d0a8a0-465d-4d8e-95bc-a72b7e69416f","ios":"levelo://app?vid=72d0a8a0-465d-4d8e-95bc-a72b7e69416f"},"vehicle_type_id":"4","last_reported":1745756222,"current_range_meters":16000,"station_id":"ce4bhop2rcd13ifvqh8g","pricing_plan_id":"cebpf4jnsgd1na2vs0mg"},{"bike_id":"99be1414-58ff-4752-826b-d0dcc4401711","system_id":"levelo_inurba_marseille","lat":43.24817,"lon":5.37456,"is_reserved":false,"is_disabled":true,"rental_uris":{"android":"levelo://app?vid=99be1414-58ff-4752-826b-d0dcc4401711","ios":"levelo://app?vid=99be1414-58ff-4752-826b-d0dcc4401711"},"vehicle_type_id":"4","last_reported":1745756222,"current_range_meters":16000,"station_id":"ce4bhgh2rcd13ifvqfb0","pricing_plan_id":"cebpf4jnsgd1na2vs0mg"},{"bike_id":"67c71c8f-165b-4e86-b66b-1bc1e8ea9467","system_id":"levelo_inurba_marseille","lat":43.28107,"lon":5.37841,"is_reserved":false,"is_disabled":false,"rental_uris":{"android":"levelo://app?vid=67c71c8f-165b-4e86-b66b-1bc1e8ea9467","ios":"levelo://app?vid=67c71c8f-165b-4e86-b66b-1bc1e8ea9467"},"vehicle_type_id":"4","last_reported":1745756222,"current_range_meters":16400,"station_id":"ce4bha12rcd13ifvqee0","pricing_plan_id":"cebpf4jnsgd1na2vs0mg"},{"bike_id":"0d0be515-dd42-47f5-ae98-067686ccd3aa","system_id":"levelo_inurba_marseille","lat":43.26058,"lon":5.39397,"is_reserved":false,"is_disabled":false,"rental_uris":{"android":"levelo://app?vid=0d0be515-dd42-47f5-ae98-067686ccd3aa","ios":"levelo://app?vid=0d0be515-dd42-47f5-ae98-067686ccd3aa"},"vehicle_type_id":"4","last_reported":1745756222,"current_range_meters":16400,"station_id":"ce4bhh92rcd13ifvqfj0","pricing_plan_id":"cebpf4jnsgd1na2vs0mg"},{"bike_id":"4d90eb9c-3f2c-4f81-b886-9d9cf0760dd5","system_id":"levelo_inurba_marseille","lat":43.31065,"lon":5.38346,"is_reserved":false,"is_disabled":false,"rental_uris":{"android":"levelo://app?vid=4d90eb9c-3f2c-4f81-b886-9d9cf0760dd5","ios":"levelo://app?vid=4d90eb9c-3f2c-4f81-b886-9d9cf0760dd5"},"vehicle_type_id":"4","last_reported":1745756222,"current_range_meters":16400,"station_id":"ce4bgv92rcd13ifvqcr0","pricing_plan_id":"cebpf4jnsgd1na2vs0mg"},{"bike_id":"389fa13e-9fb8-4551-94cc-3437e858ed36","system_id":"levelo_inurba_marseille","lat":43.24177,"lon":5.3639,"is_reserved":false,"is_disabled":false,"rental_uris":{"android":"levelo://app?vid=389fa13e-9fb8-4551-94cc-3437e858ed36","ios":"levelo://app?vid=389fa13e-9fb8-4551-94cc-3437e858ed36"},"vehicle_type_id":"4","last_reported":1745756222,"current_range_meters":16400,"station_id":"cpo36qri1sfpv3e86is0","pricing_plan_id":"cebpf4jnsgd1na2vs0mg"},{"bike_id":"647355cc-822f-41e4-b0fe-856d5a69a337","system_id":"levelo_inurba_marseille","lat":43.21194,"lon":5.3506,"is_reserved":false,"is_disabled":false,"rental_uris":{"android":"levelo://app?vid=647355cc-822f-41e4-b0fe-856d5a69a337","ios":"levelo://app?vid=647355cc-822f-41e4-b0fe-856d5a69a337"},"vehicle_type_id":"4","last_reported":1745756222,"current_range_meters":16800,"station_id":"st_cvj6sg6p6f1abm77japg","pricing_plan_id":"cebpf4jnsgd1na2vs0mg"},{"bike_id":"4046a82f-66e8-4b55-bd0a-356edea772d8","system_id":"levelo_inurba_marseille","lat":43.30584,"lon":5.38142,"is_reserved":false,"is_disabled":false,"rental_uris":{"android":"levelo://app?vid=4046a82f-66e8-4b55-bd0a-356edea772d8","ios":"levelo://app?vid=4046a82f-66e8-4b55-bd0a-356edea772d8"},"vehicle_type_id":"4","last_reported":1745756222,"current_range_meters":16800,"station_id":"","pricing_plan_id":"cebpf4jnsgd1na2vs0mg"},{"bike_id":"490e0780-a085-4548-b43e-5659e113bcfb","system_id":"levelo_inurba_marseille","lat":43.2318,"lon":5.3999,"is_reserved":false,"is_disabled":false,"rental_uris":{"android":"levelo://app?vid=490e0780-a085-4548-b43e-5659e113bcfb","ios":"levelo://app?vid=490e0780-a085-4548-b43e-5659e113bcfb"},"vehicle_type_id":"4","last_reported":1745756222,"current_range_meters":16800,"station_id":"ce4bhn12rcd13ifvqgqg","pricing_plan_id":"cebpf4jnsgd1na2vs0mg"},{"bike_id":"6a0de3d1-cabc-47be-8f17-6ae60956132b","system_id":"levelo_inurba_marseille","lat":43.29663,"lon":5.37446,"is_reserved":false,"is_disabled":false,"rental_uris":{"android":"levelo://app?vid=6a0de3d1-cabc-47be-8f17-6ae60956132b","ios":"levelo://app?vid=6a0de3d1-cabc-47be-8f17-6ae60956132b"},"vehicle_type_id":"4","last_reported":1745756222,"current_range_meters":17200,"station_id":"","pricing_plan_id":"cebpf4jnsgd1na2vs0mg"},{"bike_id":"81d16e96-5cd8-4ae0-91d6-1263827ce383","system_id":"levelo_inurba_marseille","lat":43.28104,"lon":5.37833,"is_reserved":false,"is_disabled":false,"rental_uris":{"android":"levelo://app?vid=81d16e96-5cd8-4ae0-91d6-1263827ce383","ios":"levelo://app?vid=81d16e96-5cd8-4ae0-91d6-1263827ce383"},"vehicle_type_id":"4","last_reported":1745756222,"current_range_meters":17200,"station_id":"ce4bha12rcd13ifvqee0","pricing_plan_id":"cebpf4jnsgd1na2vs0mg"},{"bike_id":"f360aaad-e350-49e9-8191-58ce4616eb13","system_id":"levelo_inurba_marseille","lat":43.21196,"lon":5.35072,"is_reserved":false,"is_disabled":true,"rental_uris":{"android":"levelo://app?vid=f360aaad-e350-49e9-8191-58ce4616eb13","ios":"levelo://app?vid=f360aaad-e350-49e9-8191-58ce4616eb13"},"vehicle_type_id":"4","last_reported":1745756222,"current_range_meters":17200,"station_id":"st_cvj6sg6p6f1abm77japg","pricing_plan_id":"cebpf4jnsgd1na2vs0mg"},{"bike_id":"6d593226-0a2e-46d4-8de3-9c8bd9d3e674","system_id":"levelo_inurba_marseille","lat":43.29777,"lon":5.38123,"is_reserved":false,"is_disabled":true,"rental_uris":{"android":"levelo://app?vid=6d593226-0a2e-46d4-8de3-9c8bd9d3e674","ios":"levelo://app?vid=6d593226-0a2e-46d4-8de3-9c8bd9d3e674"},"vehicle_type_id":"4","last_reported":1745756222,"current_range_meters":17200,"station_id":"ce4bgip2rcd13ifvqbb0","pricing_plan_id":"cebpf4jnsgd1na2vs0mg"},{"bike_id":"87ee31f9-a015-461b-bc12-1a84cb69f3d3","system_id":"levelo_inurba_marseille","lat":43.30884,"lon":5.39654,"is_reserved":false,"is_disabled":false,"rental_uris":{"android":"levelo://app?vid=87ee31f9-a015-461b-bc12-1a84cb69f3d3","ios":"levelo://app?vid=87ee31f9-a015-461b-bc12-1a84cb69f3d3"},"vehicle_type_id":"4","last_reported":1745756222,"current_range_meters":16800,"station_id":"ce4bh012rcd13ifvqcv0","pricing_plan_id":"cebpf4jnsgd1na2vs0mg"},{"bike_id":"97f36b89-3f79-4d54-80b9-0001fe6da6bb","system_id":"levelo_inurba_marseille","lat":43.32445,"lon":5.39134,"is_reserved":false,"is_disabled":true,"rental_uris":{"android":"levelo://app?vid=97f36b89-3f79-4d54-80b9-0001fe6da6bb","ios":"levelo://app?vid=97f36b89-3f79-4d54-80b9-0001fe6da6bb"},"vehicle_type_id":"4","last_reported":1745756222,"current_range_meters":17200,"station_id":"","pricing_plan_id":"cebpf4jnsgd1na2vs0mg"},{"bike_id":"a1300fa1-43f7-47bc-be68-1621591c429e","system_id":"levelo_inurba_marseille","lat":43.2504,"lon":5.38929,"is_reserved":false,"is_disabled":true,"rental_uris":{"android":"levelo://app?vid=a1300fa1-43f7-47bc-be68-1621591c429e","ios":"levelo://app?vid=a1300fa1-43f7-47bc-be68-1621591c429e"},"vehicle_type_id":"4","last_reported":1745756222,"current_range_meters":17200,"station_id":"ce4bhgp2rcd13ifvqfd0","pricing_plan_id":"cebpf4jnsgd1na2vs0mg"},{"bike_id":"2405ba8f-d8fc-44ff-9071-3cb1b048f789","system_id":"levelo_inurba_marseille","lat":43.30798,"lon":5.3817,"is_reserved":false,"is_disabled":false,"rental_uris":{"android":"levelo://app?vid=2405ba8f-d8fc-44ff-9071-3cb1b048f789","ios":"levelo://app?vid=2405ba8f-d8fc-44ff-9071-3cb1b048f789"},"vehicle_type_id":"4","last_reported":1745756222,"current_range_meters":17200,"station_id":"ce4bgt12rcd13ifvqce0","pricing_plan_id":"cebpf4jnsgd1na2vs0mg"},{"bike_id":"711e2011-9fce-4517-a6fb-ed586cce515e","system_id":"levelo_inurba_marseille","lat":43.30529,"lon":5.36701,"is_reserved":false,"is_disabled":false,"rental_uris":{"android":"levelo://app?vid=711e2011-9fce-4517-a6fb-ed586cce515e","ios":"levelo://app?vid=711e2011-9fce-4517-a6fb-ed586cce515e"},"vehicle_type_id":"4","last_reported":1745756222,"current_range_meters":17600,"station_id":"ce4bgrp2rcd13ifvqc9g","pricing_plan_id":"cebpf4jnsgd1na2vs0mg"},{"bike_id":"727e9daa-8566-4944-8407-8bf395e3ab99","system_id":"levelo_inurba_marseille","lat":43.2606,"lon":5.39395,"is_reserved":false,"is_disabled":false,"rental_uris":{"android":"levelo://app?vid=727e9daa-8566-4944-8407-8bf395e3ab99","ios":"levelo://app?vid=727e9daa-8566-4944-8407-8bf395e3ab99"},"vehicle_type_id":"4","last_reported":1745756222,"current_range_meters":17600,"station_id":"ce4bhh92rcd13ifvqfj0","pricing_plan_id":"cebpf4jnsgd1na2vs0mg"},{"bike_id":"97fd7a4c-36e8-401d-b12d-1b4015a01ebe","system_id":"levelo_inurba_marseille","lat":43.26562,"lon":5.42087,"is_reserved":false,"is_disabled":false,"rental_uris":{"android":"levelo://app?vid=97fd7a4c-36e8-401d-b12d-1b4015a01ebe","ios":"levelo://app?vid=97fd7a4c-36e8-401d-b12d-1b4015a01ebe"},"vehicle_type_id":"4","last_reported":1745756222,"current_range_meters":17600,"station_id":"","pricing_plan_id":"cebpf4jnsgd1na2vs0mg"},{"bike_id":"d8e186e0-8d9f-4c16-bb12-3c50f63fd666","system_id":"levelo_inurba_marseille","lat":43.27494,"lon":5.42448,"is_reserved":false,"is_disabled":false,"rental_uris":{"android":"levelo://app?vid=d8e186e0-8d9f-4c16-bb12-3c50f63fd666","ios":"levelo://app?vid=d8e186e0-8d9f-4c16-bb12-3c50f63fd666"},"vehicle_type_id":"4","last_reported":1745756222,"current_range_meters":17600,"station_id":"ce4bhn92rcd13ifvqgrg","pricing_plan_id":"cebpf4jnsgd1na2vs0mg"},{"bike_id":"43169b8c-172b-4a17-9d1b-539e4dac7191","system_id":"levelo_inurba_marseille","lat":43.28346,"lon":5.38091,"is_reserved":false,"is_disabled":false,"rental_uris":{"android":"levelo://app?vid=43169b8c-172b-4a17-9d1b-539e4dac7191","ios":"levelo://app?vid=43169b8c-172b-4a17-9d1b-539e4dac7191"},"vehicle_type_id":"4","last_reported":1745756222,"current_range_meters":17600,"station_id":"ce4bh412rcd13ifvqdr0","pricing_plan_id":"cebpf4jnsgd1na2vs0mg"},{"bike_id":"b532cbc6-d603-4b6c-8eb1-6da63ec873ab","system_id":"levelo_inurba_marseille","lat":43.27077,"lon":5.4029,"is_reserved":false,"is_disabled":false,"rental_uris":{"android":"levelo://app?vid=b532cbc6-d603-4b6c-8eb1-6da63ec873ab","ios":"levelo://app?vid=b532cbc6-d603-4b6c-8eb1-6da63ec873ab"},"vehicle_type_id":"4","last_reported":1745756222,"current_range_meters":17600,"station_id":"ce4bhk92rcd13ifvqgc0","pricing_plan_id":"cebpf4jnsgd1na2vs0mg"},{"bike_id":"286c1f62-d1bf-4dab-aedb-e0a0d49d0105","system_id":"levelo_inurba_marseille","lat":43.26554,"lon":5.39022,"is_reserved":false,"is_disabled":false,"rental_uris":{"android":"levelo://app?vid=286c1f62-d1bf-4dab-aedb-e0a0d49d0105","ios":"levelo://app?vid=286c1f62-d1bf-4dab-aedb-e0a0d49d0105"},"vehicle_type_id":"4","last_reported":1745756222,"current_range_meters":17600,"station_id":"ce4bhe12rcd13ifvqf30","pricing_plan_id":"cebpf4jnsgd1na2vs0mg"},{"bike_id":"3f5f2c9a-9e49-4b78-9b1b-0708da9fec39","system_id":"levelo_inurba_marseille","lat":43.22501,"lon":5.34784,"is_reserved":false,"is_disabled":false,"rental_uris":{"android":"levelo://app?vid=3f5f2c9a-9e49-4b78-9b1b-0708da9fec39","ios":"levelo://app?vid=3f5f2c9a-9e49-4b78-9b1b-0708da9fec39"},"vehicle_type_id":"4","last_reported":1745756222,"current_range_meters":18000,"station_id":"st_cvj5dfep6f1abm77gieg","pricing_plan_id":"cebpf4jnsgd1na2vs0mg"},{"bike_id":"b5374913-2d8e-4340-9ef3-bca67eedae7f","system_id":"levelo_inurba_marseille","lat":43.25925,"lon":5.40889,"is_reserved":false,"is_disabled":false,"rental_uris":{"android":"levelo://app?vid=b5374913-2d8e-4340-9ef3-bca67eedae7f","ios":"levelo://app?vid=b5374913-2d8e-4340-9ef3-bca67eedae7f"},"vehicle_type_id":"4","last_reported":1745756222,"current_range_meters":18000,"station_id":"ce4bhm92rcd13ifvqglg","pricing_plan_id":"cebpf4jnsgd1na2vs0mg"},{"bike_id":"2d21c0b3-d129-40ca-b5e0-4de377b57c75","system_id":"levelo_inurba_marseille","lat":43.26062,"lon":5.39387,"is_reserved":false,"is_disabled":false,"rental_uris":{"android":"levelo://app?vid=2d21c0b3-d129-40ca-b5e0-4de377b57c75","ios":"levelo://app?vid=2d21c0b3-d129-40ca-b5e0-4de377b57c75"},"vehicle_type_id":"4","last_reported":1745756222,"current_range_meters":18000,"station_id":"ce4bhh92rcd13ifvqfj0","pricing_plan_id":"cebpf4jnsgd1na2vs0mg"},{"bike_id":"e492037e-60a9-4864-84d6-2fe9ea031f90","system_id":"levelo_inurba_marseille","lat":43.27964,"lon":5.38764,"is_reserved":false,"is_disabled":false,"rental_uris":{"android":"levelo://app?vid=e492037e-60a9-4864-84d6-2fe9ea031f90","ios":"levelo://app?vid=e492037e-60a9-4864-84d6-2fe9ea031f90"},"vehicle_type_id":"4","last_reported":1745756222,"current_range_meters":18000,"station_id":"ce4bhg12rcd13ifvqf80","pricing_plan_id":"cebpf4jnsgd1na2vs0mg"},{"bike_id":"bfeed9db-4182-4b3c-aa27-f471b76d8c89","system_id":"levelo_inurba_marseille","lat":43.290156,"lon":5.378122,"is_reserved":false,"is_disabled":false,"rental_uris":{"android":"levelo://app?vid=bfeed9db-4182-4b3c-aa27-f471b76d8c89","ios":"levelo://app?vid=bfeed9db-4182-4b3c-aa27-f471b76d8c89"},"vehicle_type_id":"4","last_reported":1745756222,"current_range_meters":18000,"station_id":"ce4bh9p2rcd13ifvqed0","pricing_plan_id":"cebpf4jnsgd1na2vs0mg"},{"bike_id":"683b45fe-d6d7-4560-ae22-95bdbf4d269a","system_id":"levelo_inurba_marseille","lat":43.21754,"lon":5.34596,"is_reserved":false,"is_disabled":false,"rental_uris":{"android":"levelo://app?vid=683b45fe-d6d7-4560-ae22-95bdbf4d269a","ios":"levelo://app?vid=683b45fe-d6d7-4560-ae22-95bdbf4d269a"},"vehicle_type_id":"4","last_reported":1745756222,"current_range_meters":18000,"station_id":"st_cvj6r9ubvosntc0bgbag","pricing_plan_id":"cebpf4jnsgd1na2vs0mg"},{"bike_id":"181ed326-b471-49b5-9f00-acd48cb5b299","system_id":"levelo_inurba_marseille","lat":43.28282,"lon":5.35061,"is_reserved":false,"is_disabled":true,"rental_uris":{"android":"levelo://app?vid=181ed326-b471-49b5-9f00-acd48cb5b299","ios":"levelo://app?vid=181ed326-b471-49b5-9f00-acd48cb5b299"},"vehicle_type_id":"4","last_reported":1745756222,"current_range_meters":18000,"station_id":"ce4bhbp2rcd13ifvqerg","pricing_plan_id":"cebpf4jnsgd1na2vs0mg"},{"bike_id":"c3785294-a4a0-4e65-ac5d-b4e83966a4fe","system_id":"levelo_inurba_marseille","lat":43.29575,"lon":5.37506,"is_reserved":false,"is_disabled":false,"rental_uris":{"android":"levelo://app?vid=c3785294-a4a0-4e65-ac5d-b4e83966a4fe","ios":"levelo://app?vid=c3785294-a4a0-4e65-ac5d-b4e83966a4fe"},"vehicle_type_id":"4","last_reported":1745756222,"current_range_meters":18000,"station_id":"ce4bgh92rcd13ifvqb50","pricing_plan_id":"cebpf4jnsgd1na2vs0mg"},{"bike_id":"0fa0d35c-5f1d-4090-ac0b-83c1fb2bda03","system_id":"levelo_inurba_marseille","lat":43.29264,"lon":5.40908,"is_reserved":false,"is_disabled":false,"rental_uris":{"android":"levelo://app?vid=0fa0d35c-5f1d-4090-ac0b-83c1fb2bda03","ios":"levelo://app?vid=0fa0d35c-5f1d-4090-ac0b-83c1fb2bda03"},"vehicle_type_id":"4","last_reported":1745756222,"current_range_meters":18800,"station_id":"ce4bh192rcd13ifvqdc0","pricing_plan_id":"cebpf4jnsgd1na2vs0mg"},{"bike_id":"589450b2-9b4d-4bbb-8fb5-7a0722cf6b67","system_id":"levelo_inurba_marseille","lat":43.26934,"lon":5.38919,"is_reserved":false,"is_disabled":false,"rental_uris":{"android":"levelo://app?vid=589450b2-9b4d-4bbb-8fb5-7a0722cf6b67","ios":"levelo://app?vid=589450b2-9b4d-4bbb-8fb5-7a0722cf6b67"},"vehicle_type_id":"4","last_reported":1745756222,"current_range_meters":18800,"station_id":"ce4bhhh2rcd13ifvqfl0","pricing_plan_id":"cebpf4jnsgd1na2vs0mg"},{"bike_id":"9275afeb-620b-4a3c-83d1-31bc14709d93","system_id":"levelo_inurba_marseille","lat":43.28857,"lon":5.35831,"is_reserved":false,"is_disabled":true,"rental_uris":{"android":"levelo://app?vid=9275afeb-620b-4a3c-83d1-31bc14709d93","ios":"levelo://app?vid=9275afeb-620b-4a3c-83d1-31bc14709d93"},"vehicle_type_id":"4","last_reported":1745756222,"current_range_meters":18800,"station_id":"ce4bhb12rcd13ifvqem0","pricing_plan_id":"cebpf4jnsgd1na2vs0mg"},{"bike_id":"188f96b2-7316-44a2-875d-4f24a3722e03","system_id":"levelo_inurba_marseille","lat":43.29766,"lon":5.37102,"is_reserved":false,"is_disabled":false,"rental_uris":{"android":"levelo://app?vid=188f96b2-7316-44a2-875d-4f24a3722e03","ios":"levelo://app?vid=188f96b2-7316-44a2-875d-4f24a3722e03"},"vehicle_type_id":"4","last_reported":1745756222,"current_range_meters":18800,"station_id":"ce4bgop2rcd13ifvqc1g","pricing_plan_id":"cebpf4jnsgd1na2vs0mg"},{"bike_id":"bc7fa72d-35f6-4367-acf3-43d47347db40","system_id":"levelo_inurba_marseille","lat":43.25494,"lon":5.37646,"is_reserved":false,"is_disabled":false,"rental_uris":{"android":"levelo://app?vid=bc7fa72d-35f6-4367-acf3-43d47347db40","ios":"levelo://app?vid=bc7fa72d-35f6-4367-acf3-43d47347db40"},"vehicle_type_id":"4","last_reported":1745756222,"current_range_meters":18800,"station_id":"ce4bhh12rcd13ifvqff0","pricing_plan_id":"cebpf4jnsgd1na2vs0mg"},{"bike_id":"2fd034e2-c7c2-43e3-bccb-8f1cb3329650","system_id":"levelo_inurba_marseille","lat":43.27946,"lon":5.41047,"is_reserved":false,"is_disabled":false,"rental_uris":{"android":"levelo://app?vid=2fd034e2-c7c2-43e3-bccb-8f1cb3329650","ios":"levelo://app?vid=2fd034e2-c7c2-43e3-bccb-8f1cb3329650"},"vehicle_type_id":"4","last_reported":1745756222,"current_range_meters":18800,"station_id":"ce4bhnp2rcd13ifvqh0g","pricing_plan_id":"cebpf4jnsgd1na2vs0mg"},{"bike_id":"5e29bb99-7a29-4bbf-a514-99195c8fa20f","system_id":"levelo_inurba_marseille","lat":43.29886,"lon":5.43652,"is_reserved":false,"is_disabled":false,"rental_uris":{"android":"levelo://app?vid=5e29bb99-7a29-4bbf-a514-99195c8fa20f","ios":"levelo://app?vid=5e29bb99-7a29-4bbf-a514-99195c8fa20f"},"vehicle_type_id":"4","last_reported":1745756222,"current_range_meters":18800,"station_id":"ce4bhpp2rcd13ifvqhfg","pricing_plan_id":"cebpf4jnsgd1na2vs0mg"},{"bike_id":"6b34df52-6ca0-4d07-8f41-2a6d78fbfd53","system_id":"levelo_inurba_marseille","lat":43.27576,"lon":5.38405,"is_reserved":false,"is_disabled":false,"rental_uris":{"android":"levelo://app?vid=6b34df52-6ca0-4d07-8f41-2a6d78fbfd53","ios":"levelo://app?vid=6b34df52-6ca0-4d07-8f41-2a6d78fbfd53"},"vehicle_type_id":"4","last_reported":1745756222,"current_range_meters":18800,"station_id":"ce4bhh92rcd13ifvqfi0","pricing_plan_id":"cebpf4jnsgd1na2vs0mg"},{"bike_id":"7dd4dee6-f53b-445d-b293-3f63123e67b5","system_id":"levelo_inurba_marseille","lat":43.31713,"lon":5.43706,"is_reserved":false,"is_disabled":false,"rental_uris":{"android":"levelo://app?vid=7dd4dee6-f53b-445d-b293-3f63123e67b5","ios":"levelo://app?vid=7dd4dee6-f53b-445d-b293-3f63123e67b5"},"vehicle_type_id":"4","last_reported":1745756222,"current_range_meters":18800,"station_id":"ce4bhp92rcd13ifvqhcg","pricing_plan_id":"cebpf4jnsgd1na2vs0mg"},{"bike_id":"f8b82dd5-2d85-4846-8b9d-5afc30043cf6","system_id":"levelo_inurba_marseille","lat":43.225039,"lon":5.347702,"is_reserved":false,"is_disabled":false,"rental_uris":{"android":"levelo://app?vid=f8b82dd5-2d85-4846-8b9d-5afc30043cf6","ios":"levelo://app?vid=f8b82dd5-2d85-4846-8b9d-5afc30043cf6"},"vehicle_type_id":"4","last_reported":1745756222,"current_range_meters":18800,"station_id":"st_cvj5dfep6f1abm77gieg","pricing_plan_id":"cebpf4jnsgd1na2vs0mg"},{"bike_id":"6a3ad0ca-897c-414f-a69a-aae8b2ea7b61","system_id":"levelo_inurba_marseille","lat":43.21753,"lon":5.34605,"is_reserved":false,"is_disabled":false,"rental_uris":{"android":"levelo://app?vid=6a3ad0ca-897c-414f-a69a-aae8b2ea7b61","ios":"levelo://app?vid=6a3ad0ca-897c-414f-a69a-aae8b2ea7b61"},"vehicle_type_id":"4","last_reported":1745756222,"current_range_meters":18800,"station_id":"st_cvj6r9ubvosntc0bgbag","pricing_plan_id":"cebpf4jnsgd1na2vs0mg"},{"bike_id":"929ede0a-bede-4f2c-98c5-5586d05b6a66","system_id":"levelo_inurba_marseille","lat":43.21756,"lon":5.34596,"is_reserved":false,"is_disabled":false,"rental_uris":{"android":"levelo://app?vid=929ede0a-bede-4f2c-98c5-5586d05b6a66","ios":"levelo://app?vid=929ede0a-bede-4f2c-98c5-5586d05b6a66"},"vehicle_type_id":"4","last_reported":1745756222,"current_range_meters":19200,"station_id":"st_cvj6r9ubvosntc0bgbag","pricing_plan_id":"cebpf4jnsgd1na2vs0mg"},{"bike_id":"a9e9ec8b-5d90-4596-82c2-a757b8d6497d","system_id":"levelo_inurba_marseille","lat":43.30947,"lon":5.39038,"is_reserved":false,"is_disabled":false,"rental_uris":{"android":"levelo://app?vid=a9e9ec8b-5d90-4596-82c2-a757b8d6497d","ios":"levelo://app?vid=a9e9ec8b-5d90-4596-82c2-a757b8d6497d"},"vehicle_type_id":"4","last_reported":1745756222,"current_range_meters":18800,"station_id":"ce4bgup2rcd13ifvqco0","pricing_plan_id":"cebpf4jnsgd1na2vs0mg"},{"bike_id":"d912615a-4268-4584-bc5e-4513c4b9b5d0","system_id":"levelo_inurba_marseille","lat":43.30311,"lon":5.36892,"is_reserved":false,"is_disabled":false,"rental_uris":{"android":"levelo://app?vid=d912615a-4268-4584-bc5e-4513c4b9b5d0","ios":"levelo://app?vid=d912615a-4268-4584-bc5e-4513c4b9b5d0"},"vehicle_type_id":"4","last_reported":1745756222,"current_range_meters":19200,"station_id":"ce4bgqh2rcd13ifvqc5g","pricing_plan_id":"cebpf4jnsgd1na2vs0mg"},{"bike_id":"988d3e51-0f81-4d05-9256-41d5bf2a54ae","system_id":"levelo_inurba_marseille","lat":43.297165,"lon":5.36632,"is_reserved":false,"is_disabled":true,"rental_uris":{"android":"levelo://app?vid=988d3e51-0f81-4d05-9256-41d5bf2a54ae","ios":"levelo://app?vid=988d3e51-0f81-4d05-9256-41d5bf2a54ae"},"vehicle_type_id":"4","last_reported":1745756222,"current_range_meters":19200,"station_id":"ce4bgn12rcd13ifvqbt0","pricing_plan_id":"cebpf4jnsgd1na2vs0mg"},{"bike_id":"35cee361-db2b-4827-873a-7588969e53c1","system_id":"levelo_inurba_marseille","lat":43.281521,"lon":5.42646,"is_reserved":false,"is_disabled":false,"rental_uris":{"android":"levelo://app?vid=35cee361-db2b-4827-873a-7588969e53c1","ios":"levelo://app?vid=35cee361-db2b-4827-873a-7588969e53c1"},"vehicle_type_id":"4","last_reported":1745756222,"current_range_meters":19600,"station_id":"ce4bhnh2rcd13ifvqgug","pricing_plan_id":"cebpf4jnsgd1na2vs0mg"},{"bike_id":"1c549b55-b500-4808-ab76-bf95b833044d","system_id":"levelo_inurba_marseille","lat":43.31076,"lon":5.38353,"is_reserved":false,"is_disabled":false,"rental_uris":{"android":"levelo://app?vid=1c549b55-b500-4808-ab76-bf95b833044d","ios":"levelo://app?vid=1c549b55-b500-4808-ab76-bf95b833044d"},"vehicle_type_id":"4","last_reported":1745756222,"current_range_meters":19600,"station_id":"ce4bgv92rcd13ifvqcr0","pricing_plan_id":"cebpf4jnsgd1na2vs0mg"},{"bike_id":"e111005f-0797-4fd0-a4ad-3229ba5b961b","system_id":"levelo_inurba_marseille","lat":43.29849,"lon":5.36264,"is_reserved":false,"is_disabled":false,"rental_uris":{"android":"levelo://app?vid=e111005f-0797-4fd0-a4ad-3229ba5b961b","ios":"levelo://app?vid=e111005f-0797-4fd0-a4ad-3229ba5b961b"},"vehicle_type_id":"4","last_reported":1745756222,"current_range_meters":19600,"station_id":"ce4bgpp2rcd13ifvqc3g","pricing_plan_id":"cebpf4jnsgd1na2vs0mg"},{"bike_id":"cf950246-1404-413c-a982-16780791a018","system_id":"levelo_inurba_marseille","lat":43.32062,"lon":5.4154,"is_reserved":false,"is_disabled":false,"rental_uris":{"android":"levelo://app?vid=cf950246-1404-413c-a982-16780791a018","ios":"levelo://app?vid=cf950246-1404-413c-a982-16780791a018"},"vehicle_type_id":"4","last_reported":1745756222,"current_range_meters":19600,"station_id":"ce4bhq92rcd13ifvqhkg","pricing_plan_id":"cebpf4jnsgd1na2vs0mg"},{"bike_id":"92d1f33a-9432-40ef-9b0e-b1011ff311a4","system_id":"levelo_inurba_marseille","lat":43.29963,"lon":5.38507,"is_reserved":false,"is_disabled":false,"rental_uris":{"android":"levelo://app?vid=92d1f33a-9432-40ef-9b0e-b1011ff311a4","ios":"levelo://app?vid=92d1f33a-9432-40ef-9b0e-b1011ff311a4"},"vehicle_type_id":"4","last_reported":1745756222,"current_range_meters":19600,"station_id":"ce4bgj92rcd13ifvqbd0","pricing_plan_id":"cebpf4jnsgd1na2vs0mg"},{"bike_id":"22a83d05-c9c0-418c-aba2-13889dcbf30f","system_id":"levelo_inurba_marseille","lat":43.21181,"lon":5.35065,"is_reserved":false,"is_disabled":false,"rental_uris":{"android":"levelo://app?vid=22a83d05-c9c0-418c-aba2-13889dcbf30f","ios":"levelo://app?vid=22a83d05-c9c0-418c-aba2-13889dcbf30f"},"vehicle_type_id":"4","last_reported":1745756222,"current_range_meters":19600,"station_id":"","pricing_plan_id":"cebpf4jnsgd1na2vs0mg"},{"bike_id":"84d413cf-7679-49fb-89e3-56963ed03ff8","system_id":"levelo_inurba_marseille","lat":43.3307,"lon":5.38452,"is_reserved":false,"is_disabled":false,"rental_uris":{"android":"levelo://app?vid=84d413cf-7679-49fb-89e3-56963ed03ff8","ios":"levelo://app?vid=84d413cf-7679-49fb-89e3-56963ed03ff8"},"vehicle_type_id":"4","last_reported":1745756222,"current_range_meters":19600,"station_id":"","pricing_plan_id":"cebpf4jnsgd1na2vs0mg"},{"bike_id":"ad2271e4-56c1-4122-8c17-55b4db9b3c00","system_id":"levelo_inurba_marseille","lat":43.29906,"lon":5.38147,"is_reserved":false,"is_disabled":false,"rental_uris":{"android":"levelo://app?vid=ad2271e4-56c1-4122-8c17-55b4db9b3c00","ios":"levelo://app?vid=ad2271e4-56c1-4122-8c17-55b4db9b3c00"},"vehicle_type_id":"4","last_reported":1745756222,"current_range_meters":19600,"station_id":"ce4bgj12rcd13ifvqbc0","pricing_plan_id":"cebpf4jnsgd1na2vs0mg"},{"bike_id":"6479956a-d9b1-44fc-b8a6-2a54b4859093","system_id":"levelo_inurba_marseille","lat":43.28181,"lon":5.42659,"is_reserved":false,"is_disabled":false,"rental_uris":{"android":"levelo://app?vid=6479956a-d9b1-44fc-b8a6-2a54b4859093","ios":"levelo://app?vid=6479956a-d9b1-44fc-b8a6-2a54b4859093"},"vehicle_type_id":"4","last_reported":1745756222,"current_range_meters":20000,"station_id":"ce4bhnh2rcd13ifvqgug","pricing_plan_id":"cebpf4jnsgd1na2vs0mg"},{"bike_id":"6ad84135-27b8-4421-ad4e-6fd81628784c","system_id":"levelo_inurba_marseille","lat":43.30525,"lon":5.36534,"is_reserved":false,"is_disabled":false,"rental_uris":{"android":"levelo://app?vid=6ad84135-27b8-4421-ad4e-6fd81628784c","ios":"levelo://app?vid=6ad84135-27b8-4421-ad4e-6fd81628784c"},"vehicle_type_id":"4","last_reported":1745756222,"current_range_meters":20000,"station_id":"ce4bgs12rcd13ifvqcag","pricing_plan_id":"cebpf4jnsgd1na2vs0mg"},{"bike_id":"5f363fb2-65d6-4f54-a7e8-9f0969c18dcf","system_id":"levelo_inurba_marseille","lat":43.3052,"lon":5.36541,"is_reserved":false,"is_disabled":true,"rental_uris":{"android":"levelo://app?vid=5f363fb2-65d6-4f54-a7e8-9f0969c18dcf","ios":"levelo://app?vid=5f363fb2-65d6-4f54-a7e8-9f0969c18dcf"},"vehicle_type_id":"4","last_reported":1745756222,"current_range_meters":20000,"station_id":"ce4bgs12rcd13ifvqcag","pricing_plan_id":"cebpf4jnsgd1na2vs0mg"},{"bike_id":"1980b98f-535c-4244-a8d3-ea814e422e6a","system_id":"levelo_inurba_marseille","lat":43.29273,"lon":5.36851,"is_reserved":false,"is_disabled":false,"rental_uris":{"android":"levelo://app?vid=1980b98f-535c-4244-a8d3-ea814e422e6a","ios":"levelo://app?vid=1980b98f-535c-4244-a8d3-ea814e422e6a"},"vehicle_type_id":"4","last_reported":1745756222,"current_range_meters":20000,"station_id":"ce4bhbp2rcd13ifvqesg","pricing_plan_id":"cebpf4jnsgd1na2vs0mg"},{"bike_id":"e4d3acd2-ec30-4194-9669-a535cfa1d0d3","system_id":"levelo_inurba_marseille","lat":43.28571,"lon":5.39488,"is_reserved":false,"is_disabled":false,"rental_uris":{"android":"levelo://app?vid=e4d3acd2-ec30-4194-9669-a535cfa1d0d3","ios":"levelo://app?vid=e4d3acd2-ec30-4194-9669-a535cfa1d0d3"},"vehicle_type_id":"4","last_reported":1745756222,"current_range_meters":20000,"station_id":"ce4bh292rcd13ifvqdg0","pricing_plan_id":"cebpf4jnsgd1na2vs0mg"},{"bike_id":"b45721df-1911-4bd0-96bb-0c84adb69cfd","system_id":"levelo_inurba_marseille","lat":43.239615,"lon":5.366328,"is_reserved":false,"is_disabled":false,"rental_uris":{"android":"levelo://app?vid=b45721df-1911-4bd0-96bb-0c84adb69cfd","ios":"levelo://app?vid=b45721df-1911-4bd0-96bb-0c84adb69cfd"},"vehicle_type_id":"4","last_reported":1745756222,"current_range_meters":20000,"station_id":"ce4bhi12rcd13ifvqfp0","pricing_plan_id":"cebpf4jnsgd1na2vs0mg"},{"bike_id":"557f99ea-d9b5-48c4-9e9f-6778e66f213f","system_id":"levelo_inurba_marseille","lat":43.292028,"lon":5.393225,"is_reserved":false,"is_disabled":false,"rental_uris":{"android":"levelo://app?vid=557f99ea-d9b5-48c4-9e9f-6778e66f213f","ios":"levelo://app?vid=557f99ea-d9b5-48c4-9e9f-6778e66f213f"},"vehicle_type_id":"4","last_reported":1745756222,"current_range_meters":20000,"station_id":"ce4bh9p2rcd13ifvqed0","pricing_plan_id":"cebpf4jnsgd1na2vs0mg"},{"bike_id":"ce286d35-db76-4003-a752-ce57ae049566","system_id":"levelo_inurba_marseille","lat":43.30538,"lon":5.36557,"is_reserved":false,"is_disabled":false,"rental_uris":{"android":"levelo://app?vid=ce286d35-db76-4003-a752-ce57ae049566","ios":"levelo://app?vid=ce286d35-db76-4003-a752-ce57ae049566"},"vehicle_type_id":"4","last_reported":1745756222,"current_range_meters":20000,"station_id":"ce4bgs12rcd13ifvqcag","pricing_plan_id":"cebpf4jnsgd1na2vs0mg"},{"bike_id":"3587670b-a1e3-41d0-b2f6-b30d55643743","system_id":"levelo_inurba_marseille","lat":43.26556,"lon":5.37281,"is_reserved":false,"is_disabled":false,"rental_uris":{"android":"levelo://app?vid=3587670b-a1e3-41d0-b2f6-b30d55643743","ios":"levelo://app?vid=3587670b-a1e3-41d0-b2f6-b30d55643743"},"vehicle_type_id":"4","last_reported":1745756222,"current_range_meters":20000,"station_id":"ce4bhg12rcd13ifvqf70","pricing_plan_id":"cebpf4jnsgd1na2vs0mg"},{"bike_id":"854b6f67-ca9a-45bb-a87f-9accf64bf40e","system_id":"levelo_inurba_marseille","lat":43.27586,"lon":5.38413,"is_reserved":false,"is_disabled":true,"rental_uris":{"android":"levelo://app?vid=854b6f67-ca9a-45bb-a87f-9accf64bf40e","ios":"levelo://app?vid=854b6f67-ca9a-45bb-a87f-9accf64bf40e"},"vehicle_type_id":"4","last_reported":1745756222,"current_range_meters":20400,"station_id":"ce4bhh92rcd13ifvqfi0","pricing_plan_id":"cebpf4jnsgd1na2vs0mg"},{"bike_id":"d5792b96-81ae-4816-accb-680dcd29aa8e","system_id":"levelo_inurba_marseille","lat":43.24677,"lon":5.38157,"is_reserved":false,"is_disabled":true,"rental_uris":{"android":"levelo://app?vid=d5792b96-81ae-4816-accb-680dcd29aa8e","ios":"levelo://app?vid=d5792b96-81ae-4816-accb-680dcd29aa8e"},"vehicle_type_id":"4","last_reported":1745756222,"current_range_meters":20400,"station_id":"ce4bhih2rcd13ifvqfr0","pricing_plan_id":"cebpf4jnsgd1na2vs0mg"},{"bike_id":"9f7bf0ba-fc62-4f43-9537-309d2fd49ef5","system_id":"levelo_inurba_marseille","lat":43.29582,"lon":5.37488,"is_reserved":false,"is_disabled":false,"rental_uris":{"android":"levelo://app?vid=9f7bf0ba-fc62-4f43-9537-309d2fd49ef5","ios":"levelo://app?vid=9f7bf0ba-fc62-4f43-9537-309d2fd49ef5"},"vehicle_type_id":"4","last_reported":1745756222,"current_range_meters":20400,"station_id":"ce4bgh92rcd13ifvqb50","pricing_plan_id":"cebpf4jnsgd1na2vs0mg"},{"bike_id":"b783defb-3f3e-4088-8096-df4271017872","system_id":"levelo_inurba_marseille","lat":43.28273,"lon":5.35069,"is_reserved":false,"is_disabled":false,"rental_uris":{"android":"levelo://app?vid=b783defb-3f3e-4088-8096-df4271017872","ios":"levelo://app?vid=b783defb-3f3e-4088-8096-df4271017872"},"vehicle_type_id":"4","last_reported":1745756222,"current_range_meters":20400,"station_id":"ce4bhbp2rcd13ifvqerg","pricing_plan_id":"cebpf4jnsgd1na2vs0mg"},{"bike_id":"e210dc98-5063-426b-aeea-395aa64bc4aa","system_id":"levelo_inurba_marseille","lat":43.23146,"lon":5.43725,"is_reserved":false,"is_disabled":false,"rental_uris":{"android":"levelo://app?vid=e210dc98-5063-426b-aeea-395aa64bc4aa","ios":"levelo://app?vid=e210dc98-5063-426b-aeea-395aa64bc4aa"},"vehicle_type_id":"4","last_reported":1745756222,"current_range_meters":20800,"station_id":"ce4bhmp2rcd13ifvqgog","pricing_plan_id":"cebpf4jnsgd1na2vs0mg"},{"bike_id":"319c799e-c33c-4f9e-9fca-9f88525730a1","system_id":"levelo_inurba_marseille","lat":43.30598,"lon":5.37223,"is_reserved":false,"is_disabled":false,"rental_uris":{"android":"levelo://app?vid=319c799e-c33c-4f9e-9fca-9f88525730a1","ios":"levelo://app?vid=319c799e-c33c-4f9e-9fca-9f88525730a1"},"vehicle_type_id":"4","last_reported":1745756222,"current_range_meters":20800,"station_id":"ce4bgqh2rcd13ifvqc4g","pricing_plan_id":"cebpf4jnsgd1na2vs0mg"},{"bike_id":"e723cc41-584e-43e2-80d1-d209b39425c5","system_id":"levelo_inurba_marseille","lat":43.29893,"lon":5.43661,"is_reserved":false,"is_disabled":false,"rental_uris":{"android":"levelo://app?vid=e723cc41-584e-43e2-80d1-d209b39425c5","ios":"levelo://app?vid=e723cc41-584e-43e2-80d1-d209b39425c5"},"vehicle_type_id":"4","last_reported":1745756222,"current_range_meters":20400,"station_id":"ce4bhpp2rcd13ifvqhfg","pricing_plan_id":"cebpf4jnsgd1na2vs0mg"},{"bike_id":"47f88e1e-a478-4d1c-bc5d-9d7232f93f8c","system_id":"levelo_inurba_marseille","lat":43.21192,"lon":5.35074,"is_reserved":false,"is_disabled":false,"rental_uris":{"android":"levelo://app?vid=47f88e1e-a478-4d1c-bc5d-9d7232f93f8c","ios":"levelo://app?vid=47f88e1e-a478-4d1c-bc5d-9d7232f93f8c"},"vehicle_type_id":"4","last_reported":1745756222,"current_range_meters":20800,"station_id":"ce4bhah2rcd13ifvqei0","pricing_plan_id":"cebpf4jnsgd1na2vs0mg"},{"bike_id":"2834c648-34ca-4568-a682-581253824914","system_id":"levelo_inurba_marseille","lat":43.26785,"lon":5.3942,"is_reserved":false,"is_disabled":false,"rental_uris":{"android":"levelo://app?vid=2834c648-34ca-4568-a682-581253824914","ios":"levelo://app?vid=2834c648-34ca-4568-a682-581253824914"},"vehicle_type_id":"4","last_reported":1745756222,"current_range_meters":20800,"station_id":"ce4bhh12rcd13ifvqfg0","pricing_plan_id":"cebpf4jnsgd1na2vs0mg"},{"bike_id":"c3342e7b-7192-4814-a84c-44328df0860b","system_id":"levelo_inurba_marseille","lat":43.3054,"lon":5.36701,"is_reserved":false,"is_disabled":false,"rental_uris":{"android":"levelo://app?vid=c3342e7b-7192-4814-a84c-44328df0860b","ios":"levelo://app?vid=c3342e7b-7192-4814-a84c-44328df0860b"},"vehicle_type_id":"4","last_reported":1745756222,"current_range_meters":20800,"station_id":"ce4bgrp2rcd13ifvqc9g","pricing_plan_id":"cebpf4jnsgd1na2vs0mg"},{"bike_id":"d22fc549-1d72-4cfe-81f2-725501b5c4c5","system_id":"levelo_inurba_marseille","lat":43.31672,"lon":5.40434,"is_reserved":false,"is_disabled":false,"rental_uris":{"android":"levelo://app?vid=d22fc549-1d72-4cfe-81f2-725501b5c4c5","ios":"levelo://app?vid=d22fc549-1d72-4cfe-81f2-725501b5c4c5"},"vehicle_type_id":"4","last_reported":1745756222,"current_range_meters":21600,"station_id":"ce4bh012rcd13ifvqd00","pricing_plan_id":"cebpf4jnsgd1na2vs0mg"},{"bike_id":"953568a5-dd5e-41c4-b9b3-693484d79e25","system_id":"levelo_inurba_marseille","lat":43.30183,"lon":5.36618,"is_reserved":false,"is_disabled":false,"rental_uris":{"android":"levelo://app?vid=953568a5-dd5e-41c4-b9b3-693484d79e25","ios":"levelo://app?vid=953568a5-dd5e-41c4-b9b3-693484d79e25"},"vehicle_type_id":"4","last_reported":1745756222,"current_range_meters":20800,"station_id":"ce4bgrh2rcd13ifvqc8g","pricing_plan_id":"cebpf4jnsgd1na2vs0mg"},{"bike_id":"26e2563a-5614-46af-9839-4e09e7d33768","system_id":"levelo_inurba_marseille","lat":43.336116,"lon":5.410148,"is_reserved":false,"is_disabled":false,"rental_uris":{"android":"levelo://app?vid=26e2563a-5614-46af-9839-4e09e7d33768","ios":"levelo://app?vid=26e2563a-5614-46af-9839-4e09e7d33768"},"vehicle_type_id":"4","last_reported":1745756222,"current_range_meters":21600,"station_id":"ce4bhqh2rcd13ifvqhmg","pricing_plan_id":"cebpf4jnsgd1na2vs0mg"},{"bike_id":"2927c78c-0541-4679-8cbb-57ff15cf607c","system_id":"levelo_inurba_marseille","lat":43.32354,"lon":5.40622,"is_reserved":false,"is_disabled":false,"rental_uris":{"android":"levelo://app?vid=2927c78c-0541-4679-8cbb-57ff15cf607c","ios":"levelo://app?vid=2927c78c-0541-4679-8cbb-57ff15cf607c"},"vehicle_type_id":"4","last_reported":1745756222,"current_range_meters":21600,"station_id":"ce4bhq92rcd13ifvqhjg","pricing_plan_id":"cebpf4jnsgd1na2vs0mg"},{"bike_id":"243b3ed3-d1f9-4cee-82b8-a33049fc746a","system_id":"levelo_inurba_marseille","lat":43.3056,"lon":5.36517,"is_reserved":false,"is_disabled":false,"rental_uris":{"android":"levelo://app?vid=243b3ed3-d1f9-4cee-82b8-a33049fc746a","ios":"levelo://app?vid=243b3ed3-d1f9-4cee-82b8-a33049fc746a"},"vehicle_type_id":"4","last_reported":1745756222,"current_range_meters":22000,"station_id":"ce4bgs12rcd13ifvqcag","pricing_plan_id":"cebpf4jnsgd1na2vs0mg"},{"bike_id":"12685d34-97bc-4cec-a6c0-5fdc38281103","system_id":"levelo_inurba_marseille","lat":43.3022,"lon":5.36573,"is_reserved":false,"is_disabled":false,"rental_uris":{"android":"levelo://app?vid=12685d34-97bc-4cec-a6c0-5fdc38281103","ios":"levelo://app?vid=12685d34-97bc-4cec-a6c0-5fdc38281103"},"vehicle_type_id":"4","last_reported":1745756222,"current_range_meters":22000,"station_id":"ce4bgrh2rcd13ifvqc8g","pricing_plan_id":"cebpf4jnsgd1na2vs0mg"},{"bike_id":"608ff1b0-b9e3-4944-8f39-c5b35dc7bd9e","system_id":"levelo_inurba_marseille","lat":43.21751,"lon":5.34605,"is_reserved":false,"is_disabled":false,"rental_uris":{"android":"levelo://app?vid=608ff1b0-b9e3-4944-8f39-c5b35dc7bd9e","ios":"levelo://app?vid=608ff1b0-b9e3-4944-8f39-c5b35dc7bd9e"},"vehicle_type_id":"4","last_reported":1745756222,"current_range_meters":22000,"station_id":"st_cvj6r9ubvosntc0bgbag","pricing_plan_id":"cebpf4jnsgd1na2vs0mg"},{"bike_id":"2420ad39-a5b7-4ea3-b775-69cf92e1a47f","system_id":"levelo_inurba_marseille","lat":43.25941,"lon":5.40891,"is_reserved":false,"is_disabled":false,"rental_uris":{"android":"levelo://app?vid=2420ad39-a5b7-4ea3-b775-69cf92e1a47f","ios":"levelo://app?vid=2420ad39-a5b7-4ea3-b775-69cf92e1a47f"},"vehicle_type_id":"4","last_reported":1745756222,"current_range_meters":22000,"station_id":"ce4bhm92rcd13ifvqglg","pricing_plan_id":"cebpf4jnsgd1na2vs0mg"},{"bike_id":"a92c3b2e-4982-40ce-965a-6cc335e0f91f","system_id":"levelo_inurba_marseille","lat":43.27176,"lon":5.40995,"is_reserved":false,"is_disabled":false,"rental_uris":{"android":"levelo://app?vid=a92c3b2e-4982-40ce-965a-6cc335e0f91f","ios":"levelo://app?vid=a92c3b2e-4982-40ce-965a-6cc335e0f91f"},"vehicle_type_id":"4","last_reported":1745756222,"current_range_meters":22000,"station_id":"ce4bhl12rcd13ifvqgf0","pricing_plan_id":"cebpf4jnsgd1na2vs0mg"},{"bike_id":"6810ee11-7526-4e0e-95e4-4e97095db1b2","system_id":"levelo_inurba_marseille","lat":43.279266,"lon":5.395954,"is_reserved":false,"is_disabled":false,"rental_uris":{"android":"levelo://app?vid=6810ee11-7526-4e0e-95e4-4e97095db1b2","ios":"levelo://app?vid=6810ee11-7526-4e0e-95e4-4e97095db1b2"},"vehicle_type_id":"4","last_reported":1745756222,"current_range_meters":22000,"station_id":"ce4bhf92rcd13ifvqf40","pricing_plan_id":"cebpf4jnsgd1na2vs0mg"},{"bike_id":"9a6aee78-0d81-409f-b6c2-4a7463e9c53f","system_id":"levelo_inurba_marseille","lat":43.25491,"lon":5.37647,"is_reserved":false,"is_disabled":false,"rental_uris":{"android":"levelo://app?vid=9a6aee78-0d81-409f-b6c2-4a7463e9c53f","ios":"levelo://app?vid=9a6aee78-0d81-409f-b6c2-4a7463e9c53f"},"vehicle_type_id":"4","last_reported":1745756222,"current_range_meters":22000,"station_id":"ce4bhh12rcd13ifvqff0","pricing_plan_id":"cebpf4jnsgd1na2vs0mg"},{"bike_id":"8f7294ac-7739-43f3-a086-c2207bac72ef","system_id":"levelo_inurba_marseille","lat":43.24376,"lon":5.37039,"is_reserved":false,"is_disabled":false,"rental_uris":{"android":"levelo://app?vid=8f7294ac-7739-43f3-a086-c2207bac72ef","ios":"levelo://app?vid=8f7294ac-7739-43f3-a086-c2207bac72ef"},"vehicle_type_id":"4","last_reported":1745756222,"current_range_meters":22400,"station_id":"ce4bhhh2rcd13ifvqfk0","pricing_plan_id":"cebpf4jnsgd1na2vs0mg"},{"bike_id":"5b5279c4-e4ef-4116-bd16-593bc28de371","system_id":"levelo_inurba_marseille","lat":43.23608,"lon":5.40354,"is_reserved":false,"is_disabled":false,"rental_uris":{"android":"levelo://app?vid=5b5279c4-e4ef-4116-bd16-593bc28de371","ios":"levelo://app?vid=5b5279c4-e4ef-4116-bd16-593bc28de371"},"vehicle_type_id":"4","last_reported":1745756222,"current_range_meters":22400,"station_id":"","pricing_plan_id":"cebpf4jnsgd1na2vs0mg"},{"bike_id":"1589dba7-8029-4d4a-b1cf-7fa9279ef7ad","system_id":"levelo_inurba_marseille","lat":43.32426,"lon":5.39086,"is_reserved":false,"is_disabled":false,"rental_uris":{"android":"levelo://app?vid=1589dba7-8029-4d4a-b1cf-7fa9279ef7ad","ios":"levelo://app?vid=1589dba7-8029-4d4a-b1cf-7fa9279ef7ad"},"vehicle_type_id":"4","last_reported":1745756222,"current_range_meters":22400,"station_id":"ce4bhqp2rcd13ifvqhog","pricing_plan_id":"cebpf4jnsgd1na2vs0mg"},{"bike_id":"bc9f189c-711d-4725-b2d5-aeade31754a1","system_id":"levelo_inurba_marseille","lat":43.29841,"lon":5.36274,"is_reserved":false,"is_disabled":false,"rental_uris":{"android":"levelo://app?vid=bc9f189c-711d-4725-b2d5-aeade31754a1","ios":"levelo://app?vid=bc9f189c-711d-4725-b2d5-aeade31754a1"},"vehicle_type_id":"4","last_reported":1745756222,"current_range_meters":22400,"station_id":"ce4bgpp2rcd13ifvqc3g","pricing_plan_id":"cebpf4jnsgd1na2vs0mg"},{"bike_id":"e2db68dd-f47f-4e15-8fe0-c97738bddb69","system_id":"levelo_inurba_marseille","lat":43.29273,"lon":5.36838,"is_reserved":false,"is_disabled":true,"rental_uris":{"android":"levelo://app?vid=e2db68dd-f47f-4e15-8fe0-c97738bddb69","ios":"levelo://app?vid=e2db68dd-f47f-4e15-8fe0-c97738bddb69"},"vehicle_type_id":"4","last_reported":1745756222,"current_range_meters":22400,"station_id":"ce4bhbp2rcd13ifvqesg","pricing_plan_id":"cebpf4jnsgd1na2vs0mg"},{"bike_id":"579b9d02-e6b0-4faa-8aa6-d259af964e22","system_id":"levelo_inurba_marseille","lat":43.23959,"lon":5.36634,"is_reserved":false,"is_disabled":false,"rental_uris":{"android":"levelo://app?vid=579b9d02-e6b0-4faa-8aa6-d259af964e22","ios":"levelo://app?vid=579b9d02-e6b0-4faa-8aa6-d259af964e22"},"vehicle_type_id":"4","last_reported":1745756222,"current_range_meters":22800,"station_id":"ce4bhi12rcd13ifvqfp0","pricing_plan_id":"cebpf4jnsgd1na2vs0mg"},{"bike_id":"922be588-a2c7-4045-9260-d3ce0bd40f03","system_id":"levelo_inurba_marseille","lat":43.30528,"lon":5.36706,"is_reserved":false,"is_disabled":false,"rental_uris":{"android":"levelo://app?vid=922be588-a2c7-4045-9260-d3ce0bd40f03","ios":"levelo://app?vid=922be588-a2c7-4045-9260-d3ce0bd40f03"},"vehicle_type_id":"4","last_reported":1745756222,"current_range_meters":22800,"station_id":"ce4bgrp2rcd13ifvqc9g","pricing_plan_id":"cebpf4jnsgd1na2vs0mg"},{"bike_id":"03095dde-d602-45e8-a874-d59b4023c102","system_id":"levelo_inurba_marseille","lat":43.26952,"lon":5.40267,"is_reserved":false,"is_disabled":false,"rental_uris":{"android":"levelo://app?vid=03095dde-d602-45e8-a874-d59b4023c102","ios":"levelo://app?vid=03095dde-d602-45e8-a874-d59b4023c102"},