{"last_updated":1702397337,"ttl":30,"version":"2.2","data":{"bikes":[{"bike_id":"13526fbf-d80d-4acb-8827-06cc127ae565","system_id":"levelo_inurba_marseille","lat":43.3091,"lon":5.36844,"is_reserved":false,"is_disabled":false,"rental_uris":{"android":"levelo://app?vid=13526fbf-d80d-4acb-8827-06cc127ae565","ios":"levelo://app?vid=13526fbf-d80d-4acb-8827-06cc127ae565"},"vehicle_type_id":"4","last_reported":1702397337,"current_range_meters":11600,"station_id":"ce4bgn92rcd13ifvqbvg","pricing_plan_id":"free"},{"bike_id":"35f5de17-87f7-4daa-8068-71fc7a9bf6d1","system_id":"levelo_inurba_marseille","lat":43.309039,"lon":5.371797,"is_reserved":false,"is_disabled":false,"rental_uris":{"android":"levelo://app?vid=35f5de17-87f7-4daa-8068-71fc7a9bf6d1","ios":"levelo://app?vid=35f5de17-87f7-4daa-8068-71fc7a9bf6d1"},"vehicle_type_id":"4","last_reported":1702397337,"current_range_meters":26800,"station_id":"ce4bguh2rcd13ifvqckg","pricing_plan_id":"free"},{"bike_id":"1fb439f3-4deb-415a-934d-2de247213ae4","system_id":"levelo_inurba_marseille","lat":43.30553,"lon":5.36707,"is_reserved":false,"is_disabled":false,"rental_uris":{"android":"levelo://app?vid=1fb439f3-4deb-415a-934d-2de247213ae4","ios":"levelo://app?vid=1fb439f3-4deb-415a-934d-2de247213ae4"},"vehicle_type_id":"4","last_reported":1702397337,"current_range_meters":0,"station_id":"ce4bgrp2rcd13ifvqc9g","pricing_plan_id":"free"},{"bike_id":"573c5572-4ce4-4d5e-8504-e27ac1c6400a","system_id":"levelo_inurba_marseille","lat":43.305706,"lon":5.365654,"is_reserved":false,"is_disabled":false,"rental_uris":{"android":"levelo://app?vid=573c5572-4ce4-4d5e-8504-e27ac1c6400a","ios":"levelo://app?vid=573c5572-4ce4-4d5e-8504-e27ac1c6400a"},"vehicle_type_id":"4","last_reported":1702397337,"current_range_meters":20400,"station_id":"ce4bgs12rcd13ifvqcag","pricing_plan_id":"free"},{"bike_id":"955e4ab2-16e5-44e8-a986-a2f50ff96c06","system_id":"levelo_inurba_marseille","lat":43.305382,"lon":5.365389,"is_reserved":false,"is_disabled":false,"rental_uris":{"android":"levelo://app?vid=955e4ab2-16e5-44e8-a986-a2f50ff96c06","ios":"levelo://app?vid=955e4ab2-16e5-44e8-a986-a2f50ff96c06"},"vehicle_type_id":"4","last_reported":1702397337,"current_range_meters":30400,"station_id":"","pricing_plan_id":"free"},{"bike_id":"92ad067f-f029-46f9-bf56-de782c48eb36","system_id":"levelo_inurba_marseille","lat":43.311163,"lon":5.377607,"is_reserved":false,"is_disabled":false,"rental_uris":{"android":"levelo://app?vid=92ad067f-f029-46f9-bf56-de782c48eb36","ios":"levelo://app?vid=92ad067f-f029-46f9-bf56-de782c48eb36"},"vehicle_type_id":"4","last_reported":1702397337,"current_range_meters":31200,"station_id":"ce4bgt92rcd13ifvqcg0","pricing_plan_id":"free"},{"bike_id":"1c18741c-f66b-4a35-aa29-ee80a6ef2114","system_id":"levelo_inurba_marseille","lat":43.311131,"lon":5.377651,"is_reserved":false,"is_disabled":false,"rental_uris":{"android":"levelo://app?vid=1c18741c-f66b-4a35-aa29-ee80a6ef2114","ios":"levelo://app?vid=1c18741c-f66b-4a35-aa29-ee80a6ef2114"},"vehicle_type_id":"4","last_reported":1702397337,"current_range_meters":26800,"station_id":"ce4bgt92rcd13ifvqcg0","pricing_plan_id":"free"},{"bike_id":"80d7b061-2108-4e15-87dd-bbe1484375d8","system_id":"levelo_inurba_marseille","lat":43.31123,"lon":5.37775,"is_reserved":false,"is_disabled":false,"rental_uris":{"android":"levelo://app?vid=80d7b061-2108-4e15-87dd-bbe1484375d8","ios":"levelo://app?vid=80d7b061-2108-4e15-87dd-bbe1484375d8"},"vehicle_type_id":"4","last_reported":1702397337,"current_range_meters":30000,"station_id":"ce4bgt92rcd13ifvqcg0","pricing_plan_id":"free"},{"bike_id":"dc68debd-6203-4696-b9a5-55eea857c5a0","system_id":"levelo_inurba_marseille","lat":43.317119,"lon":5.377555,"is_reserved":false,"is_disabled":false,"rental_uris":{"android":"levelo://app?vid=dc68debd-6203-4696-b9a5-55eea857c5a0","ios":"levelo://app?vid=dc68debd-6203-4696-b9a5-55eea857c5a0"},"vehicle_type_id":"4","last_reported":1702397337,"current_range_meters":27600,"station_id":"ce4bgth2rcd13ifvqch0","pricing_plan_id":"free"},{"bike_id":"07b8c697-0531-4e84-9f67-850109596542","system_id":"levelo_inurba_marseille","lat":43.30142,"lon":5.37419,"is_reserved":false,"is_disabled":false,"rental_uris":{"android":"levelo://app?vid=07b8c697-0531-4e84-9f67-850109596542","ios":"levelo://app?vid=07b8c697-0531-4e84-9f67-850109596542"},"vehicle_type_id":"4","last_reported":1702397337,"current_range_meters":7200,"station_id":"ce4bgs92rcd13ifvqcc0","pricing_plan_id":"free"},{"bike_id":"e6951074-862f-4e8c-a858-dd151de6a7f7","system_id":"levelo_inurba_marseille","lat":43.301429,"lon":5.37413,"is_reserved":false,"is_disabled":false,"rental_uris":{"android":"levelo://app?vid=e6951074-862f-4e8c-a858-dd151de6a7f7","ios":"levelo://app?vid=e6951074-862f-4e8c-a858-dd151de6a7f7"},"vehicle_type_id":"4","last_reported":1702397337,"current_range_meters":0,"station_id":"ce4bgs92rcd13ifvqcc0","pricing_plan_id":"free"},{"bike_id":"c1a4be60-e091-4700-8e49-e1d9f716fa9a","system_id":"levelo_inurba_marseille","lat":43.302784,"lon":5.377158,"is_reserved":false,"is_disabled":false,"rental_uris":{"android":"levelo://app?vid=c1a4be60-e091-4700-8e49-e1d9f716fa9a","ios":"levelo://app?vid=c1a4be60-e091-4700-8e49-e1d9f716fa9a"},"vehicle_type_id":"4","last_reported":1702397337,"current_range_meters":16000,"station_id":"ce4bguh2rcd13ifvqcj0","pricing_plan_id":"free"},{"bike_id":"a21da4ba-833c-45e4-b4b5-605a79493856","system_id":"levelo_inurba_marseille","lat":43.313571,"lon":5.384829,"is_reserved":false,"is_disabled":false,"rental_uris":{"android":"levelo://app?vid=a21da4ba-833c-45e4-b4b5-605a79493856","ios":"levelo://app?vid=a21da4ba-833c-45e4-b4b5-605a79493856"},"vehicle_type_id":"4","last_reported":1702397337,"current_range_meters":23600,"station_id":"ce4bgt92rcd13ifvqcf0","pricing_plan_id":"free"},{"bike_id":"919b7e18-982a-4b23-a114-34e21d531551","system_id":"levelo_inurba_marseille","lat":43.313571,"lon":5.384829,"is_reserved":false,"is_disabled":false,"rental_uris":{"android":"levelo://app?vid=919b7e18-982a-4b23-a114-34e21d531551","ios":"levelo://app?vid=919b7e18-982a-4b23-a114-34e21d531551"},"vehicle_type_id":"4","last_reported":1702397337,"current_range_meters":1200,"station_id":"ce4bgt92rcd13ifvqcf0","pricing_plan_id":"free"},{"bike_id":"38d6b81f-c3fe-4525-bce1-d553210df287","system_id":"levelo_inurba_marseille","lat":43.29925,"lon":5.36546,"is_reserved":false,"is_disabled":false,"rental_uris":{"android":"levelo://app?vid=38d6b81f-c3fe-4525-bce1-d553210df287","ios":"levelo://app?vid=38d6b81f-c3fe-4525-bce1-d553210df287"},"vehicle_type_id":"4","last_reported":1702397337,"current_range_meters":0,"station_id":"ce4bgm92rcd13ifvqbr0","pricing_plan_id":"free"},{"bike_id":"f25a76c8-3a51-4c35-9c8b-e87b8bbbc6d1","system_id":"levelo_inurba_marseille","lat":43.299243,"lon":5.374807,"is_reserved":false,"is_disabled":false,"rental_uris":{"android":"levelo://app?vid=f25a76c8-3a51-4c35-9c8b-e87b8bbbc6d1","ios":"levelo://app?vid=f25a76c8-3a51-4c35-9c8b-e87b8bbbc6d1"},"vehicle_type_id":"4","last_reported":1702397337,"current_range_meters":14000,"station_id":"ce4bgjh2rcd13ifvqbg0","pricing_plan_id":"free"},{"bike_id":"31c3344a-829c-4e99-a84e-6503f637d7b3","system_id":"levelo_inurba_marseille","lat":43.305364,"lon":5.384119,"is_reserved":false,"is_disabled":false,"rental_uris":{"android":"levelo://app?vid=31c3344a-829c-4e99-a84e-6503f637d7b3","ios":"levelo://app?vid=31c3344a-829c-4e99-a84e-6503f637d7b3"},"vehicle_type_id":"4","last_reported":1702397337,"current_range_meters":0,"station_id":"ce4bgg92rcd13ifvqb30","pricing_plan_id":"free"},{"bike_id":"77a6c46d-d898-4e4f-8846-efa91689c7f0","system_id":"levelo_inurba_marseille","lat":43.302006,"lon":5.38065,"is_reserved":false,"is_disabled":false,"rental_uris":{"android":"levelo://app?vid=77a6c46d-d898-4e4f-8846-efa91689c7f0","ios":"levelo://app?vid=77a6c46d-d898-4e4f-8846-efa91689c7f0"},"vehicle_type_id":"4","last_reported":1702397337,"current_range_meters":0,"station_id":"","pricing_plan_id":"free"},{"bike_id":"557b1d9f-7bd5-461b-bc42-58fd4342f677","system_id":"levelo_inurba_marseille","lat":43.311722,"lon":5.387247,"is_reserved":false,"is_disabled":false,"rental_uris":{"android":"levelo://app?vid=557b1d9f-7bd5-461b-bc42-58fd4342f677","ios":"levelo://app?vid=557b1d9f-7bd5-461b-bc42-58fd4342f677"},"vehicle_type_id":"4","last_reported":1702397337,"current_range_meters":18000,"station_id":"ce4bgv12rcd13ifvqcp0","pricing_plan_id":"free"},{"bike_id":"3f99d7ad-f5aa-415e-a0ff-035fab9f22dc","system_id":"levelo_inurba_marseille","lat":43.311722,"lon":5.387247,"is_reserved":false,"is_disabled":false,"rental_uris":{"android":"levelo://app?vid=3f99d7ad-f5aa-415e-a0ff-035fab9f22dc","ios":"levelo://app?vid=3f99d7ad-f5aa-415e-a0ff-035fab9f22dc"},"vehicle_type_id":"4","last_reported":1702397337,"current_range_meters":22800,"station_id":"ce4bgv12rcd13ifvqcp0","pricing_plan_id":"free"},{"bike_id":"fcc3a406-8219-4d19-a1b2-f9d5a2feeb13","system_id":"levelo_inurba_marseille","lat":43.322872,"lon":5.382756,"is_reserved":false,"is_disabled":false,"rental_uris":{"android":"levelo://app?vid=fcc3a406-8219-4d19-a1b2-f9d5a2feeb13","ios":"levelo://app?vid=fcc3a406-8219-4d19-a1b2-f9d5a2feeb13"},"vehicle_type_id":"4","last_reported":1702397337,"current_range_meters":25200,"station_id":"ce4bhr12rcd13ifvqhqg","pricing_plan_id":"free"},{"bike_id":"ef62d099-880c-48b4-a857-30e56a94bd16","system_id":"levelo_inurba_marseille","lat":43.32289,"lon":5.38277,"is_reserved":false,"is_disabled":false,"rental_uris":{"android":"levelo://app?vid=ef62d099-880c-48b4-a857-30e56a94bd16","ios":"levelo://app?vid=ef62d099-880c-48b4-a857-30e56a94bd16"},"vehicle_type_id":"4","last_reported":1702397337,"current_range_meters":8000,"station_id":"ce4bhr12rcd13ifvqhqg","pricing_plan_id":"free"},{"bike_id":"ced224ba-9672-4c17-a47f-ca8e0029d8cc","system_id":"levelo_inurba_marseille","lat":43.297163,"lon":5.365866,"is_reserved":false,"is_disabled":false,"rental_uris":{"android":"levelo://app?vid=ced224ba-9672-4c17-a47f-ca8e0029d8cc","ios":"levelo://app?vid=ced224ba-9672-4c17-a47f-ca8e0029d8cc"},"vehicle_type_id":"4","last_reported":1702397337,"current_range_meters":30000,"station_id":"ce4bgn12rcd13ifvqbt0","pricing_plan_id":"free"},{"bike_id":"7a878ee5-6910-45dd-b3bd-722059d35da7","system_id":"levelo_inurba_marseille","lat":43.29787,"lon":5.37679,"is_reserved":false,"is_disabled":false,"rental_uris":{"android":"levelo://app?vid=7a878ee5-6910-45dd-b3bd-722059d35da7","ios":"levelo://app?vid=7a878ee5-6910-45dd-b3bd-722059d35da7"},"vehicle_type_id":"4","last_reported":1702397337,"current_range_meters":12400,"station_id":"","pricing_plan_id":"free"},{"bike_id":"c4ea617f-bb09-4c41-bdfc-9c0ab3276293","system_id":"levelo_inurba_marseille","lat":43.2968,"lon":5.37291,"is_reserved":false,"is_disabled":false,"rental_uris":{"android":"levelo://app?vid=c4ea617f-bb09-4c41-bdfc-9c0ab3276293","ios":"levelo://app?vid=c4ea617f-bb09-4c41-bdfc-9c0ab3276293"},"vehicle_type_id":"4","last_reported":1702397337,"current_range_meters":20800,"station_id":"ce4bgk12rcd13ifvqbj0","pricing_plan_id":"free"},{"bike_id":"32ef27e0-00e1-4632-92d6-d5f07100b7c1","system_id":"levelo_inurba_marseille","lat":43.296131,"lon":5.370791,"is_reserved":false,"is_disabled":false,"rental_uris":{"android":"levelo://app?vid=32ef27e0-00e1-4632-92d6-d5f07100b7c1","ios":"levelo://app?vid=32ef27e0-00e1-4632-92d6-d5f07100b7c1"},"vehicle_type_id":"4","last_reported":1702397337,"current_range_meters":21200,"station_id":"ce4bgnh2rcd13ifvqc0g","pricing_plan_id":"free"},{"bike_id":"3bab58b0-4c3a-4cd5-bdd0-87200be648d5","system_id":"levelo_inurba_marseille","lat":43.296129,"lon":5.370777,"is_reserved":false,"is_disabled":false,"rental_uris":{"android":"levelo://app?vid=3bab58b0-4c3a-4cd5-bdd0-87200be648d5","ios":"levelo://app?vid=3bab58b0-4c3a-4cd5-bdd0-87200be648d5"},"vehicle_type_id":"4","last_reported":1702397337,"current_range_meters":6000,"station_id":"ce4bgnh2rcd13ifvqc0g","pricing_plan_id":"free"},{"bike_id":"3622a31a-57b3-40d3-9730-a0a78f34b14f","system_id":"levelo_inurba_marseille","lat":43.296935,"lon":5.376544,"is_reserved":false,"is_disabled":false,"rental_uris":{"android":"levelo://app?vid=3622a31a-57b3-40d3-9730-a0a78f34b14f","ios":"levelo://app?vid=3622a31a-57b3-40d3-9730-a0a78f34b14f"},"vehicle_type_id":"4","last_reported":1702397337,"current_range_meters":25200,"station_id":"ce4bgkh2rcd13ifvqbl0","pricing_plan_id":"free"},{"bike_id":"06a77706-fecb-40e6-a324-611c1c5c0d30","system_id":"levelo_inurba_marseille","lat":43.317557,"lon":5.390173,"is_reserved":false,"is_disabled":false,"rental_uris":{"android":"levelo://app?vid=06a77706-fecb-40e6-a324-611c1c5c0d30","ios":"levelo://app?vid=06a77706-fecb-40e6-a324-611c1c5c0d30"},"vehicle_type_id":"4","last_reported":1702397337,"current_range_meters":16000,"station_id":"ce4bhqp2rcd13ifvqhng","pricing_plan_id":"free"},{"bike_id":"dd98db7d-13ac-431a-9d62-450a34114bcb","system_id":"levelo_inurba_marseille","lat":43.317557,"lon":5.390173,"is_reserved":false,"is_disabled":false,"rental_uris":{"android":"levelo://app?vid=dd98db7d-13ac-431a-9d62-450a34114bcb","ios":"levelo://app?vid=dd98db7d-13ac-431a-9d62-450a34114bcb"},"vehicle_type_id":"4","last_reported":1702397337,"current_range_meters":21200,"station_id":"ce4bhqp2rcd13ifvqhng","pricing_plan_id":"free"},{"bike_id":"9b68a9be-e321-4723-97e3-a9d9a955f3c3","system_id":"levelo_inurba_marseille","lat":43.298037,"lon":5.381066,"is_reserved":false,"is_disabled":false,"rental_uris":{"android":"levelo://app?vid=9b68a9be-e321-4723-97e3-a9d9a955f3c3","ios":"levelo://app?vid=9b68a9be-e321-4723-97e3-a9d9a955f3c3"},"vehicle_type_id":"4","last_reported":1702397337,"current_range_meters":28800,"station_id":"ce4bgip2rcd13ifvqbb0","pricing_plan_id":"free"},{"bike_id":"0403016d-0088-4b3e-b7bc-0ff80950e29d","system_id":"levelo_inurba_marseille","lat":43.295748,"lon":5.37522,"is_reserved":false,"is_disabled":false,"rental_uris":{"android":"levelo://app?vid=0403016d-0088-4b3e-b7bc-0ff80950e29d","ios":"levelo://app?vid=0403016d-0088-4b3e-b7bc-0ff80950e29d"},"vehicle_type_id":"4","last_reported":1702397337,"current_range_meters":29200,"station_id":"ce4bgh92rcd13ifvqb50","pricing_plan_id":"free"},{"bike_id":"bf0fb080-d3b8-4648-ab21-858b22b81d91","system_id":"levelo_inurba_marseille","lat":43.296185,"lon":5.37723,"is_reserved":false,"is_disabled":false,"rental_uris":{"android":"levelo://app?vid=bf0fb080-d3b8-4648-ab21-858b22b81d91","ios":"levelo://app?vid=bf0fb080-d3b8-4648-ab21-858b22b81d91"},"vehicle_type_id":"4","last_reported":1702397337,"current_range_meters":2800,"station_id":"ce4bgi92rcd13ifvqb90","pricing_plan_id":"free"},{"bike_id":"8e406837-e4ca-4e42-9572-8d3b42955a5e","system_id":"levelo_inurba_marseille","lat":43.29973,"lon":5.38483,"is_reserved":false,"is_disabled":false,"rental_uris":{"android":"levelo://app?vid=8e406837-e4ca-4e42-9572-8d3b42955a5e","ios":"levelo://app?vid=8e406837-e4ca-4e42-9572-8d3b42955a5e"},"vehicle_type_id":"4","last_reported":1702397337,"current_range_meters":0,"station_id":"ce4bgj92rcd13ifvqbd0","pricing_plan_id":"free"},{"bike_id":"03881d87-908a-4a9b-a628-1e46507856b0","system_id":"levelo_inurba_marseille","lat":43.299707,"lon":5.384859,"is_reserved":false,"is_disabled":false,"rental_uris":{"android":"levelo://app?vid=03881d87-908a-4a9b-a628-1e46507856b0","ios":"levelo://app?vid=03881d87-908a-4a9b-a628-1e46507856b0"},"vehicle_type_id":"4","last_reported":1702397337,"current_range_meters":15200,"station_id":"ce4bgj92rcd13ifvqbd0","pricing_plan_id":"free"},{"bike_id":"c39d57c0-91e5-4eac-86c0-66bf2d821b1a","system_id":"levelo_inurba_marseille","lat":43.323637,"lon":5.388793,"is_reserved":false,"is_disabled":false,"rental_uris":{"android":"levelo://app?vid=c39d57c0-91e5-4eac-86c0-66bf2d821b1a","ios":"levelo://app?vid=c39d57c0-91e5-4eac-86c0-66bf2d821b1a"},"vehicle_type_id":"4","last_reported":1702397337,"current_range_meters":21600,"station_id":"ce4bhqp2rcd13ifvqhog","pricing_plan_id":"free"},{"bike_id":"0f473322-53f4-45ab-b775-5832782c92b6","system_id":"levelo_inurba_marseille","lat":43.32365,"lon":5.38883,"is_reserved":false,"is_disabled":false,"rental_uris":{"android":"levelo://app?vid=0f473322-53f4-45ab-b775-5832782c92b6","ios":"levelo://app?vid=0f473322-53f4-45ab-b775-5832782c92b6"},"vehicle_type_id":"4","last_reported":1702397337,"current_range_meters":0,"station_id":"ce4bhqp2rcd13ifvqhog","pricing_plan_id":"free"},{"bike_id":"c08f8722-80df-4684-81d4-ec7797af0f85","system_id":"levelo_inurba_marseille","lat":43.32368,"lon":5.38883,"is_reserved":false,"is_disabled":false,"rental_uris":{"android":"levelo://app?vid=c08f8722-80df-4684-81d4-ec7797af0f85","ios":"levelo://app?vid=c08f8722-80df-4684-81d4-ec7797af0f85"},"vehicle_type_id":"4","last_reported":1702397337,"current_range_meters":26000,"station_id":"ce4bhqp2rcd13ifvqhog","pricing_plan_id":"free"},{"bike_id":"15f0494e-918f-478e-8992-4fa335baebf8","system_id":"levelo_inurba_marseille","lat":43.29602,"lon":5.381084,"is_reserved":false,"is_disabled":false,"rental_uris":{"android":"levelo://app?vid=15f0494e-918f-478e-8992-4fa335baebf8","ios":"levelo://app?vid=15f0494e-918f-478e-8992-4fa335baebf8"},"vehicle_type_id":"4","last_reported":1702397337,"current_range_meters":30400,"station_id":"ce4bgl12rcd13ifvqbo0","pricing_plan_id":"free"},{"bike_id":"69c0b762-96ba-4056-82fe-1116253882c3","system_id":"levelo_inurba_marseille","lat":43.300852,"lon":5.390859,"is_reserved":false,"is_disabled":false,"rental_uris":{"android":"levelo://app?vid=69c0b762-96ba-4056-82fe-1116253882c3","ios":"levelo://app?vid=69c0b762-96ba-4056-82fe-1116253882c3"},"vehicle_type_id":"4","last_reported":1702397337,"current_range_meters":21200,"station_id":"ce4bh192rcd13ifvqdb0","pricing_plan_id":"free"},{"bike_id":"e34ce67c-78a2-4388-aa2a-592bdd960676","system_id":"levelo_inurba_marseille","lat":43.30085,"lon":5.390856,"is_reserved":false,"is_disabled":false,"rental_uris":{"android":"levelo://app?vid=e34ce67c-78a2-4388-aa2a-592bdd960676","ios":"levelo://app?vid=e34ce67c-78a2-4388-aa2a-592bdd960676"},"vehicle_type_id":"4","last_reported":1702397337,"current_range_meters":26800,"station_id":"ce4bh192rcd13ifvqdb0","pricing_plan_id":"free"},{"bike_id":"25efe620-7fb6-4466-bfc0-7b293c7d8aec","system_id":"levelo_inurba_marseille","lat":43.29888,"lon":5.38915,"is_reserved":false,"is_disabled":false,"rental_uris":{"android":"levelo://app?vid=25efe620-7fb6-4466-bfc0-7b293c7d8aec","ios":"levelo://app?vid=25efe620-7fb6-4466-bfc0-7b293c7d8aec"},"vehicle_type_id":"4","last_reported":1702397337,"current_range_meters":20000,"station_id":"","pricing_plan_id":"free"},{"bike_id":"5130a15d-4268-409f-a0ef-4a647cfa4871","system_id":"levelo_inurba_marseille","lat":43.29876,"lon":5.3891,"is_reserved":false,"is_disabled":false,"rental_uris":{"android":"levelo://app?vid=5130a15d-4268-409f-a0ef-4a647cfa4871","ios":"levelo://app?vid=5130a15d-4268-409f-a0ef-4a647cfa4871"},"vehicle_type_id":"4","last_reported":1702397337,"current_range_meters":0,"station_id":"","pricing_plan_id":"free"},{"bike_id":"b7f810eb-1785-4324-9372-3b8a2dc0ae72","system_id":"levelo_inurba_marseille","lat":43.29869,"lon":5.38906,"is_reserved":false,"is_disabled":false,"rental_uris":{"android":"levelo://app?vid=b7f810eb-1785-4324-9372-3b8a2dc0ae72","ios":"levelo://app?vid=b7f810eb-1785-4324-9372-3b8a2dc0ae72"},"vehicle_type_id":"4","last_reported":1702397337,"current_range_meters":6000,"station_id":"","pricing_plan_id":"free"},{"bike_id":"b7f5a4d8-0f21-4207-9d2a-eb91e48b2f7c","system_id":"levelo_inurba_marseille","lat":43.313291,"lon":5.396838,"is_reserved":false,"is_disabled":false,"rental_uris":{"android":"levelo://app?vid=b7f5a4d8-0f21-4207-9d2a-eb91e48b2f7c","ios":"levelo://app?vid=b7f5a4d8-0f21-4207-9d2a-eb91e48b2f7c"},"vehicle_type_id":"4","last_reported":1702397337,"current_range_meters":12000,"station_id":"ce4bgvp2rcd13ifvqcu0","pricing_plan_id":"free"},{"bike_id":"72e39de3-168b-4762-9669-c2835a28e70f","system_id":"levelo_inurba_marseille","lat":43.309038,"lon":5.396546,"is_reserved":false,"is_disabled":false,"rental_uris":{"android":"levelo://app?vid=72e39de3-168b-4762-9669-c2835a28e70f","ios":"levelo://app?vid=72e39de3-168b-4762-9669-c2835a28e70f"},"vehicle_type_id":"4","last_reported":1702397337,"current_range_meters":8800,"station_id":"ce4bh012rcd13ifvqcv0","pricing_plan_id":"free"},{"bike_id":"c5331a69-25cc-4084-aebc-8336ee9a035a","system_id":"levelo_inurba_marseille","lat":43.290779,"lon":5.371482,"is_reserved":false,"is_disabled":false,"rental_uris":{"android":"levelo://app?vid=c5331a69-25cc-4084-aebc-8336ee9a035a","ios":"levelo://app?vid=c5331a69-25cc-4084-aebc-8336ee9a035a"},"vehicle_type_id":"4","last_reported":1702397337,"current_range_meters":2000,"station_id":"ce4bh5p2rcd13ifvqe4g","pricing_plan_id":"free"},{"bike_id":"6258c8cb-6995-40d0-a8e0-4e96858d273c","system_id":"levelo_inurba_marseille","lat":43.29507,"lon":5.385615,"is_reserved":false,"is_disabled":false,"rental_uris":{"android":"levelo://app?vid=6258c8cb-6995-40d0-a8e0-4e96858d273c","ios":"levelo://app?vid=6258c8cb-6995-40d0-a8e0-4e96858d273c"},"vehicle_type_id":"4","last_reported":1702397337,"current_range_meters":21200,"station_id":"ce4bh9p2rcd13ifvqec0","pricing_plan_id":"free"},{"bike_id":"da05349e-374d-4e08-95e2-8767792cec6c","system_id":"levelo_inurba_marseille","lat":43.290631,"lon":5.359244,"is_reserved":false,"is_disabled":false,"rental_uris":{"android":"levelo://app?vid=da05349e-374d-4e08-95e2-8767792cec6c","ios":"levelo://app?vid=da05349e-374d-4e08-95e2-8767792cec6c"},"vehicle_type_id":"4","last_reported":1702397337,"current_range_meters":22400,"station_id":"ce4bha92rcd13ifvqeg0","pricing_plan_id":"free"},{"bike_id":"9c8bb44c-1559-40eb-86cf-3ec00d6d1747","system_id":"levelo_inurba_marseille","lat":43.2927,"lon":5.38305,"is_reserved":false,"is_disabled":false,"rental_uris":{"android":"levelo://app?vid=9c8bb44c-1559-40eb-86cf-3ec00d6d1747","ios":"levelo://app?vid=9c8bb44c-1559-40eb-86cf-3ec00d6d1747"},"vehicle_type_id":"4","last_reported":1702397337,"current_range_meters":0,"station_id":"","pricing_plan_id":"free"},{"bike_id":"74cd969f-17d8-442e-9242-f3edc2f89a0d","system_id":"levelo_inurba_marseille","lat":43.292644,"lon":5.384257,"is_reserved":false,"is_disabled":false,"rental_uris":{"android":"levelo://app?vid=74cd969f-17d8-442e-9242-f3edc2f89a0d","ios":"levelo://app?vid=74cd969f-17d8-442e-9242-f3edc2f89a0d"},"vehicle_type_id":"4","last_reported":1702397337,"current_range_meters":26800,"station_id":"ce4bh692rcd13ifvqea0","pricing_plan_id":"free"},{"bike_id":"62e94a04-2220-4204-a03b-cf7d6d909360","system_id":"levelo_inurba_marseille","lat":43.330442,"lon":5.389148,"is_reserved":false,"is_disabled":false,"rental_uris":{"android":"levelo://app?vid=62e94a04-2220-4204-a03b-cf7d6d909360","ios":"levelo://app?vid=62e94a04-2220-4204-a03b-cf7d6d909360"},"vehicle_type_id":"4","last_reported":1702397337,"current_range_meters":31200,"station_id":"ce4bhr92rcd13ifvqhrg","pricing_plan_id":"free"},{"bike_id":"90212e5a-f930-4ba5-ad39-37ea8f52571a","system_id":"levelo_inurba_marseille","lat":43.33041,"lon":5.38918,"is_reserved":false,"is_disabled":false,"rental_uris":{"android":"levelo://app?vid=90212e5a-f930-4ba5-ad39-37ea8f52571a","ios":"levelo://app?vid=90212e5a-f930-4ba5-ad39-37ea8f52571a"},"vehicle_type_id":"4","last_reported":1702397337,"current_range_meters":26000,"station_id":"ce4bhr92rcd13ifvqhrg","pricing_plan_id":"free"},{"bike_id":"b759538c-75fc-4ccb-9b73-2031bf78f0fa","system_id":"levelo_inurba_marseille","lat":43.330442,"lon":5.389148,"is_reserved":false,"is_disabled":false,"rental_uris":{"android":"levelo://app?vid=b759538c-75fc-4ccb-9b73-2031bf78f0fa","ios":"levelo://app?vid=b759538c-75fc-4ccb-9b73-2031bf78f0fa"},"vehicle_type_id":"4","last_reported":1702397337,"current_range_meters":18000,"station_id":"ce4bhr92rcd13ifvqhrg","pricing_plan_id":"free"},{"bike_id":"96e3a878-cd2e-4c4d-96c4-b0a6c7b69696","system_id":"levelo_inurba_marseille","lat":43.290103,"lon":5.356114,"is_reserved":false,"is_disabled":false,"rental_uris":{"android":"levelo://app?vid=96e3a878-cd2e-4c4d-96c4-b0a6c7b69696","ios":"levelo://app?vid=96e3a878-cd2e-4c4d-96c4-b0a6c7b69696"},"vehicle_type_id":"4","last_reported":1702397337,"current_range_meters":21200,"station_id":"ce4bhb92rcd13ifvqen0","pricing_plan_id":"free"},{"bike_id":"10c920a2-314e-4d0e-b7a1-15b53321a90c","system_id":"levelo_inurba_marseille","lat":43.290995,"lon":5.381361,"is_reserved":false,"is_disabled":false,"rental_uris":{"android":"levelo://app?vid=10c920a2-314e-4d0e-b7a1-15b53321a90c","ios":"levelo://app?vid=10c920a2-314e-4d0e-b7a1-15b53321a90c"},"vehicle_type_id":"4","last_reported":1702397337,"current_range_meters":21200,"station_id":"ce4bh512rcd13ifvqe2g","pricing_plan_id":"free"},{"bike_id":"293a60b6-f0bb-499f-8b52-702038a789fa","system_id":"levelo_inurba_marseille","lat":43.290995,"lon":5.381361,"is_reserved":false,"is_disabled":false,"rental_uris":{"android":"levelo://app?vid=293a60b6-f0bb-499f-8b52-702038a789fa","ios":"levelo://app?vid=293a60b6-f0bb-499f-8b52-702038a789fa"},"vehicle_type_id":"4","last_reported":1702397337,"current_range_meters":20400,"station_id":"ce4bh512rcd13ifvqe2g","pricing_plan_id":"free"},{"bike_id":"e1db156b-8430-4ef2-8963-d22b81552631","system_id":"levelo_inurba_marseille","lat":43.290094,"lon":5.381264,"is_reserved":false,"is_disabled":false,"rental_uris":{"android":"levelo://app?vid=e1db156b-8430-4ef2-8963-d22b81552631","ios":"levelo://app?vid=e1db156b-8430-4ef2-8963-d22b81552631"},"vehicle_type_id":"4","last_reported":1702397337,"current_range_meters":12000,"station_id":"ce4bh4p2rcd13ifvqe1g","pricing_plan_id":"free"},{"bike_id":"736aa3f8-bb00-430a-a01f-9029b30ee2d6","system_id":"levelo_inurba_marseille","lat":43.28856,"lon":5.358371,"is_reserved":false,"is_disabled":false,"rental_uris":{"android":"levelo://app?vid=736aa3f8-bb00-430a-a01f-9029b30ee2d6","ios":"levelo://app?vid=736aa3f8-bb00-430a-a01f-9029b30ee2d6"},"vehicle_type_id":"4","last_reported":1702397337,"current_range_meters":5600,"station_id":"ce4bhb12rcd13ifvqem0","pricing_plan_id":"free"},{"bike_id":"c36236ba-b76e-4d4a-b918-779570bac417","system_id":"levelo_inurba_marseille","lat":43.312609,"lon":5.401662,"is_reserved":false,"is_disabled":false,"rental_uris":{"android":"levelo://app?vid=c36236ba-b76e-4d4a-b918-779570bac417","ios":"levelo://app?vid=c36236ba-b76e-4d4a-b918-779570bac417"},"vehicle_type_id":"4","last_reported":1702397337,"current_range_meters":400,"station_id":"ce4bh092rcd13ifvqd30","pricing_plan_id":"free"},{"bike_id":"9f4fe506-4c5a-4430-8579-81a0b33288fa","system_id":"levelo_inurba_marseille","lat":43.3375,"lon":5.37467,"is_reserved":false,"is_disabled":false,"rental_uris":{"android":"levelo://app?vid=9f4fe506-4c5a-4430-8579-81a0b33288fa","ios":"levelo://app?vid=9f4fe506-4c5a-4430-8579-81a0b33288fa"},"vehicle_type_id":"4","last_reported":1702397337,"current_range_meters":30000,"station_id":"","pricing_plan_id":"free"},{"bike_id":"6a15d18e-af37-408d-b876-87d529b2f5fd","system_id":"levelo_inurba_marseille","lat":43.28727,"lon":5.36078,"is_reserved":false,"is_disabled":false,"rental_uris":{"android":"levelo://app?vid=6a15d18e-af37-408d-b876-87d529b2f5fd","ios":"levelo://app?vid=6a15d18e-af37-408d-b876-87d529b2f5fd"},"vehicle_type_id":"4","last_reported":1702397337,"current_range_meters":26800,"station_id":"cki0cbj6b192h4jlfktg","pricing_plan_id":"free"},{"bike_id":"95f92516-9bdd-4b86-80c9-7327dbf901d9","system_id":"levelo_inurba_marseille","lat":43.28727,"lon":5.36078,"is_reserved":false,"is_disabled":false,"rental_uris":{"android":"levelo://app?vid=95f92516-9bdd-4b86-80c9-7327dbf901d9","ios":"levelo://app?vid=95f92516-9bdd-4b86-80c9-7327dbf901d9"},"vehicle_type_id":"4","last_reported":1702397337,"current_range_meters":28400,"station_id":"cki0cbj6b192h4jlfktg","pricing_plan_id":"free"},{"bike_id":"a69ca607-a11e-4577-bc5a-1d931c46c050","system_id":"levelo_inurba_marseille","lat":43.306335,"lon":5.401739,"is_reserved":false,"is_disabled":false,"rental_uris":{"android":"levelo://app?vid=a69ca607-a11e-4577-bc5a-1d931c46c050","ios":"levelo://app?vid=a69ca607-a11e-4577-bc5a-1d931c46c050"},"vehicle_type_id":"4","last_reported":1702397337,"current_range_meters":8000,"station_id":"","pricing_plan_id":"free"},{"bike_id":"8191ba29-cea3-44c0-9d07-299e7367d7ac","system_id":"levelo_inurba_marseille","lat":43.286593,"lon":5.363346,"is_reserved":false,"is_disabled":false,"rental_uris":{"android":"levelo://app?vid=8191ba29-cea3-44c0-9d07-299e7367d7ac","ios":"levelo://app?vid=8191ba29-cea3-44c0-9d07-299e7367d7ac"},"vehicle_type_id":"4","last_reported":1702397337,"current_range_meters":30800,"station_id":"ce4bhah2rcd13ifvqej0","pricing_plan_id":"free"},{"bike_id":"743d5227-2793-4dbd-9639-30b9274de3c4","system_id":"levelo_inurba_marseille","lat":43.286961,"lon":5.373785,"is_reserved":false,"is_disabled":false,"rental_uris":{"android":"levelo://app?vid=743d5227-2793-4dbd-9639-30b9274de3c4","ios":"levelo://app?vid=743d5227-2793-4dbd-9639-30b9274de3c4"},"vehicle_type_id":"4","last_reported":1702397337,"current_range_meters":15200,"station_id":"ce4bh3p2rcd13ifvqdq0","pricing_plan_id":"free"},{"bike_id":"37e57073-29c9-4a89-8646-112897ad1d6d","system_id":"levelo_inurba_marseille","lat":43.295196,"lon":5.39397,"is_reserved":false,"is_disabled":false,"rental_uris":{"android":"levelo://app?vid=37e57073-29c9-4a89-8646-112897ad1d6d","ios":"levelo://app?vid=37e57073-29c9-4a89-8646-112897ad1d6d"},"vehicle_type_id":"4","last_reported":1702397337,"current_range_meters":19600,"station_id":"ce4bh292rcd13ifvqdf0","pricing_plan_id":"free"},{"bike_id":"a1082bce-708c-4518-9401-c83b063ab4db","system_id":"levelo_inurba_marseille","lat":43.286039,"lon":5.370679,"is_reserved":false,"is_disabled":false,"rental_uris":{"android":"levelo://app?vid=a1082bce-708c-4518-9401-c83b063ab4db","ios":"levelo://app?vid=a1082bce-708c-4518-9401-c83b063ab4db"},"vehicle_type_id":"4","last_reported":1702397337,"current_range_meters":28400,"station_id":"ce4bht12rcd13ifvqi60","pricing_plan_id":"free"},{"bike_id":"dd55c571-beb8-4144-9eee-a018fae0dfc2","system_id":"levelo_inurba_marseille","lat":43.286039,"lon":5.370681,"is_reserved":false,"is_disabled":false,"rental_uris":{"android":"levelo://app?vid=dd55c571-beb8-4144-9eee-a018fae0dfc2","ios":"levelo://app?vid=dd55c571-beb8-4144-9eee-a018fae0dfc2"},"vehicle_type_id":"4","last_reported":1702397337,"current_range_meters":22800,"station_id":"ce4bht12rcd13ifvqi60","pricing_plan_id":"free"},{"bike_id":"9115154f-8856-4157-935f-d3326a511e75","system_id":"levelo_inurba_marseille","lat":43.286039,"lon":5.370679,"is_reserved":false,"is_disabled":false,"rental_uris":{"android":"levelo://app?vid=9115154f-8856-4157-935f-d3326a511e75","ios":"levelo://app?vid=9115154f-8856-4157-935f-d3326a511e75"},"vehicle_type_id":"4","last_reported":1702397337,"current_range_meters":31200,"station_id":"ce4bht12rcd13ifvqi60","pricing_plan_id":"free"},{"bike_id":"c93d190c-c37c-4d4b-b4a2-9eeff5f1f1e0","system_id":"levelo_inurba_marseille","lat":43.291994,"lon":5.392907,"is_reserved":false,"is_disabled":false,"rental_uris":{"android":"levelo://app?vid=c93d190c-c37c-4d4b-b4a2-9eeff5f1f1e0","ios":"levelo://app?vid=c93d190c-c37c-4d4b-b4a2-9eeff5f1f1e0"},"vehicle_type_id":"4","last_reported":1702397337,"current_range_meters":2400,"station_id":"ce4bh192rcd13ifvqdd0","pricing_plan_id":"free"},{"bike_id":"9a8dd405-4c7e-4218-b7bf-b5f54e2c8e92","system_id":"levelo_inurba_marseille","lat":43.284534,"lon":5.358662,"is_reserved":false,"is_disabled":false,"rental_uris":{"android":"levelo://app?vid=9a8dd405-4c7e-4218-b7bf-b5f54e2c8e92","ios":"levelo://app?vid=9a8dd405-4c7e-4218-b7bf-b5f54e2c8e92"},"vehicle_type_id":"4","last_reported":1702397337,"current_range_meters":27600,"station_id":"ce4bhah2rcd13ifvqei0","pricing_plan_id":"free"},{"bike_id":"e39edd7b-10af-44ce-89fc-251d5909dc98","system_id":"levelo_inurba_marseille","lat":43.284538,"lon":5.358657,"is_reserved":false,"is_disabled":false,"rental_uris":{"android":"levelo://app?vid=e39edd7b-10af-44ce-89fc-251d5909dc98","ios":"levelo://app?vid=e39edd7b-10af-44ce-89fc-251d5909dc98"},"vehicle_type_id":"4","last_reported":1702397337,"current_range_meters":19600,"station_id":"ce4bhah2rcd13ifvqei0","pricing_plan_id":"free"},{"bike_id":"46feafa5-b21c-436e-815d-6feeb9bcf095","system_id":"levelo_inurba_marseille","lat":43.294314,"lon":5.397498,"is_reserved":false,"is_disabled":false,"rental_uris":{"android":"levelo://app?vid=46feafa5-b21c-436e-815d-6feeb9bcf095","ios":"levelo://app?vid=46feafa5-b21c-436e-815d-6feeb9bcf095"},"vehicle_type_id":"4","last_reported":1702397337,"current_range_meters":31200,"station_id":"ce4bh3h2rcd13ifvqdo0","pricing_plan_id":"free"},{"bike_id":"bbb661c4-be83-4735-a7d8-0c95785938c6","system_id":"levelo_inurba_marseille","lat":43.294314,"lon":5.397498,"is_reserved":false,"is_disabled":false,"rental_uris":{"android":"levelo://app?vid=bbb661c4-be83-4735-a7d8-0c95785938c6","ios":"levelo://app?vid=bbb661c4-be83-4735-a7d8-0c95785938c6"},"vehicle_type_id":"4","last_reported":1702397337,"current_range_meters":26400,"station_id":"ce4bh3h2rcd13ifvqdo0","pricing_plan_id":"free"},{"bike_id":"9b00f80a-ae66-4ba3-a321-29f88524042e","system_id":"levelo_inurba_marseille","lat":43.294314,"lon":5.397498,"is_reserved":false,"is_disabled":false,"rental_uris":{"android":"levelo://app?vid=9b00f80a-ae66-4ba3-a321-29f88524042e","ios":"levelo://app?vid=9b00f80a-ae66-4ba3-a321-29f88524042e"},"vehicle_type_id":"4","last_reported":1702397337,"current_range_meters":24400,"station_id":"ce4bh3h2rcd13ifvqdo0","pricing_plan_id":"free"},{"bike_id":"d30f6d21-67ac-4ca0-a6e5-4e4fb0431b6d","system_id":"levelo_inurba_marseille","lat":43.283998,"lon":5.375062,"is_reserved":false,"is_disabled":false,"rental_uris":{"android":"levelo://app?vid=d30f6d21-67ac-4ca0-a6e5-4e4fb0431b6d","ios":"levelo://app?vid=d30f6d21-67ac-4ca0-a6e5-4e4fb0431b6d"},"vehicle_type_id":"4","last_reported":1702397337,"current_range_meters":0,"station_id":"ce4bh412rcd13ifvqds0","pricing_plan_id":"free"},{"bike_id":"c472bf68-604d-42be-a4e2-963f8aaee165","system_id":"levelo_inurba_marseille","lat":43.33717,"lon":5.391857,"is_reserved":false,"is_disabled":false,"rental_uris":{"android":"levelo://app?vid=c472bf68-604d-42be-a4e2-963f8aaee165","ios":"levelo://app?vid=c472bf68-604d-42be-a4e2-963f8aaee165"},"vehicle_type_id":"4","last_reported":1702397337,"current_range_meters":27200,"station_id":"ce4bhr92rcd13ifvqhsg","pricing_plan_id":"free"},{"bike_id":"6fc43ade-3775-49e2-a08b-60d6c1b767fb","system_id":"levelo_inurba_marseille","lat":43.288501,"lon":5.393087,"is_reserved":false,"is_disabled":false,"rental_uris":{"android":"levelo://app?vid=6fc43ade-3775-49e2-a08b-60d6c1b767fb","ios":"levelo://app?vid=6fc43ade-3775-49e2-a08b-60d6c1b767fb"},"vehicle_type_id":"4","last_reported":1702397337,"current_range_meters":22800,"station_id":"ce4bh2p2rcd13ifvqdi0","pricing_plan_id":"free"},{"bike_id":"8551cb0b-a236-4f1c-aa66-0603d2ac9347","system_id":"levelo_inurba_marseille","lat":43.288501,"lon":5.393087,"is_reserved":false,"is_disabled":false,"rental_uris":{"android":"levelo://app?vid=8551cb0b-a236-4f1c-aa66-0603d2ac9347","ios":"levelo://app?vid=8551cb0b-a236-4f1c-aa66-0603d2ac9347"},"vehicle_type_id":"4","last_reported":1702397337,"current_range_meters":18000,"station_id":"ce4bh2p2rcd13ifvqdi0","pricing_plan_id":"free"},{"bike_id":"388a36a1-71e2-47f4-894d-a8ebe2fcfe48","system_id":"levelo_inurba_marseille","lat":43.283498,"lon":5.380948,"is_reserved":false,"is_disabled":false,"rental_uris":{"android":"levelo://app?vid=388a36a1-71e2-47f4-894d-a8ebe2fcfe48","ios":"levelo://app?vid=388a36a1-71e2-47f4-894d-a8ebe2fcfe48"},"vehicle_type_id":"4","last_reported":1702397337,"current_range_meters":17600,"station_id":"ce4bh412rcd13ifvqdr0","pricing_plan_id":"free"},{"bike_id":"c2d33e82-b4e7-4d9a-a8eb-4e2905d24ffe","system_id":"levelo_inurba_marseille","lat":43.284219,"lon":5.3497,"is_reserved":false,"is_disabled":false,"rental_uris":{"android":"levelo://app?vid=c2d33e82-b4e7-4d9a-a8eb-4e2905d24ffe","ios":"levelo://app?vid=c2d33e82-b4e7-4d9a-a8eb-4e2905d24ffe"},"vehicle_type_id":"4","last_reported":1702397337,"current_range_meters":18800,"station_id":"ce4bhbh2rcd13ifvqepg","pricing_plan_id":"free"},{"bike_id":"9d74a900-d6bf-4d61-b9b0-481bf786c12b","system_id":"levelo_inurba_marseille","lat":43.28032,"lon":5.36943,"is_reserved":false,"is_disabled":false,"rental_uris":{"android":"levelo://app?vid=9d74a900-d6bf-4d61-b9b0-481bf786c12b","ios":"levelo://app?vid=9d74a900-d6bf-4d61-b9b0-481bf786c12b"},"vehicle_type_id":"4","last_reported":1702397337,"current_range_meters":12800,"station_id":"ce4bha12rcd13ifvqef0","pricing_plan_id":"free"},{"bike_id":"78100ebd-2e55-4ca4-a5e7-dbfb73538a0a","system_id":"levelo_inurba_marseille","lat":43.281044,"lon":5.378308,"is_reserved":false,"is_disabled":false,"rental_uris":{"android":"levelo://app?vid=78100ebd-2e55-4ca4-a5e7-dbfb73538a0a","ios":"levelo://app?vid=78100ebd-2e55-4ca4-a5e7-dbfb73538a0a"},"vehicle_type_id":"4","last_reported":1702397337,"current_range_meters":21200,"station_id":"ce4bha12rcd13ifvqee0","pricing_plan_id":"free"},{"bike_id":"35b2bb0e-03da-4aef-9b45-278c8bd286fb","system_id":"levelo_inurba_marseille","lat":43.284462,"lon":5.392121,"is_reserved":false,"is_disabled":false,"rental_uris":{"android":"levelo://app?vid=35b2bb0e-03da-4aef-9b45-278c8bd286fb","ios":"levelo://app?vid=35b2bb0e-03da-4aef-9b45-278c8bd286fb"},"vehicle_type_id":"4","last_reported":1702397337,"current_range_meters":8400,"station_id":"ce4bhoh2rcd13ifvqh5g","pricing_plan_id":"free"},{"bike_id":"9a601691-c910-4665-84c3-59985b6320f7","system_id":"levelo_inurba_marseille","lat":43.28569,"lon":5.39499,"is_reserved":false,"is_disabled":false,"rental_uris":{"android":"levelo://app?vid=9a601691-c910-4665-84c3-59985b6320f7","ios":"levelo://app?vid=9a601691-c910-4665-84c3-59985b6320f7"},"vehicle_type_id":"4","last_reported":1702397337,"current_range_meters":25200,"station_id":"ce4bh292rcd13ifvqdg0","pricing_plan_id":"free"},{"bike_id":"b3aabcb0-2013-4224-b0a9-9a1ccf2978f8","system_id":"levelo_inurba_marseille","lat":43.285742,"lon":5.395004,"is_reserved":false,"is_disabled":false,"rental_uris":{"android":"levelo://app?vid=b3aabcb0-2013-4224-b0a9-9a1ccf2978f8","ios":"levelo://app?vid=b3aabcb0-2013-4224-b0a9-9a1ccf2978f8"},"vehicle_type_id":"4","last_reported":1702397337,"current_range_meters":12800,"station_id":"ce4bh292rcd13ifvqdg0","pricing_plan_id":"free"},{"bike_id":"76614e09-25fc-4569-8b2a-609a27eb77f5","system_id":"levelo_inurba_marseille","lat":43.304188,"lon":5.412904,"is_reserved":false,"is_disabled":false,"rental_uris":{"android":"levelo://app?vid=76614e09-25fc-4569-8b2a-609a27eb77f5","ios":"levelo://app?vid=76614e09-25fc-4569-8b2a-609a27eb77f5"},"vehicle_type_id":"4","last_reported":1702397337,"current_range_meters":20400,"station_id":"ce4bhop2rcd13ifvqh8g","pricing_plan_id":"free"},{"bike_id":"9dd2fdfb-95fd-4e4a-8b40-559c37c3b1d4","system_id":"levelo_inurba_marseille","lat":43.304188,"lon":5.412904,"is_reserved":false,"is_disabled":false,"rental_uris":{"android":"levelo://app?vid=9dd2fdfb-95fd-4e4a-8b40-559c37c3b1d4","ios":"levelo://app?vid=9dd2fdfb-95fd-4e4a-8b40-559c37c3b1d4"},"vehicle_type_id":"4","last_reported":1702397337,"current_range_meters":25200,"station_id":"ce4bhop2rcd13ifvqh8g","pricing_plan_id":"free"},{"bike_id":"2f38d185-79e2-4e78-a6a9-c35deea558ec","system_id":"levelo_inurba_marseille","lat":43.279087,"lon":5.380114,"is_reserved":false,"is_disabled":false,"rental_uris":{"android":"levelo://app?vid=2f38d185-79e2-4e78-a6a9-c35deea558ec","ios":"levelo://app?vid=2f38d185-79e2-4e78-a6a9-c35deea558ec"},"vehicle_type_id":"4","last_reported":1702397337,"current_range_meters":4400,"station_id":"ce4bhf92rcd13ifvqf50","pricing_plan_id":"free"},{"bike_id":"089cc049-7edc-46df-ac4a-576d9fa5f41b","system_id":"levelo_inurba_marseille","lat":43.287154,"lon":5.399979,"is_reserved":false,"is_disabled":false,"rental_uris":{"android":"levelo://app?vid=089cc049-7edc-46df-ac4a-576d9fa5f41b","ios":"levelo://app?vid=089cc049-7edc-46df-ac4a-576d9fa5f41b"},"vehicle_type_id":"4","last_reported":1702397337,"current_range_meters":18800,"station_id":"ce4bho92rcd13ifvqh3g","pricing_plan_id":"free"},{"bike_id":"4f8cba3f-681f-48f1-8c9f-40368e98d7a9","system_id":"levelo_inurba_marseille","lat":43.320045,"lon":5.415046,"is_reserved":false,"is_disabled":false,"rental_uris":{"android":"levelo://app?vid=4f8cba3f-681f-48f1-8c9f-40368e98d7a9","ios":"levelo://app?vid=4f8cba3f-681f-48f1-8c9f-40368e98d7a9"},"vehicle_type_id":"4","last_reported":1702397337,"current_range_meters":14400,"station_id":"ce4bhq92rcd13ifvqhkg","pricing_plan_id":"free"},{"bike_id":"f26c8c9f-9587-4d48-afae-e54bcd9e2f1d","system_id":"levelo_inurba_marseille","lat":43.27618,"lon":5.361009,"is_reserved":false,"is_disabled":false,"rental_uris":{"android":"levelo://app?vid=f26c8c9f-9587-4d48-afae-e54bcd9e2f1d","ios":"levelo://app?vid=f26c8c9f-9587-4d48-afae-e54bcd9e2f1d"},"vehicle_type_id":"4","last_reported":1702397337,"current_range_meters":14800,"station_id":"ce4bgj92rcd13ifvqbe0","pricing_plan_id":"free"},{"bike_id":"7646dcc1-5f86-4be8-bcb7-adce2296e715","system_id":"levelo_inurba_marseille","lat":43.276179,"lon":5.361009,"is_reserved":false,"is_disabled":false,"rental_uris":{"android":"levelo://app?vid=7646dcc1-5f86-4be8-bcb7-adce2296e715","ios":"levelo://app?vid=7646dcc1-5f86-4be8-bcb7-adce2296e715"},"vehicle_type_id":"4","last_reported":1702397337,"current_range_meters":10400,"station_id":"ce4bgj92rcd13ifvqbe0","pricing_plan_id":"free"},{"bike_id":"bb830329-efd2-4a76-a282-9324ab840043","system_id":"levelo_inurba_marseille","lat":43.280784,"lon":5.396622,"is_reserved":false,"is_disabled":false,"rental_uris":{"android":"levelo://app?vid=bb830329-efd2-4a76-a282-9324ab840043","ios":"levelo://app?vid=bb830329-efd2-4a76-a282-9324ab840043"},"vehicle_type_id":"4","last_reported":1702397337,"current_range_meters":7200,"station_id":"ce4bho12rcd13ifvqh2g","pricing_plan_id":"free"},{"bike_id":"a457beed-3c1c-4eda-8fd6-bd337f5ef8e7","system_id":"levelo_inurba_marseille","lat":43.280784,"lon":5.396622,"is_reserved":false,"is_disabled":false,"rental_uris":{"android":"levelo://app?vid=a457beed-3c1c-4eda-8fd6-bd337f5ef8e7","ios":"levelo://app?vid=a457beed-3c1c-4eda-8fd6-bd337f5ef8e7"},"vehicle_type_id":"4","last_reported":1702397337,"current_range_meters":30400,"station_id":"ce4bho12rcd13ifvqh2g","pricing_plan_id":"free"},{"bike_id":"9dcb7b5b-2805-4e63-92a0-d85c53ca993f","system_id":"levelo_inurba_marseille","lat":43.280784,"lon":5.396622,"is_reserved":false,"is_disabled":false,"rental_uris":{"android":"levelo://app?vid=9dcb7b5b-2805-4e63-92a0-d85c53ca993f","ios":"levelo://app?vid=9dcb7b5b-2805-4e63-92a0-d85c53ca993f"},"vehicle_type_id":"4","last_reported":1702397337,"current_range_meters":5200,"station_id":"ce4bho12rcd13ifvqh2g","pricing_plan_id":"free"},{"bike_id":"64757ef0-c07f-4897-a546-0204ea8c99cd","system_id":"levelo_inurba_marseille","lat":43.336148,"lon":5.410349,"is_reserved":false,"is_disabled":false,"rental_uris":{"android":"levelo://app?vid=64757ef0-c07f-4897-a546-0204ea8c99cd","ios":"levelo://app?vid=64757ef0-c07f-4897-a546-0204ea8c99cd"},"vehicle_type_id":"4","last_reported":1702397337,"current_range_meters":7600,"station_id":"ce4bhqh2rcd13ifvqhmg","pricing_plan_id":"free"},{"bike_id":"b712c1cd-4262-487d-87b3-9cb745cef71b","system_id":"levelo_inurba_marseille","lat":43.279975,"lon":5.40009,"is_reserved":false,"is_disabled":false,"rental_uris":{"android":"levelo://app?vid=b712c1cd-4262-487d-87b3-9cb745cef71b","ios":"levelo://app?vid=b712c1cd-4262-487d-87b3-9cb745cef71b"},"vehicle_type_id":"4","last_reported":1702397337,"current_range_meters":4400,"station_id":"ce4bho92rcd13ifvqh4g","pricing_plan_id":"free"},{"bike_id":"b1c028eb-0fe1-4afa-b35c-b9783a0e9537","system_id":"levelo_inurba_marseille","lat":43.31723,"lon":5.42405,"is_reserved":false,"is_disabled":false,"rental_uris":{"android":"levelo://app?vid=b1c028eb-0fe1-4afa-b35c-b9783a0e9537","ios":"levelo://app?vid=b1c028eb-0fe1-4afa-b35c-b9783a0e9537"},"vehicle_type_id":"4","last_reported":1702397337,"current_range_meters":5200,"station_id":"ce4bhp92rcd13ifvqhbg","pricing_plan_id":"free"},{"bike_id":"c8cafa9d-c8ce-48e7-8f54-4655168aa712","system_id":"levelo_inurba_marseille","lat":43.265714,"lon":5.372891,"is_reserved":false,"is_disabled":false,"rental_uris":{"android":"levelo://app?vid=c8cafa9d-c8ce-48e7-8f54-4655168aa712","ios":"levelo://app?vid=c8cafa9d-c8ce-48e7-8f54-4655168aa712"},"vehicle_type_id":"4","last_reported":1702397337,"current_range_meters":7600,"station_id":"ce4bhg12rcd13ifvqf70","pricing_plan_id":"free"},{"bike_id":"d7a6c85d-a811-4fa8-800a-8c7d7fbad1e5","system_id":"levelo_inurba_marseille","lat":43.267621,"lon":5.389421,"is_reserved":false,"is_disabled":false,"rental_uris":{"android":"levelo://app?vid=d7a6c85d-a811-4fa8-800a-8c7d7fbad1e5","ios":"levelo://app?vid=d7a6c85d-a811-4fa8-800a-8c7d7fbad1e5"},"vehicle_type_id":"4","last_reported":1702397337,"current_range_meters":0,"station_id":"","pricing_plan_id":"free"},{"bike_id":"98762f8d-448f-4715-a355-95965254dc55","system_id":"levelo_inurba_marseille","lat":43.308051,"lon":5.43527,"is_reserved":false,"is_disabled":false,"rental_uris":{"android":"levelo://app?vid=98762f8d-448f-4715-a355-95965254dc55","ios":"levelo://app?vid=98762f8d-448f-4715-a355-95965254dc55"},"vehicle_type_id":"4","last_reported":1702397337,"current_range_meters":28800,"station_id":"ce4bhph2rcd13ifvqheg","pricing_plan_id":"free"},{"bike_id":"14bc19f9-c5ac-4814-b202-5604c65f25d1","system_id":"levelo_inurba_marseille","lat":43.308007,"lon":5.435284,"is_reserved":false,"is_disabled":false,"rental_uris":{"android":"levelo://app?vid=14bc19f9-c5ac-4814-b202-5604c65f25d1","ios":"levelo://app?vid=14bc19f9-c5ac-4814-b202-5604c65f25d1"},"vehicle_type_id":"4","last_reported":1702397337,"current_range_meters":17200,"station_id":"ce4bhph2rcd13ifvqheg","pricing_plan_id":"free"},{"bike_id":"c5dcb1f5-374e-4782-ab55-b8ad7f9e18ae","system_id":"levelo_inurba_marseille","lat":43.26949,"lon":5.40262,"is_reserved":false,"is_disabled":false,"rental_uris":{"android":"levelo://app?vid=c5dcb1f5-374e-4782-ab55-b8ad7f9e18ae","ios":"levelo://app?vid=c5dcb1f5-374e-4782-ab55-b8ad7f9e18ae"},"vehicle_type_id":"4","last_reported":1702397337,"current_range_meters":4000,"station_id":"cjm6bp8fraef2m0cb0m0","pricing_plan_id":"free"},{"bike_id":"7dcc0d71-2ad6-4b3c-92e0-a1f941b95477","system_id":"levelo_inurba_marseille","lat":43.317104,"lon":5.436818,"is_reserved":false,"is_disabled":false,"rental_uris":{"android":"levelo://app?vid=7dcc0d71-2ad6-4b3c-92e0-a1f941b95477","ios":"levelo://app?vid=7dcc0d71-2ad6-4b3c-92e0-a1f941b95477"},"vehicle_type_id":"4","last_reported":1702397337,"current_range_meters":28400,"station_id":"ce4bhp92rcd13ifvqhcg","pricing_plan_id":"free"},{"bike_id":"39f1097f-1f3b-42f3-ab92-9467e7980416","system_id":"levelo_inurba_marseille","lat":43.26808,"lon":5.40265,"is_reserved":false,"is_disabled":false,"rental_uris":{"android":"levelo://app?vid=39f1097f-1f3b-42f3-ab92-9467e7980416","ios":"levelo://app?vid=39f1097f-1f3b-42f3-ab92-9467e7980416"},"vehicle_type_id":"4","last_reported":1702397337,"current_range_meters":5600,"station_id":"ce501612rcd8frsf0b60","pricing_plan_id":"free"},{"bike_id":"94d580d1-a3e4-4929-840d-bfa371151b55","system_id":"levelo_inurba_marseille","lat":43.267959,"lon":5.402687,"is_reserved":false,"is_disabled":false,"rental_uris":{"android":"levelo://app?vid=94d580d1-a3e4-4929-840d-bfa371151b55","ios":"levelo://app?vid=94d580d1-a3e4-4929-840d-bfa371151b55"},"vehicle_type_id":"4","last_reported":1702397337,"current_range_meters":5600,"station_id":"ce501612rcd8frsf0b60","pricing_plan_id":"free"},{"bike_id":"c6fd12df-9f3a-4af6-97ac-045eea3df2d1","system_id":"levelo_inurba_marseille","lat":43.298768,"lon":5.43643,"is_reserved":false,"is_disabled":false,"rental_uris":{"android":"levelo://app?vid=c6fd12df-9f3a-4af6-97ac-045eea3df2d1","ios":"levelo://app?vid=c6fd12df-9f3a-4af6-97ac-045eea3df2d1"},"vehicle_type_id":"4","last_reported":1702397337,"current_range_meters":21200,"station_id":"ce4bhpp2rcd13ifvqhfg","pricing_plan_id":"free"},{"bike_id":"10a0a2b3-71bb-4240-b3a7-0b2541567843","system_id":"levelo_inurba_marseille","lat":43.28151,"lon":5.42645,"is_reserved":false,"is_disabled":false,"rental_uris":{"android":"levelo://app?vid=10a0a2b3-71bb-4240-b3a7-0b2541567843","ios":"levelo://app?vid=10a0a2b3-71bb-4240-b3a7-0b2541567843"},"vehicle_type_id":"4","last_reported":1702397337,"current_range_meters":19600,"station_id":"ce4bhnh2rcd13ifvqgug","pricing_plan_id":"free"},{"bike_id":"3764faf7-beec-4b88-97d8-9ac6b46998c6","system_id":"levelo_inurba_marseille","lat":43.281548,"lon":5.42643,"is_reserved":false,"is_disabled":false,"rental_uris":{"android":"levelo://app?vid=3764faf7-beec-4b88-97d8-9ac6b46998c6","ios":"levelo://app?vid=3764faf7-beec-4b88-97d8-9ac6b46998c6"},"vehicle_type_id":"4","last_reported":1702397337,"current_range_meters":29600,"station_id":"ce4bhnh2rcd13ifvqgug","pricing_plan_id":"free"},{"bike_id":"0b2a5553-a34f-4acc-abad-96f9a4dacebb","system_id":"levelo_inurba_marseille","lat":43.255805,"lon":5.382519,"is_reserved":false,"is_disabled":false,"rental_uris":{"android":"levelo://app?vid=0b2a5553-a34f-4acc-abad-96f9a4dacebb","ios":"levelo://app?vid=0b2a5553-a34f-4acc-abad-96f9a4dacebb"},"vehicle_type_id":"4","last_reported":1702397337,"current_range_meters":22000,"station_id":"ce4bhih2rcd13ifvqfs0","pricing_plan_id":"free"},{"bike_id":"7d119f76-c39b-4ed4-b48c-fd078e8b1c9e","system_id":"levelo_inurba_marseille","lat":43.270721,"lon":5.422764,"is_reserved":false,"is_disabled":false,"rental_uris":{"android":"levelo://app?vid=7d119f76-c39b-4ed4-b48c-fd078e8b1c9e","ios":"levelo://app?vid=7d119f76-c39b-4ed4-b48c-fd078e8b1c9e"},"vehicle_type_id":"4","last_reported":1702397337,"current_range_meters":26400,"station_id":"ce4bhk92rcd13ifvqgb0","pricing_plan_id":"free"},{"bike_id":"2587b784-5e2b-4db9-93a4-c775ceb7b775","system_id":"levelo_inurba_marseille","lat":43.258658,"lon":5.398935,"is_reserved":false,"is_disabled":false,"rental_uris":{"android":"levelo://app?vid=2587b784-5e2b-4db9-93a4-c775ceb7b775","ios":"levelo://app?vid=2587b784-5e2b-4db9-93a4-c775ceb7b775"},"vehicle_type_id":"4","last_reported":1702397337,"current_range_meters":1200,"station_id":"ce4bhl92rcd13ifvqghg","pricing_plan_id":"free"},{"bike_id":"c636cdc4-6c56-4c17-ad90-41e9286c11bb","system_id":"levelo_inurba_marseille","lat":43.25932,"lon":5.40914,"is_reserved":false,"is_disabled":false,"rental_uris":{"android":"levelo://app?vid=c636cdc4-6c56-4c17-ad90-41e9286c11bb","ios":"levelo://app?vid=c636cdc4-6c56-4c17-ad90-41e9286c11bb"},"vehicle_type_id":"4","last_reported":1702397337,"current_range_meters":0,"station_id":"ce4bhm92rcd13ifvqglg","pricing_plan_id":"free"},{"bike_id":"b05797b9-fdcf-4135-83b9-e350d52579c1","system_id":"levelo_inurba_marseille","lat":43.250009,"lon":5.389195,"is_reserved":false,"is_disabled":false,"rental_uris":{"android":"levelo://app?vid=b05797b9-fdcf-4135-83b9-e350d52579c1","ios":"levelo://app?vid=b05797b9-fdcf-4135-83b9-e350d52579c1"},"vehicle_type_id":"4","last_reported":1702397337,"current_range_meters":11600,"station_id":"ce4bhgp2rcd13ifvqfd0","pricing_plan_id":"free"},{"bike_id":"efe98799-0583-43db-824b-91741e846508","system_id":"levelo_inurba_marseille","lat":43.2479,"lon":5.374457,"is_reserved":false,"is_disabled":false,"rental_uris":{"android":"levelo://app?vid=efe98799-0583-43db-824b-91741e846508","ios":"levelo://app?vid=efe98799-0583-43db-824b-91741e846508"},"vehicle_type_id":"4","last_reported":1702397337,"current_range_meters":6400,"station_id":"ce4bhgh2rcd13ifvqfb0","pricing_plan_id":"free"},{"bike_id":"dab8ad3a-8600-426c-8830-5c7122c03dc8","system_id":"levelo_inurba_marseille","lat":43.24693,"lon":5.382096,"is_reserved":false,"is_disabled":false,"rental_uris":{"android":"levelo://app?vid=dab8ad3a-8600-426c-8830-5c7122c03dc8","ios":"levelo://app?vid=dab8ad3a-8600-426c-8830-5c7122c03dc8"},"vehicle_type_id":"4","last_reported":1702397337,"current_range_meters":31200,"station_id":"ce4bhih2rcd13ifvqfr0","pricing_plan_id":"free"},{"bike_id":"31d9638c-3ea5-49d9-ae1f-e4883bd389a1","system_id":"levelo_inurba_marseille","lat":43.245439,"lon":5.373283,"is_reserved":false,"is_disabled":false,"rental_uris":{"android":"levelo://app?vid=31d9638c-3ea5-49d9-ae1f-e4883bd389a1","ios":"levelo://app?vid=31d9638c-3ea5-49d9-ae1f-e4883bd389a1"},"vehicle_type_id":"4","last_reported":1702397337,"current_range_meters":0,"station_id":"","pricing_plan_id":"free"},{"bike_id":"9dcd0605-126d-4d19-b4b4-c07abe9df3a5","system_id":"levelo_inurba_marseille","lat":43.239588,"lon":5.366238,"is_reserved":false,"is_disabled":false,"rental_uris":{"android":"levelo://app?vid=9dcd0605-126d-4d19-b4b4-c07abe9df3a5","ios":"levelo://app?vid=9dcd0605-126d-4d19-b4b4-c07abe9df3a5"},"vehicle_type_id":"4","last_reported":1702397337,"current_range_meters":27200,"station_id":"ce4bhi12rcd13ifvqfp0","pricing_plan_id":"free"},{"bike_id":"1bd22906-96ca-46e0-9d37-90eff248c859","system_id":"levelo_inurba_marseille","lat":43.23199,"lon":5.35544,"is_reserved":false,"is_disabled":false,"rental_uris":{"android":"levelo://app?vid=1bd22906-96ca-46e0-9d37-90eff248c859","ios":"levelo://app?vid=1bd22906-96ca-46e0-9d37-90eff248c859"},"vehicle_type_id":"4","last_reported":1702397337,"current_range_meters":3200,"station_id":"ce4bhu92rcd13ifvqi70","pricing_plan_id":"free"},{"bike_id":"e5f8a3f9-ad33-4c96-8f80-c9bb436ceb1b","system_id":"levelo_inurba_marseille","lat":43.235782,"lon":5.410408,"is_reserved":false,"is_disabled":false,"rental_uris":{"android":"levelo://app?vid=e5f8a3f9-ad33-4c96-8f80-c9bb436ceb1b","ios":"levelo://app?vid=e5f8a3f9-ad33-4c96-8f80-c9bb436ceb1b"},"vehicle_type_id":"4","last_reported":1702397337,"current_range_meters":15200,"station_id":"","pricing_plan_id":"free"},{"bike_id":"cbc2927c-6269-4362-a708-f04183187904","system_id":"levelo_inurba_marseille","lat":43.231793,"lon":5.400044,"is_reserved":false,"is_disabled":false,"rental_uris":{"android":"levelo://app?vid=cbc2927c-6269-4362-a708-f04183187904","ios":"levelo://app?vid=cbc2927c-6269-4362-a708-f04183187904"},"vehicle_type_id":"4","last_reported":1702397337,"current_range_meters":28800,"station_id":"ce4bhn12rcd13ifvqgqg","pricing_plan_id":"free"},{"bike_id":"5df65123-1330-47b4-b642-38e21e383dda","system_id":"levelo_inurba_marseille","lat":43.231793,"lon":5.400044,"is_reserved":false,"is_disabled":false,"rental_uris":{"android":"levelo://app?vid=5df65123-1330-47b4-b642-38e21e383dda","ios":"levelo://app?vid=5df65123-1330-47b4-b642-38e21e383dda"},"vehicle_type_id":"4","last_reported":1702397337,"current_range_meters":10400,"station_id":"ce4bhn12rcd13ifvqgqg","pricing_plan_id":"free"},{"bike_id":"2ac59d81-e335-498c-a943-1eabaaaf42b9","system_id":"levelo_inurba_marseille","lat":43.231793,"lon":5.400044,"is_reserved":false,"is_disabled":false,"rental_uris":{"android":"levelo://app?vid=2ac59d81-e335-498c-a943-1eabaaaf42b9","ios":"levelo://app?vid=2ac59d81-e335-498c-a943-1eabaaaf42b9"},"vehicle_type_id":"4","last_reported":1702397337,"current_range_meters":12800,"station_id":"ce4bhn12rcd13ifvqgqg","pricing_plan_id":"free"},{"bike_id":"25c6b94d-cc60-4af1-862f-1923b70fae6a","system_id":"levelo_inurba_marseille","lat":43.231794,"lon":5.400052,"is_reserved":false,"is_disabled":false,"rental_uris":{"android":"levelo://app?vid=25c6b94d-cc60-4af1-862f-1923b70fae6a","ios":"levelo://app?vid=25c6b94d-cc60-4af1-862f-1923b70fae6a"},"vehicle_type_id":"4","last_reported":1702397337,"current_range_meters":30800,"station_id":"ce4bhn12rcd13ifvqgqg","pricing_plan_id":"free"},{"bike_id":"9ecb1c44-7f32-4f09-937a-9dabb98f5e74","system_id":"levelo_inurba_marseille","lat":43.23158,"lon":5.437,"is_reserved":false,"is_disabled":false,"rental_uris":{"android":"levelo://app?vid=9ecb1c44-7f32-4f09-937a-9dabb98f5e74","ios":"levelo://app?vid=9ecb1c44-7f32-4f09-937a-9dabb98f5e74"},"vehicle_type_id":"4","last_reported":1702397337,"current_range_meters":25200,"station_id":"ce4bhmp2rcd13ifvqgog","pricing_plan_id":"free"},{"bike_id":"65af7812-a244-48ef-b550-204afeceaec2","system_id":"levelo_inurba_marseille","lat":43.231562,"lon":5.436933,"is_reserved":false,"is_disabled":false,"rental_uris":{"android":"levelo://app?vid=65af7812-a244-48ef-b550-204afeceaec2","ios":"levelo://app?vid=65af7812-a244-48ef-b550-204afeceaec2"},"vehicle_type_id":"4","last_reported":1702397337,"current_range_meters":7200,"station_id":"ce4bhmp2rcd13ifvqgog","pricing_plan_id":"free"},{"bike_id":"c095cb48-b658-413c-9709-1296ddd7e3c2","system_id":"levelo_inurba_marseille","lat":43.231562,"lon":5.436933,"is_reserved":false,"is_disabled":false,"rental_uris":{"android":"levelo://app?vid=c095cb48-b658-413c-9709-1296ddd7e3c2","ios":"levelo://app?vid=c095cb48-b658-413c-9709-1296ddd7e3c2"},"vehicle_type_id":"4","last_reported":1702397337,"current_range_meters":26800,"station_id":"ce4bhmp2rcd13ifvqgog","pricing_plan_id":"free"},{"bike_id":"3f5befc1-008e-4a2e-856a-2bb68a5f59f5","system_id":"levelo_inurba_marseille","lat":43.231543,"lon":5.437129,"is_reserved":false,"is_disabled":false,"rental_uris":{"android":"levelo://app?vid=3f5befc1-008e-4a2e-856a-2bb68a5f59f5","ios":"levelo://app?vid=3f5befc1-008e-4a2e-856a-2bb68a5f59f5"},"vehicle_type_id":"4","last_reported":1702397337,"current_range_meters":29600,"station_id":"ce4bhmp2rcd13ifvqgog","pricing_plan_id":"free"}]}}