{"last_updated":1758013875,"ttl":60,"version":"2.2","data":{"bikes":[{"bike_id":"8c6edc61-4369-4474-81fd-5bf289c1c5b8","system_id":"levelo_inurba_marseille","lat":43.26213,"lon":5.37441,"is_reserved":false,"is_disabled":false,"rental_uris":{"android":"levelo://app?vid=8c6edc61-4369-4474-81fd-5bf289c1c5b8","ios":"levelo://app?vid=8c6edc61-4369-4474-81fd-5bf289c1c5b8"},"vehicle_type_id":"4","last_reported":1758013876,"current_range_meters":2800,"station_id":"ce4bhgp2rcd13ifvqfc0","pricing_plan_id":"cebpf4jnsgd1na2vs0mg"},{"bike_id":"d9c11a94-d122-4240-b95b-24fdee8810ac","system_id":"levelo_inurba_marseille","lat":43.28252,"lon":5.39927,"is_reserved":false,"is_disabled":false,"rental_uris":{"android":"levelo://app?vid=d9c11a94-d122-4240-b95b-24fdee8810ac","ios":"levelo://app?vid=d9c11a94-d122-4240-b95b-24fdee8810ac"},"vehicle_type_id":"4","last_reported":1758013876,"current_range_meters":2800,"station_id":"","pricing_plan_id":"cebpf4jnsgd1na2vs0mg"},{"bike_id":"d5cb70be-4baf-4968-a529-32aebcb0942c","system_id":"levelo_inurba_marseille","lat":43.30328,"lon":5.37874,"is_reserved":false,"is_disabled":false,"rental_uris":{"android":"levelo://app?vid=d5cb70be-4baf-4968-a529-32aebcb0942c","ios":"levelo://app?vid=d5cb70be-4baf-4968-a529-32aebcb0942c"},"vehicle_type_id":"4","last_reported":1758013876,"current_range_meters":2800,"station_id":"","pricing_plan_id":"cebpf4jnsgd1na2vs0mg"},{"bike_id":"c5cba6d7-e282-4417-a818-5fc0802dcb08","system_id":"levelo_inurba_marseille","lat":43.33761,"lon":5.3745,"is_reserved":false,"is_disabled":false,"rental_uris":{"android":"levelo://app?vid=c5cba6d7-e282-4417-a818-5fc0802dcb08","ios":"levelo://app?vid=c5cba6d7-e282-4417-a818-5fc0802dcb08"},"vehicle_type_id":"4","last_reported":1758013876,"current_range_meters":2800,"station_id":"","pricing_plan_id":"cebpf4jnsgd1na2vs0mg"},{"bike_id":"454ff487-7861-4e7a-8594-112b7166fe05","system_id":"levelo_inurba_marseille","lat":43.27314,"lon":5.39077,"is_reserved":false,"is_disabled":false,"rental_uris":{"android":"levelo://app?vid=454ff487-7861-4e7a-8594-112b7166fe05","ios":"levelo://app?vid=454ff487-7861-4e7a-8594-112b7166fe05"},"vehicle_type_id":"4","last_reported":1758013876,"current_range_meters":2800,"station_id":"ce4bhgp2rcd13ifvqfe0","pricing_plan_id":"cebpf4jnsgd1na2vs0mg"},{"bike_id":"03809294-3a3e-4efa-afda-0ac11dcf72fc","system_id":"levelo_inurba_marseille","lat":43.33775,"lon":5.3748,"is_reserved":false,"is_disabled":false,"rental_uris":{"android":"levelo://app?vid=03809294-3a3e-4efa-afda-0ac11dcf72fc","ios":"levelo://app?vid=03809294-3a3e-4efa-afda-0ac11dcf72fc"},"vehicle_type_id":"4","last_reported":1758013876,"current_range_meters":2800,"station_id":"","pricing_plan_id":"cebpf4jnsgd1na2vs0mg"},{"bike_id":"782b9320-f7fd-4aef-b48d-164a4cf8e708","system_id":"levelo_inurba_marseille","lat":43.291944,"lon":5.358053,"is_reserved":false,"is_disabled":false,"rental_uris":{"android":"levelo://app?vid=782b9320-f7fd-4aef-b48d-164a4cf8e708","ios":"levelo://app?vid=782b9320-f7fd-4aef-b48d-164a4cf8e708"},"vehicle_type_id":"4","last_reported":1758013876,"current_range_meters":3200,"station_id":"ce4bhb12rcd13ifvqel0","pricing_plan_id":"cebpf4jnsgd1na2vs0mg"},{"bike_id":"d765e876-dc94-417e-ad8c-0ac49bf5261a","system_id":"levelo_inurba_marseille","lat":43.33464,"lon":5.36114,"is_reserved":false,"is_disabled":false,"rental_uris":{"android":"levelo://app?vid=d765e876-dc94-417e-ad8c-0ac49bf5261a","ios":"levelo://app?vid=d765e876-dc94-417e-ad8c-0ac49bf5261a"},"vehicle_type_id":"4","last_reported":1758013876,"current_range_meters":3200,"station_id":"","pricing_plan_id":"cebpf4jnsgd1na2vs0mg"},{"bike_id":"92328f20-9c61-4621-aefd-c280af7d31a0","system_id":"levelo_inurba_marseille","lat":43.28861,"lon":5.42525,"is_reserved":false,"is_disabled":false,"rental_uris":{"android":"levelo://app?vid=92328f20-9c61-4621-aefd-c280af7d31a0","ios":"levelo://app?vid=92328f20-9c61-4621-aefd-c280af7d31a0"},"vehicle_type_id":"4","last_reported":1758013876,"current_range_meters":3200,"station_id":"","pricing_plan_id":"cebpf4jnsgd1na2vs0mg"},{"bike_id":"2f175d1e-8f4c-42b1-a898-7fe13525d692","system_id":"levelo_inurba_marseille","lat":43.31062,"lon":5.38352,"is_reserved":false,"is_disabled":false,"rental_uris":{"android":"levelo://app?vid=2f175d1e-8f4c-42b1-a898-7fe13525d692","ios":"levelo://app?vid=2f175d1e-8f4c-42b1-a898-7fe13525d692"},"vehicle_type_id":"4","last_reported":1758013876,"current_range_meters":3600,"station_id":"ce4bgv92rcd13ifvqcr0","pricing_plan_id":"cebpf4jnsgd1na2vs0mg"},{"bike_id":"4f9bd625-ea72-423e-9234-f59f397dfa3c","system_id":"levelo_inurba_marseille","lat":43.21194,"lon":5.35083,"is_reserved":false,"is_disabled":false,"rental_uris":{"android":"levelo://app?vid=4f9bd625-ea72-423e-9234-f59f397dfa3c","ios":"levelo://app?vid=4f9bd625-ea72-423e-9234-f59f397dfa3c"},"vehicle_type_id":"4","last_reported":1758013876,"current_range_meters":3600,"station_id":"","pricing_plan_id":"cebpf4jnsgd1na2vs0mg"},{"bike_id":"ce3a93b4-1fab-4b26-9c7f-d472546d1842","system_id":"levelo_inurba_marseille","lat":43.30145,"lon":5.38083,"is_reserved":false,"is_disabled":false,"rental_uris":{"android":"levelo://app?vid=ce3a93b4-1fab-4b26-9c7f-d472546d1842","ios":"levelo://app?vid=ce3a93b4-1fab-4b26-9c7f-d472546d1842"},"vehicle_type_id":"4","last_reported":1758013876,"current_range_meters":3600,"station_id":"ce4bgjp2rcd13ifvqbh0","pricing_plan_id":"cebpf4jnsgd1na2vs0mg"},{"bike_id":"34bc0d13-fab3-4a2e-a43a-a128f860f509","system_id":"levelo_inurba_marseille","lat":43.284503,"lon":5.384439,"is_reserved":false,"is_disabled":false,"rental_uris":{"android":"levelo://app?vid=34bc0d13-fab3-4a2e-a43a-a128f860f509","ios":"levelo://app?vid=34bc0d13-fab3-4a2e-a43a-a128f860f509"},"vehicle_type_id":"4","last_reported":1758013876,"current_range_meters":3600,"station_id":"ce4bh512rcd13ifvqe3g","pricing_plan_id":"cebpf4jnsgd1na2vs0mg"},{"bike_id":"0b6e6534-316d-4a37-97e9-cca2379d55d8","system_id":"levelo_inurba_marseille","lat":43.23961,"lon":5.366262,"is_reserved":false,"is_disabled":false,"rental_uris":{"android":"levelo://app?vid=0b6e6534-316d-4a37-97e9-cca2379d55d8","ios":"levelo://app?vid=0b6e6534-316d-4a37-97e9-cca2379d55d8"},"vehicle_type_id":"4","last_reported":1758013876,"current_range_meters":4000,"station_id":"ce4bhi12rcd13ifvqfp0","pricing_plan_id":"cebpf4jnsgd1na2vs0mg"},{"bike_id":"d232092e-5745-4845-8280-314410ccb41f","system_id":"levelo_inurba_marseille","lat":43.32025,"lon":5.41589,"is_reserved":false,"is_disabled":false,"rental_uris":{"android":"levelo://app?vid=d232092e-5745-4845-8280-314410ccb41f","ios":"levelo://app?vid=d232092e-5745-4845-8280-314410ccb41f"},"vehicle_type_id":"4","last_reported":1758013876,"current_range_meters":4000,"station_id":"ce4bhq92rcd13ifvqhkg","pricing_plan_id":"cebpf4jnsgd1na2vs0mg"},{"bike_id":"c91ddf87-31d4-4a6d-be9b-b3f579eab260","system_id":"levelo_inurba_marseille","lat":43.30608,"lon":5.37224,"is_reserved":false,"is_disabled":false,"rental_uris":{"android":"levelo://app?vid=c91ddf87-31d4-4a6d-be9b-b3f579eab260","ios":"levelo://app?vid=c91ddf87-31d4-4a6d-be9b-b3f579eab260"},"vehicle_type_id":"4","last_reported":1758013876,"current_range_meters":3600,"station_id":"ce4bgqh2rcd13ifvqc4g","pricing_plan_id":"cebpf4jnsgd1na2vs0mg"},{"bike_id":"474a2c53-6088-4799-b499-d1e88db84b78","system_id":"levelo_inurba_marseille","lat":43.303068,"lon":5.392225,"is_reserved":false,"is_disabled":false,"rental_uris":{"android":"levelo://app?vid=474a2c53-6088-4799-b499-d1e88db84b78","ios":"levelo://app?vid=474a2c53-6088-4799-b499-d1e88db84b78"},"vehicle_type_id":"4","last_reported":1758013876,"current_range_meters":4000,"station_id":"ce4bgkh2rcd13ifvqbk0","pricing_plan_id":"cebpf4jnsgd1na2vs0mg"},{"bike_id":"d621219a-01e4-41b0-aeb2-a667ccc3c442","system_id":"levelo_inurba_marseille","lat":43.29472,"lon":5.37921,"is_reserved":false,"is_disabled":false,"rental_uris":{"android":"levelo://app?vid=d621219a-01e4-41b0-aeb2-a667ccc3c442","ios":"levelo://app?vid=d621219a-01e4-41b0-aeb2-a667ccc3c442"},"vehicle_type_id":"4","last_reported":1758013876,"current_range_meters":4400,"station_id":"","pricing_plan_id":"cebpf4jnsgd1na2vs0mg"},{"bike_id":"c37933c6-f301-4e72-ae28-b86236887c46","system_id":"levelo_inurba_marseille","lat":43.225329,"lon":5.348362,"is_reserved":false,"is_disabled":false,"rental_uris":{"android":"levelo://app?vid=c37933c6-f301-4e72-ae28-b86236887c46","ios":"levelo://app?vid=c37933c6-f301-4e72-ae28-b86236887c46"},"vehicle_type_id":"4","last_reported":1758013876,"current_range_meters":4400,"station_id":"","pricing_plan_id":"cebpf4jnsgd1na2vs0mg"},{"bike_id":"4ec115f7-70e2-44a0-950b-cc56db458600","system_id":"levelo_inurba_marseille","lat":43.2174,"lon":5.34619,"is_reserved":false,"is_disabled":true,"rental_uris":{"android":"levelo://app?vid=4ec115f7-70e2-44a0-950b-cc56db458600","ios":"levelo://app?vid=4ec115f7-70e2-44a0-950b-cc56db458600"},"vehicle_type_id":"4","last_reported":1758013876,"current_range_meters":4400,"station_id":"st_cvj6r9ubvosntc0bgbag","pricing_plan_id":"cebpf4jnsgd1na2vs0mg"},{"bike_id":"6b5b3c8e-1efc-443e-8d65-f1b5bb18a3da","system_id":"levelo_inurba_marseille","lat":43.268,"lon":5.39621,"is_reserved":false,"is_disabled":false,"rental_uris":{"android":"levelo://app?vid=6b5b3c8e-1efc-443e-8d65-f1b5bb18a3da","ios":"levelo://app?vid=6b5b3c8e-1efc-443e-8d65-f1b5bb18a3da"},"vehicle_type_id":"4","last_reported":1758013876,"current_range_meters":4400,"station_id":"","pricing_plan_id":"cebpf4jnsgd1na2vs0mg"},{"bike_id":"cd22fe32-dce1-48e7-ba7e-6567417372d9","system_id":"levelo_inurba_marseille","lat":43.29277,"lon":5.36849,"is_reserved":false,"is_disabled":false,"rental_uris":{"android":"levelo://app?vid=cd22fe32-dce1-48e7-ba7e-6567417372d9","ios":"levelo://app?vid=cd22fe32-dce1-48e7-ba7e-6567417372d9"},"vehicle_type_id":"4","last_reported":1758013876,"current_range_meters":4400,"station_id":"ce4bhbp2rcd13ifvqesg","pricing_plan_id":"cebpf4jnsgd1na2vs0mg"},{"bike_id":"00eca7eb-d478-4c0c-85e6-4d3697f8c956","system_id":"levelo_inurba_marseille","lat":43.28412,"lon":5.35048,"is_reserved":false,"is_disabled":false,"rental_uris":{"android":"levelo://app?vid=00eca7eb-d478-4c0c-85e6-4d3697f8c956","ios":"levelo://app?vid=00eca7eb-d478-4c0c-85e6-4d3697f8c956"},"vehicle_type_id":"4","last_reported":1758013876,"current_range_meters":4400,"station_id":"","pricing_plan_id":"cebpf4jnsgd1na2vs0mg"},{"bike_id":"3bd79661-6def-43c8-b210-869fd67a5981","system_id":"levelo_inurba_marseille","lat":43.30894,"lon":5.36845,"is_reserved":false,"is_disabled":false,"rental_uris":{"android":"levelo://app?vid=3bd79661-6def-43c8-b210-869fd67a5981","ios":"levelo://app?vid=3bd79661-6def-43c8-b210-869fd67a5981"},"vehicle_type_id":"4","last_reported":1758013876,"current_range_meters":4800,"station_id":"ce4bgn92rcd13ifvqbvg","pricing_plan_id":"cebpf4jnsgd1na2vs0mg"},{"bike_id":"233724f0-3529-4cc4-b935-d7b653520717","system_id":"levelo_inurba_marseille","lat":43.31232,"lon":5.36875,"is_reserved":false,"is_disabled":false,"rental_uris":{"android":"levelo://app?vid=233724f0-3529-4cc4-b935-d7b653520717","ios":"levelo://app?vid=233724f0-3529-4cc4-b935-d7b653520717"},"vehicle_type_id":"4","last_reported":1758013876,"current_range_meters":4800,"station_id":"ce4bgl92rcd13ifvqbq0","pricing_plan_id":"cebpf4jnsgd1na2vs0mg"},{"bike_id":"d44ea968-0175-41af-8ce5-fb292f8cb208","system_id":"levelo_inurba_marseille","lat":43.28407,"lon":5.37507,"is_reserved":false,"is_disabled":false,"rental_uris":{"android":"levelo://app?vid=d44ea968-0175-41af-8ce5-fb292f8cb208","ios":"levelo://app?vid=d44ea968-0175-41af-8ce5-fb292f8cb208"},"vehicle_type_id":"4","last_reported":1758013876,"current_range_meters":4800,"station_id":"ce4bh412rcd13ifvqds0","pricing_plan_id":"cebpf4jnsgd1na2vs0mg"},{"bike_id":"deee9d4f-e309-4ecf-a4ed-148b77cbddfc","system_id":"levelo_inurba_marseille","lat":43.30797,"lon":5.38159,"is_reserved":false,"is_disabled":false,"rental_uris":{"android":"levelo://app?vid=deee9d4f-e309-4ecf-a4ed-148b77cbddfc","ios":"levelo://app?vid=deee9d4f-e309-4ecf-a4ed-148b77cbddfc"},"vehicle_type_id":"4","last_reported":1758013876,"current_range_meters":4400,"station_id":"ce4bgt12rcd13ifvqce0","pricing_plan_id":"cebpf4jnsgd1na2vs0mg"},{"bike_id":"b982f00c-34a9-4ed3-b17f-5c48d0cb70b9","system_id":"levelo_inurba_marseille","lat":43.23658,"lon":5.36065,"is_reserved":false,"is_disabled":false,"rental_uris":{"android":"levelo://app?vid=b982f00c-34a9-4ed3-b17f-5c48d0cb70b9","ios":"levelo://app?vid=b982f00c-34a9-4ed3-b17f-5c48d0cb70b9"},"vehicle_type_id":"4","last_reported":1758013876,"current_range_meters":4800,"station_id":"","pricing_plan_id":"cebpf4jnsgd1na2vs0mg"},{"bike_id":"72954d1b-d8d6-443a-85a2-c25da28b1beb","system_id":"levelo_inurba_marseille","lat":43.30952,"lon":5.39047,"is_reserved":false,"is_disabled":false,"rental_uris":{"android":"levelo://app?vid=72954d1b-d8d6-443a-85a2-c25da28b1beb","ios":"levelo://app?vid=72954d1b-d8d6-443a-85a2-c25da28b1beb"},"vehicle_type_id":"4","last_reported":1758013876,"current_range_meters":5600,"station_id":"ce4bgup2rcd13ifvqco0","pricing_plan_id":"cebpf4jnsgd1na2vs0mg"},{"bike_id":"aa91dd1f-0396-4a43-aa36-e3a577181865","system_id":"levelo_inurba_marseille","lat":43.286735,"lon":5.386801,"is_reserved":false,"is_disabled":false,"rental_uris":{"android":"levelo://app?vid=aa91dd1f-0396-4a43-aa36-e3a577181865","ios":"levelo://app?vid=aa91dd1f-0396-4a43-aa36-e3a577181865"},"vehicle_type_id":"4","last_reported":1758013876,"current_range_meters":5600,"station_id":"","pricing_plan_id":"cebpf4jnsgd1na2vs0mg"},{"bike_id":"c0f056ad-dcba-4a76-879f-7ecd01a888e6","system_id":"levelo_inurba_marseille","lat":43.29039,"lon":5.39938,"is_reserved":false,"is_disabled":false,"rental_uris":{"android":"levelo://app?vid=c0f056ad-dcba-4a76-879f-7ecd01a888e6","ios":"levelo://app?vid=c0f056ad-dcba-4a76-879f-7ecd01a888e6"},"vehicle_type_id":"4","last_reported":1758013876,"current_range_meters":5600,"station_id":"ce4bh392rcd13ifvqdm0","pricing_plan_id":"cebpf4jnsgd1na2vs0mg"},{"bike_id":"dd32f779-e928-424d-999f-b730cf475fa7","system_id":"levelo_inurba_marseille","lat":43.22399,"lon":5.34657,"is_reserved":false,"is_disabled":false,"rental_uris":{"android":"levelo://app?vid=dd32f779-e928-424d-999f-b730cf475fa7","ios":"levelo://app?vid=dd32f779-e928-424d-999f-b730cf475fa7"},"vehicle_type_id":"4","last_reported":1758013876,"current_range_meters":6400,"station_id":"","pricing_plan_id":"cebpf4jnsgd1na2vs0mg"},{"bike_id":"09da6d69-f915-4f89-bbca-8e3909267096","system_id":"levelo_inurba_marseille","lat":43.29781,"lon":5.38114,"is_reserved":false,"is_disabled":false,"rental_uris":{"android":"levelo://app?vid=09da6d69-f915-4f89-bbca-8e3909267096","ios":"levelo://app?vid=09da6d69-f915-4f89-bbca-8e3909267096"},"vehicle_type_id":"4","last_reported":1758013876,"current_range_meters":6400,"station_id":"ce4bgip2rcd13ifvqbb0","pricing_plan_id":"cebpf4jnsgd1na2vs0mg"},{"bike_id":"337984be-6b49-4c11-94ae-6aa515cdd390","system_id":"levelo_inurba_marseille","lat":43.31203,"lon":5.36823,"is_reserved":false,"is_disabled":false,"rental_uris":{"android":"levelo://app?vid=337984be-6b49-4c11-94ae-6aa515cdd390","ios":"levelo://app?vid=337984be-6b49-4c11-94ae-6aa515cdd390"},"vehicle_type_id":"4","last_reported":1758013876,"current_range_meters":6400,"station_id":"ce4bgl92rcd13ifvqbq0","pricing_plan_id":"cebpf4jnsgd1na2vs0mg"},{"bike_id":"e5d3663b-6d3b-4f05-8553-f934f9c632a9","system_id":"levelo_inurba_marseille","lat":43.28713,"lon":5.37947,"is_reserved":false,"is_disabled":false,"rental_uris":{"android":"levelo://app?vid=e5d3663b-6d3b-4f05-8553-f934f9c632a9","ios":"levelo://app?vid=e5d3663b-6d3b-4f05-8553-f934f9c632a9"},"vehicle_type_id":"4","last_reported":1758013876,"current_range_meters":6400,"station_id":"ce4bh9p2rcd13ifvqec0","pricing_plan_id":"cebpf4jnsgd1na2vs0mg"},{"bike_id":"0589168a-e350-4bb0-ab6e-56c1c7021f1c","system_id":"levelo_inurba_marseille","lat":43.24172,"lon":5.36383,"is_reserved":false,"is_disabled":false,"rental_uris":{"android":"levelo://app?vid=0589168a-e350-4bb0-ab6e-56c1c7021f1c","ios":"levelo://app?vid=0589168a-e350-4bb0-ab6e-56c1c7021f1c"},"vehicle_type_id":"4","last_reported":1758013876,"current_range_meters":6400,"station_id":"cpo36qri1sfpv3e86is0","pricing_plan_id":"cebpf4jnsgd1na2vs0mg"},{"bike_id":"5821873a-b673-4119-b429-af9f66fdb533","system_id":"levelo_inurba_marseille","lat":43.27487,"lon":5.4246,"is_reserved":false,"is_disabled":false,"rental_uris":{"android":"levelo://app?vid=5821873a-b673-4119-b429-af9f66fdb533","ios":"levelo://app?vid=5821873a-b673-4119-b429-af9f66fdb533"},"vehicle_type_id":"4","last_reported":1758013876,"current_range_meters":6800,"station_id":"ce4bhn92rcd13ifvqgrg","pricing_plan_id":"cebpf4jnsgd1na2vs0mg"},{"bike_id":"cbe7e003-0b84-462d-9869-5f1ffd170daf","system_id":"levelo_inurba_marseille","lat":43.29172,"lon":5.37144,"is_reserved":false,"is_disabled":false,"rental_uris":{"android":"levelo://app?vid=cbe7e003-0b84-462d-9869-5f1ffd170daf","ios":"levelo://app?vid=cbe7e003-0b84-462d-9869-5f1ffd170daf"},"vehicle_type_id":"4","last_reported":1758013876,"current_range_meters":6800,"station_id":"ce4bha92rcd13ifvqeh0","pricing_plan_id":"cebpf4jnsgd1na2vs0mg"},{"bike_id":"12d09ce9-4ba9-4afa-b904-3e7dbc5885cd","system_id":"levelo_inurba_marseille","lat":43.26956,"lon":5.3864,"is_reserved":false,"is_disabled":false,"rental_uris":{"android":"levelo://app?vid=12d09ce9-4ba9-4afa-b904-3e7dbc5885cd","ios":"levelo://app?vid=12d09ce9-4ba9-4afa-b904-3e7dbc5885cd"},"vehicle_type_id":"4","last_reported":1758013876,"current_range_meters":6800,"station_id":"ce4bhh92rcd13ifvqfh0","pricing_plan_id":"cebpf4jnsgd1na2vs0mg"},{"bike_id":"163b7f00-73bf-42b8-b89b-a65f635bebbf","system_id":"levelo_inurba_marseille","lat":43.31338,"lon":5.36731,"is_reserved":false,"is_disabled":false,"rental_uris":{"android":"levelo://app?vid=163b7f00-73bf-42b8-b89b-a65f635bebbf","ios":"levelo://app?vid=163b7f00-73bf-42b8-b89b-a65f635bebbf"},"vehicle_type_id":"4","last_reported":1758013876,"current_range_meters":6800,"station_id":"ce4bgr92rcd13ifvqc6g","pricing_plan_id":"cebpf4jnsgd1na2vs0mg"},{"bike_id":"c125277e-cf9c-4a53-bf39-d8e378c5623a","system_id":"levelo_inurba_marseille","lat":43.30147,"lon":5.38072,"is_reserved":false,"is_disabled":false,"rental_uris":{"android":"levelo://app?vid=c125277e-cf9c-4a53-bf39-d8e378c5623a","ios":"levelo://app?vid=c125277e-cf9c-4a53-bf39-d8e378c5623a"},"vehicle_type_id":"4","last_reported":1758013876,"current_range_meters":6800,"station_id":"ce4bgjp2rcd13ifvqbh0","pricing_plan_id":"cebpf4jnsgd1na2vs0mg"},{"bike_id":"63b6198c-0c56-45c4-9aa8-083c3b20df3f","system_id":"levelo_inurba_marseille","lat":43.3361,"lon":5.41025,"is_reserved":false,"is_disabled":false,"rental_uris":{"android":"levelo://app?vid=63b6198c-0c56-45c4-9aa8-083c3b20df3f","ios":"levelo://app?vid=63b6198c-0c56-45c4-9aa8-083c3b20df3f"},"vehicle_type_id":"4","last_reported":1758013876,"current_range_meters":6800,"station_id":"ce4bhqh2rcd13ifvqhmg","pricing_plan_id":"cebpf4jnsgd1na2vs0mg"},{"bike_id":"d86661af-ef9e-4ffe-8e85-024176f6aa44","system_id":"levelo_inurba_marseille","lat":43.32462,"lon":5.36574,"is_reserved":false,"is_disabled":false,"rental_uris":{"android":"levelo://app?vid=d86661af-ef9e-4ffe-8e85-024176f6aa44","ios":"levelo://app?vid=d86661af-ef9e-4ffe-8e85-024176f6aa44"},"vehicle_type_id":"4","last_reported":1758013876,"current_range_meters":7200,"station_id":"ce4bhs12rcd13ifvqhvg","pricing_plan_id":"cebpf4jnsgd1na2vs0mg"},{"bike_id":"03b7a8a1-453f-46ab-9165-dfd8c4b2032d","system_id":"levelo_inurba_marseille","lat":43.30274,"lon":5.37701,"is_reserved":false,"is_disabled":false,"rental_uris":{"android":"levelo://app?vid=03b7a8a1-453f-46ab-9165-dfd8c4b2032d","ios":"levelo://app?vid=03b7a8a1-453f-46ab-9165-dfd8c4b2032d"},"vehicle_type_id":"4","last_reported":1758013876,"current_range_meters":4800,"station_id":"ce4bguh2rcd13ifvqcj0","pricing_plan_id":"cebpf4jnsgd1na2vs0mg"},{"bike_id":"c8ebc05b-3866-4d13-bef2-bb091998e1a6","system_id":"levelo_inurba_marseille","lat":43.28266,"lon":5.35061,"is_reserved":false,"is_disabled":false,"rental_uris":{"android":"levelo://app?vid=c8ebc05b-3866-4d13-bef2-bb091998e1a6","ios":"levelo://app?vid=c8ebc05b-3866-4d13-bef2-bb091998e1a6"},"vehicle_type_id":"4","last_reported":1758013876,"current_range_meters":7200,"station_id":"ce4bhbp2rcd13ifvqerg","pricing_plan_id":"cebpf4jnsgd1na2vs0mg"},{"bike_id":"f286a367-0681-4354-9d8e-c12c2b5acdfe","system_id":"levelo_inurba_marseille","lat":43.24383,"lon":5.37062,"is_reserved":false,"is_disabled":false,"rental_uris":{"android":"levelo://app?vid=f286a367-0681-4354-9d8e-c12c2b5acdfe","ios":"levelo://app?vid=f286a367-0681-4354-9d8e-c12c2b5acdfe"},"vehicle_type_id":"4","last_reported":1758013876,"current_range_meters":7200,"station_id":"ce4bhhh2rcd13ifvqfk0","pricing_plan_id":"cebpf4jnsgd1na2vs0mg"},{"bike_id":"e55ae905-9410-44da-8e6c-dadab4fedc17","system_id":"levelo_inurba_marseille","lat":43.225334,"lon":5.348372,"is_reserved":false,"is_disabled":false,"rental_uris":{"android":"levelo://app?vid=e55ae905-9410-44da-8e6c-dadab4fedc17","ios":"levelo://app?vid=e55ae905-9410-44da-8e6c-dadab4fedc17"},"vehicle_type_id":"4","last_reported":1758013876,"current_range_meters":7200,"station_id":"","pricing_plan_id":"cebpf4jnsgd1na2vs0mg"},{"bike_id":"f7aa9a31-787b-49c8-ba12-3795acca0801","system_id":"levelo_inurba_marseille","lat":43.30547,"lon":5.36541,"is_reserved":false,"is_disabled":false,"rental_uris":{"android":"levelo://app?vid=f7aa9a31-787b-49c8-ba12-3795acca0801","ios":"levelo://app?vid=f7aa9a31-787b-49c8-ba12-3795acca0801"},"vehicle_type_id":"4","last_reported":1758013876,"current_range_meters":7200,"station_id":"ce4bgs12rcd13ifvqcag","pricing_plan_id":"cebpf4jnsgd1na2vs0mg"},{"bike_id":"27bc6b0c-c22e-494b-ab92-4e390584592b","system_id":"levelo_inurba_marseille","lat":43.33752,"lon":5.3746,"is_reserved":false,"is_disabled":false,"rental_uris":{"android":"levelo://app?vid=27bc6b0c-c22e-494b-ab92-4e390584592b","ios":"levelo://app?vid=27bc6b0c-c22e-494b-ab92-4e390584592b"},"vehicle_type_id":"4","last_reported":1758013876,"current_range_meters":7200,"station_id":"","pricing_plan_id":"cebpf4jnsgd1na2vs0mg"},{"bike_id":"8e72503b-4fb7-440e-b51e-e45b1cddfd4c","system_id":"levelo_inurba_marseille","lat":43.265653,"lon":5.390267,"is_reserved":false,"is_disabled":true,"rental_uris":{"android":"levelo://app?vid=8e72503b-4fb7-440e-b51e-e45b1cddfd4c","ios":"levelo://app?vid=8e72503b-4fb7-440e-b51e-e45b1cddfd4c"},"vehicle_type_id":"4","last_reported":1758013876,"current_range_meters":8000,"station_id":"ce4bhe12rcd13ifvqf30","pricing_plan_id":"cebpf4jnsgd1na2vs0mg"},{"bike_id":"45c61ecc-4e2d-42e1-82e1-9eeaf7233cd5","system_id":"levelo_inurba_marseille","lat":43.3236,"lon":5.36741,"is_reserved":false,"is_disabled":false,"rental_uris":{"android":"levelo://app?vid=45c61ecc-4e2d-42e1-82e1-9eeaf7233cd5","ios":"levelo://app?vid=45c61ecc-4e2d-42e1-82e1-9eeaf7233cd5"},"vehicle_type_id":"4","last_reported":1758013876,"current_range_meters":8000,"station_id":"ce4bhsh2rcd13ifvqi2g","pricing_plan_id":"cebpf4jnsgd1na2vs0mg"},{"bike_id":"68352e2e-e7bc-4abd-9448-63b61994e13c","system_id":"levelo_inurba_marseille","lat":43.33608,"lon":5.41016,"is_reserved":false,"is_disabled":false,"rental_uris":{"android":"levelo://app?vid=68352e2e-e7bc-4abd-9448-63b61994e13c","ios":"levelo://app?vid=68352e2e-e7bc-4abd-9448-63b61994e13c"},"vehicle_type_id":"4","last_reported":1758013876,"current_range_meters":8000,"station_id":"ce4bhqh2rcd13ifvqhmg","pricing_plan_id":"cebpf4jnsgd1na2vs0mg"},{"bike_id":"3497e7a2-d1ac-45c8-b73f-5afe1dfc9c24","system_id":"levelo_inurba_marseille","lat":43.28604,"lon":5.37063,"is_reserved":false,"is_disabled":false,"rental_uris":{"android":"levelo://app?vid=3497e7a2-d1ac-45c8-b73f-5afe1dfc9c24","ios":"levelo://app?vid=3497e7a2-d1ac-45c8-b73f-5afe1dfc9c24"},"vehicle_type_id":"4","last_reported":1758013876,"current_range_meters":8000,"station_id":"ce4bht12rcd13ifvqi60","pricing_plan_id":"cebpf4jnsgd1na2vs0mg"},{"bike_id":"b49a5ec3-3e6b-47ce-b8a2-b5fe4a4c5a7c","system_id":"levelo_inurba_marseille","lat":43.30935,"lon":5.40144,"is_reserved":false,"is_disabled":false,"rental_uris":{"android":"levelo://app?vid=b49a5ec3-3e6b-47ce-b8a2-b5fe4a4c5a7c","ios":"levelo://app?vid=b49a5ec3-3e6b-47ce-b8a2-b5fe4a4c5a7c"},"vehicle_type_id":"4","last_reported":1758013876,"current_range_meters":8000,"station_id":"ce4bgvp2rcd13ifvqct0","pricing_plan_id":"cebpf4jnsgd1na2vs0mg"},{"bike_id":"c6687fa4-366c-4273-a731-aeb0854ebf90","system_id":"levelo_inurba_marseille","lat":43.28272,"lon":5.35067,"is_reserved":false,"is_disabled":true,"rental_uris":{"android":"levelo://app?vid=c6687fa4-366c-4273-a731-aeb0854ebf90","ios":"levelo://app?vid=c6687fa4-366c-4273-a731-aeb0854ebf90"},"vehicle_type_id":"4","last_reported":1758013876,"current_range_meters":8000,"station_id":"ce4bhbp2rcd13ifvqerg","pricing_plan_id":"cebpf4jnsgd1na2vs0mg"},{"bike_id":"1e9d5d63-a857-43e2-8083-9af61ad725ab","system_id":"levelo_inurba_marseille","lat":43.296304,"lon":5.377149,"is_reserved":false,"is_disabled":false,"rental_uris":{"android":"levelo://app?vid=1e9d5d63-a857-43e2-8083-9af61ad725ab","ios":"levelo://app?vid=1e9d5d63-a857-43e2-8083-9af61ad725ab"},"vehicle_type_id":"4","last_reported":1758013876,"current_range_meters":8000,"station_id":"ce4bgi92rcd13ifvqb90","pricing_plan_id":"cebpf4jnsgd1na2vs0mg"},{"bike_id":"57127154-7e15-4346-89ed-ab9d76ef9c2c","system_id":"levelo_inurba_marseille","lat":43.28838,"lon":5.36326,"is_reserved":false,"is_disabled":false,"rental_uris":{"android":"levelo://app?vid=57127154-7e15-4346-89ed-ab9d76ef9c2c","ios":"levelo://app?vid=57127154-7e15-4346-89ed-ab9d76ef9c2c"},"vehicle_type_id":"4","last_reported":1758013876,"current_range_meters":8000,"station_id":"","pricing_plan_id":"cebpf4jnsgd1na2vs0mg"},{"bike_id":"0cc43392-0623-46b4-b28b-f93569f72d61","system_id":"levelo_inurba_marseille","lat":43.26051,"lon":5.42018,"is_reserved":false,"is_disabled":false,"rental_uris":{"android":"levelo://app?vid=0cc43392-0623-46b4-b28b-f93569f72d61","ios":"levelo://app?vid=0cc43392-0623-46b4-b28b-f93569f72d61"},"vehicle_type_id":"4","last_reported":1758013876,"current_range_meters":8400,"station_id":"","pricing_plan_id":"cebpf4jnsgd1na2vs0mg"},{"bike_id":"a4899312-2b15-4864-9490-57373e46a89e","system_id":"levelo_inurba_marseille","lat":43.2992,"lon":5.37463,"is_reserved":false,"is_disabled":false,"rental_uris":{"android":"levelo://app?vid=a4899312-2b15-4864-9490-57373e46a89e","ios":"levelo://app?vid=a4899312-2b15-4864-9490-57373e46a89e"},"vehicle_type_id":"4","last_reported":1758013876,"current_range_meters":8400,"station_id":"ce4bgjh2rcd13ifvqbg0","pricing_plan_id":"cebpf4jnsgd1na2vs0mg"},{"bike_id":"e7a329bd-ed66-4ac7-aaba-63f2810ddd86","system_id":"levelo_inurba_marseille","lat":43.31859,"lon":5.37206,"is_reserved":false,"is_disabled":true,"rental_uris":{"android":"levelo://app?vid=e7a329bd-ed66-4ac7-aaba-63f2810ddd86","ios":"levelo://app?vid=e7a329bd-ed66-4ac7-aaba-63f2810ddd86"},"vehicle_type_id":"4","last_reported":1758013876,"current_range_meters":8400,"station_id":"","pricing_plan_id":"cebpf4jnsgd1na2vs0mg"},{"bike_id":"10b8538c-9fe1-4873-bc11-f56b18c25ed5","system_id":"levelo_inurba_marseille","lat":43.30281,"lon":5.37703,"is_reserved":false,"is_disabled":false,"rental_uris":{"android":"levelo://app?vid=10b8538c-9fe1-4873-bc11-f56b18c25ed5","ios":"levelo://app?vid=10b8538c-9fe1-4873-bc11-f56b18c25ed5"},"vehicle_type_id":"4","last_reported":1758013876,"current_range_meters":8400,"station_id":"ce4bguh2rcd13ifvqcj0","pricing_plan_id":"cebpf4jnsgd1na2vs0mg"},{"bike_id":"f386bbc3-c41e-4e8b-860b-88f9c39b2fd5","system_id":"levelo_inurba_marseille","lat":43.29906,"lon":5.38158,"is_reserved":false,"is_disabled":false,"rental_uris":{"android":"levelo://app?vid=f386bbc3-c41e-4e8b-860b-88f9c39b2fd5","ios":"levelo://app?vid=f386bbc3-c41e-4e8b-860b-88f9c39b2fd5"},"vehicle_type_id":"4","last_reported":1758013876,"current_range_meters":8400,"station_id":"ce4bgj12rcd13ifvqbc0","pricing_plan_id":"cebpf4jnsgd1na2vs0mg"},{"bike_id":"d16d25b0-e15e-472f-9b86-3b8202686d4e","system_id":"levelo_inurba_marseille","lat":43.29001,"lon":5.35612,"is_reserved":false,"is_disabled":false,"rental_uris":{"android":"levelo://app?vid=d16d25b0-e15e-472f-9b86-3b8202686d4e","ios":"levelo://app?vid=d16d25b0-e15e-472f-9b86-3b8202686d4e"},"vehicle_type_id":"4","last_reported":1758013876,"current_range_meters":8400,"station_id":"ce4bhb92rcd13ifvqen0","pricing_plan_id":"cebpf4jnsgd1na2vs0mg"},{"bike_id":"ff746e79-bcbf-4a7f-9ba7-cfb455f7c22a","system_id":"levelo_inurba_marseille","lat":43.29297,"lon":5.37462,"is_reserved":false,"is_disabled":false,"rental_uris":{"android":"levelo://app?vid=ff746e79-bcbf-4a7f-9ba7-cfb455f7c22a","ios":"levelo://app?vid=ff746e79-bcbf-4a7f-9ba7-cfb455f7c22a"},"vehicle_type_id":"4","last_reported":1758013876,"current_range_meters":8800,"station_id":"ce4bgi12rcd13ifvqb70","pricing_plan_id":"cebpf4jnsgd1na2vs0mg"},{"bike_id":"f7825ce6-de89-45bf-831f-3599d0d91c3c","system_id":"levelo_inurba_marseille","lat":43.306925,"lon":5.368046,"is_reserved":false,"is_disabled":false,"rental_uris":{"android":"levelo://app?vid=f7825ce6-de89-45bf-831f-3599d0d91c3c","ios":"levelo://app?vid=f7825ce6-de89-45bf-831f-3599d0d91c3c"},"vehicle_type_id":"4","last_reported":1758013876,"current_range_meters":8800,"station_id":"","pricing_plan_id":"cebpf4jnsgd1na2vs0mg"},{"bike_id":"a68801e3-2e78-4b82-857d-90d6f80aa1e7","system_id":"levelo_inurba_marseille","lat":43.30926,"lon":5.40156,"is_reserved":false,"is_disabled":false,"rental_uris":{"android":"levelo://app?vid=a68801e3-2e78-4b82-857d-90d6f80aa1e7","ios":"levelo://app?vid=a68801e3-2e78-4b82-857d-90d6f80aa1e7"},"vehicle_type_id":"4","last_reported":1758013876,"current_range_meters":8800,"station_id":"ce4bgvp2rcd13ifvqct0","pricing_plan_id":"cebpf4jnsgd1na2vs0mg"},{"bike_id":"505ff1bb-e7cc-4170-aebf-dceac12b8f03","system_id":"levelo_inurba_marseille","lat":43.29525,"lon":5.38547,"is_reserved":false,"is_disabled":false,"rental_uris":{"android":"levelo://app?vid=505ff1bb-e7cc-4170-aebf-dceac12b8f03","ios":"levelo://app?vid=505ff1bb-e7cc-4170-aebf-dceac12b8f03"},"vehicle_type_id":"4","last_reported":1758013876,"current_range_meters":8800,"station_id":"ce4bgih2rcd13ifvqba0","pricing_plan_id":"cebpf4jnsgd1na2vs0mg"},{"bike_id":"322c1f5a-85db-4ef6-bcd4-1b5c417c8ee0","system_id":"levelo_inurba_marseille","lat":43.3377,"lon":5.37488,"is_reserved":false,"is_disabled":false,"rental_uris":{"android":"levelo://app?vid=322c1f5a-85db-4ef6-bcd4-1b5c417c8ee0","ios":"levelo://app?vid=322c1f5a-85db-4ef6-bcd4-1b5c417c8ee0"},"vehicle_type_id":"4","last_reported":1758013876,"current_range_meters":9200,"station_id":"","pricing_plan_id":"cebpf4jnsgd1na2vs0mg"},{"bike_id":"a9836c02-80b0-4d47-85e0-6a9b9f66b4e3","system_id":"levelo_inurba_marseille","lat":43.30427,"lon":5.38893,"is_reserved":false,"is_disabled":false,"rental_uris":{"android":"levelo://app?vid=a9836c02-80b0-4d47-85e0-6a9b9f66b4e3","ios":"levelo://app?vid=a9836c02-80b0-4d47-85e0-6a9b9f66b4e3"},"vehicle_type_id":"4","last_reported":1758013876,"current_range_meters":9200,"station_id":"ce4bgk12rcd13ifvqbi0","pricing_plan_id":"cebpf4jnsgd1na2vs0mg"},{"bike_id":"3ff17655-127a-4741-8f93-90b7768c8078","system_id":"levelo_inurba_marseille","lat":43.25105,"lon":5.40326,"is_reserved":false,"is_disabled":false,"rental_uris":{"android":"levelo://app?vid=3ff17655-127a-4741-8f93-90b7768c8078","ios":"levelo://app?vid=3ff17655-127a-4741-8f93-90b7768c8078"},"vehicle_type_id":"4","last_reported":1758013876,"current_range_meters":9600,"station_id":"ce4bhlh2rcd13ifvqgig","pricing_plan_id":"cebpf4jnsgd1na2vs0mg"},{"bike_id":"6019f712-e505-4ba8-9ef2-7c4515dc477e","system_id":"levelo_inurba_marseille","lat":43.31222,"lon":5.36905,"is_reserved":false,"is_disabled":false,"rental_uris":{"android":"levelo://app?vid=6019f712-e505-4ba8-9ef2-7c4515dc477e","ios":"levelo://app?vid=6019f712-e505-4ba8-9ef2-7c4515dc477e"},"vehicle_type_id":"4","last_reported":1758013876,"current_range_meters":9600,"station_id":"ce4bgl92rcd13ifvqbq0","pricing_plan_id":"cebpf4jnsgd1na2vs0mg"},{"bike_id":"34539d66-9bce-4d1c-8b94-78e2e11c6e1a","system_id":"levelo_inurba_marseille","lat":43.28861,"lon":5.42508,"is_reserved":false,"is_disabled":false,"rental_uris":{"android":"levelo://app?vid=34539d66-9bce-4d1c-8b94-78e2e11c6e1a","ios":"levelo://app?vid=34539d66-9bce-4d1c-8b94-78e2e11c6e1a"},"vehicle_type_id":"4","last_reported":1758013876,"current_range_meters":9600,"station_id":"","pricing_plan_id":"cebpf4jnsgd1na2vs0mg"},{"bike_id":"4b3d29e4-4d48-4f95-a652-be16bfec385d","system_id":"levelo_inurba_marseille","lat":43.29901,"lon":5.37634,"is_reserved":false,"is_disabled":false,"rental_uris":{"android":"levelo://app?vid=4b3d29e4-4d48-4f95-a652-be16bfec385d","ios":"levelo://app?vid=4b3d29e4-4d48-4f95-a652-be16bfec385d"},"vehicle_type_id":"4","last_reported":1758013876,"current_range_meters":9600,"station_id":"","pricing_plan_id":"cebpf4jnsgd1na2vs0mg"},{"bike_id":"d73ebff0-d957-41dc-a638-29b88edc4926","system_id":"levelo_inurba_marseille","lat":43.22557,"lon":5.41625,"is_reserved":false,"is_disabled":false,"rental_uris":{"android":"levelo://app?vid=d73ebff0-d957-41dc-a638-29b88edc4926","ios":"levelo://app?vid=d73ebff0-d957-41dc-a638-29b88edc4926"},"vehicle_type_id":"4","last_reported":1758013876,"current_range_meters":10000,"station_id":"st_d2o4gvlbi1j2169b742g","pricing_plan_id":"cebpf4jnsgd1na2vs0mg"},{"bike_id":"a155e67d-bec0-4326-ae57-c035ef5e1c81","system_id":"levelo_inurba_marseille","lat":43.29894,"lon":5.43683,"is_reserved":false,"is_disabled":false,"rental_uris":{"android":"levelo://app?vid=a155e67d-bec0-4326-ae57-c035ef5e1c81","ios":"levelo://app?vid=a155e67d-bec0-4326-ae57-c035ef5e1c81"},"vehicle_type_id":"4","last_reported":1758013876,"current_range_meters":10000,"station_id":"ce4bhpp2rcd13ifvqhfg","pricing_plan_id":"cebpf4jnsgd1na2vs0mg"},{"bike_id":"4e1abc3e-8304-48cb-9a82-71a6f234187a","system_id":"levelo_inurba_marseille","lat":43.27812,"lon":5.40712,"is_reserved":false,"is_disabled":false,"rental_uris":{"android":"levelo://app?vid=4e1abc3e-8304-48cb-9a82-71a6f234187a","ios":"levelo://app?vid=4e1abc3e-8304-48cb-9a82-71a6f234187a"},"vehicle_type_id":"4","last_reported":1758013876,"current_range_meters":10000,"station_id":"ce4bhnh2rcd13ifvqgtg","pricing_plan_id":"cebpf4jnsgd1na2vs0mg"},{"bike_id":"336c74d9-d9c9-46d7-a94b-134b36ad023a","system_id":"levelo_inurba_marseille","lat":43.29849,"lon":5.37848,"is_reserved":false,"is_disabled":false,"rental_uris":{"android":"levelo://app?vid=336c74d9-d9c9-46d7-a94b-134b36ad023a","ios":"levelo://app?vid=336c74d9-d9c9-46d7-a94b-134b36ad023a"},"vehicle_type_id":"4","last_reported":1758013876,"current_range_meters":10000,"station_id":"","pricing_plan_id":"cebpf4jnsgd1na2vs0mg"},{"bike_id":"17426599-c344-4f42-a0a6-f811c5a00423","system_id":"levelo_inurba_marseille","lat":43.30558,"lon":5.36538,"is_reserved":false,"is_disabled":false,"rental_uris":{"android":"levelo://app?vid=17426599-c344-4f42-a0a6-f811c5a00423","ios":"levelo://app?vid=17426599-c344-4f42-a0a6-f811c5a00423"},"vehicle_type_id":"4","last_reported":1758013876,"current_range_meters":10000,"station_id":"ce4bgs12rcd13ifvqcag","pricing_plan_id":"cebpf4jnsgd1na2vs0mg"},{"bike_id":"7ec42eb3-d32c-4c59-8988-5975f1b64d53","system_id":"levelo_inurba_marseille","lat":43.29914,"lon":5.37479,"is_reserved":false,"is_disabled":false,"rental_uris":{"android":"levelo://app?vid=7ec42eb3-d32c-4c59-8988-5975f1b64d53","ios":"levelo://app?vid=7ec42eb3-d32c-4c59-8988-5975f1b64d53"},"vehicle_type_id":"4","last_reported":1758013876,"current_range_meters":11200,"station_id":"ce4bgjh2rcd13ifvqbg0","pricing_plan_id":"cebpf4jnsgd1na2vs0mg"},{"bike_id":"7f789b9d-2b92-476e-9d08-49249afcf126","system_id":"levelo_inurba_marseille","lat":43.30897,"lon":5.36839,"is_reserved":false,"is_disabled":false,"rental_uris":{"android":"levelo://app?vid=7f789b9d-2b92-476e-9d08-49249afcf126","ios":"levelo://app?vid=7f789b9d-2b92-476e-9d08-49249afcf126"},"vehicle_type_id":"4","last_reported":1758013876,"current_range_meters":10800,"station_id":"ce4bgn92rcd13ifvqbvg","pricing_plan_id":"cebpf4jnsgd1na2vs0mg"},{"bike_id":"cd02c080-8936-4e2b-af4d-301cbe8eb8f1","system_id":"levelo_inurba_marseille","lat":43.30046,"lon":5.40389,"is_reserved":false,"is_disabled":false,"rental_uris":{"android":"levelo://app?vid=cd02c080-8936-4e2b-af4d-301cbe8eb8f1","ios":"levelo://app?vid=cd02c080-8936-4e2b-af4d-301cbe8eb8f1"},"vehicle_type_id":"4","last_reported":1758013876,"current_range_meters":10800,"station_id":"","pricing_plan_id":"cebpf4jnsgd1na2vs0mg"},{"bike_id":"a696dd6a-d6f9-47b7-a79d-789f9c273771","system_id":"levelo_inurba_marseille","lat":43.32348,"lon":5.36772,"is_reserved":false,"is_disabled":false,"rental_uris":{"android":"levelo://app?vid=a696dd6a-d6f9-47b7-a79d-789f9c273771","ios":"levelo://app?vid=a696dd6a-d6f9-47b7-a79d-789f9c273771"},"vehicle_type_id":"4","last_reported":1758013876,"current_range_meters":10800,"station_id":"ce4bhsh2rcd13ifvqi2g","pricing_plan_id":"cebpf4jnsgd1na2vs0mg"},{"bike_id":"511f6c29-3390-4042-b48e-75a4d61a54e0","system_id":"levelo_inurba_marseille","lat":43.32089,"lon":5.36631,"is_reserved":false,"is_disabled":false,"rental_uris":{"android":"levelo://app?vid=511f6c29-3390-4042-b48e-75a4d61a54e0","ios":"levelo://app?vid=511f6c29-3390-4042-b48e-75a4d61a54e0"},"vehicle_type_id":"4","last_reported":1758013876,"current_range_meters":10800,"station_id":"","pricing_plan_id":"cebpf4jnsgd1na2vs0mg"},{"bike_id":"06e7a5f7-2e75-486d-ba2a-11f48ef44577","system_id":"levelo_inurba_marseille","lat":43.24068,"lon":5.37765,"is_reserved":false,"is_disabled":false,"rental_uris":{"android":"levelo://app?vid=06e7a5f7-2e75-486d-ba2a-11f48ef44577","ios":"levelo://app?vid=06e7a5f7-2e75-486d-ba2a-11f48ef44577"},"vehicle_type_id":"4","last_reported":1758013876,"current_range_meters":10800,"station_id":"ce4bhnp2rcd13ifvqgvg","pricing_plan_id":"cebpf4jnsgd1na2vs0mg"},{"bike_id":"c07e7a2d-d8a6-4efd-8723-e965be4d1a74","system_id":"levelo_inurba_marseille","lat":43.22533,"lon":5.348367,"is_reserved":false,"is_disabled":false,"rental_uris":{"android":"levelo://app?vid=c07e7a2d-d8a6-4efd-8723-e965be4d1a74","ios":"levelo://app?vid=c07e7a2d-d8a6-4efd-8723-e965be4d1a74"},"vehicle_type_id":"4","last_reported":1758013876,"current_range_meters":10800,"station_id":"","pricing_plan_id":"cebpf4jnsgd1na2vs0mg"},{"bike_id":"6d0f4eda-5a72-45ec-a2e6-3c81384d5ac9","system_id":"levelo_inurba_marseille","lat":43.3122,"lon":5.36895,"is_reserved":false,"is_disabled":false,"rental_uris":{"android":"levelo://app?vid=6d0f4eda-5a72-45ec-a2e6-3c81384d5ac9","ios":"levelo://app?vid=6d0f4eda-5a72-45ec-a2e6-3c81384d5ac9"},"vehicle_type_id":"4","last_reported":1758013876,"current_range_meters":10000,"station_id":"ce4bgl92rcd13ifvqbq0","pricing_plan_id":"cebpf4jnsgd1na2vs0mg"},{"bike_id":"67789e55-8899-4423-b7d3-1979a0ccc4d5","system_id":"levelo_inurba_marseille","lat":43.31346,"lon":5.36713,"is_reserved":false,"is_disabled":false,"rental_uris":{"android":"levelo://app?vid=67789e55-8899-4423-b7d3-1979a0ccc4d5","ios":"levelo://app?vid=67789e55-8899-4423-b7d3-1979a0ccc4d5"},"vehicle_type_id":"4","last_reported":1758013876,"current_range_meters":10800,"station_id":"ce4bgr92rcd13ifvqc6g","pricing_plan_id":"cebpf4jnsgd1na2vs0mg"},{"bike_id":"e5c0f9fa-aa79-401b-ac6b-a846850c5345","system_id":"levelo_inurba_marseille","lat":43.27833,"lon":5.38485,"is_reserved":false,"is_disabled":false,"rental_uris":{"android":"levelo://app?vid=e5c0f9fa-aa79-401b-ac6b-a846850c5345","ios":"levelo://app?vid=e5c0f9fa-aa79-401b-ac6b-a846850c5345"},"vehicle_type_id":"4","last_reported":1758013876,"current_range_meters":10800,"station_id":"","pricing_plan_id":"cebpf4jnsgd1na2vs0mg"},{"bike_id":"94bed273-39db-456c-8361-c2445aab3472","system_id":"levelo_inurba_marseille","lat":43.26951,"lon":5.386353,"is_reserved":false,"is_disabled":false,"rental_uris":{"android":"levelo://app?vid=94bed273-39db-456c-8361-c2445aab3472","ios":"levelo://app?vid=94bed273-39db-456c-8361-c2445aab3472"},"vehicle_type_id":"4","last_reported":1758013876,"current_range_meters":10800,"station_id":"ce4bhh92rcd13ifvqfh0","pricing_plan_id":"cebpf4jnsgd1na2vs0mg"},{"bike_id":"e9bcdd16-c369-4f06-bb55-64ecf3a308d9","system_id":"levelo_inurba_marseille","lat":43.26216,"lon":5.3744,"is_reserved":false,"is_disabled":false,"rental_uris":{"android":"levelo://app?vid=e9bcdd16-c369-4f06-bb55-64ecf3a308d9","ios":"levelo://app?vid=e9bcdd16-c369-4f06-bb55-64ecf3a308d9"},"vehicle_type_id":"4","last_reported":1758013876,"current_range_meters":11200,"station_id":"ce4bhgp2rcd13ifvqfc0","pricing_plan_id":"cebpf4jnsgd1na2vs0mg"},{"bike_id":"8ef8bf7d-8a91-4724-8c2e-ddeef723e28a","system_id":"levelo_inurba_marseille","lat":43.27025,"lon":5.37933,"is_reserved":false,"is_disabled":false,"rental_uris":{"android":"levelo://app?vid=8ef8bf7d-8a91-4724-8c2e-ddeef723e28a","ios":"levelo://app?vid=8ef8bf7d-8a91-4724-8c2e-ddeef723e28a"},"vehicle_type_id":"4","last_reported":1758013876,"current_range_meters":11200,"station_id":"","pricing_plan_id":"cebpf4jnsgd1na2vs0mg"},{"bike_id":"3a656d0c-7e3a-4e91-b4e5-8336cbbe9a98","system_id":"levelo_inurba_marseille","lat":43.29196,"lon":5.39329,"is_reserved":false,"is_disabled":false,"rental_uris":{"android":"levelo://app?vid=3a656d0c-7e3a-4e91-b4e5-8336cbbe9a98","ios":"levelo://app?vid=3a656d0c-7e3a-4e91-b4e5-8336cbbe9a98"},"vehicle_type_id":"4","last_reported":1758013876,"current_range_meters":11200,"station_id":"ce4bh192rcd13ifvqdd0","pricing_plan_id":"cebpf4jnsgd1na2vs0mg"},{"bike_id":"28e0000c-aefd-4823-a247-d95f437bf510","system_id":"levelo_inurba_marseille","lat":43.32472,"lon":5.36572,"is_reserved":false,"is_disabled":false,"rental_uris":{"android":"levelo://app?vid=28e0000c-aefd-4823-a247-d95f437bf510","ios":"levelo://app?vid=28e0000c-aefd-4823-a247-d95f437bf510"},"vehicle_type_id":"4","last_reported":1758013876,"current_range_meters":11200,"station_id":"ce4bhs12rcd13ifvqhvg","pricing_plan_id":"cebpf4jnsgd1na2vs0mg"},{"bike_id":"bd1add26-46de-45c3-8c04-68bb93955ceb","system_id":"levelo_inurba_marseille","lat":43.24063,"lon":5.37765,"is_reserved":false,"is_disabled":false,"rental_uris":{"android":"levelo://app?vid=bd1add26-46de-45c3-8c04-68bb93955ceb","ios":"levelo://app?vid=bd1add26-46de-45c3-8c04-68bb93955ceb"},"vehicle_type_id":"4","last_reported":1758013876,"current_range_meters":11600,"station_id":"ce4bhnp2rcd13ifvqgvg","pricing_plan_id":"cebpf4jnsgd1na2vs0mg"},{"bike_id":"368a91ec-cb70-4067-b444-0e1d2797b583","system_id":"levelo_inurba_marseille","lat":43.28262,"lon":5.35065,"is_reserved":false,"is_disabled":false,"rental_uris":{"android":"levelo://app?vid=368a91ec-cb70-4067-b444-0e1d2797b583","ios":"levelo://app?vid=368a91ec-cb70-4067-b444-0e1d2797b583"},"vehicle_type_id":"4","last_reported":1758013876,"current_range_meters":11600,"station_id":"ce4bhbp2rcd13ifvqerg","pricing_plan_id":"cebpf4jnsgd1na2vs0mg"},{"bike_id":"02d56be7-a682-4563-9ee2-79054ee7d3d9","system_id":"levelo_inurba_marseille","lat":43.34456,"lon":5.43133,"is_reserved":false,"is_disabled":false,"rental_uris":{"android":"levelo://app?vid=02d56be7-a682-4563-9ee2-79054ee7d3d9","ios":"levelo://app?vid=02d56be7-a682-4563-9ee2-79054ee7d3d9"},"vehicle_type_id":"4","last_reported":1758013876,"current_range_meters":11600,"station_id":"","pricing_plan_id":"cebpf4jnsgd1na2vs0mg"},{"bike_id":"fe78aeae-70e6-45e5-ae11-c440070701db","system_id":"levelo_inurba_marseille","lat":43.29259,"lon":5.38437,"is_reserved":false,"is_disabled":false,"rental_uris":{"android":"levelo://app?vid=fe78aeae-70e6-45e5-ae11-c440070701db","ios":"levelo://app?vid=fe78aeae-70e6-45e5-ae11-c440070701db"},"vehicle_type_id":"4","last_reported":1758013876,"current_range_meters":11600,"station_id":"ce4bh692rcd13ifvqea0","pricing_plan_id":"cebpf4jnsgd1na2vs0mg"},{"bike_id":"42b79b58-1a65-4879-a78b-6eacbd295dec","system_id":"levelo_inurba_marseille","lat":43.30945,"lon":5.39031,"is_reserved":false,"is_disabled":false,"rental_uris":{"android":"levelo://app?vid=42b79b58-1a65-4879-a78b-6eacbd295dec","ios":"levelo://app?vid=42b79b58-1a65-4879-a78b-6eacbd295dec"},"vehicle_type_id":"4","last_reported":1758013876,"current_range_meters":11200,"station_id":"ce4bgup2rcd13ifvqco0","pricing_plan_id":"cebpf4jnsgd1na2vs0mg"},{"bike_id":"f913dc0e-6ba9-4fbf-a669-38f1bc63b486","system_id":"levelo_inurba_marseille","lat":43.29183,"lon":5.35686,"is_reserved":false,"is_disabled":false,"rental_uris":{"android":"levelo://app?vid=f913dc0e-6ba9-4fbf-a669-38f1bc63b486","ios":"levelo://app?vid=f913dc0e-6ba9-4fbf-a669-38f1bc63b486"},"vehicle_type_id":"4","last_reported":1758013876,"current_range_meters":11600,"station_id":"","pricing_plan_id":"cebpf4jnsgd1na2vs0mg"},{"bike_id":"77246e06-46b3-406d-9b69-b9b3e2cbdee1","system_id":"levelo_inurba_marseille","lat":43.28064,"lon":5.38664,"is_reserved":false,"is_disabled":false,"rental_uris":{"android":"levelo://app?vid=77246e06-46b3-406d-9b69-b9b3e2cbdee1","ios":"levelo://app?vid=77246e06-46b3-406d-9b69-b9b3e2cbdee1"},"vehicle_type_id":"4","last_reported":1758013876,"current_range_meters":11600,"station_id":"","pricing_plan_id":"cebpf4jnsgd1na2vs0mg"},{"bike_id":"e824d254-16a6-4ae4-983a-05af083f4c81","system_id":"levelo_inurba_marseille","lat":43.21753,"lon":5.34607,"is_reserved":false,"is_disabled":false,"rental_uris":{"android":"levelo://app?vid=e824d254-16a6-4ae4-983a-05af083f4c81","ios":"levelo://app?vid=e824d254-16a6-4ae4-983a-05af083f4c81"},"vehicle_type_id":"4","last_reported":1758013876,"current_range_meters":12000,"station_id":"","pricing_plan_id":"cebpf4jnsgd1na2vs0mg"},{"bike_id":"8f7cbd63-f35f-4fc7-8ac5-f16b3274380d","system_id":"levelo_inurba_marseille","lat":43.26198,"lon":5.37438,"is_reserved":false,"is_disabled":false,"rental_uris":{"android":"levelo://app?vid=8f7cbd63-f35f-4fc7-8ac5-f16b3274380d","ios":"levelo://app?vid=8f7cbd63-f35f-4fc7-8ac5-f16b3274380d"},"vehicle_type_id":"4","last_reported":1758013876,"current_range_meters":12000,"station_id":"ce4bhgp2rcd13ifvqfc0","pricing_plan_id":"cebpf4jnsgd1na2vs0mg"},{"bike_id":"4ce7cfc4-6586-408e-b932-2654e5fc83a3","system_id":"levelo_inurba_marseille","lat":43.28265,"lon":5.35067,"is_reserved":false,"is_disabled":false,"rental_uris":{"android":"levelo://app?vid=4ce7cfc4-6586-408e-b932-2654e5fc83a3","ios":"levelo://app?vid=4ce7cfc4-6586-408e-b932-2654e5fc83a3"},"vehicle_type_id":"4","last_reported":1758013876,"current_range_meters":11600,"station_id":"ce4bhbp2rcd13ifvqerg","pricing_plan_id":"cebpf4jnsgd1na2vs0mg"},{"bike_id":"5c0b2341-c41a-4f62-9e5f-92e6a593fad9","system_id":"levelo_inurba_marseille","lat":43.33779,"lon":5.37439,"is_reserved":false,"is_disabled":false,"rental_uris":{"android":"levelo://app?vid=5c0b2341-c41a-4f62-9e5f-92e6a593fad9","ios":"levelo://app?vid=5c0b2341-c41a-4f62-9e5f-92e6a593fad9"},"vehicle_type_id":"4","last_reported":1758013876,"current_range_meters":12400,"station_id":"","pricing_plan_id":"cebpf4jnsgd1na2vs0mg"},{"bike_id":"c414e40b-713d-4a34-b182-9a8010945c09","system_id":"levelo_inurba_marseille","lat":43.31075,"lon":5.38357,"is_reserved":false,"is_disabled":false,"rental_uris":{"android":"levelo://app?vid=c414e40b-713d-4a34-b182-9a8010945c09","ios":"levelo://app?vid=c414e40b-713d-4a34-b182-9a8010945c09"},"vehicle_type_id":"4","last_reported":1758013876,"current_range_meters":12400,"station_id":"ce4bgv92rcd13ifvqcr0","pricing_plan_id":"cebpf4jnsgd1na2vs0mg"},{"bike_id":"fe9f38a3-79c8-40c2-b17b-c2687463ee3a","system_id":"levelo_inurba_marseille","lat":43.25112,"lon":5.39442,"is_reserved":false,"is_disabled":false,"rental_uris":{"android":"levelo://app?vid=fe9f38a3-79c8-40c2-b17b-c2687463ee3a","ios":"levelo://app?vid=fe9f38a3-79c8-40c2-b17b-c2687463ee3a"},"vehicle_type_id":"4","last_reported":1758013876,"current_range_meters":12400,"station_id":"","pricing_plan_id":"cebpf4jnsgd1na2vs0mg"},{"bike_id":"8da5ba39-35c6-4bf3-8f01-bbf73a1be15a","system_id":"levelo_inurba_marseille","lat":43.30901,"lon":5.3685,"is_reserved":false,"is_disabled":false,"rental_uris":{"android":"levelo://app?vid=8da5ba39-35c6-4bf3-8f01-bbf73a1be15a","ios":"levelo://app?vid=8da5ba39-35c6-4bf3-8f01-bbf73a1be15a"},"vehicle_type_id":"4","last_reported":1758013876,"current_range_meters":12400,"station_id":"ce4bgn92rcd13ifvqbvg","pricing_plan_id":"cebpf4jnsgd1na2vs0mg"},{"bike_id":"d28c30f7-d993-418e-b279-e6e75970549b","system_id":"levelo_inurba_marseille","lat":43.29664,"lon":5.37723,"is_reserved":false,"is_disabled":true,"rental_uris":{"android":"levelo://app?vid=d28c30f7-d993-418e-b279-e6e75970549b","ios":"levelo://app?vid=d28c30f7-d993-418e-b279-e6e75970549b"},"vehicle_type_id":"4","last_reported":1758013876,"current_range_meters":12400,"station_id":"ce4bgi92rcd13ifvqb90","pricing_plan_id":"cebpf4jnsgd1na2vs0mg"},{"bike_id":"08dee011-f074-4d1a-80a8-19e7796d6f1e","system_id":"levelo_inurba_marseille","lat":43.33604,"lon":5.41017,"is_reserved":false,"is_disabled":false,"rental_uris":{"android":"levelo://app?vid=08dee011-f074-4d1a-80a8-19e7796d6f1e","ios":"levelo://app?vid=08dee011-f074-4d1a-80a8-19e7796d6f1e"},"vehicle_type_id":"4","last_reported":1758013876,"current_range_meters":12400,"station_id":"ce4bhqh2rcd13ifvqhmg","pricing_plan_id":"cebpf4jnsgd1na2vs0mg"},{"bike_id":"c9b2061b-765b-4467-a927-855ef4599a01","system_id":"levelo_inurba_marseille","lat":43.27067,"lon":5.4228,"is_reserved":false,"is_disabled":false,"rental_uris":{"android":"levelo://app?vid=c9b2061b-765b-4467-a927-855ef4599a01","ios":"levelo://app?vid=c9b2061b-765b-4467-a927-855ef4599a01"},"vehicle_type_id":"4","last_reported":1758013876,"current_range_meters":12000,"station_id":"ce4bhk92rcd13ifvqgb0","pricing_plan_id":"cebpf4jnsgd1na2vs0mg"},{"bike_id":"32df7e8f-395c-4163-a3fe-ab37bd69eba4","system_id":"levelo_inurba_marseille","lat":43.28263,"lon":5.350663,"is_reserved":false,"is_disabled":false,"rental_uris":{"android":"levelo://app?vid=32df7e8f-395c-4163-a3fe-ab37bd69eba4","ios":"levelo://app?vid=32df7e8f-395c-4163-a3fe-ab37bd69eba4"},"vehicle_type_id":"4","last_reported":1758013876,"current_range_meters":12000,"station_id":"ce4bhbp2rcd13ifvqerg","pricing_plan_id":"cebpf4jnsgd1na2vs0mg"},{"bike_id":"e169d61c-cff0-4bf1-a7f2-bcee039065a7","system_id":"levelo_inurba_marseille","lat":43.24389,"lon":5.37053,"is_reserved":false,"is_disabled":false,"rental_uris":{"android":"levelo://app?vid=e169d61c-cff0-4bf1-a7f2-bcee039065a7","ios":"levelo://app?vid=e169d61c-cff0-4bf1-a7f2-bcee039065a7"},"vehicle_type_id":"4","last_reported":1758013876,"current_range_meters":12000,"station_id":"ce4bhhh2rcd13ifvqfk0","pricing_plan_id":"cebpf4jnsgd1na2vs0mg"},{"bike_id":"12845f2e-b692-4b00-a0df-d30d938dfbec","system_id":"levelo_inurba_marseille","lat":43.30948,"lon":5.39035,"is_reserved":false,"is_disabled":false,"rental_uris":{"android":"levelo://app?vid=12845f2e-b692-4b00-a0df-d30d938dfbec","ios":"levelo://app?vid=12845f2e-b692-4b00-a0df-d30d938dfbec"},"vehicle_type_id":"4","last_reported":1758013876,"current_range_meters":12800,"station_id":"ce4bgup2rcd13ifvqco0","pricing_plan_id":"cebpf4jnsgd1na2vs0mg"},{"bike_id":"0c0f9cf9-f38d-4888-927b-2906777e1c42","system_id":"levelo_inurba_marseille","lat":43.30465,"lon":5.37906,"is_reserved":false,"is_disabled":false,"rental_uris":{"android":"levelo://app?vid=0c0f9cf9-f38d-4888-927b-2906777e1c42","ios":"levelo://app?vid=0c0f9cf9-f38d-4888-927b-2906777e1c42"},"vehicle_type_id":"4","last_reported":1758013876,"current_range_meters":12400,"station_id":"ce4bgup2rcd13ifvqcn0","pricing_plan_id":"cebpf4jnsgd1na2vs0mg"},{"bike_id":"50e02510-f280-401d-afe7-3717ea328db6","system_id":"levelo_inurba_marseille","lat":43.274954,"lon":5.424563,"is_reserved":false,"is_disabled":false,"rental_uris":{"android":"levelo://app?vid=50e02510-f280-401d-afe7-3717ea328db6","ios":"levelo://app?vid=50e02510-f280-401d-afe7-3717ea328db6"},"vehicle_type_id":"4","last_reported":1758013876,"current_range_meters":12800,"station_id":"ce4bhn92rcd13ifvqgrg","pricing_plan_id":"cebpf4jnsgd1na2vs0mg"},{"bike_id":"5efa838c-da34-4ab0-a61b-66d07b34aae7","system_id":"levelo_inurba_marseille","lat":43.32353,"lon":5.3677,"is_reserved":false,"is_disabled":false,"rental_uris":{"android":"levelo://app?vid=5efa838c-da34-4ab0-a61b-66d07b34aae7","ios":"levelo://app?vid=5efa838c-da34-4ab0-a61b-66d07b34aae7"},"vehicle_type_id":"4","last_reported":1758013876,"current_range_meters":12800,"station_id":"ce4bhsh2rcd13ifvqi2g","pricing_plan_id":"cebpf4jnsgd1na2vs0mg"},{"bike_id":"f9988172-c74c-4138-9ea9-73b9a2180acf","system_id":"levelo_inurba_marseille","lat":43.31993,"lon":5.38161,"is_reserved":false,"is_disabled":false,"rental_uris":{"android":"levelo://app?vid=f9988172-c74c-4138-9ea9-73b9a2180acf","ios":"levelo://app?vid=f9988172-c74c-4138-9ea9-73b9a2180acf"},"vehicle_type_id":"4","last_reported":1758013876,"current_range_meters":13600,"station_id":"ce4bhr12rcd13ifvqhpg","pricing_plan_id":"cebpf4jnsgd1na2vs0mg"},{"bike_id":"ac432599-4ed2-49ea-90e3-e09e4f087455","system_id":"levelo_inurba_marseille","lat":43.33606,"lon":5.41039,"is_reserved":false,"is_disabled":false,"rental_uris":{"android":"levelo://app?vid=ac432599-4ed2-49ea-90e3-e09e4f087455","ios":"levelo://app?vid=ac432599-4ed2-49ea-90e3-e09e4f087455"},"vehicle_type_id":"4","last_reported":1758013876,"current_range_meters":13600,"station_id":"ce4bhqh2rcd13ifvqhmg","pricing_plan_id":"cebpf4jnsgd1na2vs0mg"},{"bike_id":"fbf67bf5-d1db-4706-93f3-0ef9ffc9189a","system_id":"levelo_inurba_marseille","lat":43.25886,"lon":5.39922,"is_reserved":false,"is_disabled":false,"rental_uris":{"android":"levelo://app?vid=fbf67bf5-d1db-4706-93f3-0ef9ffc9189a","ios":"levelo://app?vid=fbf67bf5-d1db-4706-93f3-0ef9ffc9189a"},"vehicle_type_id":"4","last_reported":1758013876,"current_range_meters":13600,"station_id":"ce4bhhp2rcd13ifvqfm0","pricing_plan_id":"cebpf4jnsgd1na2vs0mg"},{"bike_id":"9e9bf085-5ae0-4d17-b2ad-b34c176d1230","system_id":"levelo_inurba_marseille","lat":43.31489,"lon":5.37311,"is_reserved":false,"is_disabled":false,"rental_uris":{"android":"levelo://app?vid=9e9bf085-5ae0-4d17-b2ad-b34c176d1230","ios":"levelo://app?vid=9e9bf085-5ae0-4d17-b2ad-b34c176d1230"},"vehicle_type_id":"4","last_reported":1758013876,"current_range_meters":13600,"station_id":"ce4bgt12rcd13ifvqcd0","pricing_plan_id":"cebpf4jnsgd1na2vs0mg"},{"bike_id":"fbf68d05-5125-49dc-91fb-265fd58ee496","system_id":"levelo_inurba_marseille","lat":43.24062,"lon":5.37769,"is_reserved":false,"is_disabled":false,"rental_uris":{"android":"levelo://app?vid=fbf68d05-5125-49dc-91fb-265fd58ee496","ios":"levelo://app?vid=fbf68d05-5125-49dc-91fb-265fd58ee496"},"vehicle_type_id":"4","last_reported":1758013876,"current_range_meters":14000,"station_id":"ce4bhnp2rcd13ifvqgvg","pricing_plan_id":"cebpf4jnsgd1na2vs0mg"},{"bike_id":"ef138f30-dc7a-4879-9aa7-48d4ab0f561b","system_id":"levelo_inurba_marseille","lat":43.25001,"lon":5.38924,"is_reserved":false,"is_disabled":false,"rental_uris":{"android":"levelo://app?vid=ef138f30-dc7a-4879-9aa7-48d4ab0f561b","ios":"levelo://app?vid=ef138f30-dc7a-4879-9aa7-48d4ab0f561b"},"vehicle_type_id":"4","last_reported":1758013876,"current_range_meters":14000,"station_id":"ce4bhgp2rcd13ifvqfd0","pricing_plan_id":"cebpf4jnsgd1na2vs0mg"},{"bike_id":"ee4e52f1-ea63-42a2-85c2-5e7b35a47b15","system_id":"levelo_inurba_marseille","lat":43.25914,"lon":5.40912,"is_reserved":false,"is_disabled":false,"rental_uris":{"android":"levelo://app?vid=ee4e52f1-ea63-42a2-85c2-5e7b35a47b15","ios":"levelo://app?vid=ee4e52f1-ea63-42a2-85c2-5e7b35a47b15"},"vehicle_type_id":"4","last_reported":1758013876,"current_range_meters":14000,"station_id":"ce4bhm92rcd13ifvqglg","pricing_plan_id":"cebpf4jnsgd1na2vs0mg"},{"bike_id":"39ba9f03-c499-48d4-85f2-de36a1e90fff","system_id":"levelo_inurba_marseille","lat":43.251794,"lon":5.402742,"is_reserved":false,"is_disabled":false,"rental_uris":{"android":"levelo://app?vid=39ba9f03-c499-48d4-85f2-de36a1e90fff","ios":"levelo://app?vid=39ba9f03-c499-48d4-85f2-de36a1e90fff"},"vehicle_type_id":"4","last_reported":1758013876,"current_range_meters":14000,"station_id":"ce4bh492rcd13ifvqdvg","pricing_plan_id":"cebpf4jnsgd1na2vs0mg"},{"bike_id":"20b73f19-94a9-4422-8287-288687278c23","system_id":"levelo_inurba_marseille","lat":43.24077,"lon":5.37754,"is_reserved":false,"is_disabled":false,"rental_uris":{"android":"levelo://app?vid=20b73f19-94a9-4422-8287-288687278c23","ios":"levelo://app?vid=20b73f19-94a9-4422-8287-288687278c23"},"vehicle_type_id":"4","last_reported":1758013876,"current_range_meters":14400,"station_id":"ce4bhnp2rcd13ifvqgvg","pricing_plan_id":"cebpf4jnsgd1na2vs0mg"},{"bike_id":"2945913f-65f4-4da0-b719-bd57b811afd4","system_id":"levelo_inurba_marseille","lat":43.24066,"lon":5.37765,"is_reserved":false,"is_disabled":false,"rental_uris":{"android":"levelo://app?vid=2945913f-65f4-4da0-b719-bd57b811afd4","ios":"levelo://app?vid=2945913f-65f4-4da0-b719-bd57b811afd4"},"vehicle_type_id":"4","last_reported":1758013876,"current_range_meters":14400,"station_id":"ce4bhnp2rcd13ifvqgvg","pricing_plan_id":"cebpf4jnsgd1na2vs0mg"},{"bike_id":"aa26253d-0905-4257-ab25-1dd1a772a851","system_id":"levelo_inurba_marseille","lat":43.29807,"lon":5.3774,"is_reserved":false,"is_disabled":false,"rental_uris":{"android":"levelo://app?vid=aa26253d-0905-4257-ab25-1dd1a772a851","ios":"levelo://app?vid=aa26253d-0905-4257-ab25-1dd1a772a851"},"vehicle_type_id":"4","last_reported":1758013876,"current_range_meters":14400,"station_id":"","pricing_plan_id":"cebpf4jnsgd1na2vs0mg"},{"bike_id":"e468f3bf-34c7-40f5-9d71-3f471452efe0","system_id":"levelo_inurba_marseille","lat":43.28409,"lon":5.37512,"is_reserved":false,"is_disabled":false,"rental_uris":{"android":"levelo://app?vid=e468f3bf-34c7-40f5-9d71-3f471452efe0","ios":"levelo://app?vid=e468f3bf-34c7-40f5-9d71-3f471452efe0"},"vehicle_type_id":"4","last_reported":1758013876,"current_range_meters":14400,"station_id":"ce4bh412rcd13ifvqds0","pricing_plan_id":"cebpf4jnsgd1na2vs0mg"},{"bike_id":"8db6cdbc-49d8-4d9e-9a02-005d16d4aa1d","system_id":"levelo_inurba_marseille","lat":43.27489,"lon":5.42455,"is_reserved":false,"is_disabled":false,"rental_uris":{"android":"levelo://app?vid=8db6cdbc-49d8-4d9e-9a02-005d16d4aa1d","ios":"levelo://app?vid=8db6cdbc-49d8-4d9e-9a02-005d16d4aa1d"},"vehicle_type_id":"4","last_reported":1758013876,"current_range_meters":14400,"station_id":"ce4bhn92rcd13ifvqgrg","pricing_plan_id":"cebpf4jnsgd1na2vs0mg"},{"bike_id":"ca396387-9845-40ff-a100-af04e5045b92","system_id":"levelo_inurba_marseille","lat":43.29178,"lon":5.3581,"is_reserved":false,"is_disabled":false,"rental_uris":{"android":"levelo://app?vid=ca396387-9845-40ff-a100-af04e5045b92","ios":"levelo://app?vid=ca396387-9845-40ff-a100-af04e5045b92"},"vehicle_type_id":"4","last_reported":1758013876,"current_range_meters":14400,"station_id":"ce4bhb12rcd13ifvqel0","pricing_plan_id":"cebpf4jnsgd1na2vs0mg"},{"bike_id":"3b26aa0d-3679-4b4c-9b55-1096f6d08a9d","system_id":"levelo_inurba_marseille","lat":43.31287,"lon":5.39422,"is_reserved":false,"is_disabled":false,"rental_uris":{"android":"levelo://app?vid=3b26aa0d-3679-4b4c-9b55-1096f6d08a9d","ios":"levelo://app?vid=3b26aa0d-3679-4b4c-9b55-1096f6d08a9d"},"vehicle_type_id":"4","last_reported":1758013876,"current_range_meters":14400,"station_id":"","pricing_plan_id":"cebpf4jnsgd1na2vs0mg"},{"bike_id":"2ba6d751-735d-4f3f-b471-7e3f5bc5e1b1","system_id":"levelo_inurba_marseille","lat":43.32117,"lon":5.36761,"is_reserved":false,"is_disabled":false,"rental_uris":{"android":"levelo://app?vid=2ba6d751-735d-4f3f-b471-7e3f5bc5e1b1","ios":"levelo://app?vid=2ba6d751-735d-4f3f-b471-7e3f5bc5e1b1"},"vehicle_type_id":"4","last_reported":1758013876,"current_range_meters":14400,"station_id":"ce4bhrh2rcd13ifvqhug","pricing_plan_id":"cebpf4jnsgd1na2vs0mg"},{"bike_id":"fb351b77-39b9-4407-912a-c1008fce46ae","system_id":"levelo_inurba_marseille","lat":43.31341,"lon":5.36756,"is_reserved":false,"is_disabled":false,"rental_uris":{"android":"levelo://app?vid=fb351b77-39b9-4407-912a-c1008fce46ae","ios":"levelo://app?vid=fb351b77-39b9-4407-912a-c1008fce46ae"},"vehicle_type_id":"4","last_reported":1758013876,"current_range_meters":14400,"station_id":"ce4bgr92rcd13ifvqc6g","pricing_plan_id":"cebpf4jnsgd1na2vs0mg"},{"bike_id":"8b81ef7d-9b8a-491c-a40b-2c92e2fdaec0","system_id":"levelo_inurba_marseille","lat":43.30918,"lon":5.36847,"is_reserved":false,"is_disabled":false,"rental_uris":{"android":"levelo://app?vid=8b81ef7d-9b8a-491c-a40b-2c92e2fdaec0","ios":"levelo://app?vid=8b81ef7d-9b8a-491c-a40b-2c92e2fdaec0"},"vehicle_type_id":"4","last_reported":1758013876,"current_range_meters":14400,"station_id":"ce4bgn92rcd13ifvqbvg","pricing_plan_id":"cebpf4jnsgd1na2vs0mg"},{"bike_id":"66e4218a-9958-44a2-8fcb-335bf5fade68","system_id":"levelo_inurba_marseille","lat":43.23147,"lon":5.43706,"is_reserved":false,"is_disabled":false,"rental_uris":{"android":"levelo://app?vid=66e4218a-9958-44a2-8fcb-335bf5fade68","ios":"levelo://app?vid=66e4218a-9958-44a2-8fcb-335bf5fade68"},"vehicle_type_id":"4","last_reported":1758013876,"current_range_meters":14800,"station_id":"ce4bhmp2rcd13ifvqgog","pricing_plan_id":"cebpf4jnsgd1na2vs0mg"},{"bike_id":"4482840c-49cc-416d-9bb6-7b4918a7f00d","system_id":"levelo_inurba_marseille","lat":43.29265,"lon":5.38435,"is_reserved":false,"is_disabled":false,"rental_uris":{"android":"levelo://app?vid=4482840c-49cc-416d-9bb6-7b4918a7f00d","ios":"levelo://app?vid=4482840c-49cc-416d-9bb6-7b4918a7f00d"},"vehicle_type_id":"4","last_reported":1758013876,"current_range_meters":14800,"station_id":"ce4bh692rcd13ifvqea0","pricing_plan_id":"cebpf4jnsgd1na2vs0mg"},{"bike_id":"c9952190-7ee9-4ff4-86f6-f9d5b6039ffa","system_id":"levelo_inurba_marseille","lat":43.28613,"lon":5.35103,"is_reserved":false,"is_disabled":false,"rental_uris":{"android":"levelo://app?vid=c9952190-7ee9-4ff4-86f6-f9d5b6039ffa","ios":"levelo://app?vid=c9952190-7ee9-4ff4-86f6-f9d5b6039ffa"},"vehicle_type_id":"4","last_reported":1758013876,"current_range_meters":14800,"station_id":"ce4bhch2rcd13ifvqeug","pricing_plan_id":"cebpf4jnsgd1na2vs0mg"},{"bike_id":"7401f904-c7a5-4420-9a38-b32c76084c39","system_id":"levelo_inurba_marseille","lat":43.28239,"lon":5.35116,"is_reserved":false,"is_disabled":true,"rental_uris":{"android":"levelo://app?vid=7401f904-c7a5-4420-9a38-b32c76084c39","ios":"levelo://app?vid=7401f904-c7a5-4420-9a38-b32c76084c39"},"vehicle_type_id":"4","last_reported":1758013876,"current_range_meters":14800,"station_id":"","pricing_plan_id":"cebpf4jnsgd1na2vs0mg"},{"bike_id":"0049acfe-97a7-4c73-afbf-6c0e3d2fdff3","system_id":"levelo_inurba_marseille","lat":43.284876,"lon":5.385559,"is_reserved":false,"is_disabled":true,"rental_uris":{"android":"levelo://app?vid=0049acfe-97a7-4c73-afbf-6c0e3d2fdff3","ios":"levelo://app?vid=0049acfe-97a7-4c73-afbf-6c0e3d2fdff3"},"vehicle_type_id":"4","last_reported":1758013876,"current_range_meters":14800,"station_id":"ce4bh8p2rcd13ifvqeb0","pricing_plan_id":"cebpf4jnsgd1na2vs0mg"},{"bike_id":"d500502c-ca7d-4d82-907e-13560cfa06b0","system_id":"levelo_inurba_marseille","lat":43.23147,"lon":5.437,"is_reserved":false,"is_disabled":false,"rental_uris":{"android":"levelo://app?vid=d500502c-ca7d-4d82-907e-13560cfa06b0","ios":"levelo://app?vid=d500502c-ca7d-4d82-907e-13560cfa06b0"},"vehicle_type_id":"4","last_reported":1758013876,"current_range_meters":15200,"station_id":"ce4bhmp2rcd13ifvqgog","pricing_plan_id":"cebpf4jnsgd1na2vs0mg"},{"bike_id":"cac80359-5819-4447-bec5-6f9eb0c5de65","system_id":"levelo_inurba_marseille","lat":43.25714,"lon":5.41111,"is_reserved":false,"is_disabled":false,"rental_uris":{"android":"levelo://app?vid=cac80359-5819-4447-bec5-6f9eb0c5de65","ios":"levelo://app?vid=cac80359-5819-4447-bec5-6f9eb0c5de65"},"vehicle_type_id":"4","last_reported":1758013876,"current_range_meters":15200,"station_id":"ce4bhkp2rcd13ifvqgd0","pricing_plan_id":"cebpf4jnsgd1na2vs0mg"},{"bike_id":"08d1de6f-f402-4677-bdf9-ce856ab6e6de","system_id":"levelo_inurba_marseille","lat":43.26922,"lon":5.38924,"is_reserved":false,"is_disabled":false,"rental_uris":{"android":"levelo://app?vid=08d1de6f-f402-4677-bdf9-ce856ab6e6de","ios":"levelo://app?vid=08d1de6f-f402-4677-bdf9-ce856ab6e6de"},"vehicle_type_id":"4","last_reported":1758013876,"current_range_meters":14800,"station_id":"ce4bhhh2rcd13ifvqfl0","pricing_plan_id":"cebpf4jnsgd1na2vs0mg"},{"bike_id":"c5db8956-5cb9-45c3-98ae-2d5ca5a164f9","system_id":"levelo_inurba_marseille","lat":43.30544,"lon":5.367258,"is_reserved":false,"is_disabled":false,"rental_uris":{"android":"levelo://app?vid=c5db8956-5cb9-45c3-98ae-2d5ca5a164f9","ios":"levelo://app?vid=c5db8956-5cb9-45c3-98ae-2d5ca5a164f9"},"vehicle_type_id":"4","last_reported":1758013876,"current_range_meters":15200,"station_id":"ce4bgrp2rcd13ifvqc9g","pricing_plan_id":"cebpf4jnsgd1na2vs0mg"},{"bike_id":"cfb1c119-6e15-4f56-8103-7f8b82d970db","system_id":"levelo_inurba_marseille","lat":43.3046,"lon":5.37914,"is_reserved":false,"is_disabled":true,"rental_uris":{"android":"levelo://app?vid=cfb1c119-6e15-4f56-8103-7f8b82d970db","ios":"levelo://app?vid=cfb1c119-6e15-4f56-8103-7f8b82d970db"},"vehicle_type_id":"4","last_reported":1758013876,"current_range_meters":15200,"station_id":"ce4bgup2rcd13ifvqcn0","pricing_plan_id":"cebpf4jnsgd1na2vs0mg"},{"bike_id":"87819291-2b9d-4509-b586-74d84b0cfda0","system_id":"levelo_inurba_marseille","lat":43.2668,"lon":5.38271,"is_reserved":false,"is_disabled":false,"rental_uris":{"android":"levelo://app?vid=87819291-2b9d-4509-b586-74d84b0cfda0","ios":"levelo://app?vid=87819291-2b9d-4509-b586-74d84b0cfda0"},"vehicle_type_id":"4","last_reported":1758013876,"current_range_meters":15200,"station_id":"ce4bhg92rcd13ifvqf90","pricing_plan_id":"cebpf4jnsgd1na2vs0mg"},{"bike_id":"9b717e40-b361-45f0-a703-618b4dac9174","system_id":"levelo_inurba_marseille","lat":43.30135,"lon":5.37406,"is_reserved":false,"is_disabled":false,"rental_uris":{"android":"levelo://app?vid=9b717e40-b361-45f0-a703-618b4dac9174","ios":"levelo://app?vid=9b717e40-b361-45f0-a703-618b4dac9174"},"vehicle_type_id":"4","last_reported":1758013876,"current_range_meters":15200,"station_id":"ce4bgs92rcd13ifvqcc0","pricing_plan_id":"cebpf4jnsgd1na2vs0mg"},{"bike_id":"62473aca-5d60-4f9b-8d0a-e6ce0ea7fc2f","system_id":"levelo_inurba_marseille","lat":43.303436,"lon":5.366214,"is_reserved":false,"is_disabled":false,"rental_uris":{"android":"levelo://app?vid=62473aca-5d60-4f9b-8d0a-e6ce0ea7fc2f","ios":"levelo://app?vid=62473aca-5d60-4f9b-8d0a-e6ce0ea7fc2f"},"vehicle_type_id":"4","last_reported":1758013876,"current_range_meters":16000,"station_id":"","pricing_plan_id":"cebpf4jnsgd1na2vs0mg"},{"bike_id":"4e1b42c4-f46c-4c38-84a0-314288adaf06","system_id":"levelo_inurba_marseille","lat":43.279495,"lon":5.410429,"is_reserved":false,"is_disabled":true,"rental_uris":{"android":"levelo://app?vid=4e1b42c4-f46c-4c38-84a0-314288adaf06","ios":"levelo://app?vid=4e1b42c4-f46c-4c38-84a0-314288adaf06"},"vehicle_type_id":"4","last_reported":1758013876,"current_range_meters":16000,"station_id":"ce4bhnp2rcd13ifvqh0g","pricing_plan_id":"cebpf4jnsgd1na2vs0mg"},{"bike_id":"b790cddf-9efc-4e43-b7b9-8f0186b4e0ba","system_id":"levelo_inurba_marseille","lat":43.25334,"lon":5.42177,"is_reserved":false,"is_disabled":true,"rental_uris":{"android":"levelo://app?vid=b790cddf-9efc-4e43-b7b9-8f0186b4e0ba","ios":"levelo://app?vid=b790cddf-9efc-4e43-b7b9-8f0186b4e0ba"},"vehicle_type_id":"4","last_reported":1758013876,"current_range_meters":16000,"station_id":"st_d2m65c5bi1j21697t3ng","pricing_plan_id":"cebpf4jnsgd1na2vs0mg"},{"bike_id":"9221c3ec-759e-4b4e-bc20-9ca274df5f27","system_id":"levelo_inurba_marseille","lat":43.28475,"lon":5.38417,"is_reserved":false,"is_disabled":false,"rental_uris":{"android":"levelo://app?vid=9221c3ec-759e-4b4e-bc20-9ca274df5f27","ios":"levelo://app?vid=9221c3ec-759e-4b4e-bc20-9ca274df5f27"},"vehicle_type_id":"4","last_reported":1758013876,"current_range_meters":16000,"station_id":"ce4bh512rcd13ifvqe3g","pricing_plan_id":"cebpf4jnsgd1na2vs0mg"},{"bike_id":"819acd2d-1fa5-4830-afb3-48b5185776e3","system_id":"levelo_inurba_marseille","lat":43.29891,"lon":5.43655,"is_reserved":false,"is_disabled":false,"rental_uris":{"android":"levelo://app?vid=819acd2d-1fa5-4830-afb3-48b5185776e3","ios":"levelo://app?vid=819acd2d-1fa5-4830-afb3-48b5185776e3"},"vehicle_type_id":"4","last_reported":1758013876,"current_range_meters":16000,"station_id":"ce4bhpp2rcd13ifvqhfg","pricing_plan_id":"cebpf4jnsgd1na2vs0mg"},{"bike_id":"877200db-b926-4a87-9b4b-2878a3439e3c","system_id":"levelo_inurba_marseille","lat":43.25496,"lon":5.37649,"is_reserved":false,"is_disabled":false,"rental_uris":{"android":"levelo://app?vid=877200db-b926-4a87-9b4b-2878a3439e3c","ios":"levelo://app?vid=877200db-b926-4a87-9b4b-2878a3439e3c"},"vehicle_type_id":"4","last_reported":1758013876,"current_range_meters":16000,"station_id":"ce4bhh12rcd13ifvqff0","pricing_plan_id":"cebpf4jnsgd1na2vs0mg"},{"bike_id":"953e092d-4f45-4ddc-87ad-676d7df26a53","system_id":"levelo_inurba_marseille","lat":43.2749,"lon":5.42454,"is_reserved":false,"is_disabled":false,"rental_uris":{"android":"levelo://app?vid=953e092d-4f45-4ddc-87ad-676d7df26a53","ios":"levelo://app?vid=953e092d-4f45-4ddc-87ad-676d7df26a53"},"vehicle_type_id":"4","last_reported":1758013876,"current_range_meters":16000,"station_id":"ce4bhn92rcd13ifvqgrg","pricing_plan_id":"cebpf4jnsgd1na2vs0mg"},{"bike_id":"8a329730-ef35-4178-8345-4b3f1beab421","system_id":"levelo_inurba_marseille","lat":43.25312,"lon":5.40207,"is_reserved":false,"is_disabled":false,"rental_uris":{"android":"levelo://app?vid=8a329730-ef35-4178-8345-4b3f1beab421","ios":"levelo://app?vid=8a329730-ef35-4178-8345-4b3f1beab421"},"vehicle_type_id":"4","last_reported":1758013876,"current_range_meters":16000,"station_id":"","pricing_plan_id":"cebpf4jnsgd1na2vs0mg"},{"bike_id":"ece07351-e21d-4c48-bd8e-d6076d0d6379","system_id":"levelo_inurba_marseille","lat":43.28484,"lon":5.37491,"is_reserved":false,"is_disabled":false,"rental_uris":{"android":"levelo://app?vid=ece07351-e21d-4c48-bd8e-d6076d0d6379","ios":"levelo://app?vid=ece07351-e21d-4c48-bd8e-d6076d0d6379"},"vehicle_type_id":"4","last_reported":1758013876,"current_range_meters":16400,"station_id":"","pricing_plan_id":"cebpf4jnsgd1na2vs0mg"},{"bike_id":"11555ead-152a-4e2f-ac3e-7aaa852c50e5","system_id":"levelo_inurba_marseille","lat":43.225326,"lon":5.348358,"is_reserved":false,"is_disabled":false,"rental_uris":{"android":"levelo://app?vid=11555ead-152a-4e2f-ac3e-7aaa852c50e5","ios":"levelo://app?vid=11555ead-152a-4e2f-ac3e-7aaa852c50e5"},"vehicle_type_id":"4","last_reported":1758013876,"current_range_meters":16400,"station_id":"","pricing_plan_id":"cebpf4jnsgd1na2vs0mg"},{"bike_id":"af855c88-100f-429f-ba0c-3dad51b30928","system_id":"levelo_inurba_marseille","lat":43.21192,"lon":5.35054,"is_reserved":false,"is_disabled":false,"rental_uris":{"android":"levelo://app?vid=af855c88-100f-429f-ba0c-3dad51b30928","ios":"levelo://app?vid=af855c88-100f-429f-ba0c-3dad51b30928"},"vehicle_type_id":"4","last_reported":1758013876,"current_range_meters":16400,"station_id":"st_cvj6sg6p6f1abm77japg","pricing_plan_id":"cebpf4jnsgd1na2vs0mg"},{"bike_id":"e4c370f1-6731-4896-a2c4-f49a448edf19","system_id":"levelo_inurba_marseille","lat":43.243896,"lon":5.37059,"is_reserved":false,"is_disabled":false,"rental_uris":{"android":"levelo://app?vid=e4c370f1-6731-4896-a2c4-f49a448edf19","ios":"levelo://app?vid=e4c370f1-6731-4896-a2c4-f49a448edf19"},"vehicle_type_id":"4","last_reported":1758013876,"current_range_meters":16400,"station_id":"ce4bhhh2rcd13ifvqfk0","pricing_plan_id":"cebpf4jnsgd1na2vs0mg"},{"bike_id":"40495e59-b743-486e-987c-cb0c3ab2f191","system_id":"levelo_inurba_marseille","lat":43.33275,"lon":5.41254,"is_reserved":false,"is_disabled":false,"rental_uris":{"android":"levelo://app?vid=40495e59-b743-486e-987c-cb0c3ab2f191","ios":"levelo://app?vid=40495e59-b743-486e-987c-cb0c3ab2f191"},"vehicle_type_id":"4","last_reported":1758013876,"current_range_meters":16400,"station_id":"","pricing_plan_id":"cebpf4jnsgd1na2vs0mg"},{"bike_id":"30dbcd00-b9a9-48cf-9c9a-22422cc17227","system_id":"levelo_inurba_marseille","lat":43.26213,"lon":5.40455,"is_reserved":false,"is_disabled":false,"rental_uris":{"android":"levelo://app?vid=30dbcd00-b9a9-48cf-9c9a-22422cc17227","ios":"levelo://app?vid=30dbcd00-b9a9-48cf-9c9a-22422cc17227"},"vehicle_type_id":"4","last_reported":1758013876,"current_range_meters":16400,"station_id":"ce4bhmh2rcd13ifvqgmg","pricing_plan_id":"cebpf4jnsgd1na2vs0mg"},{"bike_id":"8ad3dab9-1d2d-4ac0-a622-2705413043f8","system_id":"levelo_inurba_marseille","lat":43.24624,"lon":5.43147,"is_reserved":false,"is_disabled":false,"rental_uris":{"android":"levelo://app?vid=8ad3dab9-1d2d-4ac0-a622-2705413043f8","ios":"levelo://app?vid=8ad3dab9-1d2d-4ac0-a622-2705413043f8"},"vehicle_type_id":"4","last_reported":1758013876,"current_range_meters":16400,"station_id":"st_d2m6c4gdas8pm72e190g","pricing_plan_id":"cebpf4jnsgd1na2vs0mg"},{"bike_id":"4fbae9c5-b6ab-4f6a-9b06-98a2c8a2e91d","system_id":"levelo_inurba_marseille","lat":43.31361,"lon":5.38498,"is_reserved":false,"is_disabled":false,"rental_uris":{"android":"levelo://app?vid=4fbae9c5-b6ab-4f6a-9b06-98a2c8a2e91d","ios":"levelo://app?vid=4fbae9c5-b6ab-4f6a-9b06-98a2c8a2e91d"},"vehicle_type_id":"4","last_reported":1758013876,"current_range_meters":16400,"station_id":"ce4bgt92rcd13ifvqcf0","pricing_plan_id":"cebpf4jnsgd1na2vs0mg"},{"bike_id":"e475e9f0-91d5-4f8c-a272-09b31ed2056d","system_id":"levelo_inurba_marseille","lat":43.23158,"lon":5.43706,"is_reserved":false,"is_disabled":false,"rental_uris":{"android":"levelo://app?vid=e475e9f0-91d5-4f8c-a272-09b31ed2056d","ios":"levelo://app?vid=e475e9f0-91d5-4f8c-a272-09b31ed2056d"},"vehicle_type_id":"4","last_reported":1758013876,"current_range_meters":16400,"station_id":"ce4bhmp2rcd13ifvqgog","pricing_plan_id":"cebpf4jnsgd1na2vs0mg"},{"bike_id":"003515e8-8117-44bb-979d-5f47e8d50fda","system_id":"levelo_inurba_marseille","lat":43.30617,"lon":5.3757,"is_reserved":false,"is_disabled":false,"rental_uris":{"android":"levelo://app?vid=003515e8-8117-44bb-979d-5f47e8d50fda","ios":"levelo://app?vid=003515e8-8117-44bb-979d-5f47e8d50fda"},"vehicle_type_id":"4","last_reported":1758013876,"current_range_meters":16800,"station_id":"","pricing_plan_id":"cebpf4jnsgd1na2vs0mg"},{"bike_id":"88a8a850-d513-47ec-8870-e7210ef51b52","system_id":"levelo_inurba_marseille","lat":43.29929,"lon":5.38523,"is_reserved":false,"is_disabled":false,"rental_uris":{"android":"levelo://app?vid=88a8a850-d513-47ec-8870-e7210ef51b52","ios":"levelo://app?vid=88a8a850-d513-47ec-8870-e7210ef51b52"},"vehicle_type_id":"4","last_reported":1758013876,"current_range_meters":16800,"station_id":"","pricing_plan_id":"cebpf4jnsgd1na2vs0mg"},{"bike_id":"0af439aa-64b4-442c-94c9-837b8f5cab1a","system_id":"levelo_inurba_marseille","lat":43.29521,"lon":5.38541,"is_reserved":false,"is_disabled":false,"rental_uris":{"android":"levelo://app?vid=0af439aa-64b4-442c-94c9-837b8f5cab1a","ios":"levelo://app?vid=0af439aa-64b4-442c-94c9-837b8f5cab1a"},"vehicle_type_id":"4","last_reported":1758013876,"current_range_meters":16400,"station_id":"ce4bgih2rcd13ifvqba0","pricing_plan_id":"cebpf4jnsgd1na2vs0mg"},{"bike_id":"82e0bfcc-bba2-4c2c-9484-d3ca3b13a18b","system_id":"levelo_inurba_marseille","lat":43.29455,"lon":5.37566,"is_reserved":false,"is_disabled":false,"rental_uris":{"android":"levelo://app?vid=82e0bfcc-bba2-4c2c-9484-d3ca3b13a18b","ios":"levelo://app?vid=82e0bfcc-bba2-4c2c-9484-d3ca3b13a18b"},"vehicle_type_id":"4","last_reported":1758013876,"current_range_meters":16800,"station_id":"","pricing_plan_id":"cebpf4jnsgd1na2vs0mg"},{"bike_id":"f5538dd9-94c3-433e-ada5-fc5d10ad63b0","system_id":"levelo_inurba_marseille","lat":43.30899,"lon":5.3685,"is_reserved":false,"is_disabled":false,"rental_uris":{"android":"levelo://app?vid=f5538dd9-94c3-433e-ada5-fc5d10ad63b0","ios":"levelo://app?vid=f5538dd9-94c3-433e-ada5-fc5d10ad63b0"},"vehicle_type_id":"4","last_reported":1758013876,"current_range_meters":16800,"station_id":"ce4bgn92rcd13ifvqbvg","pricing_plan_id":"cebpf4jnsgd1na2vs0mg"},{"bike_id":"cf9074e4-6883-4530-8c06-ad84ab65c19a","system_id":"levelo_inurba_marseille","lat":43.2871,"lon":5.37955,"is_reserved":false,"is_disabled":false,"rental_uris":{"android":"levelo://app?vid=cf9074e4-6883-4530-8c06-ad84ab65c19a","ios":"levelo://app?vid=cf9074e4-6883-4530-8c06-ad84ab65c19a"},"vehicle_type_id":"4","last_reported":1758013876,"current_range_meters":16800,"station_id":"ce4bh9p2rcd13ifvqec0","pricing_plan_id":"cebpf4jnsgd1na2vs0mg"},{"bike_id":"20b55fc7-55c9-4b33-98a2-109605dfc668","system_id":"levelo_inurba_marseille","lat":43.31231,"lon":5.36867,"is_reserved":false,"is_disabled":false,"rental_uris":{"android":"levelo://app?vid=20b55fc7-55c9-4b33-98a2-109605dfc668","ios":"levelo://app?vid=20b55fc7-55c9-4b33-98a2-109605dfc668"},"vehicle_type_id":"4","last_reported":1758013876,"current_range_meters":16800,"station_id":"ce4bgl92rcd13ifvqbq0","pricing_plan_id":"cebpf4jnsgd1na2vs0mg"},{"bike_id":"32083640-b5b0-4f6f-9490-ad2e46bb50b0","system_id":"levelo_inurba_marseille","lat":43.34162,"lon":5.40895,"is_reserved":false,"is_disabled":false,"rental_uris":{"android":"levelo://app?vid=32083640-b5b0-4f6f-9490-ad2e46bb50b0","ios":"levelo://app?vid=32083640-b5b0-4f6f-9490-ad2e46bb50b0"},"vehicle_type_id":"4","last_reported":1758013876,"current_range_meters":16800,"station_id":"ce4bhqh2rcd13ifvqhlg","pricing_plan_id":"cebpf4jnsgd1na2vs0mg"},{"bike_id":"5468743a-d065-4569-944f-260b4bcb1af3","system_id":"levelo_inurba_marseille","lat":43.259395,"lon":5.409045,"is_reserved":false,"is_disabled":false,"rental_uris":{"android":"levelo://app?vid=5468743a-d065-4569-944f-260b4bcb1af3","ios":"levelo://app?vid=5468743a-d065-4569-944f-260b4bcb1af3"},"vehicle_type_id":"4","last_reported":1758013876,"current_range_meters":17200,"station_id":"ce4bhm92rcd13ifvqglg","pricing_plan_id":"cebpf4jnsgd1na2vs0mg"},{"bike_id":"1a6a6049-58e6-4183-af3a-710abb7ccdc6","system_id":"levelo_inurba_marseille","lat":43.26676,"lon":5.38267,"is_reserved":false,"is_disabled":false,"rental_uris":{"android":"levelo://app?vid=1a6a6049-58e6-4183-af3a-710abb7ccdc6","ios":"levelo://app?vid=1a6a6049-58e6-4183-af3a-710abb7ccdc6"},"vehicle_type_id":"4","last_reported":1758013876,"current_range_meters":16800,"station_id":"ce4bhg92rcd13ifvqf90","pricing_plan_id":"cebpf4jnsgd1na2vs0mg"},{"bike_id":"5961a840-33db-4edd-b578-d1d5e9e82e5f","system_id":"levelo_inurba_marseille","lat":43.30144,"lon":5.38096,"is_reserved":false,"is_disabled":false,"rental_uris":{"android":"levelo://app?vid=5961a840-33db-4edd-b578-d1d5e9e82e5f","ios":"levelo://app?vid=5961a840-33db-4edd-b578-d1d5e9e82e5f"},"vehicle_type_id":"4","last_reported":1758013876,"current_range_meters":17200,"station_id":"ce4bgjp2rcd13ifvqbh0","pricing_plan_id":"cebpf4jnsgd1na2vs0mg"},{"bike_id":"a05fdb49-e038-4a84-8ea1-52f3eaaf07b1","system_id":"levelo_inurba_marseille","lat":43.22547,"lon":5.41701,"is_reserved":false,"is_disabled":false,"rental_uris":{"android":"levelo://app?vid=a05fdb49-e038-4a84-8ea1-52f3eaaf07b1","ios":"levelo://app?vid=a05fdb49-e038-4a84-8ea1-52f3eaaf07b1"},"vehicle_type_id":"4","last_reported":1758013876,"current_range_meters":17200,"station_id":"st_d2o4gvlbi1j2169b742g","pricing_plan_id":"cebpf4jnsgd1na2vs0mg"},{"bike_id":"96644ae3-2807-4f95-a981-fef4ac2b0e69","system_id":"levelo_inurba_marseille","lat":43.225329,"lon":5.34835,"is_reserved":false,"is_disabled":false,"rental_uris":{"android":"levelo://app?vid=96644ae3-2807-4f95-a981-fef4ac2b0e69","ios":"levelo://app?vid=96644ae3-2807-4f95-a981-fef4ac2b0e69"},"vehicle_type_id":"4","last_reported":1758013876,"current_range_meters":17200,"station_id":"","pricing_plan_id":"cebpf4jnsgd1na2vs0mg"},{"bike_id":"5dbca62f-7019-41e0-bb60-cbaa2e477dc8","system_id":"levelo_inurba_marseille","lat":43.30909,"lon":5.3685,"is_reserved":false,"is_disabled":false,"rental_uris":{"android":"levelo://app?vid=5dbca62f-7019-41e0-bb60-cbaa2e477dc8","ios":"levelo://app?vid=5dbca62f-7019-41e0-bb60-cbaa2e477dc8"},"vehicle_type_id":"4","last_reported":1758013876,"current_range_meters":17200,"station_id":"ce4bgn92rcd13ifvqbvg","pricing_plan_id":"cebpf4jnsgd1na2vs0mg"},{"bike_id":"237ff8c3-18a9-4403-94a8-15862296b062","system_id":"levelo_inurba_marseille","lat":43.231574,"lon":5.437109,"is_reserved":false,"is_disabled":false,"rental_uris":{"android":"levelo://app?vid=237ff8c3-18a9-4403-94a8-15862296b062","ios":"levelo://app?vid=237ff8c3-18a9-4403-94a8-15862296b062"},"vehicle_type_id":"4","last_reported":1758013876,"current_range_meters":17600,"station_id":"ce4bhmp2rcd13ifvqgog","pricing_plan_id":"cebpf4jnsgd1na2vs0mg"},{"bike_id":"ca5a1340-d41e-49f3-95f8-599734e0a36c","system_id":"levelo_inurba_marseille","lat":43.225336,"lon":5.348339,"is_reserved":false,"is_disabled":false,"rental_uris":{"android":"levelo://app?vid=ca5a1340-d41e-49f3-95f8-599734e0a36c","ios":"levelo://app?vid=ca5a1340-d41e-49f3-95f8-599734e0a36c"},"vehicle_type_id":"4","last_reported":1758013876,"current_range_meters":17600,"station_id":"","pricing_plan_id":"cebpf4jnsgd1na2vs0mg"},{"bike_id":"a514e236-92bd-43f3-b049-c58184d08ef3","system_id":"levelo_inurba_marseille","lat":43.26679,"lon":5.38261,"is_reserved":false,"is_disabled":false,"rental_uris":{"android":"levelo://app?vid=a514e236-92bd-43f3-b049-c58184d08ef3","ios":"levelo://app?vid=a514e236-92bd-43f3-b049-c58184d08ef3"},"vehicle_type_id":"4","last_reported":1758013876,"current_range_meters":17600,"station_id":"ce4bhg92rcd13ifvqf90","pricing_plan_id":"cebpf4jnsgd1na2vs0mg"},{"bike_id":"ed3829aa-3872-45ae-8d72-446d24328d60","system_id":"levelo_inurba_marseille","lat":43.24175,"lon":5.39729,"is_reserved":false,"is_disabled":false,"rental_uris":{"android":"levelo://app?vid=ed3829aa-3872-45ae-8d72-446d24328d60","ios":"levelo://app?vid=ed3829aa-3872-45ae-8d72-446d24328d60"},"vehicle_type_id":"4","last_reported":1758013876,"current_range_meters":17600,"station_id":"ce4bhn12rcd13ifvqgpg","pricing_plan_id":"cebpf4jnsgd1na2vs0mg"},{"bike_id":"fcd56ccc-f0ab-49ef-a538-8c498b5ecd49","system_id":"levelo_inurba_marseille","lat":43.22571,"lon":5.416,"is_reserved":false,"is_disabled":false,"rental_uris":{"android":"levelo://app?vid=fcd56ccc-f0ab-49ef-a538-8c498b5ecd49","ios":"levelo://app?vid=fcd56ccc-f0ab-49ef-a538-8c498b5ecd49"},"vehicle_type_id":"4","last_reported":1758013876,"current_range_meters":17600,"station_id":"st_d2o4gvlbi1j2169b742g","pricing_plan_id":"cebpf4jnsgd1na2vs0mg"},{"bike_id":"8bd3cb35-0314-48fd-a6fc-f9f285a4d755","system_id":"levelo_inurba_marseille","lat":43.2902,"lon":5.38118,"is_reserved":false,"is_disabled":false,"rental_uris":{"android":"levelo://app?vid=8bd3cb35-0314-48fd-a6fc-f9f285a4d755","ios":"levelo://app?vid=8bd3cb35-0314-48fd-a6fc-f9f285a4d755"},"vehicle_type_id":"4","last_reported":1758013876,"current_range_meters":17200,"station_id":"ce4bh4p2rcd13ifvqe1g","pricing_plan_id":"cebpf4jnsgd1na2vs0mg"},{"bike_id":"05cf1a4b-d8e2-4e7c-b1a2-14fc1687a1ff","system_id":"levelo_inurba_marseille","lat":43.24068,"lon":5.3776,"is_reserved":false,"is_disabled":false,"rental_uris":{"android":"levelo://app?vid=05cf1a4b-d8e2-4e7c-b1a2-14fc1687a1ff","ios":"levelo://app?vid=05cf1a4b-d8e2-4e7c-b1a2-14fc1687a1ff"},"vehicle_type_id":"4","last_reported":1758013876,"current_range_meters":17600,"station_id":"ce4bhnp2rcd13ifvqgvg","pricing_plan_id":"cebpf4jnsgd1na2vs0mg"},{"bike_id":"22f0687d-25d3-4094-9c4a-293a61e189a6","system_id":"levelo_inurba_marseille","lat":43.240582,"lon":5.406855,"is_reserved":false,"is_disabled":false,"rental_uris":{"android":"levelo://app?vid=22f0687d-25d3-4094-9c4a-293a61e189a6","ios":"levelo://app?vid=22f0687d-25d3-4094-9c4a-293a61e189a6"},"vehicle_type_id":"4","last_reported":1758013876,"current_range_meters":17600,"station_id":"","pricing_plan_id":"cebpf4jnsgd1na2vs0mg"},{"bike_id":"8034a4e3-5124-4f26-ad77-aeee342e4627","system_id":"levelo_inurba_marseille","lat":43.27909,"lon":5.38019,"is_reserved":false,"is_disabled":false,"rental_uris":{"android":"levelo://app?vid=8034a4e3-5124-4f26-ad77-aeee342e4627","ios":"levelo://app?vid=8034a4e3-5124-4f26-ad77-aeee342e4627"},"vehicle_type_id":"4","last_reported":1758013876,"current_range_meters":17200,"station_id":"ce4bhf92rcd13ifvqf50","pricing_plan_id":"cebpf4jnsgd1na2vs0mg"},{"bike_id":"daaceac3-35b1-45be-bcc5-cea7bf4aaef4","system_id":"levelo_inurba_marseille","lat":43.274825,"lon":5.425225,"is_reserved":false,"is_disabled":false,"rental_uris":{"android":"levelo://app?vid=daaceac3-35b1-45be-bcc5-cea7bf4aaef4","ios":"levelo://app?vid=daaceac3-35b1-45be-bcc5-cea7bf4aaef4"},"vehicle_type_id":"4","last_reported":1758013876,"current_range_meters":17600,"station_id":"","pricing_plan_id":"cebpf4jnsgd1na2vs0mg"},{"bike_id":"14f88e73-f446-4a21-816e-a8f294af2f1c","system_id":"levelo_inurba_marseille","lat":43.24059,"lon":5.37768,"is_reserved":false,"is_disabled":false,"rental_uris":{"android":"levelo://app?vid=14f88e73-f446-4a21-816e-a8f294af2f1c","ios":"levelo://app?vid=14f88e73-f446-4a21-816e-a8f294af2f1c"},"vehicle_type_id":"4","last_reported":1758013876,"current_range_meters":17600,"station_id":"ce4bhnp2rcd13ifvqgvg","pricing_plan_id":"cebpf4jnsgd1na2vs0mg"},{"bike_id":"1640a101-a331-49f0-aafd-f32c0bbd8bb8","system_id":"levelo_inurba_marseille","lat":43.31704,"lon":5.37742,"is_reserved":false,"is_disabled":false,"rental_uris":{"android":"levelo://app?vid=1640a101-a331-49f0-aafd-f32c0bbd8bb8","ios":"levelo://app?vid=1640a101-a331-49f0-aafd-f32c0bbd8bb8"},"vehicle_type_id":"4","last_reported":1758013876,"current_range_meters":18000,"station_id":"ce4bgth2rcd13ifvqch0","pricing_plan_id":"cebpf4jnsgd1na2vs0mg"},{"bike_id":"4d428ea9-1dcb-4a75-b622-5cb7b20a1dad","system_id":"levelo_inurba_marseille","lat":43.32358,"lon":5.36762,"is_reserved":false,"is_disabled":false,"rental_uris":{"android":"levelo://app?vid=4d428ea9-1dcb-4a75-b622-5cb7b20a1dad","ios":"levelo://app?vid=4d428ea9-1dcb-4a75-b622-5cb7b20a1dad"},"vehicle_type_id":"4","last_reported":1758013876,"current_range_meters":18000,"station_id":"ce4bhsh2rcd13ifvqi2g","pricing_plan_id":"cebpf4jnsgd1na2vs0mg"},{"bike_id":"591cfb6c-28da-415e-8617-7887b07a7d9f","system_id":"levelo_inurba_marseille","lat":43.32485,"lon":5.3656,"is_reserved":false,"is_disabled":false,"rental_uris":{"android":"levelo://app?vid=591cfb6c-28da-415e-8617-7887b07a7d9f","ios":"levelo://app?vid=591cfb6c-28da-415e-8617-7887b07a7d9f"},"vehicle_type_id":"4","last_reported":1758013876,"current_range_meters":18000,"station_id":"ce4bhs12rcd13ifvqhvg","pricing_plan_id":"cebpf4jnsgd1na2vs0mg"},{"bike_id":"7cb510c7-6b00-4f66-9733-e704ef8c2a8d","system_id":"levelo_inurba_marseille","lat":43.287242,"lon":5.379381,"is_reserved":false,"is_disabled":false,"rental_uris":{"android":"levelo://app?vid=7cb510c7-6b00-4f66-9733-e704ef8c2a8d","ios":"levelo://app?vid=7cb510c7-6b00-4f66-9733-e704ef8c2a8d"},"vehicle_type_id":"4","last_reported":1758013876,"current_range_meters":18000,"station_id":"ce4bh9p2rcd13ifvqec0","pricing_plan_id":"cebpf4jnsgd1na2vs0mg"},{"bike_id":"23e1572e-7ccb-4eea-8020-599035749c9e","system_id":"levelo_inurba_marseille","lat":43.238389,"lon":5.365532,"is_reserved":false,"is_disabled":false,"rental_uris":{"android":"levelo://app?vid=23e1572e-7ccb-4eea-8020-599035749c9e","ios":"levelo://app?vid=23e1572e-7ccb-4eea-8020-599035749c9e"},"vehicle_type_id":"4","last_reported":1758013876,"current_range_meters":18000,"station_id":"","pricing_plan_id":"cebpf4jnsgd1na2vs0mg"},{"bike_id":"47e5ef79-96be-4aaf-a29f-b36e439986f3","system_id":"levelo_inurba_marseille","lat":43.27495,"lon":5.42453,"is_reserved":false,"is_disabled":false,"rental_uris":{"android":"levelo://app?vid=47e5ef79-96be-4aaf-a29f-b36e439986f3","ios":"levelo://app?vid=47e5ef79-96be-4aaf-a29f-b36e439986f3"},"vehicle_type_id":"4","last_reported":1758013876,"current_range_meters":18000,"station_id":"ce4bhn92rcd13ifvqgrg","pricing_plan_id":"cebpf4jnsgd1na2vs0mg"},{"bike_id":"8bc14f3b-0525-4f8d-a5dc-322947c977a7","system_id":"levelo_inurba_marseille","lat":43.26203,"lon":5.37929,"is_reserved":false,"is_disabled":false,"rental_uris":{"android":"levelo://app?vid=8bc14f3b-0525-4f8d-a5dc-322947c977a7","ios":"levelo://app?vid=8bc14f3b-0525-4f8d-a5dc-322947c977a7"},"vehicle_type_id":"4","last_reported":1758013876,"current_range_meters":18000,"station_id":"ce4bhjp2rcd13ifvqg90","pricing_plan_id":"cebpf4jnsgd1na2vs0mg"},{"bike_id":"eb6cbeef-bc92-4528-a915-7b01f98754fe","system_id":"levelo_inurba_marseille","lat":43.302822,"lon":5.374413,"is_reserved":false,"is_disabled":false,"rental_uris":{"android":"levelo://app?vid=eb6cbeef-bc92-4528-a915-7b01f98754fe","ios":"levelo://app?vid=eb6cbeef-bc92-4528-a915-7b01f98754fe"},"vehicle_type_id":"4","last_reported":1758013876,"current_range_meters":18000,"station_id":"","pricing_plan_id":"cebpf4jnsgd1na2vs0mg"},{"bike_id":"d1788760-0706-4b90-8999-db00a9e42210","system_id":"levelo_inurba_marseille","lat":43.32659,"lon":5.41005,"is_reserved":false,"is_disabled":true,"rental_uris":{"android":"levelo://app?vid=d1788760-0706-4b90-8999-db00a9e42210","ios":"levelo://app?vid=d1788760-0706-4b90-8999-db00a9e42210"},"vehicle_type_id":"4","last_reported":1758013876,"current_range_meters":18000,"station_id":"","pricing_plan_id":"cebpf4jnsgd1na2vs0mg"},{"bike_id":"d66079b8-e1e6-49f6-8513-918b3ce83cf8","system_id":"levelo_inurba_marseille","lat":43.26212,"lon":5.4047,"is_reserved":false,"is_disabled":false,"rental_uris":{"android":"levelo://app?vid=d66079b8-e1e6-49f6-8513-918b3ce83cf8","ios":"levelo://app?vid=d66079b8-e1e6-49f6-8513-918b3ce83cf8"},"vehicle_type_id":"4","last_reported":1758013876,"current_range_meters":18000,"station_id":"ce4bhmh2rcd13ifvqgmg","pricing_plan_id":"cebpf4jnsgd1na2vs0mg"},{"bike_id":"5129e005-2452-471a-a768-673c73b41b5f","system_id":"levelo_inurba_marseille","lat":43.3361,"lon":5.41025,"is_reserved":false,"is_disabled":false,"rental_uris":{"android":"levelo://app?vid=5129e005-2452-471a-a768-673c73b41b5f","ios":"levelo://app?vid=5129e005-2452-471a-a768-673c73b41b5f"},"vehicle_type_id":"4","last_reported":1758013876,"current_range_meters":18000,"station_id":"ce4bhqh2rcd13ifvqhmg","pricing_plan_id":"cebpf4jnsgd1na2vs0mg"},{"bike_id":"81187f1b-b13b-4bac-8c60-df1377fc0cb3","system_id":"levelo_inurba_marseille","lat":43.30158,"lon":5.38072,"is_reserved":false,"is_disabled":false,"rental_uris":{"android":"levelo://app?vid=81187f1b-b13b-4bac-8c60-df1377fc0cb3","ios":"levelo://app?vid=81187f1b-b13b-4bac-8c60-df1377fc0cb3"},"vehicle_type_id":"4","last_reported":1758013876,"current_range_meters":18000,"station_id":"ce4bgjp2rcd13ifvqbh0","pricing_plan_id":"cebpf4jnsgd1na2vs0mg"},{"bike_id":"abb69763-5f72-4fe3-acfa-eced72a5e51e","system_id":"levelo_inurba_marseille","lat":43.29784,"lon":5.37093,"is_reserved":false,"is_disabled":false,"rental_uris":{"android":"levelo://app?vid=abb69763-5f72-4fe3-acfa-eced72a5e51e","ios":"levelo://app?vid=abb69763-5f72-4fe3-acfa-eced72a5e51e"},"vehicle_type_id":"4","last_reported":1758013876,"current_range_meters":18000,"station_id":"ce4bgop2rcd13ifvqc1g","pricing_plan_id":"cebpf4jnsgd1na2vs0mg"},{"bike_id":"00da05a3-23a3-4a21-bc86-7422bd283713","system_id":"levelo_inurba_marseille","lat":43.30945,"lon":5.39048,"is_reserved":false,"is_disabled":false,"rental_uris":{"android":"levelo://app?vid=00da05a3-23a3-4a21-bc86-7422bd283713","ios":"levelo://app?vid=00da05a3-23a3-4a21-bc86-7422bd283713"},"vehicle_type_id":"4","last_reported":1758013876,"current_range_meters":18800,"station_id":"ce4bgup2rcd13ifvqco0","pricing_plan_id":"cebpf4jnsgd1na2vs0mg"},{"bike_id":"5fef58db-d358-40a4-b054-8d5e4132c10e","system_id":"levelo_inurba_marseille","lat":43.29862,"lon":5.37914,"is_reserved":false,"is_disabled":false,"rental_uris":{"android":"levelo://app?vid=5fef58db-d358-40a4-b054-8d5e4132c10e","ios":"levelo://app?vid=5fef58db-d358-40a4-b054-8d5e4132c10e"},"vehicle_type_id":"4","last_reported":1758013876,"current_range_meters":18800,"station_id":"","pricing_plan_id":"cebpf4jnsgd1na2vs0mg"},{"bike_id":"18d464e6-d84e-4b47-90d4-6fef51f72f14","system_id":"levelo_inurba_marseille","lat":43.30299,"lon":5.38635,"is_reserved":false,"is_disabled":false,"rental_uris":{"android":"levelo://app?vid=18d464e6-d84e-4b47-90d4-6fef51f72f14","ios":"levelo://app?vid=18d464e6-d84e-4b47-90d4-6fef51f72f14"},"vehicle_type_id":"4","last_reported":1758013876,"current_range_meters":18800,"station_id":"","pricing_plan_id":"cebpf4jnsgd1na2vs0mg"},{"bike_id":"46cbcee3-845b-447b-a395-16f85ed6d743","system_id":"levelo_inurba_marseille","lat":43.30534,"lon":5.36697,"is_reserved":false,"is_disabled":false,"rental_uris":{"android":"levelo://app?vid=46cbcee3-845b-447b-a395-16f85ed6d743","ios":"levelo://app?vid=46cbcee3-845b-447b-a395-16f85ed6d743"},"vehicle_type_id":"4","last_reported":1758013876,"current_range_meters":18800,"station_id":"ce4bgrp2rcd13ifvqc9g","pricing_plan_id":"cebpf4jnsgd1na2vs0mg"},{"bike_id":"75fe37df-b103-410c-911f-400d8cea5bd2","system_id":"levelo_inurba_marseille","lat":43.24656,"lon":5.38159,"is_reserved":false,"is_disabled":false,"rental_uris":{"android":"levelo://app?vid=75fe37df-b103-410c-911f-400d8cea5bd2","ios":"levelo://app?vid=75fe37df-b103-410c-911f-400d8cea5bd2"},"vehicle_type_id":"4","last_reported":1758013876,"current_range_meters":18800,"station_id":"ce4bhih2rcd13ifvqfr0","pricing_plan_id":"cebpf4jnsgd1na2vs0mg"},{"bike_id":"b222e777-a74b-4053-b199-1ac657b09b94","system_id":"levelo_inurba_marseille","lat":43.27497,"lon":5.42454,"is_reserved":false,"is_disabled":false,"rental_uris":{"android":"levelo://app?vid=b222e777-a74b-4053-b199-1ac657b09b94","ios":"levelo://app?vid=b222e777-a74b-4053-b199-1ac657b09b94"},"vehicle_type_id":"4","last_reported":1758013876,"current_range_meters":18800,"station_id":"ce4bhn92rcd13ifvqgrg","pricing_plan_id":"cebpf4jnsgd1na2vs0mg"},{"bike_id":"17d2e23f-2e4e-4271-a94a-92e2b9352a8c","system_id":"levelo_inurba_marseille","lat":43.33603,"lon":5.41032,"is_reserved":false,"is_disabled":false,"rental_uris":{"android":"levelo://app?vid=17d2e23f-2e4e-4271-a94a-92e2b9352a8c","ios":"levelo://app?vid=17d2e23f-2e4e-4271-a94a-92e2b9352a8c"},"vehicle_type_id":"4","last_reported":1758013876,"current_range_meters":18800,"station_id":"ce4bhqh2rcd13ifvqhmg","pricing_plan_id":"cebpf4jnsgd1na2vs0mg"},{"bike_id":"9a33c1c6-d948-484b-9c9a-a096b437b736","system_id":"levelo_inurba_marseille","lat":43.26216,"lon":5.37433,"is_reserved":false,"is_disabled":false,"rental_uris":{"android":"levelo://app?vid=9a33c1c6-d948-484b-9c9a-a096b437b736","ios":"levelo://app?vid=9a33c1c6-d948-484b-9c9a-a096b437b736"},"vehicle_type_id":"4","last_reported":1758013876,"current_range_meters":18800,"station_id":"ce4bhgp2rcd13ifvqfc0","pricing_plan_id":"cebpf4jnsgd1na2vs0mg"},{"bike_id":"2098e9cb-557c-4f53-85f2-265df9ccd555","system_id":"levelo_inurba_marseille","lat":43.31208,"lon":5.36875,"is_reserved":false,"is_disabled":false,"rental_uris":{"android":"levelo://app?vid=2098e9cb-557c-4f53-85f2-265df9ccd555","ios":"levelo://app?vid=2098e9cb-557c-4f53-85f2-265df9ccd555"},"vehicle_type_id":"4","last_reported":1758013876,"current_range_meters":18800,"station_id":"ce4bgl92rcd13ifvqbq0","pricing_plan_id":"cebpf4jnsgd1na2vs0mg"},{"bike_id":"eecf0245-59e7-4a2d-af12-4f3cbb02c79c","system_id":"levelo_inurba_marseille","lat":43.27489,"lon":5.42473,"is_reserved":false,"is_disabled":false,"rental_uris":{"android":"levelo://app?vid=eecf0245-59e7-4a2d-af12-4f3cbb02c79c","ios":"levelo://app?vid=eecf0245-59e7-4a2d-af12-4f3cbb02c79c"},"vehicle_type_id":"4","last_reported":1758013876,"current_range_meters":18800,"station_id":"ce4bhn92rcd13ifvqgrg","pricing_plan_id":"cebpf4jnsgd1na2vs0mg"},{"bike_id":"176eac5d-fbdc-453f-a22e-eb7bf985c6c4","system_id":"levelo_inurba_marseille","lat":43.288,"lon":5.37828,"is_reserved":false,"is_disabled":false,"rental_uris":{"android":"levelo://app?vid=176eac5d-fbdc-453f-a22e-eb7bf985c6c4","ios":"levelo://app?vid=176eac5d-fbdc-453f-a22e-eb7bf985c6c4"},"vehicle_type_id":"4","last_reported":1758013876,"current_range_meters":19200,"station_id":"","pricing_plan_id":"cebpf4jnsgd1na2vs0mg"},{"bike_id":"c8a7dee6-2332-4a84-a508-681234669df9","system_id":"levelo_inurba_marseille","lat":43.259373,"lon":5.409063,"is_reserved":false,"is_disabled":false,"rental_uris":{"android":"levelo://app?vid=c8a7dee6-2332-4a84-a508-681234669df9","ios":"levelo://app?vid=c8a7dee6-2332-4a84-a508-681234669df9"},"vehicle_type_id":"4","last_reported":1758013876,"current_range_meters":19200,"station_id":"ce4bhm92rcd13ifvqglg","pricing_plan_id":"cebpf4jnsgd1na2vs0mg"},{"bike_id":"3f1f73e6-bfac-49a9-8d7e-94c0152665ee","system_id":"levelo_inurba_marseille","lat":43.29579,"lon":5.37513,"is_reserved":false,"is_disabled":false,"rental_uris":{"android":"levelo://app?vid=3f1f73e6-bfac-49a9-8d7e-94c0152665ee","ios":"levelo://app?vid=3f1f73e6-bfac-49a9-8d7e-94c0152665ee"},"vehicle_type_id":"4","last_reported":1758013876,"current_range_meters":19200,"station_id":"ce4bgh92rcd13ifvqb50","pricing_plan_id":"cebpf4jnsgd1na2vs0mg"},{"bike_id":"22be8114-dc35-41ce-bbba-aa78b956f6a1","system_id":"levelo_inurba_marseille","lat":43.24086,"lon":5.37725,"is_reserved":false,"is_disabled":false,"rental_uris":{"android":"levelo://app?vid=22be8114-dc35-41ce-bbba-aa78b956f6a1","ios":"levelo://app?vid=22be8114-dc35-41ce-bbba-aa78b956f6a1"},"vehicle_type_id":"4","last_reported":1758013876,"current_range_meters":19200,"station_id":"ce4bhnp2rcd13ifvqgvg","pricing_plan_id":"cebpf4jnsgd1na2vs0mg"},{"bike_id":"9c188cbd-20d4-4922-94f4-4136424204d3","system_id":"levelo_inurba_marseille","lat":43.24384,"lon":5.37055,"is_reserved":false,"is_disabled":false,"rental_uris":{"android":"levelo://app?vid=9c188cbd-20d4-4922-94f4-4136424204d3","ios":"levelo://app?vid=9c188cbd-20d4-4922-94f4-4136424204d3"},"vehicle_type_id":"4","last_reported":1758013876,"current_range_meters":19200,"station_id":"ce4bhhh2rcd13ifvqfk0","pricing_plan_id":"cebpf4jnsgd1na2vs0mg"},{"bike_id":"43536ffe-a487-42f8-b203-37c242996c6d","system_id":"levelo_inurba_marseille","lat":43.24061,"lon":5.37764,"is_reserved":false,"is_disabled":false,"rental_uris":{"android":"levelo://app?vid=43536ffe-a487-42f8-b203-37c242996c6d","ios":"levelo://app?vid=43536ffe-a487-42f8-b203-37c242996c6d"},"vehicle_type_id":"4","last_reported":1758013876,"current_range_meters":19200,"station_id":"ce4bhnp2rcd13ifvqgvg","pricing_plan_id":"cebpf4jnsgd1na2vs0mg"},{"bike_id":"0f4d2891-6929-4e20-aef8-6d5e9c64bbc4","system_id":"levelo_inurba_marseille","lat":43.30125,"lon":5.37422,"is_reserved":false,"is_disabled":false,"rental_uris":{"android":"levelo://app?vid=0f4d2891-6929-4e20-aef8-6d5e9c64bbc4","ios":"levelo://app?vid=0f4d2891-6929-4e20-aef8-6d5e9c64bbc4"},"vehicle_type_id":"4","last_reported":1758013876,"current_range_meters":19200,"station_id":"ce4bgs92rcd13ifvqcc0","pricing_plan_id":"cebpf4jnsgd1na2vs0mg"},{"bike_id":"26d32f40-abd9-41e8-ad33-e16c33cbf788","system_id":"levelo_inurba_marseille","lat":43.299571,"lon":5.377456,"is_reserved":false,"is_disabled":false,"rental_uris":{"android":"levelo://app?vid=26d32f40-abd9-41e8-ad33-e16c33cbf788","ios":"levelo://app?vid=26d32f40-abd9-41e8-ad33-e16c33cbf788"},"vehicle_type_id":"4","last_reported":1758013876,"current_range_meters":19200,"station_id":"","pricing_plan_id":"cebpf4jnsgd1na2vs0mg"},{"bike_id":"ca4870c2-98e3-4ba0-969e-2d60537ab089","system_id":"levelo_inurba_marseille","lat":43.24959,"lon":5.38966,"is_reserved":false,"is_disabled":false,"rental_uris":{"android":"levelo://app?vid=ca4870c2-98e3-4ba0-969e-2d60537ab089","ios":"levelo://app?vid=ca4870c2-98e3-4ba0-969e-2d60537ab089"},"vehicle_type_id":"4","last_reported":1758013876,"current_range_meters":19200,"station_id":"ce4bhgp2rcd13ifvqfd0","pricing_plan_id":"cebpf4jnsgd1na2vs0mg"},{"bike_id":"c2a02b0c-0400-47d0-814e-3740047e19dc","system_id":"levelo_inurba_marseille","lat":43.2256,"lon":5.41629,"is_reserved":false,"is_disabled":false,"rental_uris":{"android":"levelo://app?vid=c2a02b0c-0400-47d0-814e-3740047e19dc","ios":"levelo://app?vid=c2a02b0c-0400-47d0-814e-3740047e19dc"},"vehicle_type_id":"4","last_reported":1758013876,"current_range_meters":19200,"station_id":"st_d2o4gvlbi1j2169b742g","pricing_plan_id":"cebpf4jnsgd1na2vs0mg"},