{"last_updated":1739153479,"ttl":60,"version":"2.2","data":{"bikes":[{"bike_id":"9b232bcd-84e3-4ef9-b08f-211b12d665ca","system_id":"levelo_inurba_marseille","lat":43.29849,"lon":5.36283,"is_reserved":false,"is_disabled":false,"rental_uris":{"android":"levelo://app?vid=9b232bcd-84e3-4ef9-b08f-211b12d665ca","ios":"levelo://app?vid=9b232bcd-84e3-4ef9-b08f-211b12d665ca"},"vehicle_type_id":"4","last_reported":1739153479,"current_range_meters":32000,"station_id":"ce4bgpp2rcd13ifvqc3g","pricing_plan_id":"cebpf4jnsgd1na2vs0mg"},{"bike_id":"48ad5b7e-c208-46f0-aedf-aa3a6d01b4ea","system_id":"levelo_inurba_marseille","lat":43.28101,"lon":5.37854,"is_reserved":false,"is_disabled":false,"rental_uris":{"android":"levelo://app?vid=48ad5b7e-c208-46f0-aedf-aa3a6d01b4ea","ios":"levelo://app?vid=48ad5b7e-c208-46f0-aedf-aa3a6d01b4ea"},"vehicle_type_id":"4","last_reported":1739153479,"current_range_meters":25200,"station_id":"ce4bha12rcd13ifvqee0","pricing_plan_id":"cebpf4jnsgd1na2vs0mg"},{"bike_id":"f539ce0b-f819-43fb-aa2e-9ae2ad77e10c","system_id":"levelo_inurba_marseille","lat":43.29934,"lon":5.36537,"is_reserved":false,"is_disabled":false,"rental_uris":{"android":"levelo://app?vid=f539ce0b-f819-43fb-aa2e-9ae2ad77e10c","ios":"levelo://app?vid=f539ce0b-f819-43fb-aa2e-9ae2ad77e10c"},"vehicle_type_id":"4","last_reported":1739153479,"current_range_meters":20000,"station_id":"ce4bgm92rcd13ifvqbr0","pricing_plan_id":"cebpf4jnsgd1na2vs0mg"},{"bike_id":"7d725cf2-0c30-4096-89b1-7c1fc4a52147","system_id":"levelo_inurba_marseille","lat":43.28652,"lon":5.36371,"is_reserved":false,"is_disabled":false,"rental_uris":{"android":"levelo://app?vid=7d725cf2-0c30-4096-89b1-7c1fc4a52147","ios":"levelo://app?vid=7d725cf2-0c30-4096-89b1-7c1fc4a52147"},"vehicle_type_id":"4","last_reported":1739153479,"current_range_meters":17600,"station_id":"ce4bhah2rcd13ifvqej0","pricing_plan_id":"cebpf4jnsgd1na2vs0mg"},{"bike_id":"cfa7f1cc-5150-48ed-843c-f6960ddad1e1","system_id":"levelo_inurba_marseille","lat":43.26491,"lon":5.39543,"is_reserved":false,"is_disabled":true,"rental_uris":{"android":"levelo://app?vid=cfa7f1cc-5150-48ed-843c-f6960ddad1e1","ios":"levelo://app?vid=cfa7f1cc-5150-48ed-843c-f6960ddad1e1"},"vehicle_type_id":"4","last_reported":1739153479,"current_range_meters":7200,"station_id":"ce4bhi12rcd13ifvqfq0","pricing_plan_id":"cebpf4jnsgd1na2vs0mg"},{"bike_id":"a25ff06b-c518-44a4-b5ff-74bf4d7ac77f","system_id":"levelo_inurba_marseille","lat":43.28841,"lon":5.35857,"is_reserved":false,"is_disabled":false,"rental_uris":{"android":"levelo://app?vid=a25ff06b-c518-44a4-b5ff-74bf4d7ac77f","ios":"levelo://app?vid=a25ff06b-c518-44a4-b5ff-74bf4d7ac77f"},"vehicle_type_id":"4","last_reported":1739153479,"current_range_meters":38800,"station_id":"ce4bhb12rcd13ifvqem0","pricing_plan_id":"cebpf4jnsgd1na2vs0mg"},{"bike_id":"e06bad01-5d50-47d2-96c7-a75ef9dc120d","system_id":"levelo_inurba_marseille","lat":43.33767,"lon":5.37482,"is_reserved":false,"is_disabled":false,"rental_uris":{"android":"levelo://app?vid=e06bad01-5d50-47d2-96c7-a75ef9dc120d","ios":"levelo://app?vid=e06bad01-5d50-47d2-96c7-a75ef9dc120d"},"vehicle_type_id":"4","last_reported":1739153479,"current_range_meters":16800,"station_id":"","pricing_plan_id":"cebpf4jnsgd1na2vs0mg"},{"bike_id":"a7cfb898-c168-4772-adb6-d7ea991ef424","system_id":"levelo_inurba_marseille","lat":43.24378,"lon":5.37066,"is_reserved":false,"is_disabled":false,"rental_uris":{"android":"levelo://app?vid=a7cfb898-c168-4772-adb6-d7ea991ef424","ios":"levelo://app?vid=a7cfb898-c168-4772-adb6-d7ea991ef424"},"vehicle_type_id":"4","last_reported":1739153479,"current_range_meters":38000,"station_id":"ce4bhhh2rcd13ifvqfk0","pricing_plan_id":"cebpf4jnsgd1na2vs0mg"},{"bike_id":"c9eff8f3-a90e-4097-a2d7-a923b8eb1a2b","system_id":"levelo_inurba_marseille","lat":43.26503,"lon":5.3954,"is_reserved":false,"is_disabled":false,"rental_uris":{"android":"levelo://app?vid=c9eff8f3-a90e-4097-a2d7-a923b8eb1a2b","ios":"levelo://app?vid=c9eff8f3-a90e-4097-a2d7-a923b8eb1a2b"},"vehicle_type_id":"4","last_reported":1739153479,"current_range_meters":13600,"station_id":"ce4bhi12rcd13ifvqfq0","pricing_plan_id":"cebpf4jnsgd1na2vs0mg"},{"bike_id":"fc8e39af-df91-46aa-9f02-09afb4e3e1ae","system_id":"levelo_inurba_marseille","lat":43.3077,"lon":5.37651,"is_reserved":false,"is_disabled":false,"rental_uris":{"android":"levelo://app?vid=fc8e39af-df91-46aa-9f02-09afb4e3e1ae","ios":"levelo://app?vid=fc8e39af-df91-46aa-9f02-09afb4e3e1ae"},"vehicle_type_id":"4","last_reported":1739153479,"current_range_meters":37600,"station_id":"ce4bgv92rcd13ifvqcq0","pricing_plan_id":"cebpf4jnsgd1na2vs0mg"},{"bike_id":"b225a116-2b93-4007-b200-ac7139df231c","system_id":"levelo_inurba_marseille","lat":43.28462,"lon":5.35893,"is_reserved":false,"is_disabled":false,"rental_uris":{"android":"levelo://app?vid=b225a116-2b93-4007-b200-ac7139df231c","ios":"levelo://app?vid=b225a116-2b93-4007-b200-ac7139df231c"},"vehicle_type_id":"4","last_reported":1739153479,"current_range_meters":38800,"station_id":"ce4bhah2rcd13ifvqei0","pricing_plan_id":"cebpf4jnsgd1na2vs0mg"},{"bike_id":"952ab6ee-c71f-431a-a116-28c771dc3a24","system_id":"levelo_inurba_marseille","lat":43.2797,"lon":5.41044,"is_reserved":false,"is_disabled":true,"rental_uris":{"android":"levelo://app?vid=952ab6ee-c71f-431a-a116-28c771dc3a24","ios":"levelo://app?vid=952ab6ee-c71f-431a-a116-28c771dc3a24"},"vehicle_type_id":"4","last_reported":1739153479,"current_range_meters":0,"station_id":"ce4bhnp2rcd13ifvqh0g","pricing_plan_id":"cebpf4jnsgd1na2vs0mg"},{"bike_id":"d2ca646d-6c43-44e0-9ebb-f44c4b2c8ad4","system_id":"levelo_inurba_marseille","lat":43.33611,"lon":5.41023,"is_reserved":false,"is_disabled":false,"rental_uris":{"android":"levelo://app?vid=d2ca646d-6c43-44e0-9ebb-f44c4b2c8ad4","ios":"levelo://app?vid=d2ca646d-6c43-44e0-9ebb-f44c4b2c8ad4"},"vehicle_type_id":"4","last_reported":1739153479,"current_range_meters":20800,"station_id":"ce4bhqh2rcd13ifvqhmg","pricing_plan_id":"cebpf4jnsgd1na2vs0mg"},{"bike_id":"2ffd3581-5510-4d2c-aa2e-48b5952ae7de","system_id":"levelo_inurba_marseille","lat":43.28729,"lon":5.3609,"is_reserved":false,"is_disabled":false,"rental_uris":{"android":"levelo://app?vid=2ffd3581-5510-4d2c-aa2e-48b5952ae7de","ios":"levelo://app?vid=2ffd3581-5510-4d2c-aa2e-48b5952ae7de"},"vehicle_type_id":"4","last_reported":1739153479,"current_range_meters":19200,"station_id":"cki0cbj6b192h4jlfktg","pricing_plan_id":"cebpf4jnsgd1na2vs0mg"},{"bike_id":"d30c2ab2-91d9-4eb8-a7c7-0d0b9bb0b370","system_id":"levelo_inurba_marseille","lat":43.30883,"lon":5.39644,"is_reserved":false,"is_disabled":false,"rental_uris":{"android":"levelo://app?vid=d30c2ab2-91d9-4eb8-a7c7-0d0b9bb0b370","ios":"levelo://app?vid=d30c2ab2-91d9-4eb8-a7c7-0d0b9bb0b370"},"vehicle_type_id":"4","last_reported":1739153479,"current_range_meters":38800,"station_id":"ce4bh012rcd13ifvqcv0","pricing_plan_id":"cebpf4jnsgd1na2vs0mg"},{"bike_id":"ead7d9be-8861-4014-859d-1d39a9641d37","system_id":"levelo_inurba_marseille","lat":43.29037,"lon":5.3995,"is_reserved":false,"is_disabled":false,"rental_uris":{"android":"levelo://app?vid=ead7d9be-8861-4014-859d-1d39a9641d37","ios":"levelo://app?vid=ead7d9be-8861-4014-859d-1d39a9641d37"},"vehicle_type_id":"4","last_reported":1739153479,"current_range_meters":38800,"station_id":"ce4bh392rcd13ifvqdm0","pricing_plan_id":"cebpf4jnsgd1na2vs0mg"},{"bike_id":"1b516083-7142-4596-8591-4acfa89a635a","system_id":"levelo_inurba_marseille","lat":43.24666,"lon":5.38168,"is_reserved":false,"is_disabled":false,"rental_uris":{"android":"levelo://app?vid=1b516083-7142-4596-8591-4acfa89a635a","ios":"levelo://app?vid=1b516083-7142-4596-8591-4acfa89a635a"},"vehicle_type_id":"4","last_reported":1739153479,"current_range_meters":30400,"station_id":"ce4bhih2rcd13ifvqfr0","pricing_plan_id":"cebpf4jnsgd1na2vs0mg"},{"bike_id":"8055ac20-e90a-485e-a838-f448c04a1f8c","system_id":"levelo_inurba_marseille","lat":43.31717,"lon":5.40429,"is_reserved":false,"is_disabled":false,"rental_uris":{"android":"levelo://app?vid=8055ac20-e90a-485e-a838-f448c04a1f8c","ios":"levelo://app?vid=8055ac20-e90a-485e-a838-f448c04a1f8c"},"vehicle_type_id":"4","last_reported":1739153479,"current_range_meters":38800,"station_id":"ce4bh012rcd13ifvqd00","pricing_plan_id":"cebpf4jnsgd1na2vs0mg"},{"bike_id":"bd376105-c727-4529-b1ce-a4748c72f5d7","system_id":"levelo_inurba_marseille","lat":43.30268,"lon":5.37701,"is_reserved":false,"is_disabled":false,"rental_uris":{"android":"levelo://app?vid=bd376105-c727-4529-b1ce-a4748c72f5d7","ios":"levelo://app?vid=bd376105-c727-4529-b1ce-a4748c72f5d7"},"vehicle_type_id":"4","last_reported":1739153479,"current_range_meters":38000,"station_id":"ce4bguh2rcd13ifvqcj0","pricing_plan_id":"cebpf4jnsgd1na2vs0mg"},{"bike_id":"4092ba49-55a1-4211-801e-d9c19102761b","system_id":"levelo_inurba_marseille","lat":43.30907,"lon":5.36849,"is_reserved":false,"is_disabled":false,"rental_uris":{"android":"levelo://app?vid=4092ba49-55a1-4211-801e-d9c19102761b","ios":"levelo://app?vid=4092ba49-55a1-4211-801e-d9c19102761b"},"vehicle_type_id":"4","last_reported":1739153479,"current_range_meters":38000,"station_id":"ce4bgn92rcd13ifvqbvg","pricing_plan_id":"cebpf4jnsgd1na2vs0mg"},{"bike_id":"27b79768-bfb5-4acf-aea3-498440a8fca1","system_id":"levelo_inurba_marseille","lat":43.309505,"lon":5.390397,"is_reserved":false,"is_disabled":false,"rental_uris":{"android":"levelo://app?vid=27b79768-bfb5-4acf-aea3-498440a8fca1","ios":"levelo://app?vid=27b79768-bfb5-4acf-aea3-498440a8fca1"},"vehicle_type_id":"4","last_reported":1739153479,"current_range_meters":12400,"station_id":"","pricing_plan_id":"cebpf4jnsgd1na2vs0mg"},{"bike_id":"c6ce9174-8d56-4030-a677-5c2d9224ae11","system_id":"levelo_inurba_marseille","lat":43.29589,"lon":5.3674,"is_reserved":false,"is_disabled":false,"rental_uris":{"android":"levelo://app?vid=c6ce9174-8d56-4030-a677-5c2d9224ae11","ios":"levelo://app?vid=c6ce9174-8d56-4030-a677-5c2d9224ae11"},"vehicle_type_id":"4","last_reported":1739153479,"current_range_meters":37600,"station_id":"ce4bgph2rcd13ifvqc2g","pricing_plan_id":"cebpf4jnsgd1na2vs0mg"},{"bike_id":"ff00dbdb-55e3-4903-bb01-c439538093d7","system_id":"levelo_inurba_marseille","lat":43.28458,"lon":5.38415,"is_reserved":false,"is_disabled":false,"rental_uris":{"android":"levelo://app?vid=ff00dbdb-55e3-4903-bb01-c439538093d7","ios":"levelo://app?vid=ff00dbdb-55e3-4903-bb01-c439538093d7"},"vehicle_type_id":"4","last_reported":1739153479,"current_range_meters":39200,"station_id":"ce4bh512rcd13ifvqe3g","pricing_plan_id":"cebpf4jnsgd1na2vs0mg"},{"bike_id":"734ad8ef-8f3b-4a01-b800-99f2e0cd8cb3","system_id":"levelo_inurba_marseille","lat":43.28559,"lon":5.36723,"is_reserved":false,"is_disabled":false,"rental_uris":{"android":"levelo://app?vid=734ad8ef-8f3b-4a01-b800-99f2e0cd8cb3","ios":"levelo://app?vid=734ad8ef-8f3b-4a01-b800-99f2e0cd8cb3"},"vehicle_type_id":"4","last_reported":1739153479,"current_range_meters":22000,"station_id":"","pricing_plan_id":"cebpf4jnsgd1na2vs0mg"},{"bike_id":"ab477c97-eb80-4558-9f73-598dbf16e965","system_id":"levelo_inurba_marseille","lat":43.29579,"lon":5.36748,"is_reserved":false,"is_disabled":false,"rental_uris":{"android":"levelo://app?vid=ab477c97-eb80-4558-9f73-598dbf16e965","ios":"levelo://app?vid=ab477c97-eb80-4558-9f73-598dbf16e965"},"vehicle_type_id":"4","last_reported":1739153479,"current_range_meters":14800,"station_id":"ce4bgph2rcd13ifvqc2g","pricing_plan_id":"cebpf4jnsgd1na2vs0mg"},{"bike_id":"cc5be222-f5b9-4564-8357-792e36ef3901","system_id":"levelo_inurba_marseille","lat":43.2804,"lon":5.36943,"is_reserved":false,"is_disabled":false,"rental_uris":{"android":"levelo://app?vid=cc5be222-f5b9-4564-8357-792e36ef3901","ios":"levelo://app?vid=cc5be222-f5b9-4564-8357-792e36ef3901"},"vehicle_type_id":"4","last_reported":1739153479,"current_range_meters":38800,"station_id":"ce4bha12rcd13ifvqef0","pricing_plan_id":"cebpf4jnsgd1na2vs0mg"},{"bike_id":"bf1166a6-6d02-4b59-a461-8ee8d9697ddf","system_id":"levelo_inurba_marseille","lat":43.23956,"lon":5.36639,"is_reserved":false,"is_disabled":false,"rental_uris":{"android":"levelo://app?vid=bf1166a6-6d02-4b59-a461-8ee8d9697ddf","ios":"levelo://app?vid=bf1166a6-6d02-4b59-a461-8ee8d9697ddf"},"vehicle_type_id":"4","last_reported":1739153479,"current_range_meters":38400,"station_id":"ce4bhi12rcd13ifvqfp0","pricing_plan_id":"cebpf4jnsgd1na2vs0mg"},{"bike_id":"145e1ddc-c4e5-4c14-a47c-5f54ecd341fb","system_id":"levelo_inurba_marseille","lat":43.26198,"lon":5.37447,"is_reserved":false,"is_disabled":false,"rental_uris":{"android":"levelo://app?vid=145e1ddc-c4e5-4c14-a47c-5f54ecd341fb","ios":"levelo://app?vid=145e1ddc-c4e5-4c14-a47c-5f54ecd341fb"},"vehicle_type_id":"4","last_reported":1739153479,"current_range_meters":25200,"station_id":"ce4bhgp2rcd13ifvqfc0","pricing_plan_id":"cebpf4jnsgd1na2vs0mg"},{"bike_id":"8ab565bb-edc8-400e-b6e5-ed21342a5e2c","system_id":"levelo_inurba_marseille","lat":43.30151,"lon":5.38081,"is_reserved":false,"is_disabled":false,"rental_uris":{"android":"levelo://app?vid=8ab565bb-edc8-400e-b6e5-ed21342a5e2c","ios":"levelo://app?vid=8ab565bb-edc8-400e-b6e5-ed21342a5e2c"},"vehicle_type_id":"4","last_reported":1739153479,"current_range_meters":25200,"station_id":"ce4bgjp2rcd13ifvqbh0","pricing_plan_id":"cebpf4jnsgd1na2vs0mg"},{"bike_id":"c7214087-f338-4aa0-87d4-4c782ee32a35","system_id":"levelo_inurba_marseille","lat":43.239556,"lon":5.366291,"is_reserved":false,"is_disabled":false,"rental_uris":{"android":"levelo://app?vid=c7214087-f338-4aa0-87d4-4c782ee32a35","ios":"levelo://app?vid=c7214087-f338-4aa0-87d4-4c782ee32a35"},"vehicle_type_id":"4","last_reported":1739153479,"current_range_meters":38800,"station_id":"ce4bhi12rcd13ifvqfp0","pricing_plan_id":"cebpf4jnsgd1na2vs0mg"},{"bike_id":"4d8ba0f5-a051-4c5a-af9b-cb00943bc7b0","system_id":"levelo_inurba_marseille","lat":43.28794,"lon":5.39902,"is_reserved":false,"is_disabled":false,"rental_uris":{"android":"levelo://app?vid=4d8ba0f5-a051-4c5a-af9b-cb00943bc7b0","ios":"levelo://app?vid=4d8ba0f5-a051-4c5a-af9b-cb00943bc7b0"},"vehicle_type_id":"4","last_reported":1739153479,"current_range_meters":37600,"station_id":"ce4bh392rcd13ifvqdm0","pricing_plan_id":"cebpf4jnsgd1na2vs0mg"},{"bike_id":"9fc8715c-1f2d-42c5-9ab4-6c7456cd97de","system_id":"levelo_inurba_marseille","lat":43.26555,"lon":5.39301,"is_reserved":false,"is_disabled":false,"rental_uris":{"android":"levelo://app?vid=9fc8715c-1f2d-42c5-9ab4-6c7456cd97de","ios":"levelo://app?vid=9fc8715c-1f2d-42c5-9ab4-6c7456cd97de"},"vehicle_type_id":"4","last_reported":1739153479,"current_range_meters":8400,"station_id":"","pricing_plan_id":"cebpf4jnsgd1na2vs0mg"},{"bike_id":"65a7c23e-796e-448a-9c20-43066b092b67","system_id":"levelo_inurba_marseille","lat":43.23956,"lon":5.36629,"is_reserved":false,"is_disabled":false,"rental_uris":{"android":"levelo://app?vid=65a7c23e-796e-448a-9c20-43066b092b67","ios":"levelo://app?vid=65a7c23e-796e-448a-9c20-43066b092b67"},"vehicle_type_id":"4","last_reported":1739153479,"current_range_meters":27600,"station_id":"ce4bhi12rcd13ifvqfp0","pricing_plan_id":"cebpf4jnsgd1na2vs0mg"},{"bike_id":"caa5df8d-7e03-466c-a218-989234e1b71c","system_id":"levelo_inurba_marseille","lat":43.3236,"lon":5.36781,"is_reserved":false,"is_disabled":false,"rental_uris":{"android":"levelo://app?vid=caa5df8d-7e03-466c-a218-989234e1b71c","ios":"levelo://app?vid=caa5df8d-7e03-466c-a218-989234e1b71c"},"vehicle_type_id":"4","last_reported":1739153479,"current_range_meters":35600,"station_id":"ce4bhsh2rcd13ifvqi2g","pricing_plan_id":"cebpf4jnsgd1na2vs0mg"},{"bike_id":"0af02bd1-6d9c-47e0-ae5d-8dea750df397","system_id":"levelo_inurba_marseille","lat":43.28406,"lon":5.37525,"is_reserved":false,"is_disabled":false,"rental_uris":{"android":"levelo://app?vid=0af02bd1-6d9c-47e0-ae5d-8dea750df397","ios":"levelo://app?vid=0af02bd1-6d9c-47e0-ae5d-8dea750df397"},"vehicle_type_id":"4","last_reported":1739153479,"current_range_meters":17600,"station_id":"ce4bh412rcd13ifvqds0","pricing_plan_id":"cebpf4jnsgd1na2vs0mg"},{"bike_id":"3922a7f7-d0b1-4d7b-a0bb-1c0aaab355c0","system_id":"levelo_inurba_marseille","lat":43.24186,"lon":5.39756,"is_reserved":false,"is_disabled":false,"rental_uris":{"android":"levelo://app?vid=3922a7f7-d0b1-4d7b-a0bb-1c0aaab355c0","ios":"levelo://app?vid=3922a7f7-d0b1-4d7b-a0bb-1c0aaab355c0"},"vehicle_type_id":"4","last_reported":1739153479,"current_range_meters":27200,"station_id":"ce4bhn12rcd13ifvqgpg","pricing_plan_id":"cebpf4jnsgd1na2vs0mg"},{"bike_id":"2d6a2e4c-47bb-4bf8-8e22-1e9c987f8b16","system_id":"levelo_inurba_marseille","lat":43.23969,"lon":5.36626,"is_reserved":false,"is_disabled":false,"rental_uris":{"android":"levelo://app?vid=2d6a2e4c-47bb-4bf8-8e22-1e9c987f8b16","ios":"levelo://app?vid=2d6a2e4c-47bb-4bf8-8e22-1e9c987f8b16"},"vehicle_type_id":"4","last_reported":1739153479,"current_range_meters":38800,"station_id":"ce4bhi12rcd13ifvqfp0","pricing_plan_id":"cebpf4jnsgd1na2vs0mg"},{"bike_id":"1c74561b-a6f6-4c2e-bc62-f72ba306b05e","system_id":"levelo_inurba_marseille","lat":43.28436,"lon":5.39185,"is_reserved":false,"is_disabled":false,"rental_uris":{"android":"levelo://app?vid=1c74561b-a6f6-4c2e-bc62-f72ba306b05e","ios":"levelo://app?vid=1c74561b-a6f6-4c2e-bc62-f72ba306b05e"},"vehicle_type_id":"4","last_reported":1739153479,"current_range_meters":38800,"station_id":"ce4bhoh2rcd13ifvqh5g","pricing_plan_id":"cebpf4jnsgd1na2vs0mg"},{"bike_id":"605b43cc-2917-4b41-830c-35183c4d48dc","system_id":"levelo_inurba_marseille","lat":43.25583,"lon":5.38228,"is_reserved":false,"is_disabled":false,"rental_uris":{"android":"levelo://app?vid=605b43cc-2917-4b41-830c-35183c4d48dc","ios":"levelo://app?vid=605b43cc-2917-4b41-830c-35183c4d48dc"},"vehicle_type_id":"4","last_reported":1739153479,"current_range_meters":24000,"station_id":"ce4bhih2rcd13ifvqfs0","pricing_plan_id":"cebpf4jnsgd1na2vs0mg"},{"bike_id":"98937b37-1c88-497c-9eda-fa11e192507d","system_id":"levelo_inurba_marseille","lat":43.31075,"lon":5.38352,"is_reserved":false,"is_disabled":false,"rental_uris":{"android":"levelo://app?vid=98937b37-1c88-497c-9eda-fa11e192507d","ios":"levelo://app?vid=98937b37-1c88-497c-9eda-fa11e192507d"},"vehicle_type_id":"4","last_reported":1739153479,"current_range_meters":14400,"station_id":"ce4bgv92rcd13ifvqcr0","pricing_plan_id":"cebpf4jnsgd1na2vs0mg"},{"bike_id":"c53aabef-2f2b-4451-8277-85a4bfc94fb8","system_id":"levelo_inurba_marseille","lat":43.28477,"lon":5.38426,"is_reserved":false,"is_disabled":false,"rental_uris":{"android":"levelo://app?vid=c53aabef-2f2b-4451-8277-85a4bfc94fb8","ios":"levelo://app?vid=c53aabef-2f2b-4451-8277-85a4bfc94fb8"},"vehicle_type_id":"4","last_reported":1739153479,"current_range_meters":38800,"station_id":"ce4bh512rcd13ifvqe3g","pricing_plan_id":"cebpf4jnsgd1na2vs0mg"},{"bike_id":"881a353e-785d-4ef0-9dc7-cbb98a56fe3d","system_id":"levelo_inurba_marseille","lat":43.29362,"lon":5.37848,"is_reserved":false,"is_disabled":false,"rental_uris":{"android":"levelo://app?vid=881a353e-785d-4ef0-9dc7-cbb98a56fe3d","ios":"levelo://app?vid=881a353e-785d-4ef0-9dc7-cbb98a56fe3d"},"vehicle_type_id":"4","last_reported":1739153479,"current_range_meters":38000,"station_id":"ce4bgjh2rcd13ifvqbf0","pricing_plan_id":"cebpf4jnsgd1na2vs0mg"},{"bike_id":"3ba26bce-5451-4186-8570-150535f6ec60","system_id":"levelo_inurba_marseille","lat":43.292018,"lon":5.357918,"is_reserved":false,"is_disabled":true,"rental_uris":{"android":"levelo://app?vid=3ba26bce-5451-4186-8570-150535f6ec60","ios":"levelo://app?vid=3ba26bce-5451-4186-8570-150535f6ec60"},"vehicle_type_id":"4","last_reported":1739153479,"current_range_meters":38800,"station_id":"ce4bhb12rcd13ifvqel0","pricing_plan_id":"cebpf4jnsgd1na2vs0mg"},{"bike_id":"4a4bde4d-ebaf-497c-9433-602988098783","system_id":"levelo_inurba_marseille","lat":43.25085,"lon":5.39527,"is_reserved":false,"is_disabled":false,"rental_uris":{"android":"levelo://app?vid=4a4bde4d-ebaf-497c-9433-602988098783","ios":"levelo://app?vid=4a4bde4d-ebaf-497c-9433-602988098783"},"vehicle_type_id":"4","last_reported":1739153479,"current_range_meters":23200,"station_id":"ce4bhm12rcd13ifvqgkg","pricing_plan_id":"cebpf4jnsgd1na2vs0mg"},{"bike_id":"f7664c8b-6032-41b2-9355-bc31c4ae36c6","system_id":"levelo_inurba_marseille","lat":43.30912,"lon":5.36867,"is_reserved":false,"is_disabled":false,"rental_uris":{"android":"levelo://app?vid=f7664c8b-6032-41b2-9355-bc31c4ae36c6","ios":"levelo://app?vid=f7664c8b-6032-41b2-9355-bc31c4ae36c6"},"vehicle_type_id":"4","last_reported":1739153479,"current_range_meters":38800,"station_id":"ce4bgn92rcd13ifvqbvg","pricing_plan_id":"cebpf4jnsgd1na2vs0mg"},{"bike_id":"474b2b53-423a-41c0-972d-ef66966d1287","system_id":"levelo_inurba_marseille","lat":43.2656,"lon":5.37281,"is_reserved":false,"is_disabled":true,"rental_uris":{"android":"levelo://app?vid=474b2b53-423a-41c0-972d-ef66966d1287","ios":"levelo://app?vid=474b2b53-423a-41c0-972d-ef66966d1287"},"vehicle_type_id":"4","last_reported":1739153479,"current_range_meters":32400,"station_id":"ce4bhg12rcd13ifvqf70","pricing_plan_id":"cebpf4jnsgd1na2vs0mg"},{"bike_id":"cbaf70f6-6a39-4b18-8e74-7e8e028a22ea","system_id":"levelo_inurba_marseille","lat":43.2587,"lon":5.39901,"is_reserved":false,"is_disabled":false,"rental_uris":{"android":"levelo://app?vid=cbaf70f6-6a39-4b18-8e74-7e8e028a22ea","ios":"levelo://app?vid=cbaf70f6-6a39-4b18-8e74-7e8e028a22ea"},"vehicle_type_id":"4","last_reported":1739153479,"current_range_meters":38800,"station_id":"ce4bhl92rcd13ifvqghg","pricing_plan_id":"cebpf4jnsgd1na2vs0mg"},{"bike_id":"eeada6f9-bc17-47bf-a657-75c63cc565ad","system_id":"levelo_inurba_marseille","lat":43.28994,"lon":5.35616,"is_reserved":false,"is_disabled":true,"rental_uris":{"android":"levelo://app?vid=eeada6f9-bc17-47bf-a657-75c63cc565ad","ios":"levelo://app?vid=eeada6f9-bc17-47bf-a657-75c63cc565ad"},"vehicle_type_id":"4","last_reported":1739153479,"current_range_meters":36800,"station_id":"ce4bhb92rcd13ifvqen0","pricing_plan_id":"cebpf4jnsgd1na2vs0mg"},{"bike_id":"01d0c51b-0d20-4b41-b841-735cf2170247","system_id":"levelo_inurba_marseille","lat":43.32337,"lon":5.40617,"is_reserved":false,"is_disabled":false,"rental_uris":{"android":"levelo://app?vid=01d0c51b-0d20-4b41-b841-735cf2170247","ios":"levelo://app?vid=01d0c51b-0d20-4b41-b841-735cf2170247"},"vehicle_type_id":"4","last_reported":1739153479,"current_range_meters":27600,"station_id":"ce4bhq92rcd13ifvqhjg","pricing_plan_id":"cebpf4jnsgd1na2vs0mg"},{"bike_id":"2ebd233c-fd15-4f13-9700-c155c053523f","system_id":"levelo_inurba_marseille","lat":43.25932,"lon":5.40918,"is_reserved":false,"is_disabled":true,"rental_uris":{"android":"levelo://app?vid=2ebd233c-fd15-4f13-9700-c155c053523f","ios":"levelo://app?vid=2ebd233c-fd15-4f13-9700-c155c053523f"},"vehicle_type_id":"4","last_reported":1739153479,"current_range_meters":16400,"station_id":"ce4bhm92rcd13ifvqglg","pricing_plan_id":"cebpf4jnsgd1na2vs0mg"},{"bike_id":"bb334525-e89b-47d3-8d25-ea366febad7d","system_id":"levelo_inurba_marseille","lat":43.30238,"lon":5.40061,"is_reserved":false,"is_disabled":false,"rental_uris":{"android":"levelo://app?vid=bb334525-e89b-47d3-8d25-ea366febad7d","ios":"levelo://app?vid=bb334525-e89b-47d3-8d25-ea366febad7d"},"vehicle_type_id":"4","last_reported":1739153479,"current_range_meters":30400,"station_id":"ce4bgvh2rcd13ifvqcs0","pricing_plan_id":"cebpf4jnsgd1na2vs0mg"},{"bike_id":"de9d362b-1d25-46c9-9024-4b8baa1f47f1","system_id":"levelo_inurba_marseille","lat":43.28705,"lon":5.37408,"is_reserved":false,"is_disabled":false,"rental_uris":{"android":"levelo://app?vid=de9d362b-1d25-46c9-9024-4b8baa1f47f1","ios":"levelo://app?vid=de9d362b-1d25-46c9-9024-4b8baa1f47f1"},"vehicle_type_id":"4","last_reported":1739153479,"current_range_meters":38800,"station_id":"ce4bh3p2rcd13ifvqdq0","pricing_plan_id":"cebpf4jnsgd1na2vs0mg"},{"bike_id":"d415a4d3-8eac-442d-b68c-547e0ba97d1b","system_id":"levelo_inurba_marseille","lat":43.27999,"lon":5.4424,"is_reserved":false,"is_disabled":false,"rental_uris":{"android":"levelo://app?vid=d415a4d3-8eac-442d-b68c-547e0ba97d1b","ios":"levelo://app?vid=d415a4d3-8eac-442d-b68c-547e0ba97d1b"},"vehicle_type_id":"4","last_reported":1739153479,"current_range_meters":6000,"station_id":"","pricing_plan_id":"cebpf4jnsgd1na2vs0mg"},{"bike_id":"62b2f978-50a9-419a-9077-4f080baec81c","system_id":"levelo_inurba_marseille","lat":43.2836,"lon":5.38104,"is_reserved":false,"is_disabled":false,"rental_uris":{"android":"levelo://app?vid=62b2f978-50a9-419a-9077-4f080baec81c","ios":"levelo://app?vid=62b2f978-50a9-419a-9077-4f080baec81c"},"vehicle_type_id":"4","last_reported":1739153479,"current_range_meters":29600,"station_id":"ce4bh412rcd13ifvqdr0","pricing_plan_id":"cebpf4jnsgd1na2vs0mg"},{"bike_id":"c13ae62e-d5d6-4d3f-b979-0be4fe4644ed","system_id":"levelo_inurba_marseille","lat":43.24667,"lon":5.38153,"is_reserved":false,"is_disabled":false,"rental_uris":{"android":"levelo://app?vid=c13ae62e-d5d6-4d3f-b979-0be4fe4644ed","ios":"levelo://app?vid=c13ae62e-d5d6-4d3f-b979-0be4fe4644ed"},"vehicle_type_id":"4","last_reported":1739153479,"current_range_meters":11600,"station_id":"ce4bhih2rcd13ifvqfr0","pricing_plan_id":"cebpf4jnsgd1na2vs0mg"},{"bike_id":"b19dd4b1-769b-480f-b242-d65fe6acb7da","system_id":"levelo_inurba_marseille","lat":43.28261,"lon":5.35093,"is_reserved":false,"is_disabled":false,"rental_uris":{"android":"levelo://app?vid=b19dd4b1-769b-480f-b242-d65fe6acb7da","ios":"levelo://app?vid=b19dd4b1-769b-480f-b242-d65fe6acb7da"},"vehicle_type_id":"4","last_reported":1739153479,"current_range_meters":12800,"station_id":"ce4bhbp2rcd13ifvqerg","pricing_plan_id":"cebpf4jnsgd1na2vs0mg"},{"bike_id":"bd8ca020-fda8-4805-b382-496c28d5da7f","system_id":"levelo_inurba_marseille","lat":43.30946,"lon":5.39053,"is_reserved":false,"is_disabled":true,"rental_uris":{"android":"levelo://app?vid=bd8ca020-fda8-4805-b382-496c28d5da7f","ios":"levelo://app?vid=bd8ca020-fda8-4805-b382-496c28d5da7f"},"vehicle_type_id":"4","last_reported":1739153479,"current_range_meters":23200,"station_id":"","pricing_plan_id":"cebpf4jnsgd1na2vs0mg"},{"bike_id":"2ba197c5-59fe-4a9c-ba96-b1806efdcd97","system_id":"levelo_inurba_marseille","lat":43.24176,"lon":5.39723,"is_reserved":false,"is_disabled":false,"rental_uris":{"android":"levelo://app?vid=2ba197c5-59fe-4a9c-ba96-b1806efdcd97","ios":"levelo://app?vid=2ba197c5-59fe-4a9c-ba96-b1806efdcd97"},"vehicle_type_id":"4","last_reported":1739153479,"current_range_meters":8000,"station_id":"ce4bhn12rcd13ifvqgpg","pricing_plan_id":"cebpf4jnsgd1na2vs0mg"},{"bike_id":"1d9b9c9d-363a-40b7-904e-bb37859e7849","system_id":"levelo_inurba_marseille","lat":43.24817,"lon":5.37458,"is_reserved":false,"is_disabled":false,"rental_uris":{"android":"levelo://app?vid=1d9b9c9d-363a-40b7-904e-bb37859e7849","ios":"levelo://app?vid=1d9b9c9d-363a-40b7-904e-bb37859e7849"},"vehicle_type_id":"4","last_reported":1739153479,"current_range_meters":21600,"station_id":"ce4bhgh2rcd13ifvqfb0","pricing_plan_id":"cebpf4jnsgd1na2vs0mg"},{"bike_id":"d673d385-256b-4786-9ff8-e7f9b22ac5f8","system_id":"levelo_inurba_marseille","lat":43.239576,"lon":5.366301,"is_reserved":false,"is_disabled":false,"rental_uris":{"android":"levelo://app?vid=d673d385-256b-4786-9ff8-e7f9b22ac5f8","ios":"levelo://app?vid=d673d385-256b-4786-9ff8-e7f9b22ac5f8"},"vehicle_type_id":"4","last_reported":1739153479,"current_range_meters":36000,"station_id":"ce4bhi12rcd13ifvqfp0","pricing_plan_id":"cebpf4jnsgd1na2vs0mg"},{"bike_id":"674ce223-46fe-4be2-a344-d5864277e5b4","system_id":"levelo_inurba_marseille","lat":43.29514,"lon":5.39039,"is_reserved":false,"is_disabled":false,"rental_uris":{"android":"levelo://app?vid=674ce223-46fe-4be2-a344-d5864277e5b4","ios":"levelo://app?vid=674ce223-46fe-4be2-a344-d5864277e5b4"},"vehicle_type_id":"4","last_reported":1739153479,"current_range_meters":38800,"station_id":"ce4bh3p2rcd13ifvqdp0","pricing_plan_id":"cebpf4jnsgd1na2vs0mg"},{"bike_id":"c3297162-1cce-4aee-9ab9-0cb6b8c8d4b6","system_id":"levelo_inurba_marseille","lat":43.295529,"lon":5.422866,"is_reserved":false,"is_disabled":false,"rental_uris":{"android":"levelo://app?vid=c3297162-1cce-4aee-9ab9-0cb6b8c8d4b6","ios":"levelo://app?vid=c3297162-1cce-4aee-9ab9-0cb6b8c8d4b6"},"vehicle_type_id":"4","last_reported":1739153479,"current_range_meters":32000,"station_id":"ce4bhph2rcd13ifvqhdg","pricing_plan_id":"cebpf4jnsgd1na2vs0mg"},{"bike_id":"89912e32-c5f0-448f-82d2-e236e4d6d653","system_id":"levelo_inurba_marseille","lat":43.282572,"lon":5.407821,"is_reserved":false,"is_disabled":true,"rental_uris":{"android":"levelo://app?vid=89912e32-c5f0-448f-82d2-e236e4d6d653","ios":"levelo://app?vid=89912e32-c5f0-448f-82d2-e236e4d6d653"},"vehicle_type_id":"4","last_reported":1739153479,"current_range_meters":0,"station_id":"","pricing_plan_id":"cebpf4jnsgd1na2vs0mg"},{"bike_id":"4bd291fb-ee92-4d1f-a3ca-beb12487822b","system_id":"levelo_inurba_marseille","lat":43.31707,"lon":5.37773,"is_reserved":false,"is_disabled":false,"rental_uris":{"android":"levelo://app?vid=4bd291fb-ee92-4d1f-a3ca-beb12487822b","ios":"levelo://app?vid=4bd291fb-ee92-4d1f-a3ca-beb12487822b"},"vehicle_type_id":"4","last_reported":1739153479,"current_range_meters":38800,"station_id":"ce4bgth2rcd13ifvqch0","pricing_plan_id":"cebpf4jnsgd1na2vs0mg"},{"bike_id":"afb7d23d-3672-4b9e-8299-48ecc1b6574f","system_id":"levelo_inurba_marseille","lat":43.25863,"lon":5.39905,"is_reserved":false,"is_disabled":false,"rental_uris":{"android":"levelo://app?vid=afb7d23d-3672-4b9e-8299-48ecc1b6574f","ios":"levelo://app?vid=afb7d23d-3672-4b9e-8299-48ecc1b6574f"},"vehicle_type_id":"4","last_reported":1739153479,"current_range_meters":17200,"station_id":"ce4bhl92rcd13ifvqghg","pricing_plan_id":"cebpf4jnsgd1na2vs0mg"},{"bike_id":"e7e14db6-3bef-453a-aab6-06ade3cdd6b0","system_id":"levelo_inurba_marseille","lat":43.24405,"lon":5.44111,"is_reserved":false,"is_disabled":true,"rental_uris":{"android":"levelo://app?vid=e7e14db6-3bef-453a-aab6-06ade3cdd6b0","ios":"levelo://app?vid=e7e14db6-3bef-453a-aab6-06ade3cdd6b0"},"vehicle_type_id":"4","last_reported":1739153479,"current_range_meters":0,"station_id":"","pricing_plan_id":"cebpf4jnsgd1na2vs0mg"},{"bike_id":"a08a98ae-ca74-472f-b632-031f9209c0f2","system_id":"levelo_inurba_marseille","lat":43.27902,"lon":5.39592,"is_reserved":false,"is_disabled":false,"rental_uris":{"android":"levelo://app?vid=a08a98ae-ca74-472f-b632-031f9209c0f2","ios":"levelo://app?vid=a08a98ae-ca74-472f-b632-031f9209c0f2"},"vehicle_type_id":"4","last_reported":1739153479,"current_range_meters":20000,"station_id":"ce4bhf92rcd13ifvqf40","pricing_plan_id":"cebpf4jnsgd1na2vs0mg"},{"bike_id":"fb5a704f-a51b-458c-a6e9-f5586a789b94","system_id":"levelo_inurba_marseille","lat":43.24169,"lon":5.36391,"is_reserved":false,"is_disabled":false,"rental_uris":{"android":"levelo://app?vid=fb5a704f-a51b-458c-a6e9-f5586a789b94","ios":"levelo://app?vid=fb5a704f-a51b-458c-a6e9-f5586a789b94"},"vehicle_type_id":"4","last_reported":1739153479,"current_range_meters":31200,"station_id":"cpo36qri1sfpv3e86is0","pricing_plan_id":"cebpf4jnsgd1na2vs0mg"},{"bike_id":"99a2797b-392c-45fd-b5b4-178139f4e513","system_id":"levelo_inurba_marseille","lat":43.28939,"lon":5.36416,"is_reserved":false,"is_disabled":false,"rental_uris":{"android":"levelo://app?vid=99a2797b-392c-45fd-b5b4-178139f4e513","ios":"levelo://app?vid=99a2797b-392c-45fd-b5b4-178139f4e513"},"vehicle_type_id":"4","last_reported":1739153479,"current_range_meters":10800,"station_id":"ce4bhc92rcd13ifvqetg","pricing_plan_id":"cebpf4jnsgd1na2vs0mg"},{"bike_id":"bfd84249-0515-4ab9-801d-3a8bb75b155d","system_id":"levelo_inurba_marseille","lat":43.27569,"lon":5.38434,"is_reserved":false,"is_disabled":false,"rental_uris":{"android":"levelo://app?vid=bfd84249-0515-4ab9-801d-3a8bb75b155d","ios":"levelo://app?vid=bfd84249-0515-4ab9-801d-3a8bb75b155d"},"vehicle_type_id":"4","last_reported":1739153479,"current_range_meters":36000,"station_id":"ce4bhh92rcd13ifvqfi0","pricing_plan_id":"cebpf4jnsgd1na2vs0mg"},{"bike_id":"badda3c4-70ef-41fb-b835-c3b6b3ba2d76","system_id":"levelo_inurba_marseille","lat":43.26514,"lon":5.39546,"is_reserved":false,"is_disabled":false,"rental_uris":{"android":"levelo://app?vid=badda3c4-70ef-41fb-b835-c3b6b3ba2d76","ios":"levelo://app?vid=badda3c4-70ef-41fb-b835-c3b6b3ba2d76"},"vehicle_type_id":"4","last_reported":1739153479,"current_range_meters":38000,"station_id":"ce4bhi12rcd13ifvqfq0","pricing_plan_id":"cebpf4jnsgd1na2vs0mg"},{"bike_id":"a9f65387-f128-48a1-bc09-415b86ce9420","system_id":"levelo_inurba_marseille","lat":43.28416,"lon":5.37521,"is_reserved":false,"is_disabled":false,"rental_uris":{"android":"levelo://app?vid=a9f65387-f128-48a1-bc09-415b86ce9420","ios":"levelo://app?vid=a9f65387-f128-48a1-bc09-415b86ce9420"},"vehicle_type_id":"4","last_reported":1739153479,"current_range_meters":38400,"station_id":"ce4bh412rcd13ifvqds0","pricing_plan_id":"cebpf4jnsgd1na2vs0mg"},{"bike_id":"ab54e2d0-4c2c-486a-84c7-811ed9008ddc","system_id":"levelo_inurba_marseille","lat":43.2795,"lon":5.42362,"is_reserved":false,"is_disabled":true,"rental_uris":{"android":"levelo://app?vid=ab54e2d0-4c2c-486a-84c7-811ed9008ddc","ios":"levelo://app?vid=ab54e2d0-4c2c-486a-84c7-811ed9008ddc"},"vehicle_type_id":"4","last_reported":1739153479,"current_range_meters":0,"station_id":"","pricing_plan_id":"cebpf4jnsgd1na2vs0mg"},{"bike_id":"04e9976f-fc67-4b3f-9a5f-08268a5eb49c","system_id":"levelo_inurba_marseille","lat":43.29422,"lon":5.38601,"is_reserved":false,"is_disabled":true,"rental_uris":{"android":"levelo://app?vid=04e9976f-fc67-4b3f-9a5f-08268a5eb49c","ios":"levelo://app?vid=04e9976f-fc67-4b3f-9a5f-08268a5eb49c"},"vehicle_type_id":"4","last_reported":1739153479,"current_range_meters":35600,"station_id":"ce4bh2h2rcd13ifvqdh0","pricing_plan_id":"cebpf4jnsgd1na2vs0mg"},{"bike_id":"901295b3-e1a7-4796-8ca2-5821d9f0dc7b","system_id":"levelo_inurba_marseille","lat":43.302546,"lon":5.400682,"is_reserved":false,"is_disabled":false,"rental_uris":{"android":"levelo://app?vid=901295b3-e1a7-4796-8ca2-5821d9f0dc7b","ios":"levelo://app?vid=901295b3-e1a7-4796-8ca2-5821d9f0dc7b"},"vehicle_type_id":"4","last_reported":1739153479,"current_range_meters":38000,"station_id":"ce4bgvh2rcd13ifvqcs0","pricing_plan_id":"cebpf4jnsgd1na2vs0mg"},{"bike_id":"61b62a5a-5bc2-487b-b92d-7b20142491cd","system_id":"levelo_inurba_marseille","lat":43.28713,"lon":5.39999,"is_reserved":false,"is_disabled":true,"rental_uris":{"android":"levelo://app?vid=61b62a5a-5bc2-487b-b92d-7b20142491cd","ios":"levelo://app?vid=61b62a5a-5bc2-487b-b92d-7b20142491cd"},"vehicle_type_id":"4","last_reported":1739153479,"current_range_meters":37600,"station_id":"ce4bho92rcd13ifvqh3g","pricing_plan_id":"cebpf4jnsgd1na2vs0mg"},{"bike_id":"b5135d91-2dbc-4326-bda2-20e06e74cbe2","system_id":"levelo_inurba_marseille","lat":43.29584,"lon":5.37026,"is_reserved":false,"is_disabled":false,"rental_uris":{"android":"levelo://app?vid=b5135d91-2dbc-4326-bda2-20e06e74cbe2","ios":"levelo://app?vid=b5135d91-2dbc-4326-bda2-20e06e74cbe2"},"vehicle_type_id":"4","last_reported":1739153479,"current_range_meters":14000,"station_id":"","pricing_plan_id":"cebpf4jnsgd1na2vs0mg"},{"bike_id":"167cf25b-6766-480f-a5ed-9c09e9c92509","system_id":"levelo_inurba_marseille","lat":43.26654,"lon":5.38266,"is_reserved":false,"is_disabled":false,"rental_uris":{"android":"levelo://app?vid=167cf25b-6766-480f-a5ed-9c09e9c92509","ios":"levelo://app?vid=167cf25b-6766-480f-a5ed-9c09e9c92509"},"vehicle_type_id":"4","last_reported":1739153479,"current_range_meters":38000,"station_id":"ce4bhg92rcd13ifvqf90","pricing_plan_id":"cebpf4jnsgd1na2vs0mg"},{"bike_id":"bb1bab95-412e-41ba-879a-c483b6ec0924","system_id":"levelo_inurba_marseille","lat":43.27829,"lon":5.40732,"is_reserved":false,"is_disabled":false,"rental_uris":{"android":"levelo://app?vid=bb1bab95-412e-41ba-879a-c483b6ec0924","ios":"levelo://app?vid=bb1bab95-412e-41ba-879a-c483b6ec0924"},"vehicle_type_id":"4","last_reported":1739153479,"current_range_meters":38800,"station_id":"ce4bhnh2rcd13ifvqgtg","pricing_plan_id":"cebpf4jnsgd1na2vs0mg"},{"bike_id":"d32d93c2-c2da-4831-bc10-4e8421f31d3d","system_id":"levelo_inurba_marseille","lat":43.30598,"lon":5.37231,"is_reserved":false,"is_disabled":false,"rental_uris":{"android":"levelo://app?vid=d32d93c2-c2da-4831-bc10-4e8421f31d3d","ios":"levelo://app?vid=d32d93c2-c2da-4831-bc10-4e8421f31d3d"},"vehicle_type_id":"4","last_reported":1739153479,"current_range_meters":22000,"station_id":"ce4bgqh2rcd13ifvqc4g","pricing_plan_id":"cebpf4jnsgd1na2vs0mg"},{"bike_id":"38227206-c7be-41c9-81a7-6ec322b074c1","system_id":"levelo_inurba_marseille","lat":43.30765,"lon":5.37651,"is_reserved":false,"is_disabled":false,"rental_uris":{"android":"levelo://app?vid=38227206-c7be-41c9-81a7-6ec322b074c1","ios":"levelo://app?vid=38227206-c7be-41c9-81a7-6ec322b074c1"},"vehicle_type_id":"4","last_reported":1739153479,"current_range_meters":38800,"station_id":"ce4bgv92rcd13ifvqcq0","pricing_plan_id":"cebpf4jnsgd1na2vs0mg"},{"bike_id":"3600cf6e-b370-46a9-a53c-871abbc03398","system_id":"levelo_inurba_marseille","lat":43.282658,"lon":5.3508,"is_reserved":false,"is_disabled":true,"rental_uris":{"android":"levelo://app?vid=3600cf6e-b370-46a9-a53c-871abbc03398","ios":"levelo://app?vid=3600cf6e-b370-46a9-a53c-871abbc03398"},"vehicle_type_id":"4","last_reported":1739153479,"current_range_meters":38000,"station_id":"ce4bhbp2rcd13ifvqerg","pricing_plan_id":"cebpf4jnsgd1na2vs0mg"},{"bike_id":"9ee17cc6-94b6-42f9-a180-22e25ec3ed8d","system_id":"levelo_inurba_marseille","lat":43.28696,"lon":5.37394,"is_reserved":false,"is_disabled":true,"rental_uris":{"android":"levelo://app?vid=9ee17cc6-94b6-42f9-a180-22e25ec3ed8d","ios":"levelo://app?vid=9ee17cc6-94b6-42f9-a180-22e25ec3ed8d"},"vehicle_type_id":"4","last_reported":1739153479,"current_range_meters":37600,"station_id":"ce4bh3p2rcd13ifvqdq0","pricing_plan_id":"cebpf4jnsgd1na2vs0mg"},{"bike_id":"f9dde9d4-a53a-4289-ab4e-7e52a5ff0166","system_id":"levelo_inurba_marseille","lat":43.25105,"lon":5.40321,"is_reserved":false,"is_disabled":false,"rental_uris":{"android":"levelo://app?vid=f9dde9d4-a53a-4289-ab4e-7e52a5ff0166","ios":"levelo://app?vid=f9dde9d4-a53a-4289-ab4e-7e52a5ff0166"},"vehicle_type_id":"4","last_reported":1739153479,"current_range_meters":38000,"station_id":"ce4bhlh2rcd13ifvqgig","pricing_plan_id":"cebpf4jnsgd1na2vs0mg"},{"bike_id":"59ed3fb4-1686-4d00-a8be-2761e0896b58","system_id":"levelo_inurba_marseille","lat":43.29759,"lon":5.39364,"is_reserved":false,"is_disabled":false,"rental_uris":{"android":"levelo://app?vid=59ed3fb4-1686-4d00-a8be-2761e0896b58","ios":"levelo://app?vid=59ed3fb4-1686-4d00-a8be-2761e0896b58"},"vehicle_type_id":"4","last_reported":1739153479,"current_range_meters":29600,"station_id":"chh1huq6cuj3fo74tm60","pricing_plan_id":"cebpf4jnsgd1na2vs0mg"},{"bike_id":"04347711-c752-4e72-a7d3-19ee480a6d9e","system_id":"levelo_inurba_marseille","lat":43.2606,"lon":5.39392,"is_reserved":false,"is_disabled":false,"rental_uris":{"android":"levelo://app?vid=04347711-c752-4e72-a7d3-19ee480a6d9e","ios":"levelo://app?vid=04347711-c752-4e72-a7d3-19ee480a6d9e"},"vehicle_type_id":"4","last_reported":1739153479,"current_range_meters":27600,"station_id":"ce4bhh92rcd13ifvqfj0","pricing_plan_id":"cebpf4jnsgd1na2vs0mg"},{"bike_id":"8f9c655f-09d9-433c-880c-6a0bd2d1b600","system_id":"levelo_inurba_marseille","lat":43.33609,"lon":5.41017,"is_reserved":false,"is_disabled":false,"rental_uris":{"android":"levelo://app?vid=8f9c655f-09d9-433c-880c-6a0bd2d1b600","ios":"levelo://app?vid=8f9c655f-09d9-433c-880c-6a0bd2d1b600"},"vehicle_type_id":"4","last_reported":1739153479,"current_range_meters":32400,"station_id":"ce4bhqh2rcd13ifvqhmg","pricing_plan_id":"cebpf4jnsgd1na2vs0mg"},{"bike_id":"4913b8b5-d6bb-4003-9626-2e55d74c370d","system_id":"levelo_inurba_marseille","lat":43.239548,"lon":5.366345,"is_reserved":false,"is_disabled":false,"rental_uris":{"android":"levelo://app?vid=4913b8b5-d6bb-4003-9626-2e55d74c370d","ios":"levelo://app?vid=4913b8b5-d6bb-4003-9626-2e55d74c370d"},"vehicle_type_id":"4","last_reported":1739153479,"current_range_meters":38800,"station_id":"ce4bhi12rcd13ifvqfp0","pricing_plan_id":"cebpf4jnsgd1na2vs0mg"},{"bike_id":"5fdb6860-5ee3-463b-aea0-6848b9ff5ddc","system_id":"levelo_inurba_marseille","lat":43.26233,"lon":5.40459,"is_reserved":false,"is_disabled":false,"rental_uris":{"android":"levelo://app?vid=5fdb6860-5ee3-463b-aea0-6848b9ff5ddc","ios":"levelo://app?vid=5fdb6860-5ee3-463b-aea0-6848b9ff5ddc"},"vehicle_type_id":"4","last_reported":1739153479,"current_range_meters":20000,"station_id":"ce4bhmh2rcd13ifvqgmg","pricing_plan_id":"cebpf4jnsgd1na2vs0mg"},{"bike_id":"10761931-4912-422a-b0ba-64ce8dff9b1c","system_id":"levelo_inurba_marseille","lat":43.255825,"lon":5.382389,"is_reserved":false,"is_disabled":false,"rental_uris":{"android":"levelo://app?vid=10761931-4912-422a-b0ba-64ce8dff9b1c","ios":"levelo://app?vid=10761931-4912-422a-b0ba-64ce8dff9b1c"},"vehicle_type_id":"4","last_reported":1739153479,"current_range_meters":36400,"station_id":"ce4bhih2rcd13ifvqfs0","pricing_plan_id":"cebpf4jnsgd1na2vs0mg"},{"bike_id":"0416297c-a742-467c-97d9-7f4ad8b43584","system_id":"levelo_inurba_marseille","lat":43.31331,"lon":5.38464,"is_reserved":false,"is_disabled":false,"rental_uris":{"android":"levelo://app?vid=0416297c-a742-467c-97d9-7f4ad8b43584","ios":"levelo://app?vid=0416297c-a742-467c-97d9-7f4ad8b43584"},"vehicle_type_id":"4","last_reported":1739153479,"current_range_meters":26800,"station_id":"ce4bgt92rcd13ifvqcf0","pricing_plan_id":"cebpf4jnsgd1na2vs0mg"},{"bike_id":"b7243654-4532-4cac-8442-f713a0170558","system_id":"levelo_inurba_marseille","lat":43.30635,"lon":5.40087,"is_reserved":false,"is_disabled":false,"rental_uris":{"android":"levelo://app?vid=b7243654-4532-4cac-8442-f713a0170558","ios":"levelo://app?vid=b7243654-4532-4cac-8442-f713a0170558"},"vehicle_type_id":"4","last_reported":1739153479,"current_range_meters":38800,"station_id":"ce4bh112rcd13ifvqda0","pricing_plan_id":"cebpf4jnsgd1na2vs0mg"},{"bike_id":"0ccae692-16fa-48e3-88e0-236b5491d838","system_id":"levelo_inurba_marseille","lat":43.33736,"lon":5.3918,"is_reserved":false,"is_disabled":false,"rental_uris":{"android":"levelo://app?vid=0ccae692-16fa-48e3-88e0-236b5491d838","ios":"levelo://app?vid=0ccae692-16fa-48e3-88e0-236b5491d838"},"vehicle_type_id":"4","last_reported":1739153479,"current_range_meters":38800,"station_id":"ce4bhr92rcd13ifvqhsg","pricing_plan_id":"cebpf4jnsgd1na2vs0mg"},{"bike_id":"3387e857-76e8-4fc1-a1cf-94655f3cc3c6","system_id":"levelo_inurba_marseille","lat":43.23964,"lon":5.36621,"is_reserved":false,"is_disabled":false,"rental_uris":{"android":"levelo://app?vid=3387e857-76e8-4fc1-a1cf-94655f3cc3c6","ios":"levelo://app?vid=3387e857-76e8-4fc1-a1cf-94655f3cc3c6"},"vehicle_type_id":"4","last_reported":1739153479,"current_range_meters":27200,"station_id":"ce4bhi12rcd13ifvqfp0","pricing_plan_id":"cebpf4jnsgd1na2vs0mg"},{"bike_id":"599f15bf-9581-425f-a506-4b796d189150","system_id":"levelo_inurba_marseille","lat":43.31361,"lon":5.38494,"is_reserved":false,"is_disabled":false,"rental_uris":{"android":"levelo://app?vid=599f15bf-9581-425f-a506-4b796d189150","ios":"levelo://app?vid=599f15bf-9581-425f-a506-4b796d189150"},"vehicle_type_id":"4","last_reported":1739153479,"current_range_meters":36400,"station_id":"ce4bgt92rcd13ifvqcf0","pricing_plan_id":"cebpf4jnsgd1na2vs0mg"},{"bike_id":"fb4ff991-8c44-4e6e-9881-23d19b1c7472","system_id":"levelo_inurba_marseille","lat":43.29097,"lon":5.38155,"is_reserved":false,"is_disabled":true,"rental_uris":{"android":"levelo://app?vid=fb4ff991-8c44-4e6e-9881-23d19b1c7472","ios":"levelo://app?vid=fb4ff991-8c44-4e6e-9881-23d19b1c7472"},"vehicle_type_id":"4","last_reported":1739153479,"current_range_meters":34000,"station_id":"ce4bh512rcd13ifvqe2g","pricing_plan_id":"cebpf4jnsgd1na2vs0mg"},{"bike_id":"2351dc65-5e1d-4355-baa5-f0044f698c58","system_id":"levelo_inurba_marseille","lat":43.28327,"lon":5.38125,"is_reserved":false,"is_disabled":false,"rental_uris":{"android":"levelo://app?vid=2351dc65-5e1d-4355-baa5-f0044f698c58","ios":"levelo://app?vid=2351dc65-5e1d-4355-baa5-f0044f698c58"},"vehicle_type_id":"4","last_reported":1739153479,"current_range_meters":39200,"station_id":"ce4bh412rcd13ifvqdr0","pricing_plan_id":"cebpf4jnsgd1na2vs0mg"},{"bike_id":"fb352457-720f-45b7-aadf-f4b9000220dc","system_id":"levelo_inurba_marseille","lat":43.31772,"lon":5.39008,"is_reserved":false,"is_disabled":false,"rental_uris":{"android":"levelo://app?vid=fb352457-720f-45b7-aadf-f4b9000220dc","ios":"levelo://app?vid=fb352457-720f-45b7-aadf-f4b9000220dc"},"vehicle_type_id":"4","last_reported":1739153479,"current_range_meters":37600,"station_id":"ce4bhqp2rcd13ifvqhng","pricing_plan_id":"cebpf4jnsgd1na2vs0mg"},{"bike_id":"45bb24a1-0c85-41c1-81d0-60806ea0d3e6","system_id":"levelo_inurba_marseille","lat":43.27181,"lon":5.41,"is_reserved":false,"is_disabled":false,"rental_uris":{"android":"levelo://app?vid=45bb24a1-0c85-41c1-81d0-60806ea0d3e6","ios":"levelo://app?vid=45bb24a1-0c85-41c1-81d0-60806ea0d3e6"},"vehicle_type_id":"4","last_reported":1739153479,"current_range_meters":14800,"station_id":"ce4bhl12rcd13ifvqgf0","pricing_plan_id":"cebpf4jnsgd1na2vs0mg"},{"bike_id":"96fe1668-af51-4478-b65e-c78b039aaaeb","system_id":"levelo_inurba_marseille","lat":43.29533,"lon":5.37494,"is_reserved":false,"is_disabled":true,"rental_uris":{"android":"levelo://app?vid=96fe1668-af51-4478-b65e-c78b039aaaeb","ios":"levelo://app?vid=96fe1668-af51-4478-b65e-c78b039aaaeb"},"vehicle_type_id":"4","last_reported":1739153479,"current_range_meters":30000,"station_id":"ce4bgkp2rcd13ifvqbmg","pricing_plan_id":"cebpf4jnsgd1na2vs0mg"},{"bike_id":"1b4fd6e3-875a-45fc-9079-95f341d0af7f","system_id":"levelo_inurba_marseille","lat":43.27074,"lon":5.42284,"is_reserved":false,"is_disabled":false,"rental_uris":{"android":"levelo://app?vid=1b4fd6e3-875a-45fc-9079-95f341d0af7f","ios":"levelo://app?vid=1b4fd6e3-875a-45fc-9079-95f341d0af7f"},"vehicle_type_id":"4","last_reported":1739153479,"current_range_meters":37600,"station_id":"ce4bhk92rcd13ifvqgb0","pricing_plan_id":"cebpf4jnsgd1na2vs0mg"},{"bike_id":"d5fb8c48-9459-473c-b5dd-b02c4cc38a87","system_id":"levelo_inurba_marseille","lat":43.2319,"lon":5.39987,"is_reserved":false,"is_disabled":false,"rental_uris":{"android":"levelo://app?vid=d5fb8c48-9459-473c-b5dd-b02c4cc38a87","ios":"levelo://app?vid=d5fb8c48-9459-473c-b5dd-b02c4cc38a87"},"vehicle_type_id":"4","last_reported":1739153479,"current_range_meters":38800,"station_id":"ce4bhn12rcd13ifvqgqg","pricing_plan_id":"cebpf4jnsgd1na2vs0mg"},{"bike_id":"e90ce1ed-64b5-41ca-ac41-97830c581c78","system_id":"levelo_inurba_marseille","lat":43.28489,"lon":5.38439,"is_reserved":false,"is_disabled":true,"rental_uris":{"android":"levelo://app?vid=e90ce1ed-64b5-41ca-ac41-97830c581c78","ios":"levelo://app?vid=e90ce1ed-64b5-41ca-ac41-97830c581c78"},"vehicle_type_id":"4","last_reported":1739153479,"current_range_meters":30000,"station_id":"ce4bh512rcd13ifvqe3g","pricing_plan_id":"cebpf4jnsgd1na2vs0mg"},{"bike_id":"5eb59fd4-34c7-4030-bbe2-18e35f7c6137","system_id":"levelo_inurba_marseille","lat":43.2757,"lon":5.38436,"is_reserved":false,"is_disabled":false,"rental_uris":{"android":"levelo://app?vid=5eb59fd4-34c7-4030-bbe2-18e35f7c6137","ios":"levelo://app?vid=5eb59fd4-34c7-4030-bbe2-18e35f7c6137"},"vehicle_type_id":"4","last_reported":1739153479,"current_range_meters":19200,"station_id":"ce4bhh92rcd13ifvqfi0","pricing_plan_id":"cebpf4jnsgd1na2vs0mg"},{"bike_id":"f67b7531-6c63-4f46-a9d4-4fdf588facb0","system_id":"levelo_inurba_marseille","lat":43.27874,"lon":5.40597,"is_reserved":false,"is_disabled":true,"rental_uris":{"android":"levelo://app?vid=f67b7531-6c63-4f46-a9d4-4fdf588facb0","ios":"levelo://app?vid=f67b7531-6c63-4f46-a9d4-4fdf588facb0"},"vehicle_type_id":"4","last_reported":1739153479,"current_range_meters":0,"station_id":"","pricing_plan_id":"cebpf4jnsgd1na2vs0mg"},{"bike_id":"e9abc266-97cf-4da1-9e7e-1c0fc8e14f22","system_id":"levelo_inurba_marseille","lat":43.30587,"lon":5.3935,"is_reserved":false,"is_disabled":false,"rental_uris":{"android":"levelo://app?vid=e9abc266-97cf-4da1-9e7e-1c0fc8e14f22","ios":"levelo://app?vid=e9abc266-97cf-4da1-9e7e-1c0fc8e14f22"},"vehicle_type_id":"4","last_reported":1739153479,"current_range_meters":38800,"station_id":"ce4bh0p2rcd13ifvqd80","pricing_plan_id":"cebpf4jnsgd1na2vs0mg"},{"bike_id":"d8242d46-8393-46ac-8adb-94f1d9185923","system_id":"levelo_inurba_marseille","lat":43.24541,"lon":5.39518,"is_reserved":false,"is_disabled":false,"rental_uris":{"android":"levelo://app?vid=d8242d46-8393-46ac-8adb-94f1d9185923","ios":"levelo://app?vid=d8242d46-8393-46ac-8adb-94f1d9185923"},"vehicle_type_id":"4","last_reported":1739153479,"current_range_meters":38800,"station_id":"ce4bhlp2rcd13ifvqgjg","pricing_plan_id":"cebpf4jnsgd1na2vs0mg"},{"bike_id":"5a038bcc-0586-47f4-9979-c7b3fee1c0b2","system_id":"levelo_inurba_marseille","lat":43.29258,"lon":5.40924,"is_reserved":false,"is_disabled":false,"rental_uris":{"android":"levelo://app?vid=5a038bcc-0586-47f4-9979-c7b3fee1c0b2","ios":"levelo://app?vid=5a038bcc-0586-47f4-9979-c7b3fee1c0b2"},"vehicle_type_id":"4","last_reported":1739153479,"current_range_meters":12000,"station_id":"ce4bh192rcd13ifvqdc0","pricing_plan_id":"cebpf4jnsgd1na2vs0mg"},{"bike_id":"1d849361-3f4a-4b95-8a2f-dc215017c47c","system_id":"levelo_inurba_marseille","lat":43.24078,"lon":5.37742,"is_reserved":false,"is_disabled":false,"rental_uris":{"android":"levelo://app?vid=1d849361-3f4a-4b95-8a2f-dc215017c47c","ios":"levelo://app?vid=1d849361-3f4a-4b95-8a2f-dc215017c47c"},"vehicle_type_id":"4","last_reported":1739153479,"current_range_meters":9200,"station_id":"ce4bhnp2rcd13ifvqgvg","pricing_plan_id":"cebpf4jnsgd1na2vs0mg"},{"bike_id":"74dda318-1b0b-46a6-82cc-20741b70a914","system_id":"levelo_inurba_marseille","lat":43.29291,"lon":5.37447,"is_reserved":false,"is_disabled":true,"rental_uris":{"android":"levelo://app?vid=74dda318-1b0b-46a6-82cc-20741b70a914","ios":"levelo://app?vid=74dda318-1b0b-46a6-82cc-20741b70a914"},"vehicle_type_id":"4","last_reported":1739153479,"current_range_meters":18000,"station_id":"ce4bgi12rcd13ifvqb70","pricing_plan_id":"cebpf4jnsgd1na2vs0mg"},{"bike_id":"72495247-1710-4663-af7f-fdc8134eeee5","system_id":"levelo_inurba_marseille","lat":43.291909,"lon":5.393284,"is_reserved":false,"is_disabled":false,"rental_uris":{"android":"levelo://app?vid=72495247-1710-4663-af7f-fdc8134eeee5","ios":"levelo://app?vid=72495247-1710-4663-af7f-fdc8134eeee5"},"vehicle_type_id":"4","last_reported":1739153479,"current_range_meters":13600,"station_id":"ce4bh192rcd13ifvqdd0","pricing_plan_id":"cebpf4jnsgd1na2vs0mg"},{"bike_id":"29d18513-83ca-4c86-97a1-2ba45ffcdb50","system_id":"levelo_inurba_marseille","lat":43.28713,"lon":5.37394,"is_reserved":false,"is_disabled":false,"rental_uris":{"android":"levelo://app?vid=29d18513-83ca-4c86-97a1-2ba45ffcdb50","ios":"levelo://app?vid=29d18513-83ca-4c86-97a1-2ba45ffcdb50"},"vehicle_type_id":"4","last_reported":1739153479,"current_range_meters":24000,"station_id":"ce4bh3p2rcd13ifvqdq0","pricing_plan_id":"cebpf4jnsgd1na2vs0mg"},{"bike_id":"2630b278-fac1-4428-b2cf-3ead41153464","system_id":"levelo_inurba_marseille","lat":43.27996,"lon":5.40013,"is_reserved":false,"is_disabled":false,"rental_uris":{"android":"levelo://app?vid=2630b278-fac1-4428-b2cf-3ead41153464","ios":"levelo://app?vid=2630b278-fac1-4428-b2cf-3ead41153464"},"vehicle_type_id":"4","last_reported":1739153479,"current_range_meters":38000,"station_id":"ce4bho92rcd13ifvqh4g","pricing_plan_id":"cebpf4jnsgd1na2vs0mg"},{"bike_id":"1c006256-7530-4a56-a25d-dca64c3573d8","system_id":"levelo_inurba_marseille","lat":43.28683,"lon":5.39959,"is_reserved":false,"is_disabled":true,"rental_uris":{"android":"levelo://app?vid=1c006256-7530-4a56-a25d-dca64c3573d8","ios":"levelo://app?vid=1c006256-7530-4a56-a25d-dca64c3573d8"},"vehicle_type_id":"4","last_reported":1739153479,"current_range_meters":38000,"station_id":"ce4bho92rcd13ifvqh3g","pricing_plan_id":"cebpf4jnsgd1na2vs0mg"},{"bike_id":"028e5bc2-b679-4b6c-a013-843d23405193","system_id":"levelo_inurba_marseille","lat":43.28688,"lon":5.3742,"is_reserved":false,"is_disabled":false,"rental_uris":{"android":"levelo://app?vid=028e5bc2-b679-4b6c-a013-843d23405193","ios":"levelo://app?vid=028e5bc2-b679-4b6c-a013-843d23405193"},"vehicle_type_id":"4","last_reported":1739153479,"current_range_meters":38800,"station_id":"ce4bh3p2rcd13ifvqdq0","pricing_plan_id":"cebpf4jnsgd1na2vs0mg"},{"bike_id":"1fd8bc52-5626-4408-a638-b144452061ee","system_id":"levelo_inurba_marseille","lat":43.2907,"lon":5.37157,"is_reserved":false,"is_disabled":false,"rental_uris":{"android":"levelo://app?vid=1fd8bc52-5626-4408-a638-b144452061ee","ios":"levelo://app?vid=1fd8bc52-5626-4408-a638-b144452061ee"},"vehicle_type_id":"4","last_reported":1739153479,"current_range_meters":33200,"station_id":"ce4bh5p2rcd13ifvqe4g","pricing_plan_id":"cebpf4jnsgd1na2vs0mg"},{"bike_id":"5c7479b7-7263-4b4c-a3b1-0d7fb0f411f8","system_id":"levelo_inurba_marseille","lat":43.3032,"lon":5.40445,"is_reserved":false,"is_disabled":true,"rental_uris":{"android":"levelo://app?vid=5c7479b7-7263-4b4c-a3b1-0d7fb0f411f8","ios":"levelo://app?vid=5c7479b7-7263-4b4c-a3b1-0d7fb0f411f8"},"vehicle_type_id":"4","last_reported":1739153479,"current_range_meters":35600,"station_id":"ce4bh012rcd13ifvqd10","pricing_plan_id":"cebpf4jnsgd1na2vs0mg"},{"bike_id":"dbce0a2c-d399-453d-9b14-9a6cf741b605","system_id":"levelo_inurba_marseille","lat":43.323396,"lon":5.406136,"is_reserved":false,"is_disabled":false,"rental_uris":{"android":"levelo://app?vid=dbce0a2c-d399-453d-9b14-9a6cf741b605","ios":"levelo://app?vid=dbce0a2c-d399-453d-9b14-9a6cf741b605"},"vehicle_type_id":"4","last_reported":1739153479,"current_range_meters":24000,"station_id":"ce4bhq92rcd13ifvqhjg","pricing_plan_id":"cebpf4jnsgd1na2vs0mg"},{"bike_id":"5dec2fdf-46a6-4d2a-a8dd-9a8ec1a948d3","system_id":"levelo_inurba_marseille","lat":43.23195,"lon":5.35559,"is_reserved":false,"is_disabled":false,"rental_uris":{"android":"levelo://app?vid=5dec2fdf-46a6-4d2a-a8dd-9a8ec1a948d3","ios":"levelo://app?vid=5dec2fdf-46a6-4d2a-a8dd-9a8ec1a948d3"},"vehicle_type_id":"4","last_reported":1739153479,"current_range_meters":38800,"station_id":"ce4bhu92rcd13ifvqi70","pricing_plan_id":"cebpf4jnsgd1na2vs0mg"},{"bike_id":"dc150565-261b-4bf2-a71b-45a3dacfae17","system_id":"levelo_inurba_marseille","lat":43.286595,"lon":5.363517,"is_reserved":false,"is_disabled":false,"rental_uris":{"android":"levelo://app?vid=dc150565-261b-4bf2-a71b-45a3dacfae17","ios":"levelo://app?vid=dc150565-261b-4bf2-a71b-45a3dacfae17"},"vehicle_type_id":"4","last_reported":1739153479,"current_range_meters":19600,"station_id":"ce4bhah2rcd13ifvqej0","pricing_plan_id":"cebpf4jnsgd1na2vs0mg"},{"bike_id":"1cf7639f-986a-4ff0-8c1b-fc8fa315c86d","system_id":"levelo_inurba_marseille","lat":43.28614,"lon":5.35103,"is_reserved":false,"is_disabled":false,"rental_uris":{"android":"levelo://app?vid=1cf7639f-986a-4ff0-8c1b-fc8fa315c86d","ios":"levelo://app?vid=1cf7639f-986a-4ff0-8c1b-fc8fa315c86d"},"vehicle_type_id":"4","last_reported":1739153479,"current_range_meters":38400,"station_id":"ce4bhch2rcd13ifvqeug","pricing_plan_id":"cebpf4jnsgd1na2vs0mg"},{"bike_id":"71fb3431-27ca-43bd-91e9-e81a05c563a7","system_id":"levelo_inurba_marseille","lat":43.23191,"lon":5.39972,"is_reserved":false,"is_disabled":false,"rental_uris":{"android":"levelo://app?vid=71fb3431-27ca-43bd-91e9-e81a05c563a7","ios":"levelo://app?vid=71fb3431-27ca-43bd-91e9-e81a05c563a7"},"vehicle_type_id":"4","last_reported":1739153479,"current_range_meters":38800,"station_id":"ce4bhn12rcd13ifvqgqg","pricing_plan_id":"cebpf4jnsgd1na2vs0mg"},{"bike_id":"22669ad6-c05b-49c6-864d-bb442ac14c15","system_id":"levelo_inurba_marseille","lat":43.25942,"lon":5.4088,"is_reserved":false,"is_disabled":false,"rental_uris":{"android":"levelo://app?vid=22669ad6-c05b-49c6-864d-bb442ac14c15","ios":"levelo://app?vid=22669ad6-c05b-49c6-864d-bb442ac14c15"},"vehicle_type_id":"4","last_reported":1739153479,"current_range_meters":28000,"station_id":"ce4bhm92rcd13ifvqglg","pricing_plan_id":"cebpf4jnsgd1na2vs0mg"},{"bike_id":"5c55719c-bf56-4316-adc3-30111af87656","system_id":"levelo_inurba_marseille","lat":43.23046,"lon":5.35489,"is_reserved":false,"is_disabled":false,"rental_uris":{"android":"levelo://app?vid=5c55719c-bf56-4316-adc3-30111af87656","ios":"levelo://app?vid=5c55719c-bf56-4316-adc3-30111af87656"},"vehicle_type_id":"4","last_reported":1739153479,"current_range_meters":38800,"station_id":"cpo3342slgdg3j2ifvpg","pricing_plan_id":"cebpf4jnsgd1na2vs0mg"},{"bike_id":"c2b542d5-20ee-4d02-a9e4-f66e0540bcfb","system_id":"levelo_inurba_marseille","lat":43.24188,"lon":5.39733,"is_reserved":false,"is_disabled":false,"rental_uris":{"android":"levelo://app?vid=c2b542d5-20ee-4d02-a9e4-f66e0540bcfb","ios":"levelo://app?vid=c2b542d5-20ee-4d02-a9e4-f66e0540bcfb"},"vehicle_type_id":"4","last_reported":1739153479,"current_range_meters":9600,"station_id":"ce4bhn12rcd13ifvqgpg","pricing_plan_id":"cebpf4jnsgd1na2vs0mg"},{"bike_id":"c97b9d9c-7a8f-420b-a22c-c53c46a789aa","system_id":"levelo_inurba_marseille","lat":43.29003,"lon":5.35608,"is_reserved":false,"is_disabled":false,"rental_uris":{"android":"levelo://app?vid=c97b9d9c-7a8f-420b-a22c-c53c46a789aa","ios":"levelo://app?vid=c97b9d9c-7a8f-420b-a22c-c53c46a789aa"},"vehicle_type_id":"4","last_reported":1739153479,"current_range_meters":38000,"station_id":"ce4bhb92rcd13ifvqen0","pricing_plan_id":"cebpf4jnsgd1na2vs0mg"},{"bike_id":"9fb55058-1878-45ef-bf65-9d5398deea06","system_id":"levelo_inurba_marseille","lat":43.29193,"lon":5.39326,"is_reserved":false,"is_disabled":false,"rental_uris":{"android":"levelo://app?vid=9fb55058-1878-45ef-bf65-9d5398deea06","ios":"levelo://app?vid=9fb55058-1878-45ef-bf65-9d5398deea06"},"vehicle_type_id":"4","last_reported":1739153479,"current_range_meters":25200,"station_id":"ce4bh192rcd13ifvqdd0","pricing_plan_id":"cebpf4jnsgd1na2vs0mg"},{"bike_id":"1da8b17b-ad28-4780-a711-431647c244ed","system_id":"levelo_inurba_marseille","lat":43.239569,"lon":5.366198,"is_reserved":false,"is_disabled":false,"rental_uris":{"android":"levelo://app?vid=1da8b17b-ad28-4780-a711-431647c244ed","ios":"levelo://app?vid=1da8b17b-ad28-4780-a711-431647c244ed"},"vehicle_type_id":"4","last_reported":1739153479,"current_range_meters":18000,"station_id":"ce4bhi12rcd13ifvqfp0","pricing_plan_id":"cebpf4jnsgd1na2vs0mg"},{"bike_id":"1477b11a-c800-43aa-9d80-f88405a02182","system_id":"levelo_inurba_marseille","lat":43.294608,"lon":5.438391,"is_reserved":false,"is_disabled":true,"rental_uris":{"android":"levelo://app?vid=1477b11a-c800-43aa-9d80-f88405a02182","ios":"levelo://app?vid=1477b11a-c800-43aa-9d80-f88405a02182"},"vehicle_type_id":"4","last_reported":1739153479,"current_range_meters":0,"station_id":"","pricing_plan_id":"cebpf4jnsgd1na2vs0mg"},{"bike_id":"387f62f2-7ff0-42c6-9bd7-464493172742","system_id":"levelo_inurba_marseille","lat":43.24402,"lon":5.3706,"is_reserved":false,"is_disabled":false,"rental_uris":{"android":"levelo://app?vid=387f62f2-7ff0-42c6-9bd7-464493172742","ios":"levelo://app?vid=387f62f2-7ff0-42c6-9bd7-464493172742"},"vehicle_type_id":"4","last_reported":1739153479,"current_range_meters":30800,"station_id":"ce4bhhh2rcd13ifvqfk0","pricing_plan_id":"cebpf4jnsgd1na2vs0mg"},{"bike_id":"f78952aa-a1e4-42f8-b5d2-31338580d315","system_id":"levelo_inurba_marseille","lat":43.23964,"lon":5.36643,"is_reserved":false,"is_disabled":false,"rental_uris":{"android":"levelo://app?vid=f78952aa-a1e4-42f8-b5d2-31338580d315","ios":"levelo://app?vid=f78952aa-a1e4-42f8-b5d2-31338580d315"},"vehicle_type_id":"4","last_reported":1739153479,"current_range_meters":38800,"station_id":"ce4bhi12rcd13ifvqfp0","pricing_plan_id":"cebpf4jnsgd1na2vs0mg"},{"bike_id":"f2d50267-98d9-493b-8957-63594a0dadcc","system_id":"levelo_inurba_marseille","lat":43.23061,"lon":5.3549,"is_reserved":false,"is_disabled":false,"rental_uris":{"android":"levelo://app?vid=f2d50267-98d9-493b-8957-63594a0dadcc","ios":"levelo://app?vid=f2d50267-98d9-493b-8957-63594a0dadcc"},"vehicle_type_id":"4","last_reported":1739153479,"current_range_meters":38800,"station_id":"cpo3342slgdg3j2ifvpg","pricing_plan_id":"cebpf4jnsgd1na2vs0mg"},{"bike_id":"985ea620-1838-4cc4-9f45-6622855b2de9","system_id":"levelo_inurba_marseille","lat":43.27995,"lon":5.40012,"is_reserved":false,"is_disabled":false,"rental_uris":{"android":"levelo://app?vid=985ea620-1838-4cc4-9f45-6622855b2de9","ios":"levelo://app?vid=985ea620-1838-4cc4-9f45-6622855b2de9"},"vehicle_type_id":"4","last_reported":1739153479,"current_range_meters":37600,"station_id":"ce4bho92rcd13ifvqh4g","pricing_plan_id":"cebpf4jnsgd1na2vs0mg"},{"bike_id":"b62dea62-0007-4bca-a1b0-d88bfab77dea","system_id":"levelo_inurba_marseille","lat":43.324891,"lon":5.365615,"is_reserved":false,"is_disabled":false,"rental_uris":{"android":"levelo://app?vid=b62dea62-0007-4bca-a1b0-d88bfab77dea","ios":"levelo://app?vid=b62dea62-0007-4bca-a1b0-d88bfab77dea"},"vehicle_type_id":"4","last_reported":1739153479,"current_range_meters":27600,"station_id":"ce4bhs12rcd13ifvqhvg","pricing_plan_id":"cebpf4jnsgd1na2vs0mg"},{"bike_id":"5f250b66-69e5-432d-97a0-cb73a2b6f607","system_id":"levelo_inurba_marseille","lat":43.30534,"lon":5.36523,"is_reserved":false,"is_disabled":false,"rental_uris":{"android":"levelo://app?vid=5f250b66-69e5-432d-97a0-cb73a2b6f607","ios":"levelo://app?vid=5f250b66-69e5-432d-97a0-cb73a2b6f607"},"vehicle_type_id":"4","last_reported":1739153479,"current_range_meters":38000,"station_id":"ce4bgs12rcd13ifvqcag","pricing_plan_id":"cebpf4jnsgd1na2vs0mg"},{"bike_id":"7c0de3db-d7ac-4c9d-8d57-1dfbdd7f0c15","system_id":"levelo_inurba_marseille","lat":43.25143,"lon":5.40331,"is_reserved":false,"is_disabled":false,"rental_uris":{"android":"levelo://app?vid=7c0de3db-d7ac-4c9d-8d57-1dfbdd7f0c15","ios":"levelo://app?vid=7c0de3db-d7ac-4c9d-8d57-1dfbdd7f0c15"},"vehicle_type_id":"4","last_reported":1739153479,"current_range_meters":38800,"station_id":"ce4bhlh2rcd13ifvqgig","pricing_plan_id":"cebpf4jnsgd1na2vs0mg"},{"bike_id":"98514ce6-c9a0-445d-988e-9d038e3f1731","system_id":"levelo_inurba_marseille","lat":43.24096,"lon":5.37755,"is_reserved":false,"is_disabled":false,"rental_uris":{"android":"levelo://app?vid=98514ce6-c9a0-445d-988e-9d038e3f1731","ios":"levelo://app?vid=98514ce6-c9a0-445d-988e-9d038e3f1731"},"vehicle_type_id":"4","last_reported":1739153479,"current_range_meters":38800,"station_id":"ce4bhnp2rcd13ifvqgvg","pricing_plan_id":"cebpf4jnsgd1na2vs0mg"},{"bike_id":"e38741f1-8474-4386-8bfd-89db690dc374","system_id":"levelo_inurba_marseille","lat":43.30285,"lon":5.37703,"is_reserved":false,"is_disabled":false,"rental_uris":{"android":"levelo://app?vid=e38741f1-8474-4386-8bfd-89db690dc374","ios":"levelo://app?vid=e38741f1-8474-4386-8bfd-89db690dc374"},"vehicle_type_id":"4","last_reported":1739153479,"current_range_meters":24000,"station_id":"ce4bguh2rcd13ifvqcj0","pricing_plan_id":"cebpf4jnsgd1na2vs0mg"},{"bike_id":"8e8ca363-1972-443b-8848-3e4ee3048265","system_id":"levelo_inurba_marseille","lat":43.29428,"lon":5.38599,"is_reserved":false,"is_disabled":true,"rental_uris":{"android":"levelo://app?vid=8e8ca363-1972-443b-8848-3e4ee3048265","ios":"levelo://app?vid=8e8ca363-1972-443b-8848-3e4ee3048265"},"vehicle_type_id":"4","last_reported":1739153479,"current_range_meters":38800,"station_id":"ce4bh2h2rcd13ifvqdh0","pricing_plan_id":"cebpf4jnsgd1na2vs0mg"},{"bike_id":"847c6a31-e9b4-472a-a4ac-05a8b1063248","system_id":"levelo_inurba_marseille","lat":43.31339,"lon":5.39698,"is_reserved":false,"is_disabled":false,"rental_uris":{"android":"levelo://app?vid=847c6a31-e9b4-472a-a4ac-05a8b1063248","ios":"levelo://app?vid=847c6a31-e9b4-472a-a4ac-05a8b1063248"},"vehicle_type_id":"4","last_reported":1739153479,"current_range_meters":38800,"station_id":"ce4bgvp2rcd13ifvqcu0","pricing_plan_id":"cebpf4jnsgd1na2vs0mg"},{"bike_id":"c07725ed-0527-46d6-b17c-99fd5891c3a0","system_id":"levelo_inurba_marseille","lat":43.2668,"lon":5.38268,"is_reserved":false,"is_disabled":false,"rental_uris":{"android":"levelo://app?vid=c07725ed-0527-46d6-b17c-99fd5891c3a0","ios":"levelo://app?vid=c07725ed-0527-46d6-b17c-99fd5891c3a0"},"vehicle_type_id":"4","last_reported":1739153479,"current_range_meters":37600,"station_id":"ce4bhg92rcd13ifvqf90","pricing_plan_id":"cebpf4jnsgd1na2vs0mg"},{"bike_id":"6f2c96b5-8b55-47a9-8003-452561cb51d9","system_id":"levelo_inurba_marseille","lat":43.24651,"lon":5.38895,"is_reserved":false,"is_disabled":false,"rental_uris":{"android":"levelo://app?vid=6f2c96b5-8b55-47a9-8003-452561cb51d9","ios":"levelo://app?vid=6f2c96b5-8b55-47a9-8003-452561cb51d9"},"vehicle_type_id":"4","last_reported":1739153479,"current_range_meters":38800,"station_id":"ce4bhg12rcd13ifvqf60","pricing_plan_id":"cebpf4jnsgd1na2vs0mg"},{"bike_id":"22a5c6e1-bb6b-4333-8051-e7583e5afc36","system_id":"levelo_inurba_marseille","lat":43.29442,"lon":5.39757,"is_reserved":false,"is_disabled":true,"rental_uris":{"android":"levelo://app?vid=22a5c6e1-bb6b-4333-8051-e7583e5afc36","ios":"levelo://app?vid=22a5c6e1-bb6b-4333-8051-e7583e5afc36"},"vehicle_type_id":"4","last_reported":1739153479,"current_range_meters":38800,"station_id":"ce4bh3h2rcd13ifvqdo0","pricing_plan_id":"cebpf4jnsgd1na2vs0mg"},{"bike_id":"e922a998-68bd-49a9-b7e7-19716fa09a9c","system_id":"levelo_inurba_marseille","lat":43.29972,"lon":5.37186,"is_reserved":false,"is_disabled":false,"rental_uris":{"android":"levelo://app?vid=e922a998-68bd-49a9-b7e7-19716fa09a9c","ios":"levelo://app?vid=e922a998-68bd-49a9-b7e7-19716fa09a9c"},"vehicle_type_id":"4","last_reported":1739153479,"current_range_meters":38800,"station_id":"ce4bgr92rcd13ifvqc7g","pricing_plan_id":"cebpf4jnsgd1na2vs0mg"},{"bike_id":"3acdbd7b-d5de-4cb2-b3ca-5916b021fd2b","system_id":"levelo_inurba_marseille","lat":43.28936,"lon":5.36619,"is_reserved":false,"is_disabled":false,"rental_uris":{"android":"levelo://app?vid=3acdbd7b-d5de-4cb2-b3ca-5916b021fd2b","ios":"levelo://app?vid=3acdbd7b-d5de-4cb2-b3ca-5916b021fd2b"},"vehicle_type_id":"4","last_reported":1739153479,"current_range_meters":38400,"station_id":"ce4bhap2rcd13ifvqek0","pricing_plan_id":"cebpf4jnsgd1na2vs0mg"},{"bike_id":"cb7cea78-096e-459c-809e-84e5f255dc87","system_id":"levelo_inurba_marseille","lat":43.29449,"lon":5.39741,"is_reserved":false,"is_disabled":false,"rental_uris":{"android":"levelo://app?vid=cb7cea78-096e-459c-809e-84e5f255dc87","ios":"levelo://app?vid=cb7cea78-096e-459c-809e-84e5f255dc87"},"vehicle_type_id":"4","last_reported":1739153479,"current_range_meters":38000,"station_id":"ce4bh3h2rcd13ifvqdo0","pricing_plan_id":"cebpf4jnsgd1na2vs0mg"},{"bike_id":"fd7f60dd-1b52-46f9-9b6b-de4b0fe7477f","system_id":"levelo_inurba_marseille","lat":43.27074,"lon":5.42279,"is_reserved":false,"is_disabled":true,"rental_uris":{"android":"levelo://app?vid=fd7f60dd-1b52-46f9-9b6b-de4b0fe7477f","ios":"levelo://app?vid=fd7f60dd-1b52-46f9-9b6b-de4b0fe7477f"},"vehicle_type_id":"4","last_reported":1739153479,"current_range_meters":31200,"station_id":"ce4bhk92rcd13ifvqgb0","pricing_plan_id":"cebpf4jnsgd1na2vs0mg"},{"bike_id":"2a256a54-1e9f-4d2e-856a-c49046f7dde9","system_id":"levelo_inurba_marseille","lat":43.26065,"lon":5.39397,"is_reserved":false,"is_disabled":false,"rental_uris":{"android":"levelo://app?vid=2a256a54-1e9f-4d2e-856a-c49046f7dde9","ios":"levelo://app?vid=2a256a54-1e9f-4d2e-856a-c49046f7dde9"},"vehicle_type_id":"4","last_reported":1739153479,"current_range_meters":38800,"station_id":"ce4bhh92rcd13ifvqfj0","pricing_plan_id":"cebpf4jnsgd1na2vs0mg"},{"bike_id":"8802eaae-1412-4b2a-9df1-423615bb9b62","system_id":"levelo_inurba_marseille","lat":43.30609,"lon":5.37219,"is_reserved":false,"is_disabled":false,"rental_uris":{"android":"levelo://app?vid=8802eaae-1412-4b2a-9df1-423615bb9b62","ios":"levelo://app?vid=8802eaae-1412-4b2a-9df1-423615bb9b62"},"vehicle_type_id":"4","last_reported":1739153479,"current_range_meters":25200,"station_id":"ce4bgqh2rcd13ifvqc4g","pricing_plan_id":"cebpf4jnsgd1na2vs0mg"},{"bike_id":"05317d66-bc6a-4bc6-aaaf-c5d9ca64bc2c","system_id":"levelo_inurba_marseille","lat":43.28553,"lon":5.39465,"is_reserved":false,"is_disabled":false,"rental_uris":{"android":"levelo://app?vid=05317d66-bc6a-4bc6-aaaf-c5d9ca64bc2c","ios":"levelo://app?vid=05317d66-bc6a-4bc6-aaaf-c5d9ca64bc2c"},"vehicle_type_id":"4","last_reported":1739153479,"current_range_meters":37600,"station_id":"ce4bh292rcd13ifvqdg0","pricing_plan_id":"cebpf4jnsgd1na2vs0mg"},{"bike_id":"17cc233b-4927-4413-aa6b-1c4dfd84036b","system_id":"levelo_inurba_marseille","lat":43.28611,"lon":5.35105,"is_reserved":false,"is_disabled":false,"rental_uris":{"android":"levelo://app?vid=17cc233b-4927-4413-aa6b-1c4dfd84036b","ios":"levelo://app?vid=17cc233b-4927-4413-aa6b-1c4dfd84036b"},"vehicle_type_id":"4","last_reported":1739153479,"current_range_meters":30000,"station_id":"ce4bhch2rcd13ifvqeug","pricing_plan_id":"cebpf4jnsgd1na2vs0mg"},{"bike_id":"b108129b-a98c-44dc-9179-6b5664963c24","system_id":"levelo_inurba_marseille","lat":43.23943,"lon":5.36639,"is_reserved":false,"is_disabled":false,"rental_uris":{"android":"levelo://app?vid=b108129b-a98c-44dc-9179-6b5664963c24","ios":"levelo://app?vid=b108129b-a98c-44dc-9179-6b5664963c24"},"vehicle_type_id":"4","last_reported":1739153479,"current_range_meters":37600,"station_id":"ce4bhi12rcd13ifvqfp0","pricing_plan_id":"cebpf4jnsgd1na2vs0mg"},{"bike_id":"78a185a7-75a0-4ed5-bb58-6aa660a67990","system_id":"levelo_inurba_marseille","lat":43.28355,"lon":5.38097,"is_reserved":false,"is_disabled":false,"rental_uris":{"android":"levelo://app?vid=78a185a7-75a0-4ed5-bb58-6aa660a67990","ios":"levelo://app?vid=78a185a7-75a0-4ed5-bb58-6aa660a67990"},"vehicle_type_id":"4","last_reported":1739153479,"current_range_meters":38800,"station_id":"ce4bh412rcd13ifvqdr0","pricing_plan_id":"cebpf4jnsgd1na2vs0mg"},{"bike_id":"a9bb48e8-2ec0-4121-955b-bf58914eeaab","system_id":"levelo_inurba_marseille","lat":43.3046,"lon":5.38219,"is_reserved":false,"is_disabled":false,"rental_uris":{"android":"levelo://app?vid=a9bb48e8-2ec0-4121-955b-bf58914eeaab","ios":"levelo://app?vid=a9bb48e8-2ec0-4121-955b-bf58914eeaab"},"vehicle_type_id":"4","last_reported":1739153479,"current_range_meters":35200,"station_id":"","pricing_plan_id":"cebpf4jnsgd1na2vs0mg"},{"bike_id":"03b0eb25-29ab-46cb-ad6e-20033cf7c6d4","system_id":"levelo_inurba_marseille","lat":43.28836,"lon":5.39324,"is_reserved":false,"is_disabled":false,"rental_uris":{"android":"levelo://app?vid=03b0eb25-29ab-46cb-ad6e-20033cf7c6d4","ios":"levelo://app?vid=03b0eb25-29ab-46cb-ad6e-20033cf7c6d4"},"vehicle_type_id":"4","last_reported":1739153479,"current_range_meters":23200,"station_id":"ce4bh2p2rcd13ifvqdi0","pricing_plan_id":"cebpf4jnsgd1na2vs0mg"},{"bike_id":"6a14739a-b5fc-42d5-9b40-b808b7ab9afe","system_id":"levelo_inurba_marseille","lat":43.24687,"lon":5.38173,"is_reserved":false,"is_disabled":false,"rental_uris":{"android":"levelo://app?vid=6a14739a-b5fc-42d5-9b40-b808b7ab9afe","ios":"levelo://app?vid=6a14739a-b5fc-42d5-9b40-b808b7ab9afe"},"vehicle_type_id":"4","last_reported":1739153479,"current_range_meters":32800,"station_id":"ce4bhih2rcd13ifvqfr0","pricing_plan_id":"cebpf4jnsgd1na2vs0mg"},{"bike_id":"414710c8-1cc9-489b-a89f-e706aae04795","system_id":"levelo_inurba_marseille","lat":43.27948,"lon":5.41045,"is_reserved":false,"is_disabled":false,"rental_uris":{"android":"levelo://app?vid=414710c8-1cc9-489b-a89f-e706aae04795","ios":"levelo://app?vid=414710c8-1cc9-489b-a89f-e706aae04795"},"vehicle_type_id":"4","last_reported":1739153479,"current_range_meters":35600,"station_id":"ce4bhnp2rcd13ifvqh0g","pricing_plan_id":"cebpf4jnsgd1na2vs0mg"},{"bike_id":"9da2535f-e77c-4f48-aae1-c197f0a0daad","system_id":"levelo_inurba_marseille","lat":43.27983,"lon":5.41664,"is_reserved":false,"is_disabled":false,"rental_uris":{"android":"levelo://app?vid=9da2535f-e77c-4f48-aae1-c197f0a0daad","ios":"levelo://app?vid=9da2535f-e77c-4f48-aae1-c197f0a0daad"},"vehicle_type_id":"4","last_reported":1739153479,"current_range_meters":38800,"station_id":"ce4bho12rcd13ifvqh1g","pricing_plan_id":"cebpf4jnsgd1na2vs0mg"},{"bike_id":"7907c11f-3c79-4dd6-931b-6c5fc9d16927","system_id":"levelo_inurba_marseille","lat":43.28073,"lon":5.39637,"is_reserved":false,"is_disabled":false,"rental_uris":{"android":"levelo://app?vid=7907c11f-3c79-4dd6-931b-6c5fc9d16927","ios":"levelo://app?vid=7907c11f-3c79-4dd6-931b-6c5fc9d16927"},"vehicle_type_id":"4","last_reported":1739153479,"current_range_meters":38800,"station_id":"ce4bho12rcd13ifvqh2g","pricing_plan_id":"cebpf4jnsgd1na2vs0mg"},{"bike_id":"509991cb-55ac-4408-b763-08ae4cd6f988","system_id":"levelo_inurba_marseille","lat":43.29765,"lon":5.39348,"is_reserved":false,"is_disabled":false,"rental_uris":{"android":"levelo://app?vid=509991cb-55ac-4408-b763-08ae4cd6f988","ios":"levelo://app?vid=509991cb-55ac-4408-b763-08ae4cd6f988"},"vehicle_type_id":"4","last_reported":1739153479,"current_range_meters":38800,"station_id":"chh1huq6cuj3fo74tm60","pricing_plan_id":"cebpf4jnsgd1na2vs0mg"},{"bike_id":"ee7c9078-709f-4dd4-a90e-a549fdb93574","system_id":"levelo_inurba_marseille","lat":43.30888,"lon":5.3963,"is_reserved":false,"is_disabled":false,"rental_uris":{"android":"levelo://app?vid=ee7c9078-709f-4dd4-a90e-a549fdb93574","ios":"levelo://app?vid=ee7c9078-709f-4dd4-a90e-a549fdb93574"},"vehicle_type_id":"4","last_reported":1739153479,"current_range_meters":20400,"station_id":"ce4bh012rcd13ifvqcv0","pricing_plan_id":"cebpf4jnsgd1na2vs0mg"},{"bike_id":"29c9ba85-0135-4611-af6c-b8dee113d319","system_id":"levelo_inurba_marseille","lat":43.26948,"lon":5.38644,"is_reserved":false,"is_disabled":false,"rental_uris":{"android":"levelo://app?vid=29c9ba85-0135-4611-af6c-b8dee113d319","ios":"levelo://app?vid=29c9ba85-0135-4611-af6c-b8dee113d319"},"vehicle_type_id":"4","last_reported":1739153479,"current_range_meters":38800,"station_id":"ce4bhh92rcd13ifvqfh0","pricing_plan_id":"cebpf4jnsgd1na2vs0mg"},{"bike_id":"6071658d-80ff-44a5-a829-91cb118def46","system_id":"levelo_inurba_marseille","lat":43.23194,"lon":5.39977,"is_reserved":false,"is_disabled":false,"rental_uris":{"android":"levelo://app?vid=6071658d-80ff-44a5-a829-91cb118def46","ios":"levelo://app?vid=6071658d-80ff-44a5-a829-91cb118def46"},"vehicle_type_id":"4","last_reported":1739153479,"current_range_meters":37600,"station_id":"ce4bhn12rcd13ifvqgqg","pricing_plan_id":"cebpf4jnsgd1na2vs0mg"},{"bike_id":"1ce1764c-394e-43d2-9be8-2c487193aeec","system_id":"levelo_inurba_marseille","lat":43.32654,"lon":5.40986,"is_reserved":false,"is_disabled":false,"rental_uris":{"android":"levelo://app?vid=1ce1764c-394e-43d2-9be8-2c487193aeec","ios":"levelo://app?vid=1ce1764c-394e-43d2-9be8-2c487193aeec"},"vehicle_type_id":"4","last_reported":1739153479,"current_range_meters":38800,"station_id":"ce4bhpp2rcd13ifvqhgg","pricing_plan_id":"cebpf4jnsgd1na2vs0mg"},{"bike_id":"1581382c-c723-4701-934d-a30ee18ac534","system_id":"levelo_inurba_marseille","lat":43.28752,"lon":5.40011,"is_reserved":false,"is_disabled":false,"rental_uris":{"android":"levelo://app?vid=1581382c-c723-4701-934d-a30ee18ac534","ios":"levelo://app?vid=1581382c-c723-4701-934d-a30ee18ac534"},"vehicle_type_id":"4","last_reported":1739153479,"current_range_meters":11200,"station_id":"ce4bho92rcd13ifvqh3g","pricing_plan_id":"cebpf4jnsgd1na2vs0mg"},{"bike_id":"e6be63e9-14c3-419b-bde8-22acf2b44567","system_id":"levelo_inurba_marseille","lat":43.32363,"lon":5.38882,"is_reserved":false,"is_disabled":false,"rental_uris":{"android":"levelo://app?vid=e6be63e9-14c3-419b-bde8-22acf2b44567","ios":"levelo://app?vid=e6be63e9-14c3-419b-bde8-22acf2b44567"},"vehicle_type_id":"4","last_reported":1739153479,"current_range_meters":14800,"station_id":"ce4bhqp2rcd13ifvqhog","pricing_plan_id":"cebpf4jnsgd1na2vs0mg"},{"bike_id":"497b70f9-8356-4d26-8a8b-8d35f1fbba02","system_id":"levelo_inurba_marseille","lat":43.31167,"lon":5.38713,"is_reserved":false,"is_disabled":false,"rental_uris":{"android":"levelo://app?vid=497b70f9-8356-4d26-8a8b-8d35f1fbba02","ios":"levelo://app?vid=497b70f9-8356-4d26-8a8b-8d35f1fbba02"},"vehicle_type_id":"4","last_reported":1739153479,"current_range_meters":8800,"station_id":"ce4bgv12rcd13ifvqcp0","pricing_plan_id":"cebpf4jnsgd1na2vs0mg"},{"bike_id":"52dd4d60-0f73-4f62-8808-1c67e5f3eea4","system_id":"levelo_inurba_marseille","lat":43.2782,"lon":5.39196,"is_reserved":false,"is_disabled":false,"rental_uris":{"android":"levelo://app?vid=52dd4d60-0f73-4f62-8808-1c67e5f3eea4","ios":"levelo://app?vid=52dd4d60-0f73-4f62-8808-1c67e5f3eea4"},"vehicle_type_id":"4","last_reported":1739153479,"current_range_meters":39200,"station_id":"ce4bhjp2rcd13ifvqga0","pricing_plan_id":"cebpf4jnsgd1na2vs0mg"},{"bike_id":"ccb78696-46a1-4323-8616-e3ce582f947c","system_id":"levelo_inurba_marseille","lat":43.299726,"lon":5.371785,"is_reserved":false,"is_disabled":false,"rental_uris":{"android":"levelo://app?vid=ccb78696-46a1-4323-8616-e3ce582f947c","ios":"levelo://app?vid=ccb78696-46a1-4323-8616-e3ce582f947c"},"vehicle_type_id":"4","last_reported":1739153479,"current_range_meters":23200,"station_id":"ce4bgr92rcd13ifvqc7g","pricing_plan_id":"cebpf4jnsgd1na2vs0mg"},{"bike_id":"feb88550-e0be-436b-8788-d89f27f5c422","system_id":"levelo_inurba_marseille","lat":43.31236,"lon":5.36869,"is_reserved":false,"is_disabled":false,"rental_uris":{"android":"levelo://app?vid=feb88550-e0be-436b-8788-d89f27f5c422","ios":"levelo://app?vid=feb88550-e0be-436b-8788-d89f27f5c422"},"vehicle_type_id":"4","last_reported":1739153479,"current_range_meters":38800,"station_id":"ce4bgl92rcd13ifvqbq0","pricing_plan_id":"cebpf4jnsgd1na2vs0mg"},{"bike_id":"2b5781c9-d3d9-4875-b5da-04147f9edefe","system_id":"levelo_inurba_marseille","lat":43.280306,"lon":5.369523,"is_reserved":false,"is_disabled":false,"rental_uris":{"android":"levelo://app?vid=2b5781c9-d3d9-4875-b5da-04147f9edefe","ios":"levelo://app?vid=2b5781c9-d3d9-4875-b5da-04147f9edefe"},"vehicle_type_id":"4","last_reported":1739153479,"current_range_meters":14000,"station_id":"ce4bha12rcd13ifvqef0","pricing_plan_id":"cebpf4jnsgd1na2vs0mg"},{"bike_id":"c5789181-d252-4c46-b75d-908f3a6a38fe","system_id":"levelo_inurba_marseille","lat":43.33725,"lon":5.39183,"is_reserved":false,"is_disabled":false,"rental_uris":{"android":"levelo://app?vid=c5789181-d252-4c46-b75d-908f3a6a38fe","ios":"levelo://app?vid=c5789181-d252-4c46-b75d-908f3a6a38fe"},"vehicle_type_id":"4","last_reported":1739153479,"current_range_meters":38800,"station_id":"ce4bhr92rcd13ifvqhsg","pricing_plan_id":"cebpf4jnsgd1na2vs0mg"},{"bike_id":"4662cadc-d8cc-46d4-8513-fe6cec73d116","system_id":"levelo_inurba_marseille","lat":43.31344,"lon":5.38503,"is_reserved":false,"is_disabled":false,"rental_uris":{"android":"levelo://app?vid=4662cadc-d8cc-46d4-8513-fe6cec73d116","ios":"levelo://app?vid=4662cadc-d8cc-46d4-8513-fe6cec73d116"},"vehicle_type_id":"4","last_reported":1739153479,"current_range_meters":36000,"station_id":"ce4bgt92rcd13ifvqcf0","pricing_plan_id":"cebpf4jnsgd1na2vs0mg"},{"bike_id":"eadb002c-aff3-497b-9382-03b50b72d244","system_id":"levelo_inurba_marseille","lat":43.28834,"lon":5.39344,"is_reserved":false,"is_disabled":false,"rental_uris":{"android":"levelo://app?vid=eadb002c-aff3-497b-9382-03b50b72d244","ios":"levelo://app?vid=eadb002c-aff3-497b-9382-03b50b72d244"},"vehicle_type_id":"4","last_reported":1739153479,"current_range_meters":38800,"station_id":"ce4bh2p2rcd13ifvqdi0","pricing_plan_id":"cebpf4jnsgd1na2vs0mg"},{"bike_id":"d5cbbdca-cbee-453f-8661-1af35dc9ad1e","system_id":"levelo_inurba_marseille","lat":43.29811,"lon":5.40399,"is_reserved":false,"is_disabled":false,"rental_uris":{"android":"levelo://app?vid=d5cbbdca-cbee-453f-8661-1af35dc9ad1e","ios":"levelo://app?vid=d5cbbdca-cbee-453f-8661-1af35dc9ad1e"},"vehicle_type_id":"4","last_reported":1739153479,"current_range_meters":38800,"station_id":"ce4bh112rcd13ifvqd90","pricing_plan_id":"cebpf4jnsgd1na2vs0mg"},{"bike_id":"aec70e69-6051-4962-b9c5-d72001832294","system_id":"levelo_inurba_marseille","lat":43.27562,"lon":5.3841,"is_reserved":false,"is_disabled":false,"rental_uris":{"android":"levelo://app?vid=aec70e69-6051-4962-b9c5-d72001832294","ios":"levelo://app?vid=aec70e69-6051-4962-b9c5-d72001832294"},"vehicle_type_id":"4","last_reported":1739153479,"current_range_meters":38800,"station_id":"ce4bhh92rcd13ifvqfi0","pricing_plan_id":"cebpf4jnsgd1na2vs0mg"},{"bike_id":"0465b098-501d-4eaa-9851-ecad7c11e06c","system_id":"levelo_inurba_marseille","lat":43.27845,"lon":5.40736,"is_reserved":false,"is_disabled":false,"rental_uris":{"android":"levelo://app?vid=0465b098-501d-4eaa-9851-ecad7c11e06c","ios":"levelo://app?vid=0465b098-501d-4eaa-9851-ecad7c11e06c"},"vehicle_type_id":"4","last_reported":1739153479,"current_range_meters":37600,"station_id":"ce4bhnh2rcd13ifvqgtg","pricing_plan_id":"cebpf4jnsgd1na2vs0mg"},{"bike_id":"c639e761-78ab-4037-aab4-60cfebbed0e1","system_id":"levelo_inurba_marseille","lat":43.28178,"lon":5.42697,"is_reserved":false,"is_disabled":false,"rental_uris":{"android":"levelo://app?vid=c639e761-78ab-4037-aab4-60cfebbed0e1","ios":"levelo://app?vid=c639e761-78ab-4037-aab4-60cfebbed0e1"},"vehicle_type_id":"4","last_reported":1739153479,"current_range_meters":27600,"station_id":"","pricing_plan_id":"cebpf4jnsgd1na2vs0mg"},{"bike_id":"a0e4aa32-2930-4b3f-a9c9-c8d667116e7d","system_id":"levelo_inurba_marseille","lat":43.30164,"lon":5.39672,"is_reserved":false,"is_disabled":false,"rental_uris":{"android":"levelo://app?vid=a0e4aa32-2930-4b3f-a9c9-c8d667116e7d","ios":"levelo://app?vid=a0e4aa32-2930-4b3f-a9c9-c8d667116e7d"},"vehicle_type_id":"4","last_reported":1739153479,"current_range_meters":20800,"station_id":"","pricing_plan_id":"cebpf4jnsgd1na2vs0mg"},{"bike_id":"ff4d285c-32a7-4a68-98cc-31f88255627e","system_id":"levelo_inurba_marseille","lat":43.28376,"lon":5.37507,"is_reserved":false,"is_disabled":false,"rental_uris":{"android":"levelo://app?vid=ff4d285c-32a7-4a68-98cc-31f88255627e","ios":"levelo://app?vid=ff4d285c-32a7-4a68-98cc-31f88255627e"},"vehicle_type_id":"4","last_reported":1739153479,"current_range_meters":26800,"station_id":"ce4bh412rcd13ifvqds0","pricing_plan_id":"cebpf4jnsgd1na2vs0mg"},{"bike_id":"bc4abc58-0169-44e7-a2dd-d4fa4a8b4eb9","system_id":"levelo_inurba_marseille","lat":43.24181,"lon":5.39719,"is_reserved":false,"is_disabled":false,"rental_uris":{"android":"levelo://app?vid=bc4abc58-0169-44e7-a2dd-d4fa4a8b4eb9","ios":"levelo://app?vid=bc4abc58-0169-44e7-a2dd-d4fa4a8b4eb9"},"vehicle_type_id":"4","last_reported":1739153479,"current_range_meters":19200,"station_id":"ce4bhn12rcd13ifvqgpg","pricing_plan_id":"cebpf4jnsgd1na2vs0mg"},{"bike_id":"8d1bc373-7d32-4dd9-9a78-d7a1451cb355","system_id":"levelo_inurba_marseille","lat":43.26059,"lon":5.39395,"is_reserved":false,"is_disabled":false,"rental_uris":{"android":"levelo://app?vid=8d1bc373-7d32-4dd9-9a78-d7a1451cb355","ios":"levelo://app?vid=8d1bc373-7d32-4dd9-9a78-d7a1451cb355"},"vehicle_type_id":"4","last_reported":1739153479,"current_range_meters":38400,"station_id":"ce4bhh92rcd13ifvqfj0","pricing_plan_id":"cebpf4jnsgd1na2vs0mg"},{"bike_id":"2f6862ce-7d35-49f8-a98e-f4bd56373d4a","system_id":"levelo_inurba_marseille","lat":43.30211,"lon":5.39473,"is_reserved":false,"is_disabled":false,"rental_uris":{"android":"levelo://app?vid=2f6862ce-7d35-49f8-a98e-f4bd56373d4a","ios":"levelo://app?vid=2f6862ce-7d35-49f8-a98e-f4bd56373d4a"},"vehicle_type_id":"4","last_reported":1739153479,"current_range_meters":38400,"station_id":"ce4bh0p2rcd13ifvqd70","pricing_plan_id":"cebpf4jnsgd1na2vs0mg"},{"bike_id":"880ce712-c0f5-4aaf-8504-50bcf653db47","system_id":"levelo_inurba_marseille","lat":43.24821,"lon":5.37441,"is_reserved":false,"is_disabled":false,"rental_uris":{"android":"levelo://app?vid=880ce712-c0f5-4aaf-8504-50bcf653db47","ios":"levelo://app?vid=880ce712-c0f5-4aaf-8504-50bcf653db47"},"vehicle_type_id":"4","last_reported":1739153479,"current_range_meters":27200,"station_id":"ce4bhgh2rcd13ifvqfb0","pricing_plan_id":"cebpf4jnsgd1na2vs0mg"},{"bike_id":"ee9cd95f-558c-4d1b-b8e7-18e8b49b2941","system_id":"levelo_inurba_marseille","lat":43.288424,"lon":5.393246,"is_reserved":false,"is_disabled":false,"rental_uris":{"android":"levelo://app?vid=ee9cd95f-558c-4d1b-b8e7-18e8b49b2941","ios":"levelo://app?vid=ee9cd95f-558c-4d1b-b8e7-18e8b49b2941"},"vehicle_type_id":"4","last_reported":1739153479,"current_range_meters":25600,"station_id":"ce4bh2p2rcd13ifvqdi0","pricing_plan_id":"cebpf4jnsgd1na2vs0mg"},{"bike_id":"013ac57c-0826-426d-84a7-60e833c60d0a","system_id":"levelo_inurba_marseille","lat":43.3235,"lon":5.40647,"is_reserved":false,"is_disabled":false,"rental_uris":{"android":"levelo://app?vid=013ac57c-0826-426d-84a7-60e833c60d0a","ios":"levelo://app?vid=013ac57c-0826-426d-84a7-60e833c60d0a"},"vehicle_type_id":"4","last_reported":1739153479,"current_range_meters":11600,"station_id":"ce4bhq92rcd13ifvqhjg","pricing_plan_id":"cebpf4jnsgd1na2vs0mg"},{"bike_id":"656b3b3b-ebfa-4345-b7c9-9eedd9381155","system_id":"levelo_inurba_marseille","lat":43.307971,"lon":5.400136,"is_reserved":false,"is_disabled":false,"rental_uris":{"android":"levelo://app?vid=656b3b3b-ebfa-4345-b7c9-9eedd9381155","ios":"levelo://app?vid=656b3b3b-ebfa-4345-b7c9-9eedd9381155"},"vehicle_type_id":"4","last_reported":1739153479,"current_range_meters":9600,"station_id":"","pricing_plan_id":"cebpf4jnsgd1na2vs0mg"},{"bike_id":"aea3eb82-f7ff-4df2-9cb5-b8bcfeb13683","system_id":"levelo_inurba_marseille","lat":43.30901,"lon":5.36828,"is_reserved":false,"is_disabled":false,"rental_uris":{"android":"levelo://app?vid=aea3eb82-f7ff-4df2-9cb5-b8bcfeb13683","ios":"levelo://app?vid=aea3eb82-f7ff-4df2-9cb5-b8bcfeb13683"},"vehicle_type_id":"4","last_reported":1739153479,"current_range_meters":19200,"station_id":"ce4bgn92rcd13ifvqbvg","pricing_plan_id":"cebpf4jnsgd1na2vs0mg"},{"bike_id":"61eb2808-2c90-4520-bbbd-2714ebd35cad","system_id":"levelo_inurba_marseille","lat":43.28722,"lon":5.36085,"is_reserved":false,"is_disabled":false,"rental_uris":{"android":"levelo://app?vid=61eb2808-2c90-4520-bbbd-2714ebd35cad","ios":"levelo://app?vid=61eb2808-2c90-4520-bbbd-2714ebd35cad"},"vehicle_type_id":"4","last_reported":1739153479,"current_range_meters":16000,"station_id":"cki0cbj6b192h4jlfktg","pricing_plan_id":"cebpf4jnsgd1na2vs0mg"},{"bike_id":"f9ec8a41-50bd-48e3-a9c3-1936ef8a8e37","system_id":"levelo_inurba_marseille","lat":43.26913,"lon":5.38674,"is_reserved":false,"is_disabled":false,"rental_uris":{"android":"levelo://app?vid=f9ec8a41-50bd-48e3-a9c3-1936ef8a8e37","ios":"levelo://app?vid=f9ec8a41-50bd-48e3-a9c3-1936ef8a8e37"},"vehicle_type_id":"4","last_reported":1739153479,"current_range_meters":38800,"station_id":"ce4bhh92rcd13ifvqfh0","pricing_plan_id":"cebpf4jnsgd1na2vs0mg"},{"bike_id":"5f4c0fcb-a35b-4374-aa55-6ae702d7d671","system_id":"levelo_inurba_marseille","lat":43.28453,"lon":5.35893,"is_reserved":false,"is_disabled":false,"rental_uris":{"android":"levelo://app?vid=5f4c0fcb-a35b-4374-aa55-6ae702d7d671","ios":"levelo://app?vid=5f4c0fcb-a35b-4374-aa55-6ae702d7d671"},"vehicle_type_id":"4","last_reported":1739153479,"current_range_meters":34000,"station_id":"ce4bhah2rcd13ifvqei0","pricing_plan_id":"cebpf4jnsgd1na2vs0mg"},{"bike_id":"32377b15-aaab-41c8-ac5a-c4269621e1be","system_id":"levelo_inurba_marseille","lat":43.31138,"lon":5.37756,"is_reserved":false,"is_disabled":false,"rental_uris":{"android":"levelo://app?vid=32377b15-aaab-41c8-ac5a-c4269621e1be","ios":"levelo://app?vid=32377b15-aaab-41c8-ac5a-c4269621e1be"},"vehicle_type_id":"4","last_reported":1739153479,"current_range_meters":28000,"station_id":"ce4bgt92rcd13ifvqcg0","pricing_plan_id":"cebpf4jnsgd1na2vs0mg"},{"bike_id":"0b528559-9a9c-4cea-98e0-97268d8299a7","system_id":"levelo_inurba_marseille","lat":43.30645,"lon":5.4009,"is_reserved":false,"is_disabled":false,"rental_uris":{"android":"levelo://app?vid=0b528559-9a9c-4cea-98e0-97268d8299a7","ios":"levelo://app?vid=0b528559-9a9c-4cea-98e0-97268d8299a7"},"vehicle_type_id":"4","last_reported":1739153479,"current_range_meters":27600,"station_id":"ce4bh112rcd13ifvqda0","pricing_plan_id":"cebpf4jnsgd1na2vs0mg"},{"bike_id":"7f2deb56-183c-436c-981c-cfbcfece13e6","system_id":"levelo_inurba_marseille","lat":43.23955,"lon":5.36619,"is_reserved":false,"is_disabled":false,"rental_uris":{"android":"levelo://app?vid=7f2deb56-183c-436c-981c-cfbcfece13e6","ios":"levelo://app?vid=7f2deb56-183c-436c-981c-cfbcfece13e6"},"vehicle_type_id":"4","last_reported":1739153479,"current_range_meters":38000,"station_id":"ce4bhi12rcd13ifvqfp0","pricing_plan_id":"cebpf4jnsgd1na2vs0mg"},{"bike_id":"78d02369-be40-430d-815e-27147b18316e","system_id":"levelo_inurba_marseille","lat":43.28407,"lon":5.37525,"is_reserved":false,"is_disabled":false,"rental_uris":{"android":"levelo://app?vid=78d02369-be40-430d-815e-27147b18316e","ios":"levelo://app?vid=78d02369-be40-430d-815e-27147b18316e"},"vehicle_type_id":"4","last_reported":1739153479,"current_range_meters":26800,"station_id":"ce4bh412rcd13ifvqds0","pricing_plan_id":"cebpf4jnsgd1na2vs0mg"},{"bike_id":"1c392f62-33c0-4d1d-9a0e-eb4241b06292","system_id":"levelo_inurba_marseille","lat":43.24073,"lon":5.37749,"is_reserved":false,"is_disabled":false,"rental_uris":{"android":"levelo://app?vid=1c392f62-33c0-4d1d-9a0e-eb4241b06292","ios":"levelo://app?vid=1c392f62-33c0-4d1d-9a0e-eb4241b06292"},"vehicle_type_id":"4","last_reported":1739153479,"current_range_meters":9600,"station_id":"ce4bhnp2rcd13ifvqgvg","pricing_plan_id":"cebpf4jnsgd1na2vs0mg"},{"bike_id":"a5a14ac8-8c40-406c-865a-09ed98e25470","system_id":"levelo_inurba_marseille","lat":43.23197,"lon":5.35549,"is_reserved":false,"is_disabled":false,"rental_uris":{"android":"levelo://app?vid=a5a14ac8-8c40-406c-865a-09ed98e25470","ios":"levelo://app?vid=a5a14ac8-8c40-406c-865a-09ed98e25470"},"vehicle_type_id":"4","last_reported":1739153479,"current_range_meters":10800,"station_id":"ce4bhu92rcd13ifvqi70","pricing_plan_id":"cebpf4jnsgd1na2vs0mg"},{"bike_id":"9d7240fb-8e21-4950-bea4-7cd7d1bcedc2","system_id":"levelo_inurba_marseille","lat":43.28155,"lon":5.42643,"is_reserved":false,"is_disabled":false,"rental_uris":{"android":"levelo://app?vid=9d7240fb-8e21-4950-bea4-7cd7d1bcedc2","ios":"levelo://app?vid=9d7240fb-8e21-4950-bea4-7cd7d1bcedc2"},"vehicle_type_id":"4","last_reported":1739153479,"current_range_meters":20800,"station_id":"ce4bhnh2rcd13ifvqgug","pricing_plan_id":"cebpf4jnsgd1na2vs0mg"},{"bike_id":"b75dc079-98bf-4019-97d6-8dd680862509","system_id":"levelo_inurba_marseille","lat":43.27832,"lon":5.39204,"is_reserved":false,"is_disabled":false,"rental_uris":{"android":"levelo://app?vid=b75dc079-98bf-4019-97d6-8dd680862509","ios":"levelo://app?vid=b75dc079-98bf-4019-97d6-8dd680862509"},"vehicle_type_id":"4","last_reported":1739153479,"current_range_meters":18800,"station_id":"ce4bhjp2rcd13ifvqga0","pricing_plan_id":"cebpf4jnsgd1na2vs0mg"},{"bike_id":"87f55178-b221-4f5a-9b43-4df846d42ec8","system_id":"levelo_inurba_marseille","lat":43.32286,"lon":5.38284,"is_reserved":false,"is_disabled":false,"rental_uris":{"android":"levelo://app?vid=87f55178-b221-4f5a-9b43-4df846d42ec8","ios":"levelo://app?vid=87f55178-b221-4f5a-9b43-4df846d42ec8"},"vehicle_type_id":"4","last_reported":1739153479,"current_range_meters":27200,"station_id":"ce4bhr12rcd13ifvqhqg","pricing_plan_id":"cebpf4jnsgd1na2vs0mg"},{"bike_id":"36456092-02af-4986-81b0-acf304d0e1aa","system_id":"levelo_inurba_marseille","lat":43.2408,"lon":5.37751,"is_reserved":false,"is_disabled":false,"rental_uris":{"android":"levelo://app?vid=36456092-02af-4986-81b0-acf304d0e1aa","ios":"levelo://app?vid=36456092-02af-4986-81b0-acf304d0e1aa"},"vehicle_type_id":"4","last_reported":1739153479,"current_range_meters":38400,"station_id":"ce4bhnp2rcd13ifvqgvg","pricing_plan_id":"cebpf4jnsgd1na2vs0mg"},{"bike_id":"ab445631-9e5a-46dc-8708-c7ea376fcabc","system_id":"levelo_inurba_marseille","lat":43.25083,"lon":5.39509,"is_reserved":false,"is_disabled":false,"rental_uris":{"android":"levelo://app?vid=ab445631-9e5a-46dc-8708-c7ea376fcabc","ios":"levelo://app?vid=ab445631-9e5a-46dc-8708-c7ea376fcabc"},"vehicle_type_id":"4","last_reported":1739153479,"current_range_meters":16000,"station_id":"ce4bhm12rcd13ifvqgkg","pricing_plan_id":"cebpf4jnsgd1na2vs0mg"},{"bike_id":"42da078a-a3f2-4210-a507-da2b76ddcd09","system_id":"levelo_inurba_marseille","lat":43.27918,"lon":5.41067,"is_reserved":false,"is_disabled":false,"rental_uris":{"android":"levelo://app?vid=42da078a-a3f2-4210-a507-da2b76ddcd09","ios":"levelo://app?vid=42da078a-a3f2-4210-a507-da2b76ddcd09"},"vehicle_type_id":"4","last_reported":1739153479,"current_range_meters":32800,"station_id":"ce4bhnp2rcd13ifvqh0g","pricing_plan_id":"cebpf4jnsgd1na2vs0mg"},{"bike_id":"59db9156-837c-4bef-bdf0-6cb05d00fb23","system_id":"levelo_inurba_marseille","lat":43.241668,"lon":5.363995,"is_reserved":false,"is_disabled":false,"rental_uris":{"android":"levelo://app?vid=59db9156-837c-4bef-bdf0-6cb05d00fb23","ios":"levelo://app?vid=59db9156-837c-4bef-bdf0-6cb05d00fb23"},"vehicle_type_id":"4","last_reported":1739153479,"current_range_meters":20800,"station_id":"cpo36qri1sfpv3e86is0","pricing_plan_id":"cebpf4jnsgd1na2vs0mg"},{"bike_id":"4ad86ab8-bbb5-41f1-ac39-0b58a89ff2ae","system_id":"levelo_inurba_marseille","lat":43.30127,"lon":5.38767,"is_reserved":false,"is_disabled":false,"rental_uris":{"android":"levelo://app?vid=4ad86ab8-bbb5-41f1-ac39-0b58a89ff2ae","ios":"levelo://app?vid=4ad86ab8-bbb5-41f1-ac39-0b58a89ff2ae"},"vehicle_type_id":"4","last_reported":1739153479,"current_range_meters":38000,"station_id":"ce4bhoh2rcd13ifvqh6g","pricing_plan_id":"cebpf4jnsgd1na2vs0mg"},{"bike_id":"d3390ecb-8a8f-4eb0-88d0-b0d404280f3c","system_id":"levelo_inurba_marseille","lat":43.3266,"lon":5.40997,"is_reserved":false,"is_disabled":false,"rental_uris":{"android":"levelo://app?vid=d3390ecb-8a8f-4eb0-88d0-b0d404280f3c","ios":"levelo://app?vid=d3390ecb-8a8f-4eb0-88d0-b0d404280f3c"},"vehicle_type_id":"4","last_reported":1739153479,"current_range_meters":23200,"station_id":"ce4bhpp2rcd13ifvqhgg","pricing_plan_id":"cebpf4jnsgd1na2vs0mg"},{"bike_id":"f1e9b514-8d63-4512-92a1-4bc9d87c157b","system_id":"levelo_inurba_marseille","lat":43.31704,"lon":5.4372,"is_reserved":false,"is_disabled":true,"rental_uris":{"android":"levelo://app?vid=f1e9b514-8d63-4512-92a1-4bc9d87c157b","ios":"levelo://app?vid=f1e9b514-8d63-4512-92a1-4bc9d87c157b"},"vehicle_type_id":"4","last_reported":1739153479,"current_range_meters":0,"station_id":"ce4bhp92rcd13ifvqhcg","pricing_plan_id":"cebpf4jnsgd1na2vs0mg"},{"bike_id":"116a180f-5576-4e39-be0a-546c9a9a25cf","system_id":"levelo_inurba_marseille","lat":43.27572,"lon":5.38436,"is_reserved":false,"is_disabled":false,"rental_uris":{"android":"levelo://app?vid=116a180f-5576-4e39-be0a-546c9a9a25cf","ios":"levelo://app?vid=116a180f-5576-4e39-be0a-546c9a9a25cf"},"vehicle_type_id":"4","last_reported":1739153479,"current_range_meters":6400,"station_id":"ce4bhh92rcd13ifvqfi0","pricing_plan_id":"cebpf4jnsgd1na2vs0mg"},{"bike_id":"81d37ca3-5a86-4697-be03-dd0b787f28cf","system_id":"levelo_inurba_marseille","lat":43.32342,"lon":5.4061,"is_reserved":false,"is_disabled":true,"rental_uris":{"android":"levelo://app?vid=81d37ca3-5a86-4697-be03-dd0b787f28cf","ios":"levelo://app?vid=81d37ca3-5a86-4697-be03-dd0b787f28cf"},"vehicle_type_id":"4","last_reported":1739153479,"current_range_meters":800,"station_id":"ce4bhq92rcd13ifvqhjg","pricing_plan_id":"cebpf4jnsgd1na2vs0mg"},{"bike_id":"27fe88b6-f81f-4aba-983f-e2e9fb819079","system_id":"levelo_inurba_marseille","lat":43.3255,"lon":5.41457,"is_reserved":false,"is_disabled":false,"rental_uris":{"android":"levelo://app?vid=27fe88b6-f81f-4aba-983f-e2e9fb819079","ios":"levelo://app?vid=27fe88b6-f81f-4aba-983f-e2e9fb819079"},"vehicle_type_id":"4","last_reported":1739153479,"current_range_meters":37600,"station_id":"ce4bhq12rcd13ifvqhhg","pricing_plan_id":"cebpf4jnsgd1na2vs0mg"},{"bike_id":"6674b7a0-0829-4083-87e9-153a68d821fd","system_id":"levelo_inurba_marseille","lat":43.27837,"lon":5.392054,"is_reserved":false,"is_disabled":false,"rental_uris":{"android":"levelo://app?vid=6674b7a0-0829-4083-87e9-153a68d821fd","ios":"levelo://app?vid=6674b7a0-0829-4083-87e9-153a68d821fd"},"vehicle_type_id":"4","last_reported":1739153479,"current_range_meters":38800,"station_id":"ce4bhjp2rcd13ifvqga0","pricing_plan_id":"cebpf4jnsgd1na2vs0mg"},{"bike_id":"e6dc9bdf-237c-47b7-ab28-1a867206a3b1","system_id":"levelo_inurba_marseille","lat":43.30145,"lon":5.38109,"is_reserved":false,"is_disabled":true,"rental_uris":{"android":"levelo://app?vid=e6dc9bdf-237c-47b7-ab28-1a867206a3b1","ios":"levelo://app?vid=e6dc9bdf-237c-47b7-ab28-1a867206a3b1"},"vehicle_type_id":"4","last_reported":1739153479,"current_range_meters":24000,"station_id":"ce4bgjp2rcd13ifvqbh0","pricing_plan_id":"cebpf4jnsgd1na2vs0mg"},{"bike_id":"cdc0d086-58c9-4169-a3aa-b979c02be53a","system_id":"levelo_inurba_marseille","lat":43.30888,"lon":5.37222,"is_reserved":false,"is_disabled":false,"rental_uris":{"android":"levelo://app?vid=cdc0d086-58c9-4169-a3aa-b979c02be53a","ios":"levelo://app?vid=cdc0d086-58c9-4169-a3aa-b979c02be53a"},"vehicle_type_id":"4","last_reported":1739153479,"current_range_meters":35200,"station_id":"ce4bguh2rcd13ifvqckg","pricing_plan_id":"cebpf4jnsgd1na2vs0mg"},{"bike_id":"021e6bd5-daa3-472a-bb16-7b66448937d9","system_id":"levelo_inurba_marseille","lat":43.2483,"lon":5.37417,"is_reserved":false,"is_disabled":false,"rental_uris":{"android":"levelo://app?vid=021e6bd5-daa3-472a-bb16-7b66448937d9","ios":"levelo://app?vid=021e6bd5-daa3-472a-bb16-7b66448937d9"},"vehicle_type_id":"4","last_reported":1739153479,"current_range_meters":38400,"station_id":"","pricing_plan_id":"cebpf4jnsgd1na2vs0mg"},{"bike_id":"9c3ed8fb-7268-418c-ac09-3f255c9e9b5e","system_id":"levelo_inurba_marseille","lat":43.28042,"lon":5.36943,"is_reserved":false,"is_disabled":false,"rental_uris":{"android":"levelo://app?vid=9c3ed8fb-7268-418c-ac09-3f255c9e9b5e","ios":"levelo://app?vid=9c3ed8fb-7268-418c-ac09-3f255c9e9b5e"},"vehicle_type_id":"4","last_reported":1739153479,"current_range_meters":35600,"station_id":"ce4bha12rcd13ifvqef0","pricing_plan_id":"cebpf4jnsgd1na2vs0mg"},{"bike_id":"5d9b09d3-2ae4-41e2-9b42-4df2994e99f7","system_id":"levelo_inurba_marseille","lat":43.30789,"lon":5.37638,"is_reserved":false,"is_disabled":false,"rental_uris":{"android":"levelo://app?vid=5d9b09d3-2ae4-41e2-9b42-4df2994e99f7","ios":"levelo://app?vid=5d9b09d3-2ae4-41e2-9b42-4df2994e99f7"},"vehicle_type_id":"4","last_reported":1739153479,"current_range_meters":36400,"station_id":"ce4bgv92rcd13ifvqcq0","pricing_plan_id":"cebpf4jnsgd1na2vs0mg"},{"bike_id":"c91fa3f3-a774-43d0-92fe-010e57bc5d25","system_id":"levelo_inurba_marseille","lat":43.26211,"lon":5.37452,"is_reserved":false,"is_disabled":false,"rental_uris":{"android":"levelo://app?vid=c91fa3f3-a774-43d0-92fe-010e57bc5d25","ios":"levelo://app?vid=c91fa3f3-a774-43d0-92fe-010e57bc5d25"},"vehicle_type_id":"4","last_reported":1739153479,"current_range_meters":8400,"station_id":"ce4bhgp2rcd13ifvqfc0","pricing_plan_id":"cebpf4jnsgd1na2vs0mg"},{"bike_id":"c5f3788f-5df9-44c6-b0ba-b26d46568740","system_id":"levelo_inurba_marseille","lat":43.28613,"lon":5.35105,"is_reserved":false,"is_disabled":false,"rental_uris":{"android":"levelo://app?vid=c5f3788f-5df9-44c6-b0ba-b26d46568740","ios":"levelo://app?vid=c5f3788f-5df9-44c6-b0ba-b26d46568740"},"vehicle_type_id":"4","last_reported":1739153479,"current_range_meters":30000,"station_id":"ce4bhch2rcd13ifvqeug","pricing_plan_id":"cebpf4jnsgd1na2vs0mg"},{"bike_id":"277b6126-0441-4bd1-a1f0-147e7c5fd945","system_id":"levelo_inurba_marseille","lat":43.26029,"lon":5.37548,"is_reserved":false,"is_disabled":false,"rental_uris":{"android":"levelo://app?vid=277b6126-0441-4bd1-a1f0-147e7c5fd945","ios":"levelo://app?vid=277b6126-0441-4bd1-a1f0-147e7c5fd945"},"vehicle_type_id":"4","last_reported":1739153479,"current_range_meters":38000,"station_id":"ce4bhgh2rcd13ifvqfa0","pricing_plan_id":"cebpf4jnsgd1na2vs0mg"},