{"last_updated":1742022498,"ttl":60,"version":"2.2","data":{"bikes":[{"bike_id":"45dce5d6-fdd9-43b7-8cb1-c7832923b7a4","system_id":"levelo_inurba_marseille","lat":43.27071,"lon":5.40267,"is_reserved":false,"is_disabled":true,"rental_uris":{"android":"levelo://app?vid=45dce5d6-fdd9-43b7-8cb1-c7832923b7a4","ios":"levelo://app?vid=45dce5d6-fdd9-43b7-8cb1-c7832923b7a4"},"vehicle_type_id":"4","last_reported":1742022498,"current_range_meters":2800,"station_id":"ce4bhk92rcd13ifvqgc0","pricing_plan_id":"cebpf4jnsgd1na2vs0mg"},{"bike_id":"459d89e6-018f-4609-b29b-1bc5ad9d93da","system_id":"levelo_inurba_marseille","lat":43.3212,"lon":5.36764,"is_reserved":false,"is_disabled":true,"rental_uris":{"android":"levelo://app?vid=459d89e6-018f-4609-b29b-1bc5ad9d93da","ios":"levelo://app?vid=459d89e6-018f-4609-b29b-1bc5ad9d93da"},"vehicle_type_id":"4","last_reported":1742022498,"current_range_meters":2800,"station_id":"ce4bhrh2rcd13ifvqhug","pricing_plan_id":"cebpf4jnsgd1na2vs0mg"},{"bike_id":"fb1a00a3-1d5d-4b97-b556-8255b9e76003","system_id":"levelo_inurba_marseille","lat":43.25813,"lon":5.39436,"is_reserved":false,"is_disabled":false,"rental_uris":{"android":"levelo://app?vid=fb1a00a3-1d5d-4b97-b556-8255b9e76003","ios":"levelo://app?vid=fb1a00a3-1d5d-4b97-b556-8255b9e76003"},"vehicle_type_id":"4","last_reported":1742022498,"current_range_meters":3200,"station_id":"ce4bhip2rcd13ifvqft0","pricing_plan_id":"cebpf4jnsgd1na2vs0mg"},{"bike_id":"64dd8281-0a18-461b-8a2f-c0c8b65adb2d","system_id":"levelo_inurba_marseille","lat":43.30131,"lon":5.37429,"is_reserved":false,"is_disabled":false,"rental_uris":{"android":"levelo://app?vid=64dd8281-0a18-461b-8a2f-c0c8b65adb2d","ios":"levelo://app?vid=64dd8281-0a18-461b-8a2f-c0c8b65adb2d"},"vehicle_type_id":"4","last_reported":1742022498,"current_range_meters":3600,"station_id":"ce4bgs92rcd13ifvqcc0","pricing_plan_id":"cebpf4jnsgd1na2vs0mg"},{"bike_id":"34419613-555b-4a7e-89c4-cf8a91ec83b7","system_id":"levelo_inurba_marseille","lat":43.270577,"lon":5.402616,"is_reserved":false,"is_disabled":true,"rental_uris":{"android":"levelo://app?vid=34419613-555b-4a7e-89c4-cf8a91ec83b7","ios":"levelo://app?vid=34419613-555b-4a7e-89c4-cf8a91ec83b7"},"vehicle_type_id":"4","last_reported":1742022498,"current_range_meters":4400,"station_id":"ce4bhk92rcd13ifvqgc0","pricing_plan_id":"cebpf4jnsgd1na2vs0mg"},{"bike_id":"b0c89315-8ab3-467b-b10b-80354fb2d560","system_id":"levelo_inurba_marseille","lat":43.3021,"lon":5.39458,"is_reserved":false,"is_disabled":false,"rental_uris":{"android":"levelo://app?vid=b0c89315-8ab3-467b-b10b-80354fb2d560","ios":"levelo://app?vid=b0c89315-8ab3-467b-b10b-80354fb2d560"},"vehicle_type_id":"4","last_reported":1742022498,"current_range_meters":4400,"station_id":"ce4bh0p2rcd13ifvqd70","pricing_plan_id":"cebpf4jnsgd1na2vs0mg"},{"bike_id":"d2ff544a-5a08-44f7-8187-59e750d6912f","system_id":"levelo_inurba_marseille","lat":43.29597,"lon":5.38104,"is_reserved":false,"is_disabled":false,"rental_uris":{"android":"levelo://app?vid=d2ff544a-5a08-44f7-8187-59e750d6912f","ios":"levelo://app?vid=d2ff544a-5a08-44f7-8187-59e750d6912f"},"vehicle_type_id":"4","last_reported":1742022498,"current_range_meters":4400,"station_id":"ce4bgl12rcd13ifvqbo0","pricing_plan_id":"cebpf4jnsgd1na2vs0mg"},{"bike_id":"eba2a759-80cf-43e6-9111-3ca369128ab3","system_id":"levelo_inurba_marseille","lat":43.29625,"lon":5.40611,"is_reserved":false,"is_disabled":false,"rental_uris":{"android":"levelo://app?vid=eba2a759-80cf-43e6-9111-3ca369128ab3","ios":"levelo://app?vid=eba2a759-80cf-43e6-9111-3ca369128ab3"},"vehicle_type_id":"4","last_reported":1742022498,"current_range_meters":4800,"station_id":"ce4bh0h2rcd13ifvqd60","pricing_plan_id":"cebpf4jnsgd1na2vs0mg"},{"bike_id":"dd749f3b-c706-4448-958d-8c1d79784664","system_id":"levelo_inurba_marseille","lat":43.32327,"lon":5.40623,"is_reserved":false,"is_disabled":false,"rental_uris":{"android":"levelo://app?vid=dd749f3b-c706-4448-958d-8c1d79784664","ios":"levelo://app?vid=dd749f3b-c706-4448-958d-8c1d79784664"},"vehicle_type_id":"4","last_reported":1742022498,"current_range_meters":4800,"station_id":"ce4bhq92rcd13ifvqhjg","pricing_plan_id":"cebpf4jnsgd1na2vs0mg"},{"bike_id":"93ab8848-639f-4609-a3c2-ea040e94165b","system_id":"levelo_inurba_marseille","lat":43.3137,"lon":5.374497,"is_reserved":false,"is_disabled":false,"rental_uris":{"android":"levelo://app?vid=93ab8848-639f-4609-a3c2-ea040e94165b","ios":"levelo://app?vid=93ab8848-639f-4609-a3c2-ea040e94165b"},"vehicle_type_id":"4","last_reported":1742022498,"current_range_meters":4800,"station_id":"ce4bhr12rcd13ifvqhpg","pricing_plan_id":"cebpf4jnsgd1na2vs0mg"},{"bike_id":"9ae97f87-5988-434e-be02-4825dd7943b7","system_id":"levelo_inurba_marseille","lat":43.25925,"lon":5.40871,"is_reserved":false,"is_disabled":false,"rental_uris":{"android":"levelo://app?vid=9ae97f87-5988-434e-be02-4825dd7943b7","ios":"levelo://app?vid=9ae97f87-5988-434e-be02-4825dd7943b7"},"vehicle_type_id":"4","last_reported":1742022498,"current_range_meters":4800,"station_id":"ce4bhm92rcd13ifvqglg","pricing_plan_id":"cebpf4jnsgd1na2vs0mg"},{"bike_id":"fb25c0f6-5882-4734-a76a-2aeb0b117f9b","system_id":"levelo_inurba_marseille","lat":43.317613,"lon":5.39025,"is_reserved":false,"is_disabled":true,"rental_uris":{"android":"levelo://app?vid=fb25c0f6-5882-4734-a76a-2aeb0b117f9b","ios":"levelo://app?vid=fb25c0f6-5882-4734-a76a-2aeb0b117f9b"},"vehicle_type_id":"4","last_reported":1742022498,"current_range_meters":5600,"station_id":"ce4bhqp2rcd13ifvqhng","pricing_plan_id":"cebpf4jnsgd1na2vs0mg"},{"bike_id":"aa3c5349-766e-4992-8e95-c670f1f543fb","system_id":"levelo_inurba_marseille","lat":43.22917,"lon":5.40166,"is_reserved":false,"is_disabled":false,"rental_uris":{"android":"levelo://app?vid=aa3c5349-766e-4992-8e95-c670f1f543fb","ios":"levelo://app?vid=aa3c5349-766e-4992-8e95-c670f1f543fb"},"vehicle_type_id":"4","last_reported":1742022498,"current_range_meters":5600,"station_id":"","pricing_plan_id":"cebpf4jnsgd1na2vs0mg"},{"bike_id":"36ec5a15-215b-4367-a3ca-336aadd9a251","system_id":"levelo_inurba_marseille","lat":43.33746,"lon":5.3745,"is_reserved":false,"is_disabled":false,"rental_uris":{"android":"levelo://app?vid=36ec5a15-215b-4367-a3ca-336aadd9a251","ios":"levelo://app?vid=36ec5a15-215b-4367-a3ca-336aadd9a251"},"vehicle_type_id":"4","last_reported":1742022498,"current_range_meters":5600,"station_id":"","pricing_plan_id":"cebpf4jnsgd1na2vs0mg"},{"bike_id":"e48b5189-9d09-49fd-bc00-62268902f308","system_id":"levelo_inurba_marseille","lat":43.25008,"lon":5.38929,"is_reserved":false,"is_disabled":true,"rental_uris":{"android":"levelo://app?vid=e48b5189-9d09-49fd-bc00-62268902f308","ios":"levelo://app?vid=e48b5189-9d09-49fd-bc00-62268902f308"},"vehicle_type_id":"4","last_reported":1742022498,"current_range_meters":6000,"station_id":"ce4bhgp2rcd13ifvqfd0","pricing_plan_id":"cebpf4jnsgd1na2vs0mg"},{"bike_id":"8600e973-6bae-49e6-a541-074b0686e3d2","system_id":"levelo_inurba_marseille","lat":43.32287,"lon":5.38967,"is_reserved":false,"is_disabled":false,"rental_uris":{"android":"levelo://app?vid=8600e973-6bae-49e6-a541-074b0686e3d2","ios":"levelo://app?vid=8600e973-6bae-49e6-a541-074b0686e3d2"},"vehicle_type_id":"4","last_reported":1742022498,"current_range_meters":6000,"station_id":"ce4bhqp2rcd13ifvqhog","pricing_plan_id":"cebpf4jnsgd1na2vs0mg"},{"bike_id":"de27148c-9139-4b87-b73a-06e43af57146","system_id":"levelo_inurba_marseille","lat":43.30931,"lon":5.36844,"is_reserved":false,"is_disabled":false,"rental_uris":{"android":"levelo://app?vid=de27148c-9139-4b87-b73a-06e43af57146","ios":"levelo://app?vid=de27148c-9139-4b87-b73a-06e43af57146"},"vehicle_type_id":"4","last_reported":1742022498,"current_range_meters":6000,"station_id":"ce4bgn92rcd13ifvqbvg","pricing_plan_id":"cebpf4jnsgd1na2vs0mg"},{"bike_id":"cfbfae81-2b5a-4512-adc5-3545d5eb48ff","system_id":"levelo_inurba_marseille","lat":43.323492,"lon":5.388902,"is_reserved":false,"is_disabled":false,"rental_uris":{"android":"levelo://app?vid=cfbfae81-2b5a-4512-adc5-3545d5eb48ff","ios":"levelo://app?vid=cfbfae81-2b5a-4512-adc5-3545d5eb48ff"},"vehicle_type_id":"4","last_reported":1742022498,"current_range_meters":6000,"station_id":"ce4bhqp2rcd13ifvqhog","pricing_plan_id":"cebpf4jnsgd1na2vs0mg"},{"bike_id":"703a27ab-78c1-4da2-9977-9c24f54834c8","system_id":"levelo_inurba_marseille","lat":43.3247,"lon":5.36581,"is_reserved":false,"is_disabled":false,"rental_uris":{"android":"levelo://app?vid=703a27ab-78c1-4da2-9977-9c24f54834c8","ios":"levelo://app?vid=703a27ab-78c1-4da2-9977-9c24f54834c8"},"vehicle_type_id":"4","last_reported":1742022498,"current_range_meters":6400,"station_id":"ce4bhs12rcd13ifvqhvg","pricing_plan_id":"cebpf4jnsgd1na2vs0mg"},{"bike_id":"190d8a79-fd3d-4693-92b0-07593b0b4804","system_id":"levelo_inurba_marseille","lat":43.27615,"lon":5.36113,"is_reserved":false,"is_disabled":false,"rental_uris":{"android":"levelo://app?vid=190d8a79-fd3d-4693-92b0-07593b0b4804","ios":"levelo://app?vid=190d8a79-fd3d-4693-92b0-07593b0b4804"},"vehicle_type_id":"4","last_reported":1742022498,"current_range_meters":6400,"station_id":"ce4bgj92rcd13ifvqbe0","pricing_plan_id":"cebpf4jnsgd1na2vs0mg"},{"bike_id":"f2ee8bc0-312d-4388-b78b-2fe33c2c7cb8","system_id":"levelo_inurba_marseille","lat":43.24552,"lon":5.39486,"is_reserved":false,"is_disabled":false,"rental_uris":{"android":"levelo://app?vid=f2ee8bc0-312d-4388-b78b-2fe33c2c7cb8","ios":"levelo://app?vid=f2ee8bc0-312d-4388-b78b-2fe33c2c7cb8"},"vehicle_type_id":"4","last_reported":1742022498,"current_range_meters":6400,"station_id":"ce4bhlp2rcd13ifvqgjg","pricing_plan_id":"cebpf4jnsgd1na2vs0mg"},{"bike_id":"436bf6fd-98f0-4c70-968c-7fcac8f398a5","system_id":"levelo_inurba_marseille","lat":43.25093,"lon":5.41068,"is_reserved":false,"is_disabled":false,"rental_uris":{"android":"levelo://app?vid=436bf6fd-98f0-4c70-968c-7fcac8f398a5","ios":"levelo://app?vid=436bf6fd-98f0-4c70-968c-7fcac8f398a5"},"vehicle_type_id":"4","last_reported":1742022498,"current_range_meters":6800,"station_id":"","pricing_plan_id":"cebpf4jnsgd1na2vs0mg"},{"bike_id":"e680d681-5451-4e79-9861-5f89e81b6e1f","system_id":"levelo_inurba_marseille","lat":43.29021,"lon":5.38156,"is_reserved":false,"is_disabled":true,"rental_uris":{"android":"levelo://app?vid=e680d681-5451-4e79-9861-5f89e81b6e1f","ios":"levelo://app?vid=e680d681-5451-4e79-9861-5f89e81b6e1f"},"vehicle_type_id":"4","last_reported":1742022498,"current_range_meters":6800,"station_id":"ce4bh4p2rcd13ifvqe1g","pricing_plan_id":"cebpf4jnsgd1na2vs0mg"},{"bike_id":"36aad7e9-4791-4984-8df9-a8cded192aa8","system_id":"levelo_inurba_marseille","lat":43.27498,"lon":5.42456,"is_reserved":false,"is_disabled":false,"rental_uris":{"android":"levelo://app?vid=36aad7e9-4791-4984-8df9-a8cded192aa8","ios":"levelo://app?vid=36aad7e9-4791-4984-8df9-a8cded192aa8"},"vehicle_type_id":"4","last_reported":1742022498,"current_range_meters":6800,"station_id":"ce4bhn92rcd13ifvqgrg","pricing_plan_id":"cebpf4jnsgd1na2vs0mg"},{"bike_id":"f2d00548-a5af-43a5-9ad4-5205ddc617dc","system_id":"levelo_inurba_marseille","lat":43.309852,"lon":5.417355,"is_reserved":false,"is_disabled":false,"rental_uris":{"android":"levelo://app?vid=f2d00548-a5af-43a5-9ad4-5205ddc617dc","ios":"levelo://app?vid=f2d00548-a5af-43a5-9ad4-5205ddc617dc"},"vehicle_type_id":"4","last_reported":1742022498,"current_range_meters":6800,"station_id":"","pricing_plan_id":"cebpf4jnsgd1na2vs0mg"},{"bike_id":"3363e5ed-aafd-4c83-9f97-12270e6ffcf4","system_id":"levelo_inurba_marseille","lat":43.248585,"lon":5.406458,"is_reserved":false,"is_disabled":false,"rental_uris":{"android":"levelo://app?vid=3363e5ed-aafd-4c83-9f97-12270e6ffcf4","ios":"levelo://app?vid=3363e5ed-aafd-4c83-9f97-12270e6ffcf4"},"vehicle_type_id":"4","last_reported":1742022498,"current_range_meters":6800,"station_id":"","pricing_plan_id":"cebpf4jnsgd1na2vs0mg"},{"bike_id":"594a33ea-5c85-49b0-893b-48b1f5e1011a","system_id":"levelo_inurba_marseille","lat":43.30864,"lon":5.40149,"is_reserved":false,"is_disabled":true,"rental_uris":{"android":"levelo://app?vid=594a33ea-5c85-49b0-893b-48b1f5e1011a","ios":"levelo://app?vid=594a33ea-5c85-49b0-893b-48b1f5e1011a"},"vehicle_type_id":"4","last_reported":1742022498,"current_range_meters":6800,"station_id":"ce4bgvp2rcd13ifvqct0","pricing_plan_id":"cebpf4jnsgd1na2vs0mg"},{"bike_id":"22eef8e9-28d0-4055-9740-16ced5bd43fc","system_id":"levelo_inurba_marseille","lat":43.246664,"lon":5.381684,"is_reserved":false,"is_disabled":false,"rental_uris":{"android":"levelo://app?vid=22eef8e9-28d0-4055-9740-16ced5bd43fc","ios":"levelo://app?vid=22eef8e9-28d0-4055-9740-16ced5bd43fc"},"vehicle_type_id":"4","last_reported":1742022498,"current_range_meters":6800,"station_id":"ce4bhih2rcd13ifvqfr0","pricing_plan_id":"cebpf4jnsgd1na2vs0mg"},{"bike_id":"4640ed7b-2ef1-41cf-afe9-4f5c3eed86d3","system_id":"levelo_inurba_marseille","lat":43.308793,"lon":5.396286,"is_reserved":false,"is_disabled":false,"rental_uris":{"android":"levelo://app?vid=4640ed7b-2ef1-41cf-afe9-4f5c3eed86d3","ios":"levelo://app?vid=4640ed7b-2ef1-41cf-afe9-4f5c3eed86d3"},"vehicle_type_id":"4","last_reported":1742022498,"current_range_meters":6800,"station_id":"ce4bh012rcd13ifvqcv0","pricing_plan_id":"cebpf4jnsgd1na2vs0mg"},{"bike_id":"7cf0d743-f2dd-4554-ad88-f4ffd24540e7","system_id":"levelo_inurba_marseille","lat":43.303143,"lon":5.404578,"is_reserved":false,"is_disabled":true,"rental_uris":{"android":"levelo://app?vid=7cf0d743-f2dd-4554-ad88-f4ffd24540e7","ios":"levelo://app?vid=7cf0d743-f2dd-4554-ad88-f4ffd24540e7"},"vehicle_type_id":"4","last_reported":1742022498,"current_range_meters":7200,"station_id":"ce4bh012rcd13ifvqd10","pricing_plan_id":"cebpf4jnsgd1na2vs0mg"},{"bike_id":"91b12a37-f477-4c10-ad1a-c6fc1ad2db69","system_id":"levelo_inurba_marseille","lat":43.27979,"lon":5.42484,"is_reserved":false,"is_disabled":false,"rental_uris":{"android":"levelo://app?vid=91b12a37-f477-4c10-ad1a-c6fc1ad2db69","ios":"levelo://app?vid=91b12a37-f477-4c10-ad1a-c6fc1ad2db69"},"vehicle_type_id":"4","last_reported":1742022498,"current_range_meters":7200,"station_id":"","pricing_plan_id":"cebpf4jnsgd1na2vs0mg"},{"bike_id":"99e3497e-d5bc-4f7b-9b94-f6046a8fd0c6","system_id":"levelo_inurba_marseille","lat":43.30779,"lon":5.37655,"is_reserved":false,"is_disabled":false,"rental_uris":{"android":"levelo://app?vid=99e3497e-d5bc-4f7b-9b94-f6046a8fd0c6","ios":"levelo://app?vid=99e3497e-d5bc-4f7b-9b94-f6046a8fd0c6"},"vehicle_type_id":"4","last_reported":1742022498,"current_range_meters":7200,"station_id":"ce4bgv92rcd13ifvqcq0","pricing_plan_id":"cebpf4jnsgd1na2vs0mg"},{"bike_id":"521268db-a242-4cfc-8fdc-034156cfef95","system_id":"levelo_inurba_marseille","lat":43.2407,"lon":5.37749,"is_reserved":false,"is_disabled":false,"rental_uris":{"android":"levelo://app?vid=521268db-a242-4cfc-8fdc-034156cfef95","ios":"levelo://app?vid=521268db-a242-4cfc-8fdc-034156cfef95"},"vehicle_type_id":"4","last_reported":1742022498,"current_range_meters":7200,"station_id":"ce4bhnp2rcd13ifvqgvg","pricing_plan_id":"cebpf4jnsgd1na2vs0mg"},{"bike_id":"f656b2ac-e6fa-4dab-be9e-81d8f99ae755","system_id":"levelo_inurba_marseille","lat":43.29632,"lon":5.37164,"is_reserved":false,"is_disabled":false,"rental_uris":{"android":"levelo://app?vid=f656b2ac-e6fa-4dab-be9e-81d8f99ae755","ios":"levelo://app?vid=f656b2ac-e6fa-4dab-be9e-81d8f99ae755"},"vehicle_type_id":"4","last_reported":1742022498,"current_range_meters":7200,"station_id":"ce4bgnh2rcd13ifvqc0g","pricing_plan_id":"cebpf4jnsgd1na2vs0mg"},{"bike_id":"0baa264e-f9bf-4ea0-a50d-e9435138735e","system_id":"levelo_inurba_marseille","lat":43.28396,"lon":5.37536,"is_reserved":false,"is_disabled":false,"rental_uris":{"android":"levelo://app?vid=0baa264e-f9bf-4ea0-a50d-e9435138735e","ios":"levelo://app?vid=0baa264e-f9bf-4ea0-a50d-e9435138735e"},"vehicle_type_id":"4","last_reported":1742022498,"current_range_meters":7200,"station_id":"ce4bh412rcd13ifvqds0","pricing_plan_id":"cebpf4jnsgd1na2vs0mg"},{"bike_id":"faf4c27a-d7eb-4435-bbca-3d07a59b2d3c","system_id":"levelo_inurba_marseille","lat":43.31267,"lon":5.40189,"is_reserved":false,"is_disabled":false,"rental_uris":{"android":"levelo://app?vid=faf4c27a-d7eb-4435-bbca-3d07a59b2d3c","ios":"levelo://app?vid=faf4c27a-d7eb-4435-bbca-3d07a59b2d3c"},"vehicle_type_id":"4","last_reported":1742022498,"current_range_meters":7200,"station_id":"ce4bh092rcd13ifvqd30","pricing_plan_id":"cebpf4jnsgd1na2vs0mg"},{"bike_id":"48f968e9-2670-450c-9a50-b12a7ac1907f","system_id":"levelo_inurba_marseille","lat":43.25738,"lon":5.41108,"is_reserved":false,"is_disabled":false,"rental_uris":{"android":"levelo://app?vid=48f968e9-2670-450c-9a50-b12a7ac1907f","ios":"levelo://app?vid=48f968e9-2670-450c-9a50-b12a7ac1907f"},"vehicle_type_id":"4","last_reported":1742022498,"current_range_meters":8000,"station_id":"ce4bhkp2rcd13ifvqgd0","pricing_plan_id":"cebpf4jnsgd1na2vs0mg"},{"bike_id":"d38ec561-2826-4710-8b79-38af7b6460aa","system_id":"levelo_inurba_marseille","lat":43.24678,"lon":5.38153,"is_reserved":false,"is_disabled":false,"rental_uris":{"android":"levelo://app?vid=d38ec561-2826-4710-8b79-38af7b6460aa","ios":"levelo://app?vid=d38ec561-2826-4710-8b79-38af7b6460aa"},"vehicle_type_id":"4","last_reported":1742022498,"current_range_meters":8000,"station_id":"ce4bhih2rcd13ifvqfr0","pricing_plan_id":"cebpf4jnsgd1na2vs0mg"},{"bike_id":"a89c715e-b4b3-4768-a897-9438d43d6c2e","system_id":"levelo_inurba_marseille","lat":43.30172,"lon":5.3807,"is_reserved":false,"is_disabled":false,"rental_uris":{"android":"levelo://app?vid=a89c715e-b4b3-4768-a897-9438d43d6c2e","ios":"levelo://app?vid=a89c715e-b4b3-4768-a897-9438d43d6c2e"},"vehicle_type_id":"4","last_reported":1742022498,"current_range_meters":8000,"station_id":"ce4bgjp2rcd13ifvqbh0","pricing_plan_id":"cebpf4jnsgd1na2vs0mg"},{"bike_id":"7618e466-47c2-4f87-a918-de5941ce36ba","system_id":"levelo_inurba_marseille","lat":43.23149,"lon":5.43717,"is_reserved":false,"is_disabled":false,"rental_uris":{"android":"levelo://app?vid=7618e466-47c2-4f87-a918-de5941ce36ba","ios":"levelo://app?vid=7618e466-47c2-4f87-a918-de5941ce36ba"},"vehicle_type_id":"4","last_reported":1742022498,"current_range_meters":8000,"station_id":"ce4bhmp2rcd13ifvqgog","pricing_plan_id":"cebpf4jnsgd1na2vs0mg"},{"bike_id":"2a767443-3c93-49d2-97d6-52ed82bb8d6a","system_id":"levelo_inurba_marseille","lat":43.29582,"lon":5.367443,"is_reserved":false,"is_disabled":false,"rental_uris":{"android":"levelo://app?vid=2a767443-3c93-49d2-97d6-52ed82bb8d6a","ios":"levelo://app?vid=2a767443-3c93-49d2-97d6-52ed82bb8d6a"},"vehicle_type_id":"4","last_reported":1742022498,"current_range_meters":8000,"station_id":"ce4bgph2rcd13ifvqc2g","pricing_plan_id":"cebpf4jnsgd1na2vs0mg"},{"bike_id":"e6710280-bd86-46cd-80e3-b715c7f5659b","system_id":"levelo_inurba_marseille","lat":43.24407,"lon":5.37062,"is_reserved":false,"is_disabled":false,"rental_uris":{"android":"levelo://app?vid=e6710280-bd86-46cd-80e3-b715c7f5659b","ios":"levelo://app?vid=e6710280-bd86-46cd-80e3-b715c7f5659b"},"vehicle_type_id":"4","last_reported":1742022498,"current_range_meters":8000,"station_id":"ce4bhhh2rcd13ifvqfk0","pricing_plan_id":"cebpf4jnsgd1na2vs0mg"},{"bike_id":"92a4b2de-1a40-47de-8941-8583c8b587d4","system_id":"levelo_inurba_marseille","lat":43.27638,"lon":5.38946,"is_reserved":false,"is_disabled":true,"rental_uris":{"android":"levelo://app?vid=92a4b2de-1a40-47de-8941-8583c8b587d4","ios":"levelo://app?vid=92a4b2de-1a40-47de-8941-8583c8b587d4"},"vehicle_type_id":"4","last_reported":1742022498,"current_range_meters":8000,"station_id":"ce4bhi12rcd13ifvqfo0","pricing_plan_id":"cebpf4jnsgd1na2vs0mg"},{"bike_id":"56c8ab4b-f797-426e-9cbb-e50b9e2e11f0","system_id":"levelo_inurba_marseille","lat":43.28681,"lon":5.38654,"is_reserved":false,"is_disabled":false,"rental_uris":{"android":"levelo://app?vid=56c8ab4b-f797-426e-9cbb-e50b9e2e11f0","ios":"levelo://app?vid=56c8ab4b-f797-426e-9cbb-e50b9e2e11f0"},"vehicle_type_id":"4","last_reported":1742022498,"current_range_meters":8000,"station_id":"ce4bh492rcd13ifvqdug","pricing_plan_id":"cebpf4jnsgd1na2vs0mg"},{"bike_id":"77f0430f-3350-4963-ac6b-e35c49a943e2","system_id":"levelo_inurba_marseille","lat":43.31665,"lon":5.3957,"is_reserved":false,"is_disabled":false,"rental_uris":{"android":"levelo://app?vid=77f0430f-3350-4963-ac6b-e35c49a943e2","ios":"levelo://app?vid=77f0430f-3350-4963-ac6b-e35c49a943e2"},"vehicle_type_id":"4","last_reported":1742022498,"current_range_meters":8000,"station_id":"","pricing_plan_id":"cebpf4jnsgd1na2vs0mg"},{"bike_id":"9be7091d-8dbc-4ba8-8d3d-ed716c93433c","system_id":"levelo_inurba_marseille","lat":43.2985,"lon":5.36303,"is_reserved":false,"is_disabled":false,"rental_uris":{"android":"levelo://app?vid=9be7091d-8dbc-4ba8-8d3d-ed716c93433c","ios":"levelo://app?vid=9be7091d-8dbc-4ba8-8d3d-ed716c93433c"},"vehicle_type_id":"4","last_reported":1742022498,"current_range_meters":8000,"station_id":"ce4bgpp2rcd13ifvqc3g","pricing_plan_id":"cebpf4jnsgd1na2vs0mg"},{"bike_id":"886259f7-d5b4-4258-b9b1-334bcf1ab143","system_id":"levelo_inurba_marseille","lat":43.27074,"lon":5.42267,"is_reserved":false,"is_disabled":false,"rental_uris":{"android":"levelo://app?vid=886259f7-d5b4-4258-b9b1-334bcf1ab143","ios":"levelo://app?vid=886259f7-d5b4-4258-b9b1-334bcf1ab143"},"vehicle_type_id":"4","last_reported":1742022498,"current_range_meters":8400,"station_id":"ce4bhk92rcd13ifvqgb0","pricing_plan_id":"cebpf4jnsgd1na2vs0mg"},{"bike_id":"b9c5e16e-f63e-4f83-97e4-2b05f2c355ca","system_id":"levelo_inurba_marseille","lat":43.27065,"lon":5.40235,"is_reserved":false,"is_disabled":false,"rental_uris":{"android":"levelo://app?vid=b9c5e16e-f63e-4f83-97e4-2b05f2c355ca","ios":"levelo://app?vid=b9c5e16e-f63e-4f83-97e4-2b05f2c355ca"},"vehicle_type_id":"4","last_reported":1742022498,"current_range_meters":8400,"station_id":"ce4bhk92rcd13ifvqgc0","pricing_plan_id":"cebpf4jnsgd1na2vs0mg"},{"bike_id":"0f71c17f-e153-4330-8bed-2c82c0b6284a","system_id":"levelo_inurba_marseille","lat":43.28865,"lon":5.3584,"is_reserved":false,"is_disabled":false,"rental_uris":{"android":"levelo://app?vid=0f71c17f-e153-4330-8bed-2c82c0b6284a","ios":"levelo://app?vid=0f71c17f-e153-4330-8bed-2c82c0b6284a"},"vehicle_type_id":"4","last_reported":1742022498,"current_range_meters":8400,"station_id":"ce4bhb12rcd13ifvqem0","pricing_plan_id":"cebpf4jnsgd1na2vs0mg"},{"bike_id":"d33efc91-bf1b-4706-856c-27250407c5b1","system_id":"levelo_inurba_marseille","lat":43.26556,"lon":5.39015,"is_reserved":false,"is_disabled":false,"rental_uris":{"android":"levelo://app?vid=d33efc91-bf1b-4706-856c-27250407c5b1","ios":"levelo://app?vid=d33efc91-bf1b-4706-856c-27250407c5b1"},"vehicle_type_id":"4","last_reported":1742022498,"current_range_meters":8400,"station_id":"ce4bhe12rcd13ifvqf30","pricing_plan_id":"cebpf4jnsgd1na2vs0mg"},{"bike_id":"a8e67676-89ba-43e0-82dc-5ef4b0a5e328","system_id":"levelo_inurba_marseille","lat":43.313766,"lon":5.391876,"is_reserved":false,"is_disabled":false,"rental_uris":{"android":"levelo://app?vid=a8e67676-89ba-43e0-82dc-5ef4b0a5e328","ios":"levelo://app?vid=a8e67676-89ba-43e0-82dc-5ef4b0a5e328"},"vehicle_type_id":"4","last_reported":1742022498,"current_range_meters":8400,"station_id":"","pricing_plan_id":"cebpf4jnsgd1na2vs0mg"},{"bike_id":"2ec0f046-4e68-4150-a618-5c892d6b2cb5","system_id":"levelo_inurba_marseille","lat":43.26236,"lon":5.4046,"is_reserved":false,"is_disabled":false,"rental_uris":{"android":"levelo://app?vid=2ec0f046-4e68-4150-a618-5c892d6b2cb5","ios":"levelo://app?vid=2ec0f046-4e68-4150-a618-5c892d6b2cb5"},"vehicle_type_id":"4","last_reported":1742022498,"current_range_meters":8400,"station_id":"ce4bhmh2rcd13ifvqgmg","pricing_plan_id":"cebpf4jnsgd1na2vs0mg"},{"bike_id":"d9d112ab-bb0c-48a8-b7d7-88dde0b5d086","system_id":"levelo_inurba_marseille","lat":43.32279,"lon":5.383,"is_reserved":false,"is_disabled":false,"rental_uris":{"android":"levelo://app?vid=d9d112ab-bb0c-48a8-b7d7-88dde0b5d086","ios":"levelo://app?vid=d9d112ab-bb0c-48a8-b7d7-88dde0b5d086"},"vehicle_type_id":"4","last_reported":1742022498,"current_range_meters":8800,"station_id":"ce4bhr12rcd13ifvqhqg","pricing_plan_id":"cebpf4jnsgd1na2vs0mg"},{"bike_id":"11d85863-2797-46b4-9b1a-85e693cd9605","system_id":"levelo_inurba_marseille","lat":43.28458,"lon":5.35897,"is_reserved":false,"is_disabled":false,"rental_uris":{"android":"levelo://app?vid=11d85863-2797-46b4-9b1a-85e693cd9605","ios":"levelo://app?vid=11d85863-2797-46b4-9b1a-85e693cd9605"},"vehicle_type_id":"4","last_reported":1742022498,"current_range_meters":8800,"station_id":"ce4bhah2rcd13ifvqei0","pricing_plan_id":"cebpf4jnsgd1na2vs0mg"},{"bike_id":"dc2dc920-7061-4611-9ad3-02d4898aaa15","system_id":"levelo_inurba_marseille","lat":43.23179,"lon":5.3999,"is_reserved":false,"is_disabled":false,"rental_uris":{"android":"levelo://app?vid=dc2dc920-7061-4611-9ad3-02d4898aaa15","ios":"levelo://app?vid=dc2dc920-7061-4611-9ad3-02d4898aaa15"},"vehicle_type_id":"4","last_reported":1742022498,"current_range_meters":8800,"station_id":"ce4bhn12rcd13ifvqgqg","pricing_plan_id":"cebpf4jnsgd1na2vs0mg"},{"bike_id":"441146ec-c2e7-45f1-b6bc-e65405bbf9fd","system_id":"levelo_inurba_marseille","lat":43.2761,"lon":5.36129,"is_reserved":false,"is_disabled":false,"rental_uris":{"android":"levelo://app?vid=441146ec-c2e7-45f1-b6bc-e65405bbf9fd","ios":"levelo://app?vid=441146ec-c2e7-45f1-b6bc-e65405bbf9fd"},"vehicle_type_id":"4","last_reported":1742022498,"current_range_meters":8800,"station_id":"ce4bgj92rcd13ifvqbe0","pricing_plan_id":"cebpf4jnsgd1na2vs0mg"},{"bike_id":"48f3a40e-658c-443b-8908-cf181e5627b0","system_id":"levelo_inurba_marseille","lat":43.301429,"lon":5.374169,"is_reserved":false,"is_disabled":false,"rental_uris":{"android":"levelo://app?vid=48f3a40e-658c-443b-8908-cf181e5627b0","ios":"levelo://app?vid=48f3a40e-658c-443b-8908-cf181e5627b0"},"vehicle_type_id":"4","last_reported":1742022498,"current_range_meters":8800,"station_id":"ce4bgs92rcd13ifvqcc0","pricing_plan_id":"cebpf4jnsgd1na2vs0mg"},{"bike_id":"bd7fb638-a561-41df-90ca-f32685780427","system_id":"levelo_inurba_marseille","lat":43.22927,"lon":5.35373,"is_reserved":false,"is_disabled":false,"rental_uris":{"android":"levelo://app?vid=bd7fb638-a561-41df-90ca-f32685780427","ios":"levelo://app?vid=bd7fb638-a561-41df-90ca-f32685780427"},"vehicle_type_id":"4","last_reported":1742022498,"current_range_meters":8800,"station_id":"cpo3532slgdg3j2ikp40","pricing_plan_id":"cebpf4jnsgd1na2vs0mg"},{"bike_id":"b90ed2a4-31cc-43f0-bda4-d4bc82f385f8","system_id":"levelo_inurba_marseille","lat":43.31894,"lon":5.40734,"is_reserved":false,"is_disabled":false,"rental_uris":{"android":"levelo://app?vid=b90ed2a4-31cc-43f0-bda4-d4bc82f385f8","ios":"levelo://app?vid=b90ed2a4-31cc-43f0-bda4-d4bc82f385f8"},"vehicle_type_id":"4","last_reported":1742022498,"current_range_meters":8800,"station_id":"ce4bhq12rcd13ifvqhig","pricing_plan_id":"cebpf4jnsgd1na2vs0mg"},{"bike_id":"ccd31dea-9090-4259-b977-143b30ebefa0","system_id":"levelo_inurba_marseille","lat":43.26191,"lon":5.37451,"is_reserved":false,"is_disabled":false,"rental_uris":{"android":"levelo://app?vid=ccd31dea-9090-4259-b977-143b30ebefa0","ios":"levelo://app?vid=ccd31dea-9090-4259-b977-143b30ebefa0"},"vehicle_type_id":"4","last_reported":1742022498,"current_range_meters":8800,"station_id":"ce4bhgp2rcd13ifvqfc0","pricing_plan_id":"cebpf4jnsgd1na2vs0mg"},{"bike_id":"8a5bd971-61c1-4475-933b-dffdb284dd01","system_id":"levelo_inurba_marseille","lat":43.250108,"lon":5.389156,"is_reserved":false,"is_disabled":false,"rental_uris":{"android":"levelo://app?vid=8a5bd971-61c1-4475-933b-dffdb284dd01","ios":"levelo://app?vid=8a5bd971-61c1-4475-933b-dffdb284dd01"},"vehicle_type_id":"4","last_reported":1742022498,"current_range_meters":9200,"station_id":"ce4bhgp2rcd13ifvqfd0","pricing_plan_id":"cebpf4jnsgd1na2vs0mg"},{"bike_id":"184492ce-9f5c-47e4-a3e5-d0eccfcef42b","system_id":"levelo_inurba_marseille","lat":43.27608,"lon":5.36133,"is_reserved":false,"is_disabled":false,"rental_uris":{"android":"levelo://app?vid=184492ce-9f5c-47e4-a3e5-d0eccfcef42b","ios":"levelo://app?vid=184492ce-9f5c-47e4-a3e5-d0eccfcef42b"},"vehicle_type_id":"4","last_reported":1742022498,"current_range_meters":9200,"station_id":"ce4bgj92rcd13ifvqbe0","pricing_plan_id":"cebpf4jnsgd1na2vs0mg"},{"bike_id":"6df798d1-60aa-466d-807e-854a55f55c33","system_id":"levelo_inurba_marseille","lat":43.26929,"lon":5.3893,"is_reserved":false,"is_disabled":false,"rental_uris":{"android":"levelo://app?vid=6df798d1-60aa-466d-807e-854a55f55c33","ios":"levelo://app?vid=6df798d1-60aa-466d-807e-854a55f55c33"},"vehicle_type_id":"4","last_reported":1742022498,"current_range_meters":9200,"station_id":"ce4bhhh2rcd13ifvqfl0","pricing_plan_id":"cebpf4jnsgd1na2vs0mg"},{"bike_id":"37e7693b-e623-4437-9c67-6ae03343eb65","system_id":"levelo_inurba_marseille","lat":43.27584,"lon":5.3779,"is_reserved":false,"is_disabled":false,"rental_uris":{"android":"levelo://app?vid=37e7693b-e623-4437-9c67-6ae03343eb65","ios":"levelo://app?vid=37e7693b-e623-4437-9c67-6ae03343eb65"},"vehicle_type_id":"4","last_reported":1742022498,"current_range_meters":9200,"station_id":"","pricing_plan_id":"cebpf4jnsgd1na2vs0mg"},{"bike_id":"e4776f2e-5cba-4203-b125-2cacf4791022","system_id":"levelo_inurba_marseille","lat":43.31328,"lon":5.39708,"is_reserved":false,"is_disabled":false,"rental_uris":{"android":"levelo://app?vid=e4776f2e-5cba-4203-b125-2cacf4791022","ios":"levelo://app?vid=e4776f2e-5cba-4203-b125-2cacf4791022"},"vehicle_type_id":"4","last_reported":1742022498,"current_range_meters":9200,"station_id":"ce4bgvp2rcd13ifvqcu0","pricing_plan_id":"cebpf4jnsgd1na2vs0mg"},{"bike_id":"18a1cfa4-0583-4465-858e-41f769d09057","system_id":"levelo_inurba_marseille","lat":43.31277,"lon":5.40176,"is_reserved":false,"is_disabled":false,"rental_uris":{"android":"levelo://app?vid=18a1cfa4-0583-4465-858e-41f769d09057","ios":"levelo://app?vid=18a1cfa4-0583-4465-858e-41f769d09057"},"vehicle_type_id":"4","last_reported":1742022498,"current_range_meters":9200,"station_id":"ce4bh092rcd13ifvqd30","pricing_plan_id":"cebpf4jnsgd1na2vs0mg"},{"bike_id":"808cc0fe-9e53-473c-8551-1dc9670c8b2f","system_id":"levelo_inurba_marseille","lat":43.30771,"lon":5.37647,"is_reserved":false,"is_disabled":false,"rental_uris":{"android":"levelo://app?vid=808cc0fe-9e53-473c-8551-1dc9670c8b2f","ios":"levelo://app?vid=808cc0fe-9e53-473c-8551-1dc9670c8b2f"},"vehicle_type_id":"4","last_reported":1742022498,"current_range_meters":9200,"station_id":"ce4bgv92rcd13ifvqcq0","pricing_plan_id":"cebpf4jnsgd1na2vs0mg"},{"bike_id":"2833c42b-d64a-4e72-93ee-d21fe40ff679","system_id":"levelo_inurba_marseille","lat":43.31173,"lon":5.38723,"is_reserved":false,"is_disabled":false,"rental_uris":{"android":"levelo://app?vid=2833c42b-d64a-4e72-93ee-d21fe40ff679","ios":"levelo://app?vid=2833c42b-d64a-4e72-93ee-d21fe40ff679"},"vehicle_type_id":"4","last_reported":1742022498,"current_range_meters":9600,"station_id":"ce4bgv12rcd13ifvqcp0","pricing_plan_id":"cebpf4jnsgd1na2vs0mg"},{"bike_id":"0d1b2129-b18b-4dfa-b355-90ec4e4e0735","system_id":"levelo_inurba_marseille","lat":43.296968,"lon":5.366234,"is_reserved":false,"is_disabled":false,"rental_uris":{"android":"levelo://app?vid=0d1b2129-b18b-4dfa-b355-90ec4e4e0735","ios":"levelo://app?vid=0d1b2129-b18b-4dfa-b355-90ec4e4e0735"},"vehicle_type_id":"4","last_reported":1742022498,"current_range_meters":9600,"station_id":"ce4bgn12rcd13ifvqbt0","pricing_plan_id":"cebpf4jnsgd1na2vs0mg"},{"bike_id":"04f149c6-a120-4218-b435-a952d9eb67d0","system_id":"levelo_inurba_marseille","lat":43.24861,"lon":5.40651,"is_reserved":false,"is_disabled":false,"rental_uris":{"android":"levelo://app?vid=04f149c6-a120-4218-b435-a952d9eb67d0","ios":"levelo://app?vid=04f149c6-a120-4218-b435-a952d9eb67d0"},"vehicle_type_id":"4","last_reported":1742022498,"current_range_meters":9600,"station_id":"","pricing_plan_id":"cebpf4jnsgd1na2vs0mg"},{"bike_id":"385ae15c-2c3c-4490-a507-5eb20fb883a5","system_id":"levelo_inurba_marseille","lat":43.2591,"lon":5.40881,"is_reserved":false,"is_disabled":false,"rental_uris":{"android":"levelo://app?vid=385ae15c-2c3c-4490-a507-5eb20fb883a5","ios":"levelo://app?vid=385ae15c-2c3c-4490-a507-5eb20fb883a5"},"vehicle_type_id":"4","last_reported":1742022498,"current_range_meters":9600,"station_id":"ce4bhm92rcd13ifvqglg","pricing_plan_id":"cebpf4jnsgd1na2vs0mg"},{"bike_id":"3467e1fd-f097-4239-9227-10aa85bb4e8b","system_id":"levelo_inurba_marseille","lat":43.308878,"lon":5.396211,"is_reserved":false,"is_disabled":false,"rental_uris":{"android":"levelo://app?vid=3467e1fd-f097-4239-9227-10aa85bb4e8b","ios":"levelo://app?vid=3467e1fd-f097-4239-9227-10aa85bb4e8b"},"vehicle_type_id":"4","last_reported":1742022498,"current_range_meters":9600,"station_id":"ce4bh012rcd13ifvqcv0","pricing_plan_id":"cebpf4jnsgd1na2vs0mg"},{"bike_id":"9d2d752e-416c-49e5-a687-1caacbda7dcb","system_id":"levelo_inurba_marseille","lat":43.280843,"lon":5.396669,"is_reserved":false,"is_disabled":true,"rental_uris":{"android":"levelo://app?vid=9d2d752e-416c-49e5-a687-1caacbda7dcb","ios":"levelo://app?vid=9d2d752e-416c-49e5-a687-1caacbda7dcb"},"vehicle_type_id":"4","last_reported":1742022498,"current_range_meters":9600,"station_id":"ce4bho12rcd13ifvqh2g","pricing_plan_id":"cebpf4jnsgd1na2vs0mg"},{"bike_id":"c8be3893-f600-4567-992f-3fcdd77e9537","system_id":"levelo_inurba_marseille","lat":43.29031,"lon":5.35931,"is_reserved":false,"is_disabled":false,"rental_uris":{"android":"levelo://app?vid=c8be3893-f600-4567-992f-3fcdd77e9537","ios":"levelo://app?vid=c8be3893-f600-4567-992f-3fcdd77e9537"},"vehicle_type_id":"4","last_reported":1742022498,"current_range_meters":9600,"station_id":"ce4bha92rcd13ifvqeg0","pricing_plan_id":"cebpf4jnsgd1na2vs0mg"},{"bike_id":"4c31218c-2010-49f2-a304-0501d5f8c799","system_id":"levelo_inurba_marseille","lat":43.28344,"lon":5.38107,"is_reserved":false,"is_disabled":false,"rental_uris":{"android":"levelo://app?vid=4c31218c-2010-49f2-a304-0501d5f8c799","ios":"levelo://app?vid=4c31218c-2010-49f2-a304-0501d5f8c799"},"vehicle_type_id":"4","last_reported":1742022498,"current_range_meters":9600,"station_id":"ce4bh412rcd13ifvqdr0","pricing_plan_id":"cebpf4jnsgd1na2vs0mg"},{"bike_id":"9916307e-073a-427d-94d7-7f23fc4d666d","system_id":"levelo_inurba_marseille","lat":43.286909,"lon":5.399846,"is_reserved":false,"is_disabled":false,"rental_uris":{"android":"levelo://app?vid=9916307e-073a-427d-94d7-7f23fc4d666d","ios":"levelo://app?vid=9916307e-073a-427d-94d7-7f23fc4d666d"},"vehicle_type_id":"4","last_reported":1742022498,"current_range_meters":9600,"station_id":"ce4bho92rcd13ifvqh3g","pricing_plan_id":"cebpf4jnsgd1na2vs0mg"},{"bike_id":"41ba19a0-0e14-4479-a30d-99eb9075edc9","system_id":"levelo_inurba_marseille","lat":43.23203,"lon":5.355526,"is_reserved":false,"is_disabled":false,"rental_uris":{"android":"levelo://app?vid=41ba19a0-0e14-4479-a30d-99eb9075edc9","ios":"levelo://app?vid=41ba19a0-0e14-4479-a30d-99eb9075edc9"},"vehicle_type_id":"4","last_reported":1742022498,"current_range_meters":10000,"station_id":"ce4bhu92rcd13ifvqi70","pricing_plan_id":"cebpf4jnsgd1na2vs0mg"},{"bike_id":"9fd8a695-1141-48a7-a275-ae03aade4f9e","system_id":"levelo_inurba_marseille","lat":43.245503,"lon":5.39527,"is_reserved":false,"is_disabled":false,"rental_uris":{"android":"levelo://app?vid=9fd8a695-1141-48a7-a275-ae03aade4f9e","ios":"levelo://app?vid=9fd8a695-1141-48a7-a275-ae03aade4f9e"},"vehicle_type_id":"4","last_reported":1742022498,"current_range_meters":10000,"station_id":"ce4bhlp2rcd13ifvqgjg","pricing_plan_id":"cebpf4jnsgd1na2vs0mg"},{"bike_id":"5aba52df-8a3f-4b29-82a1-604be3c638f6","system_id":"levelo_inurba_marseille","lat":43.2886,"lon":5.3586,"is_reserved":false,"is_disabled":false,"rental_uris":{"android":"levelo://app?vid=5aba52df-8a3f-4b29-82a1-604be3c638f6","ios":"levelo://app?vid=5aba52df-8a3f-4b29-82a1-604be3c638f6"},"vehicle_type_id":"4","last_reported":1742022498,"current_range_meters":10000,"station_id":"ce4bhb12rcd13ifvqem0","pricing_plan_id":"cebpf4jnsgd1na2vs0mg"},{"bike_id":"553f88c6-6125-4e11-9f10-81e7edf1b7e6","system_id":"levelo_inurba_marseille","lat":43.2993,"lon":5.37448,"is_reserved":false,"is_disabled":false,"rental_uris":{"android":"levelo://app?vid=553f88c6-6125-4e11-9f10-81e7edf1b7e6","ios":"levelo://app?vid=553f88c6-6125-4e11-9f10-81e7edf1b7e6"},"vehicle_type_id":"4","last_reported":1742022498,"current_range_meters":10000,"station_id":"ce4bgjh2rcd13ifvqbg0","pricing_plan_id":"cebpf4jnsgd1na2vs0mg"},{"bike_id":"1bf0ada9-6054-4498-9bc9-7e3afeb585a9","system_id":"levelo_inurba_marseille","lat":43.30656,"lon":5.40083,"is_reserved":false,"is_disabled":false,"rental_uris":{"android":"levelo://app?vid=1bf0ada9-6054-4498-9bc9-7e3afeb585a9","ios":"levelo://app?vid=1bf0ada9-6054-4498-9bc9-7e3afeb585a9"},"vehicle_type_id":"4","last_reported":1742022498,"current_range_meters":10000,"station_id":"ce4bh112rcd13ifvqda0","pricing_plan_id":"cebpf4jnsgd1na2vs0mg"},{"bike_id":"b37db8b9-d0d9-421b-85af-469fa613b348","system_id":"levelo_inurba_marseille","lat":43.312741,"lon":5.401631,"is_reserved":false,"is_disabled":false,"rental_uris":{"android":"levelo://app?vid=b37db8b9-d0d9-421b-85af-469fa613b348","ios":"levelo://app?vid=b37db8b9-d0d9-421b-85af-469fa613b348"},"vehicle_type_id":"4","last_reported":1742022498,"current_range_meters":10000,"station_id":"ce4bh092rcd13ifvqd30","pricing_plan_id":"cebpf4jnsgd1na2vs0mg"},{"bike_id":"65bea2c5-78a7-4fbf-92b5-f338edebb748","system_id":"levelo_inurba_marseille","lat":43.26081,"lon":5.41499,"is_reserved":false,"is_disabled":false,"rental_uris":{"android":"levelo://app?vid=65bea2c5-78a7-4fbf-92b5-f338edebb748","ios":"levelo://app?vid=65bea2c5-78a7-4fbf-92b5-f338edebb748"},"vehicle_type_id":"4","last_reported":1742022498,"current_range_meters":10000,"station_id":"","pricing_plan_id":"cebpf4jnsgd1na2vs0mg"},{"bike_id":"5c09fa10-66af-4d08-984a-1d41e4e2c41b","system_id":"levelo_inurba_marseille","lat":43.23188,"lon":5.39989,"is_reserved":false,"is_disabled":false,"rental_uris":{"android":"levelo://app?vid=5c09fa10-66af-4d08-984a-1d41e4e2c41b","ios":"levelo://app?vid=5c09fa10-66af-4d08-984a-1d41e4e2c41b"},"vehicle_type_id":"4","last_reported":1742022498,"current_range_meters":10000,"station_id":"ce4bhn12rcd13ifvqgqg","pricing_plan_id":"cebpf4jnsgd1na2vs0mg"},{"bike_id":"676e66c6-8e50-404c-b512-5f94c7d6a8fc","system_id":"levelo_inurba_marseille","lat":43.2417,"lon":5.36403,"is_reserved":false,"is_disabled":false,"rental_uris":{"android":"levelo://app?vid=676e66c6-8e50-404c-b512-5f94c7d6a8fc","ios":"levelo://app?vid=676e66c6-8e50-404c-b512-5f94c7d6a8fc"},"vehicle_type_id":"4","last_reported":1742022498,"current_range_meters":10800,"station_id":"cpo36qri1sfpv3e86is0","pricing_plan_id":"cebpf4jnsgd1na2vs0mg"},{"bike_id":"cabd3d2d-330e-43b2-8d0b-3e86699f79e1","system_id":"levelo_inurba_marseille","lat":43.24161,"lon":5.36402,"is_reserved":false,"is_disabled":false,"rental_uris":{"android":"levelo://app?vid=cabd3d2d-330e-43b2-8d0b-3e86699f79e1","ios":"levelo://app?vid=cabd3d2d-330e-43b2-8d0b-3e86699f79e1"},"vehicle_type_id":"4","last_reported":1742022498,"current_range_meters":10800,"station_id":"cpo36qri1sfpv3e86is0","pricing_plan_id":"cebpf4jnsgd1na2vs0mg"},{"bike_id":"cd2eb4ba-77cf-40ae-a991-34cec5701430","system_id":"levelo_inurba_marseille","lat":43.23148,"lon":5.43708,"is_reserved":false,"is_disabled":false,"rental_uris":{"android":"levelo://app?vid=cd2eb4ba-77cf-40ae-a991-34cec5701430","ios":"levelo://app?vid=cd2eb4ba-77cf-40ae-a991-34cec5701430"},"vehicle_type_id":"4","last_reported":1742022498,"current_range_meters":10800,"station_id":"ce4bhmp2rcd13ifvqgog","pricing_plan_id":"cebpf4jnsgd1na2vs0mg"},{"bike_id":"57c78e0d-3eb3-48c0-8e9a-43b9537b8d1f","system_id":"levelo_inurba_marseille","lat":43.2406,"lon":5.37775,"is_reserved":false,"is_disabled":false,"rental_uris":{"android":"levelo://app?vid=57c78e0d-3eb3-48c0-8e9a-43b9537b8d1f","ios":"levelo://app?vid=57c78e0d-3eb3-48c0-8e9a-43b9537b8d1f"},"vehicle_type_id":"4","last_reported":1742022498,"current_range_meters":10800,"station_id":"ce4bhnp2rcd13ifvqgvg","pricing_plan_id":"cebpf4jnsgd1na2vs0mg"},{"bike_id":"e0f00ea1-5190-455d-8f01-943045ce62ae","system_id":"levelo_inurba_marseille","lat":43.31188,"lon":5.37754,"is_reserved":false,"is_disabled":false,"rental_uris":{"android":"levelo://app?vid=e0f00ea1-5190-455d-8f01-943045ce62ae","ios":"levelo://app?vid=e0f00ea1-5190-455d-8f01-943045ce62ae"},"vehicle_type_id":"4","last_reported":1742022498,"current_range_meters":10800,"station_id":"","pricing_plan_id":"cebpf4jnsgd1na2vs0mg"},{"bike_id":"62750819-90ea-49db-b059-da19472d9390","system_id":"levelo_inurba_marseille","lat":43.315606,"lon":5.422786,"is_reserved":false,"is_disabled":false,"rental_uris":{"android":"levelo://app?vid=62750819-90ea-49db-b059-da19472d9390","ios":"levelo://app?vid=62750819-90ea-49db-b059-da19472d9390"},"vehicle_type_id":"4","last_reported":1742022498,"current_range_meters":10800,"station_id":"","pricing_plan_id":"cebpf4jnsgd1na2vs0mg"},{"bike_id":"4ef323ec-55a6-4673-9998-ca7fe4a3fb37","system_id":"levelo_inurba_marseille","lat":43.33038,"lon":5.39032,"is_reserved":false,"is_disabled":false,"rental_uris":{"android":"levelo://app?vid=4ef323ec-55a6-4673-9998-ca7fe4a3fb37","ios":"levelo://app?vid=4ef323ec-55a6-4673-9998-ca7fe4a3fb37"},"vehicle_type_id":"4","last_reported":1742022498,"current_range_meters":10800,"station_id":"ce4bhr92rcd13ifvqhrg","pricing_plan_id":"cebpf4jnsgd1na2vs0mg"},{"bike_id":"64986549-2c9e-4b9f-8464-f74cc2571bf2","system_id":"levelo_inurba_marseille","lat":43.24051,"lon":5.37732,"is_reserved":false,"is_disabled":false,"rental_uris":{"android":"levelo://app?vid=64986549-2c9e-4b9f-8464-f74cc2571bf2","ios":"levelo://app?vid=64986549-2c9e-4b9f-8464-f74cc2571bf2"},"vehicle_type_id":"4","last_reported":1742022498,"current_range_meters":10800,"station_id":"ce4bhnp2rcd13ifvqgvg","pricing_plan_id":"cebpf4jnsgd1na2vs0mg"},{"bike_id":"b492a5ac-e999-4d99-a121-1c1983e57e8f","system_id":"levelo_inurba_marseille","lat":43.28858,"lon":5.35857,"is_reserved":false,"is_disabled":false,"rental_uris":{"android":"levelo://app?vid=b492a5ac-e999-4d99-a121-1c1983e57e8f","ios":"levelo://app?vid=b492a5ac-e999-4d99-a121-1c1983e57e8f"},"vehicle_type_id":"4","last_reported":1742022498,"current_range_meters":10800,"station_id":"ce4bhb12rcd13ifvqem0","pricing_plan_id":"cebpf4jnsgd1na2vs0mg"},{"bike_id":"cb18c41c-e472-4ca0-a233-6e3349aacd22","system_id":"levelo_inurba_marseille","lat":43.28936,"lon":5.364,"is_reserved":false,"is_disabled":false,"rental_uris":{"android":"levelo://app?vid=cb18c41c-e472-4ca0-a233-6e3349aacd22","ios":"levelo://app?vid=cb18c41c-e472-4ca0-a233-6e3349aacd22"},"vehicle_type_id":"4","last_reported":1742022498,"current_range_meters":10800,"station_id":"ce4bhc92rcd13ifvqetg","pricing_plan_id":"cebpf4jnsgd1na2vs0mg"},{"bike_id":"aa125934-36f2-4778-9cc6-aaa97af72a9a","system_id":"levelo_inurba_marseille","lat":43.31183,"lon":5.38743,"is_reserved":false,"is_disabled":false,"rental_uris":{"android":"levelo://app?vid=aa125934-36f2-4778-9cc6-aaa97af72a9a","ios":"levelo://app?vid=aa125934-36f2-4778-9cc6-aaa97af72a9a"},"vehicle_type_id":"4","last_reported":1742022498,"current_range_meters":11200,"station_id":"ce4bgv12rcd13ifvqcp0","pricing_plan_id":"cebpf4jnsgd1na2vs0mg"},{"bike_id":"5f51be28-0822-4b51-a237-145201c147d9","system_id":"levelo_inurba_marseille","lat":43.30466,"lon":5.37916,"is_reserved":false,"is_disabled":false,"rental_uris":{"android":"levelo://app?vid=5f51be28-0822-4b51-a237-145201c147d9","ios":"levelo://app?vid=5f51be28-0822-4b51-a237-145201c147d9"},"vehicle_type_id":"4","last_reported":1742022498,"current_range_meters":11200,"station_id":"ce4bgup2rcd13ifvqcn0","pricing_plan_id":"cebpf4jnsgd1na2vs0mg"},{"bike_id":"08d7ad39-29b9-4d1d-ab44-5a56dd13dd34","system_id":"levelo_inurba_marseille","lat":43.24068,"lon":5.37723,"is_reserved":false,"is_disabled":false,"rental_uris":{"android":"levelo://app?vid=08d7ad39-29b9-4d1d-ab44-5a56dd13dd34","ios":"levelo://app?vid=08d7ad39-29b9-4d1d-ab44-5a56dd13dd34"},"vehicle_type_id":"4","last_reported":1742022498,"current_range_meters":11200,"station_id":"ce4bhnp2rcd13ifvqgvg","pricing_plan_id":"cebpf4jnsgd1na2vs0mg"},{"bike_id":"03d5c30f-9b67-4c42-b496-00580617f460","system_id":"levelo_inurba_marseille","lat":43.310729,"lon":5.383526,"is_reserved":false,"is_disabled":false,"rental_uris":{"android":"levelo://app?vid=03d5c30f-9b67-4c42-b496-00580617f460","ios":"levelo://app?vid=03d5c30f-9b67-4c42-b496-00580617f460"},"vehicle_type_id":"4","last_reported":1742022498,"current_range_meters":11200,"station_id":"ce4bgv92rcd13ifvqcr0","pricing_plan_id":"cebpf4jnsgd1na2vs0mg"},{"bike_id":"269491db-b98a-49e3-a3b5-e04159ff8cbf","system_id":"levelo_inurba_marseille","lat":43.2694,"lon":5.40254,"is_reserved":false,"is_disabled":false,"rental_uris":{"android":"levelo://app?vid=269491db-b98a-49e3-a3b5-e04159ff8cbf","ios":"levelo://app?vid=269491db-b98a-49e3-a3b5-e04159ff8cbf"},"vehicle_type_id":"4","last_reported":1742022498,"current_range_meters":11200,"station_id":"cjm6bp8fraef2m0cb0m0","pricing_plan_id":"cebpf4jnsgd1na2vs0mg"},{"bike_id":"1a2587ac-1ecf-462f-8667-c14c4e940c70","system_id":"levelo_inurba_marseille","lat":43.29794,"lon":5.38104,"is_reserved":false,"is_disabled":false,"rental_uris":{"android":"levelo://app?vid=1a2587ac-1ecf-462f-8667-c14c4e940c70","ios":"levelo://app?vid=1a2587ac-1ecf-462f-8667-c14c4e940c70"},"vehicle_type_id":"4","last_reported":1742022498,"current_range_meters":11200,"station_id":"ce4bgip2rcd13ifvqbb0","pricing_plan_id":"cebpf4jnsgd1na2vs0mg"},{"bike_id":"c6b824bb-649b-4740-832b-8ce2932b8909","system_id":"levelo_inurba_marseille","lat":43.28729,"lon":5.36092,"is_reserved":false,"is_disabled":false,"rental_uris":{"android":"levelo://app?vid=c6b824bb-649b-4740-832b-8ce2932b8909","ios":"levelo://app?vid=c6b824bb-649b-4740-832b-8ce2932b8909"},"vehicle_type_id":"4","last_reported":1742022498,"current_range_meters":11200,"station_id":"cki0cbj6b192h4jlfktg","pricing_plan_id":"cebpf4jnsgd1na2vs0mg"},{"bike_id":"9d9bd579-ca4a-49a8-84d8-e0a9c1600b5e","system_id":"levelo_inurba_marseille","lat":43.250844,"lon":5.395249,"is_reserved":false,"is_disabled":false,"rental_uris":{"android":"levelo://app?vid=9d9bd579-ca4a-49a8-84d8-e0a9c1600b5e","ios":"levelo://app?vid=9d9bd579-ca4a-49a8-84d8-e0a9c1600b5e"},"vehicle_type_id":"4","last_reported":1742022498,"current_range_meters":11600,"station_id":"ce4bhm12rcd13ifvqgkg","pricing_plan_id":"cebpf4jnsgd1na2vs0mg"},{"bike_id":"0b7bfdb8-fd03-4687-9225-8085184f929c","system_id":"levelo_inurba_marseille","lat":43.32349,"lon":5.36762,"is_reserved":false,"is_disabled":false,"rental_uris":{"android":"levelo://app?vid=0b7bfdb8-fd03-4687-9225-8085184f929c","ios":"levelo://app?vid=0b7bfdb8-fd03-4687-9225-8085184f929c"},"vehicle_type_id":"4","last_reported":1742022498,"current_range_meters":11600,"station_id":"ce4bhsh2rcd13ifvqi2g","pricing_plan_id":"cebpf4jnsgd1na2vs0mg"},{"bike_id":"9985ae74-2125-49fa-891b-15370436909b","system_id":"levelo_inurba_marseille","lat":43.27808,"lon":5.39213,"is_reserved":false,"is_disabled":false,"rental_uris":{"android":"levelo://app?vid=9985ae74-2125-49fa-891b-15370436909b","ios":"levelo://app?vid=9985ae74-2125-49fa-891b-15370436909b"},"vehicle_type_id":"4","last_reported":1742022498,"current_range_meters":11600,"station_id":"ce4bhjp2rcd13ifvqga0","pricing_plan_id":"cebpf4jnsgd1na2vs0mg"},{"bike_id":"25228edc-ae2b-41d4-9e7e-87f35203c830","system_id":"levelo_inurba_marseille","lat":43.266698,"lon":5.382613,"is_reserved":false,"is_disabled":false,"rental_uris":{"android":"levelo://app?vid=25228edc-ae2b-41d4-9e7e-87f35203c830","ios":"levelo://app?vid=25228edc-ae2b-41d4-9e7e-87f35203c830"},"vehicle_type_id":"4","last_reported":1742022498,"current_range_meters":11600,"station_id":"ce4bhg92rcd13ifvqf90","pricing_plan_id":"cebpf4jnsgd1na2vs0mg"},{"bike_id":"2c5aa530-b47f-422b-9cfb-8ea5a70fd9b1","system_id":"levelo_inurba_marseille","lat":43.31312,"lon":5.39721,"is_reserved":false,"is_disabled":false,"rental_uris":{"android":"levelo://app?vid=2c5aa530-b47f-422b-9cfb-8ea5a70fd9b1","ios":"levelo://app?vid=2c5aa530-b47f-422b-9cfb-8ea5a70fd9b1"},"vehicle_type_id":"4","last_reported":1742022498,"current_range_meters":11600,"station_id":"ce4bgvp2rcd13ifvqcu0","pricing_plan_id":"cebpf4jnsgd1na2vs0mg"},{"bike_id":"09292f2f-2cae-45e2-8758-74378214c4cf","system_id":"levelo_inurba_marseille","lat":43.24168,"lon":5.39743,"is_reserved":false,"is_disabled":false,"rental_uris":{"android":"levelo://app?vid=09292f2f-2cae-45e2-8758-74378214c4cf","ios":"levelo://app?vid=09292f2f-2cae-45e2-8758-74378214c4cf"},"vehicle_type_id":"4","last_reported":1742022498,"current_range_meters":11600,"station_id":"ce4bhn12rcd13ifvqgpg","pricing_plan_id":"cebpf4jnsgd1na2vs0mg"},{"bike_id":"a212850b-d961-4e6c-83d5-c03c146a618f","system_id":"levelo_inurba_marseille","lat":43.30261,"lon":5.40043,"is_reserved":false,"is_disabled":false,"rental_uris":{"android":"levelo://app?vid=a212850b-d961-4e6c-83d5-c03c146a618f","ios":"levelo://app?vid=a212850b-d961-4e6c-83d5-c03c146a618f"},"vehicle_type_id":"4","last_reported":1742022498,"current_range_meters":11600,"station_id":"ce4bgvh2rcd13ifvqcs0","pricing_plan_id":"cebpf4jnsgd1na2vs0mg"},{"bike_id":"83783ead-721f-4d82-86e9-a8ac641b2edd","system_id":"levelo_inurba_marseille","lat":43.262224,"lon":5.404585,"is_reserved":false,"is_disabled":false,"rental_uris":{"android":"levelo://app?vid=83783ead-721f-4d82-86e9-a8ac641b2edd","ios":"levelo://app?vid=83783ead-721f-4d82-86e9-a8ac641b2edd"},"vehicle_type_id":"4","last_reported":1742022498,"current_range_meters":11600,"station_id":"ce4bhmh2rcd13ifvqgmg","pricing_plan_id":"cebpf4jnsgd1na2vs0mg"},{"bike_id":"ed4d790a-9854-49a9-827f-20bd3cffa2d7","system_id":"levelo_inurba_marseille","lat":43.31177,"lon":5.38716,"is_reserved":false,"is_disabled":false,"rental_uris":{"android":"levelo://app?vid=ed4d790a-9854-49a9-827f-20bd3cffa2d7","ios":"levelo://app?vid=ed4d790a-9854-49a9-827f-20bd3cffa2d7"},"vehicle_type_id":"4","last_reported":1742022498,"current_range_meters":11600,"station_id":"ce4bgv12rcd13ifvqcp0","pricing_plan_id":"cebpf4jnsgd1na2vs0mg"},{"bike_id":"fa42c27a-c76b-48b9-aa1f-02eb2e9a5ade","system_id":"levelo_inurba_marseille","lat":43.30468,"lon":5.37921,"is_reserved":false,"is_disabled":false,"rental_uris":{"android":"levelo://app?vid=fa42c27a-c76b-48b9-aa1f-02eb2e9a5ade","ios":"levelo://app?vid=fa42c27a-c76b-48b9-aa1f-02eb2e9a5ade"},"vehicle_type_id":"4","last_reported":1742022498,"current_range_meters":11600,"station_id":"ce4bgup2rcd13ifvqcn0","pricing_plan_id":"cebpf4jnsgd1na2vs0mg"},{"bike_id":"009b8a38-7c9c-4a99-95e2-7297e8eb538c","system_id":"levelo_inurba_marseille","lat":43.32338,"lon":5.40623,"is_reserved":false,"is_disabled":false,"rental_uris":{"android":"levelo://app?vid=009b8a38-7c9c-4a99-95e2-7297e8eb538c","ios":"levelo://app?vid=009b8a38-7c9c-4a99-95e2-7297e8eb538c"},"vehicle_type_id":"4","last_reported":1742022498,"current_range_meters":12000,"station_id":"ce4bhq92rcd13ifvqhjg","pricing_plan_id":"cebpf4jnsgd1na2vs0mg"},{"bike_id":"e52b41b5-52df-4c67-a85c-3cebb3bf7504","system_id":"levelo_inurba_marseille","lat":43.32348,"lon":5.3673,"is_reserved":false,"is_disabled":false,"rental_uris":{"android":"levelo://app?vid=e52b41b5-52df-4c67-a85c-3cebb3bf7504","ios":"levelo://app?vid=e52b41b5-52df-4c67-a85c-3cebb3bf7504"},"vehicle_type_id":"4","last_reported":1742022498,"current_range_meters":12000,"station_id":"ce4bhsh2rcd13ifvqi2g","pricing_plan_id":"cebpf4jnsgd1na2vs0mg"},{"bike_id":"c418edfd-e67c-45c7-a3bc-0c27ce0d0e41","system_id":"levelo_inurba_marseille","lat":43.31261,"lon":5.40194,"is_reserved":false,"is_disabled":false,"rental_uris":{"android":"levelo://app?vid=c418edfd-e67c-45c7-a3bc-0c27ce0d0e41","ios":"levelo://app?vid=c418edfd-e67c-45c7-a3bc-0c27ce0d0e41"},"vehicle_type_id":"4","last_reported":1742022498,"current_range_meters":12000,"station_id":"ce4bh092rcd13ifvqd30","pricing_plan_id":"cebpf4jnsgd1na2vs0mg"},{"bike_id":"9c6fe7e3-28fe-4b0a-9344-2894f15aef6e","system_id":"levelo_inurba_marseille","lat":43.30267,"lon":5.37726,"is_reserved":false,"is_disabled":false,"rental_uris":{"android":"levelo://app?vid=9c6fe7e3-28fe-4b0a-9344-2894f15aef6e","ios":"levelo://app?vid=9c6fe7e3-28fe-4b0a-9344-2894f15aef6e"},"vehicle_type_id":"4","last_reported":1742022498,"current_range_meters":12000,"station_id":"ce4bguh2rcd13ifvqcj0","pricing_plan_id":"cebpf4jnsgd1na2vs0mg"},{"bike_id":"7275ac19-f926-4d23-9e9d-7142ec2c130c","system_id":"levelo_inurba_marseille","lat":43.31378,"lon":5.38501,"is_reserved":false,"is_disabled":false,"rental_uris":{"android":"levelo://app?vid=7275ac19-f926-4d23-9e9d-7142ec2c130c","ios":"levelo://app?vid=7275ac19-f926-4d23-9e9d-7142ec2c130c"},"vehicle_type_id":"4","last_reported":1742022498,"current_range_meters":12000,"station_id":"ce4bgt92rcd13ifvqcf0","pricing_plan_id":"cebpf4jnsgd1na2vs0mg"},{"bike_id":"3fbdbed3-81eb-4ebd-99e8-fe7ae5272906","system_id":"levelo_inurba_marseille","lat":43.25824,"lon":5.39469,"is_reserved":false,"is_disabled":false,"rental_uris":{"android":"levelo://app?vid=3fbdbed3-81eb-4ebd-99e8-fe7ae5272906","ios":"levelo://app?vid=3fbdbed3-81eb-4ebd-99e8-fe7ae5272906"},"vehicle_type_id":"4","last_reported":1742022498,"current_range_meters":12000,"station_id":"ce4bhip2rcd13ifvqft0","pricing_plan_id":"cebpf4jnsgd1na2vs0mg"},{"bike_id":"73e5a0f7-990d-4cd5-a507-5015e5e3d79f","system_id":"levelo_inurba_marseille","lat":43.33082,"lon":5.37689,"is_reserved":false,"is_disabled":false,"rental_uris":{"android":"levelo://app?vid=73e5a0f7-990d-4cd5-a507-5015e5e3d79f","ios":"levelo://app?vid=73e5a0f7-990d-4cd5-a507-5015e5e3d79f"},"vehicle_type_id":"4","last_reported":1742022498,"current_range_meters":12400,"station_id":"","pricing_plan_id":"cebpf4jnsgd1na2vs0mg"},{"bike_id":"76b5d343-6624-4366-8e6e-f702d50ae492","system_id":"levelo_inurba_marseille","lat":43.23184,"lon":5.3556,"is_reserved":false,"is_disabled":false,"rental_uris":{"android":"levelo://app?vid=76b5d343-6624-4366-8e6e-f702d50ae492","ios":"levelo://app?vid=76b5d343-6624-4366-8e6e-f702d50ae492"},"vehicle_type_id":"4","last_reported":1742022498,"current_range_meters":12400,"station_id":"ce4bhu92rcd13ifvqi70","pricing_plan_id":"cebpf4jnsgd1na2vs0mg"},{"bike_id":"d9a1cca8-ee8b-47f2-9d56-964a9b7f03bf","system_id":"levelo_inurba_marseille","lat":43.3132,"lon":5.39703,"is_reserved":false,"is_disabled":true,"rental_uris":{"android":"levelo://app?vid=d9a1cca8-ee8b-47f2-9d56-964a9b7f03bf","ios":"levelo://app?vid=d9a1cca8-ee8b-47f2-9d56-964a9b7f03bf"},"vehicle_type_id":"4","last_reported":1742022498,"current_range_meters":12400,"station_id":"ce4bgvp2rcd13ifvqcu0","pricing_plan_id":"cebpf4jnsgd1na2vs0mg"},{"bike_id":"7730ca17-885d-4544-b92d-1014dccd47d8","system_id":"levelo_inurba_marseille","lat":43.30534,"lon":5.38436,"is_reserved":false,"is_disabled":false,"rental_uris":{"android":"levelo://app?vid=7730ca17-885d-4544-b92d-1014dccd47d8","ios":"levelo://app?vid=7730ca17-885d-4544-b92d-1014dccd47d8"},"vehicle_type_id":"4","last_reported":1742022498,"current_range_meters":12400,"station_id":"ce4bgg92rcd13ifvqb30","pricing_plan_id":"cebpf4jnsgd1na2vs0mg"},{"bike_id":"782eb9b5-ef5a-4a8d-aefb-e596ead395e2","system_id":"levelo_inurba_marseille","lat":43.31039,"lon":5.38392,"is_reserved":false,"is_disabled":false,"rental_uris":{"android":"levelo://app?vid=782eb9b5-ef5a-4a8d-aefb-e596ead395e2","ios":"levelo://app?vid=782eb9b5-ef5a-4a8d-aefb-e596ead395e2"},"vehicle_type_id":"4","last_reported":1742022498,"current_range_meters":12800,"station_id":"ce4bgv92rcd13ifvqcr0","pricing_plan_id":"cebpf4jnsgd1na2vs0mg"},{"bike_id":"1742665e-3cf5-4d91-9f4d-8afacbb37c97","system_id":"levelo_inurba_marseille","lat":43.30325,"lon":5.39244,"is_reserved":false,"is_disabled":false,"rental_uris":{"android":"levelo://app?vid=1742665e-3cf5-4d91-9f4d-8afacbb37c97","ios":"levelo://app?vid=1742665e-3cf5-4d91-9f4d-8afacbb37c97"},"vehicle_type_id":"4","last_reported":1742022498,"current_range_meters":12800,"station_id":"ce4bgkh2rcd13ifvqbk0","pricing_plan_id":"cebpf4jnsgd1na2vs0mg"},{"bike_id":"c4256ff1-2880-4bad-b930-20b6d083e714","system_id":"levelo_inurba_marseille","lat":43.30536,"lon":5.36729,"is_reserved":false,"is_disabled":false,"rental_uris":{"android":"levelo://app?vid=c4256ff1-2880-4bad-b930-20b6d083e714","ios":"levelo://app?vid=c4256ff1-2880-4bad-b930-20b6d083e714"},"vehicle_type_id":"4","last_reported":1742022498,"current_range_meters":12800,"station_id":"ce4bgrp2rcd13ifvqc9g","pricing_plan_id":"cebpf4jnsgd1na2vs0mg"},{"bike_id":"52d5c875-3609-4039-a86e-3e5108b5309e","system_id":"levelo_inurba_marseille","lat":43.29229,"lon":5.36058,"is_reserved":false,"is_disabled":false,"rental_uris":{"android":"levelo://app?vid=52d5c875-3609-4039-a86e-3e5108b5309e","ios":"levelo://app?vid=52d5c875-3609-4039-a86e-3e5108b5309e"},"vehicle_type_id":"4","last_reported":1742022498,"current_range_meters":12800,"station_id":"ce4bhbh2rcd13ifvqeqg","pricing_plan_id":"cebpf4jnsgd1na2vs0mg"},{"bike_id":"a7bf43f3-dbf8-47c3-97b2-b3dfd7ac0119","system_id":"levelo_inurba_marseille","lat":43.30536,"lon":5.36566,"is_reserved":false,"is_disabled":false,"rental_uris":{"android":"levelo://app?vid=a7bf43f3-dbf8-47c3-97b2-b3dfd7ac0119","ios":"levelo://app?vid=a7bf43f3-dbf8-47c3-97b2-b3dfd7ac0119"},"vehicle_type_id":"4","last_reported":1742022498,"current_range_meters":12800,"station_id":"ce4bgs12rcd13ifvqcag","pricing_plan_id":"cebpf4jnsgd1na2vs0mg"},{"bike_id":"ecda60d8-e769-4fb2-a5bc-5ac96d22c9ed","system_id":"levelo_inurba_marseille","lat":43.28429,"lon":5.35946,"is_reserved":false,"is_disabled":false,"rental_uris":{"android":"levelo://app?vid=ecda60d8-e769-4fb2-a5bc-5ac96d22c9ed","ios":"levelo://app?vid=ecda60d8-e769-4fb2-a5bc-5ac96d22c9ed"},"vehicle_type_id":"4","last_reported":1742022498,"current_range_meters":12800,"station_id":"","pricing_plan_id":"cebpf4jnsgd1na2vs0mg"},{"bike_id":"b2cbd0d1-2f9b-48eb-b981-19e649f9780d","system_id":"levelo_inurba_marseille","lat":43.30869,"lon":5.37204,"is_reserved":false,"is_disabled":false,"rental_uris":{"android":"levelo://app?vid=b2cbd0d1-2f9b-48eb-b981-19e649f9780d","ios":"levelo://app?vid=b2cbd0d1-2f9b-48eb-b981-19e649f9780d"},"vehicle_type_id":"4","last_reported":1742022498,"current_range_meters":12800,"station_id":"ce4bguh2rcd13ifvqckg","pricing_plan_id":"cebpf4jnsgd1na2vs0mg"},{"bike_id":"17915f8e-faed-48ce-a9ed-f95cf86c3a36","system_id":"levelo_inurba_marseille","lat":43.28451,"lon":5.35904,"is_reserved":false,"is_disabled":false,"rental_uris":{"android":"levelo://app?vid=17915f8e-faed-48ce-a9ed-f95cf86c3a36","ios":"levelo://app?vid=17915f8e-faed-48ce-a9ed-f95cf86c3a36"},"vehicle_type_id":"4","last_reported":1742022498,"current_range_meters":13600,"station_id":"ce4bhah2rcd13ifvqei0","pricing_plan_id":"cebpf4jnsgd1na2vs0mg"},{"bike_id":"7d24174d-d10b-414c-be10-a866c2e24646","system_id":"levelo_inurba_marseille","lat":43.30533,"lon":5.36717,"is_reserved":false,"is_disabled":false,"rental_uris":{"android":"levelo://app?vid=7d24174d-d10b-414c-be10-a866c2e24646","ios":"levelo://app?vid=7d24174d-d10b-414c-be10-a866c2e24646"},"vehicle_type_id":"4","last_reported":1742022498,"current_range_meters":13600,"station_id":"ce4bgrp2rcd13ifvqc9g","pricing_plan_id":"cebpf4jnsgd1na2vs0mg"},{"bike_id":"dbd2bb0e-ea3e-4793-94a9-4f22a304dc71","system_id":"levelo_inurba_marseille","lat":43.28435,"lon":5.39207,"is_reserved":false,"is_disabled":false,"rental_uris":{"android":"levelo://app?vid=dbd2bb0e-ea3e-4793-94a9-4f22a304dc71","ios":"levelo://app?vid=dbd2bb0e-ea3e-4793-94a9-4f22a304dc71"},"vehicle_type_id":"4","last_reported":1742022498,"current_range_meters":13600,"station_id":"ce4bhoh2rcd13ifvqh5g","pricing_plan_id":"cebpf4jnsgd1na2vs0mg"},{"bike_id":"87b7f147-0ac2-4b35-8bcc-3f02f503bd7c","system_id":"levelo_inurba_marseille","lat":43.261971,"lon":5.379199,"is_reserved":false,"is_disabled":false,"rental_uris":{"android":"levelo://app?vid=87b7f147-0ac2-4b35-8bcc-3f02f503bd7c","ios":"levelo://app?vid=87b7f147-0ac2-4b35-8bcc-3f02f503bd7c"},"vehicle_type_id":"4","last_reported":1742022498,"current_range_meters":13600,"station_id":"ce4bhjp2rcd13ifvqg90","pricing_plan_id":"cebpf4jnsgd1na2vs0mg"},{"bike_id":"35170032-9fbd-466b-b080-21388ed7720a","system_id":"levelo_inurba_marseille","lat":43.25112,"lon":5.39494,"is_reserved":false,"is_disabled":false,"rental_uris":{"android":"levelo://app?vid=35170032-9fbd-466b-b080-21388ed7720a","ios":"levelo://app?vid=35170032-9fbd-466b-b080-21388ed7720a"},"vehicle_type_id":"4","last_reported":1742022498,"current_range_meters":14000,"station_id":"ce4bhm12rcd13ifvqgkg","pricing_plan_id":"cebpf4jnsgd1na2vs0mg"},{"bike_id":"8ff078fa-26f5-47e1-8528-38fa2269d7f6","system_id":"levelo_inurba_marseille","lat":43.27492,"lon":5.42448,"is_reserved":false,"is_disabled":false,"rental_uris":{"android":"levelo://app?vid=8ff078fa-26f5-47e1-8528-38fa2269d7f6","ios":"levelo://app?vid=8ff078fa-26f5-47e1-8528-38fa2269d7f6"},"vehicle_type_id":"4","last_reported":1742022498,"current_range_meters":14000,"station_id":"ce4bhn92rcd13ifvqgrg","pricing_plan_id":"cebpf4jnsgd1na2vs0mg"},{"bike_id":"fcfb0226-b92a-48e1-8109-97d8670e0387","system_id":"levelo_inurba_marseille","lat":43.25939,"lon":5.40894,"is_reserved":false,"is_disabled":false,"rental_uris":{"android":"levelo://app?vid=fcfb0226-b92a-48e1-8109-97d8670e0387","ios":"levelo://app?vid=fcfb0226-b92a-48e1-8109-97d8670e0387"},"vehicle_type_id":"4","last_reported":1742022498,"current_range_meters":14000,"station_id":"ce4bhm92rcd13ifvqglg","pricing_plan_id":"cebpf4jnsgd1na2vs0mg"},{"bike_id":"f0d3291f-33ff-4a36-afc1-5ee1dcf854db","system_id":"levelo_inurba_marseille","lat":43.27044,"lon":5.4028,"is_reserved":false,"is_disabled":false,"rental_uris":{"android":"levelo://app?vid=f0d3291f-33ff-4a36-afc1-5ee1dcf854db","ios":"levelo://app?vid=f0d3291f-33ff-4a36-afc1-5ee1dcf854db"},"vehicle_type_id":"4","last_reported":1742022498,"current_range_meters":14000,"station_id":"ce4bhk92rcd13ifvqgc0","pricing_plan_id":"cebpf4jnsgd1na2vs0mg"},{"bike_id":"6d8da0a5-b871-4356-b5f9-c88363cec417","system_id":"levelo_inurba_marseille","lat":43.29782,"lon":5.3935,"is_reserved":false,"is_disabled":false,"rental_uris":{"android":"levelo://app?vid=6d8da0a5-b871-4356-b5f9-c88363cec417","ios":"levelo://app?vid=6d8da0a5-b871-4356-b5f9-c88363cec417"},"vehicle_type_id":"4","last_reported":1742022498,"current_range_meters":14000,"station_id":"chh1huq6cuj3fo74tm60","pricing_plan_id":"cebpf4jnsgd1na2vs0mg"},{"bike_id":"11e69b77-91b1-40db-80d5-d5392d177271","system_id":"levelo_inurba_marseille","lat":43.30663,"lon":5.40087,"is_reserved":false,"is_disabled":false,"rental_uris":{"android":"levelo://app?vid=11e69b77-91b1-40db-80d5-d5392d177271","ios":"levelo://app?vid=11e69b77-91b1-40db-80d5-d5392d177271"},"vehicle_type_id":"4","last_reported":1742022498,"current_range_meters":14000,"station_id":"ce4bh112rcd13ifvqda0","pricing_plan_id":"cebpf4jnsgd1na2vs0mg"},{"bike_id":"d751a31e-a518-44cc-8641-315d036d1e06","system_id":"levelo_inurba_marseille","lat":43.298844,"lon":5.397498,"is_reserved":false,"is_disabled":true,"rental_uris":{"android":"levelo://app?vid=d751a31e-a518-44cc-8641-315d036d1e06","ios":"levelo://app?vid=d751a31e-a518-44cc-8641-315d036d1e06"},"vehicle_type_id":"4","last_reported":1742022498,"current_range_meters":14400,"station_id":"ce4bh0h2rcd13ifvqd50","pricing_plan_id":"cebpf4jnsgd1na2vs0mg"},{"bike_id":"412b9149-277a-4815-8fa9-3e7a792a0332","system_id":"levelo_inurba_marseille","lat":43.2807,"lon":5.3964,"is_reserved":false,"is_disabled":false,"rental_uris":{"android":"levelo://app?vid=412b9149-277a-4815-8fa9-3e7a792a0332","ios":"levelo://app?vid=412b9149-277a-4815-8fa9-3e7a792a0332"},"vehicle_type_id":"4","last_reported":1742022498,"current_range_meters":14400,"station_id":"ce4bho12rcd13ifvqh2g","pricing_plan_id":"cebpf4jnsgd1na2vs0mg"},{"bike_id":"608f0462-484e-441f-9837-82475dce48ee","system_id":"levelo_inurba_marseille","lat":43.29895,"lon":5.43672,"is_reserved":false,"is_disabled":false,"rental_uris":{"android":"levelo://app?vid=608f0462-484e-441f-9837-82475dce48ee","ios":"levelo://app?vid=608f0462-484e-441f-9837-82475dce48ee"},"vehicle_type_id":"4","last_reported":1742022498,"current_range_meters":14400,"station_id":"ce4bhpp2rcd13ifvqhfg","pricing_plan_id":"cebpf4jnsgd1na2vs0mg"},{"bike_id":"67ba5532-a4de-45d0-bd2d-aa06a7264fb6","system_id":"levelo_inurba_marseille","lat":43.30877,"lon":5.37188,"is_reserved":false,"is_disabled":false,"rental_uris":{"android":"levelo://app?vid=67ba5532-a4de-45d0-bd2d-aa06a7264fb6","ios":"levelo://app?vid=67ba5532-a4de-45d0-bd2d-aa06a7264fb6"},"vehicle_type_id":"4","last_reported":1742022498,"current_range_meters":14400,"station_id":"ce4bguh2rcd13ifvqckg","pricing_plan_id":"cebpf4jnsgd1na2vs0mg"},{"bike_id":"78df367a-4264-4241-a94f-f890135b7404","system_id":"levelo_inurba_marseille","lat":43.33623,"lon":5.40931,"is_reserved":false,"is_disabled":false,"rental_uris":{"android":"levelo://app?vid=78df367a-4264-4241-a94f-f890135b7404","ios":"levelo://app?vid=78df367a-4264-4241-a94f-f890135b7404"},"vehicle_type_id":"4","last_reported":1742022498,"current_range_meters":14400,"station_id":"","pricing_plan_id":"cebpf4jnsgd1na2vs0mg"},{"bike_id":"27bac330-d155-49e8-82e6-eb8b69d07d77","system_id":"levelo_inurba_marseille","lat":43.30179,"lon":5.3666,"is_reserved":false,"is_disabled":false,"rental_uris":{"android":"levelo://app?vid=27bac330-d155-49e8-82e6-eb8b69d07d77","ios":"levelo://app?vid=27bac330-d155-49e8-82e6-eb8b69d07d77"},"vehicle_type_id":"4","last_reported":1742022498,"current_range_meters":14400,"station_id":"ce4bgrh2rcd13ifvqc8g","pricing_plan_id":"cebpf4jnsgd1na2vs0mg"},{"bike_id":"d7805a70-e542-491b-997b-76937b25c6de","system_id":"levelo_inurba_marseille","lat":43.288605,"lon":5.35839,"is_reserved":false,"is_disabled":false,"rental_uris":{"android":"levelo://app?vid=d7805a70-e542-491b-997b-76937b25c6de","ios":"levelo://app?vid=d7805a70-e542-491b-997b-76937b25c6de"},"vehicle_type_id":"4","last_reported":1742022498,"current_range_meters":14800,"station_id":"ce4bhb12rcd13ifvqem0","pricing_plan_id":"cebpf4jnsgd1na2vs0mg"},{"bike_id":"fc071de1-2cc0-488a-a43e-f8037a5a9a49","system_id":"levelo_inurba_marseille","lat":43.230712,"lon":5.35495,"is_reserved":false,"is_disabled":false,"rental_uris":{"android":"levelo://app?vid=fc071de1-2cc0-488a-a43e-f8037a5a9a49","ios":"levelo://app?vid=fc071de1-2cc0-488a-a43e-f8037a5a9a49"},"vehicle_type_id":"4","last_reported":1742022498,"current_range_meters":14800,"station_id":"cpo3342slgdg3j2ifvpg","pricing_plan_id":"cebpf4jnsgd1na2vs0mg"},{"bike_id":"9bedb5e4-4d9a-4082-9f39-f9e9277ed09c","system_id":"levelo_inurba_marseille","lat":43.29232,"lon":5.42849,"is_reserved":false,"is_disabled":false,"rental_uris":{"android":"levelo://app?vid=9bedb5e4-4d9a-4082-9f39-f9e9277ed09c","ios":"levelo://app?vid=9bedb5e4-4d9a-4082-9f39-f9e9277ed09c"},"vehicle_type_id":"4","last_reported":1742022498,"current_range_meters":14800,"station_id":"","pricing_plan_id":"cebpf4jnsgd1na2vs0mg"},{"bike_id":"f313e511-70a9-4d28-9105-f80f9ce3e50c","system_id":"levelo_inurba_marseille","lat":43.239589,"lon":5.366262,"is_reserved":false,"is_disabled":false,"rental_uris":{"android":"levelo://app?vid=f313e511-70a9-4d28-9105-f80f9ce3e50c","ios":"levelo://app?vid=f313e511-70a9-4d28-9105-f80f9ce3e50c"},"vehicle_type_id":"4","last_reported":1742022498,"current_range_meters":14800,"station_id":"ce4bhi12rcd13ifvqfp0","pricing_plan_id":"cebpf4jnsgd1na2vs0mg"},{"bike_id":"74f2950d-f639-4809-bff2-7e52cd116e06","system_id":"levelo_inurba_marseille","lat":43.23154,"lon":5.43721,"is_reserved":false,"is_disabled":false,"rental_uris":{"android":"levelo://app?vid=74f2950d-f639-4809-bff2-7e52cd116e06","ios":"levelo://app?vid=74f2950d-f639-4809-bff2-7e52cd116e06"},"vehicle_type_id":"4","last_reported":1742022498,"current_range_meters":15200,"station_id":"ce4bhmp2rcd13ifvqgog","pricing_plan_id":"cebpf4jnsgd1na2vs0mg"},{"bike_id":"71b342b8-694b-40d5-99e8-310baf77a970","system_id":"levelo_inurba_marseille","lat":43.2306,"lon":5.35504,"is_reserved":false,"is_disabled":false,"rental_uris":{"android":"levelo://app?vid=71b342b8-694b-40d5-99e8-310baf77a970","ios":"levelo://app?vid=71b342b8-694b-40d5-99e8-310baf77a970"},"vehicle_type_id":"4","last_reported":1742022498,"current_range_meters":15200,"station_id":"cpo3342slgdg3j2ifvpg","pricing_plan_id":"cebpf4jnsgd1na2vs0mg"},{"bike_id":"90c707aa-0edc-4e94-a911-252e6bd4d4c2","system_id":"levelo_inurba_marseille","lat":43.28625,"lon":5.35107,"is_reserved":false,"is_disabled":false,"rental_uris":{"android":"levelo://app?vid=90c707aa-0edc-4e94-a911-252e6bd4d4c2","ios":"levelo://app?vid=90c707aa-0edc-4e94-a911-252e6bd4d4c2"},"vehicle_type_id":"4","last_reported":1742022498,"current_range_meters":15200,"station_id":"ce4bhch2rcd13ifvqeug","pricing_plan_id":"cebpf4jnsgd1na2vs0mg"},{"bike_id":"8c62b69f-7f70-4d77-a07e-570868aa4b81","system_id":"levelo_inurba_marseille","lat":43.287091,"lon":5.39987,"is_reserved":false,"is_disabled":false,"rental_uris":{"android":"levelo://app?vid=8c62b69f-7f70-4d77-a07e-570868aa4b81","ios":"levelo://app?vid=8c62b69f-7f70-4d77-a07e-570868aa4b81"},"vehicle_type_id":"4","last_reported":1742022498,"current_range_meters":15200,"station_id":"ce4bgs12rcd13ifvqcag","pricing_plan_id":"cebpf4jnsgd1na2vs0mg"},{"bike_id":"c69a0189-c69b-46b7-bf01-ed8fa65f4cbc","system_id":"levelo_inurba_marseille","lat":43.29011,"lon":5.35608,"is_reserved":false,"is_disabled":false,"rental_uris":{"android":"levelo://app?vid=c69a0189-c69b-46b7-bf01-ed8fa65f4cbc","ios":"levelo://app?vid=c69a0189-c69b-46b7-bf01-ed8fa65f4cbc"},"vehicle_type_id":"4","last_reported":1742022498,"current_range_meters":15200,"station_id":"ce4bhb92rcd13ifvqen0","pricing_plan_id":"cebpf4jnsgd1na2vs0mg"},{"bike_id":"8dee89b1-f251-449e-a212-f0a0e46943ef","system_id":"levelo_inurba_marseille","lat":43.276174,"lon":5.361165,"is_reserved":false,"is_disabled":false,"rental_uris":{"android":"levelo://app?vid=8dee89b1-f251-449e-a212-f0a0e46943ef","ios":"levelo://app?vid=8dee89b1-f251-449e-a212-f0a0e46943ef"},"vehicle_type_id":"4","last_reported":1742022498,"current_range_meters":15200,"station_id":"ce4bgj92rcd13ifvqbe0","pricing_plan_id":"cebpf4jnsgd1na2vs0mg"},{"bike_id":"e1bc5517-89cc-4fbd-afdb-e8d3c61b8e55","system_id":"levelo_inurba_marseille","lat":43.32356,"lon":5.367551,"is_reserved":false,"is_disabled":false,"rental_uris":{"android":"levelo://app?vid=e1bc5517-89cc-4fbd-afdb-e8d3c61b8e55","ios":"levelo://app?vid=e1bc5517-89cc-4fbd-afdb-e8d3c61b8e55"},"vehicle_type_id":"4","last_reported":1742022498,"current_range_meters":15200,"station_id":"ce4bhsh2rcd13ifvqi2g","pricing_plan_id":"cebpf4jnsgd1na2vs0mg"},{"bike_id":"3a65fa45-5962-4cce-a684-326978fd9e02","system_id":"levelo_inurba_marseille","lat":43.2707,"lon":5.42285,"is_reserved":false,"is_disabled":false,"rental_uris":{"android":"levelo://app?vid=3a65fa45-5962-4cce-a684-326978fd9e02","ios":"levelo://app?vid=3a65fa45-5962-4cce-a684-326978fd9e02"},"vehicle_type_id":"4","last_reported":1742022498,"current_range_meters":15200,"station_id":"ce4bhk92rcd13ifvqgb0","pricing_plan_id":"cebpf4jnsgd1na2vs0mg"},{"bike_id":"3a89315b-62de-4a2c-a0ba-c40dd86a913d","system_id":"levelo_inurba_marseille","lat":43.270582,"lon":5.402653,"is_reserved":false,"is_disabled":false,"rental_uris":{"android":"levelo://app?vid=3a89315b-62de-4a2c-a0ba-c40dd86a913d","ios":"levelo://app?vid=3a89315b-62de-4a2c-a0ba-c40dd86a913d"},"vehicle_type_id":"4","last_reported":1742022498,"current_range_meters":15200,"station_id":"ce4bhk92rcd13ifvqgc0","pricing_plan_id":"cebpf4jnsgd1na2vs0mg"},{"bike_id":"a9760b35-77a1-4c48-883c-83d3cc628457","system_id":"levelo_inurba_marseille","lat":43.2572,"lon":5.41113,"is_reserved":false,"is_disabled":false,"rental_uris":{"android":"levelo://app?vid=a9760b35-77a1-4c48-883c-83d3cc628457","ios":"levelo://app?vid=a9760b35-77a1-4c48-883c-83d3cc628457"},"vehicle_type_id":"4","last_reported":1742022498,"current_range_meters":16000,"station_id":"ce4bhkp2rcd13ifvqgd0","pricing_plan_id":"cebpf4jnsgd1na2vs0mg"},{"bike_id":"6850f114-f664-4675-ae66-935c99a0db8e","system_id":"levelo_inurba_marseille","lat":43.27042,"lon":5.40273,"is_reserved":false,"is_disabled":false,"rental_uris":{"android":"levelo://app?vid=6850f114-f664-4675-ae66-935c99a0db8e","ios":"levelo://app?vid=6850f114-f664-4675-ae66-935c99a0db8e"},"vehicle_type_id":"4","last_reported":1742022498,"current_range_meters":16000,"station_id":"ce4bhk92rcd13ifvqgc0","pricing_plan_id":"cebpf4jnsgd1na2vs0mg"},{"bike_id":"013ced06-6d05-49d1-9ddf-da80dc2a951b","system_id":"levelo_inurba_marseille","lat":43.26667,"lon":5.38287,"is_reserved":false,"is_disabled":false,"rental_uris":{"android":"levelo://app?vid=013ced06-6d05-49d1-9ddf-da80dc2a951b","ios":"levelo://app?vid=013ced06-6d05-49d1-9ddf-da80dc2a951b"},"vehicle_type_id":"4","last_reported":1742022498,"current_range_meters":16000,"station_id":"ce4bhg92rcd13ifvqf90","pricing_plan_id":"cebpf4jnsgd1na2vs0mg"},{"bike_id":"246a7c92-d175-4429-80ae-4fc7e5491571","system_id":"levelo_inurba_marseille","lat":43.305193,"lon":5.36697,"is_reserved":false,"is_disabled":false,"rental_uris":{"android":"levelo://app?vid=246a7c92-d175-4429-80ae-4fc7e5491571","ios":"levelo://app?vid=246a7c92-d175-4429-80ae-4fc7e5491571"},"vehicle_type_id":"4","last_reported":1742022498,"current_range_meters":16000,"station_id":"ce4bgrp2rcd13ifvqc9g","pricing_plan_id":"cebpf4jnsgd1na2vs0mg"},{"bike_id":"df2bd365-182b-4a07-b573-1593f98b410a","system_id":"levelo_inurba_marseille","lat":43.287328,"lon":5.360985,"is_reserved":false,"is_disabled":true,"rental_uris":{"android":"levelo://app?vid=df2bd365-182b-4a07-b573-1593f98b410a","ios":"levelo://app?vid=df2bd365-182b-4a07-b573-1593f98b410a"},"vehicle_type_id":"4","last_reported":1742022498,"current_range_meters":16000,"station_id":"cki0cbj6b192h4jlfktg","pricing_plan_id":"cebpf4jnsgd1na2vs0mg"},{"bike_id":"e056e6b6-6680-4fc7-b2ee-2dca251ca582","system_id":"levelo_inurba_marseille","lat":43.26541,"lon":5.3904,"is_reserved":false,"is_disabled":false,"rental_uris":{"android":"levelo://app?vid=e056e6b6-6680-4fc7-b2ee-2dca251ca582","ios":"levelo://app?vid=e056e6b6-6680-4fc7-b2ee-2dca251ca582"},"vehicle_type_id":"4","last_reported":1742022498,"current_range_meters":16000,"station_id":"ce4bhe12rcd13ifvqf30","pricing_plan_id":"cebpf4jnsgd1na2vs0mg"},{"bike_id":"83be66f9-8ad9-4e4a-9d61-0adde036f01d","system_id":"levelo_inurba_marseille","lat":43.2835,"lon":5.3811,"is_reserved":false,"is_disabled":false,"rental_uris":{"android":"levelo://app?vid=83be66f9-8ad9-4e4a-9d61-0adde036f01d","ios":"levelo://app?vid=83be66f9-8ad9-4e4a-9d61-0adde036f01d"},"vehicle_type_id":"4","last_reported":1742022498,"current_range_meters":16000,"station_id":"ce4bh412rcd13ifvqdr0","pricing_plan_id":"cebpf4jnsgd1na2vs0mg"},{"bike_id":"11026308-9cf0-4bf7-9745-a609e69eb26b","system_id":"levelo_inurba_marseille","lat":43.28439,"lon":5.39183,"is_reserved":false,"is_disabled":false,"rental_uris":{"android":"levelo://app?vid=11026308-9cf0-4bf7-9745-a609e69eb26b","ios":"levelo://app?vid=11026308-9cf0-4bf7-9745-a609e69eb26b"},"vehicle_type_id":"4","last_reported":1742022498,"current_range_meters":16000,"station_id":"ce4bhoh2rcd13ifvqh5g","pricing_plan_id":"cebpf4jnsgd1na2vs0mg"},{"bike_id":"d20b1ea1-68d8-4d84-b2b2-7af425a1c02d","system_id":"levelo_inurba_marseille","lat":43.269374,"lon":5.402502,"is_reserved":false,"is_disabled":false,"rental_uris":{"android":"levelo://app?vid=d20b1ea1-68d8-4d84-b2b2-7af425a1c02d","ios":"levelo://app?vid=d20b1ea1-68d8-4d84-b2b2-7af425a1c02d"},"vehicle_type_id":"4","last_reported":1742022498,"current_range_meters":16000,"station_id":"cjm6bp8fraef2m0cb0m0","pricing_plan_id":"cebpf4jnsgd1na2vs0mg"},{"bike_id":"994936f1-06f5-41f1-827e-c9b4248642ec","system_id":"levelo_inurba_marseille","lat":43.30147,"lon":5.38083,"is_reserved":false,"is_disabled":false,"rental_uris":{"android":"levelo://app?vid=994936f1-06f5-41f1-827e-c9b4248642ec","ios":"levelo://app?vid=994936f1-06f5-41f1-827e-c9b4248642ec"},"vehicle_type_id":"4","last_reported":1742022498,"current_range_meters":16000,"station_id":"ce4bgjp2rcd13ifvqbh0","pricing_plan_id":"cebpf4jnsgd1na2vs0mg"},{"bike_id":"530dcf3f-baa5-4f42-b9c7-b4b5afe3c2c8","system_id":"levelo_inurba_marseille","lat":43.30319,"lon":5.40446,"is_reserved":false,"is_disabled":false,"rental_uris":{"android":"levelo://app?vid=530dcf3f-baa5-4f42-b9c7-b4b5afe3c2c8","ios":"levelo://app?vid=530dcf3f-baa5-4f42-b9c7-b4b5afe3c2c8"},"vehicle_type_id":"4","last_reported":1742022498,"current_range_meters":16000,"station_id":"ce4bh012rcd13ifvqd10","pricing_plan_id":"cebpf4jnsgd1na2vs0mg"},{"bike_id":"63260076-f22b-4dff-83b6-e36d9ff67968","system_id":"levelo_inurba_marseille","lat":43.25719,"lon":5.4112,"is_reserved":false,"is_disabled":false,"rental_uris":{"android":"levelo://app?vid=63260076-f22b-4dff-83b6-e36d9ff67968","ios":"levelo://app?vid=63260076-f22b-4dff-83b6-e36d9ff67968"},"vehicle_type_id":"4","last_reported":1742022498,"current_range_meters":16000,"station_id":"ce4bhkp2rcd13ifvqgd0","pricing_plan_id":"cebpf4jnsgd1na2vs0mg"},{"bike_id":"efa182c5-e8bb-4316-9ac4-4d06270b10d4","system_id":"levelo_inurba_marseille","lat":43.323664,"lon":5.388876,"is_reserved":false,"is_disabled":false,"rental_uris":{"android":"levelo://app?vid=efa182c5-e8bb-4316-9ac4-4d06270b10d4","ios":"levelo://app?vid=efa182c5-e8bb-4316-9ac4-4d06270b10d4"},"vehicle_type_id":"4","last_reported":1742022498,"current_range_meters":16000,"station_id":"ce4bhqp2rcd13ifvqhog","pricing_plan_id":"cebpf4jnsgd1na2vs0mg"},{"bike_id":"f0bca22f-e209-4fd9-b311-4c3b7896a530","system_id":"levelo_inurba_marseille","lat":43.298045,"lon":5.403971,"is_reserved":false,"is_disabled":false,"rental_uris":{"android":"levelo://app?vid=f0bca22f-e209-4fd9-b311-4c3b7896a530","ios":"levelo://app?vid=f0bca22f-e209-4fd9-b311-4c3b7896a530"},"vehicle_type_id":"4","last_reported":1742022498,"current_range_meters":16000,"station_id":"ce4bh112rcd13ifvqd90","pricing_plan_id":"cebpf4jnsgd1na2vs0mg"},{"bike_id":"57281445-aacc-4c77-b9a9-f9307451f32e","system_id":"levelo_inurba_marseille","lat":43.25863,"lon":5.39905,"is_reserved":false,"is_disabled":false,"rental_uris":{"android":"levelo://app?vid=57281445-aacc-4c77-b9a9-f9307451f32e","ios":"levelo://app?vid=57281445-aacc-4c77-b9a9-f9307451f32e"},"vehicle_type_id":"4","last_reported":1742022498,"current_range_meters":16400,"station_id":"ce4bhl92rcd13ifvqghg","pricing_plan_id":"cebpf4jnsgd1na2vs0mg"},{"bike_id":"162c4ca4-2059-44d0-b6f4-146e09702a4e","system_id":"levelo_inurba_marseille","lat":43.29217,"lon":5.36083,"is_reserved":false,"is_disabled":false,"rental_uris":{"android":"levelo://app?vid=162c4ca4-2059-44d0-b6f4-146e09702a4e","ios":"levelo://app?vid=162c4ca4-2059-44d0-b6f4-146e09702a4e"},"vehicle_type_id":"4","last_reported":1742022498,"current_range_meters":16400,"station_id":"ce4bhbh2rcd13ifvqeqg","pricing_plan_id":"cebpf4jnsgd1na2vs0mg"},{"bike_id":"d223b888-8aed-43c6-a393-ac1852419085","system_id":"levelo_inurba_marseille","lat":43.2845,"lon":5.35895,"is_reserved":false,"is_disabled":false,"rental_uris":{"android":"levelo://app?vid=d223b888-8aed-43c6-a393-ac1852419085","ios":"levelo://app?vid=d223b888-8aed-43c6-a393-ac1852419085"},"vehicle_type_id":"4","last_reported":1742022498,"current_range_meters":16400,"station_id":"ce4bhah2rcd13ifvqei0","pricing_plan_id":"cebpf4jnsgd1na2vs0mg"},{"bike_id":"ed968fdb-84da-4c7e-9e7e-2ee0ac6d6123","system_id":"levelo_inurba_marseille","lat":43.28078,"lon":5.39626,"is_reserved":false,"is_disabled":false,"rental_uris":{"android":"levelo://app?vid=ed968fdb-84da-4c7e-9e7e-2ee0ac6d6123","ios":"levelo://app?vid=ed968fdb-84da-4c7e-9e7e-2ee0ac6d6123"},"vehicle_type_id":"4","last_reported":1742022498,"current_range_meters":16400,"station_id":"ce4bho12rcd13ifvqh2g","pricing_plan_id":"cebpf4jnsgd1na2vs0mg"},{"bike_id":"f238c0df-d3c9-4577-a186-a5d3f05e229a","system_id":"levelo_inurba_marseille","lat":43.25835,"lon":5.39437,"is_reserved":false,"is_disabled":false,"rental_uris":{"android":"levelo://app?vid=f238c0df-d3c9-4577-a186-a5d3f05e229a","ios":"levelo://app?vid=f238c0df-d3c9-4577-a186-a5d3f05e229a"},"vehicle_type_id":"4","last_reported":1742022498,"current_range_meters":16400,"station_id":"ce4bhip2rcd13ifvqft0","pricing_plan_id":"cebpf4jnsgd1na2vs0mg"},{"bike_id":"3211dbf9-b186-4905-8464-44c5efcdf2b4","system_id":"levelo_inurba_marseille","lat":43.30186,"lon":5.36645,"is_reserved":false,"is_disabled":false,"rental_uris":{"android":"levelo://app?vid=3211dbf9-b186-4905-8464-44c5efcdf2b4","ios":"levelo://app?vid=3211dbf9-b186-4905-8464-44c5efcdf2b4"},"vehicle_type_id":"4","last_reported":1742022498,"current_range_meters":16400,"station_id":"ce4bgrh2rcd13ifvqc8g","pricing_plan_id":"cebpf4jnsgd1na2vs0mg"},{"bike_id":"f709cb7e-4bd4-4503-ab85-447b0bd380b5","system_id":"levelo_inurba_marseille","lat":43.323631,"lon":5.388883,"is_reserved":false,"is_disabled":false,"rental_uris":{"android":"levelo://app?vid=f709cb7e-4bd4-4503-ab85-447b0bd380b5","ios":"levelo://app?vid=f709cb7e-4bd4-4503-ab85-447b0bd380b5"},"vehicle_type_id":"4","last_reported":1742022498,"current_range_meters":16400,"station_id":"ce4bhqp2rcd13ifvqhog","pricing_plan_id":"cebpf4jnsgd1na2vs0mg"},{"bike_id":"d60d57fc-1fb2-4fe1-a1a3-7107d28e8c63","system_id":"levelo_inurba_marseille","lat":43.32629,"lon":5.41017,"is_reserved":false,"is_disabled":false,"rental_uris":{"android":"levelo://app?vid=d60d57fc-1fb2-4fe1-a1a3-7107d28e8c63","ios":"levelo://app?vid=d60d57fc-1fb2-4fe1-a1a3-7107d28e8c63"},"vehicle_type_id":"4","last_reported":1742022498,"current_range_meters":16400,"station_id":"ce4bhpp2rcd13ifvqhgg","pricing_plan_id":"cebpf4jnsgd1na2vs0mg"},{"bike_id":"4a7756d7-96b4-4244-8589-0d6472a05729","system_id":"levelo_inurba_marseille","lat":43.27833,"lon":5.39211,"is_reserved":false,"is_disabled":false,"rental_uris":{"android":"levelo://app?vid=4a7756d7-96b4-4244-8589-0d6472a05729","ios":"levelo://app?vid=4a7756d7-96b4-4244-8589-0d6472a05729"},"vehicle_type_id":"4","last_reported":1742022498,"current_range_meters":16800,"station_id":"ce4bhjp2rcd13ifvqga0","pricing_plan_id":"cebpf4jnsgd1na2vs0mg"},{"bike_id":"2e11829c-c539-4249-a99d-d72cb2a8e369","system_id":"levelo_inurba_marseille","lat":43.288531,"lon":5.358529,"is_reserved":false,"is_disabled":false,"rental_uris":{"android":"levelo://app?vid=2e11829c-c539-4249-a99d-d72cb2a8e369","ios":"levelo://app?vid=2e11829c-c539-4249-a99d-d72cb2a8e369"},"vehicle_type_id":"4","last_reported":1742022498,"current_range_meters":16800,"station_id":"ce4bhb12rcd13ifvqem0","pricing_plan_id":"cebpf4jnsgd1na2vs0mg"},{"bike_id":"4d20b878-6603-4328-ab6e-4a7ae0b08224","system_id":"levelo_inurba_marseille","lat":43.259357,"lon":5.40912,"is_reserved":false,"is_disabled":false,"rental_uris":{"android":"levelo://app?vid=4d20b878-6603-4328-ab6e-4a7ae0b08224","ios":"levelo://app?vid=4d20b878-6603-4328-ab6e-4a7ae0b08224"},"vehicle_type_id":"4","last_reported":1742022498,"current_range_meters":16800,"station_id":"ce4bhm92rcd13ifvqglg","pricing_plan_id":"cebpf4jnsgd1na2vs0mg"},{"bike_id":"b89eb48b-e97b-4abf-8014-42ec3603d979","system_id":"levelo_inurba_marseille","lat":43.26225,"lon":5.40453,"is_reserved":false,"is_disabled":false,"rental_uris":{"android":"levelo://app?vid=b89eb48b-e97b-4abf-8014-42ec3603d979","ios":"levelo://app?vid=b89eb48b-e97b-4abf-8014-42ec3603d979"},"vehicle_type_id":"4","last_reported":1742022498,"current_range_meters":16800,"station_id":"ce4bhmh2rcd13ifvqgmg","pricing_plan_id":"cebpf4jnsgd1na2vs0mg"},{"bike_id":"37d6b6b3-c485-4987-9bc5-8406395f6e1a","system_id":"levelo_inurba_marseille","lat":43.26692,"lon":5.38255,"is_reserved":false,"is_disabled":false,"rental_uris":{"android":"levelo://app?vid=37d6b6b3-c485-4987-9bc5-8406395f6e1a","ios":"levelo://app?vid=37d6b6b3-c485-4987-9bc5-8406395f6e1a"},"vehicle_type_id":"4","last_reported":1742022498,"current_range_meters":16800,"station_id":"ce4bhg92rcd13ifvqf90","pricing_plan_id":"cebpf4jnsgd1na2vs0mg"},{"bike_id":"27917686-aba1-488b-b3e7-822f5af18ee3","system_id":"levelo_inurba_marseille","lat":43.30354,"lon":5.41886,"is_reserved":false,"is_disabled":false,"rental_uris":{"android":"levelo://app?vid=27917686-aba1-488b-b3e7-822f5af18ee3","ios":"levelo://app?vid=27917686-aba1-488b-b3e7-822f5af18ee3"},"vehicle_type_id":"4","last_reported":1742022498,"current_range_meters":16800,"station_id":"ce4bhop2rcd13ifvqh7g","pricing_plan_id":"cebpf4jnsgd1na2vs0mg"},{"bike_id":"672d046d-745f-4e9b-a4af-0b7b09b8f5ce","system_id":"levelo_inurba_marseille","lat":43.32349,"lon":5.38873,"is_reserved":false,"is_disabled":false,"rental_uris":{"android":"levelo://app?vid=672d046d-745f-4e9b-a4af-0b7b09b8f5ce","ios":"levelo://app?vid=672d046d-745f-4e9b-a4af-0b7b09b8f5ce"},"vehicle_type_id":"4","last_reported":1742022498,"current_range_meters":16800,"station_id":"ce4bhqp2rcd13ifvqhog","pricing_plan_id":"cebpf4jnsgd1na2vs0mg"},{"bike_id":"0fe4f308-8db0-40a3-8e56-44b5cee54b31","system_id":"levelo_inurba_marseille","lat":43.287063,"lon":5.399789,"is_reserved":false,"is_disabled":false,"rental_uris":{"android":"levelo://app?vid=0fe4f308-8db0-40a3-8e56-44b5cee54b31","ios":"levelo://app?vid=0fe4f308-8db0-40a3-8e56-44b5cee54b31"},"vehicle_type_id":"4","last_reported":1742022498,"current_range_meters":16800,"station_id":"ce4bho92rcd13ifvqh3g","pricing_plan_id":"cebpf4jnsgd1na2vs0mg"},{"bike_id":"6c04894e-c04d-4ee9-a380-a5643dc716c9","system_id":"levelo_inurba_marseille","lat":43.31886,"lon":5.40739,"is_reserved":false,"is_disabled":false,"rental_uris":{"android":"levelo://app?vid=6c04894e-c04d-4ee9-a380-a5643dc716c9","ios":"levelo://app?vid=6c04894e-c04d-4ee9-a380-a5643dc716c9"},"vehicle_type_id":"4","last_reported":1742022498,"current_range_meters":17200,"station_id":"ce4bhq12rcd13ifvqhig","pricing_plan_id":"cebpf4jnsgd1na2vs0mg"},{"bike_id":"56a1a9c3-61fd-4176-bcc9-d053f72749d0","system_id":"levelo_inurba_marseille","lat":43.28265,"lon":5.35086,"is_reserved":false,"is_disabled":false,"rental_uris":{"android":"levelo://app?vid=56a1a9c3-61fd-4176-bcc9-d053f72749d0","ios":"levelo://app?vid=56a1a9c3-61fd-4176-bcc9-d053f72749d0"},"vehicle_type_id":"4","last_reported":1742022498,"current_range_meters":17200,"station_id":"ce4bhbp2rcd13ifvqerg","pricing_plan_id":"cebpf4jnsgd1na2vs0mg"},{"bike_id":"96744a18-3316-43e0-9153-7a6032ab1b09","system_id":"levelo_inurba_marseille","lat":43.24992,"lon":5.38953,"is_reserved":false,"is_disabled":false,"rental_uris":{"android":"levelo://app?vid=96744a18-3316-43e0-9153-7a6032ab1b09","ios":"levelo://app?vid=96744a18-3316-43e0-9153-7a6032ab1b09"},"vehicle_type_id":"4","last_reported":1742022498,"current_range_meters":17200,"station_id":"ce4bhgp2rcd13ifvqfd0","pricing_plan_id":"cebpf4jnsgd1na2vs0mg"},{"bike_id":"10a5dfbf-3aa3-4cf3-ac17-cd4d12fd6782","system_id":"levelo_inurba_marseille","lat":43.32355,"lon":5.36782,"is_reserved":false,"is_disabled":false,"rental_uris":{"android":"levelo://app?vid=10a5dfbf-3aa3-4cf3-ac17-cd4d12fd6782","ios":"levelo://app?vid=10a5dfbf-3aa3-4cf3-ac17-cd4d12fd6782"},"vehicle_type_id":"4","last_reported":1742022498,"current_range_meters":17200,"station_id":"ce4bhsh2rcd13ifvqi2g","pricing_plan_id":"cebpf4jnsgd1na2vs0mg"},{"bike_id":"63de112b-8926-44ae-b37e-c65a7c89f888","system_id":"levelo_inurba_marseille","lat":43.30881,"lon":5.39676,"is_reserved":false,"is_disabled":false,"rental_uris":{"android":"levelo://app?vid=63de112b-8926-44ae-b37e-c65a7c89f888","ios":"levelo://app?vid=63de112b-8926-44ae-b37e-c65a7c89f888"},"vehicle_type_id":"4","last_reported":1742022498,"current_range_meters":17200,"station_id":"ce4bh012rcd13ifvqcv0","pricing_plan_id":"cebpf4jnsgd1na2vs0mg"},{"bike_id":"23adcc66-7f52-4081-876b-fa9c2ab44137","system_id":"levelo_inurba_marseille","lat":43.30864,"lon":5.39658,"is_reserved":false,"is_disabled":false,"rental_uris":{"android":"levelo://app?vid=23adcc66-7f52-4081-876b-fa9c2ab44137","ios":"levelo://app?vid=23adcc66-7f52-4081-876b-fa9c2ab44137"},"vehicle_type_id":"4","last_reported":1742022498,"current_range_meters":17200,"station_id":"ce4bh012rcd13ifvqcv0","pricing_plan_id":"cebpf4jnsgd1na2vs0mg"},{"bike_id":"7099c38a-2986-4dc9-9398-307b562f7d30","system_id":"levelo_inurba_marseille","lat":43.25932,"lon":5.40901,"is_reserved":false,"is_disabled":false,"rental_uris":{"android":"levelo://app?vid=7099c38a-2986-4dc9-9398-307b562f7d30","ios":"levelo://app?vid=7099c38a-2986-4dc9-9398-307b562f7d30"},"vehicle_type_id":"4","last_reported":1742022498,"current_range_meters":17200,"station_id":"ce4bhm92rcd13ifvqglg","pricing_plan_id":"cebpf4jnsgd1na2vs0mg"},{"bike_id":"e9554909-0abe-4a01-ac30-5e19b4445b23","system_id":"levelo_inurba_marseille","lat":43.32325,"lon":5.38902,"is_reserved":false,"is_disabled":false,"rental_uris":{"android":"levelo://app?vid=e9554909-0abe-4a01-ac30-5e19b4445b23","ios":"levelo://app?vid=e9554909-0abe-4a01-ac30-5e19b4445b23"},"vehicle_type_id":"4","last_reported":1742022498,"current_range_meters":17200,"station_id":"ce4bhqp2rcd13ifvqhog","pricing_plan_id":"cebpf4jnsgd1na2vs0mg"},{"bike_id":"7ede3e1e-f682-40c6-b151-cd6ecef7c811","system_id":"levelo_inurba_marseille","lat":43.240518,"lon":5.377564,"is_reserved":false,"is_disabled":false,"rental_uris":{"android":"levelo://app?vid=7ede3e1e-f682-40c6-b151-cd6ecef7c811","ios":"levelo://app?vid=7ede3e1e-f682-40c6-b151-cd6ecef7c811"},"vehicle_type_id":"4","last_reported":1742022498,"current_range_meters":17200,"station_id":"ce4bhnp2rcd13ifvqgvg","pricing_plan_id":"cebpf4jnsgd1na2vs0mg"},{"bike_id":"8527826e-88f1-4362-ae49-a2d988939265","system_id":"levelo_inurba_marseille","lat":43.27615,"lon":5.36155,"is_reserved":false,"is_disabled":false,"rental_uris":{"android":"levelo://app?vid=8527826e-88f1-4362-ae49-a2d988939265","ios":"levelo://app?vid=8527826e-88f1-4362-ae49-a2d988939265"},"vehicle_type_id":"4","last_reported":1742022498,"current_range_meters":17600,"station_id":"ce4bgj92rcd13ifvqbe0","pricing_plan_id":"cebpf4jnsgd1na2vs0mg"},{"bike_id":"75123447-2b69-42e2-be90-9aa99ce954e5","system_id":"levelo_inurba_marseille","lat":43.32367,"lon":5.38906,"is_reserved":false,"is_disabled":false,"rental_uris":{"android":"levelo://app?vid=75123447-2b69-42e2-be90-9aa99ce954e5","ios":"levelo://app?vid=75123447-2b69-42e2-be90-9aa99ce954e5"},"vehicle_type_id":"4","last_reported":1742022498,"current_range_meters":17600,"station_id":"ce4bhqp2rcd13ifvqhog","pricing_plan_id":"cebpf4jnsgd1na2vs0mg"},{"bike_id":"566e0489-1013-464c-941b-6fbcd4c26340","system_id":"levelo_inurba_marseille","lat":43.32099,"lon":5.36788,"is_reserved":false,"is_disabled":false,"rental_uris":{"android":"levelo://app?vid=566e0489-1013-464c-941b-6fbcd4c26340","ios":"levelo://app?vid=566e0489-1013-464c-941b-6fbcd4c26340"},"vehicle_type_id":"4","last_reported":1742022498,"current_range_meters":17600,"station_id":"ce4bhrh2rcd13ifvqhug","pricing_plan_id":"cebpf4jnsgd1na2vs0mg"},{"bike_id":"b3c1d7c0-4d2e-47b0-8c09-e5f996b8f46f","system_id":"levelo_inurba_marseille","lat":43.28452,"lon":5.35888,"is_reserved":false,"is_disabled":false,"rental_uris":{"android":"levelo://app?vid=b3c1d7c0-4d2e-47b0-8c09-e5f996b8f46f","ios":"levelo://app?vid=b3c1d7c0-4d2e-47b0-8c09-e5f996b8f46f"},"vehicle_type_id":"4","last_reported":1742022498,"current_range_meters":17600,"station_id":"ce4bhah2rcd13ifvqei0","pricing_plan_id":"cebpf4jnsgd1na2vs0mg"},{"bike_id":"bafd57f9-42ca-4d51-b0a0-95f66f340e25","system_id":"levelo_inurba_marseille","lat":43.25857,"lon":5.39439,"is_reserved":false,"is_disabled":false,"rental_uris":{"android":"levelo://app?vid=bafd57f9-42ca-4d51-b0a0-95f66f340e25","ios":"levelo://app?vid=bafd57f9-42ca-4d51-b0a0-95f66f340e25"},"vehicle_type_id":"4","last_reported":1742022498,"current_range_meters":17600,"station_id":"ce4bhip2rcd13ifvqft0","pricing_plan_id":"cebpf4jnsgd1na2vs0mg"},{"bike_id":"8bcf9978-0a0f-4514-b162-723c6b634fa0","system_id":"levelo_inurba_marseille","lat":43.24545,"lon":5.39547,"is_reserved":false,"is_disabled":false,"rental_uris":{"android":"levelo://app?vid=8bcf9978-0a0f-4514-b162-723c6b634fa0","ios":"levelo://app?vid=8bcf9978-0a0f-4514-b162-723c6b634fa0"},"vehicle_type_id":"4","last_reported":1742022498,"current_range_meters":17600,"station_id":"ce4bhlp2rcd13ifvqgjg","pricing_plan_id":"cebpf4jnsgd1na2vs0mg"},{"bike_id":"5deff3b1-7de0-4233-8bbb-77cee504cc6e","system_id":"levelo_inurba_marseille","lat":43.28604,"lon":5.35006,"is_reserved":false,"is_disabled":false,"rental_uris":{"android":"levelo://app?vid=5deff3b1-7de0-4233-8bbb-77cee504cc6e","ios":"levelo://app?vid=5deff3b1-7de0-4233-8bbb-77cee504cc6e"},"vehicle_type_id":"4","last_reported":1742022498,"current_range_meters":17600,"station_id":"","pricing_plan_id":"cebpf4jnsgd1na2vs0mg"},{"bike_id":"d5919fda-7a40-4419-b77b-8aacbc6ac2b1","system_id":"levelo_inurba_marseille","lat":43.25716,"lon":5.4219,"is_reserved":false,"is_disabled":false,"rental_uris":{"android":"levelo://app?vid=d5919fda-7a40-4419-b77b-8aacbc6ac2b1","ios":"levelo://app?vid=d5919fda-7a40-4419-b77b-8aacbc6ac2b1"},"vehicle_type_id":"4","last_reported":1742022498,"current_range_meters":17600,"station_id":"","pricing_plan_id":"cebpf4jnsgd1na2vs0mg"},{"bike_id":"937006d4-256e-4276-90fa-83b260647208","system_id":"levelo_inurba_marseille","lat":43.295847,"lon":5.367484,"is_reserved":false,"is_disabled":false,"rental_uris":{"android":"levelo://app?vid=937006d4-256e-4276-90fa-83b260647208","ios":"levelo://app?vid=937006d4-256e-4276-90fa-83b260647208"},"vehicle_type_id":"4","last_reported":1742022498,"current_range_meters":18000,"station_id":"ce4bgph2rcd13ifvqc2g","pricing_plan_id":"cebpf4jnsgd1na2vs0mg"},{"bike_id":"b3804e0c-7705-4cae-853c-9fc7a017c871","system_id":"levelo_inurba_marseille","lat":43.27607,"lon":5.36128,"is_reserved":false,"is_disabled":false,"rental_uris":{"android":"levelo://app?vid=b3804e0c-7705-4cae-853c-9fc7a017c871","ios":"levelo://app?vid=b3804e0c-7705-4cae-853c-9fc7a017c871"},"vehicle_type_id":"4","last_reported":1742022498,"current_range_meters":18000,"station_id":"ce4bgj92rcd13ifvqbe0","pricing_plan_id":"cebpf4jnsgd1na2vs0mg"},{"bike_id":"985ce29b-c73e-4a46-8bec-a34a0cea9484","system_id":"levelo_inurba_marseille","lat":43.30145,"lon":5.36672,"is_reserved":false,"is_disabled":false,"rental_uris":{"android":"levelo://app?vid=985ce29b-c73e-4a46-8bec-a34a0cea9484","ios":"levelo://app?vid=985ce29b-c73e-4a46-8bec-a34a0cea9484"},"vehicle_type_id":"4","last_reported":1742022498,"current_range_meters":18000,"station_id":"","pricing_plan_id":"cebpf4jnsgd1na2vs0mg"},{"bike_id":"910fbe18-f136-4df3-b982-42083905997b","system_id":"levelo_inurba_marseille","lat":43.24394,"lon":5.370584,"is_reserved":false,"is_disabled":false,"rental_uris":{"android":"levelo://app?vid=910fbe18-f136-4df3-b982-42083905997b","ios":"levelo://app?vid=910fbe18-f136-4df3-b982-42083905997b"},"vehicle_type_id":"4","last_reported":1742022498,"current_range_meters":18000,"station_id":"ce4bhhh2rcd13ifvqfk0","pricing_plan_id":"cebpf4jnsgd1na2vs0mg"},{"bike_id":"7dd4a40a-db81-4bf8-a2fc-1ffac8f37535","system_id":"levelo_inurba_marseille","lat":43.23188,"lon":5.3998,"is_reserved":false,"is_disabled":false,"rental_uris":{"android":"levelo://app?vid=7dd4a40a-db81-4bf8-a2fc-1ffac8f37535","ios":"levelo://app?vid=7dd4a40a-db81-4bf8-a2fc-1ffac8f37535"},"vehicle_type_id":"4","last_reported":1742022498,"current_range_meters":18000,"station_id":"ce4bhn12rcd13ifvqgqg","pricing_plan_id":"cebpf4jnsgd1na2vs0mg"},{"bike_id":"5a61a616-683f-484d-83ae-d7f61143d634","system_id":"levelo_inurba_marseille","lat":43.295139,"lon":5.424688,"is_reserved":false,"is_disabled":false,"rental_uris":{"android":"levelo://app?vid=5a61a616-683f-484d-83ae-d7f61143d634","ios":"levelo://app?vid=5a61a616-683f-484d-83ae-d7f61143d634"},"vehicle_type_id":"4","last_reported":1742022498,"current_range_meters":18000,"station_id":"","pricing_plan_id":"cebpf4jnsgd1na2vs0mg"},{"bike_id":"594637a1-1882-49ab-a7ac-888bca05eefc","system_id":"levelo_inurba_marseille","lat":43.31075,"lon":5.4244,"is_reserved":false,"is_disabled":true,"rental_uris":{"android":"levelo://app?vid=594637a1-1882-49ab-a7ac-888bca05eefc","ios":"levelo://app?vid=594637a1-1882-49ab-a7ac-888bca05eefc"},"vehicle_type_id":"4","last_reported":1742022498,"current_range_meters":18000,"station_id":"ce4bhp92rcd13ifvqhag","pricing_plan_id":"cebpf4jnsgd1na2vs0mg"},{"bike_id":"842262dc-6190-48f3-b265-b22ad6fc7de3","system_id":"levelo_inurba_marseille","lat":43.295374,"lon":5.374958,"is_reserved":false,"is_disabled":true,"rental_uris":{"android":"levelo://app?vid=842262dc-6190-48f3-b265-b22ad6fc7de3","ios":"levelo://app?vid=842262dc-6190-48f3-b265-b22ad6fc7de3"},"vehicle_type_id":"4","last_reported":1742022498,"current_range_meters":18000,"station_id":"ce4bgkp2rcd13ifvqbmg","pricing_plan_id":"cebpf4jnsgd1na2vs0mg"},{"bike_id":"1b02f7cb-4ff7-4c2c-b559-003d4595110f","system_id":"levelo_inurba_marseille","lat":43.27049,"lon":5.40275,"is_reserved":false,"is_disabled":false,"rental_uris":{"android":"levelo://app?vid=1b02f7cb-4ff7-4c2c-b559-003d4595110f","ios":"levelo://app?vid=1b02f7cb-4ff7-4c2c-b559-003d4595110f"},"vehicle_type_id":"4","last_reported":1742022498,"current_range_meters":18000,"station_id":"ce4bhk92rcd13ifvqgc0","pricing_plan_id":"cebpf4jnsgd1na2vs0mg"},{"bike_id":"8338d9e1-4eee-4277-a106-6dfc57c0a24e","system_id":"levelo_inurba_marseille","lat":43.32378,"lon":5.38896,"is_reserved":false,"is_disabled":false,"rental_uris":{"android":"levelo://app?vid=8338d9e1-4eee-4277-a106-6dfc57c0a24e","ios":"levelo://app?vid=8338d9e1-4eee-4277-a106-6dfc57c0a24e"},"vehicle_type_id":"4","last_reported":1742022498,"current_range_meters":18000,"station_id":"ce4bhqp2rcd13ifvqhog","pricing_plan_id":"cebpf4jnsgd1na2vs0mg"},{"bike_id":"dc799e05-9616-4555-af83-cbbc23edd172","system_id":"levelo_inurba_marseille","lat":43.297924,"lon":5.393491,"is_reserved":false,"is_disabled":false,"rental_uris":{"android":"levelo://app?vid=dc799e05-9616-4555-af83-cbbc23edd172","ios":"levelo://app?vid=dc799e05-9616-4555-af83-cbbc23edd172"},"vehicle_type_id":"4","last_reported":1742022498,"current_range_meters":18000,"station_id":"chh1huq6cuj3fo74tm60","pricing_plan_id":"cebpf4jnsgd1na2vs0mg"},{"bike_id":"e6fcb5aa-8a11-407e-9e1b-38520b03be93","system_id":"levelo_inurba_marseille","lat":43.301826,"lon":5.366108,"is_reserved":false,"is_disabled":false,"rental_uris":{"android":"levelo://app?vid=e6fcb5aa-8a11-407e-9e1b-38520b03be93","ios":"levelo://app?vid=e6fcb5aa-8a11-407e-9e1b-38520b03be93"},"vehicle_type_id":"4","last_reported":1742022498,"current_range_meters":18000,"station_id":"ce4bgrh2rcd13ifvqc8g","pricing_plan_id":"cebpf4jnsgd1na2vs0mg"},{"bike_id":"b51aa77a-78df-48cd-85ee-8a0ca50d540a","system_id":"levelo_inurba_marseille","lat":43.31353,"lon":5.39706,"is_reserved":false,"is_disabled":false,"rental_uris":{"android":"levelo://app?vid=b51aa77a-78df-48cd-85ee-8a0ca50d540a","ios":"levelo://app?vid=b51aa77a-78df-48cd-85ee-8a0ca50d540a"},"vehicle_type_id":"4","last_reported":1742022498,"current_range_meters":18000,"station_id":"ce4bgvp2rcd13ifvqcu0","pricing_plan_id":"cebpf4jnsgd1na2vs0mg"},{"bike_id":"82ebc1bb-8f10-4f38-8766-8cb84c804185","system_id":"levelo_inurba_marseille","lat":43.28633,"lon":5.35069,"is_reserved":false,"is_disabled":false,"rental_uris":{"android":"levelo://app?vid=82ebc1bb-8f10-4f38-8766-8cb84c804185","ios":"levelo://app?vid=82ebc1bb-8f10-4f38-8766-8cb84c804185"},"vehicle_type_id":"4","last_reported":1742022498,"current_range_meters":18800,"station_id":"ce4bhch2rcd13ifvqeug","pricing_plan_id":"cebpf4jnsgd1na2vs0mg"},{"bike_id":"8bbd6564-32df-4c85-a703-6e48ca042ea8","system_id":"levelo_inurba_marseille","lat":43.30212,"lon":5.39472,"is_reserved":false,"is_disabled":false,"rental_uris":{"android":"levelo://app?vid=8bbd6564-32df-4c85-a703-6e48ca042ea8","ios":"levelo://app?vid=8bbd6564-32df-4c85-a703-6e48ca042ea8"},"vehicle_type_id":"4","last_reported":1742022498,"current_range_meters":18800,"station_id":"ce4bh0p2rcd13ifvqd70","pricing_plan_id":"cebpf4jnsgd1na2vs0mg"},{"bike_id":"1bf757a2-272b-40f2-a6c1-fd8cb228ab54","system_id":"levelo_inurba_marseille","lat":43.31055,"lon":5.38354,"is_reserved":false,"is_disabled":false,"rental_uris":{"android":"levelo://app?vid=1bf757a2-272b-40f2-a6c1-fd8cb228ab54","ios":"levelo://app?vid=1bf757a2-272b-40f2-a6c1-fd8cb228ab54"},