{"last_updated":1724872041,"ttl":30,"version":"2.2","data":{"bikes":[{"bike_id":"c5533637-8ba8-48d8-9707-6192ee47b1ef","system_id":"levelo_inurba_marseille","lat":43.312147,"lon":5.368407,"is_reserved":false,"is_disabled":false,"rental_uris":{"android":"levelo://app?vid=c5533637-8ba8-48d8-9707-6192ee47b1ef","ios":"levelo://app?vid=c5533637-8ba8-48d8-9707-6192ee47b1ef"},"vehicle_type_id":"4","last_reported":1724872041,"current_range_meters":400,"station_id":"ce4bgl92rcd13ifvqbq0","pricing_plan_id":"cebpf4jnsgd1na2vs0mg"},{"bike_id":"6f2d379a-14da-4641-b1cc-96ce36f8fb99","system_id":"levelo_inurba_marseille","lat":43.312239,"lon":5.368562,"is_reserved":false,"is_disabled":false,"rental_uris":{"android":"levelo://app?vid=6f2d379a-14da-4641-b1cc-96ce36f8fb99","ios":"levelo://app?vid=6f2d379a-14da-4641-b1cc-96ce36f8fb99"},"vehicle_type_id":"4","last_reported":1724872041,"current_range_meters":18000,"station_id":"ce4bgl92rcd13ifvqbq0","pricing_plan_id":"cebpf4jnsgd1na2vs0mg"},{"bike_id":"e3883835-68af-4e63-b40a-b255604a4fbb","system_id":"levelo_inurba_marseille","lat":43.312239,"lon":5.368562,"is_reserved":false,"is_disabled":false,"rental_uris":{"android":"levelo://app?vid=e3883835-68af-4e63-b40a-b255604a4fbb","ios":"levelo://app?vid=e3883835-68af-4e63-b40a-b255604a4fbb"},"vehicle_type_id":"4","last_reported":1724872041,"current_range_meters":25200,"station_id":"ce4bgl92rcd13ifvqbq0","pricing_plan_id":"cebpf4jnsgd1na2vs0mg"},{"bike_id":"01d50e98-19ef-44d6-8efc-6c3b4013fdc0","system_id":"levelo_inurba_marseille","lat":43.309076,"lon":5.368465,"is_reserved":false,"is_disabled":false,"rental_uris":{"android":"levelo://app?vid=01d50e98-19ef-44d6-8efc-6c3b4013fdc0","ios":"levelo://app?vid=01d50e98-19ef-44d6-8efc-6c3b4013fdc0"},"vehicle_type_id":"4","last_reported":1724872041,"current_range_meters":16800,"station_id":"ce4bgn92rcd13ifvqbvg","pricing_plan_id":"cebpf4jnsgd1na2vs0mg"},{"bike_id":"d4d3de4b-7704-4828-b225-51d59871aade","system_id":"levelo_inurba_marseille","lat":43.314811,"lon":5.373103,"is_reserved":false,"is_disabled":false,"rental_uris":{"android":"levelo://app?vid=d4d3de4b-7704-4828-b225-51d59871aade","ios":"levelo://app?vid=d4d3de4b-7704-4828-b225-51d59871aade"},"vehicle_type_id":"4","last_reported":1724872041,"current_range_meters":14400,"station_id":"ce4bgt12rcd13ifvqcd0","pricing_plan_id":"cebpf4jnsgd1na2vs0mg"},{"bike_id":"c186eeec-5d6a-4ff2-8e9f-2bb08d87edc8","system_id":"levelo_inurba_marseille","lat":43.314811,"lon":5.373103,"is_reserved":false,"is_disabled":false,"rental_uris":{"android":"levelo://app?vid=c186eeec-5d6a-4ff2-8e9f-2bb08d87edc8","ios":"levelo://app?vid=c186eeec-5d6a-4ff2-8e9f-2bb08d87edc8"},"vehicle_type_id":"4","last_reported":1724872041,"current_range_meters":31200,"station_id":"ce4bgt12rcd13ifvqcd0","pricing_plan_id":"cebpf4jnsgd1na2vs0mg"},{"bike_id":"43e940c8-8642-4f54-bfc6-faa839876f39","system_id":"levelo_inurba_marseille","lat":43.315,"lon":5.373,"is_reserved":false,"is_disabled":false,"rental_uris":{"android":"levelo://app?vid=43e940c8-8642-4f54-bfc6-faa839876f39","ios":"levelo://app?vid=43e940c8-8642-4f54-bfc6-faa839876f39"},"vehicle_type_id":"4","last_reported":1724872041,"current_range_meters":31200,"station_id":"ce4bgt12rcd13ifvqcd0","pricing_plan_id":"cebpf4jnsgd1na2vs0mg"},{"bike_id":"538c7143-ed0a-48ea-a8e1-bb16968601dd","system_id":"levelo_inurba_marseille","lat":43.314811,"lon":5.373103,"is_reserved":false,"is_disabled":false,"rental_uris":{"android":"levelo://app?vid=538c7143-ed0a-48ea-a8e1-bb16968601dd","ios":"levelo://app?vid=538c7143-ed0a-48ea-a8e1-bb16968601dd"},"vehicle_type_id":"4","last_reported":1724872041,"current_range_meters":17200,"station_id":"ce4bgt12rcd13ifvqcd0","pricing_plan_id":"cebpf4jnsgd1na2vs0mg"},{"bike_id":"c979dc23-e93d-4c4b-a21b-b53210df68c9","system_id":"levelo_inurba_marseille","lat":43.314811,"lon":5.373103,"is_reserved":false,"is_disabled":false,"rental_uris":{"android":"levelo://app?vid=c979dc23-e93d-4c4b-a21b-b53210df68c9","ios":"levelo://app?vid=c979dc23-e93d-4c4b-a21b-b53210df68c9"},"vehicle_type_id":"4","last_reported":1724872041,"current_range_meters":12000,"station_id":"ce4bgt12rcd13ifvqcd0","pricing_plan_id":"cebpf4jnsgd1na2vs0mg"},{"bike_id":"03e4fba8-f304-47a6-9778-7809958a3e6f","system_id":"levelo_inurba_marseille","lat":43.314811,"lon":5.373103,"is_reserved":false,"is_disabled":false,"rental_uris":{"android":"levelo://app?vid=03e4fba8-f304-47a6-9778-7809958a3e6f","ios":"levelo://app?vid=03e4fba8-f304-47a6-9778-7809958a3e6f"},"vehicle_type_id":"4","last_reported":1724872041,"current_range_meters":8400,"station_id":"ce4bgt12rcd13ifvqcd0","pricing_plan_id":"cebpf4jnsgd1na2vs0mg"},{"bike_id":"6247f35d-65be-4900-8743-5638622b44b6","system_id":"levelo_inurba_marseille","lat":43.314811,"lon":5.373103,"is_reserved":false,"is_disabled":false,"rental_uris":{"android":"levelo://app?vid=6247f35d-65be-4900-8743-5638622b44b6","ios":"levelo://app?vid=6247f35d-65be-4900-8743-5638622b44b6"},"vehicle_type_id":"4","last_reported":1724872041,"current_range_meters":17600,"station_id":"ce4bgt12rcd13ifvqcd0","pricing_plan_id":"cebpf4jnsgd1na2vs0mg"},{"bike_id":"ee0d51b7-3752-4402-b148-e09891f9b479","system_id":"levelo_inurba_marseille","lat":43.314811,"lon":5.373103,"is_reserved":false,"is_disabled":false,"rental_uris":{"android":"levelo://app?vid=ee0d51b7-3752-4402-b148-e09891f9b479","ios":"levelo://app?vid=ee0d51b7-3752-4402-b148-e09891f9b479"},"vehicle_type_id":"4","last_reported":1724872041,"current_range_meters":4400,"station_id":"ce4bgt12rcd13ifvqcd0","pricing_plan_id":"cebpf4jnsgd1na2vs0mg"},{"bike_id":"87cedf19-50d7-4c71-afc7-6a441ba459fa","system_id":"levelo_inurba_marseille","lat":43.314811,"lon":5.373103,"is_reserved":false,"is_disabled":false,"rental_uris":{"android":"levelo://app?vid=87cedf19-50d7-4c71-afc7-6a441ba459fa","ios":"levelo://app?vid=87cedf19-50d7-4c71-afc7-6a441ba459fa"},"vehicle_type_id":"4","last_reported":1724872041,"current_range_meters":31200,"station_id":"ce4bgt12rcd13ifvqcd0","pricing_plan_id":"cebpf4jnsgd1na2vs0mg"},{"bike_id":"b7fd4345-dcda-4ca3-b38a-e955cdb66ce5","system_id":"levelo_inurba_marseille","lat":43.31501,"lon":5.37308,"is_reserved":false,"is_disabled":false,"rental_uris":{"android":"levelo://app?vid=b7fd4345-dcda-4ca3-b38a-e955cdb66ce5","ios":"levelo://app?vid=b7fd4345-dcda-4ca3-b38a-e955cdb66ce5"},"vehicle_type_id":"4","last_reported":1724872041,"current_range_meters":31200,"station_id":"ce4bgt12rcd13ifvqcd0","pricing_plan_id":"cebpf4jnsgd1na2vs0mg"},{"bike_id":"ea39bce4-5586-4e7d-a3b5-6849f2015bf7","system_id":"levelo_inurba_marseille","lat":43.309039,"lon":5.371797,"is_reserved":false,"is_disabled":false,"rental_uris":{"android":"levelo://app?vid=ea39bce4-5586-4e7d-a3b5-6849f2015bf7","ios":"levelo://app?vid=ea39bce4-5586-4e7d-a3b5-6849f2015bf7"},"vehicle_type_id":"4","last_reported":1724872041,"current_range_meters":8800,"station_id":"ce4bguh2rcd13ifvqckg","pricing_plan_id":"cebpf4jnsgd1na2vs0mg"},{"bike_id":"66cc8088-1860-4d34-bfd6-02e33e1d0939","system_id":"levelo_inurba_marseille","lat":43.3055,"lon":5.36529,"is_reserved":false,"is_disabled":false,"rental_uris":{"android":"levelo://app?vid=66cc8088-1860-4d34-bfd6-02e33e1d0939","ios":"levelo://app?vid=66cc8088-1860-4d34-bfd6-02e33e1d0939"},"vehicle_type_id":"4","last_reported":1724872041,"current_range_meters":23200,"station_id":"ce4bgs12rcd13ifvqcag","pricing_plan_id":"cebpf4jnsgd1na2vs0mg"},{"bike_id":"90af5602-72e1-430d-9b77-e32df176add9","system_id":"levelo_inurba_marseille","lat":43.305368,"lon":5.367343,"is_reserved":false,"is_disabled":false,"rental_uris":{"android":"levelo://app?vid=90af5602-72e1-430d-9b77-e32df176add9","ios":"levelo://app?vid=90af5602-72e1-430d-9b77-e32df176add9"},"vehicle_type_id":"4","last_reported":1724872041,"current_range_meters":0,"station_id":"ce4bgrp2rcd13ifvqc9g","pricing_plan_id":"cebpf4jnsgd1na2vs0mg"},{"bike_id":"c88fc2c6-9fe0-45c5-8b54-337e08155647","system_id":"levelo_inurba_marseille","lat":43.305368,"lon":5.367343,"is_reserved":false,"is_disabled":false,"rental_uris":{"android":"levelo://app?vid=c88fc2c6-9fe0-45c5-8b54-337e08155647","ios":"levelo://app?vid=c88fc2c6-9fe0-45c5-8b54-337e08155647"},"vehicle_type_id":"4","last_reported":1724872041,"current_range_meters":4400,"station_id":"ce4bgrp2rcd13ifvqc9g","pricing_plan_id":"cebpf4jnsgd1na2vs0mg"},{"bike_id":"ff5412dd-e74f-4958-876e-4865713b6da9","system_id":"levelo_inurba_marseille","lat":43.305989,"lon":5.37225,"is_reserved":false,"is_disabled":false,"rental_uris":{"android":"levelo://app?vid=ff5412dd-e74f-4958-876e-4865713b6da9","ios":"levelo://app?vid=ff5412dd-e74f-4958-876e-4865713b6da9"},"vehicle_type_id":"4","last_reported":1724872041,"current_range_meters":10400,"station_id":"ce4bgqh2rcd13ifvqc4g","pricing_plan_id":"cebpf4jnsgd1na2vs0mg"},{"bike_id":"7e8b7cf0-b4ce-4058-983b-43d1111a9aaa","system_id":"levelo_inurba_marseille","lat":43.305989,"lon":5.37225,"is_reserved":false,"is_disabled":false,"rental_uris":{"android":"levelo://app?vid=7e8b7cf0-b4ce-4058-983b-43d1111a9aaa","ios":"levelo://app?vid=7e8b7cf0-b4ce-4058-983b-43d1111a9aaa"},"vehicle_type_id":"4","last_reported":1724872041,"current_range_meters":22000,"station_id":"ce4bgqh2rcd13ifvqc4g","pricing_plan_id":"cebpf4jnsgd1na2vs0mg"},{"bike_id":"994aeaa9-d7c2-4e9a-b797-85c33203b38c","system_id":"levelo_inurba_marseille","lat":43.30497,"lon":5.36829,"is_reserved":false,"is_disabled":false,"rental_uris":{"android":"levelo://app?vid=994aeaa9-d7c2-4e9a-b797-85c33203b38c","ios":"levelo://app?vid=994aeaa9-d7c2-4e9a-b797-85c33203b38c"},"vehicle_type_id":"4","last_reported":1724872041,"current_range_meters":7200,"station_id":"","pricing_plan_id":"cebpf4jnsgd1na2vs0mg"},{"bike_id":"ed4df9e2-00b3-4180-aa9a-ac1c30b51259","system_id":"levelo_inurba_marseille","lat":43.311125,"lon":5.377624,"is_reserved":false,"is_disabled":false,"rental_uris":{"android":"levelo://app?vid=ed4df9e2-00b3-4180-aa9a-ac1c30b51259","ios":"levelo://app?vid=ed4df9e2-00b3-4180-aa9a-ac1c30b51259"},"vehicle_type_id":"4","last_reported":1724872041,"current_range_meters":18800,"station_id":"ce4bgt92rcd13ifvqcg0","pricing_plan_id":"cebpf4jnsgd1na2vs0mg"},{"bike_id":"fab07911-424f-40c4-8595-3d53491ae089","system_id":"levelo_inurba_marseille","lat":43.311131,"lon":5.377651,"is_reserved":false,"is_disabled":false,"rental_uris":{"android":"levelo://app?vid=fab07911-424f-40c4-8595-3d53491ae089","ios":"levelo://app?vid=fab07911-424f-40c4-8595-3d53491ae089"},"vehicle_type_id":"4","last_reported":1724872041,"current_range_meters":24800,"station_id":"ce4bgt92rcd13ifvqcg0","pricing_plan_id":"cebpf4jnsgd1na2vs0mg"},{"bike_id":"a7dd6355-7b53-4612-b136-2a464d21e6e5","system_id":"levelo_inurba_marseille","lat":43.311125,"lon":5.377624,"is_reserved":false,"is_disabled":false,"rental_uris":{"android":"levelo://app?vid=a7dd6355-7b53-4612-b136-2a464d21e6e5","ios":"levelo://app?vid=a7dd6355-7b53-4612-b136-2a464d21e6e5"},"vehicle_type_id":"4","last_reported":1724872041,"current_range_meters":15600,"station_id":"ce4bgt92rcd13ifvqcg0","pricing_plan_id":"cebpf4jnsgd1na2vs0mg"},{"bike_id":"ebf82e42-119c-4df6-8000-d487226eed65","system_id":"levelo_inurba_marseille","lat":43.311125,"lon":5.377624,"is_reserved":false,"is_disabled":false,"rental_uris":{"android":"levelo://app?vid=ebf82e42-119c-4df6-8000-d487226eed65","ios":"levelo://app?vid=ebf82e42-119c-4df6-8000-d487226eed65"},"vehicle_type_id":"4","last_reported":1724872041,"current_range_meters":11600,"station_id":"ce4bgt92rcd13ifvqcg0","pricing_plan_id":"cebpf4jnsgd1na2vs0mg"},{"bike_id":"ef354b6d-0050-46c1-9ca1-6181f05a320a","system_id":"levelo_inurba_marseille","lat":43.311131,"lon":5.377651,"is_reserved":false,"is_disabled":false,"rental_uris":{"android":"levelo://app?vid=ef354b6d-0050-46c1-9ca1-6181f05a320a","ios":"levelo://app?vid=ef354b6d-0050-46c1-9ca1-6181f05a320a"},"vehicle_type_id":"4","last_reported":1724872041,"current_range_meters":11200,"station_id":"ce4bgt92rcd13ifvqcg0","pricing_plan_id":"cebpf4jnsgd1na2vs0mg"},{"bike_id":"9d9e8f08-2d4a-4049-9a93-4c720991d683","system_id":"levelo_inurba_marseille","lat":43.311125,"lon":5.377624,"is_reserved":false,"is_disabled":false,"rental_uris":{"android":"levelo://app?vid=9d9e8f08-2d4a-4049-9a93-4c720991d683","ios":"levelo://app?vid=9d9e8f08-2d4a-4049-9a93-4c720991d683"},"vehicle_type_id":"4","last_reported":1724872041,"current_range_meters":22400,"station_id":"ce4bgt92rcd13ifvqcg0","pricing_plan_id":"cebpf4jnsgd1na2vs0mg"},{"bike_id":"9aef337d-8b22-47e1-96a6-635af010415c","system_id":"levelo_inurba_marseille","lat":43.307945,"lon":5.376487,"is_reserved":false,"is_disabled":false,"rental_uris":{"android":"levelo://app?vid=9aef337d-8b22-47e1-96a6-635af010415c","ios":"levelo://app?vid=9aef337d-8b22-47e1-96a6-635af010415c"},"vehicle_type_id":"4","last_reported":1724872041,"current_range_meters":23200,"station_id":"ce4bgv92rcd13ifvqcq0","pricing_plan_id":"cebpf4jnsgd1na2vs0mg"},{"bike_id":"6dcdb637-0fb7-4ec6-b1f2-31296159dab9","system_id":"levelo_inurba_marseille","lat":43.317075,"lon":5.377367,"is_reserved":false,"is_disabled":false,"rental_uris":{"android":"levelo://app?vid=6dcdb637-0fb7-4ec6-b1f2-31296159dab9","ios":"levelo://app?vid=6dcdb637-0fb7-4ec6-b1f2-31296159dab9"},"vehicle_type_id":"4","last_reported":1724872041,"current_range_meters":0,"station_id":"ce4bgth2rcd13ifvqch0","pricing_plan_id":"cebpf4jnsgd1na2vs0mg"},{"bike_id":"8a6c2881-4fd0-4a5a-81e3-afa84cf349f3","system_id":"levelo_inurba_marseille","lat":43.317075,"lon":5.377367,"is_reserved":false,"is_disabled":false,"rental_uris":{"android":"levelo://app?vid=8a6c2881-4fd0-4a5a-81e3-afa84cf349f3","ios":"levelo://app?vid=8a6c2881-4fd0-4a5a-81e3-afa84cf349f3"},"vehicle_type_id":"4","last_reported":1724872041,"current_range_meters":26400,"station_id":"ce4bgth2rcd13ifvqch0","pricing_plan_id":"cebpf4jnsgd1na2vs0mg"},{"bike_id":"ccea8046-20a3-45c2-97da-8fca689d605e","system_id":"levelo_inurba_marseille","lat":43.317075,"lon":5.377367,"is_reserved":false,"is_disabled":false,"rental_uris":{"android":"levelo://app?vid=ccea8046-20a3-45c2-97da-8fca689d605e","ios":"levelo://app?vid=ccea8046-20a3-45c2-97da-8fca689d605e"},"vehicle_type_id":"4","last_reported":1724872041,"current_range_meters":15200,"station_id":"ce4bgth2rcd13ifvqch0","pricing_plan_id":"cebpf4jnsgd1na2vs0mg"},{"bike_id":"91f874e5-3e39-4a29-b510-2e4522ace209","system_id":"levelo_inurba_marseille","lat":43.305368,"lon":5.367343,"is_reserved":false,"is_disabled":false,"rental_uris":{"android":"levelo://app?vid=91f874e5-3e39-4a29-b510-2e4522ace209","ios":"levelo://app?vid=91f874e5-3e39-4a29-b510-2e4522ace209"},"vehicle_type_id":"4","last_reported":1724872041,"current_range_meters":5200,"station_id":"ce4bgrp2rcd13ifvqc9g","pricing_plan_id":"cebpf4jnsgd1na2vs0mg"},{"bike_id":"7fecece8-1b35-4638-aea9-525d89b3c252","system_id":"levelo_inurba_marseille","lat":43.299724,"lon":5.371829,"is_reserved":false,"is_disabled":false,"rental_uris":{"android":"levelo://app?vid=7fecece8-1b35-4638-aea9-525d89b3c252","ios":"levelo://app?vid=7fecece8-1b35-4638-aea9-525d89b3c252"},"vehicle_type_id":"4","last_reported":1724872041,"current_range_meters":24000,"station_id":"ce4bgr92rcd13ifvqc7g","pricing_plan_id":"cebpf4jnsgd1na2vs0mg"},{"bike_id":"0359f0f9-3185-4c63-819c-fd1cd1fe95fb","system_id":"levelo_inurba_marseille","lat":43.303046,"lon":5.368981,"is_reserved":false,"is_disabled":false,"rental_uris":{"android":"levelo://app?vid=0359f0f9-3185-4c63-819c-fd1cd1fe95fb","ios":"levelo://app?vid=0359f0f9-3185-4c63-819c-fd1cd1fe95fb"},"vehicle_type_id":"4","last_reported":1724872041,"current_range_meters":19200,"station_id":"ce4bgqh2rcd13ifvqc5g","pricing_plan_id":"cebpf4jnsgd1na2vs0mg"},{"bike_id":"3bc3be96-4c17-45d8-b69a-f36037b64ae8","system_id":"levelo_inurba_marseille","lat":43.30304,"lon":5.368987,"is_reserved":false,"is_disabled":false,"rental_uris":{"android":"levelo://app?vid=3bc3be96-4c17-45d8-b69a-f36037b64ae8","ios":"levelo://app?vid=3bc3be96-4c17-45d8-b69a-f36037b64ae8"},"vehicle_type_id":"4","last_reported":1724872041,"current_range_meters":4800,"station_id":"ce4bgqh2rcd13ifvqc5g","pricing_plan_id":"cebpf4jnsgd1na2vs0mg"},{"bike_id":"ffe10db9-0148-4f72-9a4c-0d3dcde30c7a","system_id":"levelo_inurba_marseille","lat":43.303046,"lon":5.368981,"is_reserved":false,"is_disabled":false,"rental_uris":{"android":"levelo://app?vid=ffe10db9-0148-4f72-9a4c-0d3dcde30c7a","ios":"levelo://app?vid=ffe10db9-0148-4f72-9a4c-0d3dcde30c7a"},"vehicle_type_id":"4","last_reported":1724872041,"current_range_meters":6400,"station_id":"ce4bgqh2rcd13ifvqc5g","pricing_plan_id":"cebpf4jnsgd1na2vs0mg"},{"bike_id":"a0a09a52-0e0f-4931-83f5-622e041aaad4","system_id":"levelo_inurba_marseille","lat":43.30304,"lon":5.368987,"is_reserved":false,"is_disabled":false,"rental_uris":{"android":"levelo://app?vid=a0a09a52-0e0f-4931-83f5-622e041aaad4","ios":"levelo://app?vid=a0a09a52-0e0f-4931-83f5-622e041aaad4"},"vehicle_type_id":"4","last_reported":1724872041,"current_range_meters":7600,"station_id":"ce4bgqh2rcd13ifvqc5g","pricing_plan_id":"cebpf4jnsgd1na2vs0mg"},{"bike_id":"cb8991b5-44eb-4ba5-95b7-85f602c87cd9","system_id":"levelo_inurba_marseille","lat":43.31406,"lon":5.38052,"is_reserved":false,"is_disabled":false,"rental_uris":{"android":"levelo://app?vid=cb8991b5-44eb-4ba5-95b7-85f602c87cd9","ios":"levelo://app?vid=cb8991b5-44eb-4ba5-95b7-85f602c87cd9"},"vehicle_type_id":"4","last_reported":1724872041,"current_range_meters":17600,"station_id":"","pricing_plan_id":"cebpf4jnsgd1na2vs0mg"},{"bike_id":"04ee1b1c-cdfe-402e-8022-583f7cc19c25","system_id":"levelo_inurba_marseille","lat":43.315289,"lon":5.380349,"is_reserved":false,"is_disabled":false,"rental_uris":{"android":"levelo://app?vid=04ee1b1c-cdfe-402e-8022-583f7cc19c25","ios":"levelo://app?vid=04ee1b1c-cdfe-402e-8022-583f7cc19c25"},"vehicle_type_id":"4","last_reported":1724872041,"current_range_meters":6800,"station_id":"ce4bhsp2rcd13ifvqi50","pricing_plan_id":"cebpf4jnsgd1na2vs0mg"},{"bike_id":"0b110d26-3feb-413f-8426-1fd3b135ebc3","system_id":"levelo_inurba_marseille","lat":43.315289,"lon":5.380349,"is_reserved":false,"is_disabled":false,"rental_uris":{"android":"levelo://app?vid=0b110d26-3feb-413f-8426-1fd3b135ebc3","ios":"levelo://app?vid=0b110d26-3feb-413f-8426-1fd3b135ebc3"},"vehicle_type_id":"4","last_reported":1724872041,"current_range_meters":8400,"station_id":"ce4bhsp2rcd13ifvqi50","pricing_plan_id":"cebpf4jnsgd1na2vs0mg"},{"bike_id":"f69ef609-7ee0-4449-82df-cf896bf56356","system_id":"levelo_inurba_marseille","lat":43.315425,"lon":5.380392,"is_reserved":false,"is_disabled":false,"rental_uris":{"android":"levelo://app?vid=f69ef609-7ee0-4449-82df-cf896bf56356","ios":"levelo://app?vid=f69ef609-7ee0-4449-82df-cf896bf56356"},"vehicle_type_id":"4","last_reported":1724872041,"current_range_meters":11200,"station_id":"ce4bhsp2rcd13ifvqi50","pricing_plan_id":"cebpf4jnsgd1na2vs0mg"},{"bike_id":"16485d21-001e-4082-9186-6443b57971f6","system_id":"levelo_inurba_marseille","lat":43.301939,"lon":5.366286,"is_reserved":false,"is_disabled":false,"rental_uris":{"android":"levelo://app?vid=16485d21-001e-4082-9186-6443b57971f6","ios":"levelo://app?vid=16485d21-001e-4082-9186-6443b57971f6"},"vehicle_type_id":"4","last_reported":1724872041,"current_range_meters":30400,"station_id":"ce4bgrh2rcd13ifvqc8g","pricing_plan_id":"cebpf4jnsgd1na2vs0mg"},{"bike_id":"ed3d7d96-04c7-445d-9dfd-87b3675ceec9","system_id":"levelo_inurba_marseille","lat":43.301939,"lon":5.366286,"is_reserved":false,"is_disabled":false,"rental_uris":{"android":"levelo://app?vid=ed3d7d96-04c7-445d-9dfd-87b3675ceec9","ios":"levelo://app?vid=ed3d7d96-04c7-445d-9dfd-87b3675ceec9"},"vehicle_type_id":"4","last_reported":1724872041,"current_range_meters":25200,"station_id":"ce4bgrh2rcd13ifvqc8g","pricing_plan_id":"cebpf4jnsgd1na2vs0mg"},{"bike_id":"fe3d4e66-f601-4beb-9ee0-de69f5abd16e","system_id":"levelo_inurba_marseille","lat":43.301939,"lon":5.366286,"is_reserved":false,"is_disabled":false,"rental_uris":{"android":"levelo://app?vid=fe3d4e66-f601-4beb-9ee0-de69f5abd16e","ios":"levelo://app?vid=fe3d4e66-f601-4beb-9ee0-de69f5abd16e"},"vehicle_type_id":"4","last_reported":1724872041,"current_range_meters":26000,"station_id":"ce4bgrh2rcd13ifvqc8g","pricing_plan_id":"cebpf4jnsgd1na2vs0mg"},{"bike_id":"629ebb08-b879-4631-a20f-ed3d80d7b70a","system_id":"levelo_inurba_marseille","lat":43.30183,"lon":5.36626,"is_reserved":false,"is_disabled":false,"rental_uris":{"android":"levelo://app?vid=629ebb08-b879-4631-a20f-ed3d80d7b70a","ios":"levelo://app?vid=629ebb08-b879-4631-a20f-ed3d80d7b70a"},"vehicle_type_id":"4","last_reported":1724872041,"current_range_meters":18000,"station_id":"ce4bgi92rcd13ifvqb90","pricing_plan_id":"cebpf4jnsgd1na2vs0mg"},{"bike_id":"1e822118-d63b-4f9b-803f-cf4f9f1ce267","system_id":"levelo_inurba_marseille","lat":43.308012,"lon":5.381511,"is_reserved":false,"is_disabled":false,"rental_uris":{"android":"levelo://app?vid=1e822118-d63b-4f9b-803f-cf4f9f1ce267","ios":"levelo://app?vid=1e822118-d63b-4f9b-803f-cf4f9f1ce267"},"vehicle_type_id":"4","last_reported":1724872041,"current_range_meters":13600,"station_id":"ce4bgt12rcd13ifvqce0","pricing_plan_id":"cebpf4jnsgd1na2vs0mg"},{"bike_id":"30433883-33f5-4d06-b092-41bf908a8757","system_id":"levelo_inurba_marseille","lat":43.30087,"lon":5.36682,"is_reserved":false,"is_disabled":false,"rental_uris":{"android":"levelo://app?vid=30433883-33f5-4d06-b092-41bf908a8757","ios":"levelo://app?vid=30433883-33f5-4d06-b092-41bf908a8757"},"vehicle_type_id":"4","last_reported":1724872041,"current_range_meters":12400,"station_id":"","pricing_plan_id":"cebpf4jnsgd1na2vs0mg"},{"bike_id":"d63e5a96-890d-4704-bd53-0ea2f3f3962d","system_id":"levelo_inurba_marseille","lat":43.324771,"lon":5.36557,"is_reserved":false,"is_disabled":false,"rental_uris":{"android":"levelo://app?vid=d63e5a96-890d-4704-bd53-0ea2f3f3962d","ios":"levelo://app?vid=d63e5a96-890d-4704-bd53-0ea2f3f3962d"},"vehicle_type_id":"4","last_reported":1724872041,"current_range_meters":13200,"station_id":"ce4bhs12rcd13ifvqhvg","pricing_plan_id":"cebpf4jnsgd1na2vs0mg"},{"bike_id":"dbea1e21-b4fd-4e4c-99e5-19299248cc53","system_id":"levelo_inurba_marseille","lat":43.324757,"lon":5.365751,"is_reserved":false,"is_disabled":false,"rental_uris":{"android":"levelo://app?vid=dbea1e21-b4fd-4e4c-99e5-19299248cc53","ios":"levelo://app?vid=dbea1e21-b4fd-4e4c-99e5-19299248cc53"},"vehicle_type_id":"4","last_reported":1724872041,"current_range_meters":26000,"station_id":"ce4bhs12rcd13ifvqhvg","pricing_plan_id":"cebpf4jnsgd1na2vs0mg"},{"bike_id":"126a0716-3e1f-4e2f-b357-74ea7d2b6171","system_id":"levelo_inurba_marseille","lat":43.324771,"lon":5.36557,"is_reserved":false,"is_disabled":false,"rental_uris":{"android":"levelo://app?vid=126a0716-3e1f-4e2f-b357-74ea7d2b6171","ios":"levelo://app?vid=126a0716-3e1f-4e2f-b357-74ea7d2b6171"},"vehicle_type_id":"4","last_reported":1724872041,"current_range_meters":10000,"station_id":"ce4bhs12rcd13ifvqhvg","pricing_plan_id":"cebpf4jnsgd1na2vs0mg"},{"bike_id":"3ebd3302-695f-421e-a44f-35ea9b9d0e72","system_id":"levelo_inurba_marseille","lat":43.32479,"lon":5.36581,"is_reserved":false,"is_disabled":false,"rental_uris":{"android":"levelo://app?vid=3ebd3302-695f-421e-a44f-35ea9b9d0e72","ios":"levelo://app?vid=3ebd3302-695f-421e-a44f-35ea9b9d0e72"},"vehicle_type_id":"4","last_reported":1724872041,"current_range_meters":15200,"station_id":"ce4bhs12rcd13ifvqhvg","pricing_plan_id":"cebpf4jnsgd1na2vs0mg"},{"bike_id":"978b01fb-006b-4bd3-b0b9-ccce03459dc1","system_id":"levelo_inurba_marseille","lat":43.32479,"lon":5.36579,"is_reserved":false,"is_disabled":false,"rental_uris":{"android":"levelo://app?vid=978b01fb-006b-4bd3-b0b9-ccce03459dc1","ios":"levelo://app?vid=978b01fb-006b-4bd3-b0b9-ccce03459dc1"},"vehicle_type_id":"4","last_reported":1724872041,"current_range_meters":31200,"station_id":"ce4bhs12rcd13ifvqhvg","pricing_plan_id":"cebpf4jnsgd1na2vs0mg"},{"bike_id":"b0ade479-5d17-43b3-bd2a-ae03f6678f89","system_id":"levelo_inurba_marseille","lat":43.32482,"lon":5.36582,"is_reserved":false,"is_disabled":false,"rental_uris":{"android":"levelo://app?vid=b0ade479-5d17-43b3-bd2a-ae03f6678f89","ios":"levelo://app?vid=b0ade479-5d17-43b3-bd2a-ae03f6678f89"},"vehicle_type_id":"4","last_reported":1724872041,"current_range_meters":27200,"station_id":"ce4bhs12rcd13ifvqhvg","pricing_plan_id":"cebpf4jnsgd1na2vs0mg"},{"bike_id":"2ea10650-3600-4fc8-b78f-3e1e9456e340","system_id":"levelo_inurba_marseille","lat":43.32488,"lon":5.36567,"is_reserved":false,"is_disabled":false,"rental_uris":{"android":"levelo://app?vid=2ea10650-3600-4fc8-b78f-3e1e9456e340","ios":"levelo://app?vid=2ea10650-3600-4fc8-b78f-3e1e9456e340"},"vehicle_type_id":"4","last_reported":1724872041,"current_range_meters":6000,"station_id":"ce4bhs12rcd13ifvqhvg","pricing_plan_id":"cebpf4jnsgd1na2vs0mg"},{"bike_id":"2f1c8d02-69a9-440e-98b3-e5ebcb5c8c90","system_id":"levelo_inurba_marseille","lat":43.310804,"lon":5.38359,"is_reserved":false,"is_disabled":false,"rental_uris":{"android":"levelo://app?vid=2f1c8d02-69a9-440e-98b3-e5ebcb5c8c90","ios":"levelo://app?vid=2f1c8d02-69a9-440e-98b3-e5ebcb5c8c90"},"vehicle_type_id":"4","last_reported":1724872041,"current_range_meters":14000,"station_id":"ce4bgv92rcd13ifvqcr0","pricing_plan_id":"cebpf4jnsgd1na2vs0mg"},{"bike_id":"fd867fe1-2521-41b3-8c87-18a09838f1fc","system_id":"levelo_inurba_marseille","lat":43.310804,"lon":5.38359,"is_reserved":false,"is_disabled":false,"rental_uris":{"android":"levelo://app?vid=fd867fe1-2521-41b3-8c87-18a09838f1fc","ios":"levelo://app?vid=fd867fe1-2521-41b3-8c87-18a09838f1fc"},"vehicle_type_id":"4","last_reported":1724872041,"current_range_meters":31200,"station_id":"ce4bgv92rcd13ifvqcr0","pricing_plan_id":"cebpf4jnsgd1na2vs0mg"},{"bike_id":"b66f4538-7a60-4f14-94ad-8183a5d5a51a","system_id":"levelo_inurba_marseille","lat":43.310804,"lon":5.38359,"is_reserved":false,"is_disabled":false,"rental_uris":{"android":"levelo://app?vid=b66f4538-7a60-4f14-94ad-8183a5d5a51a","ios":"levelo://app?vid=b66f4538-7a60-4f14-94ad-8183a5d5a51a"},"vehicle_type_id":"4","last_reported":1724872041,"current_range_meters":5600,"station_id":"ce4bgv92rcd13ifvqcr0","pricing_plan_id":"cebpf4jnsgd1na2vs0mg"},{"bike_id":"22f02423-daf4-4403-80a0-dca7b8704cd6","system_id":"levelo_inurba_marseille","lat":43.310804,"lon":5.38359,"is_reserved":false,"is_disabled":false,"rental_uris":{"android":"levelo://app?vid=22f02423-daf4-4403-80a0-dca7b8704cd6","ios":"levelo://app?vid=22f02423-daf4-4403-80a0-dca7b8704cd6"},"vehicle_type_id":"4","last_reported":1724872041,"current_range_meters":17200,"station_id":"ce4bgv92rcd13ifvqcr0","pricing_plan_id":"cebpf4jnsgd1na2vs0mg"},{"bike_id":"6f3cfd2d-158b-450c-9e7f-d667ad21ecde","system_id":"levelo_inurba_marseille","lat":43.310804,"lon":5.38359,"is_reserved":false,"is_disabled":false,"rental_uris":{"android":"levelo://app?vid=6f3cfd2d-158b-450c-9e7f-d667ad21ecde","ios":"levelo://app?vid=6f3cfd2d-158b-450c-9e7f-d667ad21ecde"},"vehicle_type_id":"4","last_reported":1724872041,"current_range_meters":4000,"station_id":"ce4bgv92rcd13ifvqcr0","pricing_plan_id":"cebpf4jnsgd1na2vs0mg"},{"bike_id":"ed73e0b9-6cb5-4b82-80b9-2e34a960ae69","system_id":"levelo_inurba_marseille","lat":43.310804,"lon":5.38359,"is_reserved":false,"is_disabled":false,"rental_uris":{"android":"levelo://app?vid=ed73e0b9-6cb5-4b82-80b9-2e34a960ae69","ios":"levelo://app?vid=ed73e0b9-6cb5-4b82-80b9-2e34a960ae69"},"vehicle_type_id":"4","last_reported":1724872041,"current_range_meters":22800,"station_id":"ce4bgv92rcd13ifvqcr0","pricing_plan_id":"cebpf4jnsgd1na2vs0mg"},{"bike_id":"ec8a9646-512f-45d6-8b90-184fc3207877","system_id":"levelo_inurba_marseille","lat":43.30143,"lon":5.37413,"is_reserved":false,"is_disabled":false,"rental_uris":{"android":"levelo://app?vid=ec8a9646-512f-45d6-8b90-184fc3207877","ios":"levelo://app?vid=ec8a9646-512f-45d6-8b90-184fc3207877"},"vehicle_type_id":"4","last_reported":1724872041,"current_range_meters":11200,"station_id":"ce4bgs92rcd13ifvqcc0","pricing_plan_id":"cebpf4jnsgd1na2vs0mg"},{"bike_id":"4d804559-b222-42ec-bc92-ebd318c2a49b","system_id":"levelo_inurba_marseille","lat":43.325153,"lon":5.368745,"is_reserved":false,"is_disabled":false,"rental_uris":{"android":"levelo://app?vid=4d804559-b222-42ec-bc92-ebd318c2a49b","ios":"levelo://app?vid=4d804559-b222-42ec-bc92-ebd318c2a49b"},"vehicle_type_id":"4","last_reported":1724872041,"current_range_meters":20800,"station_id":"","pricing_plan_id":"cebpf4jnsgd1na2vs0mg"},{"bike_id":"c00ff871-57c8-4642-83c6-8d30cf2a5c86","system_id":"levelo_inurba_marseille","lat":43.31984,"lon":5.38146,"is_reserved":false,"is_disabled":false,"rental_uris":{"android":"levelo://app?vid=c00ff871-57c8-4642-83c6-8d30cf2a5c86","ios":"levelo://app?vid=c00ff871-57c8-4642-83c6-8d30cf2a5c86"},"vehicle_type_id":"4","last_reported":1724872041,"current_range_meters":6000,"station_id":"ce4bhr12rcd13ifvqhpg","pricing_plan_id":"cebpf4jnsgd1na2vs0mg"},{"bike_id":"79807396-c2e6-4acf-9e45-bfcedf946306","system_id":"levelo_inurba_marseille","lat":43.325385,"lon":5.364205,"is_reserved":false,"is_disabled":false,"rental_uris":{"android":"levelo://app?vid=79807396-c2e6-4acf-9e45-bfcedf946306","ios":"levelo://app?vid=79807396-c2e6-4acf-9e45-bfcedf946306"},"vehicle_type_id":"4","last_reported":1724872041,"current_range_meters":400,"station_id":"","pricing_plan_id":"cebpf4jnsgd1na2vs0mg"},{"bike_id":"28a913eb-14f2-45a0-8c0f-3831e20b2646","system_id":"levelo_inurba_marseille","lat":43.319935,"lon":5.381699,"is_reserved":false,"is_disabled":false,"rental_uris":{"android":"levelo://app?vid=28a913eb-14f2-45a0-8c0f-3831e20b2646","ios":"levelo://app?vid=28a913eb-14f2-45a0-8c0f-3831e20b2646"},"vehicle_type_id":"4","last_reported":1724872041,"current_range_meters":28000,"station_id":"ce4bhr12rcd13ifvqhpg","pricing_plan_id":"cebpf4jnsgd1na2vs0mg"},{"bike_id":"817a29f4-f708-414a-aea6-5e877934078c","system_id":"levelo_inurba_marseille","lat":43.299532,"lon":5.366172,"is_reserved":false,"is_disabled":false,"rental_uris":{"android":"levelo://app?vid=817a29f4-f708-414a-aea6-5e877934078c","ios":"levelo://app?vid=817a29f4-f708-414a-aea6-5e877934078c"},"vehicle_type_id":"4","last_reported":1724872041,"current_range_meters":0,"station_id":"ce4bgm92rcd13ifvqbr0","pricing_plan_id":"cebpf4jnsgd1na2vs0mg"},{"bike_id":"a5b248f8-010c-47ba-856d-5110d7ad1a55","system_id":"levelo_inurba_marseille","lat":43.299222,"lon":5.365554,"is_reserved":false,"is_disabled":false,"rental_uris":{"android":"levelo://app?vid=a5b248f8-010c-47ba-856d-5110d7ad1a55","ios":"levelo://app?vid=a5b248f8-010c-47ba-856d-5110d7ad1a55"},"vehicle_type_id":"4","last_reported":1724872041,"current_range_meters":31200,"station_id":"ce4bgm92rcd13ifvqbr0","pricing_plan_id":"cebpf4jnsgd1na2vs0mg"},{"bike_id":"cb9904ad-3db2-455b-ade3-fd03a22ae15e","system_id":"levelo_inurba_marseille","lat":43.299407,"lon":5.3655,"is_reserved":false,"is_disabled":false,"rental_uris":{"android":"levelo://app?vid=cb9904ad-3db2-455b-ade3-fd03a22ae15e","ios":"levelo://app?vid=cb9904ad-3db2-455b-ade3-fd03a22ae15e"},"vehicle_type_id":"4","last_reported":1724872041,"current_range_meters":13600,"station_id":"ce4bgm92rcd13ifvqbr0","pricing_plan_id":"cebpf4jnsgd1na2vs0mg"},{"bike_id":"3853cf8e-abf6-4350-b4ac-c19a0e277dcd","system_id":"levelo_inurba_marseille","lat":43.299222,"lon":5.365554,"is_reserved":false,"is_disabled":false,"rental_uris":{"android":"levelo://app?vid=3853cf8e-abf6-4350-b4ac-c19a0e277dcd","ios":"levelo://app?vid=3853cf8e-abf6-4350-b4ac-c19a0e277dcd"},"vehicle_type_id":"4","last_reported":1724872041,"current_range_meters":19200,"station_id":"ce4bgm92rcd13ifvqbr0","pricing_plan_id":"cebpf4jnsgd1na2vs0mg"},{"bike_id":"0f6d98f3-801a-4546-a57c-79625ccb6247","system_id":"levelo_inurba_marseille","lat":43.299222,"lon":5.365554,"is_reserved":false,"is_disabled":false,"rental_uris":{"android":"levelo://app?vid=0f6d98f3-801a-4546-a57c-79625ccb6247","ios":"levelo://app?vid=0f6d98f3-801a-4546-a57c-79625ccb6247"},"vehicle_type_id":"4","last_reported":1724872041,"current_range_meters":17200,"station_id":"ce4bgm92rcd13ifvqbr0","pricing_plan_id":"cebpf4jnsgd1na2vs0mg"},{"bike_id":"db26fe86-6e0b-4e7b-b84d-4e77bc2d5729","system_id":"levelo_inurba_marseille","lat":43.299724,"lon":5.371829,"is_reserved":false,"is_disabled":false,"rental_uris":{"android":"levelo://app?vid=db26fe86-6e0b-4e7b-b84d-4e77bc2d5729","ios":"levelo://app?vid=db26fe86-6e0b-4e7b-b84d-4e77bc2d5729"},"vehicle_type_id":"4","last_reported":1724872041,"current_range_meters":5600,"station_id":"ce4bgr92rcd13ifvqc7g","pricing_plan_id":"cebpf4jnsgd1na2vs0mg"},{"bike_id":"6e9152c5-c817-4316-b97b-831faf430fd9","system_id":"levelo_inurba_marseille","lat":43.29939,"lon":5.36546,"is_reserved":false,"is_disabled":false,"rental_uris":{"android":"levelo://app?vid=6e9152c5-c817-4316-b97b-831faf430fd9","ios":"levelo://app?vid=6e9152c5-c817-4316-b97b-831faf430fd9"},"vehicle_type_id":"4","last_reported":1724872041,"current_range_meters":25200,"station_id":"ce4bgm92rcd13ifvqbr0","pricing_plan_id":"cebpf4jnsgd1na2vs0mg"},{"bike_id":"7bee3f46-f918-472e-849d-ca217f253e6c","system_id":"levelo_inurba_marseille","lat":43.29939,"lon":5.36546,"is_reserved":false,"is_disabled":false,"rental_uris":{"android":"levelo://app?vid=7bee3f46-f918-472e-849d-ca217f253e6c","ios":"levelo://app?vid=7bee3f46-f918-472e-849d-ca217f253e6c"},"vehicle_type_id":"4","last_reported":1724872041,"current_range_meters":31200,"station_id":"ce4bgm92rcd13ifvqbr0","pricing_plan_id":"cebpf4jnsgd1na2vs0mg"},{"bike_id":"115b9e4a-d811-48f5-abd3-c4dca44c6597","system_id":"levelo_inurba_marseille","lat":43.299222,"lon":5.365554,"is_reserved":false,"is_disabled":false,"rental_uris":{"android":"levelo://app?vid=115b9e4a-d811-48f5-abd3-c4dca44c6597","ios":"levelo://app?vid=115b9e4a-d811-48f5-abd3-c4dca44c6597"},"vehicle_type_id":"4","last_reported":1724872041,"current_range_meters":12000,"station_id":"ce4bgm92rcd13ifvqbr0","pricing_plan_id":"cebpf4jnsgd1na2vs0mg"},{"bike_id":"09d67bd6-ed5d-480d-bfc7-a7a3d1b4d603","system_id":"levelo_inurba_marseille","lat":43.299222,"lon":5.365554,"is_reserved":false,"is_disabled":false,"rental_uris":{"android":"levelo://app?vid=09d67bd6-ed5d-480d-bfc7-a7a3d1b4d603","ios":"levelo://app?vid=09d67bd6-ed5d-480d-bfc7-a7a3d1b4d603"},"vehicle_type_id":"4","last_reported":1724872041,"current_range_meters":13200,"station_id":"ce4bgm92rcd13ifvqbr0","pricing_plan_id":"cebpf4jnsgd1na2vs0mg"},{"bike_id":"08408940-7647-40e8-89e6-a865026ea3ad","system_id":"levelo_inurba_marseille","lat":43.29937,"lon":5.36566,"is_reserved":false,"is_disabled":false,"rental_uris":{"android":"levelo://app?vid=08408940-7647-40e8-89e6-a865026ea3ad","ios":"levelo://app?vid=08408940-7647-40e8-89e6-a865026ea3ad"},"vehicle_type_id":"4","last_reported":1724872041,"current_range_meters":25600,"station_id":"ce4bgm92rcd13ifvqbr0","pricing_plan_id":"cebpf4jnsgd1na2vs0mg"},{"bike_id":"c2233e19-0e99-4765-992c-3fd6ceaf9928","system_id":"levelo_inurba_marseille","lat":43.29938,"lon":5.36546,"is_reserved":false,"is_disabled":false,"rental_uris":{"android":"levelo://app?vid=c2233e19-0e99-4765-992c-3fd6ceaf9928","ios":"levelo://app?vid=c2233e19-0e99-4765-992c-3fd6ceaf9928"},"vehicle_type_id":"4","last_reported":1724872041,"current_range_meters":20400,"station_id":"ce4bgm92rcd13ifvqbr0","pricing_plan_id":"cebpf4jnsgd1na2vs0mg"},{"bike_id":"47ecbec8-658c-4604-a482-0d6701d07463","system_id":"levelo_inurba_marseille","lat":43.29937,"lon":5.36556,"is_reserved":false,"is_disabled":false,"rental_uris":{"android":"levelo://app?vid=47ecbec8-658c-4604-a482-0d6701d07463","ios":"levelo://app?vid=47ecbec8-658c-4604-a482-0d6701d07463"},"vehicle_type_id":"4","last_reported":1724872041,"current_range_meters":31200,"station_id":"ce4bgm92rcd13ifvqbr0","pricing_plan_id":"cebpf4jnsgd1na2vs0mg"},{"bike_id":"42d32d54-3243-4537-bec3-41fb8d8c6a8c","system_id":"levelo_inurba_marseille","lat":43.299222,"lon":5.365554,"is_reserved":false,"is_disabled":false,"rental_uris":{"android":"levelo://app?vid=42d32d54-3243-4537-bec3-41fb8d8c6a8c","ios":"levelo://app?vid=42d32d54-3243-4537-bec3-41fb8d8c6a8c"},"vehicle_type_id":"4","last_reported":1724872041,"current_range_meters":5600,"station_id":"ce4bgm92rcd13ifvqbr0","pricing_plan_id":"cebpf4jnsgd1na2vs0mg"},{"bike_id":"01af6f24-f56e-45cc-9221-105cde26e1bd","system_id":"levelo_inurba_marseille","lat":43.299222,"lon":5.365554,"is_reserved":false,"is_disabled":false,"rental_uris":{"android":"levelo://app?vid=01af6f24-f56e-45cc-9221-105cde26e1bd","ios":"levelo://app?vid=01af6f24-f56e-45cc-9221-105cde26e1bd"},"vehicle_type_id":"4","last_reported":1724872041,"current_range_meters":30400,"station_id":"ce4bgm92rcd13ifvqbr0","pricing_plan_id":"cebpf4jnsgd1na2vs0mg"},{"bike_id":"d28ccf77-7526-487a-9f47-91e949c4adb7","system_id":"levelo_inurba_marseille","lat":43.299222,"lon":5.365554,"is_reserved":false,"is_disabled":false,"rental_uris":{"android":"levelo://app?vid=d28ccf77-7526-487a-9f47-91e949c4adb7","ios":"levelo://app?vid=d28ccf77-7526-487a-9f47-91e949c4adb7"},"vehicle_type_id":"4","last_reported":1724872041,"current_range_meters":15600,"station_id":"ce4bgm92rcd13ifvqbr0","pricing_plan_id":"cebpf4jnsgd1na2vs0mg"},{"bike_id":"dba4b799-7c4a-4532-9eda-50a937b493b6","system_id":"levelo_inurba_marseille","lat":43.29936,"lon":5.36547,"is_reserved":false,"is_disabled":false,"rental_uris":{"android":"levelo://app?vid=dba4b799-7c4a-4532-9eda-50a937b493b6","ios":"levelo://app?vid=dba4b799-7c4a-4532-9eda-50a937b493b6"},"vehicle_type_id":"4","last_reported":1724872041,"current_range_meters":20000,"station_id":"ce4bgm92rcd13ifvqbr0","pricing_plan_id":"cebpf4jnsgd1na2vs0mg"},{"bike_id":"3f16b7e5-1de2-474b-9304-83cbb6060af6","system_id":"levelo_inurba_marseille","lat":43.29935,"lon":5.36556,"is_reserved":false,"is_disabled":false,"rental_uris":{"android":"levelo://app?vid=3f16b7e5-1de2-474b-9304-83cbb6060af6","ios":"levelo://app?vid=3f16b7e5-1de2-474b-9304-83cbb6060af6"},"vehicle_type_id":"4","last_reported":1724872041,"current_range_meters":13200,"station_id":"ce4bgm92rcd13ifvqbr0","pricing_plan_id":"cebpf4jnsgd1na2vs0mg"},{"bike_id":"361b8e5a-3690-46bf-9f8e-0f472af464e3","system_id":"levelo_inurba_marseille","lat":43.29935,"lon":5.36556,"is_reserved":false,"is_disabled":false,"rental_uris":{"android":"levelo://app?vid=361b8e5a-3690-46bf-9f8e-0f472af464e3","ios":"levelo://app?vid=361b8e5a-3690-46bf-9f8e-0f472af464e3"},"vehicle_type_id":"4","last_reported":1724872041,"current_range_meters":4000,"station_id":"ce4bgm92rcd13ifvqbr0","pricing_plan_id":"cebpf4jnsgd1na2vs0mg"},{"bike_id":"45ddad94-c926-4e23-83ab-82b90a2d3305","system_id":"levelo_inurba_marseille","lat":43.299724,"lon":5.371829,"is_reserved":false,"is_disabled":false,"rental_uris":{"android":"levelo://app?vid=45ddad94-c926-4e23-83ab-82b90a2d3305","ios":"levelo://app?vid=45ddad94-c926-4e23-83ab-82b90a2d3305"},"vehicle_type_id":"4","last_reported":1724872041,"current_range_meters":30000,"station_id":"ce4bgr92rcd13ifvqc7g","pricing_plan_id":"cebpf4jnsgd1na2vs0mg"},{"bike_id":"46587dd2-ff19-47ff-89f1-4e3503ce9713","system_id":"levelo_inurba_marseille","lat":43.299338,"lon":5.365528,"is_reserved":false,"is_disabled":false,"rental_uris":{"android":"levelo://app?vid=46587dd2-ff19-47ff-89f1-4e3503ce9713","ios":"levelo://app?vid=46587dd2-ff19-47ff-89f1-4e3503ce9713"},"vehicle_type_id":"4","last_reported":1724872041,"current_range_meters":12400,"station_id":"ce4bgm92rcd13ifvqbr0","pricing_plan_id":"cebpf4jnsgd1na2vs0mg"},{"bike_id":"9caed588-133a-4019-a330-cd9acd2860a1","system_id":"levelo_inurba_marseille","lat":43.299222,"lon":5.365554,"is_reserved":false,"is_disabled":false,"rental_uris":{"android":"levelo://app?vid=9caed588-133a-4019-a330-cd9acd2860a1","ios":"levelo://app?vid=9caed588-133a-4019-a330-cd9acd2860a1"},"vehicle_type_id":"4","last_reported":1724872041,"current_range_meters":14800,"station_id":"ce4bgm92rcd13ifvqbr0","pricing_plan_id":"cebpf4jnsgd1na2vs0mg"},{"bike_id":"3eb67b78-ff34-4138-a172-1a7f46aa0983","system_id":"levelo_inurba_marseille","lat":43.29932,"lon":5.36555,"is_reserved":false,"is_disabled":false,"rental_uris":{"android":"levelo://app?vid=3eb67b78-ff34-4138-a172-1a7f46aa0983","ios":"levelo://app?vid=3eb67b78-ff34-4138-a172-1a7f46aa0983"},"vehicle_type_id":"4","last_reported":1724872041,"current_range_meters":14400,"station_id":"ce4bgm92rcd13ifvqbr0","pricing_plan_id":"cebpf4jnsgd1na2vs0mg"},{"bike_id":"f0f71647-53ce-4895-99f7-805bab015371","system_id":"levelo_inurba_marseille","lat":43.299724,"lon":5.371829,"is_reserved":false,"is_disabled":false,"rental_uris":{"android":"levelo://app?vid=f0f71647-53ce-4895-99f7-805bab015371","ios":"levelo://app?vid=f0f71647-53ce-4895-99f7-805bab015371"},"vehicle_type_id":"4","last_reported":1724872041,"current_range_meters":19200,"station_id":"ce4bgr92rcd13ifvqc7g","pricing_plan_id":"cebpf4jnsgd1na2vs0mg"},{"bike_id":"3bdf8301-e825-472e-8b81-0a6d961996cf","system_id":"levelo_inurba_marseille","lat":43.299222,"lon":5.365554,"is_reserved":false,"is_disabled":false,"rental_uris":{"android":"levelo://app?vid=3bdf8301-e825-472e-8b81-0a6d961996cf","ios":"levelo://app?vid=3bdf8301-e825-472e-8b81-0a6d961996cf"},"vehicle_type_id":"4","last_reported":1724872041,"current_range_meters":6800,"station_id":"ce4bgm92rcd13ifvqbr0","pricing_plan_id":"cebpf4jnsgd1na2vs0mg"},{"bike_id":"ef4d7744-984c-42d3-b921-3f4dad7be9c5","system_id":"levelo_inurba_marseille","lat":43.299222,"lon":5.365554,"is_reserved":false,"is_disabled":false,"rental_uris":{"android":"levelo://app?vid=ef4d7744-984c-42d3-b921-3f4dad7be9c5","ios":"levelo://app?vid=ef4d7744-984c-42d3-b921-3f4dad7be9c5"},"vehicle_type_id":"4","last_reported":1724872041,"current_range_meters":28800,"station_id":"ce4bgm92rcd13ifvqbr0","pricing_plan_id":"cebpf4jnsgd1na2vs0mg"},{"bike_id":"65d7a7a7-0a28-443c-b29b-4b69a8981967","system_id":"levelo_inurba_marseille","lat":43.29931,"lon":5.3655,"is_reserved":false,"is_disabled":false,"rental_uris":{"android":"levelo://app?vid=65d7a7a7-0a28-443c-b29b-4b69a8981967","ios":"levelo://app?vid=65d7a7a7-0a28-443c-b29b-4b69a8981967"},"vehicle_type_id":"4","last_reported":1724872041,"current_range_meters":31200,"station_id":"ce4bgm92rcd13ifvqbr0","pricing_plan_id":"cebpf4jnsgd1na2vs0mg"},{"bike_id":"6899b6e1-efa6-4250-bae5-5d3203710263","system_id":"levelo_inurba_marseille","lat":43.299307,"lon":5.365427,"is_reserved":false,"is_disabled":false,"rental_uris":{"android":"levelo://app?vid=6899b6e1-efa6-4250-bae5-5d3203710263","ios":"levelo://app?vid=6899b6e1-efa6-4250-bae5-5d3203710263"},"vehicle_type_id":"4","last_reported":1724872041,"current_range_meters":6800,"station_id":"ce4bgm92rcd13ifvqbr0","pricing_plan_id":"cebpf4jnsgd1na2vs0mg"},{"bike_id":"be0046ec-3e4c-44ce-8b49-f0884b80a404","system_id":"levelo_inurba_marseille","lat":43.299222,"lon":5.365554,"is_reserved":false,"is_disabled":false,"rental_uris":{"android":"levelo://app?vid=be0046ec-3e4c-44ce-8b49-f0884b80a404","ios":"levelo://app?vid=be0046ec-3e4c-44ce-8b49-f0884b80a404"},"vehicle_type_id":"4","last_reported":1724872041,"current_range_meters":14000,"station_id":"ce4bgm92rcd13ifvqbr0","pricing_plan_id":"cebpf4jnsgd1na2vs0mg"},{"bike_id":"77b6ea65-b88b-46f5-8b7f-24e23b8ff399","system_id":"levelo_inurba_marseille","lat":43.299297,"lon":5.365523,"is_reserved":false,"is_disabled":false,"rental_uris":{"android":"levelo://app?vid=77b6ea65-b88b-46f5-8b7f-24e23b8ff399","ios":"levelo://app?vid=77b6ea65-b88b-46f5-8b7f-24e23b8ff399"},"vehicle_type_id":"4","last_reported":1724872041,"current_range_meters":25600,"station_id":"ce4bgm92rcd13ifvqbr0","pricing_plan_id":"cebpf4jnsgd1na2vs0mg"},{"bike_id":"515c3841-3938-4e83-91d2-4b88996437d5","system_id":"levelo_inurba_marseille","lat":43.299287,"lon":5.36548,"is_reserved":false,"is_disabled":false,"rental_uris":{"android":"levelo://app?vid=515c3841-3938-4e83-91d2-4b88996437d5","ios":"levelo://app?vid=515c3841-3938-4e83-91d2-4b88996437d5"},"vehicle_type_id":"4","last_reported":1724872041,"current_range_meters":1600,"station_id":"","pricing_plan_id":"cebpf4jnsgd1na2vs0mg"},{"bike_id":"5b653a21-1edc-4681-83d7-c7cde170c878","system_id":"levelo_inurba_marseille","lat":43.299724,"lon":5.371829,"is_reserved":false,"is_disabled":false,"rental_uris":{"android":"levelo://app?vid=5b653a21-1edc-4681-83d7-c7cde170c878","ios":"levelo://app?vid=5b653a21-1edc-4681-83d7-c7cde170c878"},"vehicle_type_id":"4","last_reported":1724872041,"current_range_meters":6800,"station_id":"ce4bgr92rcd13ifvqc7g","pricing_plan_id":"cebpf4jnsgd1na2vs0mg"},{"bike_id":"2b88d300-80e9-4dac-87f5-b1d93489e176","system_id":"levelo_inurba_marseille","lat":43.299724,"lon":5.371829,"is_reserved":false,"is_disabled":false,"rental_uris":{"android":"levelo://app?vid=2b88d300-80e9-4dac-87f5-b1d93489e176","ios":"levelo://app?vid=2b88d300-80e9-4dac-87f5-b1d93489e176"},"vehicle_type_id":"4","last_reported":1724872041,"current_range_meters":20400,"station_id":"ce4bgr92rcd13ifvqc7g","pricing_plan_id":"cebpf4jnsgd1na2vs0mg"},{"bike_id":"d1dc925d-e27d-4163-b780-008556383917","system_id":"levelo_inurba_marseille","lat":43.2993,"lon":5.37404,"is_reserved":false,"is_disabled":false,"rental_uris":{"android":"levelo://app?vid=d1dc925d-e27d-4163-b780-008556383917","ios":"levelo://app?vid=d1dc925d-e27d-4163-b780-008556383917"},"vehicle_type_id":"4","last_reported":1724872041,"current_range_meters":0,"station_id":"","pricing_plan_id":"cebpf4jnsgd1na2vs0mg"},{"bike_id":"f2a7c5e3-55cc-4f04-9f4e-0ebe2dff0f6c","system_id":"levelo_inurba_marseille","lat":43.30013,"lon":5.37654,"is_reserved":false,"is_disabled":false,"rental_uris":{"android":"levelo://app?vid=f2a7c5e3-55cc-4f04-9f4e-0ebe2dff0f6c","ios":"levelo://app?vid=f2a7c5e3-55cc-4f04-9f4e-0ebe2dff0f6c"},"vehicle_type_id":"4","last_reported":1724872041,"current_range_meters":3200,"station_id":"","pricing_plan_id":"cebpf4jnsgd1na2vs0mg"},{"bike_id":"2c248448-48f6-465f-8589-ceab13af687d","system_id":"levelo_inurba_marseille","lat":43.298433,"lon":5.362774,"is_reserved":false,"is_disabled":false,"rental_uris":{"android":"levelo://app?vid=2c248448-48f6-465f-8589-ceab13af687d","ios":"levelo://app?vid=2c248448-48f6-465f-8589-ceab13af687d"},"vehicle_type_id":"4","last_reported":1724872041,"current_range_meters":31200,"station_id":"ce4bgpp2rcd13ifvqc3g","pricing_plan_id":"cebpf4jnsgd1na2vs0mg"},{"bike_id":"c9b65aff-68fa-434f-9cec-3943aed84d5e","system_id":"levelo_inurba_marseille","lat":43.29853,"lon":5.36289,"is_reserved":false,"is_disabled":false,"rental_uris":{"android":"levelo://app?vid=c9b65aff-68fa-434f-9cec-3943aed84d5e","ios":"levelo://app?vid=c9b65aff-68fa-434f-9cec-3943aed84d5e"},"vehicle_type_id":"4","last_reported":1724872041,"current_range_meters":1200,"station_id":"ce4bgpp2rcd13ifvqc3g","pricing_plan_id":"cebpf4jnsgd1na2vs0mg"},{"bike_id":"89674c70-4df9-4160-936a-4e27e5ad9310","system_id":"levelo_inurba_marseille","lat":43.298433,"lon":5.362774,"is_reserved":false,"is_disabled":false,"rental_uris":{"android":"levelo://app?vid=89674c70-4df9-4160-936a-4e27e5ad9310","ios":"levelo://app?vid=89674c70-4df9-4160-936a-4e27e5ad9310"},"vehicle_type_id":"4","last_reported":1724872041,"current_range_meters":31600,"station_id":"ce4bgpp2rcd13ifvqc3g","pricing_plan_id":"cebpf4jnsgd1na2vs0mg"},{"bike_id":"f398ba8a-cf0a-4e1e-b103-71a40335c53c","system_id":"levelo_inurba_marseille","lat":43.29852,"lon":5.3629,"is_reserved":false,"is_disabled":false,"rental_uris":{"android":"levelo://app?vid=f398ba8a-cf0a-4e1e-b103-71a40335c53c","ios":"levelo://app?vid=f398ba8a-cf0a-4e1e-b103-71a40335c53c"},"vehicle_type_id":"4","last_reported":1724872041,"current_range_meters":21600,"station_id":"ce4bgpp2rcd13ifvqc3g","pricing_plan_id":"cebpf4jnsgd1na2vs0mg"},{"bike_id":"1e3b79c5-e3f5-4dfb-a4e9-429d916b1bda","system_id":"levelo_inurba_marseille","lat":43.29851,"lon":5.36286,"is_reserved":false,"is_disabled":false,"rental_uris":{"android":"levelo://app?vid=1e3b79c5-e3f5-4dfb-a4e9-429d916b1bda","ios":"levelo://app?vid=1e3b79c5-e3f5-4dfb-a4e9-429d916b1bda"},"vehicle_type_id":"4","last_reported":1724872041,"current_range_meters":12800,"station_id":"ce4bgpp2rcd13ifvqc3g","pricing_plan_id":"cebpf4jnsgd1na2vs0mg"},{"bike_id":"a8aafa84-4876-48c9-ad9d-f98c9ac58287","system_id":"levelo_inurba_marseille","lat":43.29851,"lon":5.36282,"is_reserved":false,"is_disabled":false,"rental_uris":{"android":"levelo://app?vid=a8aafa84-4876-48c9-ad9d-f98c9ac58287","ios":"levelo://app?vid=a8aafa84-4876-48c9-ad9d-f98c9ac58287"},"vehicle_type_id":"4","last_reported":1724872041,"current_range_meters":5600,"station_id":"ce4bgpp2rcd13ifvqc3g","pricing_plan_id":"cebpf4jnsgd1na2vs0mg"},{"bike_id":"e1521b33-8430-486a-a1f3-bd66f10cda5a","system_id":"levelo_inurba_marseille","lat":43.298433,"lon":5.362774,"is_reserved":false,"is_disabled":false,"rental_uris":{"android":"levelo://app?vid=e1521b33-8430-486a-a1f3-bd66f10cda5a","ios":"levelo://app?vid=e1521b33-8430-486a-a1f3-bd66f10cda5a"},"vehicle_type_id":"4","last_reported":1724872041,"current_range_meters":16400,"station_id":"ce4bgpp2rcd13ifvqc3g","pricing_plan_id":"cebpf4jnsgd1na2vs0mg"},{"bike_id":"3c7e7192-46b5-4459-aa3d-9978eef79699","system_id":"levelo_inurba_marseille","lat":43.2985,"lon":5.36283,"is_reserved":false,"is_disabled":false,"rental_uris":{"android":"levelo://app?vid=3c7e7192-46b5-4459-aa3d-9978eef79699","ios":"levelo://app?vid=3c7e7192-46b5-4459-aa3d-9978eef79699"},"vehicle_type_id":"4","last_reported":1724872041,"current_range_meters":0,"station_id":"ce4bgpp2rcd13ifvqc3g","pricing_plan_id":"cebpf4jnsgd1na2vs0mg"},{"bike_id":"ab8581f2-539a-4887-b246-4fb531092edc","system_id":"levelo_inurba_marseille","lat":43.298433,"lon":5.362774,"is_reserved":false,"is_disabled":false,"rental_uris":{"android":"levelo://app?vid=ab8581f2-539a-4887-b246-4fb531092edc","ios":"levelo://app?vid=ab8581f2-539a-4887-b246-4fb531092edc"},"vehicle_type_id":"4","last_reported":1724872041,"current_range_meters":30000,"station_id":"ce4bgpp2rcd13ifvqc3g","pricing_plan_id":"cebpf4jnsgd1na2vs0mg"},{"bike_id":"7e8ff7b7-a886-4969-aae2-09c0c5cd4491","system_id":"levelo_inurba_marseille","lat":43.298433,"lon":5.362774,"is_reserved":false,"is_disabled":false,"rental_uris":{"android":"levelo://app?vid=7e8ff7b7-a886-4969-aae2-09c0c5cd4491","ios":"levelo://app?vid=7e8ff7b7-a886-4969-aae2-09c0c5cd4491"},"vehicle_type_id":"4","last_reported":1724872041,"current_range_meters":3200,"station_id":"ce4bgpp2rcd13ifvqc3g","pricing_plan_id":"cebpf4jnsgd1na2vs0mg"},{"bike_id":"71fd6b3d-d610-421b-9751-ff6fe6d6b9f0","system_id":"levelo_inurba_marseille","lat":43.298433,"lon":5.362774,"is_reserved":false,"is_disabled":false,"rental_uris":{"android":"levelo://app?vid=71fd6b3d-d610-421b-9751-ff6fe6d6b9f0","ios":"levelo://app?vid=71fd6b3d-d610-421b-9751-ff6fe6d6b9f0"},"vehicle_type_id":"4","last_reported":1724872041,"current_range_meters":24000,"station_id":"ce4bgpp2rcd13ifvqc3g","pricing_plan_id":"cebpf4jnsgd1na2vs0mg"},{"bike_id":"8628fb92-353d-432c-a916-665e1b14f8c1","system_id":"levelo_inurba_marseille","lat":43.29849,"lon":5.36281,"is_reserved":false,"is_disabled":false,"rental_uris":{"android":"levelo://app?vid=8628fb92-353d-432c-a916-665e1b14f8c1","ios":"levelo://app?vid=8628fb92-353d-432c-a916-665e1b14f8c1"},"vehicle_type_id":"4","last_reported":1724872041,"current_range_meters":8400,"station_id":"ce4bgpp2rcd13ifvqc3g","pricing_plan_id":"cebpf4jnsgd1na2vs0mg"},{"bike_id":"7ba70f56-3820-4e7b-add8-3d20558e449d","system_id":"levelo_inurba_marseille","lat":43.29849,"lon":5.36279,"is_reserved":false,"is_disabled":false,"rental_uris":{"android":"levelo://app?vid=7ba70f56-3820-4e7b-add8-3d20558e449d","ios":"levelo://app?vid=7ba70f56-3820-4e7b-add8-3d20558e449d"},"vehicle_type_id":"4","last_reported":1724872041,"current_range_meters":23600,"station_id":"ce4bgpp2rcd13ifvqc3g","pricing_plan_id":"cebpf4jnsgd1na2vs0mg"},{"bike_id":"eb7ebab4-4747-40df-9bd5-8f5f56262ba3","system_id":"levelo_inurba_marseille","lat":43.29848,"lon":5.36285,"is_reserved":false,"is_disabled":false,"rental_uris":{"android":"levelo://app?vid=eb7ebab4-4747-40df-9bd5-8f5f56262ba3","ios":"levelo://app?vid=eb7ebab4-4747-40df-9bd5-8f5f56262ba3"},"vehicle_type_id":"4","last_reported":1724872041,"current_range_meters":16800,"station_id":"ce4bgpp2rcd13ifvqc3g","pricing_plan_id":"cebpf4jnsgd1na2vs0mg"},{"bike_id":"30af6d0c-ab53-499b-8039-0e33c58ae3b1","system_id":"levelo_inurba_marseille","lat":43.29848,"lon":5.36282,"is_reserved":false,"is_disabled":false,"rental_uris":{"android":"levelo://app?vid=30af6d0c-ab53-499b-8039-0e33c58ae3b1","ios":"levelo://app?vid=30af6d0c-ab53-499b-8039-0e33c58ae3b1"},"vehicle_type_id":"4","last_reported":1724872041,"current_range_meters":31200,"station_id":"ce4bgpp2rcd13ifvqc3g","pricing_plan_id":"cebpf4jnsgd1na2vs0mg"},{"bike_id":"130140c4-39d7-45e7-81f6-afa11a974522","system_id":"levelo_inurba_marseille","lat":43.29848,"lon":5.36281,"is_reserved":false,"is_disabled":false,"rental_uris":{"android":"levelo://app?vid=130140c4-39d7-45e7-81f6-afa11a974522","ios":"levelo://app?vid=130140c4-39d7-45e7-81f6-afa11a974522"},"vehicle_type_id":"4","last_reported":1724872041,"current_range_meters":8400,"station_id":"ce4bgpp2rcd13ifvqc3g","pricing_plan_id":"cebpf4jnsgd1na2vs0mg"},{"bike_id":"e157797d-8d08-4af6-a29e-a5ddb5f1d584","system_id":"levelo_inurba_marseille","lat":43.29848,"lon":5.36281,"is_reserved":false,"is_disabled":false,"rental_uris":{"android":"levelo://app?vid=e157797d-8d08-4af6-a29e-a5ddb5f1d584","ios":"levelo://app?vid=e157797d-8d08-4af6-a29e-a5ddb5f1d584"},"vehicle_type_id":"4","last_reported":1724872041,"current_range_meters":20400,"station_id":"ce4bgpp2rcd13ifvqc3g","pricing_plan_id":"cebpf4jnsgd1na2vs0mg"},{"bike_id":"e27453f2-6db9-44d5-b233-e2c972c317f6","system_id":"levelo_inurba_marseille","lat":43.29848,"lon":5.36279,"is_reserved":false,"is_disabled":false,"rental_uris":{"android":"levelo://app?vid=e27453f2-6db9-44d5-b233-e2c972c317f6","ios":"levelo://app?vid=e27453f2-6db9-44d5-b233-e2c972c317f6"},"vehicle_type_id":"4","last_reported":1724872041,"current_range_meters":6400,"station_id":"ce4bgpp2rcd13ifvqc3g","pricing_plan_id":"cebpf4jnsgd1na2vs0mg"},{"bike_id":"1a7ee38b-5e1c-4996-b37b-eb0e4339d584","system_id":"levelo_inurba_marseille","lat":43.29847,"lon":5.36281,"is_reserved":false,"is_disabled":false,"rental_uris":{"android":"levelo://app?vid=1a7ee38b-5e1c-4996-b37b-eb0e4339d584","ios":"levelo://app?vid=1a7ee38b-5e1c-4996-b37b-eb0e4339d584"},"vehicle_type_id":"4","last_reported":1724872041,"current_range_meters":19200,"station_id":"ce4bgpp2rcd13ifvqc3g","pricing_plan_id":"cebpf4jnsgd1na2vs0mg"},{"bike_id":"cf8be05a-83b4-483b-bce5-f1d9e20f1e5f","system_id":"levelo_inurba_marseille","lat":43.29847,"lon":5.3628,"is_reserved":false,"is_disabled":false,"rental_uris":{"android":"levelo://app?vid=cf8be05a-83b4-483b-bce5-f1d9e20f1e5f","ios":"levelo://app?vid=cf8be05a-83b4-483b-bce5-f1d9e20f1e5f"},"vehicle_type_id":"4","last_reported":1724872041,"current_range_meters":3600,"station_id":"ce4bgpp2rcd13ifvqc3g","pricing_plan_id":"cebpf4jnsgd1na2vs0mg"},{"bike_id":"0f4eaefe-fbd1-4fea-a610-2e650a3d4307","system_id":"levelo_inurba_marseille","lat":43.29847,"lon":5.3628,"is_reserved":false,"is_disabled":false,"rental_uris":{"android":"levelo://app?vid=0f4eaefe-fbd1-4fea-a610-2e650a3d4307","ios":"levelo://app?vid=0f4eaefe-fbd1-4fea-a610-2e650a3d4307"},"vehicle_type_id":"4","last_reported":1724872041,"current_range_meters":12800,"station_id":"ce4bgpp2rcd13ifvqc3g","pricing_plan_id":"cebpf4jnsgd1na2vs0mg"},{"bike_id":"4483cbf6-bc98-45b9-83b7-fc0b44bae4b5","system_id":"levelo_inurba_marseille","lat":43.29847,"lon":5.36279,"is_reserved":false,"is_disabled":false,"rental_uris":{"android":"levelo://app?vid=4483cbf6-bc98-45b9-83b7-fc0b44bae4b5","ios":"levelo://app?vid=4483cbf6-bc98-45b9-83b7-fc0b44bae4b5"},"vehicle_type_id":"4","last_reported":1724872041,"current_range_meters":16000,"station_id":"ce4bgpp2rcd13ifvqc3g","pricing_plan_id":"cebpf4jnsgd1na2vs0mg"},{"bike_id":"da5de2be-8710-4d2e-a34e-0bb5bac31254","system_id":"levelo_inurba_marseille","lat":43.29847,"lon":5.36277,"is_reserved":false,"is_disabled":false,"rental_uris":{"android":"levelo://app?vid=da5de2be-8710-4d2e-a34e-0bb5bac31254","ios":"levelo://app?vid=da5de2be-8710-4d2e-a34e-0bb5bac31254"},"vehicle_type_id":"4","last_reported":1724872041,"current_range_meters":30000,"station_id":"ce4bgpp2rcd13ifvqc3g","pricing_plan_id":"cebpf4jnsgd1na2vs0mg"},{"bike_id":"29fa1fe8-4acd-4895-978c-c2857c6c1ad0","system_id":"levelo_inurba_marseille","lat":43.299243,"lon":5.374807,"is_reserved":false,"is_disabled":false,"rental_uris":{"android":"levelo://app?vid=29fa1fe8-4acd-4895-978c-c2857c6c1ad0","ios":"levelo://app?vid=29fa1fe8-4acd-4895-978c-c2857c6c1ad0"},"vehicle_type_id":"4","last_reported":1724872041,"current_range_meters":7200,"station_id":"ce4bgjh2rcd13ifvqbg0","pricing_plan_id":"cebpf4jnsgd1na2vs0mg"},{"bike_id":"004b6ee5-f589-4a64-a5b2-b4844544a80a","system_id":"levelo_inurba_marseille","lat":43.29847,"lon":5.36276,"is_reserved":false,"is_disabled":false,"rental_uris":{"android":"levelo://app?vid=004b6ee5-f589-4a64-a5b2-b4844544a80a","ios":"levelo://app?vid=004b6ee5-f589-4a64-a5b2-b4844544a80a"},"vehicle_type_id":"4","last_reported":1724872041,"current_range_meters":0,"station_id":"ce4bgpp2rcd13ifvqc3g","pricing_plan_id":"cebpf4jnsgd1na2vs0mg"},{"bike_id":"a1c4722c-643f-4041-82ef-d607c26c124e","system_id":"levelo_inurba_marseille","lat":43.29846,"lon":5.36282,"is_reserved":false,"is_disabled":false,"rental_uris":{"android":"levelo://app?vid=a1c4722c-643f-4041-82ef-d607c26c124e","ios":"levelo://app?vid=a1c4722c-643f-4041-82ef-d607c26c124e"},"vehicle_type_id":"4","last_reported":1724872041,"current_range_meters":2400,"station_id":"ce4bgpp2rcd13ifvqc3g","pricing_plan_id":"cebpf4jnsgd1na2vs0mg"},{"bike_id":"a57ef2d5-1790-468a-9ed5-6ade146a81d9","system_id":"levelo_inurba_marseille","lat":43.29846,"lon":5.36281,"is_reserved":false,"is_disabled":false,"rental_uris":{"android":"levelo://app?vid=a57ef2d5-1790-468a-9ed5-6ade146a81d9","ios":"levelo://app?vid=a57ef2d5-1790-468a-9ed5-6ade146a81d9"},"vehicle_type_id":"4","last_reported":1724872041,"current_range_meters":6800,"station_id":"ce4bgpp2rcd13ifvqc3g","pricing_plan_id":"cebpf4jnsgd1na2vs0mg"},{"bike_id":"e79ec614-e696-4c1f-a145-2982f0a58846","system_id":"levelo_inurba_marseille","lat":43.29846,"lon":5.3628,"is_reserved":false,"is_disabled":false,"rental_uris":{"android":"levelo://app?vid=e79ec614-e696-4c1f-a145-2982f0a58846","ios":"levelo://app?vid=e79ec614-e696-4c1f-a145-2982f0a58846"},"vehicle_type_id":"4","last_reported":1724872041,"current_range_meters":20800,"station_id":"ce4bgpp2rcd13ifvqc3g","pricing_plan_id":"cebpf4jnsgd1na2vs0mg"},{"bike_id":"304bc65e-3794-4fe0-8d0c-9edae3d5ad50","system_id":"levelo_inurba_marseille","lat":43.29846,"lon":5.36278,"is_reserved":false,"is_disabled":false,"rental_uris":{"android":"levelo://app?vid=304bc65e-3794-4fe0-8d0c-9edae3d5ad50","ios":"levelo://app?vid=304bc65e-3794-4fe0-8d0c-9edae3d5ad50"},"vehicle_type_id":"4","last_reported":1724872041,"current_range_meters":4400,"station_id":"ce4bgpp2rcd13ifvqc3g","pricing_plan_id":"cebpf4jnsgd1na2vs0mg"},{"bike_id":"e6733ab9-141c-4c87-bd20-5407717bc8cc","system_id":"levelo_inurba_marseille","lat":43.29846,"lon":5.36277,"is_reserved":false,"is_disabled":false,"rental_uris":{"android":"levelo://app?vid=e6733ab9-141c-4c87-bd20-5407717bc8cc","ios":"levelo://app?vid=e6733ab9-141c-4c87-bd20-5407717bc8cc"},"vehicle_type_id":"4","last_reported":1724872041,"current_range_meters":21200,"station_id":"ce4bgpp2rcd13ifvqc3g","pricing_plan_id":"cebpf4jnsgd1na2vs0mg"},{"bike_id":"ef7c3103-f777-4031-b5a0-0eae1a73cca3","system_id":"levelo_inurba_marseille","lat":43.29846,"lon":5.36276,"is_reserved":false,"is_disabled":false,"rental_uris":{"android":"levelo://app?vid=ef7c3103-f777-4031-b5a0-0eae1a73cca3","ios":"levelo://app?vid=ef7c3103-f777-4031-b5a0-0eae1a73cca3"},"vehicle_type_id":"4","last_reported":1724872041,"current_range_meters":9600,"station_id":"ce4bgpp2rcd13ifvqc3g","pricing_plan_id":"cebpf4jnsgd1na2vs0mg"},{"bike_id":"ac0d3b06-0413-4a56-9bcd-9e32caf8d837","system_id":"levelo_inurba_marseille","lat":43.29845,"lon":5.36274,"is_reserved":false,"is_disabled":false,"rental_uris":{"android":"levelo://app?vid=ac0d3b06-0413-4a56-9bcd-9e32caf8d837","ios":"levelo://app?vid=ac0d3b06-0413-4a56-9bcd-9e32caf8d837"},"vehicle_type_id":"4","last_reported":1724872041,"current_range_meters":19200,"station_id":"ce4bgpp2rcd13ifvqc3g","pricing_plan_id":"cebpf4jnsgd1na2vs0mg"},{"bike_id":"8707f4e6-73d6-497b-9ac8-2377d30ae3af","system_id":"levelo_inurba_marseille","lat":43.29846,"lon":5.36266,"is_reserved":false,"is_disabled":false,"rental_uris":{"android":"levelo://app?vid=8707f4e6-73d6-497b-9ac8-2377d30ae3af","ios":"levelo://app?vid=8707f4e6-73d6-497b-9ac8-2377d30ae3af"},"vehicle_type_id":"4","last_reported":1724872041,"current_range_meters":12800,"station_id":"ce4bgpp2rcd13ifvqc3g","pricing_plan_id":"cebpf4jnsgd1na2vs0mg"},{"bike_id":"dcc2a15c-c3d4-4c8c-9c44-d1dcd3e0ba75","system_id":"levelo_inurba_marseille","lat":43.29845,"lon":5.36272,"is_reserved":false,"is_disabled":false,"rental_uris":{"android":"levelo://app?vid=dcc2a15c-c3d4-4c8c-9c44-d1dcd3e0ba75","ios":"levelo://app?vid=dcc2a15c-c3d4-4c8c-9c44-d1dcd3e0ba75"},"vehicle_type_id":"4","last_reported":1724872041,"current_range_meters":6800,"station_id":"ce4bgpp2rcd13ifvqc3g","pricing_plan_id":"cebpf4jnsgd1na2vs0mg"},{"bike_id":"ff2387d8-a788-4a89-aee3-04b316aa020b","system_id":"levelo_inurba_marseille","lat":43.29845,"lon":5.36271,"is_reserved":false,"is_disabled":false,"rental_uris":{"android":"levelo://app?vid=ff2387d8-a788-4a89-aee3-04b316aa020b","ios":"levelo://app?vid=ff2387d8-a788-4a89-aee3-04b316aa020b"},"vehicle_type_id":"4","last_reported":1724872041,"current_range_meters":6800,"station_id":"ce4bgpp2rcd13ifvqc3g","pricing_plan_id":"cebpf4jnsgd1na2vs0mg"},{"bike_id":"80b7e1b9-ee64-4527-8bf6-b22125a7fc8a","system_id":"levelo_inurba_marseille","lat":43.305364,"lon":5.384119,"is_reserved":false,"is_disabled":false,"rental_uris":{"android":"levelo://app?vid=80b7e1b9-ee64-4527-8bf6-b22125a7fc8a","ios":"levelo://app?vid=80b7e1b9-ee64-4527-8bf6-b22125a7fc8a"},"vehicle_type_id":"4","last_reported":1724872041,"current_range_meters":20000,"station_id":"ce4bgg92rcd13ifvqb30","pricing_plan_id":"cebpf4jnsgd1na2vs0mg"},{"bike_id":"38e2a988-0459-445c-90de-030ffd6610b1","system_id":"levelo_inurba_marseille","lat":43.298457,"lon":5.36261,"is_reserved":false,"is_disabled":false,"rental_uris":{"android":"levelo://app?vid=38e2a988-0459-445c-90de-030ffd6610b1","ios":"levelo://app?vid=38e2a988-0459-445c-90de-030ffd6610b1"},"vehicle_type_id":"4","last_reported":1724872041,"current_range_meters":29200,"station_id":"ce4bgpp2rcd13ifvqc3g","pricing_plan_id":"cebpf4jnsgd1na2vs0mg"},{"bike_id":"c63021fa-7ef2-4aa5-aead-1e975897362b","system_id":"levelo_inurba_marseille","lat":43.29843,"lon":5.36273,"is_reserved":false,"is_disabled":false,"rental_uris":{"android":"levelo://app?vid=c63021fa-7ef2-4aa5-aead-1e975897362b","ios":"levelo://app?vid=c63021fa-7ef2-4aa5-aead-1e975897362b"},"vehicle_type_id":"4","last_reported":1724872041,"current_range_meters":22800,"station_id":"ce4bgpp2rcd13ifvqc3g","pricing_plan_id":"cebpf4jnsgd1na2vs0mg"},{"bike_id":"4773c415-95f3-4a9a-b8af-fb87a9718b9c","system_id":"levelo_inurba_marseille","lat":43.29844,"lon":5.36266,"is_reserved":false,"is_disabled":false,"rental_uris":{"android":"levelo://app?vid=4773c415-95f3-4a9a-b8af-fb87a9718b9c","ios":"levelo://app?vid=4773c415-95f3-4a9a-b8af-fb87a9718b9c"},"vehicle_type_id":"4","last_reported":1724872041,"current_range_meters":18000,"station_id":"ce4bgpp2rcd13ifvqc3g","pricing_plan_id":"cebpf4jnsgd1na2vs0mg"},{"bike_id":"00458a59-e5ac-4d6a-aa85-1e481ac85feb","system_id":"levelo_inurba_marseille","lat":43.29843,"lon":5.36272,"is_reserved":false,"is_disabled":false,"rental_uris":{"android":"levelo://app?vid=00458a59-e5ac-4d6a-aa85-1e481ac85feb","ios":"levelo://app?vid=00458a59-e5ac-4d6a-aa85-1e481ac85feb"},"vehicle_type_id":"4","last_reported":1724872041,"current_range_meters":29200,"station_id":"ce4bgpp2rcd13ifvqc3g","pricing_plan_id":"cebpf4jnsgd1na2vs0mg"},{"bike_id":"7e68eec7-ed2f-4bd1-ae30-23701cf0c1a0","system_id":"levelo_inurba_marseille","lat":43.29843,"lon":5.36271,"is_reserved":false,"is_disabled":false,"rental_uris":{"android":"levelo://app?vid=7e68eec7-ed2f-4bd1-ae30-23701cf0c1a0","ios":"levelo://app?vid=7e68eec7-ed2f-4bd1-ae30-23701cf0c1a0"},"vehicle_type_id":"4","last_reported":1724872041,"current_range_meters":0,"station_id":"ce4bgpp2rcd13ifvqc3g","pricing_plan_id":"cebpf4jnsgd1na2vs0mg"},{"bike_id":"d20092a6-9036-4536-a2f9-c4b06cefb5e2","system_id":"levelo_inurba_marseille","lat":43.29842,"lon":5.3627,"is_reserved":false,"is_disabled":false,"rental_uris":{"android":"levelo://app?vid=d20092a6-9036-4536-a2f9-c4b06cefb5e2","ios":"levelo://app?vid=d20092a6-9036-4536-a2f9-c4b06cefb5e2"},"vehicle_type_id":"4","last_reported":1724872041,"current_range_meters":27200,"station_id":"ce4bgpp2rcd13ifvqc3g","pricing_plan_id":"cebpf4jnsgd1na2vs0mg"},{"bike_id":"97a54344-f605-40a5-a68d-7000c91c3a15","system_id":"levelo_inurba_marseille","lat":43.29841,"lon":5.36272,"is_reserved":false,"is_disabled":false,"rental_uris":{"android":"levelo://app?vid=97a54344-f605-40a5-a68d-7000c91c3a15","ios":"levelo://app?vid=97a54344-f605-40a5-a68d-7000c91c3a15"},"vehicle_type_id":"4","last_reported":1724872041,"current_range_meters":31200,"station_id":"ce4bgpp2rcd13ifvqc3g","pricing_plan_id":"cebpf4jnsgd1na2vs0mg"},{"bike_id":"a640734d-c1f7-48be-a6f8-a446f8136bc4","system_id":"levelo_inurba_marseille","lat":43.2984,"lon":5.36271,"is_reserved":false,"is_disabled":false,"rental_uris":{"android":"levelo://app?vid=a640734d-c1f7-48be-a6f8-a446f8136bc4","ios":"levelo://app?vid=a640734d-c1f7-48be-a6f8-a446f8136bc4"},"vehicle_type_id":"4","last_reported":1724872041,"current_range_meters":15200,"station_id":"ce4bgpp2rcd13ifvqc3g","pricing_plan_id":"cebpf4jnsgd1na2vs0mg"},{"bike_id":"7a2bda97-6278-4460-a699-1aeba9a44805","system_id":"levelo_inurba_marseille","lat":43.2984,"lon":5.36269,"is_reserved":false,"is_disabled":false,"rental_uris":{"android":"levelo://app?vid=7a2bda97-6278-4460-a699-1aeba9a44805","ios":"levelo://app?vid=7a2bda97-6278-4460-a699-1aeba9a44805"},"vehicle_type_id":"4","last_reported":1724872041,"current_range_meters":2000,"station_id":"ce4bgpp2rcd13ifvqc3g","pricing_plan_id":"cebpf4jnsgd1na2vs0mg"},{"bike_id":"a8adc228-52fa-41cf-b6b9-21e301e67440","system_id":"levelo_inurba_marseille","lat":43.2984,"lon":5.36268,"is_reserved":false,"is_disabled":false,"rental_uris":{"android":"levelo://app?vid=a8adc228-52fa-41cf-b6b9-21e301e67440","ios":"levelo://app?vid=a8adc228-52fa-41cf-b6b9-21e301e67440"},"vehicle_type_id":"4","last_reported":1724872041,"current_range_meters":24000,"station_id":"ce4bgpp2rcd13ifvqc3g","pricing_plan_id":"cebpf4jnsgd1na2vs0mg"},{"bike_id":"40eb974a-47a6-4ed2-a4fa-c9327c9642b4","system_id":"levelo_inurba_marseille","lat":43.29842,"lon":5.36255,"is_reserved":false,"is_disabled":false,"rental_uris":{"android":"levelo://app?vid=40eb974a-47a6-4ed2-a4fa-c9327c9642b4","ios":"levelo://app?vid=40eb974a-47a6-4ed2-a4fa-c9327c9642b4"},"vehicle_type_id":"4","last_reported":1724872041,"current_range_meters":31200,"station_id":"ce4bgpp2rcd13ifvqc3g","pricing_plan_id":"cebpf4jnsgd1na2vs0mg"},{"bike_id":"2db461f1-1223-4eef-a8de-2e8ba6ded567","system_id":"levelo_inurba_marseille","lat":43.2984,"lon":5.36266,"is_reserved":false,"is_disabled":false,"rental_uris":{"android":"levelo://app?vid=2db461f1-1223-4eef-a8de-2e8ba6ded567","ios":"levelo://app?vid=2db461f1-1223-4eef-a8de-2e8ba6ded567"},"vehicle_type_id":"4","last_reported":1724872041,"current_range_meters":22000,"station_id":"ce4bgpp2rcd13ifvqc3g","pricing_plan_id":"cebpf4jnsgd1na2vs0mg"},{"bike_id":"85862762-c273-4853-9d8c-bfb4cdd5e819","system_id":"levelo_inurba_marseille","lat":43.299243,"lon":5.37481,"is_reserved":false,"is_disabled":false,"rental_uris":{"android":"levelo://app?vid=85862762-c273-4853-9d8c-bfb4cdd5e819","ios":"levelo://app?vid=85862762-c273-4853-9d8c-bfb4cdd5e819"},"vehicle_type_id":"4","last_reported":1724872041,"current_range_meters":10400,"station_id":"ce4bgjh2rcd13ifvqbg0","pricing_plan_id":"cebpf4jnsgd1na2vs0mg"},{"bike_id":"19abd4d0-ed3e-4ca2-a12e-67049213edea","system_id":"levelo_inurba_marseille","lat":43.299243,"lon":5.37481,"is_reserved":false,"is_disabled":false,"rental_uris":{"android":"levelo://app?vid=19abd4d0-ed3e-4ca2-a12e-67049213edea","ios":"levelo://app?vid=19abd4d0-ed3e-4ca2-a12e-67049213edea"},"vehicle_type_id":"4","last_reported":1724872041,"current_range_meters":22400,"station_id":"ce4bgjh2rcd13ifvqbg0","pricing_plan_id":"cebpf4jnsgd1na2vs0mg"},{"bike_id":"06fc5c18-a92b-461c-8bf9-dc09c03a8fa4","system_id":"levelo_inurba_marseille","lat":43.299243,"lon":5.37481,"is_reserved":false,"is_disabled":false,"rental_uris":{"android":"levelo://app?vid=06fc5c18-a92b-461c-8bf9-dc09c03a8fa4","ios":"levelo://app?vid=06fc5c18-a92b-461c-8bf9-dc09c03a8fa4"},"vehicle_type_id":"4","last_reported":1724872041,"current_range_meters":14000,"station_id":"ce4bgjh2rcd13ifvqbg0","pricing_plan_id":"cebpf4jnsgd1na2vs0mg"},{"bike_id":"48bc1f1e-9af9-4a7f-93e7-950ea9d3d05a","system_id":"levelo_inurba_marseille","lat":43.311722,"lon":5.387247,"is_reserved":false,"is_disabled":false,"rental_uris":{"android":"levelo://app?vid=48bc1f1e-9af9-4a7f-93e7-950ea9d3d05a","ios":"levelo://app?vid=48bc1f1e-9af9-4a7f-93e7-950ea9d3d05a"},"vehicle_type_id":"4","last_reported":1724872041,"current_range_meters":29600,"station_id":"ce4bgv12rcd13ifvqcp0","pricing_plan_id":"cebpf4jnsgd1na2vs0mg"},{"bike_id":"523d8ebb-826b-4275-b3ca-284ac15cc797","system_id":"levelo_inurba_marseille","lat":43.299243,"lon":5.37481,"is_reserved":false,"is_disabled":false,"rental_uris":{"android":"levelo://app?vid=523d8ebb-826b-4275-b3ca-284ac15cc797","ios":"levelo://app?vid=523d8ebb-826b-4275-b3ca-284ac15cc797"},"vehicle_type_id":"4","last_reported":1724872041,"current_range_meters":3200,"station_id":"ce4bgjh2rcd13ifvqbg0","pricing_plan_id":"cebpf4jnsgd1na2vs0mg"},{"bike_id":"4faa5808-61f4-4900-a188-1196b1ffaf99","system_id":"levelo_inurba_marseille","lat":43.31163,"lon":5.38717,"is_reserved":false,"is_disabled":false,"rental_uris":{"android":"levelo://app?vid=4faa5808-61f4-4900-a188-1196b1ffaf99","ios":"levelo://app?vid=4faa5808-61f4-4900-a188-1196b1ffaf99"},"vehicle_type_id":"4","last_reported":1724872041,"current_range_meters":12000,"station_id":"ce4bgv12rcd13ifvqcp0","pricing_plan_id":"cebpf4jnsgd1na2vs0mg"},{"bike_id":"266636c4-b909-45b1-9904-17bcaf59a943","system_id":"levelo_inurba_marseille","lat":43.311722,"lon":5.387247,"is_reserved":false,"is_disabled":false,"rental_uris":{"android":"levelo://app?vid=266636c4-b909-45b1-9904-17bcaf59a943","ios":"levelo://app?vid=266636c4-b909-45b1-9904-17bcaf59a943"},"vehicle_type_id":"4","last_reported":1724872041,"current_range_meters":23600,"station_id":"ce4bgv12rcd13ifvqcp0","pricing_plan_id":"cebpf4jnsgd1na2vs0mg"},{"bike_id":"fc25ead7-93b3-4106-9e70-f7cedb47e5e9","system_id":"levelo_inurba_marseille","lat":43.311722,"lon":5.387247,"is_reserved":false,"is_disabled":false,"rental_uris":{"android":"levelo://app?vid=fc25ead7-93b3-4106-9e70-f7cedb47e5e9","ios":"levelo://app?vid=fc25ead7-93b3-4106-9e70-f7cedb47e5e9"},"vehicle_type_id":"4","last_reported":1724872041,"current_range_meters":4800,"station_id":"ce4bgv12rcd13ifvqcp0","pricing_plan_id":"cebpf4jnsgd1na2vs0mg"},{"bike_id":"6664a095-6bf8-4a0d-81f5-922960d441d2","system_id":"levelo_inurba_marseille","lat":43.311722,"lon":5.387247,"is_reserved":false,"is_disabled":false,"rental_uris":{"android":"levelo://app?vid=6664a095-6bf8-4a0d-81f5-922960d441d2","ios":"levelo://app?vid=6664a095-6bf8-4a0d-81f5-922960d441d2"},"vehicle_type_id":"4","last_reported":1724872041,"current_range_meters":7200,"station_id":"ce4bgv12rcd13ifvqcp0","pricing_plan_id":"cebpf4jnsgd1na2vs0mg"},{"bike_id":"8defb2b2-65a3-4286-9745-0b32a3ba3b1e","system_id":"levelo_inurba_marseille","lat":43.311722,"lon":5.387247,"is_reserved":false,"is_disabled":false,"rental_uris":{"android":"levelo://app?vid=8defb2b2-65a3-4286-9745-0b32a3ba3b1e","ios":"levelo://app?vid=8defb2b2-65a3-4286-9745-0b32a3ba3b1e"},"vehicle_type_id":"4","last_reported":1724872041,"current_range_meters":7600,"station_id":"ce4bgv12rcd13ifvqcp0","pricing_plan_id":"cebpf4jnsgd1na2vs0mg"},{"bike_id":"17124fdd-335d-4d20-a3d7-fe792f5a9d01","system_id":"levelo_inurba_marseille","lat":43.311722,"lon":5.387247,"is_reserved":false,"is_disabled":false,"rental_uris":{"android":"levelo://app?vid=17124fdd-335d-4d20-a3d7-fe792f5a9d01","ios":"levelo://app?vid=17124fdd-335d-4d20-a3d7-fe792f5a9d01"},"vehicle_type_id":"4","last_reported":1724872041,"current_range_meters":29200,"station_id":"ce4bgv12rcd13ifvqcp0","pricing_plan_id":"cebpf4jnsgd1na2vs0mg"},{"bike_id":"e05bd1f6-931f-4c95-86c8-86c9fc96d24c","system_id":"levelo_inurba_marseille","lat":43.31183,"lon":5.38721,"is_reserved":false,"is_disabled":false,"rental_uris":{"android":"levelo://app?vid=e05bd1f6-931f-4c95-86c8-86c9fc96d24c","ios":"levelo://app?vid=e05bd1f6-931f-4c95-86c8-86c9fc96d24c"},"vehicle_type_id":"4","last_reported":1724872041,"current_range_meters":9200,"station_id":"ce4bgv12rcd13ifvqcp0","pricing_plan_id":"cebpf4jnsgd1na2vs0mg"},{"bike_id":"a807fbbe-85df-4ea3-9a3b-28f7ae6e70ba","system_id":"levelo_inurba_marseille","lat":43.311722,"lon":5.387247,"is_reserved":false,"is_disabled":false,"rental_uris":{"android":"levelo://app?vid=a807fbbe-85df-4ea3-9a3b-28f7ae6e70ba","ios":"levelo://app?vid=a807fbbe-85df-4ea3-9a3b-28f7ae6e70ba"},"vehicle_type_id":"4","last_reported":1724872041,"current_range_meters":14000,"station_id":"ce4bgv12rcd13ifvqcp0","pricing_plan_id":"cebpf4jnsgd1na2vs0mg"},{"bike_id":"c45e7e3d-6891-4960-ba67-bb5638f661aa","system_id":"levelo_inurba_marseille","lat":43.311722,"lon":5.387247,"is_reserved":false,"is_disabled":false,"rental_uris":{"android":"levelo://app?vid=c45e7e3d-6891-4960-ba67-bb5638f661aa","ios":"levelo://app?vid=c45e7e3d-6891-4960-ba67-bb5638f661aa"},"vehicle_type_id":"4","last_reported":1724872041,"current_range_meters":25600,"station_id":"ce4bgv12rcd13ifvqcp0","pricing_plan_id":"cebpf4jnsgd1na2vs0mg"},{"bike_id":"1f1e35cc-70db-4665-b939-ddcb645b604c","system_id":"levelo_inurba_marseille","lat":43.311722,"lon":5.387247,"is_reserved":false,"is_disabled":false,"rental_uris":{"android":"levelo://app?vid=1f1e35cc-70db-4665-b939-ddcb645b604c","ios":"levelo://app?vid=1f1e35cc-70db-4665-b939-ddcb645b604c"},"vehicle_type_id":"4","last_reported":1724872041,"current_range_meters":2000,"station_id":"ce4bgv12rcd13ifvqcp0","pricing_plan_id":"cebpf4jnsgd1na2vs0mg"},{"bike_id":"fa638f47-30d7-4b0e-b3e4-4ce37b5af382","system_id":"levelo_inurba_marseille","lat":43.31164,"lon":5.3872,"is_reserved":false,"is_disabled":false,"rental_uris":{"android":"levelo://app?vid=fa638f47-30d7-4b0e-b3e4-4ce37b5af382","ios":"levelo://app?vid=fa638f47-30d7-4b0e-b3e4-4ce37b5af382"},"vehicle_type_id":"4","last_reported":1724872041,"current_range_meters":8000,"station_id":"ce4bgv12rcd13ifvqcp0","pricing_plan_id":"cebpf4jnsgd1na2vs0mg"},{"bike_id":"f5390cb0-a73b-443a-96da-0a600f72bc66","system_id":"levelo_inurba_marseille","lat":43.311722,"lon":5.387247,"is_reserved":false,"is_disabled":false,"rental_uris":{"android":"levelo://app?vid=f5390cb0-a73b-443a-96da-0a600f72bc66","ios":"levelo://app?vid=f5390cb0-a73b-443a-96da-0a600f72bc66"},"vehicle_type_id":"4","last_reported":1724872041,"current_range_meters":31200,"station_id":"ce4bgv12rcd13ifvqcp0","pricing_plan_id":"cebpf4jnsgd1na2vs0mg"},{"bike_id":"c492973b-af61-4677-b468-3d8ae0552d11","system_id":"levelo_inurba_marseille","lat":43.311722,"lon":5.387247,"is_reserved":false,"is_disabled":false,"rental_uris":{"android":"levelo://app?vid=c492973b-af61-4677-b468-3d8ae0552d11","ios":"levelo://app?vid=c492973b-af61-4677-b468-3d8ae0552d11"},"vehicle_type_id":"4","last_reported":1724872041,"current_range_meters":6000,"station_id":"ce4bgv12rcd13ifvqcp0","pricing_plan_id":"cebpf4jnsgd1na2vs0mg"},{"bike_id":"53a47cb3-8d06-4ed5-b279-b10e3eb58699","system_id":"levelo_inurba_marseille","lat":43.311722,"lon":5.387247,"is_reserved":false,"is_disabled":false,"rental_uris":{"android":"levelo://app?vid=53a47cb3-8d06-4ed5-b279-b10e3eb58699","ios":"levelo://app?vid=53a47cb3-8d06-4ed5-b279-b10e3eb58699"},"vehicle_type_id":"4","last_reported":1724872041,"current_range_meters":28800,"station_id":"ce4bgv12rcd13ifvqcp0","pricing_plan_id":"cebpf4jnsgd1na2vs0mg"},{"bike_id":"35f00267-adab-4f37-9d3b-29b291ead2ae","system_id":"levelo_inurba_marseille","lat":43.311722,"lon":5.387247,"is_reserved":false,"is_disabled":false,"rental_uris":{"android":"levelo://app?vid=35f00267-adab-4f37-9d3b-29b291ead2ae","ios":"levelo://app?vid=35f00267-adab-4f37-9d3b-29b291ead2ae"},"vehicle_type_id":"4","last_reported":1724872041,"current_range_meters":26000,"station_id":"ce4bgv12rcd13ifvqcp0","pricing_plan_id":"cebpf4jnsgd1na2vs0mg"},{"bike_id":"68c9102f-ef7a-4d3b-87c2-977cfa00b024","system_id":"levelo_inurba_marseille","lat":43.311722,"lon":5.387247,"is_reserved":false,"is_disabled":false,"rental_uris":{"android":"levelo://app?vid=68c9102f-ef7a-4d3b-87c2-977cfa00b024","ios":"levelo://app?vid=68c9102f-ef7a-4d3b-87c2-977cfa00b024"},"vehicle_type_id":"4","last_reported":1724872041,"current_range_meters":18000,"station_id":"ce4bgv12rcd13ifvqcp0","pricing_plan_id":"cebpf4jnsgd1na2vs0mg"},{"bike_id":"13e6d1e4-c207-4347-9f8e-d1afa9356444","system_id":"levelo_inurba_marseille","lat":43.311722,"lon":5.387247,"is_reserved":false,"is_disabled":false,"rental_uris":{"android":"levelo://app?vid=13e6d1e4-c207-4347-9f8e-d1afa9356444","ios":"levelo://app?vid=13e6d1e4-c207-4347-9f8e-d1afa9356444"},"vehicle_type_id":"4","last_reported":1724872041,"current_range_meters":13200,"station_id":"ce4bgv12rcd13ifvqcp0","pricing_plan_id":"cebpf4jnsgd1na2vs0mg"},{"bike_id":"0fc9e82b-4433-492f-9fc9-44a41743d406","system_id":"levelo_inurba_marseille","lat":43.297848,"lon":5.364222,"is_reserved":false,"is_disabled":false,"rental_uris":{"android":"levelo://app?vid=0fc9e82b-4433-492f-9fc9-44a41743d406","ios":"levelo://app?vid=0fc9e82b-4433-492f-9fc9-44a41743d406"},"vehicle_type_id":"4","last_reported":1724872041,"current_range_meters":15600,"station_id":"ce4bgpp2rcd13ifvqc3g","pricing_plan_id":"cebpf4jnsgd1na2vs0mg"},{"bike_id":"56ffdc0f-29f6-467f-ac72-00e3ee45e8fb","system_id":"levelo_inurba_marseille","lat":43.301417,"lon":5.3809,"is_reserved":false,"is_disabled":false,"rental_uris":{"android":"levelo://app?vid=56ffdc0f-29f6-467f-ac72-00e3ee45e8fb","ios":"levelo://app?vid=56ffdc0f-29f6-467f-ac72-00e3ee45e8fb"},"vehicle_type_id":"4","last_reported":1724872041,"current_range_meters":17600,"station_id":"ce4bgjp2rcd13ifvqbh0","pricing_plan_id":"cebpf4jnsgd1na2vs0mg"},{"bike_id":"a5502278-31df-4d51-b891-079f22028edb","system_id":"levelo_inurba_marseille","lat":43.29792,"lon":5.37103,"is_reserved":false,"is_disabled":false,"rental_uris":{"android":"levelo://app?vid=a5502278-31df-4d51-b891-079f22028edb","ios":"levelo://app?vid=a5502278-31df-4d51-b891-079f22028edb"},"vehicle_type_id":"4","last_reported":1724872041,"current_range_meters":0,"station_id":"ce4bgop2rcd13ifvqc1g","pricing_plan_id":"cebpf4jnsgd1na2vs0mg"},{"bike_id":"58bf6de2-6738-4893-b4b6-0b79a33cf5b8","system_id":"levelo_inurba_marseille","lat":43.322891,"lon":5.382614,"is_reserved":false,"is_disabled":false,"rental_uris":{"android":"levelo://app?vid=58bf6de2-6738-4893-b4b6-0b79a33cf5b8","ios":"levelo://app?vid=58bf6de2-6738-4893-b4b6-0b79a33cf5b8"},"vehicle_type_id":"4","last_reported":1724872041,"current_range_meters":28400,"station_id":"ce4bhr12rcd13ifvqhqg","pricing_plan_id":"cebpf4jnsgd1na2vs0mg"},{"bike_id":"4fc712ed-7b17-44d1-b082-d28f06dbb284","system_id":"levelo_inurba_marseille","lat":43.297774,"lon":5.370875,"is_reserved":false,"is_disabled":false,"rental_uris":{"android":"levelo://app?vid=4fc712ed-7b17-44d1-b082-d28f06dbb284","ios":"levelo://app?vid=4fc712ed-7b17-44d1-b082-d28f06dbb284"},"vehicle_type_id":"4","last_reported":1724872041,"current_range_meters":6800,"station_id":"ce4bgop2rcd13ifvqc1g","pricing_plan_id":"cebpf4jnsgd1na2vs0mg"},{"bike_id":"d129f86d-42e6-4b77-935e-478b9ee74b4e","system_id":"levelo_inurba_marseille","lat":43.322912,"lon":5.382621,"is_reserved":false,"is_disabled":false,"rental_uris":{"android":"levelo://app?vid=d129f86d-42e6-4b77-935e-478b9ee74b4e","ios":"levelo://app?vid=d129f86d-42e6-4b77-935e-478b9ee74b4e"},"vehicle_type_id":"4","last_reported":1724872041,"current_range_meters":15200,"station_id":"ce4bhr12rcd13ifvqhqg","pricing_plan_id":"cebpf4jnsgd1na2vs0mg"},{"bike_id":"f8b19fce-1bfe-4240-bf1d-c17005e08c13","system_id":"levelo_inurba_marseille","lat":43.322872,"lon":5.382756,"is_reserved":false,"is_disabled":false,"rental_uris":{"android":"levelo://app?vid=f8b19fce-1bfe-4240-bf1d-c17005e08c13","ios":"levelo://app?vid=f8b19fce-1bfe-4240-bf1d-c17005e08c13"},"vehicle_type_id":"4","last_reported":1724872041,"current_range_meters":31200,"station_id":"ce4bhr12rcd13ifvqhqg","pricing_plan_id":"cebpf4jnsgd1na2vs0mg"},{"bike_id":"61462b0b-1e37-4853-8103-a71558e89f77","system_id":"levelo_inurba_marseille","lat":43.3229,"lon":5.3827,"is_reserved":false,"is_disabled":false,"rental_uris":{"android":"levelo://app?vid=61462b0b-1e37-4853-8103-a71558e89f77","ios":"levelo://app?vid=61462b0b-1e37-4853-8103-a71558e89f77"},"vehicle_type_id":"4","last_reported":1724872041,"current_range_meters":6800,"station_id":"ce4bhr12rcd13ifvqhqg","pricing_plan_id":"cebpf4jnsgd1na2vs0mg"},{"bike_id":"cb73b66e-dfa6-4f93-80b9-a70c2f549e78","system_id":"levelo_inurba_marseille","lat":43.32295,"lon":5.38265,"is_reserved":false,"is_disabled":false,"rental_uris":{"android":"levelo://app?vid=cb73b66e-dfa6-4f93-80b9-a70c2f549e78","ios":"levelo://app?vid=cb73b66e-dfa6-4f93-80b9-a70c2f549e78"},"vehicle_type_id":"4","last_reported":1724872041,"current_range_meters":2800,"station_id":"ce4bhr12rcd13ifvqhqg","pricing_plan_id":"cebpf4jnsgd1na2vs0mg"},{"bike_id":"8bb995aa-adf7-4630-8396-4564f428bebb","system_id":"levelo_inurba_marseille","lat":43.322872,"lon":5.382756,"is_reserved":false,"is_disabled":false,"rental_uris":{"android":"levelo://app?vid=8bb995aa-adf7-4630-8396-4564f428bebb","ios":"levelo://app?vid=8bb995aa-adf7-4630-8396-4564f428bebb"},"vehicle_type_id":"4","last_reported":1724872041,"current_range_meters":22400,"station_id":"ce4bhr12rcd13ifvqhqg","pricing_plan_id":"cebpf4jnsgd1na2vs0mg"},{"bike_id":"44b694c3-cb61-44bd-8ac7-572678037941","system_id":"levelo_inurba_marseille","lat":43.32297,"lon":5.38267,"is_reserved":false,"is_disabled":false,"rental_uris":{"android":"levelo://app?vid=44b694c3-cb61-44bd-8ac7-572678037941","ios":"levelo://app?vid=44b694c3-cb61-44bd-8ac7-572678037941"},"vehicle_type_id":"4","last_reported":1724872041,"current_range_meters":10800,"station_id":"ce4bhr12rcd13ifvqhqg","pricing_plan_id":"cebpf4jnsgd1na2vs0mg"},{"bike_id":"dc2b745e-dac2-4e79-abbf-71bc17901496","system_id":"levelo_inurba_marseille","lat":43.297163,"lon":5.365866,"is_reserved":false,"is_disabled":false,"rental_uris":{"android":"levelo://app?vid=dc2b745e-dac2-4e79-abbf-71bc17901496","ios":"levelo://app?vid=dc2b745e-dac2-4e79-abbf-71bc17901496"},"vehicle_type_id":"4","last_reported":1724872041,"current_range_meters":27200,"station_id":"ce4bgn12rcd13ifvqbt0","pricing_plan_id":"cebpf4jnsgd1na2vs0mg"},{"bike_id":"6e2cfcff-d0dd-4023-9fb3-98c4401046d7","system_id":"levelo_inurba_marseille","lat":43.297163,"lon":5.365866,"is_reserved":false,"is_disabled":false,"rental_uris":{"android":"levelo://app?vid=6e2cfcff-d0dd-4023-9fb3-98c4401046d7","ios":"levelo://app?vid=6e2cfcff-d0dd-4023-9fb3-98c4401046d7"},"vehicle_type_id":"4","last_reported":1724872041,"current_range_meters":400,"station_id":"ce4bgn12rcd13ifvqbt0","pricing_plan_id":"cebpf4jnsgd1na2vs0mg"},{"bike_id":"aa05f4b9-1ea3-4295-9330-0e1aa070c13d","system_id":"levelo_inurba_marseille","lat":43.297163,"lon":5.365866,"is_reserved":false,"is_disabled":false,"rental_uris":{"android":"levelo://app?vid=aa05f4b9-1ea3-4295-9330-0e1aa070c13d","ios":"levelo://app?vid=aa05f4b9-1ea3-4295-9330-0e1aa070c13d"},"vehicle_type_id":"4","last_reported":1724872041,"current_range_meters":17200,"station_id":"ce4bgn12rcd13ifvqbt0","pricing_plan_id":"cebpf4jnsgd1na2vs0mg"},{"bike_id":"95b9c408-741c-4117-965e-58c6e0ac2ff4","system_id":"levelo_inurba_marseille","lat":43.297163,"lon":5.365866,"is_reserved":false,"is_disabled":false,"rental_uris":{"android":"levelo://app?vid=95b9c408-741c-4117-965e-58c6e0ac2ff4","ios":"levelo://app?vid=95b9c408-741c-4117-965e-58c6e0ac2ff4"},"vehicle_type_id":"4","last_reported":1724872041,"current_range_meters":800,"station_id":"ce4bgn12rcd13ifvqbt0","pricing_plan_id":"cebpf4jnsgd1na2vs0mg"},{"bike_id":"d119d41d-5aa7-4ca4-be83-e5634280489f","system_id":"levelo_inurba_marseille","lat":43.297163,"lon":5.365866,"is_reserved":false,"is_disabled":false,"rental_uris":{"android":"levelo://app?vid=d119d41d-5aa7-4ca4-be83-e5634280489f","ios":"levelo://app?vid=d119d41d-5aa7-4ca4-be83-e5634280489f"},"vehicle_type_id":"4","last_reported":1724872041,"current_range_meters":26000,"station_id":"ce4bgn12rcd13ifvqbt0","pricing_plan_id":"cebpf4jnsgd1na2vs0mg"},{"bike_id":"f21bdf0c-2664-4850-9c60-467f255583f5","system_id":"levelo_inurba_marseille","lat":43.297163,"lon":5.365866,"is_reserved":false,"is_disabled":false,"rental_uris":{"android":"levelo://app?vid=f21bdf0c-2664-4850-9c60-467f255583f5","ios":"levelo://app?vid=f21bdf0c-2664-4850-9c60-467f255583f5"},"vehicle_type_id":"4","last_reported":1724872041,"current_range_meters":30000,"station_id":"ce4bgn12rcd13ifvqbt0","pricing_plan_id":"cebpf4jnsgd1na2vs0mg"},{"bike_id":"634068f8-6737-477d-ba5b-c45daf88a64c","system_id":"levelo_inurba_marseille","lat":43.297163,"lon":5.365866,"is_reserved":false,"is_disabled":false,"rental_uris":{"android":"levelo://app?vid=634068f8-6737-477d-ba5b-c45daf88a64c","ios":"levelo://app?vid=634068f8-6737-477d-ba5b-c45daf88a64c"},"vehicle_type_id":"4","last_reported":1724872041,"current_range_meters":15600,"station_id":"ce4bgn12rcd13ifvqbt0","pricing_plan_id":"cebpf4jnsgd1na2vs0mg"},{"bike_id":"0e5cd4b6-99f7-4f1e-bd0b-407bb80651e0","system_id":"levelo_inurba_marseille","lat":43.297163,"lon":5.365866,"is_reserved":false,"is_disabled":false,"rental_uris":{"android":"levelo://app?vid=0e5cd4b6-99f7-4f1e-bd0b-407bb80651e0","ios":"levelo://app?vid=0e5cd4b6-99f7-4f1e-bd0b-407bb80651e0"},"vehicle_type_id":"4","last_reported":1724872041,"current_range_meters":14800,"station_id":"ce4bgn12rcd13ifvqbt0","pricing_plan_id":"cebpf4jnsgd1na2vs0mg"},{"bike_id":"98595f4a-6d79-4292-9f3e-9317befa4643","system_id":"levelo_inurba_marseille","lat":43.297163,"lon":5.365866,"is_reserved":false,"is_disabled":false,"rental_uris":{"android":"levelo://app?vid=98595f4a-6d79-4292-9f3e-9317befa4643","ios":"levelo://app?vid=98595f4a-6d79-4292-9f3e-9317befa4643"},"vehicle_type_id":"4","last_reported":1724872041,"current_range_meters":0,"station_id":"ce4bgn12rcd13ifvqbt0","pricing_plan_id":"cebpf4jnsgd1na2vs0mg"},{"bike_id":"a1b04318-c23e-4974-a821-bf33c34ad832","system_id":"levelo_inurba_marseille","lat":43.297163,"lon":5.365866,"is_reserved":false,"is_disabled":false,"rental_uris":{"android":"levelo://app?vid=a1b04318-c23e-4974-a821-bf33c34ad832","ios":"levelo://app?vid=a1b04318-c23e-4974-a821-bf33c34ad832"},"vehicle_type_id":"4","last_reported":1724872041,"current_range_meters":6400,"station_id":"ce4bgn12rcd13ifvqbt0","pricing_plan_id":"cebpf4jnsgd1na2vs0mg"},{"bike_id":"2d4de4d1-d091-44de-bb3b-0879292d20d0","system_id":"levelo_inurba_marseille","lat":43.297163,"lon":5.365866,"is_reserved":false,"is_disabled":false,"rental_uris":{"android":"levelo://app?vid=2d4de4d1-d091-44de-bb3b-0879292d20d0","ios":"levelo://app?vid=2d4de4d1-d091-44de-bb3b-0879292d20d0"},"vehicle_type_id":"4","last_reported":1724872041,"current_range_meters":3600,"station_id":"ce4bgn12rcd13ifvqbt0","pricing_plan_id":"cebpf4jnsgd1na2vs0mg"},{"bike_id":"bc4313de-c8b8-4f30-912d-eccd1ce66687","system_id":"levelo_inurba_marseille","lat":43.29669,"lon":5.36144,"is_reserved":false,"is_disabled":false,"rental_uris":{"android":"levelo://app?vid=bc4313de-c8b8-4f30-912d-eccd1ce66687","ios":"levelo://app?vid=bc4313de-c8b8-4f30-912d-eccd1ce66687"},"vehicle_type_id":"4","last_reported":1724872041,"current_range_meters":15200,"station_id":"","pricing_plan_id":"cebpf4jnsgd1na2vs0mg"},{"bike_id":"923c4509-9c9f-429e-b2d1-af4450eb91c7","system_id":"levelo_inurba_marseille","lat":43.29582,"lon":5.36749,"is_reserved":false,"is_disabled":false,"rental_uris":{"android":"levelo://app?vid=923c4509-9c9f-429e-b2d1-af4450eb91c7","ios":"levelo://app?vid=923c4509-9c9f-429e-b2d1-af4450eb91c7"},"vehicle_type_id":"4","last_reported":1724872041,"current_range_meters":13600,"station_id":"ce4bgph2rcd13ifvqc2g","pricing_plan_id":"cebpf4jnsgd1na2vs0mg"},{"bike_id":"cac11ae9-b3b8-42c7-bf3e-3829e8702fde","system_id":"levelo_inurba_marseille","lat":43.29578,"lon":5.3674,"is_reserved":false,"is_disabled":false,"rental_uris":{"android":"levelo://app?vid=cac11ae9-b3b8-42c7-bf3e-3829e8702fde","ios":"levelo://app?vid=cac11ae9-b3b8-42c7-bf3e-3829e8702fde"},"vehicle_type_id":"4","last_reported":1724872041,"current_range_meters":31200,"station_id":"ce4bgph2rcd13ifvqc2g","pricing_plan_id":"cebpf4jnsgd1na2vs0mg"},{"bike_id":"3e8f1e3d-7abf-4fac-8cc3-f39244d11409","system_id":"levelo_inurba_marseille","lat":43.29573,"lon":5.367355,"is_reserved":false,"is_disabled":false,"rental_uris":{"android":"levelo://app?vid=3e8f1e3d-7abf-4fac-8cc3-f39244d11409","ios":"levelo://app?vid=3e8f1e3d-7abf-4fac-8cc3-f39244d11409"},"vehicle_type_id":"4","last_reported":1724872041,"current_range_meters":20800,"station_id":"ce4bgph2rcd13ifvqc2g","pricing_plan_id":"cebpf4jnsgd1na2vs0mg"},{"bike_id":"d3a02b3f-8216-4df6-9b37-0317771f9621","system_id":"levelo_inurba_marseille","lat":43.2961,"lon":5.37218,"is_reserved":false,"is_disabled":false,"rental_uris":{"android":"levelo://app?vid=d3a02b3f-8216-4df6-9b37-0317771f9621","ios":"levelo://app?vid=d3a02b3f-8216-4df6-9b37-0317771f9621"},"vehicle_type_id":"4","last_reported":1724872041,"current_range_meters":0,"station_id":"","pricing_plan_id":"cebpf4jnsgd1na2vs0mg"},{"bike_id":"302098d5-6e56-4372-8517-675a72a81cfa","system_id":"levelo_inurba_marseille","lat":43.296921,"lon":5.376579,"is_reserved":false,"is_disabled":false,"rental_uris":{"android":"levelo://app?vid=302098d5-6e56-4372-8517-675a72a81cfa","ios":"levelo://app?vid=302098d5-6e56-4372-8517-675a72a81cfa"},"vehicle_type_id":"4","last_reported":1724872041,"current_range_meters":30400,"station_id":"ce4bgkh2rcd13ifvqbl0","pricing_plan_id":"cebpf4jnsgd1na2vs0mg"},{"bike_id":"e491dec4-539c-4db4-be92-b934653758f4","system_id":"levelo_inurba_marseille","lat":43.296921,"lon":5.376579,"is_reserved":false,"is_disabled":false,"rental_uris":{"android":"levelo://app?vid=e491dec4-539c-4db4-be92-b934653758f4","ios":"levelo://app?vid=e491dec4-539c-4db4-be92-b934653758f4"},"vehicle_type_id":"4","last_reported":1724872041,"current_range_meters":9600,"station_id":"ce4bgkh2rcd13ifvqbl0","pricing_plan_id":"cebpf4jnsgd1na2vs0mg"},{"bike_id":"2554c7a1-824b-4119-bcfe-04a96da3f558","system_id":"levelo_inurba_marseille","lat":43.296921,"lon":5.376579,"is_reserved":false,"is_disabled":false,"rental_uris":{"android":"levelo://app?vid=2554c7a1-824b-4119-bcfe-04a96da3f558","ios":"levelo://app?vid=2554c7a1-824b-4119-bcfe-04a96da3f558"},"vehicle_type_id":"4","last_reported":1724872041,"current_range_meters":2400,"station_id":"ce4bgkh2rcd13ifvqbl0","pricing_plan_id":"cebpf4jnsgd1na2vs0mg"},{"bike_id":"c55bef2c-7a25-42cd-91ad-97da3f5555d4","system_id":"levelo_inurba_marseille","lat":43.309589,"lon":5.390258,"is_reserved":false,"is_disabled":false,"rental_uris":{"android":"levelo://app?vid=c55bef2c-7a25-42cd-91ad-97da3f5555d4","ios":"levelo://app?vid=c55bef2c-7a25-42cd-91ad-97da3f5555d4"},"vehicle_type_id":"4","last_reported":1724872041,"current_range_meters":21200,"station_id":"ce4bgup2rcd13ifvqco0","pricing_plan_id":"cebpf4jnsgd1na2vs0mg"},{"bike_id":"56755cde-3b4a-4a77-99a1-8b136fac8fdb","system_id":"levelo_inurba_marseille","lat":43.309589,"lon":5.390258,"is_reserved":false,"is_disabled":false,"rental_uris":{"android":"levelo://app?vid=56755cde-3b4a-4a77-99a1-8b136fac8fdb","ios":"levelo://app?vid=56755cde-3b4a-4a77-99a1-8b136fac8fdb"},"vehicle_type_id":"4","last_reported":1724872041,"current_range_meters":31200,"station_id":"ce4bgup2rcd13ifvqco0","pricing_plan_id":"cebpf4jnsgd1na2vs0mg"},{"bike_id":"500cdb0c-f1bb-4690-ba5a-6cf441cc0f91","system_id":"levelo_inurba_marseille","lat":43.309589,"lon":5.390258,"is_reserved":false,"is_disabled":false,"rental_uris":{"android":"levelo://app?vid=500cdb0c-f1bb-4690-ba5a-6cf441cc0f91","ios":"levelo://app?vid=500cdb0c-f1bb-4690-ba5a-6cf441cc0f91"},"vehicle_type_id":"4","last_reported":1724872041,"current_range_meters":4800,"station_id":"ce4bgup2rcd13ifvqco0","pricing_plan_id":"cebpf4jnsgd1na2vs0mg"},{"bike_id":"5fa9117f-4363-4184-9fc1-e2a1fc25eb6c","system_id":"levelo_inurba_marseille","lat":43.309589,"lon":5.390258,"is_reserved":false,"is_disabled":false,"rental_uris":{"android":"levelo://app?vid=5fa9117f-4363-4184-9fc1-e2a1fc25eb6c","ios":"levelo://app?vid=5fa9117f-4363-4184-9fc1-e2a1fc25eb6c"},"vehicle_type_id":"4","last_reported":1724872041,"current_range_meters":20000,"station_id":"ce4bgup2rcd13ifvqco0","pricing_plan_id":"cebpf4jnsgd1na2vs0mg"},{"bike_id":"ac3358c9-a01c-4b27-bb92-4e51d5b92a55","system_id":"levelo_inurba_marseille","lat":43.309589,"lon":5.390258,"is_reserved":false,"is_disabled":false,"rental_uris":{"android":"levelo://app?vid=ac3358c9-a01c-4b27-bb92-4e51d5b92a55","ios":"levelo://app?vid=ac3358c9-a01c-4b27-bb92-4e51d5b92a55"},"vehicle_type_id":"4","last_reported":1724872041,"current_range_meters":3200,"station_id":"ce4bgup2rcd13ifvqco0","pricing_plan_id":"cebpf4jnsgd1na2vs0mg"},{"bike_id":"40365b9f-1958-44ae-acf0-4cb6d08c8829","system_id":"levelo_inurba_marseille","lat":43.309589,"lon":5.390258,"is_reserved":false,"is_disabled":false,"rental_uris":{"android":"levelo://app?vid=40365b9f-1958-44ae-acf0-4cb6d08c8829","ios":"levelo://app?vid=40365b9f-1958-44ae-acf0-4cb6d08c8829"},"vehicle_type_id":"4","last_reported":1724872041,"current_range_meters":11200,"station_id":"ce4bgup2rcd13ifvqco0","pricing_plan_id":"cebpf4jnsgd1na2vs0mg"},{"bike_id":"b3ca5ad4-8344-4a39-9569-0ff144506427","system_id":"levelo_inurba_marseille","lat":43.30953,"lon":5.39037,"is_reserved":false,"is_disabled":false,"rental_uris":{"android":"levelo://app?vid=b3ca5ad4-8344-4a39-9569-0ff144506427","ios":"levelo://app?vid=b3ca5ad4-8344-4a39-9569-0ff144506427"},"vehicle_type_id":"4","last_reported":1724872041,"current_range_meters":3200,"station_id":"ce4bgup2rcd13ifvqco0","pricing_plan_id":"cebpf4jnsgd1na2vs0mg"},{"bike_id":"73d721f2-ba3a-4c16-984a-5dc9f039c877","system_id":"levelo_inurba_marseille","lat":43.309589,"lon":5.390258,"is_reserved":false,"is_disabled":false,"rental_uris":{"android":"levelo://app?vid=73d721f2-ba3a-4c16-984a-5dc9f039c877","ios":"levelo://app?vid=73d721f2-ba3a-4c16-984a-5dc9f039c877"},"vehicle_type_id":"4","last_reported":1724872041,"current_range_meters":22400,"station_id":"ce4bgup2rcd13ifvqco0","pricing_plan_id":"cebpf4jnsgd1na2vs0mg"},{"bike_id":"c05a4e61-42fa-45ca-90a4-4ed5ba51528e","system_id":"levelo_inurba_marseille","lat":43.30951,"lon":5.39038,"is_reserved":false,"is_disabled":false,"rental_uris":{"android":"levelo://app?vid=c05a4e61-42fa-45ca-90a4-4ed5ba51528e","ios":"levelo://app?vid=c05a4e61-42fa-45ca-90a4-4ed5ba51528e"},"vehicle_type_id":"4","last_reported":1724872041,"current_range_meters":30000,"station_id":"ce4bgup2rcd13ifvqco0","pricing_plan_id":"cebpf4jnsgd1na2vs0mg"},{"bike_id":"9756df72-44cb-4c67-9abb-474c96c6b353","system_id":"levelo_inurba_marseille","lat":43.309589,"lon":5.390258,"is_reserved":false,"is_disabled":false,"rental_uris":{"android":"levelo://app?vid=9756df72-44cb-4c67-9abb-474c96c6b353","ios":"levelo://app?vid=9756df72-44cb-4c67-9abb-474c96c6b353"},"vehicle_type_id":"4","last_reported":1724872041,"current_range_meters":7200,"station_id":"ce4bgup2rcd13ifvqco0","pricing_plan_id":"cebpf4jnsgd1na2vs0mg"},{"bike_id":"de0fd9a2-0474-46bc-8027-11351ca63307","system_id":"levelo_inurba_marseille","lat":43.309589,"lon":5.390258,"is_reserved":false,"is_disabled":false,"rental_uris":{"android":"levelo://app?vid=de0fd9a2-0474-46bc-8027-11351ca63307","ios":"levelo://app?vid=de0fd9a2-0474-46bc-8027-11351ca63307"},"vehicle_type_id":"4","last_reported":1724872041,"current_range_meters":16400,"station_id":"ce4bgup2rcd13ifvqco0","pricing_plan_id":"cebpf4jnsgd1na2vs0mg"},{"bike_id":"9e500512-e61b-4798-9f3d-bfde5855240f","system_id":"levelo_inurba_marseille","lat":43.317557,"lon":5.390173,"is_reserved":false,"is_disabled":false,"rental_uris":{"android":"levelo://app?vid=9e500512-e61b-4798-9f3d-bfde5855240f","ios":"levelo://app?vid=9e500512-e61b-4798-9f3d-bfde5855240f"},"vehicle_type_id":"4","last_reported":1724872041,"current_range_meters":17600,"station_id":"ce4bhqp2rcd13ifvqhng","pricing_plan_id":"cebpf4jnsgd1na2vs0mg"},{"bike_id":"8c94cad1-07f7-4620-933b-898352702753","system_id":"levelo_inurba_marseille","lat":43.317557,"lon":5.390173,"is_reserved":false,"is_disabled":false,"rental_uris":{"android":"levelo://app?vid=8c94cad1-07f7-4620-933b-898352702753","ios":"levelo://app?vid=8c94cad1-07f7-4620-933b-898352702753"},"vehicle_type_id":"4","last_reported":1724872041,"current_range_meters":6800,"station_id":"ce4bhqp2rcd13ifvqhng","pricing_plan_id":"cebpf4jnsgd1na2vs0mg"},{"bike_id":"32b8d953-194e-43c7-adc1-6da6cf76dc94","system_id":"levelo_inurba_marseille","lat":43.29565,"lon":5.36101,"is_reserved":false,"is_disabled":false,"rental_uris":{"android":"levelo://app?vid=32b8d953-194e-43c7-adc1-6da6cf76dc94","ios":"levelo://app?vid=32b8d953-194e-43c7-adc1-6da6cf76dc94"},"vehicle_type_id":"4","last_reported":1724872041,"current_range_meters":28400,"station_id":"","pricing_plan_id":"cebpf4jnsgd1na2vs0mg"},{"bike_id":"f71d9d25-d0cd-44d1-a066-a5e6a1396957","system_id":"levelo_inurba_marseille","lat":43.29727,"lon":5.37856,"is_reserved":false,"is_disabled":false,"rental_uris":{"android":"levelo://app?vid=f71d9d25-d0cd-44d1-a066-a5e6a1396957","ios":"levelo://app?vid=f71d9d25-d0cd-44d1-a066-a5e6a1396957"},"vehicle_type_id":"4","last_reported":1724872041,"current_range_meters":6000,"station_id":"","pricing_plan_id":"cebpf4jnsgd1na2vs0mg"},{"bike_id":"6458ec4a-0dd0-4415-bfaa-f9ea10f1be00","system_id":"levelo_inurba_marseille","lat":43.29812,"lon":5.38102,"is_reserved":false,"is_disabled":false,"rental_uris":{"android":"levelo://app?vid=6458ec4a-0dd0-4415-bfaa-f9ea10f1be00","ios":"levelo://app?vid=6458ec4a-0dd0-4415-bfaa-f9ea10f1be00"},"vehicle_type_id":"4","last_reported":1724872041,"current_range_meters":10400,"station_id":"ce4bgip2rcd13ifvqbb0","pricing_plan_id":"cebpf4jnsgd1na2vs0mg"},{"bike_id":"2245cec2-ab8f-4c82-9e0e-e0be46852d3b","system_id":"levelo_inurba_marseille","lat":43.297935,"lon":5.38081,"is_reserved":false,"is_disabled":false,"rental_uris":{"android":"levelo://app?vid=2245cec2-ab8f-4c82-9e0e-e0be46852d3b","ios":"levelo://app?vid=2245cec2-ab8f-4c82-9e0e-e0be46852d3b"},"vehicle_type_id":"4","last_reported":1724872041,"current_range_meters":0,"station_id":"ce4bgip2rcd13ifvqbb0","pricing_plan_id":"cebpf4jnsgd1na2vs0mg"},{"bike_id":"38fc78aa-c8cd-4a6a-88f7-2573b59b7d68","system_id":"levelo_inurba_marseille","lat":43.298037,"lon":5.381066,"is_reserved":false,"is_disabled":false,"rental_uris":{"android":"levelo://app?vid=38fc78aa-c8cd-4a6a-88f7-2573b59b7d68","ios":"levelo://app?vid=38fc78aa-c8cd-4a6a-88f7-2573b59b7d68"},"vehicle_type_id":"4","last_reported":1724872041,"current_range_meters":5600,"station_id":"ce4bgip2rcd13ifvqbb0","pricing_plan_id":"cebpf4jnsgd1na2vs0mg"},{"bike_id":"eb2fe542-893a-4a25-a498-cde715e9a6bb","system_id":"levelo_inurba_marseille","lat":43.298037,"lon":5.381066,"is_reserved":false,"is_disabled":false,"rental_uris":{"android":"levelo://app?vid=eb2fe542-893a-4a25-a498-cde715e9a6bb","ios":"levelo://app?vid=eb2fe542-893a-4a25-a498-cde715e9a6bb"},