{"last_updated":1732716522,"ttl":60,"version":"2.2","data":{"bikes":[{"bike_id":"c6a7d785-3704-497f-a4a1-3b79a59f06ec","system_id":"levelo_inurba_marseille","lat":43.25724,"lon":5.41114,"is_reserved":false,"is_disabled":false,"rental_uris":{"android":"levelo://app?vid=c6a7d785-3704-497f-a4a1-3b79a59f06ec","ios":"levelo://app?vid=c6a7d785-3704-497f-a4a1-3b79a59f06ec"},"vehicle_type_id":"4","last_reported":1732716523,"current_range_meters":38400,"station_id":"ce4bhkp2rcd13ifvqgd0","pricing_plan_id":"cebpf4jnsgd1na2vs0mg"},{"bike_id":"bf2cd157-98d0-4e6e-818c-0734b30a6a82","system_id":"levelo_inurba_marseille","lat":43.27812,"lon":5.40717,"is_reserved":false,"is_disabled":false,"rental_uris":{"android":"levelo://app?vid=bf2cd157-98d0-4e6e-818c-0734b30a6a82","ios":"levelo://app?vid=bf2cd157-98d0-4e6e-818c-0734b30a6a82"},"vehicle_type_id":"4","last_reported":1732716523,"current_range_meters":38800,"station_id":"ce4bhnh2rcd13ifvqgtg","pricing_plan_id":"cebpf4jnsgd1na2vs0mg"},{"bike_id":"588b13ba-316c-4927-a0c6-d0e9a781a85d","system_id":"levelo_inurba_marseille","lat":43.2315,"lon":5.43704,"is_reserved":false,"is_disabled":false,"rental_uris":{"android":"levelo://app?vid=588b13ba-316c-4927-a0c6-d0e9a781a85d","ios":"levelo://app?vid=588b13ba-316c-4927-a0c6-d0e9a781a85d"},"vehicle_type_id":"4","last_reported":1732716523,"current_range_meters":3200,"station_id":"ce4bhmp2rcd13ifvqgog","pricing_plan_id":"cebpf4jnsgd1na2vs0mg"},{"bike_id":"b856c8b4-412d-4c25-bdd4-e6b29aed04cb","system_id":"levelo_inurba_marseille","lat":43.22939,"lon":5.35375,"is_reserved":false,"is_disabled":false,"rental_uris":{"android":"levelo://app?vid=b856c8b4-412d-4c25-bdd4-e6b29aed04cb","ios":"levelo://app?vid=b856c8b4-412d-4c25-bdd4-e6b29aed04cb"},"vehicle_type_id":"4","last_reported":1732716523,"current_range_meters":39200,"station_id":"cpo3532slgdg3j2ikp40","pricing_plan_id":"cebpf4jnsgd1na2vs0mg"},{"bike_id":"48aa34b2-8c05-418b-bb1b-bbda8ecc5449","system_id":"levelo_inurba_marseille","lat":43.2904,"lon":5.37564,"is_reserved":false,"is_disabled":false,"rental_uris":{"android":"levelo://app?vid=48aa34b2-8c05-418b-bb1b-bbda8ecc5449","ios":"levelo://app?vid=48aa34b2-8c05-418b-bb1b-bbda8ecc5449"},"vehicle_type_id":"4","last_reported":1732716523,"current_range_meters":6800,"station_id":"ce4bh692rcd13ifvqe90","pricing_plan_id":"cebpf4jnsgd1na2vs0mg"},{"bike_id":"d2cf7a78-7eb1-4d32-aa77-ae8ed51e3e3f","system_id":"levelo_inurba_marseille","lat":43.33776,"lon":5.37477,"is_reserved":false,"is_disabled":false,"rental_uris":{"android":"levelo://app?vid=d2cf7a78-7eb1-4d32-aa77-ae8ed51e3e3f","ios":"levelo://app?vid=d2cf7a78-7eb1-4d32-aa77-ae8ed51e3e3f"},"vehicle_type_id":"4","last_reported":1732716523,"current_range_meters":18000,"station_id":"","pricing_plan_id":"cebpf4jnsgd1na2vs0mg"},{"bike_id":"6c5b3a32-97af-4baf-ba4b-895d1e1f1600","system_id":"levelo_inurba_marseille","lat":43.23186,"lon":5.39987,"is_reserved":false,"is_disabled":false,"rental_uris":{"android":"levelo://app?vid=6c5b3a32-97af-4baf-ba4b-895d1e1f1600","ios":"levelo://app?vid=6c5b3a32-97af-4baf-ba4b-895d1e1f1600"},"vehicle_type_id":"4","last_reported":1732716523,"current_range_meters":28000,"station_id":"ce4bhn12rcd13ifvqgqg","pricing_plan_id":"cebpf4jnsgd1na2vs0mg"},{"bike_id":"251e5e14-3d7c-4c97-aec6-352270a69bfa","system_id":"levelo_inurba_marseille","lat":43.26681,"lon":5.38275,"is_reserved":false,"is_disabled":false,"rental_uris":{"android":"levelo://app?vid=251e5e14-3d7c-4c97-aec6-352270a69bfa","ios":"levelo://app?vid=251e5e14-3d7c-4c97-aec6-352270a69bfa"},"vehicle_type_id":"4","last_reported":1732716523,"current_range_meters":8400,"station_id":"ce4bhg92rcd13ifvqf90","pricing_plan_id":"cebpf4jnsgd1na2vs0mg"},{"bike_id":"394c9d8a-fd21-4a2d-81e8-17b9e380c882","system_id":"levelo_inurba_marseille","lat":43.26498,"lon":5.39542,"is_reserved":false,"is_disabled":false,"rental_uris":{"android":"levelo://app?vid=394c9d8a-fd21-4a2d-81e8-17b9e380c882","ios":"levelo://app?vid=394c9d8a-fd21-4a2d-81e8-17b9e380c882"},"vehicle_type_id":"4","last_reported":1732716523,"current_range_meters":34000,"station_id":"ce4bhi12rcd13ifvqfq0","pricing_plan_id":"cebpf4jnsgd1na2vs0mg"},{"bike_id":"e116ae66-ae66-4b96-84da-2e00bc4e833e","system_id":"levelo_inurba_marseille","lat":43.31356,"lon":5.36705,"is_reserved":false,"is_disabled":false,"rental_uris":{"android":"levelo://app?vid=e116ae66-ae66-4b96-84da-2e00bc4e833e","ios":"levelo://app?vid=e116ae66-ae66-4b96-84da-2e00bc4e833e"},"vehicle_type_id":"4","last_reported":1732716523,"current_range_meters":9600,"station_id":"ce4bgr92rcd13ifvqc6g","pricing_plan_id":"cebpf4jnsgd1na2vs0mg"},{"bike_id":"aa329851-b9e7-4688-bdb8-dece7ae7a45b","system_id":"levelo_inurba_marseille","lat":43.290222,"lon":5.38658,"is_reserved":false,"is_disabled":false,"rental_uris":{"android":"levelo://app?vid=aa329851-b9e7-4688-bdb8-dece7ae7a45b","ios":"levelo://app?vid=aa329851-b9e7-4688-bdb8-dece7ae7a45b"},"vehicle_type_id":"4","last_reported":1732716523,"current_range_meters":22800,"station_id":"ce4bh4p2rcd13ifvqe0g","pricing_plan_id":"cebpf4jnsgd1na2vs0mg"},{"bike_id":"2cd4222e-d81d-4ae7-ab2c-06049c0fdd92","system_id":"levelo_inurba_marseille","lat":43.31069,"lon":5.38365,"is_reserved":false,"is_disabled":false,"rental_uris":{"android":"levelo://app?vid=2cd4222e-d81d-4ae7-ab2c-06049c0fdd92","ios":"levelo://app?vid=2cd4222e-d81d-4ae7-ab2c-06049c0fdd92"},"vehicle_type_id":"4","last_reported":1732716523,"current_range_meters":10800,"station_id":"ce4bgv92rcd13ifvqcr0","pricing_plan_id":"cebpf4jnsgd1na2vs0mg"},{"bike_id":"ce15a521-8a1d-47b7-92c8-091ca367d00e","system_id":"levelo_inurba_marseille","lat":43.337514,"lon":5.37446,"is_reserved":false,"is_disabled":false,"rental_uris":{"android":"levelo://app?vid=ce15a521-8a1d-47b7-92c8-091ca367d00e","ios":"levelo://app?vid=ce15a521-8a1d-47b7-92c8-091ca367d00e"},"vehicle_type_id":"4","last_reported":1732716523,"current_range_meters":38800,"station_id":"","pricing_plan_id":"cebpf4jnsgd1na2vs0mg"},{"bike_id":"04eefef5-6e7b-4152-baff-09d7961f031b","system_id":"levelo_inurba_marseille","lat":43.29188,"lon":5.35795,"is_reserved":false,"is_disabled":false,"rental_uris":{"android":"levelo://app?vid=04eefef5-6e7b-4152-baff-09d7961f031b","ios":"levelo://app?vid=04eefef5-6e7b-4152-baff-09d7961f031b"},"vehicle_type_id":"4","last_reported":1732716523,"current_range_meters":38800,"station_id":"ce4bhb12rcd13ifvqel0","pricing_plan_id":"cebpf4jnsgd1na2vs0mg"},{"bike_id":"0680144a-f56d-4008-ae28-2e3969a72ddc","system_id":"levelo_inurba_marseille","lat":43.25498,"lon":5.37652,"is_reserved":false,"is_disabled":false,"rental_uris":{"android":"levelo://app?vid=0680144a-f56d-4008-ae28-2e3969a72ddc","ios":"levelo://app?vid=0680144a-f56d-4008-ae28-2e3969a72ddc"},"vehicle_type_id":"4","last_reported":1732716523,"current_range_meters":18800,"station_id":"ce4bhh12rcd13ifvqff0","pricing_plan_id":"cebpf4jnsgd1na2vs0mg"},{"bike_id":"5fb86c81-25a0-4696-9930-724e8f70415a","system_id":"levelo_inurba_marseille","lat":43.27311,"lon":5.39082,"is_reserved":false,"is_disabled":false,"rental_uris":{"android":"levelo://app?vid=5fb86c81-25a0-4696-9930-724e8f70415a","ios":"levelo://app?vid=5fb86c81-25a0-4696-9930-724e8f70415a"},"vehicle_type_id":"4","last_reported":1732716523,"current_range_meters":17600,"station_id":"ce4bhgp2rcd13ifvqfe0","pricing_plan_id":"cebpf4jnsgd1na2vs0mg"},{"bike_id":"0ee15fb6-a30a-4976-b676-dd8cc8f45df7","system_id":"levelo_inurba_marseille","lat":43.29709,"lon":5.37696,"is_reserved":false,"is_disabled":true,"rental_uris":{"android":"levelo://app?vid=0ee15fb6-a30a-4976-b676-dd8cc8f45df7","ios":"levelo://app?vid=0ee15fb6-a30a-4976-b676-dd8cc8f45df7"},"vehicle_type_id":"4","last_reported":1732716523,"current_range_meters":13600,"station_id":"ce4bgkh2rcd13ifvqbl0","pricing_plan_id":"cebpf4jnsgd1na2vs0mg"},{"bike_id":"1a29b0d7-d35e-4186-9c6a-528f56e25fa6","system_id":"levelo_inurba_marseille","lat":43.25807,"lon":5.39422,"is_reserved":false,"is_disabled":false,"rental_uris":{"android":"levelo://app?vid=1a29b0d7-d35e-4186-9c6a-528f56e25fa6","ios":"levelo://app?vid=1a29b0d7-d35e-4186-9c6a-528f56e25fa6"},"vehicle_type_id":"4","last_reported":1732716523,"current_range_meters":39200,"station_id":"ce4bhip2rcd13ifvqft0","pricing_plan_id":"cebpf4jnsgd1na2vs0mg"},{"bike_id":"dd4d37fd-527d-4c39-afdd-3d019c17cebf","system_id":"levelo_inurba_marseille","lat":43.28609,"lon":5.37065,"is_reserved":false,"is_disabled":false,"rental_uris":{"android":"levelo://app?vid=dd4d37fd-527d-4c39-afdd-3d019c17cebf","ios":"levelo://app?vid=dd4d37fd-527d-4c39-afdd-3d019c17cebf"},"vehicle_type_id":"4","last_reported":1732716523,"current_range_meters":40000,"station_id":"ce4bht12rcd13ifvqi60","pricing_plan_id":"cebpf4jnsgd1na2vs0mg"},{"bike_id":"06a5f958-bb59-43f5-ba72-490eb65aa2eb","system_id":"levelo_inurba_marseille","lat":43.25086,"lon":5.39518,"is_reserved":false,"is_disabled":false,"rental_uris":{"android":"levelo://app?vid=06a5f958-bb59-43f5-ba72-490eb65aa2eb","ios":"levelo://app?vid=06a5f958-bb59-43f5-ba72-490eb65aa2eb"},"vehicle_type_id":"4","last_reported":1732716523,"current_range_meters":26000,"station_id":"ce4bhm12rcd13ifvqgkg","pricing_plan_id":"cebpf4jnsgd1na2vs0mg"},{"bike_id":"6f7949e1-de87-4a49-8620-fec27e04447f","system_id":"levelo_inurba_marseille","lat":43.33734,"lon":5.39199,"is_reserved":false,"is_disabled":false,"rental_uris":{"android":"levelo://app?vid=6f7949e1-de87-4a49-8620-fec27e04447f","ios":"levelo://app?vid=6f7949e1-de87-4a49-8620-fec27e04447f"},"vehicle_type_id":"4","last_reported":1732716523,"current_range_meters":38400,"station_id":"ce4bhr92rcd13ifvqhsg","pricing_plan_id":"cebpf4jnsgd1na2vs0mg"},{"bike_id":"ea5cb896-562d-4353-9beb-af95ca62ad6a","system_id":"levelo_inurba_marseille","lat":43.29927,"lon":5.36545,"is_reserved":false,"is_disabled":false,"rental_uris":{"android":"levelo://app?vid=ea5cb896-562d-4353-9beb-af95ca62ad6a","ios":"levelo://app?vid=ea5cb896-562d-4353-9beb-af95ca62ad6a"},"vehicle_type_id":"4","last_reported":1732716523,"current_range_meters":17600,"station_id":"ce4bgm92rcd13ifvqbr0","pricing_plan_id":"cebpf4jnsgd1na2vs0mg"},{"bike_id":"2b5189a5-a239-44be-9689-b0eb07e2359e","system_id":"levelo_inurba_marseille","lat":43.30207,"lon":5.39465,"is_reserved":false,"is_disabled":false,"rental_uris":{"android":"levelo://app?vid=2b5189a5-a239-44be-9689-b0eb07e2359e","ios":"levelo://app?vid=2b5189a5-a239-44be-9689-b0eb07e2359e"},"vehicle_type_id":"4","last_reported":1732716523,"current_range_meters":28800,"station_id":"ce4bh0p2rcd13ifvqd70","pricing_plan_id":"cebpf4jnsgd1na2vs0mg"},{"bike_id":"03014b66-763d-4717-83da-b37770dba3f2","system_id":"levelo_inurba_marseille","lat":43.26024,"lon":5.37549,"is_reserved":false,"is_disabled":false,"rental_uris":{"android":"levelo://app?vid=03014b66-763d-4717-83da-b37770dba3f2","ios":"levelo://app?vid=03014b66-763d-4717-83da-b37770dba3f2"},"vehicle_type_id":"4","last_reported":1732716523,"current_range_meters":38800,"station_id":"ce4bhgh2rcd13ifvqfa0","pricing_plan_id":"cebpf4jnsgd1na2vs0mg"},{"bike_id":"fbc253e6-6832-49a7-9379-6282d96a0df0","system_id":"levelo_inurba_marseille","lat":43.31223,"lon":5.36849,"is_reserved":false,"is_disabled":false,"rental_uris":{"android":"levelo://app?vid=fbc253e6-6832-49a7-9379-6282d96a0df0","ios":"levelo://app?vid=fbc253e6-6832-49a7-9379-6282d96a0df0"},"vehicle_type_id":"4","last_reported":1732716523,"current_range_meters":34800,"station_id":"ce4bgl92rcd13ifvqbq0","pricing_plan_id":"cebpf4jnsgd1na2vs0mg"},{"bike_id":"88c0a23c-decf-469d-95fc-e70f9cd8eb3b","system_id":"levelo_inurba_marseille","lat":43.33752,"lon":5.37449,"is_reserved":false,"is_disabled":false,"rental_uris":{"android":"levelo://app?vid=88c0a23c-decf-469d-95fc-e70f9cd8eb3b","ios":"levelo://app?vid=88c0a23c-decf-469d-95fc-e70f9cd8eb3b"},"vehicle_type_id":"4","last_reported":1732716523,"current_range_meters":36000,"station_id":"","pricing_plan_id":"cebpf4jnsgd1na2vs0mg"},{"bike_id":"d93067c3-4848-4450-992d-7925dfe41b1d","system_id":"levelo_inurba_marseille","lat":43.25577,"lon":5.38233,"is_reserved":false,"is_disabled":true,"rental_uris":{"android":"levelo://app?vid=d93067c3-4848-4450-992d-7925dfe41b1d","ios":"levelo://app?vid=d93067c3-4848-4450-992d-7925dfe41b1d"},"vehicle_type_id":"4","last_reported":1732716523,"current_range_meters":0,"station_id":"ce4bhih2rcd13ifvqfs0","pricing_plan_id":"cebpf4jnsgd1na2vs0mg"},{"bike_id":"e08d4f82-0901-45f6-b731-13e71fa11eaf","system_id":"levelo_inurba_marseille","lat":43.28261,"lon":5.35073,"is_reserved":false,"is_disabled":false,"rental_uris":{"android":"levelo://app?vid=e08d4f82-0901-45f6-b731-13e71fa11eaf","ios":"levelo://app?vid=e08d4f82-0901-45f6-b731-13e71fa11eaf"},"vehicle_type_id":"4","last_reported":1732716523,"current_range_meters":19600,"station_id":"ce4bhbp2rcd13ifvqerg","pricing_plan_id":"cebpf4jnsgd1na2vs0mg"},{"bike_id":"7067bb45-811c-4a6b-b193-de3696365c68","system_id":"levelo_inurba_marseille","lat":43.29277,"lon":5.38444,"is_reserved":false,"is_disabled":false,"rental_uris":{"android":"levelo://app?vid=7067bb45-811c-4a6b-b193-de3696365c68","ios":"levelo://app?vid=7067bb45-811c-4a6b-b193-de3696365c68"},"vehicle_type_id":"4","last_reported":1732716523,"current_range_meters":21600,"station_id":"ce4bh692rcd13ifvqea0","pricing_plan_id":"cebpf4jnsgd1na2vs0mg"},{"bike_id":"dbdf98e1-56e9-433f-aa4a-5a33ac477aa7","system_id":"levelo_inurba_marseille","lat":43.2826,"lon":5.35067,"is_reserved":false,"is_disabled":false,"rental_uris":{"android":"levelo://app?vid=dbdf98e1-56e9-433f-aa4a-5a33ac477aa7","ios":"levelo://app?vid=dbdf98e1-56e9-433f-aa4a-5a33ac477aa7"},"vehicle_type_id":"4","last_reported":1732716523,"current_range_meters":15200,"station_id":"ce4bhbp2rcd13ifvqerg","pricing_plan_id":"cebpf4jnsgd1na2vs0mg"},{"bike_id":"0a6bce60-22be-464a-b5b4-14101ead072e","system_id":"levelo_inurba_marseille","lat":43.26958,"lon":5.38638,"is_reserved":false,"is_disabled":false,"rental_uris":{"android":"levelo://app?vid=0a6bce60-22be-464a-b5b4-14101ead072e","ios":"levelo://app?vid=0a6bce60-22be-464a-b5b4-14101ead072e"},"vehicle_type_id":"4","last_reported":1732716523,"current_range_meters":38000,"station_id":"ce4bhh92rcd13ifvqfh0","pricing_plan_id":"cebpf4jnsgd1na2vs0mg"},{"bike_id":"59798445-8d70-4aa0-82ea-c70c3f2d0df4","system_id":"levelo_inurba_marseille","lat":43.24646,"lon":5.38894,"is_reserved":false,"is_disabled":false,"rental_uris":{"android":"levelo://app?vid=59798445-8d70-4aa0-82ea-c70c3f2d0df4","ios":"levelo://app?vid=59798445-8d70-4aa0-82ea-c70c3f2d0df4"},"vehicle_type_id":"4","last_reported":1732716523,"current_range_meters":37600,"station_id":"ce4bhg12rcd13ifvqf60","pricing_plan_id":"cebpf4jnsgd1na2vs0mg"},{"bike_id":"4195d232-17bc-4fd4-ba59-31e116f6e38b","system_id":"levelo_inurba_marseille","lat":43.30408,"lon":5.41301,"is_reserved":false,"is_disabled":false,"rental_uris":{"android":"levelo://app?vid=4195d232-17bc-4fd4-ba59-31e116f6e38b","ios":"levelo://app?vid=4195d232-17bc-4fd4-ba59-31e116f6e38b"},"vehicle_type_id":"4","last_reported":1732716523,"current_range_meters":39200,"station_id":"ce4bhop2rcd13ifvqh8g","pricing_plan_id":"cebpf4jnsgd1na2vs0mg"},{"bike_id":"03c4627a-7ddc-4cad-84e1-fa951407f058","system_id":"levelo_inurba_marseille","lat":43.26549,"lon":5.37289,"is_reserved":false,"is_disabled":true,"rental_uris":{"android":"levelo://app?vid=03c4627a-7ddc-4cad-84e1-fa951407f058","ios":"levelo://app?vid=03c4627a-7ddc-4cad-84e1-fa951407f058"},"vehicle_type_id":"4","last_reported":1732716523,"current_range_meters":0,"station_id":"ce4bhg12rcd13ifvqf70","pricing_plan_id":"cebpf4jnsgd1na2vs0mg"},{"bike_id":"ec6ef646-52c8-4507-96b5-18a47396c863","system_id":"levelo_inurba_marseille","lat":43.25577,"lon":5.38229,"is_reserved":false,"is_disabled":false,"rental_uris":{"android":"levelo://app?vid=ec6ef646-52c8-4507-96b5-18a47396c863","ios":"levelo://app?vid=ec6ef646-52c8-4507-96b5-18a47396c863"},"vehicle_type_id":"4","last_reported":1732716523,"current_range_meters":9200,"station_id":"ce4bhih2rcd13ifvqfs0","pricing_plan_id":"cebpf4jnsgd1na2vs0mg"},{"bike_id":"f65a73cd-64d0-4424-8c33-569459282668","system_id":"levelo_inurba_marseille","lat":43.29846,"lon":5.3628,"is_reserved":false,"is_disabled":false,"rental_uris":{"android":"levelo://app?vid=f65a73cd-64d0-4424-8c33-569459282668","ios":"levelo://app?vid=f65a73cd-64d0-4424-8c33-569459282668"},"vehicle_type_id":"4","last_reported":1732716523,"current_range_meters":38800,"station_id":"ce4bgpp2rcd13ifvqc3g","pricing_plan_id":"cebpf4jnsgd1na2vs0mg"},{"bike_id":"71b78d7b-dda5-4267-b684-532542b7b394","system_id":"levelo_inurba_marseille","lat":43.28408,"lon":5.349853,"is_reserved":false,"is_disabled":false,"rental_uris":{"android":"levelo://app?vid=71b78d7b-dda5-4267-b684-532542b7b394","ios":"levelo://app?vid=71b78d7b-dda5-4267-b684-532542b7b394"},"vehicle_type_id":"4","last_reported":1732716523,"current_range_meters":39200,"station_id":"ce4bhbh2rcd13ifvqepg","pricing_plan_id":"cebpf4jnsgd1na2vs0mg"},{"bike_id":"9f495fb6-a313-4fc5-81d8-0a7894225cfe","system_id":"levelo_inurba_marseille","lat":43.29571,"lon":5.39961,"is_reserved":false,"is_disabled":true,"rental_uris":{"android":"levelo://app?vid=9f495fb6-a313-4fc5-81d8-0a7894225cfe","ios":"levelo://app?vid=9f495fb6-a313-4fc5-81d8-0a7894225cfe"},"vehicle_type_id":"4","last_reported":1732716523,"current_range_meters":29600,"station_id":"ce4bh312rcd13ifvqdj0","pricing_plan_id":"cebpf4jnsgd1na2vs0mg"},{"bike_id":"7a31f12e-73b0-489e-bd75-ca0bd6bf7134","system_id":"levelo_inurba_marseille","lat":43.33603,"lon":5.41035,"is_reserved":false,"is_disabled":true,"rental_uris":{"android":"levelo://app?vid=7a31f12e-73b0-489e-bd75-ca0bd6bf7134","ios":"levelo://app?vid=7a31f12e-73b0-489e-bd75-ca0bd6bf7134"},"vehicle_type_id":"4","last_reported":1732716523,"current_range_meters":400,"station_id":"ce4bhqh2rcd13ifvqhmg","pricing_plan_id":"cebpf4jnsgd1na2vs0mg"},{"bike_id":"a04ad84c-0274-457e-a2a3-807c11604d95","system_id":"levelo_inurba_marseille","lat":43.30534,"lon":5.36715,"is_reserved":false,"is_disabled":false,"rental_uris":{"android":"levelo://app?vid=a04ad84c-0274-457e-a2a3-807c11604d95","ios":"levelo://app?vid=a04ad84c-0274-457e-a2a3-807c11604d95"},"vehicle_type_id":"4","last_reported":1732716523,"current_range_meters":18800,"station_id":"ce4bgrp2rcd13ifvqc9g","pricing_plan_id":"cebpf4jnsgd1na2vs0mg"},{"bike_id":"dfdeb01e-ef6a-465a-a618-b7cd0e6721ad","system_id":"levelo_inurba_marseille","lat":43.28659,"lon":5.36369,"is_reserved":false,"is_disabled":false,"rental_uris":{"android":"levelo://app?vid=dfdeb01e-ef6a-465a-a618-b7cd0e6721ad","ios":"levelo://app?vid=dfdeb01e-ef6a-465a-a618-b7cd0e6721ad"},"vehicle_type_id":"4","last_reported":1732716523,"current_range_meters":11600,"station_id":"ce4bhah2rcd13ifvqej0","pricing_plan_id":"cebpf4jnsgd1na2vs0mg"},{"bike_id":"60805424-f6d9-425f-a22a-0ed30bcd92d3","system_id":"levelo_inurba_marseille","lat":43.28152,"lon":5.4264,"is_reserved":false,"is_disabled":false,"rental_uris":{"android":"levelo://app?vid=60805424-f6d9-425f-a22a-0ed30bcd92d3","ios":"levelo://app?vid=60805424-f6d9-425f-a22a-0ed30bcd92d3"},"vehicle_type_id":"4","last_reported":1732716523,"current_range_meters":36400,"station_id":"ce4bhnh2rcd13ifvqgug","pricing_plan_id":"cebpf4jnsgd1na2vs0mg"},{"bike_id":"3c440e1d-49d4-4ac8-98a1-e37740e9175a","system_id":"levelo_inurba_marseille","lat":43.2991,"lon":5.38129,"is_reserved":false,"is_disabled":false,"rental_uris":{"android":"levelo://app?vid=3c440e1d-49d4-4ac8-98a1-e37740e9175a","ios":"levelo://app?vid=3c440e1d-49d4-4ac8-98a1-e37740e9175a"},"vehicle_type_id":"4","last_reported":1732716523,"current_range_meters":36800,"station_id":"ce4bgj12rcd13ifvqbc0","pricing_plan_id":"cebpf4jnsgd1na2vs0mg"},{"bike_id":"49f16512-79cf-4012-8abe-b7b4210aa866","system_id":"levelo_inurba_marseille","lat":43.29019,"lon":5.38135,"is_reserved":false,"is_disabled":false,"rental_uris":{"android":"levelo://app?vid=49f16512-79cf-4012-8abe-b7b4210aa866","ios":"levelo://app?vid=49f16512-79cf-4012-8abe-b7b4210aa866"},"vehicle_type_id":"4","last_reported":1732716523,"current_range_meters":38400,"station_id":"ce4bh4p2rcd13ifvqe1g","pricing_plan_id":"cebpf4jnsgd1na2vs0mg"},{"bike_id":"ec25b052-f7e8-4a7c-9264-ee534ad72629","system_id":"levelo_inurba_marseille","lat":43.24542,"lon":5.39526,"is_reserved":false,"is_disabled":false,"rental_uris":{"android":"levelo://app?vid=ec25b052-f7e8-4a7c-9264-ee534ad72629","ios":"levelo://app?vid=ec25b052-f7e8-4a7c-9264-ee534ad72629"},"vehicle_type_id":"4","last_reported":1732716523,"current_range_meters":5600,"station_id":"ce4bhlp2rcd13ifvqgjg","pricing_plan_id":"cebpf4jnsgd1na2vs0mg"},{"bike_id":"dfc1ca29-1a45-46bb-b4c8-f3d324353a17","system_id":"levelo_inurba_marseille","lat":43.27375,"lon":5.36252,"is_reserved":false,"is_disabled":true,"rental_uris":{"android":"levelo://app?vid=dfc1ca29-1a45-46bb-b4c8-f3d324353a17","ios":"levelo://app?vid=dfc1ca29-1a45-46bb-b4c8-f3d324353a17"},"vehicle_type_id":"4","last_reported":1732716523,"current_range_meters":0,"station_id":"ce4bhbh2rcd13ifvqeo0","pricing_plan_id":"cebpf4jnsgd1na2vs0mg"},{"bike_id":"97413745-f8a7-489a-9312-789cc9ff38bf","system_id":"levelo_inurba_marseille","lat":43.29972,"lon":5.37192,"is_reserved":false,"is_disabled":false,"rental_uris":{"android":"levelo://app?vid=97413745-f8a7-489a-9312-789cc9ff38bf","ios":"levelo://app?vid=97413745-f8a7-489a-9312-789cc9ff38bf"},"vehicle_type_id":"4","last_reported":1732716523,"current_range_meters":27200,"station_id":"ce4bgr92rcd13ifvqc7g","pricing_plan_id":"cebpf4jnsgd1na2vs0mg"},{"bike_id":"e4ac20e5-90c0-4ead-a091-433a597028b4","system_id":"levelo_inurba_marseille","lat":43.31724,"lon":5.42401,"is_reserved":false,"is_disabled":false,"rental_uris":{"android":"levelo://app?vid=e4ac20e5-90c0-4ead-a091-433a597028b4","ios":"levelo://app?vid=e4ac20e5-90c0-4ead-a091-433a597028b4"},"vehicle_type_id":"4","last_reported":1732716523,"current_range_meters":38400,"station_id":"ce4bhp92rcd13ifvqhbg","pricing_plan_id":"cebpf4jnsgd1na2vs0mg"},{"bike_id":"4d4c884f-6933-49c0-8899-f9856d90f44d","system_id":"levelo_inurba_marseille","lat":43.29751,"lon":5.37951,"is_reserved":false,"is_disabled":true,"rental_uris":{"android":"levelo://app?vid=4d4c884f-6933-49c0-8899-f9856d90f44d","ios":"levelo://app?vid=4d4c884f-6933-49c0-8899-f9856d90f44d"},"vehicle_type_id":"4","last_reported":1732716523,"current_range_meters":0,"station_id":"","pricing_plan_id":"cebpf4jnsgd1na2vs0mg"},{"bike_id":"e056e691-f814-4e56-981b-005449869f00","system_id":"levelo_inurba_marseille","lat":43.29192,"lon":5.39313,"is_reserved":false,"is_disabled":false,"rental_uris":{"android":"levelo://app?vid=e056e691-f814-4e56-981b-005449869f00","ios":"levelo://app?vid=e056e691-f814-4e56-981b-005449869f00"},"vehicle_type_id":"4","last_reported":1732716523,"current_range_meters":38800,"station_id":"ce4bh192rcd13ifvqdd0","pricing_plan_id":"cebpf4jnsgd1na2vs0mg"},{"bike_id":"4456d10b-6794-4f83-9383-1e0ef4edc685","system_id":"levelo_inurba_marseille","lat":43.3014,"lon":5.3741,"is_reserved":false,"is_disabled":false,"rental_uris":{"android":"levelo://app?vid=4456d10b-6794-4f83-9383-1e0ef4edc685","ios":"levelo://app?vid=4456d10b-6794-4f83-9383-1e0ef4edc685"},"vehicle_type_id":"4","last_reported":1732716523,"current_range_meters":25600,"station_id":"ce4bgs92rcd13ifvqcc0","pricing_plan_id":"cebpf4jnsgd1na2vs0mg"},{"bike_id":"9009be37-c6b1-406b-b0a8-fbab355f715e","system_id":"levelo_inurba_marseille","lat":43.33761,"lon":5.37497,"is_reserved":false,"is_disabled":false,"rental_uris":{"android":"levelo://app?vid=9009be37-c6b1-406b-b0a8-fbab355f715e","ios":"levelo://app?vid=9009be37-c6b1-406b-b0a8-fbab355f715e"},"vehicle_type_id":"4","last_reported":1732716523,"current_range_meters":38800,"station_id":"","pricing_plan_id":"cebpf4jnsgd1na2vs0mg"},{"bike_id":"4b6c8169-508b-47c1-82e9-8739bb115d3a","system_id":"levelo_inurba_marseille","lat":43.28423,"lon":5.35002,"is_reserved":false,"is_disabled":false,"rental_uris":{"android":"levelo://app?vid=4b6c8169-508b-47c1-82e9-8739bb115d3a","ios":"levelo://app?vid=4b6c8169-508b-47c1-82e9-8739bb115d3a"},"vehicle_type_id":"4","last_reported":1732716523,"current_range_meters":26800,"station_id":"ce4bhbh2rcd13ifvqepg","pricing_plan_id":"cebpf4jnsgd1na2vs0mg"},{"bike_id":"79e0b48c-a0ec-44c8-b7cc-20d7d7adc530","system_id":"levelo_inurba_marseille","lat":43.31991,"lon":5.38148,"is_reserved":false,"is_disabled":false,"rental_uris":{"android":"levelo://app?vid=79e0b48c-a0ec-44c8-b7cc-20d7d7adc530","ios":"levelo://app?vid=79e0b48c-a0ec-44c8-b7cc-20d7d7adc530"},"vehicle_type_id":"4","last_reported":1732716523,"current_range_meters":24000,"station_id":"ce4bhr12rcd13ifvqhpg","pricing_plan_id":"cebpf4jnsgd1na2vs0mg"},{"bike_id":"787da3e5-5eaa-466d-a942-f9510f3bbd6d","system_id":"levelo_inurba_marseille","lat":43.27914,"lon":5.39589,"is_reserved":false,"is_disabled":true,"rental_uris":{"android":"levelo://app?vid=787da3e5-5eaa-466d-a942-f9510f3bbd6d","ios":"levelo://app?vid=787da3e5-5eaa-466d-a942-f9510f3bbd6d"},"vehicle_type_id":"4","last_reported":1732716523,"current_range_meters":0,"station_id":"ce4bhf92rcd13ifvqf40","pricing_plan_id":"cebpf4jnsgd1na2vs0mg"},{"bike_id":"9b6997d0-a97e-44f2-8c44-8034e5a6e7cc","system_id":"levelo_inurba_marseille","lat":43.2315,"lon":5.43714,"is_reserved":false,"is_disabled":false,"rental_uris":{"android":"levelo://app?vid=9b6997d0-a97e-44f2-8c44-8034e5a6e7cc","ios":"levelo://app?vid=9b6997d0-a97e-44f2-8c44-8034e5a6e7cc"},"vehicle_type_id":"4","last_reported":1732716523,"current_range_meters":37600,"station_id":"ce4bhmp2rcd13ifvqgog","pricing_plan_id":"cebpf4jnsgd1na2vs0mg"},{"bike_id":"416fd7b2-0393-497c-8254-e7aafc693fbe","system_id":"levelo_inurba_marseille","lat":43.30433,"lon":5.38893,"is_reserved":false,"is_disabled":false,"rental_uris":{"android":"levelo://app?vid=416fd7b2-0393-497c-8254-e7aafc693fbe","ios":"levelo://app?vid=416fd7b2-0393-497c-8254-e7aafc693fbe"},"vehicle_type_id":"4","last_reported":1732716523,"current_range_meters":25200,"station_id":"ce4bgk12rcd13ifvqbi0","pricing_plan_id":"cebpf4jnsgd1na2vs0mg"},{"bike_id":"f9676c04-9169-4afb-88f6-a605c0c0e024","system_id":"levelo_inurba_marseille","lat":43.28032,"lon":5.3694,"is_reserved":false,"is_disabled":false,"rental_uris":{"android":"levelo://app?vid=f9676c04-9169-4afb-88f6-a605c0c0e024","ios":"levelo://app?vid=f9676c04-9169-4afb-88f6-a605c0c0e024"},"vehicle_type_id":"4","last_reported":1732716523,"current_range_meters":33600,"station_id":"ce4bha12rcd13ifvqef0","pricing_plan_id":"cebpf4jnsgd1na2vs0mg"},{"bike_id":"299f58fd-6e29-4e06-a65a-1ba6949f2bdc","system_id":"levelo_inurba_marseille","lat":43.33786,"lon":5.37392,"is_reserved":false,"is_disabled":false,"rental_uris":{"android":"levelo://app?vid=299f58fd-6e29-4e06-a65a-1ba6949f2bdc","ios":"levelo://app?vid=299f58fd-6e29-4e06-a65a-1ba6949f2bdc"},"vehicle_type_id":"4","last_reported":1732716523,"current_range_meters":36400,"station_id":"","pricing_plan_id":"cebpf4jnsgd1na2vs0mg"},{"bike_id":"4d809776-4d2b-4bf5-8aa6-666b5b1fd18f","system_id":"levelo_inurba_marseille","lat":43.33713,"lon":5.39207,"is_reserved":false,"is_disabled":false,"rental_uris":{"android":"levelo://app?vid=4d809776-4d2b-4bf5-8aa6-666b5b1fd18f","ios":"levelo://app?vid=4d809776-4d2b-4bf5-8aa6-666b5b1fd18f"},"vehicle_type_id":"4","last_reported":1732716523,"current_range_meters":37600,"station_id":"ce4bhr92rcd13ifvqhsg","pricing_plan_id":"cebpf4jnsgd1na2vs0mg"},{"bike_id":"7c861cf2-ec53-412c-a5bc-ae5eef3cbf7a","system_id":"levelo_inurba_marseille","lat":43.29981,"lon":5.37181,"is_reserved":false,"is_disabled":false,"rental_uris":{"android":"levelo://app?vid=7c861cf2-ec53-412c-a5bc-ae5eef3cbf7a","ios":"levelo://app?vid=7c861cf2-ec53-412c-a5bc-ae5eef3cbf7a"},"vehicle_type_id":"4","last_reported":1732716523,"current_range_meters":38800,"station_id":"ce4bgr92rcd13ifvqc7g","pricing_plan_id":"cebpf4jnsgd1na2vs0mg"},{"bike_id":"92ede9da-e468-411e-8d5b-f4408a5021cd","system_id":"levelo_inurba_marseille","lat":43.27996,"lon":5.40028,"is_reserved":false,"is_disabled":false,"rental_uris":{"android":"levelo://app?vid=92ede9da-e468-411e-8d5b-f4408a5021cd","ios":"levelo://app?vid=92ede9da-e468-411e-8d5b-f4408a5021cd"},"vehicle_type_id":"4","last_reported":1732716523,"current_range_meters":38800,"station_id":"ce4bho92rcd13ifvqh4g","pricing_plan_id":"cebpf4jnsgd1na2vs0mg"},{"bike_id":"0a15e951-cad7-4da3-a5d2-03c7c46f289e","system_id":"levelo_inurba_marseille","lat":43.29693,"lon":5.37282,"is_reserved":false,"is_disabled":false,"rental_uris":{"android":"levelo://app?vid=0a15e951-cad7-4da3-a5d2-03c7c46f289e","ios":"levelo://app?vid=0a15e951-cad7-4da3-a5d2-03c7c46f289e"},"vehicle_type_id":"4","last_reported":1732716523,"current_range_meters":38000,"station_id":"ce4bgk12rcd13ifvqbj0","pricing_plan_id":"cebpf4jnsgd1na2vs0mg"},{"bike_id":"7dccca16-9c81-46ba-8ec7-8ac114550316","system_id":"levelo_inurba_marseille","lat":43.337444,"lon":5.374475,"is_reserved":false,"is_disabled":false,"rental_uris":{"android":"levelo://app?vid=7dccca16-9c81-46ba-8ec7-8ac114550316","ios":"levelo://app?vid=7dccca16-9c81-46ba-8ec7-8ac114550316"},"vehicle_type_id":"4","last_reported":1732716523,"current_range_meters":37600,"station_id":"","pricing_plan_id":"cebpf4jnsgd1na2vs0mg"},{"bike_id":"74fde55c-fa02-4de5-8a06-0ed8e2c12b51","system_id":"levelo_inurba_marseille","lat":43.30006,"lon":5.39682,"is_reserved":false,"is_disabled":false,"rental_uris":{"android":"levelo://app?vid=74fde55c-fa02-4de5-8a06-0ed8e2c12b51","ios":"levelo://app?vid=74fde55c-fa02-4de5-8a06-0ed8e2c12b51"},"vehicle_type_id":"4","last_reported":1732716523,"current_range_meters":24800,"station_id":"ce4bh3h2rcd13ifvqdo0","pricing_plan_id":"cebpf4jnsgd1na2vs0mg"},{"bike_id":"ad7222bc-b65f-4216-a3e1-1770cd0007d3","system_id":"levelo_inurba_marseille","lat":43.28975,"lon":5.37835,"is_reserved":false,"is_disabled":false,"rental_uris":{"android":"levelo://app?vid=ad7222bc-b65f-4216-a3e1-1770cd0007d3","ios":"levelo://app?vid=ad7222bc-b65f-4216-a3e1-1770cd0007d3"},"vehicle_type_id":"4","last_reported":1732716523,"current_range_meters":4000,"station_id":"ce4bh9p2rcd13ifvqed0","pricing_plan_id":"cebpf4jnsgd1na2vs0mg"},{"bike_id":"7655b89f-eca7-43a3-aff0-d9e079c35b1c","system_id":"levelo_inurba_marseille","lat":43.25934,"lon":5.40901,"is_reserved":false,"is_disabled":false,"rental_uris":{"android":"levelo://app?vid=7655b89f-eca7-43a3-aff0-d9e079c35b1c","ios":"levelo://app?vid=7655b89f-eca7-43a3-aff0-d9e079c35b1c"},"vehicle_type_id":"4","last_reported":1732716523,"current_range_meters":25600,"station_id":"ce4bhm92rcd13ifvqglg","pricing_plan_id":"cebpf4jnsgd1na2vs0mg"},{"bike_id":"8b466bc1-35bc-402b-942a-25464cceb927","system_id":"levelo_inurba_marseille","lat":43.232,"lon":5.39975,"is_reserved":false,"is_disabled":false,"rental_uris":{"android":"levelo://app?vid=8b466bc1-35bc-402b-942a-25464cceb927","ios":"levelo://app?vid=8b466bc1-35bc-402b-942a-25464cceb927"},"vehicle_type_id":"4","last_reported":1732716523,"current_range_meters":26000,"station_id":"ce4bhn12rcd13ifvqgqg","pricing_plan_id":"cebpf4jnsgd1na2vs0mg"},{"bike_id":"7b45e0d0-86a8-47b5-8420-74a05761af04","system_id":"levelo_inurba_marseille","lat":43.27927,"lon":5.39563,"is_reserved":false,"is_disabled":true,"rental_uris":{"android":"levelo://app?vid=7b45e0d0-86a8-47b5-8420-74a05761af04","ios":"levelo://app?vid=7b45e0d0-86a8-47b5-8420-74a05761af04"},"vehicle_type_id":"4","last_reported":1732716523,"current_range_meters":0,"station_id":"ce4bhf92rcd13ifvqf40","pricing_plan_id":"cebpf4jnsgd1na2vs0mg"},{"bike_id":"1c8807d0-9279-453e-9f75-5ab4de304fcc","system_id":"levelo_inurba_marseille","lat":43.27902,"lon":5.38003,"is_reserved":false,"is_disabled":false,"rental_uris":{"android":"levelo://app?vid=1c8807d0-9279-453e-9f75-5ab4de304fcc","ios":"levelo://app?vid=1c8807d0-9279-453e-9f75-5ab4de304fcc"},"vehicle_type_id":"4","last_reported":1732716523,"current_range_meters":38800,"station_id":"ce4bhf92rcd13ifvqf50","pricing_plan_id":"cebpf4jnsgd1na2vs0mg"},{"bike_id":"2e4734a5-353d-4896-945d-5f34ae32540d","system_id":"levelo_inurba_marseille","lat":43.29266,"lon":5.40904,"is_reserved":false,"is_disabled":false,"rental_uris":{"android":"levelo://app?vid=2e4734a5-353d-4896-945d-5f34ae32540d","ios":"levelo://app?vid=2e4734a5-353d-4896-945d-5f34ae32540d"},"vehicle_type_id":"4","last_reported":1732716523,"current_range_meters":3200,"station_id":"ce4bh192rcd13ifvqdc0","pricing_plan_id":"cebpf4jnsgd1na2vs0mg"},{"bike_id":"6a243988-d267-4e1e-bafc-c091870de6a8","system_id":"levelo_inurba_marseille","lat":43.24167,"lon":5.36413,"is_reserved":false,"is_disabled":false,"rental_uris":{"android":"levelo://app?vid=6a243988-d267-4e1e-bafc-c091870de6a8","ios":"levelo://app?vid=6a243988-d267-4e1e-bafc-c091870de6a8"},"vehicle_type_id":"4","last_reported":1732716523,"current_range_meters":35200,"station_id":"cpo36qri1sfpv3e86is0","pricing_plan_id":"cebpf4jnsgd1na2vs0mg"},{"bike_id":"9f829615-a360-47bc-872a-f61471d53cab","system_id":"levelo_inurba_marseille","lat":43.24998,"lon":5.38921,"is_reserved":false,"is_disabled":false,"rental_uris":{"android":"levelo://app?vid=9f829615-a360-47bc-872a-f61471d53cab","ios":"levelo://app?vid=9f829615-a360-47bc-872a-f61471d53cab"},"vehicle_type_id":"4","last_reported":1732716523,"current_range_meters":30800,"station_id":"ce4bhgp2rcd13ifvqfd0","pricing_plan_id":"cebpf4jnsgd1na2vs0mg"},{"bike_id":"6c6a93bf-e171-448f-8ea9-1241abd089a1","system_id":"levelo_inurba_marseille","lat":43.2781,"lon":5.40719,"is_reserved":false,"is_disabled":true,"rental_uris":{"android":"levelo://app?vid=6c6a93bf-e171-448f-8ea9-1241abd089a1","ios":"levelo://app?vid=6c6a93bf-e171-448f-8ea9-1241abd089a1"},"vehicle_type_id":"4","last_reported":1732716523,"current_range_meters":0,"station_id":"ce4bhnh2rcd13ifvqgtg","pricing_plan_id":"cebpf4jnsgd1na2vs0mg"},{"bike_id":"d2967fb4-b282-4eff-b45f-28da6a4712d9","system_id":"levelo_inurba_marseille","lat":43.32657,"lon":5.40991,"is_reserved":false,"is_disabled":false,"rental_uris":{"android":"levelo://app?vid=d2967fb4-b282-4eff-b45f-28da6a4712d9","ios":"levelo://app?vid=d2967fb4-b282-4eff-b45f-28da6a4712d9"},"vehicle_type_id":"4","last_reported":1732716523,"current_range_meters":38800,"station_id":"ce4bhpp2rcd13ifvqhgg","pricing_plan_id":"cebpf4jnsgd1na2vs0mg"},{"bike_id":"39b04c21-6a6a-40a7-a489-741c2b67c9bd","system_id":"levelo_inurba_marseille","lat":43.3372,"lon":5.39196,"is_reserved":false,"is_disabled":false,"rental_uris":{"android":"levelo://app?vid=39b04c21-6a6a-40a7-a489-741c2b67c9bd","ios":"levelo://app?vid=39b04c21-6a6a-40a7-a489-741c2b67c9bd"},"vehicle_type_id":"4","last_reported":1732716523,"current_range_meters":9600,"station_id":"ce4bhr92rcd13ifvqhsg","pricing_plan_id":"cebpf4jnsgd1na2vs0mg"},{"bike_id":"e7feaae6-3e6c-4966-a627-4f4f616a6bcb","system_id":"levelo_inurba_marseille","lat":43.26677,"lon":5.38271,"is_reserved":false,"is_disabled":false,"rental_uris":{"android":"levelo://app?vid=e7feaae6-3e6c-4966-a627-4f4f616a6bcb","ios":"levelo://app?vid=e7feaae6-3e6c-4966-a627-4f4f616a6bcb"},"vehicle_type_id":"4","last_reported":1732716523,"current_range_meters":21600,"station_id":"ce4bhg92rcd13ifvqf90","pricing_plan_id":"cebpf4jnsgd1na2vs0mg"},{"bike_id":"8d8434e6-a350-4fbe-9db1-d63f62c2c61b","system_id":"levelo_inurba_marseille","lat":43.31222,"lon":5.36844,"is_reserved":false,"is_disabled":false,"rental_uris":{"android":"levelo://app?vid=8d8434e6-a350-4fbe-9db1-d63f62c2c61b","ios":"levelo://app?vid=8d8434e6-a350-4fbe-9db1-d63f62c2c61b"},"vehicle_type_id":"4","last_reported":1732716523,"current_range_meters":17600,"station_id":"ce4bgl92rcd13ifvqbq0","pricing_plan_id":"cebpf4jnsgd1na2vs0mg"},{"bike_id":"5a74dde8-dae9-4dfc-b29a-0a5254808ef3","system_id":"levelo_inurba_marseille","lat":43.24166,"lon":5.36412,"is_reserved":false,"is_disabled":false,"rental_uris":{"android":"levelo://app?vid=5a74dde8-dae9-4dfc-b29a-0a5254808ef3","ios":"levelo://app?vid=5a74dde8-dae9-4dfc-b29a-0a5254808ef3"},"vehicle_type_id":"4","last_reported":1732716523,"current_range_meters":12400,"station_id":"cpo36qri1sfpv3e86is0","pricing_plan_id":"cebpf4jnsgd1na2vs0mg"},{"bike_id":"e3116009-843e-41a2-9add-5528d8edf865","system_id":"levelo_inurba_marseille","lat":43.26027,"lon":5.37549,"is_reserved":false,"is_disabled":false,"rental_uris":{"android":"levelo://app?vid=e3116009-843e-41a2-9add-5528d8edf865","ios":"levelo://app?vid=e3116009-843e-41a2-9add-5528d8edf865"},"vehicle_type_id":"4","last_reported":1732716523,"current_range_meters":38800,"station_id":"ce4bhgh2rcd13ifvqfa0","pricing_plan_id":"cebpf4jnsgd1na2vs0mg"},{"bike_id":"5cb6e33f-fa1e-4d08-ac4e-646794b0f617","system_id":"levelo_inurba_marseille","lat":43.29228,"lon":5.36062,"is_reserved":false,"is_disabled":false,"rental_uris":{"android":"levelo://app?vid=5cb6e33f-fa1e-4d08-ac4e-646794b0f617","ios":"levelo://app?vid=5cb6e33f-fa1e-4d08-ac4e-646794b0f617"},"vehicle_type_id":"4","last_reported":1732716523,"current_range_meters":38800,"station_id":"ce4bhbh2rcd13ifvqeqg","pricing_plan_id":"cebpf4jnsgd1na2vs0mg"},{"bike_id":"34cbec49-eeaf-411d-80f2-b68e724f1d2f","system_id":"levelo_inurba_marseille","lat":43.29,"lon":5.35615,"is_reserved":false,"is_disabled":false,"rental_uris":{"android":"levelo://app?vid=34cbec49-eeaf-411d-80f2-b68e724f1d2f","ios":"levelo://app?vid=34cbec49-eeaf-411d-80f2-b68e724f1d2f"},"vehicle_type_id":"4","last_reported":1732716523,"current_range_meters":33600,"station_id":"ce4bhb92rcd13ifvqen0","pricing_plan_id":"cebpf4jnsgd1na2vs0mg"},{"bike_id":"06b6b9f1-2e45-4d3e-9bb8-b6b5c8237786","system_id":"levelo_inurba_marseille","lat":43.28405,"lon":5.34986,"is_reserved":false,"is_disabled":false,"rental_uris":{"android":"levelo://app?vid=06b6b9f1-2e45-4d3e-9bb8-b6b5c8237786","ios":"levelo://app?vid=06b6b9f1-2e45-4d3e-9bb8-b6b5c8237786"},"vehicle_type_id":"4","last_reported":1732716523,"current_range_meters":3200,"station_id":"ce4bhbh2rcd13ifvqepg","pricing_plan_id":"cebpf4jnsgd1na2vs0mg"},{"bike_id":"ce8b69aa-646d-403b-bb63-faa242fb22a8","system_id":"levelo_inurba_marseille","lat":43.29546,"lon":5.42284,"is_reserved":false,"is_disabled":true,"rental_uris":{"android":"levelo://app?vid=ce8b69aa-646d-403b-bb63-faa242fb22a8","ios":"levelo://app?vid=ce8b69aa-646d-403b-bb63-faa242fb22a8"},"vehicle_type_id":"4","last_reported":1732716523,"current_range_meters":1600,"station_id":"ce4bhph2rcd13ifvqhdg","pricing_plan_id":"cebpf4jnsgd1na2vs0mg"},{"bike_id":"f3b2cf9b-41cc-4bae-8991-d9221e0e0cfc","system_id":"levelo_inurba_marseille","lat":43.28276,"lon":5.35089,"is_reserved":false,"is_disabled":false,"rental_uris":{"android":"levelo://app?vid=f3b2cf9b-41cc-4bae-8991-d9221e0e0cfc","ios":"levelo://app?vid=f3b2cf9b-41cc-4bae-8991-d9221e0e0cfc"},"vehicle_type_id":"4","last_reported":1732716523,"current_range_meters":38800,"station_id":"ce4bhbp2rcd13ifvqerg","pricing_plan_id":"cebpf4jnsgd1na2vs0mg"},{"bike_id":"36296f5c-0176-4be0-97c8-7930cda9c369","system_id":"levelo_inurba_marseille","lat":43.32105,"lon":5.3678,"is_reserved":false,"is_disabled":false,"rental_uris":{"android":"levelo://app?vid=36296f5c-0176-4be0-97c8-7930cda9c369","ios":"levelo://app?vid=36296f5c-0176-4be0-97c8-7930cda9c369"},"vehicle_type_id":"4","last_reported":1732716523,"current_range_meters":16400,"station_id":"ce4bhrh2rcd13ifvqhug","pricing_plan_id":"cebpf4jnsgd1na2vs0mg"},{"bike_id":"ad3a700f-a034-42d0-afc0-ee59a9cbce99","system_id":"levelo_inurba_marseille","lat":43.32365,"lon":5.3889,"is_reserved":false,"is_disabled":false,"rental_uris":{"android":"levelo://app?vid=ad3a700f-a034-42d0-afc0-ee59a9cbce99","ios":"levelo://app?vid=ad3a700f-a034-42d0-afc0-ee59a9cbce99"},"vehicle_type_id":"4","last_reported":1732716523,"current_range_meters":34800,"station_id":"ce4bhqp2rcd13ifvqhog","pricing_plan_id":"cebpf4jnsgd1na2vs0mg"},{"bike_id":"94660a4e-ad1e-4f49-a4f8-3325cbadc398","system_id":"levelo_inurba_marseille","lat":43.28404,"lon":5.37516,"is_reserved":false,"is_disabled":false,"rental_uris":{"android":"levelo://app?vid=94660a4e-ad1e-4f49-a4f8-3325cbadc398","ios":"levelo://app?vid=94660a4e-ad1e-4f49-a4f8-3325cbadc398"},"vehicle_type_id":"4","last_reported":1732716523,"current_range_meters":17200,"station_id":"ce4bh412rcd13ifvqds0","pricing_plan_id":"cebpf4jnsgd1na2vs0mg"},{"bike_id":"24280832-ccad-49e4-8062-6ef0033482a6","system_id":"levelo_inurba_marseille","lat":43.313428,"lon":5.367144,"is_reserved":false,"is_disabled":false,"rental_uris":{"android":"levelo://app?vid=24280832-ccad-49e4-8062-6ef0033482a6","ios":"levelo://app?vid=24280832-ccad-49e4-8062-6ef0033482a6"},"vehicle_type_id":"4","last_reported":1732716523,"current_range_meters":24400,"station_id":"ce4bgr92rcd13ifvqc6g","pricing_plan_id":"cebpf4jnsgd1na2vs0mg"},{"bike_id":"418555ea-a55d-4dcc-88b3-4949353f6853","system_id":"levelo_inurba_marseille","lat":43.3171,"lon":5.43708,"is_reserved":false,"is_disabled":false,"rental_uris":{"android":"levelo://app?vid=418555ea-a55d-4dcc-88b3-4949353f6853","ios":"levelo://app?vid=418555ea-a55d-4dcc-88b3-4949353f6853"},"vehicle_type_id":"4","last_reported":1732716523,"current_range_meters":24400,"station_id":"ce4bhp92rcd13ifvqhcg","pricing_plan_id":"cebpf4jnsgd1na2vs0mg"},{"bike_id":"a0a8b6b5-d49b-4d20-88e8-d1bdc63bba6f","system_id":"levelo_inurba_marseille","lat":43.28417,"lon":5.34983,"is_reserved":false,"is_disabled":false,"rental_uris":{"android":"levelo://app?vid=a0a8b6b5-d49b-4d20-88e8-d1bdc63bba6f","ios":"levelo://app?vid=a0a8b6b5-d49b-4d20-88e8-d1bdc63bba6f"},"vehicle_type_id":"4","last_reported":1732716523,"current_range_meters":23200,"station_id":"ce4bhbh2rcd13ifvqepg","pricing_plan_id":"cebpf4jnsgd1na2vs0mg"},{"bike_id":"374e6c41-7d95-43f7-adc6-08ffe5731c13","system_id":"levelo_inurba_marseille","lat":43.25718,"lon":5.41114,"is_reserved":false,"is_disabled":false,"rental_uris":{"android":"levelo://app?vid=374e6c41-7d95-43f7-adc6-08ffe5731c13","ios":"levelo://app?vid=374e6c41-7d95-43f7-adc6-08ffe5731c13"},"vehicle_type_id":"4","last_reported":1732716523,"current_range_meters":18800,"station_id":"ce4bhkp2rcd13ifvqgd0","pricing_plan_id":"cebpf4jnsgd1na2vs0mg"},{"bike_id":"c702349e-4b56-47dc-acbe-351fc10b832b","system_id":"levelo_inurba_marseille","lat":43.33611,"lon":5.41028,"is_reserved":false,"is_disabled":false,"rental_uris":{"android":"levelo://app?vid=c702349e-4b56-47dc-acbe-351fc10b832b","ios":"levelo://app?vid=c702349e-4b56-47dc-acbe-351fc10b832b"},"vehicle_type_id":"4","last_reported":1732716523,"current_range_meters":37600,"station_id":"ce4bhqh2rcd13ifvqhmg","pricing_plan_id":"cebpf4jnsgd1na2vs0mg"},{"bike_id":"d06aaab7-4a56-4e9c-b023-2a6fced4e218","system_id":"levelo_inurba_marseille","lat":43.23152,"lon":5.43706,"is_reserved":false,"is_disabled":true,"rental_uris":{"android":"levelo://app?vid=d06aaab7-4a56-4e9c-b023-2a6fced4e218","ios":"levelo://app?vid=d06aaab7-4a56-4e9c-b023-2a6fced4e218"},"vehicle_type_id":"4","last_reported":1732716523,"current_range_meters":0,"station_id":"ce4bhmp2rcd13ifvqgog","pricing_plan_id":"cebpf4jnsgd1na2vs0mg"},{"bike_id":"19d451e2-e55b-45f9-b19e-4347e99a037a","system_id":"levelo_inurba_marseille","lat":43.27663,"lon":5.38897,"is_reserved":false,"is_disabled":false,"rental_uris":{"android":"levelo://app?vid=19d451e2-e55b-45f9-b19e-4347e99a037a","ios":"levelo://app?vid=19d451e2-e55b-45f9-b19e-4347e99a037a"},"vehicle_type_id":"4","last_reported":1732716523,"current_range_meters":37600,"station_id":"ce4bhi12rcd13ifvqfo0","pricing_plan_id":"cebpf4jnsgd1na2vs0mg"},{"bike_id":"1cd78e3c-eca2-430e-a00b-3450b52eb373","system_id":"levelo_inurba_marseille","lat":43.22928,"lon":5.3538,"is_reserved":false,"is_disabled":false,"rental_uris":{"android":"levelo://app?vid=1cd78e3c-eca2-430e-a00b-3450b52eb373","ios":"levelo://app?vid=1cd78e3c-eca2-430e-a00b-3450b52eb373"},"vehicle_type_id":"4","last_reported":1732716523,"current_range_meters":37600,"station_id":"cpo3532slgdg3j2ikp40","pricing_plan_id":"cebpf4jnsgd1na2vs0mg"},{"bike_id":"e880ec50-a13a-4284-90b8-6f79648e0ca2","system_id":"levelo_inurba_marseille","lat":43.27571,"lon":5.38413,"is_reserved":false,"is_disabled":true,"rental_uris":{"android":"levelo://app?vid=e880ec50-a13a-4284-90b8-6f79648e0ca2","ios":"levelo://app?vid=e880ec50-a13a-4284-90b8-6f79648e0ca2"},"vehicle_type_id":"4","last_reported":1732716523,"current_range_meters":0,"station_id":"ce4bhh92rcd13ifvqfi0","pricing_plan_id":"cebpf4jnsgd1na2vs0mg"},{"bike_id":"681460a9-806c-471b-88e8-ce403c82f10b","system_id":"levelo_inurba_marseille","lat":43.3066,"lon":5.36849,"is_reserved":false,"is_disabled":false,"rental_uris":{"android":"levelo://app?vid=681460a9-806c-471b-88e8-ce403c82f10b","ios":"levelo://app?vid=681460a9-806c-471b-88e8-ce403c82f10b"},"vehicle_type_id":"4","last_reported":1732716523,"current_range_meters":2800,"station_id":"","pricing_plan_id":"cebpf4jnsgd1na2vs0mg"},{"bike_id":"4b1988e0-0611-43bd-889e-206deb8d92d9","system_id":"levelo_inurba_marseille","lat":43.2782,"lon":5.35475,"is_reserved":false,"is_disabled":false,"rental_uris":{"android":"levelo://app?vid=4b1988e0-0611-43bd-889e-206deb8d92d9","ios":"levelo://app?vid=4b1988e0-0611-43bd-889e-206deb8d92d9"},"vehicle_type_id":"4","last_reported":1732716523,"current_range_meters":9200,"station_id":"","pricing_plan_id":"cebpf4jnsgd1na2vs0mg"},{"bike_id":"78cef642-a0b1-46d4-ae22-e2900f040d1a","system_id":"levelo_inurba_marseille","lat":43.28616,"lon":5.35104,"is_reserved":false,"is_disabled":false,"rental_uris":{"android":"levelo://app?vid=78cef642-a0b1-46d4-ae22-e2900f040d1a","ios":"levelo://app?vid=78cef642-a0b1-46d4-ae22-e2900f040d1a"},"vehicle_type_id":"4","last_reported":1732716523,"current_range_meters":24000,"station_id":"ce4bhch2rcd13ifvqeug","pricing_plan_id":"cebpf4jnsgd1na2vs0mg"},{"bike_id":"c1f3a133-feac-4321-aa98-d75866b42056","system_id":"levelo_inurba_marseille","lat":43.25918,"lon":5.40895,"is_reserved":false,"is_disabled":false,"rental_uris":{"android":"levelo://app?vid=c1f3a133-feac-4321-aa98-d75866b42056","ios":"levelo://app?vid=c1f3a133-feac-4321-aa98-d75866b42056"},"vehicle_type_id":"4","last_reported":1732716523,"current_range_meters":8000,"station_id":"ce4bhm92rcd13ifvqglg","pricing_plan_id":"cebpf4jnsgd1na2vs0mg"},{"bike_id":"146859be-050c-4fa7-9473-10d8176aeefd","system_id":"levelo_inurba_marseille","lat":43.25931,"lon":5.40909,"is_reserved":false,"is_disabled":true,"rental_uris":{"android":"levelo://app?vid=146859be-050c-4fa7-9473-10d8176aeefd","ios":"levelo://app?vid=146859be-050c-4fa7-9473-10d8176aeefd"},"vehicle_type_id":"4","last_reported":1732716523,"current_range_meters":0,"station_id":"ce4bhm92rcd13ifvqglg","pricing_plan_id":"cebpf4jnsgd1na2vs0mg"},{"bike_id":"c3783b82-e702-4dd1-8776-d31db30a75c3","system_id":"levelo_inurba_marseille","lat":43.29368,"lon":5.37836,"is_reserved":false,"is_disabled":false,"rental_uris":{"android":"levelo://app?vid=c3783b82-e702-4dd1-8776-d31db30a75c3","ios":"levelo://app?vid=c3783b82-e702-4dd1-8776-d31db30a75c3"},"vehicle_type_id":"4","last_reported":1732716523,"current_range_meters":23200,"station_id":"ce4bgjh2rcd13ifvqbf0","pricing_plan_id":"cebpf4jnsgd1na2vs0mg"},{"bike_id":"807b8862-9f18-47f9-9985-19f11559badb","system_id":"levelo_inurba_marseille","lat":43.33616,"lon":5.41029,"is_reserved":false,"is_disabled":false,"rental_uris":{"android":"levelo://app?vid=807b8862-9f18-47f9-9985-19f11559badb","ios":"levelo://app?vid=807b8862-9f18-47f9-9985-19f11559badb"},"vehicle_type_id":"4","last_reported":1732716523,"current_range_meters":35200,"station_id":"ce4bhqh2rcd13ifvqhmg","pricing_plan_id":"cebpf4jnsgd1na2vs0mg"},{"bike_id":"23ec46d2-63f9-4f62-bae8-093d6665931e","system_id":"levelo_inurba_marseille","lat":43.30547,"lon":5.36546,"is_reserved":false,"is_disabled":false,"rental_uris":{"android":"levelo://app?vid=23ec46d2-63f9-4f62-bae8-093d6665931e","ios":"levelo://app?vid=23ec46d2-63f9-4f62-bae8-093d6665931e"},"vehicle_type_id":"4","last_reported":1732716523,"current_range_meters":12400,"station_id":"ce4bgs12rcd13ifvqcag","pricing_plan_id":"cebpf4jnsgd1na2vs0mg"},{"bike_id":"2e95a691-d7d8-426b-8dba-47b6b56c6a41","system_id":"levelo_inurba_marseille","lat":43.2815,"lon":5.4265,"is_reserved":false,"is_disabled":true,"rental_uris":{"android":"levelo://app?vid=2e95a691-d7d8-426b-8dba-47b6b56c6a41","ios":"levelo://app?vid=2e95a691-d7d8-426b-8dba-47b6b56c6a41"},"vehicle_type_id":"4","last_reported":1732716523,"current_range_meters":1600,"station_id":"ce4bhnh2rcd13ifvqgug","pricing_plan_id":"cebpf4jnsgd1na2vs0mg"},{"bike_id":"d9aac17f-5c86-4428-b3e4-bc62eba8b8f3","system_id":"levelo_inurba_marseille","lat":43.32367,"lon":5.38899,"is_reserved":false,"is_disabled":false,"rental_uris":{"android":"levelo://app?vid=d9aac17f-5c86-4428-b3e4-bc62eba8b8f3","ios":"levelo://app?vid=d9aac17f-5c86-4428-b3e4-bc62eba8b8f3"},"vehicle_type_id":"4","last_reported":1732716523,"current_range_meters":13600,"station_id":"ce4bhqp2rcd13ifvqhog","pricing_plan_id":"cebpf4jnsgd1na2vs0mg"},{"bike_id":"1ca4e7ec-e9f2-4321-a935-1c1937ea6ea9","system_id":"levelo_inurba_marseille","lat":43.30579,"lon":5.37221,"is_reserved":false,"is_disabled":false,"rental_uris":{"android":"levelo://app?vid=1ca4e7ec-e9f2-4321-a935-1c1937ea6ea9","ios":"levelo://app?vid=1ca4e7ec-e9f2-4321-a935-1c1937ea6ea9"},"vehicle_type_id":"4","last_reported":1732716523,"current_range_meters":7200,"station_id":"ce4bgqh2rcd13ifvqc4g","pricing_plan_id":"cebpf4jnsgd1na2vs0mg"},{"bike_id":"fba1ceb6-3cef-4b3a-8f1d-cb2909f800c4","system_id":"levelo_inurba_marseille","lat":43.31355,"lon":5.36697,"is_reserved":false,"is_disabled":false,"rental_uris":{"android":"levelo://app?vid=fba1ceb6-3cef-4b3a-8f1d-cb2909f800c4","ios":"levelo://app?vid=fba1ceb6-3cef-4b3a-8f1d-cb2909f800c4"},"vehicle_type_id":"4","last_reported":1732716523,"current_range_meters":39200,"station_id":"ce4bgr92rcd13ifvqc6g","pricing_plan_id":"cebpf4jnsgd1na2vs0mg"},{"bike_id":"a5848fc1-9c38-4c0f-8cd3-7a1f74903e08","system_id":"levelo_inurba_marseille","lat":43.23186,"lon":5.39984,"is_reserved":false,"is_disabled":false,"rental_uris":{"android":"levelo://app?vid=a5848fc1-9c38-4c0f-8cd3-7a1f74903e08","ios":"levelo://app?vid=a5848fc1-9c38-4c0f-8cd3-7a1f74903e08"},"vehicle_type_id":"4","last_reported":1732716523,"current_range_meters":38800,"station_id":"ce4bhn12rcd13ifvqgqg","pricing_plan_id":"cebpf4jnsgd1na2vs0mg"},{"bike_id":"bf85c0ae-48e0-4e50-a503-48187d5c9650","system_id":"levelo_inurba_marseille","lat":43.30139,"lon":5.37419,"is_reserved":false,"is_disabled":false,"rental_uris":{"android":"levelo://app?vid=bf85c0ae-48e0-4e50-a503-48187d5c9650","ios":"levelo://app?vid=bf85c0ae-48e0-4e50-a503-48187d5c9650"},"vehicle_type_id":"4","last_reported":1732716523,"current_range_meters":38800,"station_id":"ce4bgs92rcd13ifvqcc0","pricing_plan_id":"cebpf4jnsgd1na2vs0mg"},{"bike_id":"16ad57bb-ba2e-4d25-96f6-bb956c61e82c","system_id":"levelo_inurba_marseille","lat":43.23153,"lon":5.43704,"is_reserved":false,"is_disabled":false,"rental_uris":{"android":"levelo://app?vid=16ad57bb-ba2e-4d25-96f6-bb956c61e82c","ios":"levelo://app?vid=16ad57bb-ba2e-4d25-96f6-bb956c61e82c"},"vehicle_type_id":"4","last_reported":1732716523,"current_range_meters":37600,"station_id":"ce4bhmp2rcd13ifvqgog","pricing_plan_id":"cebpf4jnsgd1na2vs0mg"},{"bike_id":"1606c510-b735-4fc8-8ac9-1879292672fd","system_id":"levelo_inurba_marseille","lat":43.25867,"lon":5.39905,"is_reserved":false,"is_disabled":false,"rental_uris":{"android":"levelo://app?vid=1606c510-b735-4fc8-8ac9-1879292672fd","ios":"levelo://app?vid=1606c510-b735-4fc8-8ac9-1879292672fd"},"vehicle_type_id":"4","last_reported":1732716523,"current_range_meters":6800,"station_id":"ce4bhl92rcd13ifvqghg","pricing_plan_id":"cebpf4jnsgd1na2vs0mg"},{"bike_id":"858b65e1-94fc-4151-a71e-8b168cb19dcb","system_id":"levelo_inurba_marseille","lat":43.32249,"lon":5.39241,"is_reserved":false,"is_disabled":true,"rental_uris":{"android":"levelo://app?vid=858b65e1-94fc-4151-a71e-8b168cb19dcb","ios":"levelo://app?vid=858b65e1-94fc-4151-a71e-8b168cb19dcb"},"vehicle_type_id":"4","last_reported":1732716523,"current_range_meters":0,"station_id":"","pricing_plan_id":"cebpf4jnsgd1na2vs0mg"},{"bike_id":"92f1ba81-f98f-4f09-8fcb-0329b2ba61f6","system_id":"levelo_inurba_marseille","lat":43.28403,"lon":5.37526,"is_reserved":false,"is_disabled":false,"rental_uris":{"android":"levelo://app?vid=92f1ba81-f98f-4f09-8fcb-0329b2ba61f6","ios":"levelo://app?vid=92f1ba81-f98f-4f09-8fcb-0329b2ba61f6"},"vehicle_type_id":"4","last_reported":1732716523,"current_range_meters":9600,"station_id":"ce4bh412rcd13ifvqds0","pricing_plan_id":"cebpf4jnsgd1na2vs0mg"},{"bike_id":"e51b2acb-d883-446b-9ce9-347608453ece","system_id":"levelo_inurba_marseille","lat":43.2293,"lon":5.35372,"is_reserved":false,"is_disabled":false,"rental_uris":{"android":"levelo://app?vid=e51b2acb-d883-446b-9ce9-347608453ece","ios":"levelo://app?vid=e51b2acb-d883-446b-9ce9-347608453ece"},"vehicle_type_id":"4","last_reported":1732716523,"current_range_meters":36800,"station_id":"cpo3532slgdg3j2ikp40","pricing_plan_id":"cebpf4jnsgd1na2vs0mg"},{"bike_id":"844ec8e9-1291-4e83-a299-880eb52e8b86","system_id":"levelo_inurba_marseille","lat":43.28089,"lon":5.39648,"is_reserved":false,"is_disabled":true,"rental_uris":{"android":"levelo://app?vid=844ec8e9-1291-4e83-a299-880eb52e8b86","ios":"levelo://app?vid=844ec8e9-1291-4e83-a299-880eb52e8b86"},"vehicle_type_id":"4","last_reported":1732716523,"current_range_meters":0,"station_id":"ce4bho12rcd13ifvqh2g","pricing_plan_id":"cebpf4jnsgd1na2vs0mg"},{"bike_id":"bd6b8863-4811-46d4-a371-f5db2c7dc319","system_id":"levelo_inurba_marseille","lat":43.25822,"lon":5.39442,"is_reserved":false,"is_disabled":false,"rental_uris":{"android":"levelo://app?vid=bd6b8863-4811-46d4-a371-f5db2c7dc319","ios":"levelo://app?vid=bd6b8863-4811-46d4-a371-f5db2c7dc319"},"vehicle_type_id":"4","last_reported":1732716523,"current_range_meters":34800,"station_id":"ce4bhip2rcd13ifvqft0","pricing_plan_id":"cebpf4jnsgd1na2vs0mg"},{"bike_id":"1c7fee1f-e02b-4b88-b0b3-1e45da076f62","system_id":"levelo_inurba_marseille","lat":43.30437,"lon":5.39747,"is_reserved":false,"is_disabled":false,"rental_uris":{"android":"levelo://app?vid=1c7fee1f-e02b-4b88-b0b3-1e45da076f62","ios":"levelo://app?vid=1c7fee1f-e02b-4b88-b0b3-1e45da076f62"},"vehicle_type_id":"4","last_reported":1732716523,"current_range_meters":18000,"station_id":"ce4bh092rcd13ifvqd20","pricing_plan_id":"cebpf4jnsgd1na2vs0mg"},{"bike_id":"1485adb2-b43f-48b8-ae8d-11d7a4a09a13","system_id":"levelo_inurba_marseille","lat":43.30339,"lon":5.41908,"is_reserved":false,"is_disabled":true,"rental_uris":{"android":"levelo://app?vid=1485adb2-b43f-48b8-ae8d-11d7a4a09a13","ios":"levelo://app?vid=1485adb2-b43f-48b8-ae8d-11d7a4a09a13"},"vehicle_type_id":"4","last_reported":1732716523,"current_range_meters":13600,"station_id":"","pricing_plan_id":"cebpf4jnsgd1na2vs0mg"},{"bike_id":"6a84fe5c-81fa-4ede-b74d-0690303fc0a8","system_id":"levelo_inurba_marseille","lat":43.30599,"lon":5.36458,"is_reserved":false,"is_disabled":false,"rental_uris":{"android":"levelo://app?vid=6a84fe5c-81fa-4ede-b74d-0690303fc0a8","ios":"levelo://app?vid=6a84fe5c-81fa-4ede-b74d-0690303fc0a8"},"vehicle_type_id":"4","last_reported":1732716523,"current_range_meters":40000,"station_id":"ce4bgs12rcd13ifvqcag","pricing_plan_id":"cebpf4jnsgd1na2vs0mg"},{"bike_id":"51037a8f-c02b-4fda-8b84-e460d6b69033","system_id":"levelo_inurba_marseille","lat":43.25002,"lon":5.38922,"is_reserved":false,"is_disabled":false,"rental_uris":{"android":"levelo://app?vid=51037a8f-c02b-4fda-8b84-e460d6b69033","ios":"levelo://app?vid=51037a8f-c02b-4fda-8b84-e460d6b69033"},"vehicle_type_id":"4","last_reported":1732716523,"current_range_meters":8800,"station_id":"ce4bhgp2rcd13ifvqfd0","pricing_plan_id":"cebpf4jnsgd1na2vs0mg"},{"bike_id":"ed52d822-6b0d-486b-9d59-49db2c4874f0","system_id":"levelo_inurba_marseille","lat":43.26946,"lon":5.3864,"is_reserved":false,"is_disabled":false,"rental_uris":{"android":"levelo://app?vid=ed52d822-6b0d-486b-9d59-49db2c4874f0","ios":"levelo://app?vid=ed52d822-6b0d-486b-9d59-49db2c4874f0"},"vehicle_type_id":"4","last_reported":1732716523,"current_range_meters":38800,"station_id":"ce4bhh92rcd13ifvqfh0","pricing_plan_id":"cebpf4jnsgd1na2vs0mg"},{"bike_id":"f7f3756c-1ec7-4782-9c87-6273f87b6774","system_id":"levelo_inurba_marseille","lat":43.337444,"lon":5.374475,"is_reserved":false,"is_disabled":true,"rental_uris":{"android":"levelo://app?vid=f7f3756c-1ec7-4782-9c87-6273f87b6774","ios":"levelo://app?vid=f7f3756c-1ec7-4782-9c87-6273f87b6774"},"vehicle_type_id":"4","last_reported":1732716523,"current_range_meters":14800,"station_id":"","pricing_plan_id":"cebpf4jnsgd1na2vs0mg"},{"bike_id":"9a7fc65c-a473-4df1-8da8-b97e38cbdb89","system_id":"levelo_inurba_marseille","lat":43.23145,"lon":5.43727,"is_reserved":false,"is_disabled":false,"rental_uris":{"android":"levelo://app?vid=9a7fc65c-a473-4df1-8da8-b97e38cbdb89","ios":"levelo://app?vid=9a7fc65c-a473-4df1-8da8-b97e38cbdb89"},"vehicle_type_id":"4","last_reported":1732716523,"current_range_meters":38800,"station_id":"ce4bhmp2rcd13ifvqgog","pricing_plan_id":"cebpf4jnsgd1na2vs0mg"},{"bike_id":"703e8aa1-dcfb-4cea-8282-43c583c4255c","system_id":"levelo_inurba_marseille","lat":43.24544,"lon":5.39527,"is_reserved":false,"is_disabled":true,"rental_uris":{"android":"levelo://app?vid=703e8aa1-dcfb-4cea-8282-43c583c4255c","ios":"levelo://app?vid=703e8aa1-dcfb-4cea-8282-43c583c4255c"},"vehicle_type_id":"4","last_reported":1732716523,"current_range_meters":1600,"station_id":"ce4bhlp2rcd13ifvqgjg","pricing_plan_id":"cebpf4jnsgd1na2vs0mg"},{"bike_id":"79248b71-e381-4425-958e-44a988ca2b76","system_id":"levelo_inurba_marseille","lat":43.23151,"lon":5.43717,"is_reserved":false,"is_disabled":false,"rental_uris":{"android":"levelo://app?vid=79248b71-e381-4425-958e-44a988ca2b76","ios":"levelo://app?vid=79248b71-e381-4425-958e-44a988ca2b76"},"vehicle_type_id":"4","last_reported":1732716523,"current_range_meters":38800,"station_id":"ce4bhmp2rcd13ifvqgog","pricing_plan_id":"cebpf4jnsgd1na2vs0mg"},{"bike_id":"2178bc4c-c16d-4580-adf6-0680b3b2a887","system_id":"levelo_inurba_marseille","lat":43.24997,"lon":5.38928,"is_reserved":false,"is_disabled":false,"rental_uris":{"android":"levelo://app?vid=2178bc4c-c16d-4580-adf6-0680b3b2a887","ios":"levelo://app?vid=2178bc4c-c16d-4580-adf6-0680b3b2a887"},"vehicle_type_id":"4","last_reported":1732716523,"current_range_meters":26000,"station_id":"ce4bhgp2rcd13ifvqfd0","pricing_plan_id":"cebpf4jnsgd1na2vs0mg"},{"bike_id":"b50e75d4-512b-4841-acaa-2bfeea75bcc7","system_id":"levelo_inurba_marseille","lat":43.24808,"lon":5.37463,"is_reserved":false,"is_disabled":false,"rental_uris":{"android":"levelo://app?vid=b50e75d4-512b-4841-acaa-2bfeea75bcc7","ios":"levelo://app?vid=b50e75d4-512b-4841-acaa-2bfeea75bcc7"},"vehicle_type_id":"4","last_reported":1732716523,"current_range_meters":3200,"station_id":"ce4bhgh2rcd13ifvqfb0","pricing_plan_id":"cebpf4jnsgd1na2vs0mg"},{"bike_id":"c3b6501c-90a2-4e6a-8498-856e2280396b","system_id":"levelo_inurba_marseille","lat":43.29046,"lon":5.39938,"is_reserved":false,"is_disabled":false,"rental_uris":{"android":"levelo://app?vid=c3b6501c-90a2-4e6a-8498-856e2280396b","ios":"levelo://app?vid=c3b6501c-90a2-4e6a-8498-856e2280396b"},"vehicle_type_id":"4","last_reported":1732716523,"current_range_meters":38800,"station_id":"ce4bh392rcd13ifvqdm0","pricing_plan_id":"cebpf4jnsgd1na2vs0mg"},{"bike_id":"ec502088-b332-451a-8c6c-89a366d358a6","system_id":"levelo_inurba_marseille","lat":43.29885,"lon":5.38904,"is_reserved":false,"is_disabled":false,"rental_uris":{"android":"levelo://app?vid=ec502088-b332-451a-8c6c-89a366d358a6","ios":"levelo://app?vid=ec502088-b332-451a-8c6c-89a366d358a6"},"vehicle_type_id":"4","last_reported":1732716523,"current_range_meters":8400,"station_id":"ce4bh392rcd13ifvqdl0","pricing_plan_id":"cebpf4jnsgd1na2vs0mg"},{"bike_id":"c9fe4c77-ed2c-41bd-93c3-273c631862d6","system_id":"levelo_inurba_marseille","lat":43.25873,"lon":5.39904,"is_reserved":false,"is_disabled":false,"rental_uris":{"android":"levelo://app?vid=c9fe4c77-ed2c-41bd-93c3-273c631862d6","ios":"levelo://app?vid=c9fe4c77-ed2c-41bd-93c3-273c631862d6"},"vehicle_type_id":"4","last_reported":1732716523,"current_range_meters":8400,"station_id":"ce4bhl92rcd13ifvqghg","pricing_plan_id":"cebpf4jnsgd1na2vs0mg"},{"bike_id":"a5909545-3e09-4859-9fda-9ffe4e6e4883","system_id":"levelo_inurba_marseille","lat":43.23065,"lon":5.35491,"is_reserved":false,"is_disabled":false,"rental_uris":{"android":"levelo://app?vid=a5909545-3e09-4859-9fda-9ffe4e6e4883","ios":"levelo://app?vid=a5909545-3e09-4859-9fda-9ffe4e6e4883"},"vehicle_type_id":"4","last_reported":1732716523,"current_range_meters":27200,"station_id":"cpo3342slgdg3j2ifvpg","pricing_plan_id":"cebpf4jnsgd1na2vs0mg"},{"bike_id":"7b73fe30-a819-4feb-aa20-f4b0987b295e","system_id":"levelo_inurba_marseille","lat":43.30956,"lon":5.39036,"is_reserved":false,"is_disabled":true,"rental_uris":{"android":"levelo://app?vid=7b73fe30-a819-4feb-aa20-f4b0987b295e","ios":"levelo://app?vid=7b73fe30-a819-4feb-aa20-f4b0987b295e"},"vehicle_type_id":"4","last_reported":1732716523,"current_range_meters":400,"station_id":"ce4bgup2rcd13ifvqco0","pricing_plan_id":"cebpf4jnsgd1na2vs0mg"},{"bike_id":"5be1675a-51c4-474f-8f58-627231db95d5","system_id":"levelo_inurba_marseille","lat":43.32112,"lon":5.36799,"is_reserved":false,"is_disabled":false,"rental_uris":{"android":"levelo://app?vid=5be1675a-51c4-474f-8f58-627231db95d5","ios":"levelo://app?vid=5be1675a-51c4-474f-8f58-627231db95d5"},"vehicle_type_id":"4","last_reported":1732716523,"current_range_meters":25200,"station_id":"ce4bhrh2rcd13ifvqhug","pricing_plan_id":"cebpf4jnsgd1na2vs0mg"},{"bike_id":"945df11d-ba9a-4aab-a3f2-fbf39aa3c1d6","system_id":"levelo_inurba_marseille","lat":43.23185,"lon":5.39983,"is_reserved":false,"is_disabled":false,"rental_uris":{"android":"levelo://app?vid=945df11d-ba9a-4aab-a3f2-fbf39aa3c1d6","ios":"levelo://app?vid=945df11d-ba9a-4aab-a3f2-fbf39aa3c1d6"},"vehicle_type_id":"4","last_reported":1732716523,"current_range_meters":11200,"station_id":"ce4bhn12rcd13ifvqgqg","pricing_plan_id":"cebpf4jnsgd1na2vs0mg"},{"bike_id":"93bdad9f-a064-4262-bf56-1c371419210f","system_id":"levelo_inurba_marseille","lat":43.29933,"lon":5.36548,"is_reserved":false,"is_disabled":false,"rental_uris":{"android":"levelo://app?vid=93bdad9f-a064-4262-bf56-1c371419210f","ios":"levelo://app?vid=93bdad9f-a064-4262-bf56-1c371419210f"},"vehicle_type_id":"4","last_reported":1732716523,"current_range_meters":27600,"station_id":"ce4bgm92rcd13ifvqbr0","pricing_plan_id":"cebpf4jnsgd1na2vs0mg"},{"bike_id":"e5951ee3-4a5a-4ebb-b469-096c5188dfa3","system_id":"levelo_inurba_marseille","lat":43.23206,"lon":5.35565,"is_reserved":false,"is_disabled":false,"rental_uris":{"android":"levelo://app?vid=e5951ee3-4a5a-4ebb-b469-096c5188dfa3","ios":"levelo://app?vid=e5951ee3-4a5a-4ebb-b469-096c5188dfa3"},"vehicle_type_id":"4","last_reported":1732716523,"current_range_meters":31200,"station_id":"ce4bhu92rcd13ifvqi70","pricing_plan_id":"cebpf4jnsgd1na2vs0mg"},{"bike_id":"e5b991b9-8014-43b8-9238-281125e947ed","system_id":"levelo_inurba_marseille","lat":43.31493,"lon":5.37313,"is_reserved":false,"is_disabled":false,"rental_uris":{"android":"levelo://app?vid=e5b991b9-8014-43b8-9238-281125e947ed","ios":"levelo://app?vid=e5b991b9-8014-43b8-9238-281125e947ed"},"vehicle_type_id":"4","last_reported":1732716523,"current_range_meters":9600,"station_id":"ce4bgt12rcd13ifvqcd0","pricing_plan_id":"cebpf4jnsgd1na2vs0mg"},{"bike_id":"39a99b8e-53e2-4290-9e7d-e23bcdf36e26","system_id":"levelo_inurba_marseille","lat":43.25557,"lon":5.38273,"is_reserved":false,"is_disabled":false,"rental_uris":{"android":"levelo://app?vid=39a99b8e-53e2-4290-9e7d-e23bcdf36e26","ios":"levelo://app?vid=39a99b8e-53e2-4290-9e7d-e23bcdf36e26"},"vehicle_type_id":"4","last_reported":1732716523,"current_range_meters":18800,"station_id":"ce4bhih2rcd13ifvqfs0","pricing_plan_id":"cebpf4jnsgd1na2vs0mg"},{"bike_id":"6af24b43-00d8-4650-ad03-00fab79178dc","system_id":"levelo_inurba_marseille","lat":43.28702,"lon":5.3999,"is_reserved":false,"is_disabled":false,"rental_uris":{"android":"levelo://app?vid=6af24b43-00d8-4650-ad03-00fab79178dc","ios":"levelo://app?vid=6af24b43-00d8-4650-ad03-00fab79178dc"},"vehicle_type_id":"4","last_reported":1732716523,"current_range_meters":28000,"station_id":"ce4bho92rcd13ifvqh3g","pricing_plan_id":"cebpf4jnsgd1na2vs0mg"},{"bike_id":"6c948e9c-d5b3-4fe5-a918-1bd2f7c83b02","system_id":"levelo_inurba_marseille","lat":43.32111,"lon":5.3677,"is_reserved":false,"is_disabled":false,"rental_uris":{"android":"levelo://app?vid=6c948e9c-d5b3-4fe5-a918-1bd2f7c83b02","ios":"levelo://app?vid=6c948e9c-d5b3-4fe5-a918-1bd2f7c83b02"},"vehicle_type_id":"4","last_reported":1732716523,"current_range_meters":12400,"station_id":"ce4bhrh2rcd13ifvqhug","pricing_plan_id":"cebpf4jnsgd1na2vs0mg"},{"bike_id":"b5451932-7fa1-4f5c-9cf1-89ee033bd9d5","system_id":"levelo_inurba_marseille","lat":43.2901,"lon":5.35619,"is_reserved":false,"is_disabled":false,"rental_uris":{"android":"levelo://app?vid=b5451932-7fa1-4f5c-9cf1-89ee033bd9d5","ios":"levelo://app?vid=b5451932-7fa1-4f5c-9cf1-89ee033bd9d5"},"vehicle_type_id":"4","last_reported":1732716523,"current_range_meters":33600,"station_id":"ce4bhb92rcd13ifvqen0","pricing_plan_id":"cebpf4jnsgd1na2vs0mg"},{"bike_id":"319db8f6-ad1c-4b46-ad57-5033d5ed25eb","system_id":"levelo_inurba_marseille","lat":43.25719,"lon":5.4112,"is_reserved":false,"is_disabled":false,"rental_uris":{"android":"levelo://app?vid=319db8f6-ad1c-4b46-ad57-5033d5ed25eb","ios":"levelo://app?vid=319db8f6-ad1c-4b46-ad57-5033d5ed25eb"},"vehicle_type_id":"4","last_reported":1732716523,"current_range_meters":18800,"station_id":"ce4bhkp2rcd13ifvqgd0","pricing_plan_id":"cebpf4jnsgd1na2vs0mg"},{"bike_id":"5c53cfbd-2547-413a-b79a-f8cc3b1ca992","system_id":"levelo_inurba_marseille","lat":43.32109,"lon":5.3678,"is_reserved":false,"is_disabled":false,"rental_uris":{"android":"levelo://app?vid=5c53cfbd-2547-413a-b79a-f8cc3b1ca992","ios":"levelo://app?vid=5c53cfbd-2547-413a-b79a-f8cc3b1ca992"},"vehicle_type_id":"4","last_reported":1732716523,"current_range_meters":27600,"station_id":"ce4bhrh2rcd13ifvqhug","pricing_plan_id":"cebpf4jnsgd1na2vs0mg"},{"bike_id":"5b4fcc08-6127-4447-8e1a-d93d495358b3","system_id":"levelo_inurba_marseille","lat":43.2997,"lon":5.38483,"is_reserved":false,"is_disabled":false,"rental_uris":{"android":"levelo://app?vid=5b4fcc08-6127-4447-8e1a-d93d495358b3","ios":"levelo://app?vid=5b4fcc08-6127-4447-8e1a-d93d495358b3"},"vehicle_type_id":"4","last_reported":1732716523,"current_range_meters":31200,"station_id":"ce4bgj92rcd13ifvqbd0","pricing_plan_id":"cebpf4jnsgd1na2vs0mg"},{"bike_id":"fb270e8d-41be-4f6a-aa67-3213668ac662","system_id":"levelo_inurba_marseille","lat":43.26548,"lon":5.37295,"is_reserved":false,"is_disabled":false,"rental_uris":{"android":"levelo://app?vid=fb270e8d-41be-4f6a-aa67-3213668ac662","ios":"levelo://app?vid=fb270e8d-41be-4f6a-aa67-3213668ac662"},"vehicle_type_id":"4","last_reported":1732716523,"current_range_meters":35600,"station_id":"ce4bhg12rcd13ifvqf70","pricing_plan_id":"cebpf4jnsgd1na2vs0mg"},{"bike_id":"800620c1-ae15-41b1-a8b5-5677d4992ccb","system_id":"levelo_inurba_marseille","lat":43.30591,"lon":5.39354,"is_reserved":false,"is_disabled":false,"rental_uris":{"android":"levelo://app?vid=800620c1-ae15-41b1-a8b5-5677d4992ccb","ios":"levelo://app?vid=800620c1-ae15-41b1-a8b5-5677d4992ccb"},"vehicle_type_id":"4","last_reported":1732716523,"current_range_meters":20000,"station_id":"ce4bh0p2rcd13ifvqd80","pricing_plan_id":"cebpf4jnsgd1na2vs0mg"},{"bike_id":"c32aafd8-8905-4559-a1d0-f74aa7efcf0e","system_id":"levelo_inurba_marseille","lat":43.338,"lon":5.37474,"is_reserved":false,"is_disabled":false,"rental_uris":{"android":"levelo://app?vid=c32aafd8-8905-4559-a1d0-f74aa7efcf0e","ios":"levelo://app?vid=c32aafd8-8905-4559-a1d0-f74aa7efcf0e"},"vehicle_type_id":"4","last_reported":1732716523,"current_range_meters":37600,"station_id":"","pricing_plan_id":"cebpf4jnsgd1na2vs0mg"},{"bike_id":"a8f2d870-5fcc-4d8a-9d95-0a2f83ba798b","system_id":"levelo_inurba_marseille","lat":43.3054,"lon":5.36548,"is_reserved":false,"is_disabled":false,"rental_uris":{"android":"levelo://app?vid=a8f2d870-5fcc-4d8a-9d95-0a2f83ba798b","ios":"levelo://app?vid=a8f2d870-5fcc-4d8a-9d95-0a2f83ba798b"},"vehicle_type_id":"4","last_reported":1732716523,"current_range_meters":32400,"station_id":"ce4bgs12rcd13ifvqcag","pricing_plan_id":"cebpf4jnsgd1na2vs0mg"},{"bike_id":"2967b0ca-4e1a-4783-9987-d7bd5da13dd8","system_id":"levelo_inurba_marseille","lat":43.31484,"lon":5.37307,"is_reserved":false,"is_disabled":false,"rental_uris":{"android":"levelo://app?vid=2967b0ca-4e1a-4783-9987-d7bd5da13dd8","ios":"levelo://app?vid=2967b0ca-4e1a-4783-9987-d7bd5da13dd8"},"vehicle_type_id":"4","last_reported":1732716523,"current_range_meters":9600,"station_id":"ce4bgt12rcd13ifvqcd0","pricing_plan_id":"cebpf4jnsgd1na2vs0mg"},{"bike_id":"0dbf4a25-0b81-4076-980f-2de46488ffa7","system_id":"levelo_inurba_marseille","lat":43.28615,"lon":5.35098,"is_reserved":false,"is_disabled":false,"rental_uris":{"android":"levelo://app?vid=0dbf4a25-0b81-4076-980f-2de46488ffa7","ios":"levelo://app?vid=0dbf4a25-0b81-4076-980f-2de46488ffa7"},"vehicle_type_id":"4","last_reported":1732716523,"current_range_meters":13600,"station_id":"ce4bhch2rcd13ifvqeug","pricing_plan_id":"cebpf4jnsgd1na2vs0mg"},{"bike_id":"b0532d77-a652-43de-8ae1-079cd29bfc13","system_id":"levelo_inurba_marseille","lat":43.32362,"lon":5.38885,"is_reserved":false,"is_disabled":false,"rental_uris":{"android":"levelo://app?vid=b0532d77-a652-43de-8ae1-079cd29bfc13","ios":"levelo://app?vid=b0532d77-a652-43de-8ae1-079cd29bfc13"},"vehicle_type_id":"4","last_reported":1732716523,"current_range_meters":19600,"station_id":"ce4bhqp2rcd13ifvqhog","pricing_plan_id":"cebpf4jnsgd1na2vs0mg"},{"bike_id":"43746d86-8a13-4845-9faf-ae69b548d714","system_id":"levelo_inurba_marseille","lat":43.29459,"lon":5.37917,"is_reserved":false,"is_disabled":true,"rental_uris":{"android":"levelo://app?vid=43746d86-8a13-4845-9faf-ae69b548d714","ios":"levelo://app?vid=43746d86-8a13-4845-9faf-ae69b548d714"},"vehicle_type_id":"4","last_reported":1732716523,"current_range_meters":0,"station_id":"","pricing_plan_id":"cebpf4jnsgd1na2vs0mg"},{"bike_id":"7c41b238-5075-4eba-aec2-8f68e388a130","system_id":"levelo_inurba_marseille","lat":43.30793,"lon":5.37655,"is_reserved":false,"is_disabled":false,"rental_uris":{"android":"levelo://app?vid=7c41b238-5075-4eba-aec2-8f68e388a130","ios":"levelo://app?vid=7c41b238-5075-4eba-aec2-8f68e388a130"},"vehicle_type_id":"4","last_reported":1732716523,"current_range_meters":10000,"station_id":"ce4bgv92rcd13ifvqcq0","pricing_plan_id":"cebpf4jnsgd1na2vs0mg"},{"bike_id":"c4a7e894-f878-4bab-a8aa-1db498e677c5","system_id":"levelo_inurba_marseille","lat":43.26801,"lon":5.40268,"is_reserved":false,"is_disabled":true,"rental_uris":{"android":"levelo://app?vid=c4a7e894-f878-4bab-a8aa-1db498e677c5","ios":"levelo://app?vid=c4a7e894-f878-4bab-a8aa-1db498e677c5"},"vehicle_type_id":"4","last_reported":1732716523,"current_range_meters":0,"station_id":"ce501612rcd8frsf0b60","pricing_plan_id":"cebpf4jnsgd1na2vs0mg"},{"bike_id":"df76b7bf-b879-4e94-9796-439ee296ef0a","system_id":"levelo_inurba_marseille","lat":43.22925,"lon":5.35381,"is_reserved":false,"is_disabled":false,"rental_uris":{"android":"levelo://app?vid=df76b7bf-b879-4e94-9796-439ee296ef0a","ios":"levelo://app?vid=df76b7bf-b879-4e94-9796-439ee296ef0a"},"vehicle_type_id":"4","last_reported":1732716523,"current_range_meters":37600,"station_id":"cpo3532slgdg3j2ikp40","pricing_plan_id":"cebpf4jnsgd1na2vs0mg"},{"bike_id":"37f04e0d-7fd2-40a9-9589-db4de90a2f1a","system_id":"levelo_inurba_marseille","lat":43.25862,"lon":5.39908,"is_reserved":false,"is_disabled":false,"rental_uris":{"android":"levelo://app?vid=37f04e0d-7fd2-40a9-9589-db4de90a2f1a","ios":"levelo://app?vid=37f04e0d-7fd2-40a9-9589-db4de90a2f1a"},"vehicle_type_id":"4","last_reported":1732716523,"current_range_meters":38800,"station_id":"ce4bhl92rcd13ifvqghg","pricing_plan_id":"cebpf4jnsgd1na2vs0mg"},{"bike_id":"fea2907f-0b31-4fce-8190-2460529f9e4d","system_id":"levelo_inurba_marseille","lat":43.29197,"lon":5.39311,"is_reserved":false,"is_disabled":false,"rental_uris":{"android":"levelo://app?vid=fea2907f-0b31-4fce-8190-2460529f9e4d","ios":"levelo://app?vid=fea2907f-0b31-4fce-8190-2460529f9e4d"},"vehicle_type_id":"4","last_reported":1732716523,"current_range_meters":4800,"station_id":"ce4bh192rcd13ifvqdd0","pricing_plan_id":"cebpf4jnsgd1na2vs0mg"},{"bike_id":"c38bafd9-d2ff-4d8a-8bf3-f36a7e655c1d","system_id":"levelo_inurba_marseille","lat":43.2465,"lon":5.38907,"is_reserved":false,"is_disabled":false,"rental_uris":{"android":"levelo://app?vid=c38bafd9-d2ff-4d8a-8bf3-f36a7e655c1d","ios":"levelo://app?vid=c38bafd9-d2ff-4d8a-8bf3-f36a7e655c1d"},"vehicle_type_id":"4","last_reported":1732716523,"current_range_meters":27600,"station_id":"ce4bhg12rcd13ifvqf60","pricing_plan_id":"cebpf4jnsgd1na2vs0mg"},{"bike_id":"165c973b-d60b-4227-bb99-42e1ae4ecc62","system_id":"levelo_inurba_marseille","lat":43.32537,"lon":5.4144,"is_reserved":false,"is_disabled":false,"rental_uris":{"android":"levelo://app?vid=165c973b-d60b-4227-bb99-42e1ae4ecc62","ios":"levelo://app?vid=165c973b-d60b-4227-bb99-42e1ae4ecc62"},"vehicle_type_id":"4","last_reported":1732716523,"current_range_meters":22800,"station_id":"ce4bhq12rcd13ifvqhhg","pricing_plan_id":"cebpf4jnsgd1na2vs0mg"},{"bike_id":"c7c8eb9f-a72f-46cc-a7d7-36fb49eb8a83","system_id":"levelo_inurba_marseille","lat":43.337444,"lon":5.374475,"is_reserved":false,"is_disabled":true,"rental_uris":{"android":"levelo://app?vid=c7c8eb9f-a72f-46cc-a7d7-36fb49eb8a83","ios":"levelo://app?vid=c7c8eb9f-a72f-46cc-a7d7-36fb49eb8a83"},"vehicle_type_id":"4","last_reported":1732716523,"current_range_meters":0,"station_id":"","pricing_plan_id":"cebpf4jnsgd1na2vs0mg"},{"bike_id":"0475d691-409f-4186-9fbf-9871c4c0ff7e","system_id":"levelo_inurba_marseille","lat":43.26777,"lon":5.39422,"is_reserved":false,"is_disabled":true,"rental_uris":{"android":"levelo://app?vid=0475d691-409f-4186-9fbf-9871c4c0ff7e","ios":"levelo://app?vid=0475d691-409f-4186-9fbf-9871c4c0ff7e"},"vehicle_type_id":"4","last_reported":1732716523,"current_range_meters":0,"station_id":"ce4bhh12rcd13ifvqfg0","pricing_plan_id":"cebpf4jnsgd1na2vs0mg"},{"bike_id":"cf298d8c-a0c9-4883-b341-ff4459ca7832","system_id":"levelo_inurba_marseille","lat":43.22932,"lon":5.35378,"is_reserved":false,"is_disabled":false,"rental_uris":{"android":"levelo://app?vid=cf298d8c-a0c9-4883-b341-ff4459ca7832","ios":"levelo://app?vid=cf298d8c-a0c9-4883-b341-ff4459ca7832"},"vehicle_type_id":"4","last_reported":1732716523,"current_range_meters":38000,"station_id":"cpo3532slgdg3j2ikp40","pricing_plan_id":"cebpf4jnsgd1na2vs0mg"},{"bike_id":"bce13c83-77f2-43e1-bca7-50afe3af9417","system_id":"levelo_inurba_marseille","lat":43.26491,"lon":5.39552,"is_reserved":false,"is_disabled":false,"rental_uris":{"android":"levelo://app?vid=bce13c83-77f2-43e1-bca7-50afe3af9417","ios":"levelo://app?vid=bce13c83-77f2-43e1-bca7-50afe3af9417"},"vehicle_type_id":"4","last_reported":1732716523,"current_range_meters":14400,"station_id":"ce4bhi12rcd13ifvqfq0","pricing_plan_id":"cebpf4jnsgd1na2vs0mg"},{"bike_id":"8d7a490f-aa91-41ca-9566-ced6dfbcffad","system_id":"levelo_inurba_marseille","lat":43.29022,"lon":5.38645,"is_reserved":false,"is_disabled":false,"rental_uris":{"android":"levelo://app?vid=8d7a490f-aa91-41ca-9566-ced6dfbcffad","ios":"levelo://app?vid=8d7a490f-aa91-41ca-9566-ced6dfbcffad"},"vehicle_type_id":"4","last_reported":1732716523,"current_range_meters":38400,"station_id":"ce4bh4p2rcd13ifvqe0g","pricing_plan_id":"cebpf4jnsgd1na2vs0mg"},{"bike_id":"d9ef5ed5-65f4-4a4b-8dbb-274b0e908852","system_id":"levelo_inurba_marseille","lat":43.2417,"lon":5.36392,"is_reserved":false,"is_disabled":false,"rental_uris":{"android":"levelo://app?vid=d9ef5ed5-65f4-4a4b-8dbb-274b0e908852","ios":"levelo://app?vid=d9ef5ed5-65f4-4a4b-8dbb-274b0e908852"},"vehicle_type_id":"4","last_reported":1732716523,"current_range_meters":24800,"station_id":"cpo36qri1sfpv3e86is0","pricing_plan_id":"cebpf4jnsgd1na2vs0mg"},{"bike_id":"3bda0192-441f-448b-a44b-62afdb2df3e6","system_id":"levelo_inurba_marseille","lat":43.27806,"lon":5.40712,"is_reserved":false,"is_disabled":false,"rental_uris":{"android":"levelo://app?vid=3bda0192-441f-448b-a44b-62afdb2df3e6","ios":"levelo://app?vid=3bda0192-441f-448b-a44b-62afdb2df3e6"},"vehicle_type_id":"4","last_reported":1732716523,"current_range_meters":38800,"station_id":"ce4bhnh2rcd13ifvqgtg","pricing_plan_id":"cebpf4jnsgd1na2vs0mg"},{"bike_id":"c88f8730-1176-4717-97e2-17c27b15274f","system_id":"levelo_inurba_marseille","lat":43.23194,"lon":5.35553,"is_reserved":false,"is_disabled":true,"rental_uris":{"android":"levelo://app?vid=c88f8730-1176-4717-97e2-17c27b15274f","ios":"levelo://app?vid=c88f8730-1176-4717-97e2-17c27b15274f"},"vehicle_type_id":"4","last_reported":1732716523,"current_range_meters":1600,"station_id":"ce4bhu92rcd13ifvqi70","pricing_plan_id":"cebpf4jnsgd1na2vs0mg"},{"bike_id":"61fc6321-4a46-43a5-9574-451ddc156868","system_id":"levelo_inurba_marseille","lat":43.26795,"lon":5.39412,"is_reserved":false,"is_disabled":false,"rental_uris":{"android":"levelo://app?vid=61fc6321-4a46-43a5-9574-451ddc156868","ios":"levelo://app?vid=61fc6321-4a46-43a5-9574-451ddc156868"},"vehicle_type_id":"4","last_reported":1732716523,"current_range_meters":4000,"station_id":"ce4bhh12rcd13ifvqfg0","pricing_plan_id":"cebpf4jnsgd1na2vs0mg"},{"bike_id":"45cc0129-d320-4c4f-95cc-6b85bf99203c","system_id":"levelo_inurba_marseille","lat":43.32291,"lon":5.3828,"is_reserved":false,"is_disabled":false,"rental_uris":{"android":"levelo://app?vid=45cc0129-d320-4c4f-95cc-6b85bf99203c","ios":"levelo://app?vid=45cc0129-d320-4c4f-95cc-6b85bf99203c"},"vehicle_type_id":"4","last_reported":1732716523,"current_range_meters":25200,"station_id":"ce4bhr12rcd13ifvqhqg","pricing_plan_id":"cebpf4jnsgd1na2vs0mg"},{"bike_id":"1d491570-34a1-4266-9dd8-096aad79ce71","system_id":"levelo_inurba_marseille","lat":43.28425,"lon":5.34982,"is_reserved":false,"is_disabled":false,"rental_uris":{"android":"levelo://app?vid=1d491570-34a1-4266-9dd8-096aad79ce71","ios":"levelo://app?vid=1d491570-34a1-4266-9dd8-096aad79ce71"},"vehicle_type_id":"4","last_reported":1732716523,"current_range_meters":38800,"station_id":"ce4bhbh2rcd13ifvqepg","pricing_plan_id":"cebpf4jnsgd1na2vs0mg"},{"bike_id":"57708479-11f2-43d8-90bb-6817d97d5b5a","system_id":"levelo_inurba_marseille","lat":43.27987,"lon":5.41667,"is_reserved":false,"is_disabled":false,"rental_uris":{"android":"levelo://app?vid=57708479-11f2-43d8-90bb-6817d97d5b5a","ios":"levelo://app?vid=57708479-11f2-43d8-90bb-6817d97d5b5a"},"vehicle_type_id":"4","last_reported":1732716523,"current_range_meters":37600,"station_id":"ce4bho12rcd13ifvqh1g","pricing_plan_id":"cebpf4jnsgd1na2vs0mg"},{"bike_id":"f2a8bf7c-e95d-4f56-9a1e-f01d605b8730","system_id":"levelo_inurba_marseille","lat":43.28717,"lon":5.39985,"is_reserved":false,"is_disabled":false,"rental_uris":{"android":"levelo://app?vid=f2a8bf7c-e95d-4f56-9a1e-f01d605b8730","ios":"levelo://app?vid=f2a8bf7c-e95d-4f56-9a1e-f01d605b8730"},"vehicle_type_id":"4","last_reported":1732716523,"current_range_meters":30000,"station_id":"ce4bho92rcd13ifvqh3g","pricing_plan_id":"cebpf4jnsgd1na2vs0mg"},{"bike_id":"4c576665-53f4-405a-9d3e-a9cf044fb44b","system_id":"levelo_inurba_marseille","lat":43.2922,"lon":5.36062,"is_reserved":false,"is_disabled":false,"rental_uris":{"android":"levelo://app?vid=4c576665-53f4-405a-9d3e-a9cf044fb44b","ios":"levelo://app?vid=4c576665-53f4-405a-9d3e-a9cf044fb44b"},"vehicle_type_id":"4","last_reported":1732716523,"current_range_meters":38800,"station_id":"ce4bhbh2rcd13ifvqeqg","pricing_plan_id":"cebpf4jnsgd1na2vs0mg"},{"bike_id":"1614e2a5-eff6-4651-9d69-3a3985cf0ea9","system_id":"levelo_inurba_marseille","lat":43.28222,"lon":5.39856,"is_reserved":false,"is_disabled":false,"rental_uris":{"android":"levelo://app?vid=1614e2a5-eff6-4651-9d69-3a3985cf0ea9","ios":"levelo://app?vid=1614e2a5-eff6-4651-9d69-3a3985cf0ea9"},"vehicle_type_id":"4","last_reported":1732716523,"current_range_meters":10000,"station_id":"","pricing_plan_id":"cebpf4jnsgd1na2vs0mg"},{"bike_id":"018d1789-ac79-4584-bb14-e2348ca5d0f3","system_id":"levelo_inurba_marseille","lat":43.25498,"lon":5.37656,"is_reserved":false,"is_disabled":false,"rental_uris":{"android":"levelo://app?vid=018d1789-ac79-4584-bb14-e2348ca5d0f3","ios":"levelo://app?vid=018d1789-ac79-4584-bb14-e2348ca5d0f3"},"vehicle_type_id":"4","last_reported":1732716523,"current_range_meters":19600,"station_id":"ce4bhh12rcd13ifvqff0","pricing_plan_id":"cebpf4jnsgd1na2vs0mg"},{"bike_id":"07166161-57d3-4ee1-aa7a-80001a63ee93","system_id":"levelo_inurba_marseille","lat":43.23179,"lon":5.39983,"is_reserved":false,"is_disabled":false,"rental_uris":{"android":"levelo://app?vid=07166161-57d3-4ee1-aa7a-80001a63ee93","ios":"levelo://app?vid=07166161-57d3-4ee1-aa7a-80001a63ee93"},"vehicle_type_id":"4","last_reported":1732716523,"current_range_meters":38800,"station_id":"ce4bhn12rcd13ifvqgqg","pricing_plan_id":"cebpf4jnsgd1na2vs0mg"},{"bike_id":"8fcd770b-940f-407b-9e9a-2dfa664049d0","system_id":"levelo_inurba_marseille","lat":43.29548,"lon":5.4233,"is_reserved":false,"is_disabled":false,"rental_uris":{"android":"levelo://app?vid=8fcd770b-940f-407b-9e9a-2dfa664049d0","ios":"levelo://app?vid=8fcd770b-940f-407b-9e9a-2dfa664049d0"},"vehicle_type_id":"4","last_reported":1732716523,"current_range_meters":38000,"station_id":"ce4bhph2rcd13ifvqhdg","pricing_plan_id":"cebpf4jnsgd1na2vs0mg"},{"bike_id":"375baf82-9943-44a7-9d55-4adb9f5a9d70","system_id":"levelo_inurba_marseille","lat":43.33607,"lon":5.4104,"is_reserved":false,"is_disabled":false,"rental_uris":{"android":"levelo://app?vid=375baf82-9943-44a7-9d55-4adb9f5a9d70","ios":"levelo://app?vid=375baf82-9943-44a7-9d55-4adb9f5a9d70"},"vehicle_type_id":"4","last_reported":1732716523,"current_range_meters":22000,"station_id":"ce4bhqh2rcd13ifvqhmg","pricing_plan_id":"cebpf4jnsgd1na2vs0mg"},{"bike_id":"e9c17faa-0a50-4311-9b95-9e8911926bd0","system_id":"levelo_inurba_marseille","lat":43.30535,"lon":5.36707,"is_reserved":false,"is_disabled":false,"rental_uris":{"android":"levelo://app?vid=e9c17faa-0a50-4311-9b95-9e8911926bd0","ios":"levelo://app?vid=e9c17faa-0a50-4311-9b95-9e8911926bd0"},"vehicle_type_id":"4","last_reported":1732716523,"current_range_meters":14400,"station_id":"ce4bgrp2rcd13ifvqc9g","pricing_plan_id":"cebpf4jnsgd1na2vs0mg"},{"bike_id":"7a086e42-ce44-4f55-9f35-ec9f7a12c018","system_id":"levelo_inurba_marseille","lat":43.29036,"lon":5.39966,"is_reserved":false,"is_disabled":false,"rental_uris":{"android":"levelo://app?vid=7a086e42-ce44-4f55-9f35-ec9f7a12c018","ios":"levelo://app?vid=7a086e42-ce44-4f55-9f35-ec9f7a12c018"},"vehicle_type_id":"4","last_reported":1732716523,"current_range_meters":18000,"station_id":"ce4bh392rcd13ifvqdm0","pricing_plan_id":"cebpf4jnsgd1na2vs0mg"},{"bike_id":"65c5b7a0-2741-4674-9e62-324f44553665","system_id":"levelo_inurba_marseille","lat":43.27969,"lon":5.38727,"is_reserved":false,"is_disabled":true,"rental_uris":{"android":"levelo://app?vid=65c5b7a0-2741-4674-9e62-324f44553665","ios":"levelo://app?vid=65c5b7a0-2741-4674-9e62-324f44553665"},"vehicle_type_id":"4","last_reported":1732716523,"current_range_meters":0,"station_id":"ce4bhg12rcd13ifvqf80","pricing_plan_id":"cebpf4jnsgd1na2vs0mg"},{"bike_id":"7949ac1b-0784-440f-aff1-656075d155c5","system_id":"levelo_inurba_marseille","lat":43.31359,"lon":5.367,"is_reserved":false,"is_disabled":false,"rental_uris":{"android":"levelo://app?vid=7949ac1b-0784-440f-aff1-656075d155c5","ios":"levelo://app?vid=7949ac1b-0784-440f-aff1-656075d155c5"},"vehicle_type_id":"4","last_reported":1732716523,"current_range_meters":39200,"station_id":"ce4bgr92rcd13ifvqc6g","pricing_plan_id":"cebpf4jnsgd1na2vs0mg"},{"bike_id":"9cf75bf2-2262-4f89-94c0-550f2f8c8309","system_id":"levelo_inurba_marseille","lat":43.33616,"lon":5.41031,"is_reserved":false,"is_disabled":false,"rental_uris":{"android":"levelo://app?vid=9cf75bf2-2262-4f89-94c0-550f2f8c8309","ios":"levelo://app?vid=9cf75bf2-2262-4f89-94c0-550f2f8c8309"},"vehicle_type_id":"4","last_reported":1732716523,"current_range_meters":22000,"station_id":"ce4bhqh2rcd13ifvqhmg","pricing_plan_id":"cebpf4jnsgd1na2vs0mg"},{"bike_id":"32e3b1f5-9ec0-4b7b-95c7-8470cf5f029a","system_id":"levelo_inurba_marseille","lat":43.32335,"lon":5.40617,"is_reserved":false,"is_disabled":false,"rental_uris":{"android":"levelo://app?vid=32e3b1f5-9ec0-4b7b-95c7-8470cf5f029a","ios":"levelo://app?vid=32e3b1f5-9ec0-4b7b-95c7-8470cf5f029a"},"vehicle_type_id":"4","last_reported":1732716523,"current_range_meters":31200,"station_id":"ce4bhq92rcd13ifvqhjg","pricing_plan_id":"cebpf4jnsgd1na2vs0mg"},{"bike_id":"0cf60c25-64bc-4c70-8ec2-2b58483ea88e","system_id":"levelo_inurba_marseille","lat":43.2893,"lon":5.36629,"is_reserved":false,"is_disabled":false,"rental_uris":{"android":"levelo://app?vid=0cf60c25-64bc-4c70-8ec2-2b58483ea88e","ios":"levelo://app?vid=0cf60c25-64bc-4c70-8ec2-2b58483ea88e"},"vehicle_type_id":"4","last_reported":1732716523,"current_range_meters":38800,"station_id":"ce4bhap2rcd13ifvqek0","pricing_plan_id":"cebpf4jnsgd1na2vs0mg"},{"bike_id":"562a76b4-6ab9-4ff0-9faf-2020d86f5e9a","system_id":"levelo_inurba_marseille","lat":43.24171,"lon":5.39722,"is_reserved":false,"is_disabled":true,"rental_uris":{"android":"levelo://app?vid=562a76b4-6ab9-4ff0-9faf-2020d86f5e9a","ios":"levelo://app?vid=562a76b4-6ab9-4ff0-9faf-2020d86f5e9a"},"vehicle_type_id":"4","last_reported":1732716523,"current_range_meters":0,"station_id":"ce4bhn12rcd13ifvqgpg","pricing_plan_id":"cebpf4jnsgd1na2vs0mg"},{"bike_id":"b8e7b5db-a6c0-480b-ab46-7aac141a2967","system_id":"levelo_inurba_marseille","lat":43.3046,"lon":5.37905,"is_reserved":false,"is_disabled":false,"rental_uris":{"android":"levelo://app?vid=b8e7b5db-a6c0-480b-ab46-7aac141a2967","ios":"levelo://app?vid=b8e7b5db-a6c0-480b-ab46-7aac141a2967"},"vehicle_type_id":"4","last_reported":1732716523,"current_range_meters":9200,"station_id":"ce4bgup2rcd13ifvqcn0","pricing_plan_id":"cebpf4jnsgd1na2vs0mg"},{"bike_id":"0b6fd622-0a97-4fbe-a987-f23968795d13","system_id":"levelo_inurba_marseille","lat":43.30315,"lon":5.36911,"is_reserved":false,"is_disabled":true,"rental_uris":{"android":"levelo://app?vid=0b6fd622-0a97-4fbe-a987-f23968795d13","ios":"levelo://app?vid=0b6fd622-0a97-4fbe-a987-f23968795d13"},"vehicle_type_id":"4","last_reported":1732716523,"current_range_meters":16000,"station_id":"ce4bgqh2rcd13ifvqc5g","pricing_plan_id":"cebpf4jnsgd1na2vs0mg"},{"bike_id":"1173a3d0-afb6-4133-94ae-3a879e9bfbd9","system_id":"levelo_inurba_marseille","lat":43.27207,"lon":5.39183,"is_reserved":false,"is_disabled":false,"rental_uris":{"android":"levelo://app?vid=1173a3d0-afb6-4133-94ae-3a879e9bfbd9","ios":"levelo://app?vid=1173a3d0-afb6-4133-94ae-3a879e9bfbd9"},"vehicle_type_id":"4","last_reported":1732716523,"current_range_meters":28000,"station_id":"ce4bhhp2rcd13ifvqfm0","pricing_plan_id":"cebpf4jnsgd1na2vs0mg"},{"bike_id":"e8c3745d-4b9e-400a-bc7a-0764243f0800","system_id":"levelo_inurba_marseille","lat":43.26557,"lon":5.37281,"is_reserved":false,"is_disabled":false,"rental_uris":{"android":"levelo://app?vid=e8c3745d-4b9e-400a-bc7a-0764243f0800","ios":"levelo://app?vid=e8c3745d-4b9e-400a-bc7a-0764243f0800"},"vehicle_type_id":"4","last_reported":1732716523,"current_range_meters":37600,"station_id":"ce4bhg12rcd13ifvqf70","pricing_plan_id":"cebpf4jnsgd1na2vs0mg"},{"bike_id":"7a4baa7f-b406-48de-9ece-b210bb919467","system_id":"levelo_inurba_marseille","lat":43.29254,"lon":5.4091,"is_reserved":false,"is_disabled":false,"rental_uris":{"android":"levelo://app?vid=7a4baa7f-b406-48de-9ece-b210bb919467","ios":"levelo://app?vid=7a4baa7f-b406-48de-9ece-b210bb919467"},"vehicle_type_id":"4","last_reported":1732716523,"current_range_meters":38800,"station_id":"ce4bh192rcd13ifvqdc0","pricing_plan_id":"cebpf4jnsgd1na2vs0mg"},{"bike_id":"9e944db9-d48e-4848-b5fa-4af701aee80b","system_id":"levelo_inurba_marseille","lat":48.80799,"lon":2.40141,"is_reserved":false,"is_disabled":true,"rental_uris":{"android":"levelo://app?vid=9e944db9-d48e-4848-b5fa-4af701aee80b","ios":"levelo://app?vid=9e944db9-d48e-4848-b5fa-4af701aee80b"},"vehicle_type_id":"4","last_reported":1732716523,"current_range_meters":28400,"station_id":"","pricing_plan_id":"cebpf4jnsgd1na2vs0mg"},{"bike_id":"1c904766-d668-43ef-b46c-8a8c67c87660","system_id":"levelo_inurba_marseille","lat":43.23194,"lon":5.35556,"is_reserved":false,"is_disabled":false,"rental_uris":{"android":"levelo://app?vid=1c904766-d668-43ef-b46c-8a8c67c87660","ios":"levelo://app?vid=1c904766-d668-43ef-b46c-8a8c67c87660"},"vehicle_type_id":"4","last_reported":1732716523,"current_range_meters":39200,"station_id":"ce4bhu92rcd13ifvqi70","pricing_plan_id":"cebpf4jnsgd1na2vs0mg"},{"bike_id":"055d8f3c-7a9e-4d3b-97a0-292fce0a999b","system_id":"levelo_inurba_marseille","lat":43.29262,"lon":5.40897,"is_reserved":false,"is_disabled":false,"rental_uris":{"android":"levelo://app?vid=055d8f3c-7a9e-4d3b-97a0-292fce0a999b","ios":"levelo://app?vid=055d8f3c-7a9e-4d3b-97a0-292fce0a999b"},"vehicle_type_id":"4","last_reported":1732716523,"current_range_meters":18000,"station_id":"ce4bh192rcd13ifvqdc0","pricing_plan_id":"cebpf4jnsgd1na2vs0mg"},{"bike_id":"61f97d35-ba7b-4b8a-b603-0cab832a60aa","system_id":"levelo_inurba_marseille","lat":43.24179,"lon":5.39732,"is_reserved":false,"is_disabled":false,"rental_uris":{"android":"levelo://app?vid=61f97d35-ba7b-4b8a-b603-0cab832a60aa","ios":"levelo://app?vid=61f97d35-ba7b-4b8a-b603-0cab832a60aa"},"vehicle_type_id":"4","last_reported":1732716523,"current_range_meters":16800,"station_id":"ce4bhn12rcd13ifvqgpg","pricing_plan_id":"cebpf4jnsgd1na2vs0mg"},{"bike_id":"01c3041a-b944-4a6c-a946-1e6e3cd2fe5c","system_id":"levelo_inurba_marseille","lat":43.28041,"lon":5.36953,"is_reserved":false,"is_disabled":false,"rental_uris":{"android":"levelo://app?vid=01c3041a-b944-4a6c-a946-1e6e3cd2fe5c","ios":"levelo://app?vid=01c3041a-b944-4a6c-a946-1e6e3cd2fe5c"},"vehicle_type_id":"4","last_reported":1732716523,"current_range_meters":29600,"station_id":"ce4bha12rcd13ifvqef0","pricing_plan_id":"cebpf4jnsgd1na2vs0mg"},{"bike_id":"2c2f53b7-b2be-4725-bbbf-69dd5791e76a","system_id":"levelo_inurba_marseille","lat":43.28854,"lon":5.35848,"is_reserved":false,"is_disabled":false,"rental_uris":{"android":"levelo://app?vid=2c2f53b7-b2be-4725-bbbf-69dd5791e76a","ios":"levelo://app?vid=2c2f53b7-b2be-4725-bbbf-69dd5791e76a"},"vehicle_type_id":"4","last_reported":1732716523,"current_range_meters":23200,"station_id":"ce4bhb12rcd13ifvqem0","pricing_plan_id":"cebpf4jnsgd1na2vs0mg"},{"bike_id":"e3d66b5c-46e4-4c5e-98b6-96884b272ccf","system_id":"levelo_inurba_marseille","lat":43.28277,"lon":5.35081,"is_reserved":false,"is_disabled":false,"rental_uris":{"android":"levelo://app?vid=e3d66b5c-46e4-4c5e-98b6-96884b272ccf","ios":"levelo://app?vid=e3d66b5c-46e4-4c5e-98b6-96884b272ccf"},"vehicle_type_id":"4","last_reported":1732716523,"current_range_meters":14800,"station_id":"ce4bhbp2rcd13ifvqerg","pricing_plan_id":"cebpf4jnsgd1na2vs0mg"},{"bike_id":"6f9a61ed-e6e1-44a2-b316-53ea3d791b64","system_id":"levelo_inurba_marseille","lat":43.25088,"lon":5.39521,"is_reserved":false,"is_disabled":false,"rental_uris":{"android":"levelo://app?vid=6f9a61ed-e6e1-44a2-b316-53ea3d791b64","ios":"levelo://app?vid=6f9a61ed-e6e1-44a2-b316-53ea3d791b64"},"vehicle_type_id":"4","last_reported":1732716523,"current_range_meters":14400,"station_id":"ce4bhm12rcd13ifvqgkg","pricing_plan_id":"cebpf4jnsgd1na2vs0mg"},{"bike_id":"85c6807d-adb2-4c55-89d5-379a914608be","system_id":"levelo_inurba_marseille","lat":43.337444,"lon":5.374475,"is_reserved":false,"is_disabled":false,"rental_uris":{"android":"levelo://app?vid=85c6807d-adb2-4c55-89d5-379a914608be","ios":"levelo://app?vid=85c6807d-adb2-4c55-89d5-379a914608be"},"vehicle_type_id":"4","last_reported":1732716523,"current_range_meters":37600,"station_id":"","pricing_plan_id":"cebpf4jnsgd1na2vs0mg"},{"bike_id":"a9f5db62-899a-4b16-8f85-e469804573fa","system_id":"levelo_inurba_marseille","lat":43.30647,"lon":5.40099,"is_reserved":false,"is_disabled":false,"rental_uris":{"android":"levelo://app?vid=a9f5db62-899a-4b16-8f85-e469804573fa","ios":"levelo://app?vid=a9f5db62-899a-4b16-8f85-e469804573fa"},"vehicle_type_id":"4","last_reported":1732716523,"current_range_meters":22400,"station_id":"ce4bh112rcd13ifvqda0","pricing_plan_id":"cebpf4jnsgd1na2vs0mg"},{"bike_id":"85a5cfde-3b61-40b5-8fda-a1acde978b80","system_id":"levelo_inurba_marseille","lat":43.2306,"lon":5.3549,"is_reserved":false,"is_disabled":false,"rental_uris":{"android":"levelo://app?vid=85a5cfde-3b61-40b5-8fda-a1acde978b80","ios":"levelo://app?vid=85a5cfde-3b61-40b5-8fda-a1acde978b80"},"vehicle_type_id":"4","last_reported":1732716523,"current_range_meters":37600,"station_id":"cpo3342slgdg3j2ifvpg","pricing_plan_id":"cebpf4jnsgd1na2vs0mg"},{"bike_id":"6ee15eab-303d-4146-a703-589cc13bf7d1","system_id":"levelo_inurba_marseille","lat":43.29553,"lon":5.42297,"is_reserved":false,"is_disabled":true,"rental_uris":{"android":"levelo://app?vid=6ee15eab-303d-4146-a703-589cc13bf7d1","ios":"levelo://app?vid=6ee15eab-303d-4146-a703-589cc13bf7d1"},"vehicle_type_id":"4","last_reported":1732716523,"current_range_meters":0,"station_id":"ce4bhph2rcd13ifvqhdg","pricing_plan_id":"cebpf4jnsgd1na2vs0mg"},{"bike_id":"e90518ef-5cf2-4e67-9525-b8f5e2b9c3a2","system_id":"levelo_inurba_marseille","lat":43.27371,"lon":5.36259,"is_reserved":false,"is_disabled":true,"rental_uris":{"android":"levelo://app?vid=e90518ef-5cf2-4e67-9525-b8f5e2b9c3a2","ios":"levelo://app?vid=e90518ef-5cf2-4e67-9525-b8f5e2b9c3a2"},"vehicle_type_id":"4","last_reported":1732716523,"current_range_meters":400,"station_id":"ce4bhbh2rcd13ifvqeo0","pricing_plan_id":"cebpf4jnsgd1na2vs0mg"},{"bike_id":"5d418990-4329-4391-987e-22074359d512","system_id":"levelo_inurba_marseille","lat":43.23195,"lon":5.35554,"is_reserved":false,"is_disabled":false,"rental_uris":{"android":"levelo://app?vid=5d418990-4329-4391-987e-22074359d512","ios":"levelo://app?vid=5d418990-4329-4391-987e-22074359d512"},"vehicle_type_id":"4","last_reported":1732716523,"current_range_meters":23200,"station_id":"ce4bhu92rcd13ifvqi70","pricing_plan_id":"cebpf4jnsgd1na2vs0mg"},{"bike_id":"f9f9a0c2-9ece-4506-91d8-1ce22486cba6","system_id":"levelo_inurba_marseille","lat":43.2718,"lon":5.40991,"is_reserved":false,"is_disabled":false,"rental_uris":{"android":"levelo://app?vid=f9f9a0c2-9ece-4506-91d8-1ce22486cba6","ios":"levelo://app?vid=f9f9a0c2-9ece-4506-91d8-1ce22486cba6"},"vehicle_type_id":"4","last_reported":1732716523,"current_range_meters":31200,"station_id":"ce4bhl12rcd13ifvqgf0","pricing_plan_id":"cebpf4jnsgd1na2vs0mg"},{"bike_id":"e03877c2-c2c0-499d-837f-f63464b39f16","system_id":"levelo_inurba_marseille","lat":43.293182,"lon":5.404614,"is_reserved":false,"is_disabled":true,"rental_uris":{"android":"levelo://app?vid=e03877c2-c2c0-499d-837f-f63464b39f16","ios":"levelo://app?vid=e03877c2-c2c0-499d-837f-f63464b39f16"},"vehicle_type_id":"4","last_reported":1732716523,"current_range_meters":30800,"station_id":"","pricing_plan_id":"cebpf4jnsgd1na2vs0mg"},{"bike_id":"a2686bd5-fb1d-4e73-b14b-0c3a9cb73c81","system_id":"levelo_inurba_marseille","lat":43.29708,"lon":5.36616,"is_reserved":false,"is_disabled":true,"rental_uris":{"android":"levelo://app?vid=a2686bd5-fb1d-4e73-b14b-0c3a9cb73c81","ios":"levelo://app?vid=a2686bd5-fb1d-4e73-b14b-0c3a9cb73c81"},"vehicle_type_id":"4","last_reported":1732716523,"current_range_meters":1200,"station_id":"ce4bgn12rcd13ifvqbt0","pricing_plan_id":"cebpf4jnsgd1na2vs0mg"},{"bike_id":"a7cbc1dc-f0f8-4875-bbb5-195f6fbe1dd8","system_id":"levelo_inurba_marseille","lat":43.29098,"lon":5.36417,"is_reserved":false,"is_disabled":false,"rental_uris":{"android":"levelo://app?vid=a7cbc1dc-f0f8-4875-bbb5-195f6fbe1dd8","ios":"levelo://app?vid=a7cbc1dc-f0f8-4875-bbb5-195f6fbe1dd8"},"vehicle_type_id":"4","last_reported":1732716523,"current_range_meters":34000,"station_id":"","pricing_plan_id":"cebpf4jnsgd1na2vs0mg"},{"bike_id":"1d53b8a4-d427-47ed-a67e-5baca0b22496","system_id":"levelo_inurba_marseille","lat":43.29517,"lon":5.37508,"is_reserved":false,"is_disabled":true,"rental_uris":{"android":"levelo://app?vid=1d53b8a4-d427-47ed-a67e-5baca0b22496","ios":"levelo://app?vid=1d53b8a4-d427-47ed-a67e-5baca0b22496"},"vehicle_type_id":"4","last_reported":1732716523,"current_range_meters":36800,"station_id":"","pricing_plan_id":"cebpf4jnsgd1na2vs0mg"},{"bike_id":"6f1f8dda-57ee-4778-a172-f1293520ef6e","system_id":"levelo_inurba_marseille","lat":43.3228,"lon":5.38276,"is_reserved":false,"is_disabled":false,"rental_uris":{"android":"levelo://app?vid=6f1f8dda-57ee-4778-a172-f1293520ef6e","ios":"levelo://app?vid=6f1f8dda-57ee-4778-a172-f1293520ef6e"},"vehicle_type_id":"4","last_reported":1732716523,"current_range_meters":38800,"station_id":"ce4bhr12rcd13ifvqhqg","pricing_plan_id":"cebpf4jnsgd1na2vs0mg"},{"bike_id":"04ff9bc9-1968-439c-be41-1746d04dbd31","system_id":"levelo_inurba_marseille","lat":43.26487,"lon":5.39546,"is_reserved":false,"is_disabled":false,"rental_uris":{"android":"levelo://app?vid=04ff9bc9-1968-439c-be41-1746d04dbd31","ios":"levelo://app?vid=04ff9bc9-1968-439c-be41-1746d04dbd31"},"vehicle_type_id":"4","last_reported":1732716523,"current_range_meters":38000,"station_id":"ce4bhi12rcd13ifvqfq0","pricing_plan_id":"cebpf4jnsgd1na2vs0mg"},{"bike_id":"11e33eb7-9888-468a-a37e-59711cc3dd96","system_id":"levelo_inurba_marseille","lat":43.30501,"lon":5.37117,"is_reserved":false,"is_disabled":false,"rental_uris":{"android":"levelo://app?vid=11e33eb7-9888-468a-a37e-59711cc3dd96","ios":"levelo://app?vid=11e33eb7-9888-468a-a37e-59711cc3dd96"},"vehicle_type_id":"4","last_reported":1732716523,"current_range_meters":37600,"station_id":"","pricing_plan_id":"cebpf4jnsgd1na2vs0mg"},{"bike_id":"0c82d68e-7c93-4d2e-aff2-b990061d770e","system_id":"levelo_inurba_marseille","lat":43.32458,"lon":5.36563,"is_reserved":false,"is_disabled":false,"rental_uris":{"android":"levelo://app?vid=0c82d68e-7c93-4d2e-aff2-b990061d770e","ios":"levelo://app?vid=0c82d68e-7c93-4d2e-aff2-b990061d770e"},"vehicle_type_id":"4","last_reported":1732716523,"current_range_meters":38000,"station_id":"ce4bhs12rcd13ifvqhvg","pricing_plan_id":"cebpf4jnsgd1na2vs0mg"},{"bike_id":"5af795bd-1be6-40c3-9eb4-314b3a593482","system_id":"levelo_inurba_marseille","lat":43.25085,"lon":5.39525,"is_reserved":false,"is_disabled":false,"rental_uris":{"android":"levelo://app?vid=5af795bd-1be6-40c3-9eb4-314b3a593482","ios":"levelo://app?vid=5af795bd-1be6-40c3-9eb4-314b3a593482"},"vehicle_type_id":"4","last_reported":1732716523,"current_range_meters":38800,"station_id":"ce4bhm12rcd13ifvqgkg","pricing_plan_id":"cebpf4jnsgd1na2vs0mg"},{"bike_id":"3410866b-f2e3-4379-8a03-35f10ac748da","system_id":"levelo_inurba_marseille","lat":43.337444,"lon":5.374475,"is_reserved":false,"is_disabled":false,"rental_uris":{"android":"levelo://app?vid=3410866b-f2e3-4379-8a03-35f10ac748da","ios":"levelo://app?vid=3410866b-f2e3-4379-8a03-35f10ac748da"},"vehicle_type_id":"4","last_reported":1732716523,"current_range_meters":32800,"station_id":"","pricing_plan_id":"cebpf4jnsgd1na2vs0mg"},{"bike_id":"3b2c016e-0146-4200-93fe-59a0729d39f3","system_id":"levelo_inurba_marseille","lat":43.29873,"lon":5.38913,"is_reserved":false,"is_disabled":false,"rental_uris":{"android":"levelo://app?vid=3b2c016e-0146-4200-93fe-59a0729d39f3","ios":"levelo://app?vid=3b2c016e-0146-4200-93fe-59a0729d39f3"},"vehicle_type_id":"4","last_reported":1732716523,"current_range_meters":38800,"station_id":"ce4bh392rcd13ifvqdl0","pricing_plan_id":"cebpf4jnsgd1na2vs0mg"},{"bike_id":"b3fd66e0-fc25-4c19-81a0-fb7d09f57a66","system_id":"levelo_inurba_marseille","lat":43.28404,"lon":5.3501,"is_reserved":false,"is_disabled":false,"rental_uris":{"android":"levelo://app?vid=b3fd66e0-fc25-4c19-81a0-fb7d09f57a66","ios":"levelo://app?vid=b3fd66e0-fc25-4c19-81a0-fb7d09f57a66"},"vehicle_type_id":"4","last_reported":1732716523,"current_range_meters":17600,"station_id":"ce4bhbh2rcd13ifvqepg","pricing_plan_id":"cebpf4jnsgd1na2vs0mg"},