{"last_updated":1727384856,"ttl":60,"version":"2.2","data":{"bikes":[{"bike_id":"16e9955f-f777-4290-b31c-761b801f08e2","system_id":"levelo_inurba_marseille","lat":43.28078,"lon":5.39663,"is_reserved":false,"is_disabled":false,"rental_uris":{"android":"levelo://app?vid=16e9955f-f777-4290-b31c-761b801f08e2","ios":"levelo://app?vid=16e9955f-f777-4290-b31c-761b801f08e2"},"vehicle_type_id":"4","last_reported":1727384856,"current_range_meters":37600,"station_id":"ce4bho12rcd13ifvqh2g","pricing_plan_id":"cebpf4jnsgd1na2vs0mg"},{"bike_id":"1949bde6-d10c-40a9-8005-655941700167","system_id":"levelo_inurba_marseille","lat":43.30796,"lon":5.43534,"is_reserved":false,"is_disabled":false,"rental_uris":{"android":"levelo://app?vid=1949bde6-d10c-40a9-8005-655941700167","ios":"levelo://app?vid=1949bde6-d10c-40a9-8005-655941700167"},"vehicle_type_id":"4","last_reported":1727384856,"current_range_meters":7200,"station_id":"ce4bhph2rcd13ifvqheg","pricing_plan_id":"cebpf4jnsgd1na2vs0mg"},{"bike_id":"81dbb0ed-79b3-41ef-9e55-2856c58c2866","system_id":"levelo_inurba_marseille","lat":43.3088,"lon":5.39629,"is_reserved":false,"is_disabled":false,"rental_uris":{"android":"levelo://app?vid=81dbb0ed-79b3-41ef-9e55-2856c58c2866","ios":"levelo://app?vid=81dbb0ed-79b3-41ef-9e55-2856c58c2866"},"vehicle_type_id":"4","last_reported":1727384856,"current_range_meters":30800,"station_id":"ce4bh012rcd13ifvqcv0","pricing_plan_id":"cebpf4jnsgd1na2vs0mg"},{"bike_id":"277315c8-09c7-4a88-b11e-3e6fd7509a8c","system_id":"levelo_inurba_marseille","lat":43.31218,"lon":5.39607,"is_reserved":false,"is_disabled":false,"rental_uris":{"android":"levelo://app?vid=277315c8-09c7-4a88-b11e-3e6fd7509a8c","ios":"levelo://app?vid=277315c8-09c7-4a88-b11e-3e6fd7509a8c"},"vehicle_type_id":"4","last_reported":1727384856,"current_range_meters":26800,"station_id":"ce4bgvp2rcd13ifvqcu0","pricing_plan_id":"cebpf4jnsgd1na2vs0mg"},{"bike_id":"319a95fd-4cb6-4140-b1df-59a1aab23798","system_id":"levelo_inurba_marseille","lat":43.23153,"lon":5.43706,"is_reserved":false,"is_disabled":false,"rental_uris":{"android":"levelo://app?vid=319a95fd-4cb6-4140-b1df-59a1aab23798","ios":"levelo://app?vid=319a95fd-4cb6-4140-b1df-59a1aab23798"},"vehicle_type_id":"4","last_reported":1727384856,"current_range_meters":22800,"station_id":"ce4bhmp2rcd13ifvqgog","pricing_plan_id":"cebpf4jnsgd1na2vs0mg"},{"bike_id":"b8a5ded0-24e3-4314-aa27-6a8b2e516125","system_id":"levelo_inurba_marseille","lat":43.25115,"lon":5.40327,"is_reserved":false,"is_disabled":false,"rental_uris":{"android":"levelo://app?vid=b8a5ded0-24e3-4314-aa27-6a8b2e516125","ios":"levelo://app?vid=b8a5ded0-24e3-4314-aa27-6a8b2e516125"},"vehicle_type_id":"4","last_reported":1727384856,"current_range_meters":38800,"station_id":"ce4bhlh2rcd13ifvqgig","pricing_plan_id":"cebpf4jnsgd1na2vs0mg"},{"bike_id":"9a593db0-19bc-4883-bc8e-f35d82d51490","system_id":"levelo_inurba_marseille","lat":43.31083,"lon":5.42431,"is_reserved":false,"is_disabled":false,"rental_uris":{"android":"levelo://app?vid=9a593db0-19bc-4883-bc8e-f35d82d51490","ios":"levelo://app?vid=9a593db0-19bc-4883-bc8e-f35d82d51490"},"vehicle_type_id":"4","last_reported":1727384856,"current_range_meters":6400,"station_id":"ce4bhp92rcd13ifvqhag","pricing_plan_id":"cebpf4jnsgd1na2vs0mg"},{"bike_id":"80beb2a2-9023-4056-91ac-c1c09428b0e7","system_id":"levelo_inurba_marseille","lat":43.27564,"lon":5.38429,"is_reserved":false,"is_disabled":false,"rental_uris":{"android":"levelo://app?vid=80beb2a2-9023-4056-91ac-c1c09428b0e7","ios":"levelo://app?vid=80beb2a2-9023-4056-91ac-c1c09428b0e7"},"vehicle_type_id":"4","last_reported":1727384856,"current_range_meters":28400,"station_id":"ce4bhh92rcd13ifvqfi0","pricing_plan_id":"cebpf4jnsgd1na2vs0mg"},{"bike_id":"5ba9f6a4-ddc2-4dcb-9c8b-a8b882fc82ec","system_id":"levelo_inurba_marseille","lat":43.31716,"lon":5.37742,"is_reserved":false,"is_disabled":false,"rental_uris":{"android":"levelo://app?vid=5ba9f6a4-ddc2-4dcb-9c8b-a8b882fc82ec","ios":"levelo://app?vid=5ba9f6a4-ddc2-4dcb-9c8b-a8b882fc82ec"},"vehicle_type_id":"4","last_reported":1727384856,"current_range_meters":30400,"station_id":"ce4bgth2rcd13ifvqch0","pricing_plan_id":"cebpf4jnsgd1na2vs0mg"},{"bike_id":"a9669d3a-c989-4bbf-988b-b787f6909497","system_id":"levelo_inurba_marseille","lat":43.32663,"lon":5.4098,"is_reserved":false,"is_disabled":false,"rental_uris":{"android":"levelo://app?vid=a9669d3a-c989-4bbf-988b-b787f6909497","ios":"levelo://app?vid=a9669d3a-c989-4bbf-988b-b787f6909497"},"vehicle_type_id":"4","last_reported":1727384856,"current_range_meters":38000,"station_id":"ce4bhpp2rcd13ifvqhgg","pricing_plan_id":"cebpf4jnsgd1na2vs0mg"},{"bike_id":"99e3d421-b139-443e-b330-27e0a3e6cad5","system_id":"levelo_inurba_marseille","lat":43.26798,"lon":5.40268,"is_reserved":false,"is_disabled":false,"rental_uris":{"android":"levelo://app?vid=99e3d421-b139-443e-b330-27e0a3e6cad5","ios":"levelo://app?vid=99e3d421-b139-443e-b330-27e0a3e6cad5"},"vehicle_type_id":"4","last_reported":1727384856,"current_range_meters":3600,"station_id":"ce501612rcd8frsf0b60","pricing_plan_id":"cebpf4jnsgd1na2vs0mg"},{"bike_id":"9d22a46c-7421-45b7-a510-326a2aa08b40","system_id":"levelo_inurba_marseille","lat":43.28852,"lon":5.39302,"is_reserved":false,"is_disabled":false,"rental_uris":{"android":"levelo://app?vid=9d22a46c-7421-45b7-a510-326a2aa08b40","ios":"levelo://app?vid=9d22a46c-7421-45b7-a510-326a2aa08b40"},"vehicle_type_id":"4","last_reported":1727384856,"current_range_meters":10000,"station_id":"ce4bh2p2rcd13ifvqdi0","pricing_plan_id":"cebpf4jnsgd1na2vs0mg"},{"bike_id":"5c4c0d15-63e2-4093-8a95-6a3a0b722cf9","system_id":"levelo_inurba_marseille","lat":43.29297,"lon":5.37463,"is_reserved":false,"is_disabled":false,"rental_uris":{"android":"levelo://app?vid=5c4c0d15-63e2-4093-8a95-6a3a0b722cf9","ios":"levelo://app?vid=5c4c0d15-63e2-4093-8a95-6a3a0b722cf9"},"vehicle_type_id":"4","last_reported":1727384856,"current_range_meters":38800,"station_id":"ce4bgi12rcd13ifvqb70","pricing_plan_id":"cebpf4jnsgd1na2vs0mg"},{"bike_id":"cf47b167-61f0-4505-a0ac-48a7cfa216f0","system_id":"levelo_inurba_marseille","lat":43.29415,"lon":5.3863,"is_reserved":false,"is_disabled":false,"rental_uris":{"android":"levelo://app?vid=cf47b167-61f0-4505-a0ac-48a7cfa216f0","ios":"levelo://app?vid=cf47b167-61f0-4505-a0ac-48a7cfa216f0"},"vehicle_type_id":"4","last_reported":1727384856,"current_range_meters":28400,"station_id":"ce4bh2h2rcd13ifvqdh0","pricing_plan_id":"cebpf4jnsgd1na2vs0mg"},{"bike_id":"a17cc833-34e0-49cd-aed6-aafc54d2e30a","system_id":"levelo_inurba_marseille","lat":43.28936,"lon":5.36402,"is_reserved":false,"is_disabled":false,"rental_uris":{"android":"levelo://app?vid=a17cc833-34e0-49cd-aed6-aafc54d2e30a","ios":"levelo://app?vid=a17cc833-34e0-49cd-aed6-aafc54d2e30a"},"vehicle_type_id":"4","last_reported":1727384856,"current_range_meters":32800,"station_id":"ce4bhc92rcd13ifvqetg","pricing_plan_id":"cebpf4jnsgd1na2vs0mg"},{"bike_id":"55f4f50b-d6dd-4e12-86b3-1486da4af7d9","system_id":"levelo_inurba_marseille","lat":43.22933,"lon":5.35372,"is_reserved":false,"is_disabled":false,"rental_uris":{"android":"levelo://app?vid=55f4f50b-d6dd-4e12-86b3-1486da4af7d9","ios":"levelo://app?vid=55f4f50b-d6dd-4e12-86b3-1486da4af7d9"},"vehicle_type_id":"4","last_reported":1727384856,"current_range_meters":38800,"station_id":"cpo3532slgdg3j2ikp40","pricing_plan_id":"cebpf4jnsgd1na2vs0mg"},{"bike_id":"72b7498f-9b36-4d75-a21e-26c7f8f1ce16","system_id":"levelo_inurba_marseille","lat":43.2952,"lon":5.39029,"is_reserved":false,"is_disabled":false,"rental_uris":{"android":"levelo://app?vid=72b7498f-9b36-4d75-a21e-26c7f8f1ce16","ios":"levelo://app?vid=72b7498f-9b36-4d75-a21e-26c7f8f1ce16"},"vehicle_type_id":"4","last_reported":1727384856,"current_range_meters":38000,"station_id":"ce4bh3p2rcd13ifvqdp0","pricing_plan_id":"cebpf4jnsgd1na2vs0mg"},{"bike_id":"46518533-a3f0-468c-a3d9-f7b8392f6bb8","system_id":"levelo_inurba_marseille","lat":43.28667,"lon":5.36356,"is_reserved":false,"is_disabled":false,"rental_uris":{"android":"levelo://app?vid=46518533-a3f0-468c-a3d9-f7b8392f6bb8","ios":"levelo://app?vid=46518533-a3f0-468c-a3d9-f7b8392f6bb8"},"vehicle_type_id":"4","last_reported":1727384856,"current_range_meters":39200,"station_id":"ce4bhah2rcd13ifvqej0","pricing_plan_id":"cebpf4jnsgd1na2vs0mg"},{"bike_id":"fb03f466-f4f6-4c35-aae7-01f35455322d","system_id":"levelo_inurba_marseille","lat":43.24386,"lon":5.37065,"is_reserved":false,"is_disabled":false,"rental_uris":{"android":"levelo://app?vid=fb03f466-f4f6-4c35-aae7-01f35455322d","ios":"levelo://app?vid=fb03f466-f4f6-4c35-aae7-01f35455322d"},"vehicle_type_id":"4","last_reported":1727384856,"current_range_meters":36800,"station_id":"ce4bhhh2rcd13ifvqfk0","pricing_plan_id":"cebpf4jnsgd1na2vs0mg"},{"bike_id":"5bbc05df-e752-4adb-ab91-31c5181b953a","system_id":"levelo_inurba_marseille","lat":43.30641,"lon":5.40079,"is_reserved":false,"is_disabled":false,"rental_uris":{"android":"levelo://app?vid=5bbc05df-e752-4adb-ab91-31c5181b953a","ios":"levelo://app?vid=5bbc05df-e752-4adb-ab91-31c5181b953a"},"vehicle_type_id":"4","last_reported":1727384856,"current_range_meters":30400,"station_id":"ce4bh112rcd13ifvqda0","pricing_plan_id":"cebpf4jnsgd1na2vs0mg"},{"bike_id":"3150806f-1e87-436f-8d31-00d2d9bd9596","system_id":"levelo_inurba_marseille","lat":43.27816,"lon":5.40704,"is_reserved":false,"is_disabled":false,"rental_uris":{"android":"levelo://app?vid=3150806f-1e87-436f-8d31-00d2d9bd9596","ios":"levelo://app?vid=3150806f-1e87-436f-8d31-00d2d9bd9596"},"vehicle_type_id":"4","last_reported":1727384856,"current_range_meters":38800,"station_id":"ce4bhnh2rcd13ifvqgtg","pricing_plan_id":"cebpf4jnsgd1na2vs0mg"},{"bike_id":"f77a12cf-d6d0-4e7f-b91f-61f27993928c","system_id":"levelo_inurba_marseille","lat":43.23154,"lon":5.43703,"is_reserved":false,"is_disabled":false,"rental_uris":{"android":"levelo://app?vid=f77a12cf-d6d0-4e7f-b91f-61f27993928c","ios":"levelo://app?vid=f77a12cf-d6d0-4e7f-b91f-61f27993928c"},"vehicle_type_id":"4","last_reported":1727384856,"current_range_meters":3600,"station_id":"ce4bhmp2rcd13ifvqgog","pricing_plan_id":"cebpf4jnsgd1na2vs0mg"},{"bike_id":"475c416e-e3c5-4768-8966-95e64202a3d2","system_id":"levelo_inurba_marseille","lat":43.25498,"lon":5.37651,"is_reserved":false,"is_disabled":false,"rental_uris":{"android":"levelo://app?vid=475c416e-e3c5-4768-8966-95e64202a3d2","ios":"levelo://app?vid=475c416e-e3c5-4768-8966-95e64202a3d2"},"vehicle_type_id":"4","last_reported":1727384856,"current_range_meters":19200,"station_id":"ce4bhh12rcd13ifvqff0","pricing_plan_id":"cebpf4jnsgd1na2vs0mg"},{"bike_id":"161f50c7-3de2-4116-a91e-3d856209631f","system_id":"levelo_inurba_marseille","lat":43.28448,"lon":5.3589,"is_reserved":false,"is_disabled":false,"rental_uris":{"android":"levelo://app?vid=161f50c7-3de2-4116-a91e-3d856209631f","ios":"levelo://app?vid=161f50c7-3de2-4116-a91e-3d856209631f"},"vehicle_type_id":"4","last_reported":1727384856,"current_range_meters":38800,"station_id":"ce4bhah2rcd13ifvqei0","pricing_plan_id":"cebpf4jnsgd1na2vs0mg"},{"bike_id":"3c76154b-9557-421e-b6e6-33051f5682fd","system_id":"levelo_inurba_marseille","lat":43.30273,"lon":5.37718,"is_reserved":false,"is_disabled":false,"rental_uris":{"android":"levelo://app?vid=3c76154b-9557-421e-b6e6-33051f5682fd","ios":"levelo://app?vid=3c76154b-9557-421e-b6e6-33051f5682fd"},"vehicle_type_id":"4","last_reported":1727384856,"current_range_meters":38800,"station_id":"ce4bguh2rcd13ifvqcj0","pricing_plan_id":"cebpf4jnsgd1na2vs0mg"},{"bike_id":"7737b815-6daf-41f0-8354-4b28ba75917f","system_id":"levelo_inurba_marseille","lat":43.30198,"lon":5.39834,"is_reserved":false,"is_disabled":false,"rental_uris":{"android":"levelo://app?vid=7737b815-6daf-41f0-8354-4b28ba75917f","ios":"levelo://app?vid=7737b815-6daf-41f0-8354-4b28ba75917f"},"vehicle_type_id":"4","last_reported":1727384856,"current_range_meters":9600,"station_id":"ce4bgvp2rcd13ifvqct0","pricing_plan_id":"cebpf4jnsgd1na2vs0mg"},{"bike_id":"b335ca42-7350-4c4c-856e-f46e906ad72e","system_id":"levelo_inurba_marseille","lat":43.32285,"lon":5.38273,"is_reserved":false,"is_disabled":false,"rental_uris":{"android":"levelo://app?vid=b335ca42-7350-4c4c-856e-f46e906ad72e","ios":"levelo://app?vid=b335ca42-7350-4c4c-856e-f46e906ad72e"},"vehicle_type_id":"4","last_reported":1727384856,"current_range_meters":13600,"station_id":"ce4bhr12rcd13ifvqhqg","pricing_plan_id":"cebpf4jnsgd1na2vs0mg"},{"bike_id":"4a4903c7-ffbe-40b4-8008-c3ffec982396","system_id":"levelo_inurba_marseille","lat":43.31533,"lon":5.38026,"is_reserved":false,"is_disabled":false,"rental_uris":{"android":"levelo://app?vid=4a4903c7-ffbe-40b4-8008-c3ffec982396","ios":"levelo://app?vid=4a4903c7-ffbe-40b4-8008-c3ffec982396"},"vehicle_type_id":"4","last_reported":1727384856,"current_range_meters":22000,"station_id":"ce4bhsp2rcd13ifvqi50","pricing_plan_id":"cebpf4jnsgd1na2vs0mg"},{"bike_id":"bea6db5e-059c-49ef-9ccc-86c0e3423fd7","system_id":"levelo_inurba_marseille","lat":43.28101,"lon":5.3784,"is_reserved":false,"is_disabled":false,"rental_uris":{"android":"levelo://app?vid=bea6db5e-059c-49ef-9ccc-86c0e3423fd7","ios":"levelo://app?vid=bea6db5e-059c-49ef-9ccc-86c0e3423fd7"},"vehicle_type_id":"4","last_reported":1727384856,"current_range_meters":37600,"station_id":"ce4bha12rcd13ifvqee0","pricing_plan_id":"cebpf4jnsgd1na2vs0mg"},{"bike_id":"6b18d179-f0b4-41fe-ac47-f38619f1fe44","system_id":"levelo_inurba_marseille","lat":43.27944,"lon":5.41047,"is_reserved":false,"is_disabled":false,"rental_uris":{"android":"levelo://app?vid=6b18d179-f0b4-41fe-ac47-f38619f1fe44","ios":"levelo://app?vid=6b18d179-f0b4-41fe-ac47-f38619f1fe44"},"vehicle_type_id":"4","last_reported":1727384856,"current_range_meters":36000,"station_id":"ce4bhnp2rcd13ifvqh0g","pricing_plan_id":"cebpf4jnsgd1na2vs0mg"},{"bike_id":"b6daf4df-7c90-4c5e-b397-06a87d15013f","system_id":"levelo_inurba_marseille","lat":43.33752,"lon":5.37361,"is_reserved":false,"is_disabled":false,"rental_uris":{"android":"levelo://app?vid=b6daf4df-7c90-4c5e-b397-06a87d15013f","ios":"levelo://app?vid=b6daf4df-7c90-4c5e-b397-06a87d15013f"},"vehicle_type_id":"4","last_reported":1727384856,"current_range_meters":30000,"station_id":"","pricing_plan_id":"cebpf4jnsgd1na2vs0mg"},{"bike_id":"d0359957-af2a-4165-98d2-72a519c3add3","system_id":"levelo_inurba_marseille","lat":43.29519,"lon":5.39033,"is_reserved":false,"is_disabled":false,"rental_uris":{"android":"levelo://app?vid=d0359957-af2a-4165-98d2-72a519c3add3","ios":"levelo://app?vid=d0359957-af2a-4165-98d2-72a519c3add3"},"vehicle_type_id":"4","last_reported":1727384856,"current_range_meters":33600,"station_id":"ce4bh3p2rcd13ifvqdp0","pricing_plan_id":"cebpf4jnsgd1na2vs0mg"},{"bike_id":"eab9bd57-4c0c-4a28-9faf-e70e1ddbf8f4","system_id":"levelo_inurba_marseille","lat":43.23179,"lon":5.39986,"is_reserved":false,"is_disabled":false,"rental_uris":{"android":"levelo://app?vid=eab9bd57-4c0c-4a28-9faf-e70e1ddbf8f4","ios":"levelo://app?vid=eab9bd57-4c0c-4a28-9faf-e70e1ddbf8f4"},"vehicle_type_id":"4","last_reported":1727384856,"current_range_meters":34000,"station_id":"ce4bhn12rcd13ifvqgqg","pricing_plan_id":"cebpf4jnsgd1na2vs0mg"},{"bike_id":"01958bcc-1114-44e7-a1de-ed0825d11990","system_id":"levelo_inurba_marseille","lat":43.31081,"lon":5.42432,"is_reserved":false,"is_disabled":false,"rental_uris":{"android":"levelo://app?vid=01958bcc-1114-44e7-a1de-ed0825d11990","ios":"levelo://app?vid=01958bcc-1114-44e7-a1de-ed0825d11990"},"vehicle_type_id":"4","last_reported":1727384856,"current_range_meters":7200,"station_id":"ce4bhqh2rcd13ifvqhmg","pricing_plan_id":"cebpf4jnsgd1na2vs0mg"},{"bike_id":"e3c5fbbf-73cf-4f2d-b2d6-f67ffdb80c53","system_id":"levelo_inurba_marseille","lat":43.33023,"lon":5.39039,"is_reserved":false,"is_disabled":false,"rental_uris":{"android":"levelo://app?vid=e3c5fbbf-73cf-4f2d-b2d6-f67ffdb80c53","ios":"levelo://app?vid=e3c5fbbf-73cf-4f2d-b2d6-f67ffdb80c53"},"vehicle_type_id":"4","last_reported":1727384856,"current_range_meters":31200,"station_id":"ce4bhr92rcd13ifvqhrg","pricing_plan_id":"cebpf4jnsgd1na2vs0mg"},{"bike_id":"57bc1e84-e83e-4198-85b5-3e7f9c3f0b0b","system_id":"levelo_inurba_marseille","lat":43.24167,"lon":5.36392,"is_reserved":false,"is_disabled":false,"rental_uris":{"android":"levelo://app?vid=57bc1e84-e83e-4198-85b5-3e7f9c3f0b0b","ios":"levelo://app?vid=57bc1e84-e83e-4198-85b5-3e7f9c3f0b0b"},"vehicle_type_id":"4","last_reported":1727384856,"current_range_meters":26000,"station_id":"cpo36qri1sfpv3e86is0","pricing_plan_id":"cebpf4jnsgd1na2vs0mg"},{"bike_id":"7a8458d5-44ac-4f2e-abef-3f01eb31f7ca","system_id":"levelo_inurba_marseille","lat":43.337444,"lon":5.374475,"is_reserved":false,"is_disabled":false,"rental_uris":{"android":"levelo://app?vid=7a8458d5-44ac-4f2e-abef-3f01eb31f7ca","ios":"levelo://app?vid=7a8458d5-44ac-4f2e-abef-3f01eb31f7ca"},"vehicle_type_id":"4","last_reported":1727384856,"current_range_meters":19600,"station_id":"","pricing_plan_id":"cebpf4jnsgd1na2vs0mg"},{"bike_id":"a6e6ffe8-06d2-43d5-93fe-ced05da0b628","system_id":"levelo_inurba_marseille","lat":43.30417,"lon":5.41277,"is_reserved":false,"is_disabled":false,"rental_uris":{"android":"levelo://app?vid=a6e6ffe8-06d2-43d5-93fe-ced05da0b628","ios":"levelo://app?vid=a6e6ffe8-06d2-43d5-93fe-ced05da0b628"},"vehicle_type_id":"4","last_reported":1727384856,"current_range_meters":2800,"station_id":"ce4bhop2rcd13ifvqh8g","pricing_plan_id":"cebpf4jnsgd1na2vs0mg"},{"bike_id":"245322ad-98ce-4a03-920e-f8861ea4255a","system_id":"levelo_inurba_marseille","lat":43.2306,"lon":5.35498,"is_reserved":false,"is_disabled":false,"rental_uris":{"android":"levelo://app?vid=245322ad-98ce-4a03-920e-f8861ea4255a","ios":"levelo://app?vid=245322ad-98ce-4a03-920e-f8861ea4255a"},"vehicle_type_id":"4","last_reported":1727384856,"current_range_meters":38800,"station_id":"cpo3342slgdg3j2ifvpg","pricing_plan_id":"cebpf4jnsgd1na2vs0mg"},{"bike_id":"db34be20-899a-46e4-989b-09869c53cbe5","system_id":"levelo_inurba_marseille","lat":43.27206,"lon":5.391937,"is_reserved":false,"is_disabled":false,"rental_uris":{"android":"levelo://app?vid=db34be20-899a-46e4-989b-09869c53cbe5","ios":"levelo://app?vid=db34be20-899a-46e4-989b-09869c53cbe5"},"vehicle_type_id":"4","last_reported":1727384856,"current_range_meters":33200,"station_id":"ce4bhhp2rcd13ifvqfm0","pricing_plan_id":"cebpf4jnsgd1na2vs0mg"},{"bike_id":"c6b55506-d010-4430-b4c2-cb3a40fc3efd","system_id":"levelo_inurba_marseille","lat":43.30154,"lon":5.38082,"is_reserved":false,"is_disabled":false,"rental_uris":{"android":"levelo://app?vid=c6b55506-d010-4430-b4c2-cb3a40fc3efd","ios":"levelo://app?vid=c6b55506-d010-4430-b4c2-cb3a40fc3efd"},"vehicle_type_id":"4","last_reported":1727384856,"current_range_meters":38800,"station_id":"ce4bgjp2rcd13ifvqbh0","pricing_plan_id":"cebpf4jnsgd1na2vs0mg"},{"bike_id":"14753c26-020c-4fdf-a910-6bbc6904ea08","system_id":"levelo_inurba_marseille","lat":43.30886,"lon":5.39635,"is_reserved":false,"is_disabled":false,"rental_uris":{"android":"levelo://app?vid=14753c26-020c-4fdf-a910-6bbc6904ea08","ios":"levelo://app?vid=14753c26-020c-4fdf-a910-6bbc6904ea08"},"vehicle_type_id":"4","last_reported":1727384856,"current_range_meters":38800,"station_id":"ce4bh012rcd13ifvqcv0","pricing_plan_id":"cebpf4jnsgd1na2vs0mg"},{"bike_id":"0a4d8f7d-0721-4d62-8eee-660d53a737ff","system_id":"levelo_inurba_marseille","lat":43.29794,"lon":5.40413,"is_reserved":false,"is_disabled":false,"rental_uris":{"android":"levelo://app?vid=0a4d8f7d-0721-4d62-8eee-660d53a737ff","ios":"levelo://app?vid=0a4d8f7d-0721-4d62-8eee-660d53a737ff"},"vehicle_type_id":"4","last_reported":1727384856,"current_range_meters":34800,"station_id":"ce4bh112rcd13ifvqd90","pricing_plan_id":"cebpf4jnsgd1na2vs0mg"},{"bike_id":"5b52140e-6668-46ee-8b79-8f19f087aaef","system_id":"levelo_inurba_marseille","lat":43.28479,"lon":5.38401,"is_reserved":false,"is_disabled":false,"rental_uris":{"android":"levelo://app?vid=5b52140e-6668-46ee-8b79-8f19f087aaef","ios":"levelo://app?vid=5b52140e-6668-46ee-8b79-8f19f087aaef"},"vehicle_type_id":"4","last_reported":1727384856,"current_range_meters":36800,"station_id":"ce4bhh12rcd13ifvqff0","pricing_plan_id":"cebpf4jnsgd1na2vs0mg"},{"bike_id":"e7dda3a1-01d6-44cd-a598-0858b2812c33","system_id":"levelo_inurba_marseille","lat":43.31881,"lon":5.40737,"is_reserved":false,"is_disabled":false,"rental_uris":{"android":"levelo://app?vid=e7dda3a1-01d6-44cd-a598-0858b2812c33","ios":"levelo://app?vid=e7dda3a1-01d6-44cd-a598-0858b2812c33"},"vehicle_type_id":"4","last_reported":1727384856,"current_range_meters":6000,"station_id":"ce4bhq12rcd13ifvqhig","pricing_plan_id":"cebpf4jnsgd1na2vs0mg"},{"bike_id":"dfcecf59-0ff2-4ae4-a646-4b133ae29c1f","system_id":"levelo_inurba_marseille","lat":43.24545,"lon":5.3953,"is_reserved":false,"is_disabled":false,"rental_uris":{"android":"levelo://app?vid=dfcecf59-0ff2-4ae4-a646-4b133ae29c1f","ios":"levelo://app?vid=dfcecf59-0ff2-4ae4-a646-4b133ae29c1f"},"vehicle_type_id":"4","last_reported":1727384856,"current_range_meters":28000,"station_id":"ce4bhlp2rcd13ifvqgjg","pricing_plan_id":"cebpf4jnsgd1na2vs0mg"},{"bike_id":"50d4ec58-a42a-4450-844b-4e946465e51d","system_id":"levelo_inurba_marseille","lat":43.30801,"lon":5.43528,"is_reserved":false,"is_disabled":false,"rental_uris":{"android":"levelo://app?vid=50d4ec58-a42a-4450-844b-4e946465e51d","ios":"levelo://app?vid=50d4ec58-a42a-4450-844b-4e946465e51d"},"vehicle_type_id":"4","last_reported":1727384856,"current_range_meters":37600,"station_id":"ce4bhph2rcd13ifvqheg","pricing_plan_id":"cebpf4jnsgd1na2vs0mg"},{"bike_id":"d8a7229e-3af1-41a1-a20c-ec6cc6d9368d","system_id":"levelo_inurba_marseille","lat":43.32662,"lon":5.40996,"is_reserved":false,"is_disabled":false,"rental_uris":{"android":"levelo://app?vid=d8a7229e-3af1-41a1-a20c-ec6cc6d9368d","ios":"levelo://app?vid=d8a7229e-3af1-41a1-a20c-ec6cc6d9368d"},"vehicle_type_id":"4","last_reported":1727384856,"current_range_meters":38800,"station_id":"ce4bhpp2rcd13ifvqhgg","pricing_plan_id":"cebpf4jnsgd1na2vs0mg"},{"bike_id":"96712527-702e-4fde-b0a7-f7367d82cf52","system_id":"levelo_inurba_marseille","lat":43.29716,"lon":5.36616,"is_reserved":false,"is_disabled":false,"rental_uris":{"android":"levelo://app?vid=96712527-702e-4fde-b0a7-f7367d82cf52","ios":"levelo://app?vid=96712527-702e-4fde-b0a7-f7367d82cf52"},"vehicle_type_id":"4","last_reported":1727384856,"current_range_meters":38800,"station_id":"ce4bgn12rcd13ifvqbt0","pricing_plan_id":"cebpf4jnsgd1na2vs0mg"},{"bike_id":"8d17f10b-cb18-4a62-9a7c-043318106e2d","system_id":"levelo_inurba_marseille","lat":43.30253,"lon":5.36629,"is_reserved":false,"is_disabled":false,"rental_uris":{"android":"levelo://app?vid=8d17f10b-cb18-4a62-9a7c-043318106e2d","ios":"levelo://app?vid=8d17f10b-cb18-4a62-9a7c-043318106e2d"},"vehicle_type_id":"4","last_reported":1727384856,"current_range_meters":6400,"station_id":"","pricing_plan_id":"cebpf4jnsgd1na2vs0mg"},{"bike_id":"790588e4-e173-42a4-84fc-bcca8ef506d6","system_id":"levelo_inurba_marseille","lat":43.28026,"lon":5.36956,"is_reserved":false,"is_disabled":false,"rental_uris":{"android":"levelo://app?vid=790588e4-e173-42a4-84fc-bcca8ef506d6","ios":"levelo://app?vid=790588e4-e173-42a4-84fc-bcca8ef506d6"},"vehicle_type_id":"4","last_reported":1727384856,"current_range_meters":10800,"station_id":"ce4bha12rcd13ifvqef0","pricing_plan_id":"cebpf4jnsgd1na2vs0mg"},{"bike_id":"ebceaa02-260c-44cb-983b-087ba3c2b0ad","system_id":"levelo_inurba_marseille","lat":43.29273,"lon":5.36841,"is_reserved":false,"is_disabled":false,"rental_uris":{"android":"levelo://app?vid=ebceaa02-260c-44cb-983b-087ba3c2b0ad","ios":"levelo://app?vid=ebceaa02-260c-44cb-983b-087ba3c2b0ad"},"vehicle_type_id":"4","last_reported":1727384856,"current_range_meters":38800,"station_id":"ce4bhbp2rcd13ifvqesg","pricing_plan_id":"cebpf4jnsgd1na2vs0mg"},{"bike_id":"2697f82f-67f5-4ea8-a50a-040a8e1cecb2","system_id":"levelo_inurba_marseille","lat":43.30093,"lon":5.39083,"is_reserved":false,"is_disabled":false,"rental_uris":{"android":"levelo://app?vid=2697f82f-67f5-4ea8-a50a-040a8e1cecb2","ios":"levelo://app?vid=2697f82f-67f5-4ea8-a50a-040a8e1cecb2"},"vehicle_type_id":"4","last_reported":1727384856,"current_range_meters":38800,"station_id":"ce4bh192rcd13ifvqdb0","pricing_plan_id":"cebpf4jnsgd1na2vs0mg"},{"bike_id":"ef333548-5b42-4805-a9c0-dab49a7bfdc3","system_id":"levelo_inurba_marseille","lat":43.32478,"lon":5.36565,"is_reserved":false,"is_disabled":false,"rental_uris":{"android":"levelo://app?vid=ef333548-5b42-4805-a9c0-dab49a7bfdc3","ios":"levelo://app?vid=ef333548-5b42-4805-a9c0-dab49a7bfdc3"},"vehicle_type_id":"4","last_reported":1727384856,"current_range_meters":38800,"station_id":"ce4bhs12rcd13ifvqhvg","pricing_plan_id":"cebpf4jnsgd1na2vs0mg"},{"bike_id":"783c8a70-2c1a-4092-a5dc-19654f2dfca0","system_id":"levelo_inurba_marseille","lat":43.31174,"lon":5.38709,"is_reserved":false,"is_disabled":false,"rental_uris":{"android":"levelo://app?vid=783c8a70-2c1a-4092-a5dc-19654f2dfca0","ios":"levelo://app?vid=783c8a70-2c1a-4092-a5dc-19654f2dfca0"},"vehicle_type_id":"4","last_reported":1727384856,"current_range_meters":38800,"station_id":"ce4bgv12rcd13ifvqcp0","pricing_plan_id":"cebpf4jnsgd1na2vs0mg"},{"bike_id":"875c2740-75ad-4355-a457-7bdcf5e2451d","system_id":"levelo_inurba_marseille","lat":43.308,"lon":5.43527,"is_reserved":false,"is_disabled":false,"rental_uris":{"android":"levelo://app?vid=875c2740-75ad-4355-a457-7bdcf5e2451d","ios":"levelo://app?vid=875c2740-75ad-4355-a457-7bdcf5e2451d"},"vehicle_type_id":"4","last_reported":1727384856,"current_range_meters":29600,"station_id":"ce4bhph2rcd13ifvqheg","pricing_plan_id":"cebpf4jnsgd1na2vs0mg"},{"bike_id":"6585d2a5-a37c-44b5-bafb-218e30f2f62d","system_id":"levelo_inurba_marseille","lat":43.28361,"lon":5.38098,"is_reserved":false,"is_disabled":false,"rental_uris":{"android":"levelo://app?vid=6585d2a5-a37c-44b5-bafb-218e30f2f62d","ios":"levelo://app?vid=6585d2a5-a37c-44b5-bafb-218e30f2f62d"},"vehicle_type_id":"4","last_reported":1727384856,"current_range_meters":30400,"station_id":"ce4bh412rcd13ifvqdr0","pricing_plan_id":"cebpf4jnsgd1na2vs0mg"},{"bike_id":"7839d94e-e4d7-4769-af14-bba2f3463149","system_id":"levelo_inurba_marseille","lat":43.29865,"lon":5.39738,"is_reserved":false,"is_disabled":false,"rental_uris":{"android":"levelo://app?vid=7839d94e-e4d7-4769-af14-bba2f3463149","ios":"levelo://app?vid=7839d94e-e4d7-4769-af14-bba2f3463149"},"vehicle_type_id":"4","last_reported":1727384856,"current_range_meters":20400,"station_id":"ce4bh0h2rcd13ifvqd50","pricing_plan_id":"cebpf4jnsgd1na2vs0mg"},{"bike_id":"73931516-475d-410c-b64f-05fd7ddb9f36","system_id":"levelo_inurba_marseille","lat":43.2836,"lon":5.3811,"is_reserved":false,"is_disabled":false,"rental_uris":{"android":"levelo://app?vid=73931516-475d-410c-b64f-05fd7ddb9f36","ios":"levelo://app?vid=73931516-475d-410c-b64f-05fd7ddb9f36"},"vehicle_type_id":"4","last_reported":1727384856,"current_range_meters":36000,"station_id":"ce4bh412rcd13ifvqdr0","pricing_plan_id":"cebpf4jnsgd1na2vs0mg"},{"bike_id":"d5bbef54-0e76-4d64-bc8a-a1819238d1a7","system_id":"levelo_inurba_marseille","lat":43.23954,"lon":5.3663,"is_reserved":false,"is_disabled":false,"rental_uris":{"android":"levelo://app?vid=d5bbef54-0e76-4d64-bc8a-a1819238d1a7","ios":"levelo://app?vid=d5bbef54-0e76-4d64-bc8a-a1819238d1a7"},"vehicle_type_id":"4","last_reported":1727384856,"current_range_meters":38800,"station_id":"ce4bhi12rcd13ifvqfp0","pricing_plan_id":"cebpf4jnsgd1na2vs0mg"},{"bike_id":"73664322-5add-4515-91ba-59c8d7130e4a","system_id":"levelo_inurba_marseille","lat":43.289457,"lon":5.363861,"is_reserved":false,"is_disabled":false,"rental_uris":{"android":"levelo://app?vid=73664322-5add-4515-91ba-59c8d7130e4a","ios":"levelo://app?vid=73664322-5add-4515-91ba-59c8d7130e4a"},"vehicle_type_id":"4","last_reported":1727384856,"current_range_meters":19200,"station_id":"ce4bgj92rcd13ifvqbd0","pricing_plan_id":"cebpf4jnsgd1na2vs0mg"},{"bike_id":"861ba51c-6a6b-46a6-947c-51f003818291","system_id":"levelo_inurba_marseille","lat":43.32238,"lon":5.38584,"is_reserved":false,"is_disabled":false,"rental_uris":{"android":"levelo://app?vid=861ba51c-6a6b-46a6-947c-51f003818291","ios":"levelo://app?vid=861ba51c-6a6b-46a6-947c-51f003818291"},"vehicle_type_id":"4","last_reported":1727384856,"current_range_meters":10000,"station_id":"","pricing_plan_id":"cebpf4jnsgd1na2vs0mg"},{"bike_id":"5999d788-6f9f-40f8-928b-b24eb7567b47","system_id":"levelo_inurba_marseille","lat":43.308,"lon":5.38167,"is_reserved":false,"is_disabled":false,"rental_uris":{"android":"levelo://app?vid=5999d788-6f9f-40f8-928b-b24eb7567b47","ios":"levelo://app?vid=5999d788-6f9f-40f8-928b-b24eb7567b47"},"vehicle_type_id":"4","last_reported":1727384856,"current_range_meters":19600,"station_id":"ce4bgt12rcd13ifvqce0","pricing_plan_id":"cebpf4jnsgd1na2vs0mg"},{"bike_id":"69986219-7e86-4b5b-97c9-1c5b0a9f3476","system_id":"levelo_inurba_marseille","lat":43.28015,"lon":5.37581,"is_reserved":false,"is_disabled":false,"rental_uris":{"android":"levelo://app?vid=69986219-7e86-4b5b-97c9-1c5b0a9f3476","ios":"levelo://app?vid=69986219-7e86-4b5b-97c9-1c5b0a9f3476"},"vehicle_type_id":"4","last_reported":1727384856,"current_range_meters":26000,"station_id":"ce4bha12rcd13ifvqef0","pricing_plan_id":"cebpf4jnsgd1na2vs0mg"},{"bike_id":"4522e805-401d-4c28-8dc9-f95997a8e94f","system_id":"levelo_inurba_marseille","lat":43.31159,"lon":5.38728,"is_reserved":false,"is_disabled":false,"rental_uris":{"android":"levelo://app?vid=4522e805-401d-4c28-8dc9-f95997a8e94f","ios":"levelo://app?vid=4522e805-401d-4c28-8dc9-f95997a8e94f"},"vehicle_type_id":"4","last_reported":1727384856,"current_range_meters":38800,"station_id":"ce4bgv12rcd13ifvqcp0","pricing_plan_id":"cebpf4jnsgd1na2vs0mg"},{"bike_id":"25c0cae3-0d97-411f-8458-53e10d5c2c92","system_id":"levelo_inurba_marseille","lat":43.29513,"lon":5.39041,"is_reserved":false,"is_disabled":false,"rental_uris":{"android":"levelo://app?vid=25c0cae3-0d97-411f-8458-53e10d5c2c92","ios":"levelo://app?vid=25c0cae3-0d97-411f-8458-53e10d5c2c92"},"vehicle_type_id":"4","last_reported":1727384856,"current_range_meters":13600,"station_id":"ce4bh3p2rcd13ifvqdp0","pricing_plan_id":"cebpf4jnsgd1na2vs0mg"},{"bike_id":"a49c9dc3-d8c0-47c3-96bb-45b69d9f632a","system_id":"levelo_inurba_marseille","lat":43.31169,"lon":5.3872,"is_reserved":false,"is_disabled":false,"rental_uris":{"android":"levelo://app?vid=a49c9dc3-d8c0-47c3-96bb-45b69d9f632a","ios":"levelo://app?vid=a49c9dc3-d8c0-47c3-96bb-45b69d9f632a"},"vehicle_type_id":"4","last_reported":1727384856,"current_range_meters":30000,"station_id":"ce4bgv12rcd13ifvqcp0","pricing_plan_id":"cebpf4jnsgd1na2vs0mg"},{"bike_id":"8b8bc4ef-69bf-4b84-aa37-5bbfca53e4ac","system_id":"levelo_inurba_marseille","lat":43.323166,"lon":5.40636,"is_reserved":false,"is_disabled":false,"rental_uris":{"android":"levelo://app?vid=8b8bc4ef-69bf-4b84-aa37-5bbfca53e4ac","ios":"levelo://app?vid=8b8bc4ef-69bf-4b84-aa37-5bbfca53e4ac"},"vehicle_type_id":"4","last_reported":1727384856,"current_range_meters":38400,"station_id":"ce4bhq92rcd13ifvqhjg","pricing_plan_id":"cebpf4jnsgd1na2vs0mg"},{"bike_id":"b3988534-48b4-4085-8577-a04cc8fa7a7b","system_id":"levelo_inurba_marseille","lat":43.29512,"lon":5.39045,"is_reserved":false,"is_disabled":false,"rental_uris":{"android":"levelo://app?vid=b3988534-48b4-4085-8577-a04cc8fa7a7b","ios":"levelo://app?vid=b3988534-48b4-4085-8577-a04cc8fa7a7b"},"vehicle_type_id":"4","last_reported":1727384856,"current_range_meters":39200,"station_id":"ce4bh3p2rcd13ifvqdp0","pricing_plan_id":"cebpf4jnsgd1na2vs0mg"},{"bike_id":"b0175b61-0712-4d34-8928-58c4a0b682d7","system_id":"levelo_inurba_marseille","lat":43.30193,"lon":5.36626,"is_reserved":false,"is_disabled":false,"rental_uris":{"android":"levelo://app?vid=b0175b61-0712-4d34-8928-58c4a0b682d7","ios":"levelo://app?vid=b0175b61-0712-4d34-8928-58c4a0b682d7"},"vehicle_type_id":"4","last_reported":1727384856,"current_range_meters":31200,"station_id":"ce4bgrh2rcd13ifvqc8g","pricing_plan_id":"cebpf4jnsgd1na2vs0mg"},{"bike_id":"3a2e2f3b-dc35-4a59-a736-8c191770979e","system_id":"levelo_inurba_marseille","lat":43.25106,"lon":5.4032,"is_reserved":false,"is_disabled":false,"rental_uris":{"android":"levelo://app?vid=3a2e2f3b-dc35-4a59-a736-8c191770979e","ios":"levelo://app?vid=3a2e2f3b-dc35-4a59-a736-8c191770979e"},"vehicle_type_id":"4","last_reported":1727384856,"current_range_meters":37600,"station_id":"ce4bhlh2rcd13ifvqgig","pricing_plan_id":"cebpf4jnsgd1na2vs0mg"},{"bike_id":"b9f4fbf1-43d9-4533-8283-7aa5ea8ec046","system_id":"levelo_inurba_marseille","lat":43.29651,"lon":5.36578,"is_reserved":false,"is_disabled":false,"rental_uris":{"android":"levelo://app?vid=b9f4fbf1-43d9-4533-8283-7aa5ea8ec046","ios":"levelo://app?vid=b9f4fbf1-43d9-4533-8283-7aa5ea8ec046"},"vehicle_type_id":"4","last_reported":1727384856,"current_range_meters":38800,"station_id":"ce4bgn12rcd13ifvqbt0","pricing_plan_id":"cebpf4jnsgd1na2vs0mg"},{"bike_id":"0306bac3-a02f-405c-9660-8062f817f0cd","system_id":"levelo_inurba_marseille","lat":43.29036,"lon":5.38135,"is_reserved":false,"is_disabled":false,"rental_uris":{"android":"levelo://app?vid=0306bac3-a02f-405c-9660-8062f817f0cd","ios":"levelo://app?vid=0306bac3-a02f-405c-9660-8062f817f0cd"},"vehicle_type_id":"4","last_reported":1727384856,"current_range_meters":29600,"station_id":"ce4bh4p2rcd13ifvqe1g","pricing_plan_id":"cebpf4jnsgd1na2vs0mg"},{"bike_id":"f94b22c3-c9c2-49bf-92c5-06c4a88322e5","system_id":"levelo_inurba_marseille","lat":43.27572,"lon":5.38416,"is_reserved":false,"is_disabled":false,"rental_uris":{"android":"levelo://app?vid=f94b22c3-c9c2-49bf-92c5-06c4a88322e5","ios":"levelo://app?vid=f94b22c3-c9c2-49bf-92c5-06c4a88322e5"},"vehicle_type_id":"4","last_reported":1727384856,"current_range_meters":33600,"station_id":"ce4bhh92rcd13ifvqfi0","pricing_plan_id":"cebpf4jnsgd1na2vs0mg"},{"bike_id":"8ea19e1d-542e-4c36-8ef4-1214facb9816","system_id":"levelo_inurba_marseille","lat":43.23959,"lon":5.36633,"is_reserved":false,"is_disabled":false,"rental_uris":{"android":"levelo://app?vid=8ea19e1d-542e-4c36-8ef4-1214facb9816","ios":"levelo://app?vid=8ea19e1d-542e-4c36-8ef4-1214facb9816"},"vehicle_type_id":"4","last_reported":1727384856,"current_range_meters":38800,"station_id":"ce4bhi12rcd13ifvqfp0","pricing_plan_id":"cebpf4jnsgd1na2vs0mg"},{"bike_id":"b0c4c01d-7cb2-471e-8776-e79093a43e39","system_id":"levelo_inurba_marseille","lat":43.32476,"lon":5.40761,"is_reserved":false,"is_disabled":false,"rental_uris":{"android":"levelo://app?vid=b0c4c01d-7cb2-471e-8776-e79093a43e39","ios":"levelo://app?vid=b0c4c01d-7cb2-471e-8776-e79093a43e39"},"vehicle_type_id":"4","last_reported":1727384856,"current_range_meters":7200,"station_id":"","pricing_plan_id":"cebpf4jnsgd1na2vs0mg"},{"bike_id":"ef2985a4-45df-474f-9ca1-5820caae9549","system_id":"levelo_inurba_marseille","lat":43.28102,"lon":5.37841,"is_reserved":false,"is_disabled":false,"rental_uris":{"android":"levelo://app?vid=ef2985a4-45df-474f-9ca1-5820caae9549","ios":"levelo://app?vid=ef2985a4-45df-474f-9ca1-5820caae9549"},"vehicle_type_id":"4","last_reported":1727384856,"current_range_meters":38800,"station_id":"ce4bha12rcd13ifvqee0","pricing_plan_id":"cebpf4jnsgd1na2vs0mg"},{"bike_id":"ad2a04aa-428c-4a11-a49f-acb0fc075ea5","system_id":"levelo_inurba_marseille","lat":43.29026,"lon":5.3997,"is_reserved":false,"is_disabled":false,"rental_uris":{"android":"levelo://app?vid=ad2a04aa-428c-4a11-a49f-acb0fc075ea5","ios":"levelo://app?vid=ad2a04aa-428c-4a11-a49f-acb0fc075ea5"},"vehicle_type_id":"4","last_reported":1727384856,"current_range_meters":21600,"station_id":"ce4bh392rcd13ifvqdm0","pricing_plan_id":"cebpf4jnsgd1na2vs0mg"},{"bike_id":"ed0a6e61-f285-4766-93fb-661760204361","system_id":"levelo_inurba_marseille","lat":43.32338,"lon":5.40621,"is_reserved":false,"is_disabled":false,"rental_uris":{"android":"levelo://app?vid=ed0a6e61-f285-4766-93fb-661760204361","ios":"levelo://app?vid=ed0a6e61-f285-4766-93fb-661760204361"},"vehicle_type_id":"4","last_reported":1727384856,"current_range_meters":38800,"station_id":"ce4bhq92rcd13ifvqhjg","pricing_plan_id":"cebpf4jnsgd1na2vs0mg"},{"bike_id":"f3bf7448-e739-4978-bd33-4a56cc415f41","system_id":"levelo_inurba_marseille","lat":43.37171,"lon":5.36716,"is_reserved":false,"is_disabled":false,"rental_uris":{"android":"levelo://app?vid=f3bf7448-e739-4978-bd33-4a56cc415f41","ios":"levelo://app?vid=f3bf7448-e739-4978-bd33-4a56cc415f41"},"vehicle_type_id":"4","last_reported":1727384856,"current_range_meters":24400,"station_id":"","pricing_plan_id":"cebpf4jnsgd1na2vs0mg"},{"bike_id":"f5e29c95-b1c0-46d5-b361-55d6aecade33","system_id":"levelo_inurba_marseille","lat":43.28998,"lon":5.35616,"is_reserved":false,"is_disabled":false,"rental_uris":{"android":"levelo://app?vid=f5e29c95-b1c0-46d5-b361-55d6aecade33","ios":"levelo://app?vid=f5e29c95-b1c0-46d5-b361-55d6aecade33"},"vehicle_type_id":"4","last_reported":1727384856,"current_range_meters":21600,"station_id":"ce4bhb92rcd13ifvqen0","pricing_plan_id":"cebpf4jnsgd1na2vs0mg"},{"bike_id":"a0b4e1dc-b2d5-4e1d-a6e2-2b1fa04ed91c","system_id":"levelo_inurba_marseille","lat":43.28033,"lon":5.36947,"is_reserved":false,"is_disabled":false,"rental_uris":{"android":"levelo://app?vid=a0b4e1dc-b2d5-4e1d-a6e2-2b1fa04ed91c","ios":"levelo://app?vid=a0b4e1dc-b2d5-4e1d-a6e2-2b1fa04ed91c"},"vehicle_type_id":"4","last_reported":1727384856,"current_range_meters":36000,"station_id":"ce4bha12rcd13ifvqef0","pricing_plan_id":"cebpf4jnsgd1na2vs0mg"},{"bike_id":"72d84b55-dafb-479b-a105-86e3c32cdd18","system_id":"levelo_inurba_marseille","lat":43.30895,"lon":5.39643,"is_reserved":false,"is_disabled":false,"rental_uris":{"android":"levelo://app?vid=72d84b55-dafb-479b-a105-86e3c32cdd18","ios":"levelo://app?vid=72d84b55-dafb-479b-a105-86e3c32cdd18"},"vehicle_type_id":"4","last_reported":1727384856,"current_range_meters":35600,"station_id":"ce4bh012rcd13ifvqcv0","pricing_plan_id":"cebpf4jnsgd1na2vs0mg"},{"bike_id":"d8c48252-4588-4704-86ec-4f5a0439137e","system_id":"levelo_inurba_marseille","lat":43.29557,"lon":5.42292,"is_reserved":false,"is_disabled":false,"rental_uris":{"android":"levelo://app?vid=d8c48252-4588-4704-86ec-4f5a0439137e","ios":"levelo://app?vid=d8c48252-4588-4704-86ec-4f5a0439137e"},"vehicle_type_id":"4","last_reported":1727384856,"current_range_meters":18000,"station_id":"ce4bhph2rcd13ifvqhdg","pricing_plan_id":"cebpf4jnsgd1na2vs0mg"},{"bike_id":"49d333ae-18b7-434f-a99d-4a3f637da9f5","system_id":"levelo_inurba_marseille","lat":43.28032,"lon":5.36945,"is_reserved":false,"is_disabled":false,"rental_uris":{"android":"levelo://app?vid=49d333ae-18b7-434f-a99d-4a3f637da9f5","ios":"levelo://app?vid=49d333ae-18b7-434f-a99d-4a3f637da9f5"},"vehicle_type_id":"4","last_reported":1727384856,"current_range_meters":19600,"station_id":"ce4bha12rcd13ifvqef0","pricing_plan_id":"cebpf4jnsgd1na2vs0mg"},{"bike_id":"39fa4c55-ba59-4795-b216-bdba84781c79","system_id":"levelo_inurba_marseille","lat":43.28461,"lon":5.35887,"is_reserved":false,"is_disabled":false,"rental_uris":{"android":"levelo://app?vid=39fa4c55-ba59-4795-b216-bdba84781c79","ios":"levelo://app?vid=39fa4c55-ba59-4795-b216-bdba84781c79"},"vehicle_type_id":"4","last_reported":1727384856,"current_range_meters":7200,"station_id":"ce4bhah2rcd13ifvqei0","pricing_plan_id":"cebpf4jnsgd1na2vs0mg"},{"bike_id":"b59f21eb-eec1-4035-b55e-7017d2289d0f","system_id":"levelo_inurba_marseille","lat":43.32334,"lon":5.4062,"is_reserved":false,"is_disabled":false,"rental_uris":{"android":"levelo://app?vid=b59f21eb-eec1-4035-b55e-7017d2289d0f","ios":"levelo://app?vid=b59f21eb-eec1-4035-b55e-7017d2289d0f"},"vehicle_type_id":"4","last_reported":1727384856,"current_range_meters":22800,"station_id":"ce4bhq92rcd13ifvqhjg","pricing_plan_id":"cebpf4jnsgd1na2vs0mg"},{"bike_id":"70acd5c0-9696-40e2-886a-cd10e0aba86d","system_id":"levelo_inurba_marseille","lat":43.25869,"lon":5.39895,"is_reserved":false,"is_disabled":false,"rental_uris":{"android":"levelo://app?vid=70acd5c0-9696-40e2-886a-cd10e0aba86d","ios":"levelo://app?vid=70acd5c0-9696-40e2-886a-cd10e0aba86d"},"vehicle_type_id":"4","last_reported":1727384856,"current_range_meters":16000,"station_id":"ce4bhl92rcd13ifvqghg","pricing_plan_id":"cebpf4jnsgd1na2vs0mg"},{"bike_id":"4815afab-f1b4-4152-90e3-b9fc5c00bd49","system_id":"levelo_inurba_marseille","lat":43.25002,"lon":5.38914,"is_reserved":false,"is_disabled":false,"rental_uris":{"android":"levelo://app?vid=4815afab-f1b4-4152-90e3-b9fc5c00bd49","ios":"levelo://app?vid=4815afab-f1b4-4152-90e3-b9fc5c00bd49"},"vehicle_type_id":"4","last_reported":1727384856,"current_range_meters":38400,"station_id":"ce4bhgp2rcd13ifvqfd0","pricing_plan_id":"cebpf4jnsgd1na2vs0mg"},{"bike_id":"2a35124c-e4ce-4d4a-b2cc-80e6befd99f9","system_id":"levelo_inurba_marseille","lat":43.30927,"lon":5.40145,"is_reserved":false,"is_disabled":false,"rental_uris":{"android":"levelo://app?vid=2a35124c-e4ce-4d4a-b2cc-80e6befd99f9","ios":"levelo://app?vid=2a35124c-e4ce-4d4a-b2cc-80e6befd99f9"},"vehicle_type_id":"4","last_reported":1727384856,"current_range_meters":9200,"station_id":"ce4bgvp2rcd13ifvqct0","pricing_plan_id":"cebpf4jnsgd1na2vs0mg"},{"bike_id":"7019cc62-e926-4458-9d07-ded9133cb481","system_id":"levelo_inurba_marseille","lat":43.23185,"lon":5.39985,"is_reserved":false,"is_disabled":false,"rental_uris":{"android":"levelo://app?vid=7019cc62-e926-4458-9d07-ded9133cb481","ios":"levelo://app?vid=7019cc62-e926-4458-9d07-ded9133cb481"},"vehicle_type_id":"4","last_reported":1727384856,"current_range_meters":38000,"station_id":"ce4bhn12rcd13ifvqgqg","pricing_plan_id":"cebpf4jnsgd1na2vs0mg"},{"bike_id":"a051b9ab-2421-48f5-87d8-ad6c6aeb57fe","system_id":"levelo_inurba_marseille","lat":43.2808,"lon":5.39662,"is_reserved":false,"is_disabled":false,"rental_uris":{"android":"levelo://app?vid=a051b9ab-2421-48f5-87d8-ad6c6aeb57fe","ios":"levelo://app?vid=a051b9ab-2421-48f5-87d8-ad6c6aeb57fe"},"vehicle_type_id":"4","last_reported":1727384856,"current_range_meters":12400,"station_id":"ce4bho12rcd13ifvqh2g","pricing_plan_id":"cebpf4jnsgd1na2vs0mg"},{"bike_id":"e8f4e726-6161-4cff-a3c5-51da9756a821","system_id":"levelo_inurba_marseille","lat":43.31214,"lon":5.3684,"is_reserved":false,"is_disabled":false,"rental_uris":{"android":"levelo://app?vid=e8f4e726-6161-4cff-a3c5-51da9756a821","ios":"levelo://app?vid=e8f4e726-6161-4cff-a3c5-51da9756a821"},"vehicle_type_id":"4","last_reported":1727384856,"current_range_meters":27200,"station_id":"ce4bgl92rcd13ifvqbq0","pricing_plan_id":"cebpf4jnsgd1na2vs0mg"},{"bike_id":"541a4a59-99e0-42c1-b504-81c96b865c38","system_id":"levelo_inurba_marseille","lat":43.30897,"lon":5.37201,"is_reserved":false,"is_disabled":false,"rental_uris":{"android":"levelo://app?vid=541a4a59-99e0-42c1-b504-81c96b865c38","ios":"levelo://app?vid=541a4a59-99e0-42c1-b504-81c96b865c38"},"vehicle_type_id":"4","last_reported":1727384856,"current_range_meters":10800,"station_id":"ce4bguh2rcd13ifvqckg","pricing_plan_id":"cebpf4jnsgd1na2vs0mg"},{"bike_id":"d4c76aee-094b-4e67-93eb-876e3e7161ba","system_id":"levelo_inurba_marseille","lat":43.2293,"lon":5.35376,"is_reserved":false,"is_disabled":false,"rental_uris":{"android":"levelo://app?vid=d4c76aee-094b-4e67-93eb-876e3e7161ba","ios":"levelo://app?vid=d4c76aee-094b-4e67-93eb-876e3e7161ba"},"vehicle_type_id":"4","last_reported":1727384856,"current_range_meters":16000,"station_id":"cpo3532slgdg3j2ikp40","pricing_plan_id":"cebpf4jnsgd1na2vs0mg"},{"bike_id":"9a006b44-c626-455d-be5a-513b7103d566","system_id":"levelo_inurba_marseille","lat":43.32367,"lon":5.38887,"is_reserved":false,"is_disabled":false,"rental_uris":{"android":"levelo://app?vid=9a006b44-c626-455d-be5a-513b7103d566","ios":"levelo://app?vid=9a006b44-c626-455d-be5a-513b7103d566"},"vehicle_type_id":"4","last_reported":1727384856,"current_range_meters":38800,"station_id":"ce4bhqp2rcd13ifvqhog","pricing_plan_id":"cebpf4jnsgd1na2vs0mg"},{"bike_id":"84370e09-0017-4c8b-9c58-8c7e88a8d174","system_id":"levelo_inurba_marseille","lat":43.30934,"lon":5.40146,"is_reserved":false,"is_disabled":false,"rental_uris":{"android":"levelo://app?vid=84370e09-0017-4c8b-9c58-8c7e88a8d174","ios":"levelo://app?vid=84370e09-0017-4c8b-9c58-8c7e88a8d174"},"vehicle_type_id":"4","last_reported":1727384856,"current_range_meters":22000,"station_id":"ce4bgvp2rcd13ifvqct0","pricing_plan_id":"cebpf4jnsgd1na2vs0mg"},{"bike_id":"e1c1bcc1-ffcd-46c8-8fcf-522c6f5c6799","system_id":"levelo_inurba_marseille","lat":43.28161,"lon":5.42656,"is_reserved":false,"is_disabled":false,"rental_uris":{"android":"levelo://app?vid=e1c1bcc1-ffcd-46c8-8fcf-522c6f5c6799","ios":"levelo://app?vid=e1c1bcc1-ffcd-46c8-8fcf-522c6f5c6799"},"vehicle_type_id":"4","last_reported":1727384856,"current_range_meters":28400,"station_id":"ce4bhnh2rcd13ifvqgug","pricing_plan_id":"cebpf4jnsgd1na2vs0mg"},{"bike_id":"e20bcf69-d401-4091-855f-1281538603ba","system_id":"levelo_inurba_marseille","lat":43.295197,"lon":5.3905,"is_reserved":false,"is_disabled":false,"rental_uris":{"android":"levelo://app?vid=e20bcf69-d401-4091-855f-1281538603ba","ios":"levelo://app?vid=e20bcf69-d401-4091-855f-1281538603ba"},"vehicle_type_id":"4","last_reported":1727384856,"current_range_meters":38800,"station_id":"ce4bh3p2rcd13ifvqdp0","pricing_plan_id":"cebpf4jnsgd1na2vs0mg"},{"bike_id":"400094b1-46e6-4f2a-aa5a-b06392acb64a","system_id":"levelo_inurba_marseille","lat":43.30935,"lon":5.40142,"is_reserved":false,"is_disabled":false,"rental_uris":{"android":"levelo://app?vid=400094b1-46e6-4f2a-aa5a-b06392acb64a","ios":"levelo://app?vid=400094b1-46e6-4f2a-aa5a-b06392acb64a"},"vehicle_type_id":"4","last_reported":1727384856,"current_range_meters":12800,"station_id":"ce4bgvp2rcd13ifvqct0","pricing_plan_id":"cebpf4jnsgd1na2vs0mg"},{"bike_id":"aacab401-bb23-4a56-9d36-8c450f561c55","system_id":"levelo_inurba_marseille","lat":43.30651,"lon":5.40092,"is_reserved":false,"is_disabled":false,"rental_uris":{"android":"levelo://app?vid=aacab401-bb23-4a56-9d36-8c450f561c55","ios":"levelo://app?vid=aacab401-bb23-4a56-9d36-8c450f561c55"},"vehicle_type_id":"4","last_reported":1727384856,"current_range_meters":24800,"station_id":"ce4bh112rcd13ifvqda0","pricing_plan_id":"cebpf4jnsgd1na2vs0mg"},{"bike_id":"12bb2fa0-def4-44f9-9009-061dd94ed221","system_id":"levelo_inurba_marseille","lat":43.24161,"lon":5.36396,"is_reserved":false,"is_disabled":false,"rental_uris":{"android":"levelo://app?vid=12bb2fa0-def4-44f9-9009-061dd94ed221","ios":"levelo://app?vid=12bb2fa0-def4-44f9-9009-061dd94ed221"},"vehicle_type_id":"4","last_reported":1727384856,"current_range_meters":6800,"station_id":"cpo36qri1sfpv3e86is0","pricing_plan_id":"cebpf4jnsgd1na2vs0mg"},{"bike_id":"482d2ccb-541e-4986-9b9e-ad76907d837e","system_id":"levelo_inurba_marseille","lat":43.30929,"lon":5.40153,"is_reserved":false,"is_disabled":false,"rental_uris":{"android":"levelo://app?vid=482d2ccb-541e-4986-9b9e-ad76907d837e","ios":"levelo://app?vid=482d2ccb-541e-4986-9b9e-ad76907d837e"},"vehicle_type_id":"4","last_reported":1727384856,"current_range_meters":24800,"station_id":"ce4bgvp2rcd13ifvqct0","pricing_plan_id":"cebpf4jnsgd1na2vs0mg"},{"bike_id":"4fe8351c-c90f-47cf-abc6-72eb9f690f98","system_id":"levelo_inurba_marseille","lat":43.240809,"lon":5.377518,"is_reserved":false,"is_disabled":false,"rental_uris":{"android":"levelo://app?vid=4fe8351c-c90f-47cf-abc6-72eb9f690f98","ios":"levelo://app?vid=4fe8351c-c90f-47cf-abc6-72eb9f690f98"},"vehicle_type_id":"4","last_reported":1727384856,"current_range_meters":32400,"station_id":"ce4bhnp2rcd13ifvqgvg","pricing_plan_id":"cebpf4jnsgd1na2vs0mg"},{"bike_id":"1963a3a8-a24d-4561-9cd5-81c47c89ed6f","system_id":"levelo_inurba_marseille","lat":43.30937,"lon":5.4014,"is_reserved":false,"is_disabled":false,"rental_uris":{"android":"levelo://app?vid=1963a3a8-a24d-4561-9cd5-81c47c89ed6f","ios":"levelo://app?vid=1963a3a8-a24d-4561-9cd5-81c47c89ed6f"},"vehicle_type_id":"4","last_reported":1727384856,"current_range_meters":38800,"station_id":"ce4bgvp2rcd13ifvqct0","pricing_plan_id":"cebpf4jnsgd1na2vs0mg"},{"bike_id":"39c455e0-8ce1-4d83-b4e1-994895f03028","system_id":"levelo_inurba_marseille","lat":43.29534,"lon":5.38545,"is_reserved":false,"is_disabled":false,"rental_uris":{"android":"levelo://app?vid=39c455e0-8ce1-4d83-b4e1-994895f03028","ios":"levelo://app?vid=39c455e0-8ce1-4d83-b4e1-994895f03028"},"vehicle_type_id":"4","last_reported":1727384856,"current_range_meters":22000,"station_id":"ce4bgih2rcd13ifvqba0","pricing_plan_id":"cebpf4jnsgd1na2vs0mg"},{"bike_id":"6638bfbc-e341-409c-94ed-cb6318eaee99","system_id":"levelo_inurba_marseille","lat":43.27184,"lon":5.40996,"is_reserved":false,"is_disabled":false,"rental_uris":{"android":"levelo://app?vid=6638bfbc-e341-409c-94ed-cb6318eaee99","ios":"levelo://app?vid=6638bfbc-e341-409c-94ed-cb6318eaee99"},"vehicle_type_id":"4","last_reported":1727384856,"current_range_meters":8400,"station_id":"ce4bhl12rcd13ifvqgf0","pricing_plan_id":"cebpf4jnsgd1na2vs0mg"},{"bike_id":"79787c7c-a941-45e2-9195-35ace6414d86","system_id":"levelo_inurba_marseille","lat":43.29276,"lon":5.36838,"is_reserved":false,"is_disabled":false,"rental_uris":{"android":"levelo://app?vid=79787c7c-a941-45e2-9195-35ace6414d86","ios":"levelo://app?vid=79787c7c-a941-45e2-9195-35ace6414d86"},"vehicle_type_id":"4","last_reported":1727384856,"current_range_meters":38800,"station_id":"ce4bhbp2rcd13ifvqesg","pricing_plan_id":"cebpf4jnsgd1na2vs0mg"},{"bike_id":"aab3f206-6254-4772-97a7-507ef97111a2","system_id":"levelo_inurba_marseille","lat":43.29872,"lon":5.39736,"is_reserved":false,"is_disabled":false,"rental_uris":{"android":"levelo://app?vid=aab3f206-6254-4772-97a7-507ef97111a2","ios":"levelo://app?vid=aab3f206-6254-4772-97a7-507ef97111a2"},"vehicle_type_id":"4","last_reported":1727384856,"current_range_meters":35200,"station_id":"ce4bh0h2rcd13ifvqd50","pricing_plan_id":"cebpf4jnsgd1na2vs0mg"},{"bike_id":"75c8af22-8779-49ff-8714-fa31093de02c","system_id":"levelo_inurba_marseille","lat":43.30928,"lon":5.40148,"is_reserved":false,"is_disabled":false,"rental_uris":{"android":"levelo://app?vid=75c8af22-8779-49ff-8714-fa31093de02c","ios":"levelo://app?vid=75c8af22-8779-49ff-8714-fa31093de02c"},"vehicle_type_id":"4","last_reported":1727384856,"current_range_meters":14400,"station_id":"ce4bgvp2rcd13ifvqct0","pricing_plan_id":"cebpf4jnsgd1na2vs0mg"},{"bike_id":"637beff3-55bd-4f15-99c0-4cb53d5dddb9","system_id":"levelo_inurba_marseille","lat":43.30653,"lon":5.39536,"is_reserved":false,"is_disabled":false,"rental_uris":{"android":"levelo://app?vid=637beff3-55bd-4f15-99c0-4cb53d5dddb9","ios":"levelo://app?vid=637beff3-55bd-4f15-99c0-4cb53d5dddb9"},"vehicle_type_id":"4","last_reported":1727384856,"current_range_meters":36000,"station_id":"","pricing_plan_id":"cebpf4jnsgd1na2vs0mg"},{"bike_id":"12e648ee-055f-441d-afc7-1efaf8a14314","system_id":"levelo_inurba_marseille","lat":43.24387,"lon":5.37064,"is_reserved":false,"is_disabled":false,"rental_uris":{"android":"levelo://app?vid=12e648ee-055f-441d-afc7-1efaf8a14314","ios":"levelo://app?vid=12e648ee-055f-441d-afc7-1efaf8a14314"},"vehicle_type_id":"4","last_reported":1727384856,"current_range_meters":30800,"station_id":"ce4bhhh2rcd13ifvqfk0","pricing_plan_id":"cebpf4jnsgd1na2vs0mg"},{"bike_id":"166d3025-903c-4128-9393-b436a9d6906e","system_id":"levelo_inurba_marseille","lat":43.28461,"lon":5.35893,"is_reserved":false,"is_disabled":false,"rental_uris":{"android":"levelo://app?vid=166d3025-903c-4128-9393-b436a9d6906e","ios":"levelo://app?vid=166d3025-903c-4128-9393-b436a9d6906e"},"vehicle_type_id":"4","last_reported":1727384856,"current_range_meters":38800,"station_id":"ce4bhah2rcd13ifvqei0","pricing_plan_id":"cebpf4jnsgd1na2vs0mg"},{"bike_id":"dab0789d-6a46-4535-b343-f8681b93b7f6","system_id":"levelo_inurba_marseille","lat":43.30182,"lon":5.36626,"is_reserved":false,"is_disabled":false,"rental_uris":{"android":"levelo://app?vid=dab0789d-6a46-4535-b343-f8681b93b7f6","ios":"levelo://app?vid=dab0789d-6a46-4535-b343-f8681b93b7f6"},"vehicle_type_id":"4","last_reported":1727384856,"current_range_meters":6000,"station_id":"ce4bgrh2rcd13ifvqc8g","pricing_plan_id":"cebpf4jnsgd1na2vs0mg"},{"bike_id":"b29c589a-eff5-4e9f-831e-3270baa75953","system_id":"levelo_inurba_marseille","lat":43.26943,"lon":5.40246,"is_reserved":false,"is_disabled":false,"rental_uris":{"android":"levelo://app?vid=b29c589a-eff5-4e9f-831e-3270baa75953","ios":"levelo://app?vid=b29c589a-eff5-4e9f-831e-3270baa75953"},"vehicle_type_id":"4","last_reported":1727384856,"current_range_meters":38800,"station_id":"cjm6bp8fraef2m0cb0m0","pricing_plan_id":"cebpf4jnsgd1na2vs0mg"},{"bike_id":"5fb3d4c2-9ffe-4946-942e-4b4bd9f97496","system_id":"levelo_inurba_marseille","lat":43.28264,"lon":5.35068,"is_reserved":false,"is_disabled":false,"rental_uris":{"android":"levelo://app?vid=5fb3d4c2-9ffe-4946-942e-4b4bd9f97496","ios":"levelo://app?vid=5fb3d4c2-9ffe-4946-942e-4b4bd9f97496"},"vehicle_type_id":"4","last_reported":1727384856,"current_range_meters":36800,"station_id":"ce4bhbp2rcd13ifvqerg","pricing_plan_id":"cebpf4jnsgd1na2vs0mg"},{"bike_id":"45a0ddc5-7795-4f29-a3a0-17f50b40219c","system_id":"levelo_inurba_marseille","lat":43.29062,"lon":5.37171,"is_reserved":false,"is_disabled":false,"rental_uris":{"android":"levelo://app?vid=45a0ddc5-7795-4f29-a3a0-17f50b40219c","ios":"levelo://app?vid=45a0ddc5-7795-4f29-a3a0-17f50b40219c"},"vehicle_type_id":"4","last_reported":1727384856,"current_range_meters":34000,"station_id":"ce4bh5p2rcd13ifvqe4g","pricing_plan_id":"cebpf4jnsgd1na2vs0mg"},{"bike_id":"64aac6b4-fb33-4a0b-97f0-cc4daff179f4","system_id":"levelo_inurba_marseille","lat":43.25114,"lon":5.40317,"is_reserved":false,"is_disabled":false,"rental_uris":{"android":"levelo://app?vid=64aac6b4-fb33-4a0b-97f0-cc4daff179f4","ios":"levelo://app?vid=64aac6b4-fb33-4a0b-97f0-cc4daff179f4"},"vehicle_type_id":"4","last_reported":1727384856,"current_range_meters":27200,"station_id":"ce4bhlh2rcd13ifvqgig","pricing_plan_id":"cebpf4jnsgd1na2vs0mg"},{"bike_id":"0f48ced1-9186-439b-9a99-e80ddc1c49fd","system_id":"levelo_inurba_marseille","lat":43.28705,"lon":5.39987,"is_reserved":false,"is_disabled":false,"rental_uris":{"android":"levelo://app?vid=0f48ced1-9186-439b-9a99-e80ddc1c49fd","ios":"levelo://app?vid=0f48ced1-9186-439b-9a99-e80ddc1c49fd"},"vehicle_type_id":"4","last_reported":1727384856,"current_range_meters":30400,"station_id":"ce4bho92rcd13ifvqh3g","pricing_plan_id":"cebpf4jnsgd1na2vs0mg"},{"bike_id":"102f379a-363b-4052-b1a0-4d4295471e65","system_id":"levelo_inurba_marseille","lat":43.313711,"lon":5.384935,"is_reserved":false,"is_disabled":false,"rental_uris":{"android":"levelo://app?vid=102f379a-363b-4052-b1a0-4d4295471e65","ios":"levelo://app?vid=102f379a-363b-4052-b1a0-4d4295471e65"},"vehicle_type_id":"4","last_reported":1727384856,"current_range_meters":38800,"station_id":"ce4bgt92rcd13ifvqcf0","pricing_plan_id":"cebpf4jnsgd1na2vs0mg"},{"bike_id":"4fec9103-b71a-46de-8574-fb61a5235fc9","system_id":"levelo_inurba_marseille","lat":43.28938,"lon":5.36407,"is_reserved":false,"is_disabled":false,"rental_uris":{"android":"levelo://app?vid=4fec9103-b71a-46de-8574-fb61a5235fc9","ios":"levelo://app?vid=4fec9103-b71a-46de-8574-fb61a5235fc9"},"vehicle_type_id":"4","last_reported":1727384856,"current_range_meters":39200,"station_id":"ce4bhc92rcd13ifvqetg","pricing_plan_id":"cebpf4jnsgd1na2vs0mg"},{"bike_id":"303bc237-67af-41c9-af29-05f39f506a1f","system_id":"levelo_inurba_marseille","lat":43.2803,"lon":5.3694,"is_reserved":false,"is_disabled":false,"rental_uris":{"android":"levelo://app?vid=303bc237-67af-41c9-af29-05f39f506a1f","ios":"levelo://app?vid=303bc237-67af-41c9-af29-05f39f506a1f"},"vehicle_type_id":"4","last_reported":1727384856,"current_range_meters":37600,"station_id":"ce4bha12rcd13ifvqef0","pricing_plan_id":"cebpf4jnsgd1na2vs0mg"},{"bike_id":"bff25a0d-8a8c-4efb-8bcc-4c346ba48ffa","system_id":"levelo_inurba_marseille","lat":43.29714,"lon":5.37935,"is_reserved":false,"is_disabled":false,"rental_uris":{"android":"levelo://app?vid=bff25a0d-8a8c-4efb-8bcc-4c346ba48ffa","ios":"levelo://app?vid=bff25a0d-8a8c-4efb-8bcc-4c346ba48ffa"},"vehicle_type_id":"4","last_reported":1727384856,"current_range_meters":12000,"station_id":"","pricing_plan_id":"cebpf4jnsgd1na2vs0mg"},{"bike_id":"bbc14a55-4124-4b7f-89e7-83ab6d28e45f","system_id":"levelo_inurba_marseille","lat":43.2926,"lon":5.40905,"is_reserved":false,"is_disabled":false,"rental_uris":{"android":"levelo://app?vid=bbc14a55-4124-4b7f-89e7-83ab6d28e45f","ios":"levelo://app?vid=bbc14a55-4124-4b7f-89e7-83ab6d28e45f"},"vehicle_type_id":"4","last_reported":1727384856,"current_range_meters":38800,"station_id":"ce4bh192rcd13ifvqdc0","pricing_plan_id":"cebpf4jnsgd1na2vs0mg"},{"bike_id":"8fb2a792-3a37-4379-95c6-53e1451aae0d","system_id":"levelo_inurba_marseille","lat":43.29037,"lon":5.39964,"is_reserved":false,"is_disabled":false,"rental_uris":{"android":"levelo://app?vid=8fb2a792-3a37-4379-95c6-53e1451aae0d","ios":"levelo://app?vid=8fb2a792-3a37-4379-95c6-53e1451aae0d"},"vehicle_type_id":"4","last_reported":1727384856,"current_range_meters":36800,"station_id":"ce4bh392rcd13ifvqdm0","pricing_plan_id":"cebpf4jnsgd1na2vs0mg"},{"bike_id":"c15e49a9-34e1-4797-9230-3d0f12892c9d","system_id":"levelo_inurba_marseille","lat":43.25087,"lon":5.39531,"is_reserved":false,"is_disabled":false,"rental_uris":{"android":"levelo://app?vid=c15e49a9-34e1-4797-9230-3d0f12892c9d","ios":"levelo://app?vid=c15e49a9-34e1-4797-9230-3d0f12892c9d"},"vehicle_type_id":"4","last_reported":1727384856,"current_range_meters":8000,"station_id":"ce4bhm12rcd13ifvqgkg","pricing_plan_id":"cebpf4jnsgd1na2vs0mg"},{"bike_id":"65361e65-6ed7-4cdd-80df-7fd70d750966","system_id":"levelo_inurba_marseille","lat":43.31173,"lon":5.3872,"is_reserved":false,"is_disabled":false,"rental_uris":{"android":"levelo://app?vid=65361e65-6ed7-4cdd-80df-7fd70d750966","ios":"levelo://app?vid=65361e65-6ed7-4cdd-80df-7fd70d750966"},"vehicle_type_id":"4","last_reported":1727384856,"current_range_meters":27600,"station_id":"ce4bgv12rcd13ifvqcp0","pricing_plan_id":"cebpf4jnsgd1na2vs0mg"},{"bike_id":"af13fa07-e491-4b91-bfbc-8092fe31d7ef","system_id":"levelo_inurba_marseille","lat":43.2871,"lon":5.37395,"is_reserved":false,"is_disabled":false,"rental_uris":{"android":"levelo://app?vid=af13fa07-e491-4b91-bfbc-8092fe31d7ef","ios":"levelo://app?vid=af13fa07-e491-4b91-bfbc-8092fe31d7ef"},"vehicle_type_id":"4","last_reported":1727384856,"current_range_meters":19200,"station_id":"ce4bh3p2rcd13ifvqdq0","pricing_plan_id":"cebpf4jnsgd1na2vs0mg"},{"bike_id":"391c26fb-8f89-4bb8-a145-0f46fdb981f0","system_id":"levelo_inurba_marseille","lat":43.31711,"lon":5.43709,"is_reserved":false,"is_disabled":false,"rental_uris":{"android":"levelo://app?vid=391c26fb-8f89-4bb8-a145-0f46fdb981f0","ios":"levelo://app?vid=391c26fb-8f89-4bb8-a145-0f46fdb981f0"},"vehicle_type_id":"4","last_reported":1727384856,"current_range_meters":26800,"station_id":"ce4bhp92rcd13ifvqhcg","pricing_plan_id":"cebpf4jnsgd1na2vs0mg"},{"bike_id":"aae4f977-38a1-41b5-8422-639b50017108","system_id":"levelo_inurba_marseille","lat":43.29716,"lon":5.36616,"is_reserved":false,"is_disabled":false,"rental_uris":{"android":"levelo://app?vid=aae4f977-38a1-41b5-8422-639b50017108","ios":"levelo://app?vid=aae4f977-38a1-41b5-8422-639b50017108"},"vehicle_type_id":"4","last_reported":1727384856,"current_range_meters":29600,"station_id":"ce4bgn12rcd13ifvqbt0","pricing_plan_id":"cebpf4jnsgd1na2vs0mg"},{"bike_id":"51363d7b-c8d8-48c3-aca5-57a8922e1c2c","system_id":"levelo_inurba_marseille","lat":43.24995,"lon":5.38935,"is_reserved":false,"is_disabled":false,"rental_uris":{"android":"levelo://app?vid=51363d7b-c8d8-48c3-aca5-57a8922e1c2c","ios":"levelo://app?vid=51363d7b-c8d8-48c3-aca5-57a8922e1c2c"},"vehicle_type_id":"4","last_reported":1727384856,"current_range_meters":24400,"station_id":"ce4bhgp2rcd13ifvqfd0","pricing_plan_id":"cebpf4jnsgd1na2vs0mg"},{"bike_id":"c419f4e8-fc0c-4376-be4e-721093a43fae","system_id":"levelo_inurba_marseille","lat":43.2869,"lon":5.37402,"is_reserved":false,"is_disabled":false,"rental_uris":{"android":"levelo://app?vid=c419f4e8-fc0c-4376-be4e-721093a43fae","ios":"levelo://app?vid=c419f4e8-fc0c-4376-be4e-721093a43fae"},"vehicle_type_id":"4","last_reported":1727384856,"current_range_meters":11200,"station_id":"ce4bh3p2rcd13ifvqdq0","pricing_plan_id":"cebpf4jnsgd1na2vs0mg"},{"bike_id":"c2f2bd8a-0b09-4904-ae59-9b0a99d3ee09","system_id":"levelo_inurba_marseille","lat":43.32037,"lon":5.41557,"is_reserved":false,"is_disabled":false,"rental_uris":{"android":"levelo://app?vid=c2f2bd8a-0b09-4904-ae59-9b0a99d3ee09","ios":"levelo://app?vid=c2f2bd8a-0b09-4904-ae59-9b0a99d3ee09"},"vehicle_type_id":"4","last_reported":1727384856,"current_range_meters":17200,"station_id":"ce4bhq92rcd13ifvqhkg","pricing_plan_id":"cebpf4jnsgd1na2vs0mg"},{"bike_id":"93bfcfed-836b-472e-9323-c10053d4ad1c","system_id":"levelo_inurba_marseille","lat":43.29718,"lon":5.36614,"is_reserved":false,"is_disabled":false,"rental_uris":{"android":"levelo://app?vid=93bfcfed-836b-472e-9323-c10053d4ad1c","ios":"levelo://app?vid=93bfcfed-836b-472e-9323-c10053d4ad1c"},"vehicle_type_id":"4","last_reported":1727384856,"current_range_meters":26000,"station_id":"ce4bgn12rcd13ifvqbt0","pricing_plan_id":"cebpf4jnsgd1na2vs0mg"},{"bike_id":"7b8d2598-73df-4717-8548-f94bbe1c6d19","system_id":"levelo_inurba_marseille","lat":43.29715,"lon":5.36615,"is_reserved":false,"is_disabled":false,"rental_uris":{"android":"levelo://app?vid=7b8d2598-73df-4717-8548-f94bbe1c6d19","ios":"levelo://app?vid=7b8d2598-73df-4717-8548-f94bbe1c6d19"},"vehicle_type_id":"4","last_reported":1727384856,"current_range_meters":18000,"station_id":"ce4bgn12rcd13ifvqbt0","pricing_plan_id":"cebpf4jnsgd1na2vs0mg"},{"bike_id":"e721f749-3932-4551-8ebf-503ea1026350","system_id":"levelo_inurba_marseille","lat":43.2422,"lon":5.396936,"is_reserved":false,"is_disabled":false,"rental_uris":{"android":"levelo://app?vid=e721f749-3932-4551-8ebf-503ea1026350","ios":"levelo://app?vid=e721f749-3932-4551-8ebf-503ea1026350"},"vehicle_type_id":"4","last_reported":1727384856,"current_range_meters":20800,"station_id":"ce4bhn12rcd13ifvqgpg","pricing_plan_id":"cebpf4jnsgd1na2vs0mg"},{"bike_id":"e55311dc-47e5-4091-bcf9-a5388faa16d3","system_id":"levelo_inurba_marseille","lat":43.31531,"lon":5.38038,"is_reserved":false,"is_disabled":false,"rental_uris":{"android":"levelo://app?vid=e55311dc-47e5-4091-bcf9-a5388faa16d3","ios":"levelo://app?vid=e55311dc-47e5-4091-bcf9-a5388faa16d3"},"vehicle_type_id":"4","last_reported":1727384856,"current_range_meters":28400,"station_id":"ce4bhsp2rcd13ifvqi50","pricing_plan_id":"cebpf4jnsgd1na2vs0mg"},{"bike_id":"3a026c80-283a-4095-a04a-14aa22880b1b","system_id":"levelo_inurba_marseille","lat":43.2407,"lon":5.37766,"is_reserved":false,"is_disabled":false,"rental_uris":{"android":"levelo://app?vid=3a026c80-283a-4095-a04a-14aa22880b1b","ios":"levelo://app?vid=3a026c80-283a-4095-a04a-14aa22880b1b"},"vehicle_type_id":"4","last_reported":1727384856,"current_range_meters":16400,"station_id":"ce4bhnp2rcd13ifvqgvg","pricing_plan_id":"cebpf4jnsgd1na2vs0mg"},{"bike_id":"7c49b807-133c-46de-8193-d55c57d208f6","system_id":"levelo_inurba_marseille","lat":43.30324,"lon":5.40444,"is_reserved":false,"is_disabled":false,"rental_uris":{"android":"levelo://app?vid=7c49b807-133c-46de-8193-d55c57d208f6","ios":"levelo://app?vid=7c49b807-133c-46de-8193-d55c57d208f6"},"vehicle_type_id":"4","last_reported":1727384856,"current_range_meters":18000,"station_id":"ce4bh012rcd13ifvqd10","pricing_plan_id":"cebpf4jnsgd1na2vs0mg"},{"bike_id":"edb76f42-d00f-47eb-a777-e78dab3bfd44","system_id":"levelo_inurba_marseille","lat":43.30886,"lon":5.37194,"is_reserved":false,"is_disabled":false,"rental_uris":{"android":"levelo://app?vid=edb76f42-d00f-47eb-a777-e78dab3bfd44","ios":"levelo://app?vid=edb76f42-d00f-47eb-a777-e78dab3bfd44"},"vehicle_type_id":"4","last_reported":1727384856,"current_range_meters":9200,"station_id":"ce4bguh2rcd13ifvqckg","pricing_plan_id":"cebpf4jnsgd1na2vs0mg"},{"bike_id":"6742a56f-b00f-4647-900f-0dd33ba557da","system_id":"levelo_inurba_marseille","lat":43.30804,"lon":5.43522,"is_reserved":false,"is_disabled":false,"rental_uris":{"android":"levelo://app?vid=6742a56f-b00f-4647-900f-0dd33ba557da","ios":"levelo://app?vid=6742a56f-b00f-4647-900f-0dd33ba557da"},"vehicle_type_id":"4","last_reported":1727384856,"current_range_meters":34800,"station_id":"ce4bhph2rcd13ifvqheg","pricing_plan_id":"cebpf4jnsgd1na2vs0mg"},{"bike_id":"7829d957-94e4-4e30-bec4-e626f0e5287c","system_id":"levelo_inurba_marseille","lat":43.28702,"lon":5.39976,"is_reserved":false,"is_disabled":false,"rental_uris":{"android":"levelo://app?vid=7829d957-94e4-4e30-bec4-e626f0e5287c","ios":"levelo://app?vid=7829d957-94e4-4e30-bec4-e626f0e5287c"},"vehicle_type_id":"4","last_reported":1727384856,"current_range_meters":16400,"station_id":"ce4bho92rcd13ifvqh3g","pricing_plan_id":"cebpf4jnsgd1na2vs0mg"},{"bike_id":"5860d86a-5e03-4913-8798-da25baeb21be","system_id":"levelo_inurba_marseille","lat":43.27814,"lon":5.40713,"is_reserved":false,"is_disabled":false,"rental_uris":{"android":"levelo://app?vid=5860d86a-5e03-4913-8798-da25baeb21be","ios":"levelo://app?vid=5860d86a-5e03-4913-8798-da25baeb21be"},"vehicle_type_id":"4","last_reported":1727384856,"current_range_meters":37600,"station_id":"ce4bhnh2rcd13ifvqgtg","pricing_plan_id":"cebpf4jnsgd1na2vs0mg"},{"bike_id":"86e04bfb-5740-4598-a5f4-2f230d6e0d0a","system_id":"levelo_inurba_marseille","lat":43.3109,"lon":5.38349,"is_reserved":false,"is_disabled":false,"rental_uris":{"android":"levelo://app?vid=86e04bfb-5740-4598-a5f4-2f230d6e0d0a","ios":"levelo://app?vid=86e04bfb-5740-4598-a5f4-2f230d6e0d0a"},"vehicle_type_id":"4","last_reported":1727384856,"current_range_meters":31200,"station_id":"ce4bgv92rcd13ifvqcr0","pricing_plan_id":"cebpf4jnsgd1na2vs0mg"},{"bike_id":"9b30eb6d-c46c-4191-83ea-eebaaa7b27fb","system_id":"levelo_inurba_marseille","lat":43.30539,"lon":5.36708,"is_reserved":false,"is_disabled":false,"rental_uris":{"android":"levelo://app?vid=9b30eb6d-c46c-4191-83ea-eebaaa7b27fb","ios":"levelo://app?vid=9b30eb6d-c46c-4191-83ea-eebaaa7b27fb"},"vehicle_type_id":"4","last_reported":1727384856,"current_range_meters":10800,"station_id":"ce4bgrp2rcd13ifvqc9g","pricing_plan_id":"cebpf4jnsgd1na2vs0mg"},{"bike_id":"5d6c707b-bd6b-4880-9f49-0c552ae705a6","system_id":"levelo_inurba_marseille","lat":43.28566,"lon":5.39506,"is_reserved":false,"is_disabled":false,"rental_uris":{"android":"levelo://app?vid=5d6c707b-bd6b-4880-9f49-0c552ae705a6","ios":"levelo://app?vid=5d6c707b-bd6b-4880-9f49-0c552ae705a6"},"vehicle_type_id":"4","last_reported":1727384856,"current_range_meters":35600,"station_id":"ce4bh292rcd13ifvqdg0","pricing_plan_id":"cebpf4jnsgd1na2vs0mg"},{"bike_id":"88520022-dcb9-470a-815c-397d3bbf4936","system_id":"levelo_inurba_marseille","lat":43.28094,"lon":5.37851,"is_reserved":false,"is_disabled":false,"rental_uris":{"android":"levelo://app?vid=88520022-dcb9-470a-815c-397d3bbf4936","ios":"levelo://app?vid=88520022-dcb9-470a-815c-397d3bbf4936"},"vehicle_type_id":"4","last_reported":1727384856,"current_range_meters":38800,"station_id":"ce4bha12rcd13ifvqee0","pricing_plan_id":"cebpf4jnsgd1na2vs0mg"},{"bike_id":"2ebb38e3-8729-42bf-ba89-fcb52f252437","system_id":"levelo_inurba_marseille","lat":43.29199,"lon":5.393282,"is_reserved":false,"is_disabled":false,"rental_uris":{"android":"levelo://app?vid=2ebb38e3-8729-42bf-ba89-fcb52f252437","ios":"levelo://app?vid=2ebb38e3-8729-42bf-ba89-fcb52f252437"},"vehicle_type_id":"4","last_reported":1727384856,"current_range_meters":27200,"station_id":"ce4bh192rcd13ifvqdd0","pricing_plan_id":"cebpf4jnsgd1na2vs0mg"},{"bike_id":"118796cc-b9be-4e06-8489-73358f22a0a7","system_id":"levelo_inurba_marseille","lat":43.30801,"lon":5.3816,"is_reserved":false,"is_disabled":false,"rental_uris":{"android":"levelo://app?vid=118796cc-b9be-4e06-8489-73358f22a0a7","ios":"levelo://app?vid=118796cc-b9be-4e06-8489-73358f22a0a7"},"vehicle_type_id":"4","last_reported":1727384856,"current_range_meters":17600,"station_id":"ce4bgt12rcd13ifvqce0","pricing_plan_id":"cebpf4jnsgd1na2vs0mg"},{"bike_id":"1a8cbed4-128b-4a29-ba95-08db7784e51f","system_id":"levelo_inurba_marseille","lat":43.25825,"lon":5.39439,"is_reserved":false,"is_disabled":false,"rental_uris":{"android":"levelo://app?vid=1a8cbed4-128b-4a29-ba95-08db7784e51f","ios":"levelo://app?vid=1a8cbed4-128b-4a29-ba95-08db7784e51f"},"vehicle_type_id":"4","last_reported":1727384856,"current_range_meters":38800,"station_id":"ce4bhip2rcd13ifvqft0","pricing_plan_id":"cebpf4jnsgd1na2vs0mg"},{"bike_id":"48901cc5-684c-49ee-b3a7-82204cd71481","system_id":"levelo_inurba_marseille","lat":43.30214,"lon":5.39458,"is_reserved":false,"is_disabled":false,"rental_uris":{"android":"levelo://app?vid=48901cc5-684c-49ee-b3a7-82204cd71481","ios":"levelo://app?vid=48901cc5-684c-49ee-b3a7-82204cd71481"},"vehicle_type_id":"4","last_reported":1727384856,"current_range_meters":35600,"station_id":"ce4bh0p2rcd13ifvqd70","pricing_plan_id":"cebpf4jnsgd1na2vs0mg"},{"bike_id":"460d3f00-92b2-4bef-a5f5-60083aa77ed9","system_id":"levelo_inurba_marseille","lat":43.28938,"lon":5.36634,"is_reserved":false,"is_disabled":false,"rental_uris":{"android":"levelo://app?vid=460d3f00-92b2-4bef-a5f5-60083aa77ed9","ios":"levelo://app?vid=460d3f00-92b2-4bef-a5f5-60083aa77ed9"},"vehicle_type_id":"4","last_reported":1727384856,"current_range_meters":16800,"station_id":"ce4bhap2rcd13ifvqek0","pricing_plan_id":"cebpf4jnsgd1na2vs0mg"},{"bike_id":"7a221aff-a308-4e51-bd6c-3606a6928c42","system_id":"levelo_inurba_marseille","lat":43.28509,"lon":5.38984,"is_reserved":false,"is_disabled":false,"rental_uris":{"android":"levelo://app?vid=7a221aff-a308-4e51-bd6c-3606a6928c42","ios":"levelo://app?vid=7a221aff-a308-4e51-bd6c-3606a6928c42"},"vehicle_type_id":"4","last_reported":1727384856,"current_range_meters":38800,"station_id":"","pricing_plan_id":"cebpf4jnsgd1na2vs0mg"},{"bike_id":"ef235f79-4852-4cbc-a951-509b641e7348","system_id":"levelo_inurba_marseille","lat":43.29888,"lon":5.389,"is_reserved":false,"is_disabled":false,"rental_uris":{"android":"levelo://app?vid=ef235f79-4852-4cbc-a951-509b641e7348","ios":"levelo://app?vid=ef235f79-4852-4cbc-a951-509b641e7348"},"vehicle_type_id":"4","last_reported":1727384856,"current_range_meters":8800,"station_id":"ce4bh392rcd13ifvqdl0","pricing_plan_id":"cebpf4jnsgd1na2vs0mg"},{"bike_id":"c77c91f6-96f8-482d-b20f-c36ca3fc312b","system_id":"levelo_inurba_marseille","lat":43.32003,"lon":5.38154,"is_reserved":false,"is_disabled":false,"rental_uris":{"android":"levelo://app?vid=c77c91f6-96f8-482d-b20f-c36ca3fc312b","ios":"levelo://app?vid=c77c91f6-96f8-482d-b20f-c36ca3fc312b"},"vehicle_type_id":"4","last_reported":1727384856,"current_range_meters":8400,"station_id":"ce4bhr12rcd13ifvqhpg","pricing_plan_id":"cebpf4jnsgd1na2vs0mg"},{"bike_id":"35ea8c68-3337-46ca-b3e6-aa61667870c7","system_id":"levelo_inurba_marseille","lat":43.28074,"lon":5.39653,"is_reserved":false,"is_disabled":false,"rental_uris":{"android":"levelo://app?vid=35ea8c68-3337-46ca-b3e6-aa61667870c7","ios":"levelo://app?vid=35ea8c68-3337-46ca-b3e6-aa61667870c7"},"vehicle_type_id":"4","last_reported":1727384856,"current_range_meters":31200,"station_id":"ce4bho12rcd13ifvqh2g","pricing_plan_id":"cebpf4jnsgd1na2vs0mg"},{"bike_id":"53762a81-a734-4d5e-a158-d83c3f880daa","system_id":"levelo_inurba_marseille","lat":43.32478,"lon":5.36573,"is_reserved":false,"is_disabled":false,"rental_uris":{"android":"levelo://app?vid=53762a81-a734-4d5e-a158-d83c3f880daa","ios":"levelo://app?vid=53762a81-a734-4d5e-a158-d83c3f880daa"},"vehicle_type_id":"4","last_reported":1727384856,"current_range_meters":37600,"station_id":"ce4bhs12rcd13ifvqhvg","pricing_plan_id":"cebpf4jnsgd1na2vs0mg"},{"bike_id":"c2e5a81e-6912-4cb0-98ad-5f3df477fa43","system_id":"levelo_inurba_marseille","lat":43.28987,"lon":5.37591,"is_reserved":false,"is_disabled":false,"rental_uris":{"android":"levelo://app?vid=c2e5a81e-6912-4cb0-98ad-5f3df477fa43","ios":"levelo://app?vid=c2e5a81e-6912-4cb0-98ad-5f3df477fa43"},"vehicle_type_id":"4","last_reported":1727384856,"current_range_meters":36800,"station_id":"","pricing_plan_id":"cebpf4jnsgd1na2vs0mg"},{"bike_id":"cf517e91-9fba-4889-840d-85b4c7dbf3fd","system_id":"levelo_inurba_marseille","lat":43.24072,"lon":5.37764,"is_reserved":false,"is_disabled":false,"rental_uris":{"android":"levelo://app?vid=cf517e91-9fba-4889-840d-85b4c7dbf3fd","ios":"levelo://app?vid=cf517e91-9fba-4889-840d-85b4c7dbf3fd"},"vehicle_type_id":"4","last_reported":1727384856,"current_range_meters":10800,"station_id":"ce4bhnp2rcd13ifvqgvg","pricing_plan_id":"cebpf4jnsgd1na2vs0mg"},{"bike_id":"5865b5a5-1afa-4d67-9a4b-12a8aee5f247","system_id":"levelo_inurba_marseille","lat":43.30137,"lon":5.3987,"is_reserved":false,"is_disabled":false,"rental_uris":{"android":"levelo://app?vid=5865b5a5-1afa-4d67-9a4b-12a8aee5f247","ios":"levelo://app?vid=5865b5a5-1afa-4d67-9a4b-12a8aee5f247"},"vehicle_type_id":"4","last_reported":1727384856,"current_range_meters":16000,"station_id":"ce4bh0h2rcd13ifvqd40","pricing_plan_id":"cebpf4jnsgd1na2vs0mg"},{"bike_id":"4b621b50-6118-4732-9804-1e9e339a1694","system_id":"levelo_inurba_marseille","lat":43.2797,"lon":5.38744,"is_reserved":false,"is_disabled":false,"rental_uris":{"android":"levelo://app?vid=4b621b50-6118-4732-9804-1e9e339a1694","ios":"levelo://app?vid=4b621b50-6118-4732-9804-1e9e339a1694"},"vehicle_type_id":"4","last_reported":1727384856,"current_range_meters":5600,"station_id":"ce4bhg12rcd13ifvqf80","pricing_plan_id":"cebpf4jnsgd1na2vs0mg"},{"bike_id":"a45a2e03-48a0-4487-8544-c2be266946db","system_id":"levelo_inurba_marseille","lat":43.30422,"lon":5.3975,"is_reserved":false,"is_disabled":false,"rental_uris":{"android":"levelo://app?vid=a45a2e03-48a0-4487-8544-c2be266946db","ios":"levelo://app?vid=a45a2e03-48a0-4487-8544-c2be266946db"},"vehicle_type_id":"4","last_reported":1727384856,"current_range_meters":38800,"station_id":"ce4bh092rcd13ifvqd20","pricing_plan_id":"cebpf4jnsgd1na2vs0mg"},{"bike_id":"18040558-ce66-41b8-9878-6fe0ae02da1f","system_id":"levelo_inurba_marseille","lat":43.29542,"lon":5.39396,"is_reserved":false,"is_disabled":false,"rental_uris":{"android":"levelo://app?vid=18040558-ce66-41b8-9878-6fe0ae02da1f","ios":"levelo://app?vid=18040558-ce66-41b8-9878-6fe0ae02da1f"},"vehicle_type_id":"4","last_reported":1727384856,"current_range_meters":22400,"station_id":"ce4bh292rcd13ifvqdf0","pricing_plan_id":"cebpf4jnsgd1na2vs0mg"},{"bike_id":"a1f2fd41-bf77-4520-b2b5-7d96426261f7","system_id":"levelo_inurba_marseille","lat":43.284143,"lon":5.375074,"is_reserved":false,"is_disabled":false,"rental_uris":{"android":"levelo://app?vid=a1f2fd41-bf77-4520-b2b5-7d96426261f7","ios":"levelo://app?vid=a1f2fd41-bf77-4520-b2b5-7d96426261f7"},"vehicle_type_id":"4","last_reported":1727384856,"current_range_meters":8400,"station_id":"ce4bh412rcd13ifvqds0","pricing_plan_id":"cebpf4jnsgd1na2vs0mg"},{"bike_id":"cbd4cabc-26fb-472f-b0b7-8b13ff1d4290","system_id":"levelo_inurba_marseille","lat":43.30094,"lon":5.39084,"is_reserved":false,"is_disabled":false,"rental_uris":{"android":"levelo://app?vid=cbd4cabc-26fb-472f-b0b7-8b13ff1d4290","ios":"levelo://app?vid=cbd4cabc-26fb-472f-b0b7-8b13ff1d4290"},"vehicle_type_id":"4","last_reported":1727384856,"current_range_meters":38800,"station_id":"ce4bh192rcd13ifvqdb0","pricing_plan_id":"cebpf4jnsgd1na2vs0mg"},{"bike_id":"beb2b48a-7c60-4faf-a8ab-ab0546d0ef67","system_id":"levelo_inurba_marseille","lat":43.3176,"lon":5.39014,"is_reserved":false,"is_disabled":false,"rental_uris":{"android":"levelo://app?vid=beb2b48a-7c60-4faf-a8ab-ab0546d0ef67","ios":"levelo://app?vid=beb2b48a-7c60-4faf-a8ab-ab0546d0ef67"},"vehicle_type_id":"4","last_reported":1727384856,"current_range_meters":38800,"station_id":"ce4bhqp2rcd13ifvqhng","pricing_plan_id":"cebpf4jnsgd1na2vs0mg"},{"bike_id":"bf2d05c7-e426-428a-9deb-d9f9e1c3ffe4","system_id":"levelo_inurba_marseille","lat":43.30796,"lon":5.43525,"is_reserved":false,"is_disabled":false,"rental_uris":{"android":"levelo://app?vid=bf2d05c7-e426-428a-9deb-d9f9e1c3ffe4","ios":"levelo://app?vid=bf2d05c7-e426-428a-9deb-d9f9e1c3ffe4"},"vehicle_type_id":"4","last_reported":1727384856,"current_range_meters":7200,"station_id":"ce4bhph2rcd13ifvqheg","pricing_plan_id":"cebpf4jnsgd1na2vs0mg"},{"bike_id":"e68f2da7-da03-4d5a-812e-a4d0efdc0c84","system_id":"levelo_inurba_marseille","lat":43.30604,"lon":5.37234,"is_reserved":false,"is_disabled":false,"rental_uris":{"android":"levelo://app?vid=e68f2da7-da03-4d5a-812e-a4d0efdc0c84","ios":"levelo://app?vid=e68f2da7-da03-4d5a-812e-a4d0efdc0c84"},"vehicle_type_id":"4","last_reported":1727384856,"current_range_meters":38800,"station_id":"ce4bgqh2rcd13ifvqc4g","pricing_plan_id":"cebpf4jnsgd1na2vs0mg"},{"bike_id":"8c5dbd6a-cc9d-4021-b132-d5751493cf55","system_id":"levelo_inurba_marseille","lat":43.28031,"lon":5.36944,"is_reserved":false,"is_disabled":false,"rental_uris":{"android":"levelo://app?vid=8c5dbd6a-cc9d-4021-b132-d5751493cf55","ios":"levelo://app?vid=8c5dbd6a-cc9d-4021-b132-d5751493cf55"},"vehicle_type_id":"4","last_reported":1727384856,"current_range_meters":32800,"station_id":"ce4bha12rcd13ifvqef0","pricing_plan_id":"cebpf4jnsgd1na2vs0mg"},{"bike_id":"d89a6b44-b264-4a99-8b3c-f07b95bc3cb9","system_id":"levelo_inurba_marseille","lat":43.32285,"lon":5.38279,"is_reserved":false,"is_disabled":false,"rental_uris":{"android":"levelo://app?vid=d89a6b44-b264-4a99-8b3c-f07b95bc3cb9","ios":"levelo://app?vid=d89a6b44-b264-4a99-8b3c-f07b95bc3cb9"},"vehicle_type_id":"4","last_reported":1727384856,"current_range_meters":36000,"station_id":"ce4bhr12rcd13ifvqhqg","pricing_plan_id":"cebpf4jnsgd1na2vs0mg"},{"bike_id":"ccbf4dda-e8ab-4695-a815-d3de1ad7009b","system_id":"levelo_inurba_marseille","lat":43.28403,"lon":5.37527,"is_reserved":false,"is_disabled":false,"rental_uris":{"android":"levelo://app?vid=ccbf4dda-e8ab-4695-a815-d3de1ad7009b","ios":"levelo://app?vid=ccbf4dda-e8ab-4695-a815-d3de1ad7009b"},"vehicle_type_id":"4","last_reported":1727384856,"current_range_meters":33200,"station_id":"ce4bh412rcd13ifvqds0","pricing_plan_id":"cebpf4jnsgd1na2vs0mg"},{"bike_id":"1dd1232a-b83e-4382-b557-c7961002ab89","system_id":"levelo_inurba_marseille","lat":43.23177,"lon":5.39985,"is_reserved":false,"is_disabled":false,"rental_uris":{"android":"levelo://app?vid=1dd1232a-b83e-4382-b557-c7961002ab89","ios":"levelo://app?vid=1dd1232a-b83e-4382-b557-c7961002ab89"},"vehicle_type_id":"4","last_reported":1727384856,"current_range_meters":36000,"station_id":"ce4bhn12rcd13ifvqgqg","pricing_plan_id":"cebpf4jnsgd1na2vs0mg"},{"bike_id":"a7bca3df-0344-4204-86d7-b742d4769839","system_id":"levelo_inurba_marseille","lat":43.30863,"lon":5.3685,"is_reserved":false,"is_disabled":false,"rental_uris":{"android":"levelo://app?vid=a7bca3df-0344-4204-86d7-b742d4769839","ios":"levelo://app?vid=a7bca3df-0344-4204-86d7-b742d4769839"},"vehicle_type_id":"4","last_reported":1727384856,"current_range_meters":20400,"station_id":"ce4bgn92rcd13ifvqbvg","pricing_plan_id":"cebpf4jnsgd1na2vs0mg"},{"bike_id":"189a8e17-dc06-4f85-bbde-5afa18abad81","system_id":"levelo_inurba_marseille","lat":43.31749,"lon":5.39027,"is_reserved":false,"is_disabled":false,"rental_uris":{"android":"levelo://app?vid=189a8e17-dc06-4f85-bbde-5afa18abad81","ios":"levelo://app?vid=189a8e17-dc06-4f85-bbde-5afa18abad81"},"vehicle_type_id":"4","last_reported":1727384856,"current_range_meters":8000,"station_id":"ce4bhqp2rcd13ifvqhng","pricing_plan_id":"cebpf4jnsgd1na2vs0mg"},{"bike_id":"3c25da4a-8679-4bb1-9dab-62cae1920da8","system_id":"levelo_inurba_marseille","lat":43.33022,"lon":5.39038,"is_reserved":false,"is_disabled":false,"rental_uris":{"android":"levelo://app?vid=3c25da4a-8679-4bb1-9dab-62cae1920da8","ios":"levelo://app?vid=3c25da4a-8679-4bb1-9dab-62cae1920da8"},"vehicle_type_id":"4","last_reported":1727384856,"current_range_meters":12400,"station_id":"ce4bhr92rcd13ifvqhrg","pricing_plan_id":"cebpf4jnsgd1na2vs0mg"},{"bike_id":"f02957f0-eeef-4f62-a0e4-a22ac891c4e6","system_id":"levelo_inurba_marseille","lat":43.29193,"lon":5.3932,"is_reserved":false,"is_disabled":false,"rental_uris":{"android":"levelo://app?vid=f02957f0-eeef-4f62-a0e4-a22ac891c4e6","ios":"levelo://app?vid=f02957f0-eeef-4f62-a0e4-a22ac891c4e6"},"vehicle_type_id":"4","last_reported":1727384856,"current_range_meters":18800,"station_id":"ce4bh192rcd13ifvqdd0","pricing_plan_id":"cebpf4jnsgd1na2vs0mg"},{"bike_id":"cd993e98-ab1d-49b3-a81f-d12b73e5d532","system_id":"levelo_inurba_marseille","lat":43.26199,"lon":5.37931,"is_reserved":false,"is_disabled":false,"rental_uris":{"android":"levelo://app?vid=cd993e98-ab1d-49b3-a81f-d12b73e5d532","ios":"levelo://app?vid=cd993e98-ab1d-49b3-a81f-d12b73e5d532"},"vehicle_type_id":"4","last_reported":1727384856,"current_range_meters":39200,"station_id":"ce4bhjp2rcd13ifvqg90","pricing_plan_id":"cebpf4jnsgd1na2vs0mg"},{"bike_id":"c38d2019-7e97-4eb9-9cee-088dee4d1414","system_id":"levelo_inurba_marseille","lat":43.27622,"lon":5.3612,"is_reserved":false,"is_disabled":false,"rental_uris":{"android":"levelo://app?vid=c38d2019-7e97-4eb9-9cee-088dee4d1414","ios":"levelo://app?vid=c38d2019-7e97-4eb9-9cee-088dee4d1414"},"vehicle_type_id":"4","last_reported":1727384856,"current_range_meters":14800,"station_id":"ce4bgj92rcd13ifvqbe0","pricing_plan_id":"cebpf4jnsgd1na2vs0mg"},{"bike_id":"a6addce0-6b53-4ddf-bf9c-d50a96dd9e51","system_id":"levelo_inurba_marseille","lat":43.22936,"lon":5.35379,"is_reserved":false,"is_disabled":false,"rental_uris":{"android":"levelo://app?vid=a6addce0-6b53-4ddf-bf9c-d50a96dd9e51","ios":"levelo://app?vid=a6addce0-6b53-4ddf-bf9c-d50a96dd9e51"},"vehicle_type_id":"4","last_reported":1727384856,"current_range_meters":6400,"station_id":"cpo3532slgdg3j2ikp40","pricing_plan_id":"cebpf4jnsgd1na2vs0mg"},{"bike_id":"c43bf600-564c-4211-a38f-389cc2a0691e","system_id":"levelo_inurba_marseille","lat":43.29842,"lon":5.3627,"is_reserved":false,"is_disabled":false,"rental_uris":{"android":"levelo://app?vid=c43bf600-564c-4211-a38f-389cc2a0691e","ios":"levelo://app?vid=c43bf600-564c-4211-a38f-389cc2a0691e"},"vehicle_type_id":"4","last_reported":1727384856,"current_range_meters":37600,"station_id":"ce4bgpp2rcd13ifvqc3g","pricing_plan_id":"cebpf4jnsgd1na2vs0mg"},{"bike_id":"1308b0fb-bd4d-40f5-ac49-006da344188d","system_id":"levelo_inurba_marseille","lat":43.295349,"lon":5.385397,"is_reserved":false,"is_disabled":false,"rental_uris":{"android":"levelo://app?vid=1308b0fb-bd4d-40f5-ac49-006da344188d","ios":"levelo://app?vid=1308b0fb-bd4d-40f5-ac49-006da344188d"},"vehicle_type_id":"4","last_reported":1727384856,"current_range_meters":23200,"station_id":"ce4bgih2rcd13ifvqba0","pricing_plan_id":"cebpf4jnsgd1na2vs0mg"},{"bike_id":"bbc00e19-a1bd-4c6d-9f1b-b91795b34296","system_id":"levelo_inurba_marseille","lat":43.30959,"lon":5.39038,"is_reserved":false,"is_disabled":false,"rental_uris":{"android":"levelo://app?vid=bbc00e19-a1bd-4c6d-9f1b-b91795b34296","ios":"levelo://app?vid=bbc00e19-a1bd-4c6d-9f1b-b91795b34296"},"vehicle_type_id":"4","last_reported":1727384856,"current_range_meters":30000,"station_id":"ce4bgup2rcd13ifvqco0","pricing_plan_id":"cebpf4jnsgd1na2vs0mg"},{"bike_id":"4a4bfd88-bdfc-4802-b3a8-e798e4274727","system_id":"levelo_inurba_marseille","lat":43.32289,"lon":5.38261,"is_reserved":false,"is_disabled":false,"rental_uris":{"android":"levelo://app?vid=4a4bfd88-bdfc-4802-b3a8-e798e4274727","ios":"levelo://app?vid=4a4bfd88-bdfc-4802-b3a8-e798e4274727"},"vehicle_type_id":"4","last_reported":1727384856,"current_range_meters":22800,"station_id":"ce4bhr12rcd13ifvqhqg","pricing_plan_id":"cebpf4jnsgd1na2vs0mg"},{"bike_id":"303e8f5e-8abb-4ccd-bc87-13da2c5a39f6","system_id":"levelo_inurba_marseille","lat":43.29271,"lon":5.36842,"is_reserved":false,"is_disabled":false,"rental_uris":{"android":"levelo://app?vid=303e8f5e-8abb-4ccd-bc87-13da2c5a39f6","ios":"levelo://app?vid=303e8f5e-8abb-4ccd-bc87-13da2c5a39f6"},"vehicle_type_id":"4","last_reported":1727384856,"current_range_meters":19600,"station_id":"ce4bhbp2rcd13ifvqesg","pricing_plan_id":"cebpf4jnsgd1na2vs0mg"},{"bike_id":"3efef019-cfce-47f6-8743-95ec063d3569","system_id":"levelo_inurba_marseille","lat":43.25822,"lon":5.39438,"is_reserved":false,"is_disabled":false,"rental_uris":{"android":"levelo://app?vid=3efef019-cfce-47f6-8743-95ec063d3569","ios":"levelo://app?vid=3efef019-cfce-47f6-8743-95ec063d3569"},"vehicle_type_id":"4","last_reported":1727384856,"current_range_meters":38800,"station_id":"ce4bhip2rcd13ifvqft0","pricing_plan_id":"cebpf4jnsgd1na2vs0mg"},{"bike_id":"2ba09575-244f-487f-8743-7cdef664b4d1","system_id":"levelo_inurba_marseille","lat":43.29894,"lon":5.4368,"is_reserved":false,"is_disabled":false,"rental_uris":{"android":"levelo://app?vid=2ba09575-244f-487f-8743-7cdef664b4d1","ios":"levelo://app?vid=2ba09575-244f-487f-8743-7cdef664b4d1"},"vehicle_type_id":"4","last_reported":1727384856,"current_range_meters":16400,"station_id":"ce4bhpp2rcd13ifvqhfg","pricing_plan_id":"cebpf4jnsgd1na2vs0mg"},{"bike_id":"bb73ba4d-c7df-4cdc-a516-50b5f6789a17","system_id":"levelo_inurba_marseille","lat":43.28693,"lon":5.37402,"is_reserved":false,"is_disabled":false,"rental_uris":{"android":"levelo://app?vid=bb73ba4d-c7df-4cdc-a516-50b5f6789a17","ios":"levelo://app?vid=bb73ba4d-c7df-4cdc-a516-50b5f6789a17"},"vehicle_type_id":"4","last_reported":1727384856,"current_range_meters":5600,"station_id":"ce4bh3p2rcd13ifvqdq0","pricing_plan_id":"cebpf4jnsgd1na2vs0mg"},{"bike_id":"b8d4cfe5-fa00-4798-bb3b-a5cd96b0fee5","system_id":"levelo_inurba_marseille","lat":43.24216,"lon":5.38438,"is_reserved":false,"is_disabled":false,"rental_uris":{"android":"levelo://app?vid=b8d4cfe5-fa00-4798-bb3b-a5cd96b0fee5","ios":"levelo://app?vid=b8d4cfe5-fa00-4798-bb3b-a5cd96b0fee5"},"vehicle_type_id":"4","last_reported":1727384856,"current_range_meters":6800,"station_id":"","pricing_plan_id":"cebpf4jnsgd1na2vs0mg"},{"bike_id":"48eb8481-aeb0-4141-b07c-b03f7a09ce06","system_id":"levelo_inurba_marseille","lat":43.28154,"lon":5.42645,"is_reserved":false,"is_disabled":false,"rental_uris":{"android":"levelo://app?vid=48eb8481-aeb0-4141-b07c-b03f7a09ce06","ios":"levelo://app?vid=48eb8481-aeb0-4141-b07c-b03f7a09ce06"},"vehicle_type_id":"4","last_reported":1727384856,"current_range_meters":25600,"station_id":"ce4bhnh2rcd13ifvqgug","pricing_plan_id":"cebpf4jnsgd1na2vs0mg"},{"bike_id":"3d5c03cc-2018-4ed3-84e2-96dbaefdad61","system_id":"levelo_inurba_marseille","lat":43.28446,"lon":5.39203,"is_reserved":false,"is_disabled":false,"rental_uris":{"android":"levelo://app?vid=3d5c03cc-2018-4ed3-84e2-96dbaefdad61","ios":"levelo://app?vid=3d5c03cc-2018-4ed3-84e2-96dbaefdad61"},"vehicle_type_id":"4","last_reported":1727384856,"current_range_meters":30800,"station_id":"ce4bhoh2rcd13ifvqh5g","pricing_plan_id":"cebpf4jnsgd1na2vs0mg"},{"bike_id":"a858168e-4bf2-4a54-9b88-c99fcb4ff9b3","system_id":"levelo_inurba_marseille","lat":43.30936,"lon":5.40147,"is_reserved":false,"is_disabled":false,"rental_uris":{"android":"levelo://app?vid=a858168e-4bf2-4a54-9b88-c99fcb4ff9b3","ios":"levelo://app?vid=a858168e-4bf2-4a54-9b88-c99fcb4ff9b3"},"vehicle_type_id":"4","last_reported":1727384856,"current_range_meters":34000,"station_id":"ce4bgvp2rcd13ifvqct0","pricing_plan_id":"cebpf4jnsgd1na2vs0mg"},{"bike_id":"19f852cb-7fa0-477a-91ec-9c88d066b56c","system_id":"levelo_inurba_marseille","lat":43.28154,"lon":5.42639,"is_reserved":false,"is_disabled":false,"rental_uris":{"android":"levelo://app?vid=19f852cb-7fa0-477a-91ec-9c88d066b56c","ios":"levelo://app?vid=19f852cb-7fa0-477a-91ec-9c88d066b56c"},"vehicle_type_id":"4","last_reported":1727384856,"current_range_meters":20000,"station_id":"ce4bhnh2rcd13ifvqgug","pricing_plan_id":"cebpf4jnsgd1na2vs0mg"},{"bike_id":"78c5486c-1ad5-4309-8aef-8e3d0c5b1533","system_id":"levelo_inurba_marseille","lat":43.29877,"lon":5.39738,"is_reserved":false,"is_disabled":false,"rental_uris":{"android":"levelo://app?vid=78c5486c-1ad5-4309-8aef-8e3d0c5b1533","ios":"levelo://app?vid=78c5486c-1ad5-4309-8aef-8e3d0c5b1533"},"vehicle_type_id":"4","last_reported":1727384856,"current_range_meters":38800,"station_id":"ce4bh0h2rcd13ifvqd50","pricing_plan_id":"cebpf4jnsgd1na2vs0mg"},{"bike_id":"7be7c110-613e-418c-9775-8a467e455553","system_id":"levelo_inurba_marseille","lat":43.28453,"lon":5.35892,"is_reserved":false,"is_disabled":false,"rental_uris":{"android":"levelo://app?vid=7be7c110-613e-418c-9775-8a467e455553","ios":"levelo://app?vid=7be7c110-613e-418c-9775-8a467e455553"},"vehicle_type_id":"4","last_reported":1727384856,"current_range_meters":39200,"station_id":"ce4bhah2rcd13ifvqei0","pricing_plan_id":"cebpf4jnsgd1na2vs0mg"},{"bike_id":"36045d32-d4d6-4965-9a18-92c356881faa","system_id":"levelo_inurba_marseille","lat":43.32287,"lon":5.38271,"is_reserved":false,"is_disabled":false,"rental_uris":{"android":"levelo://app?vid=36045d32-d4d6-4965-9a18-92c356881faa","ios":"levelo://app?vid=36045d32-d4d6-4965-9a18-92c356881faa"},"vehicle_type_id":"4","last_reported":1727384856,"current_range_meters":36800,"station_id":"ce4bhr12rcd13ifvqhqg","pricing_plan_id":"cebpf4jnsgd1na2vs0mg"},{"bike_id":"0f83508e-5562-4144-8cf2-769ae9b6d377","system_id":"levelo_inurba_marseille","lat":43.30601,"lon":5.39347,"is_reserved":false,"is_disabled":false,"rental_uris":{"android":"levelo://app?vid=0f83508e-5562-4144-8cf2-769ae9b6d377","ios":"levelo://app?vid=0f83508e-5562-4144-8cf2-769ae9b6d377"},"vehicle_type_id":"4","last_reported":1727384856,"current_range_meters":20800,"station_id":"ce4bh0p2rcd13ifvqd80","pricing_plan_id":"cebpf4jnsgd1na2vs0mg"},{"bike_id":"a2fbbbde-9c7a-4c07-9bb3-72ddf637fafa","system_id":"levelo_inurba_marseille","lat":43.29207,"lon":5.39317,"is_reserved":false,"is_disabled":false,"rental_uris":{"android":"levelo://app?vid=a2fbbbde-9c7a-4c07-9bb3-72ddf637fafa","ios":"levelo://app?vid=a2fbbbde-9c7a-4c07-9bb3-72ddf637fafa"},"vehicle_type_id":"4","last_reported":1727384856,"current_range_meters":6000,"station_id":"ce4bh192rcd13ifvqdd0","pricing_plan_id":"cebpf4jnsgd1na2vs0mg"},{"bike_id":"aeb05550-f878-4143-be2c-115d32951d7a","system_id":"levelo_inurba_marseille","lat":43.23153,"lon":5.43702,"is_reserved":false,"is_disabled":false,"rental_uris":{"android":"levelo://app?vid=aeb05550-f878-4143-be2c-115d32951d7a","ios":"levelo://app?vid=aeb05550-f878-4143-be2c-115d32951d7a"},"vehicle_type_id":"4","last_reported":1727384856,"current_range_meters":38000,"station_id":"ce4bhmp2rcd13ifvqgog","pricing_plan_id":"cebpf4jnsgd1na2vs0mg"},{"bike_id":"6746e421-2318-4cb2-b7b2-21ec885af87c","system_id":"levelo_inurba_marseille","lat":43.3266,"lon":5.40994,"is_reserved":false,"is_disabled":false,"rental_uris":{"android":"levelo://app?vid=6746e421-2318-4cb2-b7b2-21ec885af87c","ios":"levelo://app?vid=6746e421-2318-4cb2-b7b2-21ec885af87c"},"vehicle_type_id":"4","last_reported":1727384856,"current_range_meters":6800,"station_id":"ce4bhpp2rcd13ifvqhgg","pricing_plan_id":"cebpf4jnsgd1na2vs0mg"},{"bike_id":"545788d9-969d-4f32-8db0-be7f6122f5e9","system_id":"levelo_inurba_marseille","lat":43.28461,"lon":5.35888,"is_reserved":false,"is_disabled":false,"rental_uris":{"android":"levelo://app?vid=545788d9-969d-4f32-8db0-be7f6122f5e9","ios":"levelo://app?vid=545788d9-969d-4f32-8db0-be7f6122f5e9"},"vehicle_type_id":"4","last_reported":1727384856,"current_range_meters":38800,"station_id":"ce4bhah2rcd13ifvqei0","pricing_plan_id":"cebpf4jnsgd1na2vs0mg"},{"bike_id":"46b72fd0-d68e-43a8-8fd5-d183d0ac830c","system_id":"levelo_inurba_marseille","lat":43.23965,"lon":5.36637,"is_reserved":false,"is_disabled":false,"rental_uris":{"android":"levelo://app?vid=46b72fd0-d68e-43a8-8fd5-d183d0ac830c","ios":"levelo://app?vid=46b72fd0-d68e-43a8-8fd5-d183d0ac830c"},"vehicle_type_id":"4","last_reported":1727384856,"current_range_meters":25600,"station_id":"ce4bhi12rcd13ifvqfp0","pricing_plan_id":"cebpf4jnsgd1na2vs0mg"},{"bike_id":"731e5de5-82f9-497f-b849-a10d54442818","system_id":"levelo_inurba_marseille","lat":43.30801,"lon":5.38156,"is_reserved":false,"is_disabled":false,"rental_uris":{"android":"levelo://app?vid=731e5de5-82f9-497f-b849-a10d54442818","ios":"levelo://app?vid=731e5de5-82f9-497f-b849-a10d54442818"},"vehicle_type_id":"4","last_reported":1727384856,"current_range_meters":39200,"station_id":"ce4bgt12rcd13ifvqce0","pricing_plan_id":"cebpf4jnsgd1na2vs0mg"},{"bike_id":"30ff597b-4112-446a-aa7a-1252b9fc2d70","system_id":"levelo_inurba_marseille","lat":43.25085,"lon":5.39519,"is_reserved":false,"is_disabled":false,"rental_uris":{"android":"levelo://app?vid=30ff597b-4112-446a-aa7a-1252b9fc2d70","ios":"levelo://app?vid=30ff597b-4112-446a-aa7a-1252b9fc2d70"},"vehicle_type_id":"4","last_reported":1727384856,"current_range_meters":38400,"station_id":"ce4bhm12rcd13ifvqgkg","pricing_plan_id":"cebpf4jnsgd1na2vs0mg"},{"bike_id":"d5d19354-5e20-4837-ade3-95b235c49b6e","system_id":"levelo_inurba_marseille","lat":43.3095,"lon":5.39043,"is_reserved":false,"is_disabled":false,"rental_uris":{"android":"levelo://app?vid=d5d19354-5e20-4837-ade3-95b235c49b6e","ios":"levelo://app?vid=d5d19354-5e20-4837-ade3-95b235c49b6e"},"vehicle_type_id":"4","last_reported":1727384856,"current_range_meters":3600,"station_id":"ce4bgup2rcd13ifvqco0","pricing_plan_id":"cebpf4jnsgd1na2vs0mg"},{"bike_id":"283e1c66-51c3-465c-a967-dadba8ca4734","system_id":"levelo_inurba_marseille","lat":43.29021,"lon":5.38647,"is_reserved":false,"is_disabled":false,"rental_uris":{"android":"levelo://app?vid=283e1c66-51c3-465c-a967-dadba8ca4734","ios":"levelo://app?vid=283e1c66-51c3-465c-a967-dadba8ca4734"},"vehicle_type_id":"4","last_reported":1727384856,"current_range_meters":32000,"station_id":"ce4bh4p2rcd13ifvqe0g","pricing_plan_id":"cebpf4jnsgd1na2vs0mg"},{"bike_id":"eee6d266-d969-459e-9def-2c03bdad6f10","system_id":"levelo_inurba_marseille","lat":43.31759,"lon":5.39027,"is_reserved":false,"is_disabled":false,"rental_uris":{"android":"levelo://app?vid=eee6d266-d969-459e-9def-2c03bdad6f10","ios":"levelo://app?vid=eee6d266-d969-459e-9def-2c03bdad6f10"},"vehicle_type_id":"4","last_reported":1727384856,"current_range_meters":34800,"station_id":"ce4bhqp2rcd13ifvqhng","pricing_plan_id":"cebpf4jnsgd1na2vs0mg"},{"bike_id":"e16c035f-ac2d-4890-a206-22fe9c055ccf","system_id":"levelo_inurba_marseille","lat":43.27833,"lon":5.39207,"is_reserved":false,"is_disabled":false,"rental_uris":{"android":"levelo://app?vid=e16c035f-ac2d-4890-a206-22fe9c055ccf","ios":"levelo://app?vid=e16c035f-ac2d-4890-a206-22fe9c055ccf"},"vehicle_type_id":"4","last_reported":1727384856,"current_range_meters":6400,"station_id":"ce4bhjp2rcd13ifvqga0","pricing_plan_id":"cebpf4jnsgd1na2vs0mg"},{"bike_id":"2485749c-0ea1-4254-bac1-baa0ee20767e","system_id":"levelo_inurba_marseille","lat":43.27937,"lon":5.41045,"is_reserved":false,"is_disabled":false,"rental_uris":{"android":"levelo://app?vid=2485749c-0ea1-4254-bac1-baa0ee20767e","ios":"levelo://app?vid=2485749c-0ea1-4254-bac1-baa0ee20767e"},"vehicle_type_id":"4","last_reported":1727384856,"current_range_meters":36800,"station_id":"ce4bhnp2rcd13ifvqh0g","pricing_plan_id":"cebpf4jnsgd1na2vs0mg"},{"bike_id":"c200f919-f277-43c3-92fd-d0d833985ca4","system_id":"levelo_inurba_marseille","lat":43.24801,"lon":5.37455,"is_reserved":false,"is_disabled":false,"rental_uris":{"android":"levelo://app?vid=c200f919-f277-43c3-92fd-d0d833985ca4","ios":"levelo://app?vid=c200f919-f277-43c3-92fd-d0d833985ca4"},"vehicle_type_id":"4","last_reported":1727384856,"current_range_meters":29600,"station_id":"ce4bhgh2rcd13ifvqfb0","pricing_plan_id":"cebpf4jnsgd1na2vs0mg"},{"bike_id":"fb9c9900-e88e-4767-8f6a-085518e1a0a4","system_id":"levelo_inurba_marseille","lat":43.30322,"lon":5.40447,"is_reserved":false,"is_disabled":false,"rental_uris":{"android":"levelo://app?vid=fb9c9900-e88e-4767-8f6a-085518e1a0a4","ios":"levelo://app?vid=fb9c9900-e88e-4767-8f6a-085518e1a0a4"},"vehicle_type_id":"4","last_reported":1727384856,"current_range_meters":24000,"station_id":"ce4bh012rcd13ifvqd10","pricing_plan_id":"cebpf4jnsgd1na2vs0mg"},{"bike_id":"6c1fda78-a27a-41ea-9d99-03a440f5f874","system_id":"levelo_inurba_marseille","lat":43.23064,"lon":5.35495,"is_reserved":false,"is_disabled":false,"rental_uris":{"android":"levelo://app?vid=6c1fda78-a27a-41ea-9d99-03a440f5f874","ios":"levelo://app?vid=6c1fda78-a27a-41ea-9d99-03a440f5f874"},"vehicle_type_id":"4","last_reported":1727384856,"current_range_meters":38400,"station_id":"cpo3342slgdg3j2ifvpg","pricing_plan_id":"cebpf4jnsgd1na2vs0mg"},{"bike_id":"9560daa0-c4e3-4ff9-8735-b7bf5fec25a2","system_id":"levelo_inurba_marseille","lat":43.3377,"lon":5.37479,"is_reserved":false,"is_disabled":false,"rental_uris":{"android":"levelo://app?vid=9560daa0-c4e3-4ff9-8735-b7bf5fec25a2","ios":"levelo://app?vid=9560daa0-c4e3-4ff9-8735-b7bf5fec25a2"},"vehicle_type_id":"4","last_reported":1727384856,"current_range_meters":7200,"station_id":"ce4bhg12rcd13ifvqf80","pricing_plan_id":"cebpf4jnsgd1na2vs0mg"},{"bike_id":"8af564d3-2d9a-457a-8923-339dc4619ac1","system_id":"levelo_inurba_marseille","lat":43.29516,"lon":5.39401,"is_reserved":false,"is_disabled":false,"rental_uris":{"android":"levelo://app?vid=8af564d3-2d9a-457a-8923-339dc4619ac1","ios":"levelo://app?vid=8af564d3-2d9a-457a-8923-339dc4619ac1"},"vehicle_type_id":"4","last_reported":1727384856,"current_range_meters":38800,"station_id":"ce4bh292rcd13ifvqdf0","pricing_plan_id":"cebpf4jnsgd1na2vs0mg"},{"bike_id":"90b1ec35-a7cd-442d-9d41-23a41b786be0","system_id":"levelo_inurba_marseille","lat":43.31532,"lon":5.38015,"is_reserved":false,"is_disabled":false,"rental_uris":{"android":"levelo://app?vid=90b1ec35-a7cd-442d-9d41-23a41b786be0","ios":"levelo://app?vid=90b1ec35-a7cd-442d-9d41-23a41b786be0"},"vehicle_type_id":"4","last_reported":1727384856,"current_range_meters":38000,"station_id":"ce4bhsp2rcd13ifvqi50","pricing_plan_id":"cebpf4jnsgd1na2vs0mg"},{"bike_id":"0229caaa-fb73-4c8c-b029-775e2950bced","system_id":"levelo_inurba_marseille","lat":43.30102,"lon":5.39084,"is_reserved":false,"is_disabled":false,"rental_uris":{"android":"levelo://app?vid=0229caaa-fb73-4c8c-b029-775e2950bced","ios":"levelo://app?vid=0229caaa-fb73-4c8c-b029-775e2950bced"},"vehicle_type_id":"4","last_reported":1727384856,"current_range_meters":38800,"station_id":"ce4bh192rcd13ifvqdb0","pricing_plan_id":"cebpf4jnsgd1na2vs0mg"},{"bike_id":"50155d49-b22a-4768-b40f-dc0f7066b0af","system_id":"levelo_inurba_marseille","lat":43.28935,"lon":5.39642,"is_reserved":false,"is_disabled":false,"rental_uris":{"android":"levelo://app?vid=50155d49-b22a-4768-b40f-dc0f7066b0af","ios":"levelo://app?vid=50155d49-b22a-4768-b40f-dc0f7066b0af"},"vehicle_type_id":"4","last_reported":1727384856,"current_range_meters":26800,"station_id":"ce4bh3h2rcd13ifvqdn0","pricing_plan_id":"cebpf4jnsgd1na2vs0mg"},{"bike_id":"db1321fb-7317-4ad0-8974-13a06cd62dbd","system_id":"levelo_inurba_marseille","lat":43.31753,"lon":5.39022,"is_reserved":false,"is_disabled":false,"rental_uris":{"android":"levelo://app?vid=db1321fb-7317-4ad0-8974-13a06cd62dbd","ios":"levelo://app?vid=db1321fb-7317-4ad0-8974-13a06cd62dbd"},"vehicle_type_id":"4","last_reported":1727384856,"current_range_meters":38800,"station_id":"ce4bhqp2rcd13ifvqhng","pricing_plan_id":"cebpf4jnsgd1na2vs0mg"},{"bike_id":"c9bf4495-35bd-4b4d-b54d-c0576199e1fe","system_id":"levelo_inurba_marseille","lat":43.31485,"lon":5.37304,"is_reserved":false,"is_disabled":false,"rental_uris":{"android":"levelo://app?vid=c9bf4495-35bd-4b4d-b54d-c0576199e1fe","ios":"levelo://app?vid=c9bf4495-35bd-4b4d-b54d-c0576199e1fe"},"vehicle_type_id":"4","last_reported":1727384856,"current_range_meters":3200,"station_id":"ce4bgt12rcd13ifvqcd0","pricing_plan_id":"cebpf4jnsgd1na2vs0mg"},{"bike_id":"8377884c-694b-4bd2-8dc3-90db085903a1","system_id":"levelo_inurba_marseille","lat":43.30957,"lon":5.39038,"is_reserved":false,"is_disabled":false,"rental_uris":{"android":"levelo://app?vid=8377884c-694b-4bd2-8dc3-90db085903a1","ios":"levelo://app?vid=8377884c-694b-4bd2-8dc3-90db085903a1"},"vehicle_type_id":"4","last_reported":1727384856,"current_range_meters":38000,"station_id":"ce4bgup2rcd13ifvqco0","pricing_plan_id":"cebpf4jnsgd1na2vs0mg"},