{"last_updated":1679141513,"ttl":30,"version":"2.2","data":{"bikes":[{"bike_id":"1041ea3a-3069-4ecd-b93b-16fb8b65f822","system_id":"levelo_inurba_marseille","lat":43.309076,"lon":5.368465,"is_reserved":false,"is_disabled":false,"rental_uris":{"android":"levelo://app?vid=1041ea3a-3069-4ecd-b93b-16fb8b65f822","ios":"levelo://app?vid=1041ea3a-3069-4ecd-b93b-16fb8b65f822"},"vehicle_type_id":"4","last_reported":1679141513,"current_range_meters":3200,"station_id":"ce4bgn92rcd13ifvqbvg","pricing_plan_id":"free"},{"bike_id":"20d07d0b-ac23-4e7a-9549-69c4c48ddb7d","system_id":"levelo_inurba_marseille","lat":43.309076,"lon":5.368465,"is_reserved":false,"is_disabled":false,"rental_uris":{"android":"levelo://app?vid=20d07d0b-ac23-4e7a-9549-69c4c48ddb7d","ios":"levelo://app?vid=20d07d0b-ac23-4e7a-9549-69c4c48ddb7d"},"vehicle_type_id":"4","last_reported":1679141513,"current_range_meters":18400,"station_id":"ce4bgn92rcd13ifvqbvg","pricing_plan_id":"free"},{"bike_id":"97cb2b17-186d-4e2e-8d06-3852be14513e","system_id":"levelo_inurba_marseille","lat":43.30906,"lon":5.36854,"is_reserved":false,"is_disabled":false,"rental_uris":{"android":"levelo://app?vid=97cb2b17-186d-4e2e-8d06-3852be14513e","ios":"levelo://app?vid=97cb2b17-186d-4e2e-8d06-3852be14513e"},"vehicle_type_id":"4","last_reported":1679141513,"current_range_meters":27600,"station_id":"ce4bgn92rcd13ifvqbvg","pricing_plan_id":"free"},{"bike_id":"e8e2a4af-d341-4cd5-b6ab-a72cd8b6d016","system_id":"levelo_inurba_marseille","lat":43.309076,"lon":5.368465,"is_reserved":false,"is_disabled":false,"rental_uris":{"android":"levelo://app?vid=e8e2a4af-d341-4cd5-b6ab-a72cd8b6d016","ios":"levelo://app?vid=e8e2a4af-d341-4cd5-b6ab-a72cd8b6d016"},"vehicle_type_id":"4","last_reported":1679141513,"current_range_meters":25200,"station_id":"ce4bgn92rcd13ifvqbvg","pricing_plan_id":"free"},{"bike_id":"e1f2fd50-73dc-4e40-94ae-9f890df4ac13","system_id":"levelo_inurba_marseille","lat":43.314811,"lon":5.373103,"is_reserved":false,"is_disabled":false,"rental_uris":{"android":"levelo://app?vid=e1f2fd50-73dc-4e40-94ae-9f890df4ac13","ios":"levelo://app?vid=e1f2fd50-73dc-4e40-94ae-9f890df4ac13"},"vehicle_type_id":"4","last_reported":1679141513,"current_range_meters":30800,"station_id":"ce4bgt12rcd13ifvqcd0","pricing_plan_id":"free"},{"bike_id":"ff30e961-3e1a-426d-a890-5212c9dfbe44","system_id":"levelo_inurba_marseille","lat":43.3101,"lon":5.37297,"is_reserved":false,"is_disabled":false,"rental_uris":{"android":"levelo://app?vid=ff30e961-3e1a-426d-a890-5212c9dfbe44","ios":"levelo://app?vid=ff30e961-3e1a-426d-a890-5212c9dfbe44"},"vehicle_type_id":"4","last_reported":1679141513,"current_range_meters":0,"station_id":"","pricing_plan_id":"free"},{"bike_id":"aa2e4932-6baa-40f0-adb5-7e34c0dcb097","system_id":"levelo_inurba_marseille","lat":43.31701,"lon":5.3777,"is_reserved":false,"is_disabled":false,"rental_uris":{"android":"levelo://app?vid=aa2e4932-6baa-40f0-adb5-7e34c0dcb097","ios":"levelo://app?vid=aa2e4932-6baa-40f0-adb5-7e34c0dcb097"},"vehicle_type_id":"4","last_reported":1679141513,"current_range_meters":25600,"station_id":"","pricing_plan_id":"free"},{"bike_id":"e1453d8a-8a29-405d-991c-49c0944dc8b7","system_id":"levelo_inurba_marseille","lat":43.317075,"lon":5.377367,"is_reserved":false,"is_disabled":false,"rental_uris":{"android":"levelo://app?vid=e1453d8a-8a29-405d-991c-49c0944dc8b7","ios":"levelo://app?vid=e1453d8a-8a29-405d-991c-49c0944dc8b7"},"vehicle_type_id":"4","last_reported":1679141513,"current_range_meters":10800,"station_id":"ce4bgth2rcd13ifvqch0","pricing_plan_id":"free"},{"bike_id":"4d9681bd-eaf6-443d-8561-12acdaf2149c","system_id":"levelo_inurba_marseille","lat":43.308012,"lon":5.381511,"is_reserved":false,"is_disabled":false,"rental_uris":{"android":"levelo://app?vid=4d9681bd-eaf6-443d-8561-12acdaf2149c","ios":"levelo://app?vid=4d9681bd-eaf6-443d-8561-12acdaf2149c"},"vehicle_type_id":"4","last_reported":1679141513,"current_range_meters":22400,"station_id":"ce4bgt12rcd13ifvqce0","pricing_plan_id":"free"},{"bike_id":"abee6b40-91ed-4b0f-adaa-72b999f9de0f","system_id":"levelo_inurba_marseille","lat":43.300578,"lon":5.374332,"is_reserved":false,"is_disabled":false,"rental_uris":{"android":"levelo://app?vid=abee6b40-91ed-4b0f-adaa-72b999f9de0f","ios":"levelo://app?vid=abee6b40-91ed-4b0f-adaa-72b999f9de0f"},"vehicle_type_id":"4","last_reported":1679141513,"current_range_meters":0,"station_id":"","pricing_plan_id":"free"},{"bike_id":"7391f2a6-e16a-407b-bdb7-30397b15de67","system_id":"levelo_inurba_marseille","lat":43.29917,"lon":5.37471,"is_reserved":false,"is_disabled":false,"rental_uris":{"android":"levelo://app?vid=7391f2a6-e16a-407b-bdb7-30397b15de67","ios":"levelo://app?vid=7391f2a6-e16a-407b-bdb7-30397b15de67"},"vehicle_type_id":"4","last_reported":1679141513,"current_range_meters":23600,"station_id":"ce4bgjh2rcd13ifvqbg0","pricing_plan_id":"free"},{"bike_id":"98387c0e-78cc-4deb-990f-611eab5ee203","system_id":"levelo_inurba_marseille","lat":43.297806,"lon":5.371101,"is_reserved":false,"is_disabled":false,"rental_uris":{"android":"levelo://app?vid=98387c0e-78cc-4deb-990f-611eab5ee203","ios":"levelo://app?vid=98387c0e-78cc-4deb-990f-611eab5ee203"},"vehicle_type_id":"4","last_reported":1679141513,"current_range_meters":0,"station_id":"ce4bgop2rcd13ifvqc1g","pricing_plan_id":"free"},{"bike_id":"c0ca8d0c-85c3-4c73-ac5e-03c176a8ff8c","system_id":"levelo_inurba_marseille","lat":43.297737,"lon":5.371056,"is_reserved":false,"is_disabled":false,"rental_uris":{"android":"levelo://app?vid=c0ca8d0c-85c3-4c73-ac5e-03c176a8ff8c","ios":"levelo://app?vid=c0ca8d0c-85c3-4c73-ac5e-03c176a8ff8c"},"vehicle_type_id":"4","last_reported":1679141513,"current_range_meters":29200,"station_id":"ce4bgop2rcd13ifvqc1g","pricing_plan_id":"free"},{"bike_id":"6127b315-2b19-4658-8899-683c28c0e641","system_id":"levelo_inurba_marseille","lat":43.29918,"lon":5.38156,"is_reserved":false,"is_disabled":false,"rental_uris":{"android":"levelo://app?vid=6127b315-2b19-4658-8899-683c28c0e641","ios":"levelo://app?vid=6127b315-2b19-4658-8899-683c28c0e641"},"vehicle_type_id":"4","last_reported":1679141513,"current_range_meters":18000,"station_id":"","pricing_plan_id":"free"},{"bike_id":"896f12d2-c8d2-4bb7-b4d1-5fc46b68860f","system_id":"levelo_inurba_marseille","lat":43.309589,"lon":5.390258,"is_reserved":false,"is_disabled":false,"rental_uris":{"android":"levelo://app?vid=896f12d2-c8d2-4bb7-b4d1-5fc46b68860f","ios":"levelo://app?vid=896f12d2-c8d2-4bb7-b4d1-5fc46b68860f"},"vehicle_type_id":"4","last_reported":1679141513,"current_range_meters":7200,"station_id":"ce4bgup2rcd13ifvqco0","pricing_plan_id":"free"},{"bike_id":"a5978811-5c5f-4c01-85a0-9ff5def879e5","system_id":"levelo_inurba_marseille","lat":43.31755,"lon":5.39014,"is_reserved":false,"is_disabled":false,"rental_uris":{"android":"levelo://app?vid=a5978811-5c5f-4c01-85a0-9ff5def879e5","ios":"levelo://app?vid=a5978811-5c5f-4c01-85a0-9ff5def879e5"},"vehicle_type_id":"4","last_reported":1679141513,"current_range_meters":5600,"station_id":"","pricing_plan_id":"free"},{"bike_id":"624ca789-346c-430e-8cf0-b7427e6bb238","system_id":"levelo_inurba_marseille","lat":43.31757,"lon":5.39016,"is_reserved":false,"is_disabled":false,"rental_uris":{"android":"levelo://app?vid=624ca789-346c-430e-8cf0-b7427e6bb238","ios":"levelo://app?vid=624ca789-346c-430e-8cf0-b7427e6bb238"},"vehicle_type_id":"4","last_reported":1679141513,"current_range_meters":23200,"station_id":"","pricing_plan_id":"free"},{"bike_id":"4dafff6b-9621-4e2b-86a4-abd86b4f6566","system_id":"levelo_inurba_marseille","lat":43.3176,"lon":5.39017,"is_reserved":false,"is_disabled":false,"rental_uris":{"android":"levelo://app?vid=4dafff6b-9621-4e2b-86a4-abd86b4f6566","ios":"levelo://app?vid=4dafff6b-9621-4e2b-86a4-abd86b4f6566"},"vehicle_type_id":"4","last_reported":1679141513,"current_range_meters":0,"station_id":"ce4bhqp2rcd13ifvqhng","pricing_plan_id":"free"},{"bike_id":"5f083405-da14-43d7-8da0-308153a0fe59","system_id":"levelo_inurba_marseille","lat":43.317557,"lon":5.390173,"is_reserved":false,"is_disabled":false,"rental_uris":{"android":"levelo://app?vid=5f083405-da14-43d7-8da0-308153a0fe59","ios":"levelo://app?vid=5f083405-da14-43d7-8da0-308153a0fe59"},"vehicle_type_id":"4","last_reported":1679141513,"current_range_meters":29600,"station_id":"ce4bhqp2rcd13ifvqhng","pricing_plan_id":"free"},{"bike_id":"f701b6d5-232a-4610-8cfe-04ef1dd32965","system_id":"levelo_inurba_marseille","lat":43.296131,"lon":5.377153,"is_reserved":false,"is_disabled":false,"rental_uris":{"android":"levelo://app?vid=f701b6d5-232a-4610-8cfe-04ef1dd32965","ios":"levelo://app?vid=f701b6d5-232a-4610-8cfe-04ef1dd32965"},"vehicle_type_id":"4","last_reported":1679141513,"current_range_meters":0,"station_id":"","pricing_plan_id":"free"},{"bike_id":"9adc1a46-1aad-490f-9add-5579ddd4317d","system_id":"levelo_inurba_marseille","lat":43.296033,"lon":5.377165,"is_reserved":false,"is_disabled":false,"rental_uris":{"android":"levelo://app?vid=9adc1a46-1aad-490f-9add-5579ddd4317d","ios":"levelo://app?vid=9adc1a46-1aad-490f-9add-5579ddd4317d"},"vehicle_type_id":"4","last_reported":1679141513,"current_range_meters":0,"station_id":"ce4bgi92rcd13ifvqb90","pricing_plan_id":"free"},{"bike_id":"5971bedb-4e55-4cca-a827-15c1c85bce63","system_id":"levelo_inurba_marseille","lat":43.299699,"lon":5.384919,"is_reserved":false,"is_disabled":false,"rental_uris":{"android":"levelo://app?vid=5971bedb-4e55-4cca-a827-15c1c85bce63","ios":"levelo://app?vid=5971bedb-4e55-4cca-a827-15c1c85bce63"},"vehicle_type_id":"4","last_reported":1679141513,"current_range_meters":0,"station_id":"ce4bgj92rcd13ifvqbd0","pricing_plan_id":"free"},{"bike_id":"2b423465-379c-416e-a11e-19b7c87398b4","system_id":"levelo_inurba_marseille","lat":43.29973,"lon":5.385,"is_reserved":false,"is_disabled":false,"rental_uris":{"android":"levelo://app?vid=2b423465-379c-416e-a11e-19b7c87398b4","ios":"levelo://app?vid=2b423465-379c-416e-a11e-19b7c87398b4"},"vehicle_type_id":"4","last_reported":1679141513,"current_range_meters":30400,"station_id":"ce4bgj92rcd13ifvqbd0","pricing_plan_id":"free"},{"bike_id":"0474e54e-e46c-492b-88a0-c26758345b61","system_id":"levelo_inurba_marseille","lat":43.293014,"lon":5.374497,"is_reserved":false,"is_disabled":false,"rental_uris":{"android":"levelo://app?vid=0474e54e-e46c-492b-88a0-c26758345b61","ios":"levelo://app?vid=0474e54e-e46c-492b-88a0-c26758345b61"},"vehicle_type_id":"4","last_reported":1679141513,"current_range_meters":0,"station_id":"ce4bgi12rcd13ifvqb70","pricing_plan_id":"free"},{"bike_id":"b1fa0498-562a-4c23-be89-c922780e8dee","system_id":"levelo_inurba_marseille","lat":43.305994,"lon":5.393687,"is_reserved":false,"is_disabled":false,"rental_uris":{"android":"levelo://app?vid=b1fa0498-562a-4c23-be89-c922780e8dee","ios":"levelo://app?vid=b1fa0498-562a-4c23-be89-c922780e8dee"},"vehicle_type_id":"4","last_reported":1679141513,"current_range_meters":26800,"station_id":"ce4bh0p2rcd13ifvqd80","pricing_plan_id":"free"},{"bike_id":"bbbc78b5-70d9-470e-a796-5a7a1c3e1071","system_id":"levelo_inurba_marseille","lat":43.2936,"lon":5.37835,"is_reserved":false,"is_disabled":false,"rental_uris":{"android":"levelo://app?vid=bbbc78b5-70d9-470e-a796-5a7a1c3e1071","ios":"levelo://app?vid=bbbc78b5-70d9-470e-a796-5a7a1c3e1071"},"vehicle_type_id":"4","last_reported":1679141513,"current_range_meters":16800,"station_id":"ce4bgjh2rcd13ifvqbf0","pricing_plan_id":"free"},{"bike_id":"797acc6d-f1ed-47f8-ab64-6bd3bb5a6dc3","system_id":"levelo_inurba_marseille","lat":43.2936,"lon":5.37835,"is_reserved":false,"is_disabled":false,"rental_uris":{"android":"levelo://app?vid=797acc6d-f1ed-47f8-ab64-6bd3bb5a6dc3","ios":"levelo://app?vid=797acc6d-f1ed-47f8-ab64-6bd3bb5a6dc3"},"vehicle_type_id":"4","last_reported":1679141513,"current_range_meters":5600,"station_id":"ce4bgjh2rcd13ifvqbf0","pricing_plan_id":"free"},{"bike_id":"fc6c756e-7a7e-4f50-ba3b-54c2357aed3a","system_id":"levelo_inurba_marseille","lat":43.292311,"lon":5.360731,"is_reserved":false,"is_disabled":false,"rental_uris":{"android":"levelo://app?vid=fc6c756e-7a7e-4f50-ba3b-54c2357aed3a","ios":"levelo://app?vid=fc6c756e-7a7e-4f50-ba3b-54c2357aed3a"},"vehicle_type_id":"4","last_reported":1679141513,"current_range_meters":400,"station_id":"ce4bhbh2rcd13ifvqeqg","pricing_plan_id":"free"},{"bike_id":"33b22862-2643-4bbe-a23c-2fdd04cc151e","system_id":"levelo_inurba_marseille","lat":43.292311,"lon":5.360731,"is_reserved":false,"is_disabled":false,"rental_uris":{"android":"levelo://app?vid=33b22862-2643-4bbe-a23c-2fdd04cc151e","ios":"levelo://app?vid=33b22862-2643-4bbe-a23c-2fdd04cc151e"},"vehicle_type_id":"4","last_reported":1679141513,"current_range_meters":20400,"station_id":"ce4bhbh2rcd13ifvqeqg","pricing_plan_id":"free"},{"bike_id":"244a57c6-afd9-47e6-9aa0-fa7f34489735","system_id":"levelo_inurba_marseille","lat":43.292311,"lon":5.360731,"is_reserved":false,"is_disabled":false,"rental_uris":{"android":"levelo://app?vid=244a57c6-afd9-47e6-9aa0-fa7f34489735","ios":"levelo://app?vid=244a57c6-afd9-47e6-9aa0-fa7f34489735"},"vehicle_type_id":"4","last_reported":1679141513,"current_range_meters":24800,"station_id":"ce4bhbh2rcd13ifvqeqg","pricing_plan_id":"free"},{"bike_id":"136f88a4-bc41-4ce8-872a-ab941391cd6a","system_id":"levelo_inurba_marseille","lat":43.298764,"lon":5.388973,"is_reserved":false,"is_disabled":false,"rental_uris":{"android":"levelo://app?vid=136f88a4-bc41-4ce8-872a-ab941391cd6a","ios":"levelo://app?vid=136f88a4-bc41-4ce8-872a-ab941391cd6a"},"vehicle_type_id":"4","last_reported":1679141513,"current_range_meters":12400,"station_id":"ce4bh392rcd13ifvqdl0","pricing_plan_id":"free"},{"bike_id":"ff9a0dea-40fe-44cb-8050-cde7a93d9323","system_id":"levelo_inurba_marseille","lat":43.291675,"lon":5.371583,"is_reserved":false,"is_disabled":false,"rental_uris":{"android":"levelo://app?vid=ff9a0dea-40fe-44cb-8050-cde7a93d9323","ios":"levelo://app?vid=ff9a0dea-40fe-44cb-8050-cde7a93d9323"},"vehicle_type_id":"4","last_reported":1679141513,"current_range_meters":31600,"station_id":"ce4bha92rcd13ifvqeh0","pricing_plan_id":"free"},{"bike_id":"63b96cea-df5f-4aa4-8b95-6bac649c15f4","system_id":"levelo_inurba_marseille","lat":43.313291,"lon":5.396838,"is_reserved":false,"is_disabled":false,"rental_uris":{"android":"levelo://app?vid=63b96cea-df5f-4aa4-8b95-6bac649c15f4","ios":"levelo://app?vid=63b96cea-df5f-4aa4-8b95-6bac649c15f4"},"vehicle_type_id":"4","last_reported":1679141513,"current_range_meters":4800,"station_id":"ce4bgvp2rcd13ifvqcu0","pricing_plan_id":"free"},{"bike_id":"486beaed-628f-4bcc-ba3b-e0de696bd3dc","system_id":"levelo_inurba_marseille","lat":43.32221,"lon":5.39424,"is_reserved":false,"is_disabled":false,"rental_uris":{"android":"levelo://app?vid=486beaed-628f-4bcc-ba3b-e0de696bd3dc","ios":"levelo://app?vid=486beaed-628f-4bcc-ba3b-e0de696bd3dc"},"vehicle_type_id":"4","last_reported":1679141513,"current_range_meters":10800,"station_id":"","pricing_plan_id":"free"},{"bike_id":"58910e58-c381-4516-87d7-a0ffed96fc11","system_id":"levelo_inurba_marseille","lat":43.290779,"lon":5.371482,"is_reserved":false,"is_disabled":false,"rental_uris":{"android":"levelo://app?vid=58910e58-c381-4516-87d7-a0ffed96fc11","ios":"levelo://app?vid=58910e58-c381-4516-87d7-a0ffed96fc11"},"vehicle_type_id":"4","last_reported":1679141513,"current_range_meters":10400,"station_id":"ce4bh5p2rcd13ifvqe4g","pricing_plan_id":"free"},{"bike_id":"a12fb413-39a0-46a7-ba40-d5251d8fd940","system_id":"levelo_inurba_marseille","lat":43.302099,"lon":5.394674,"is_reserved":false,"is_disabled":false,"rental_uris":{"android":"levelo://app?vid=a12fb413-39a0-46a7-ba40-d5251d8fd940","ios":"levelo://app?vid=a12fb413-39a0-46a7-ba40-d5251d8fd940"},"vehicle_type_id":"4","last_reported":1679141513,"current_range_meters":26800,"station_id":"ce4bh0p2rcd13ifvqd70","pricing_plan_id":"free"},{"bike_id":"6be55f66-597f-4426-8f01-96e9af97be92","system_id":"levelo_inurba_marseille","lat":43.289184,"lon":5.366408,"is_reserved":false,"is_disabled":false,"rental_uris":{"android":"levelo://app?vid=6be55f66-597f-4426-8f01-96e9af97be92","ios":"levelo://app?vid=6be55f66-597f-4426-8f01-96e9af97be92"},"vehicle_type_id":"4","last_reported":1679141513,"current_range_meters":25600,"station_id":"ce4bhap2rcd13ifvqek0","pricing_plan_id":"free"},{"bike_id":"f2d6edd9-a4f9-47e6-bfd9-a9fdb65df647","system_id":"levelo_inurba_marseille","lat":43.289184,"lon":5.366408,"is_reserved":false,"is_disabled":false,"rental_uris":{"android":"levelo://app?vid=f2d6edd9-a4f9-47e6-bfd9-a9fdb65df647","ios":"levelo://app?vid=f2d6edd9-a4f9-47e6-bfd9-a9fdb65df647"},"vehicle_type_id":"4","last_reported":1679141513,"current_range_meters":31600,"station_id":"ce4bhap2rcd13ifvqek0","pricing_plan_id":"free"},{"bike_id":"81d7000b-829c-4529-8e5f-ee9cad214f1b","system_id":"levelo_inurba_marseille","lat":43.29009,"lon":5.35614,"is_reserved":false,"is_disabled":false,"rental_uris":{"android":"levelo://app?vid=81d7000b-829c-4529-8e5f-ee9cad214f1b","ios":"levelo://app?vid=81d7000b-829c-4529-8e5f-ee9cad214f1b"},"vehicle_type_id":"4","last_reported":1679141513,"current_range_meters":18000,"station_id":"ce4bhb92rcd13ifvqen0","pricing_plan_id":"free"},{"bike_id":"e0595c81-2dc3-4556-905e-49032f6c9c62","system_id":"levelo_inurba_marseille","lat":43.290061,"lon":5.356168,"is_reserved":false,"is_disabled":false,"rental_uris":{"android":"levelo://app?vid=e0595c81-2dc3-4556-905e-49032f6c9c62","ios":"levelo://app?vid=e0595c81-2dc3-4556-905e-49032f6c9c62"},"vehicle_type_id":"4","last_reported":1679141513,"current_range_meters":27600,"station_id":"ce4bhb92rcd13ifvqen0","pricing_plan_id":"free"},{"bike_id":"f7208be6-9fd8-45d0-ab9f-a9c69b58cfda","system_id":"levelo_inurba_marseille","lat":43.290104,"lon":5.356111,"is_reserved":false,"is_disabled":false,"rental_uris":{"android":"levelo://app?vid=f7208be6-9fd8-45d0-ab9f-a9c69b58cfda","ios":"levelo://app?vid=f7208be6-9fd8-45d0-ab9f-a9c69b58cfda"},"vehicle_type_id":"4","last_reported":1679141513,"current_range_meters":26400,"station_id":"ce4bhb92rcd13ifvqen0","pricing_plan_id":"free"},{"bike_id":"477f2345-a835-4717-b51b-6ec4e11fd696","system_id":"levelo_inurba_marseille","lat":43.290991,"lon":5.381522,"is_reserved":false,"is_disabled":false,"rental_uris":{"android":"levelo://app?vid=477f2345-a835-4717-b51b-6ec4e11fd696","ios":"levelo://app?vid=477f2345-a835-4717-b51b-6ec4e11fd696"},"vehicle_type_id":"4","last_reported":1679141513,"current_range_meters":0,"station_id":"ce4bh512rcd13ifvqe2g","pricing_plan_id":"free"},{"bike_id":"73af3b37-8d93-4992-ab9c-31a1be2119bd","system_id":"levelo_inurba_marseille","lat":43.290995,"lon":5.381361,"is_reserved":false,"is_disabled":false,"rental_uris":{"android":"levelo://app?vid=73af3b37-8d93-4992-ab9c-31a1be2119bd","ios":"levelo://app?vid=73af3b37-8d93-4992-ab9c-31a1be2119bd"},"vehicle_type_id":"4","last_reported":1679141513,"current_range_meters":12000,"station_id":"ce4bh512rcd13ifvqe2g","pricing_plan_id":"free"},{"bike_id":"25ec8e91-6eb6-4983-8518-c75e90765e96","system_id":"levelo_inurba_marseille","lat":43.290995,"lon":5.381361,"is_reserved":false,"is_disabled":false,"rental_uris":{"android":"levelo://app?vid=25ec8e91-6eb6-4983-8518-c75e90765e96","ios":"levelo://app?vid=25ec8e91-6eb6-4983-8518-c75e90765e96"},"vehicle_type_id":"4","last_reported":1679141513,"current_range_meters":17200,"station_id":"ce4bh512rcd13ifvqe2g","pricing_plan_id":"free"},{"bike_id":"2df08591-0de8-4578-a535-ffec06328b63","system_id":"levelo_inurba_marseille","lat":43.289741,"lon":5.378306,"is_reserved":false,"is_disabled":false,"rental_uris":{"android":"levelo://app?vid=2df08591-0de8-4578-a535-ffec06328b63","ios":"levelo://app?vid=2df08591-0de8-4578-a535-ffec06328b63"},"vehicle_type_id":"4","last_reported":1679141513,"current_range_meters":20000,"station_id":"ce4bh9p2rcd13ifvqed0","pricing_plan_id":"free"},{"bike_id":"b1958c43-e893-487d-8581-10aca109be82","system_id":"levelo_inurba_marseille","lat":43.289743,"lon":5.378304,"is_reserved":false,"is_disabled":false,"rental_uris":{"android":"levelo://app?vid=b1958c43-e893-487d-8581-10aca109be82","ios":"levelo://app?vid=b1958c43-e893-487d-8581-10aca109be82"},"vehicle_type_id":"4","last_reported":1679141513,"current_range_meters":23600,"station_id":"ce4bh9p2rcd13ifvqed0","pricing_plan_id":"free"},{"bike_id":"f0888a5d-8469-4a4a-aa32-e51183159fbe","system_id":"levelo_inurba_marseille","lat":43.337437,"lon":5.374608,"is_reserved":false,"is_disabled":false,"rental_uris":{"android":"levelo://app?vid=f0888a5d-8469-4a4a-aa32-e51183159fbe","ios":"levelo://app?vid=f0888a5d-8469-4a4a-aa32-e51183159fbe"},"vehicle_type_id":"4","last_reported":1679141513,"current_range_meters":11200,"station_id":"","pricing_plan_id":"free"},{"bike_id":"97a70748-85a2-4139-aa8d-3426ee2a5b86","system_id":"levelo_inurba_marseille","lat":43.337501,"lon":5.374448,"is_reserved":false,"is_disabled":false,"rental_uris":{"android":"levelo://app?vid=97a70748-85a2-4139-aa8d-3426ee2a5b86","ios":"levelo://app?vid=97a70748-85a2-4139-aa8d-3426ee2a5b86"},"vehicle_type_id":"4","last_reported":1679141513,"current_range_meters":0,"station_id":"","pricing_plan_id":"free"},{"bike_id":"3691d997-1cad-46ed-b7e6-586680d35f2f","system_id":"levelo_inurba_marseille","lat":43.337494,"lon":5.374796,"is_reserved":false,"is_disabled":false,"rental_uris":{"android":"levelo://app?vid=3691d997-1cad-46ed-b7e6-586680d35f2f","ios":"levelo://app?vid=3691d997-1cad-46ed-b7e6-586680d35f2f"},"vehicle_type_id":"4","last_reported":1679141513,"current_range_meters":22000,"station_id":"","pricing_plan_id":"free"},{"bike_id":"f3e60a9c-2b74-43cb-ac11-5dfafdbb73c0","system_id":"levelo_inurba_marseille","lat":43.337556,"lon":5.374625,"is_reserved":false,"is_disabled":false,"rental_uris":{"android":"levelo://app?vid=f3e60a9c-2b74-43cb-ac11-5dfafdbb73c0","ios":"levelo://app?vid=f3e60a9c-2b74-43cb-ac11-5dfafdbb73c0"},"vehicle_type_id":"4","last_reported":1679141513,"current_range_meters":26800,"station_id":"","pricing_plan_id":"free"},{"bike_id":"95fbfd06-4149-497c-877c-735911fd927a","system_id":"levelo_inurba_marseille","lat":43.298681,"lon":5.397225,"is_reserved":false,"is_disabled":false,"rental_uris":{"android":"levelo://app?vid=95fbfd06-4149-497c-877c-735911fd927a","ios":"levelo://app?vid=95fbfd06-4149-497c-877c-735911fd927a"},"vehicle_type_id":"4","last_reported":1679141513,"current_range_meters":7600,"station_id":"ce4bh0h2rcd13ifvqd50","pricing_plan_id":"free"},{"bike_id":"4aa5f08a-144c-415c-b515-07c559b45cba","system_id":"levelo_inurba_marseille","lat":43.286593,"lon":5.363346,"is_reserved":false,"is_disabled":false,"rental_uris":{"android":"levelo://app?vid=4aa5f08a-144c-415c-b515-07c559b45cba","ios":"levelo://app?vid=4aa5f08a-144c-415c-b515-07c559b45cba"},"vehicle_type_id":"4","last_reported":1679141513,"current_range_meters":8000,"station_id":"ce4bhah2rcd13ifvqej0","pricing_plan_id":"free"},{"bike_id":"34ce0e4d-2998-4c39-ab83-063c423b5901","system_id":"levelo_inurba_marseille","lat":43.29531,"lon":5.39398,"is_reserved":false,"is_disabled":false,"rental_uris":{"android":"levelo://app?vid=34ce0e4d-2998-4c39-ab83-063c423b5901","ios":"levelo://app?vid=34ce0e4d-2998-4c39-ab83-063c423b5901"},"vehicle_type_id":"4","last_reported":1679141513,"current_range_meters":31600,"station_id":"ce4bh212rcd13ifvqde0","pricing_plan_id":"free"},{"bike_id":"825d126e-c9c2-43a4-a1de-a3e97534f11b","system_id":"levelo_inurba_marseille","lat":43.295295,"lon":5.39403,"is_reserved":false,"is_disabled":false,"rental_uris":{"android":"levelo://app?vid=825d126e-c9c2-43a4-a1de-a3e97534f11b","ios":"levelo://app?vid=825d126e-c9c2-43a4-a1de-a3e97534f11b"},"vehicle_type_id":"4","last_reported":1679141513,"current_range_meters":18800,"station_id":"ce4bh212rcd13ifvqde0","pricing_plan_id":"free"},{"bike_id":"bdb20962-39f2-4af5-a331-a4a31a961875","system_id":"levelo_inurba_marseille","lat":43.295195,"lon":5.393995,"is_reserved":false,"is_disabled":false,"rental_uris":{"android":"levelo://app?vid=bdb20962-39f2-4af5-a331-a4a31a961875","ios":"levelo://app?vid=bdb20962-39f2-4af5-a331-a4a31a961875"},"vehicle_type_id":"4","last_reported":1679141513,"current_range_meters":22400,"station_id":"ce4bh212rcd13ifvqde0","pricing_plan_id":"free"},{"bike_id":"7d8123dd-d5d0-4bc1-b347-f4b12a3175c2","system_id":"levelo_inurba_marseille","lat":43.300716,"lon":5.399548,"is_reserved":false,"is_disabled":false,"rental_uris":{"android":"levelo://app?vid=7d8123dd-d5d0-4bc1-b347-f4b12a3175c2","ios":"levelo://app?vid=7d8123dd-d5d0-4bc1-b347-f4b12a3175c2"},"vehicle_type_id":"4","last_reported":1679141513,"current_range_meters":0,"station_id":"","pricing_plan_id":"free"},{"bike_id":"aee151f2-b319-4ce5-a8c0-fcb12c8997ed","system_id":"levelo_inurba_marseille","lat":43.302759,"lon":5.400793,"is_reserved":false,"is_disabled":false,"rental_uris":{"android":"levelo://app?vid=aee151f2-b319-4ce5-a8c0-fcb12c8997ed","ios":"levelo://app?vid=aee151f2-b319-4ce5-a8c0-fcb12c8997ed"},"vehicle_type_id":"4","last_reported":1679141513,"current_range_meters":23200,"station_id":"ce4bgvh2rcd13ifvqcs0","pricing_plan_id":"free"},{"bike_id":"a18ed422-729b-4bb3-88af-e3ef712dcf03","system_id":"levelo_inurba_marseille","lat":43.287185,"lon":5.379373,"is_reserved":false,"is_disabled":false,"rental_uris":{"android":"levelo://app?vid=a18ed422-729b-4bb3-88af-e3ef712dcf03","ios":"levelo://app?vid=a18ed422-729b-4bb3-88af-e3ef712dcf03"},"vehicle_type_id":"4","last_reported":1679141513,"current_range_meters":19600,"station_id":"ce4bh9p2rcd13ifvqec0","pricing_plan_id":"free"},{"bike_id":"ad02cb25-7c38-4cad-ba6c-293a953a2c14","system_id":"levelo_inurba_marseille","lat":43.287185,"lon":5.379373,"is_reserved":false,"is_disabled":false,"rental_uris":{"android":"levelo://app?vid=ad02cb25-7c38-4cad-ba6c-293a953a2c14","ios":"levelo://app?vid=ad02cb25-7c38-4cad-ba6c-293a953a2c14"},"vehicle_type_id":"4","last_reported":1679141513,"current_range_meters":12000,"station_id":"ce4bh9p2rcd13ifvqec0","pricing_plan_id":"free"},{"bike_id":"6ce361dd-5c8d-416c-9d00-a134482d8467","system_id":"levelo_inurba_marseille","lat":43.287184,"lon":5.37937,"is_reserved":false,"is_disabled":false,"rental_uris":{"android":"levelo://app?vid=6ce361dd-5c8d-416c-9d00-a134482d8467","ios":"levelo://app?vid=6ce361dd-5c8d-416c-9d00-a134482d8467"},"vehicle_type_id":"4","last_reported":1679141513,"current_range_meters":8800,"station_id":"ce4bh9p2rcd13ifvqec0","pricing_plan_id":"free"},{"bike_id":"84763078-f334-4571-987e-366af6c73469","system_id":"levelo_inurba_marseille","lat":43.31646,"lon":5.40436,"is_reserved":false,"is_disabled":false,"rental_uris":{"android":"levelo://app?vid=84763078-f334-4571-987e-366af6c73469","ios":"levelo://app?vid=84763078-f334-4571-987e-366af6c73469"},"vehicle_type_id":"4","last_reported":1679141513,"current_range_meters":13200,"station_id":"ce4bh012rcd13ifvqd00","pricing_plan_id":"free"},{"bike_id":"b6b10b5b-0401-45b7-ae42-7d06cab9ab51","system_id":"levelo_inurba_marseille","lat":43.316517,"lon":5.404375,"is_reserved":false,"is_disabled":false,"rental_uris":{"android":"levelo://app?vid=b6b10b5b-0401-45b7-ae42-7d06cab9ab51","ios":"levelo://app?vid=b6b10b5b-0401-45b7-ae42-7d06cab9ab51"},"vehicle_type_id":"4","last_reported":1679141513,"current_range_meters":13200,"station_id":"ce4bh012rcd13ifvqd00","pricing_plan_id":"free"},{"bike_id":"16abb1c7-704c-4ce8-9d79-4e0b483bb9d2","system_id":"levelo_inurba_marseille","lat":43.284534,"lon":5.358662,"is_reserved":false,"is_disabled":false,"rental_uris":{"android":"levelo://app?vid=16abb1c7-704c-4ce8-9d79-4e0b483bb9d2","ios":"levelo://app?vid=16abb1c7-704c-4ce8-9d79-4e0b483bb9d2"},"vehicle_type_id":"4","last_reported":1679141513,"current_range_meters":16800,"station_id":"ce4bhah2rcd13ifvqei0","pricing_plan_id":"free"},{"bike_id":"b6151d67-845a-4e3b-8f63-b02534c4e862","system_id":"levelo_inurba_marseille","lat":43.33717,"lon":5.391857,"is_reserved":false,"is_disabled":false,"rental_uris":{"android":"levelo://app?vid=b6151d67-845a-4e3b-8f63-b02534c4e862","ios":"levelo://app?vid=b6151d67-845a-4e3b-8f63-b02534c4e862"},"vehicle_type_id":"4","last_reported":1679141513,"current_range_meters":12400,"station_id":"ce4bhr92rcd13ifvqhsg","pricing_plan_id":"free"},{"bike_id":"7da50cf2-84b2-4cdc-90b1-294cf45698cb","system_id":"levelo_inurba_marseille","lat":43.32342,"lon":5.40619,"is_reserved":false,"is_disabled":false,"rental_uris":{"android":"levelo://app?vid=7da50cf2-84b2-4cdc-90b1-294cf45698cb","ios":"levelo://app?vid=7da50cf2-84b2-4cdc-90b1-294cf45698cb"},"vehicle_type_id":"4","last_reported":1679141513,"current_range_meters":8000,"station_id":"ce4bhq92rcd13ifvqhjg","pricing_plan_id":"free"},{"bike_id":"182d3e57-65a3-4a87-8e67-6eefa937d14f","system_id":"levelo_inurba_marseille","lat":43.284219,"lon":5.3497,"is_reserved":false,"is_disabled":false,"rental_uris":{"android":"levelo://app?vid=182d3e57-65a3-4a87-8e67-6eefa937d14f","ios":"levelo://app?vid=182d3e57-65a3-4a87-8e67-6eefa937d14f"},"vehicle_type_id":"4","last_reported":1679141513,"current_range_meters":2400,"station_id":"ce4bhbh2rcd13ifvqepg","pricing_plan_id":"free"},{"bike_id":"2639ee1b-87f6-4c3e-8dbb-0a04204d70f7","system_id":"levelo_inurba_marseille","lat":43.284219,"lon":5.3497,"is_reserved":false,"is_disabled":false,"rental_uris":{"android":"levelo://app?vid=2639ee1b-87f6-4c3e-8dbb-0a04204d70f7","ios":"levelo://app?vid=2639ee1b-87f6-4c3e-8dbb-0a04204d70f7"},"vehicle_type_id":"4","last_reported":1679141513,"current_range_meters":10400,"station_id":"ce4bhbh2rcd13ifvqepg","pricing_plan_id":"free"},{"bike_id":"eb61d0d3-8f49-4391-ab0e-4547eb537f32","system_id":"levelo_inurba_marseille","lat":43.284219,"lon":5.3497,"is_reserved":false,"is_disabled":false,"rental_uris":{"android":"levelo://app?vid=eb61d0d3-8f49-4391-ab0e-4547eb537f32","ios":"levelo://app?vid=eb61d0d3-8f49-4391-ab0e-4547eb537f32"},"vehicle_type_id":"4","last_reported":1679141513,"current_range_meters":27200,"station_id":"ce4bhbh2rcd13ifvqepg","pricing_plan_id":"free"},{"bike_id":"200e0b7a-10e8-4188-b1e5-4e76ccbe9e15","system_id":"levelo_inurba_marseille","lat":43.282754,"lon":5.350519,"is_reserved":false,"is_disabled":false,"rental_uris":{"android":"levelo://app?vid=200e0b7a-10e8-4188-b1e5-4e76ccbe9e15","ios":"levelo://app?vid=200e0b7a-10e8-4188-b1e5-4e76ccbe9e15"},"vehicle_type_id":"4","last_reported":1679141513,"current_range_meters":0,"station_id":"ce4bhbp2rcd13ifvqerg","pricing_plan_id":"free"},{"bike_id":"4a698496-25a3-4400-8c88-98ce57f4c835","system_id":"levelo_inurba_marseille","lat":43.282754,"lon":5.350519,"is_reserved":false,"is_disabled":false,"rental_uris":{"android":"levelo://app?vid=4a698496-25a3-4400-8c88-98ce57f4c835","ios":"levelo://app?vid=4a698496-25a3-4400-8c88-98ce57f4c835"},"vehicle_type_id":"4","last_reported":1679141513,"current_range_meters":15600,"station_id":"ce4bhbp2rcd13ifvqerg","pricing_plan_id":"free"},{"bike_id":"1acdc035-ef65-48a0-9c2d-f137212ebd36","system_id":"levelo_inurba_marseille","lat":43.28105,"lon":5.37847,"is_reserved":false,"is_disabled":false,"rental_uris":{"android":"levelo://app?vid=1acdc035-ef65-48a0-9c2d-f137212ebd36","ios":"levelo://app?vid=1acdc035-ef65-48a0-9c2d-f137212ebd36"},"vehicle_type_id":"4","last_reported":1679141513,"current_range_meters":26000,"station_id":"ce4bha12rcd13ifvqee0","pricing_plan_id":"free"},{"bike_id":"25e043fb-9ca8-4291-8fff-1545365e8690","system_id":"levelo_inurba_marseille","lat":43.296263,"lon":5.40601,"is_reserved":false,"is_disabled":false,"rental_uris":{"android":"levelo://app?vid=25e043fb-9ca8-4291-8fff-1545365e8690","ios":"levelo://app?vid=25e043fb-9ca8-4291-8fff-1545365e8690"},"vehicle_type_id":"4","last_reported":1679141513,"current_range_meters":19200,"station_id":"ce4bh0h2rcd13ifvqd60","pricing_plan_id":"free"},{"bike_id":"e0016f53-7c91-47d0-9a11-1d276215fd68","system_id":"levelo_inurba_marseille","lat":43.28443,"lon":5.391858,"is_reserved":false,"is_disabled":false,"rental_uris":{"android":"levelo://app?vid=e0016f53-7c91-47d0-9a11-1d276215fd68","ios":"levelo://app?vid=e0016f53-7c91-47d0-9a11-1d276215fd68"},"vehicle_type_id":"4","last_reported":1679141513,"current_range_meters":0,"station_id":"","pricing_plan_id":"free"},{"bike_id":"fd94f329-7a13-4190-8e3c-0c1eb267c7ec","system_id":"levelo_inurba_marseille","lat":43.304188,"lon":5.412904,"is_reserved":false,"is_disabled":false,"rental_uris":{"android":"levelo://app?vid=fd94f329-7a13-4190-8e3c-0c1eb267c7ec","ios":"levelo://app?vid=fd94f329-7a13-4190-8e3c-0c1eb267c7ec"},"vehicle_type_id":"4","last_reported":1679141513,"current_range_meters":25200,"station_id":"ce4bhop2rcd13ifvqh8g","pricing_plan_id":"free"},{"bike_id":"6e534379-806c-4047-920a-1e177dd0a58d","system_id":"levelo_inurba_marseille","lat":43.304188,"lon":5.412904,"is_reserved":false,"is_disabled":false,"rental_uris":{"android":"levelo://app?vid=6e534379-806c-4047-920a-1e177dd0a58d","ios":"levelo://app?vid=6e534379-806c-4047-920a-1e177dd0a58d"},"vehicle_type_id":"4","last_reported":1679141513,"current_range_meters":27600,"station_id":"ce4bhop2rcd13ifvqh8g","pricing_plan_id":"free"},{"bike_id":"45393937-dcaf-44fb-9447-7c776899be08","system_id":"levelo_inurba_marseille","lat":43.304188,"lon":5.412904,"is_reserved":false,"is_disabled":false,"rental_uris":{"android":"levelo://app?vid=45393937-dcaf-44fb-9447-7c776899be08","ios":"levelo://app?vid=45393937-dcaf-44fb-9447-7c776899be08"},"vehicle_type_id":"4","last_reported":1679141513,"current_range_meters":31600,"station_id":"ce4bhop2rcd13ifvqh8g","pricing_plan_id":"free"},{"bike_id":"2f032b77-131f-41ac-bb8c-c73cf83f7ea0","system_id":"levelo_inurba_marseille","lat":43.304188,"lon":5.412904,"is_reserved":false,"is_disabled":false,"rental_uris":{"android":"levelo://app?vid=2f032b77-131f-41ac-bb8c-c73cf83f7ea0","ios":"levelo://app?vid=2f032b77-131f-41ac-bb8c-c73cf83f7ea0"},"vehicle_type_id":"4","last_reported":1679141513,"current_range_meters":29600,"station_id":"ce4bhop2rcd13ifvqh8g","pricing_plan_id":"free"},{"bike_id":"95e7a59a-4f5b-46e4-a766-7eb671def489","system_id":"levelo_inurba_marseille","lat":43.320045,"lon":5.415048,"is_reserved":false,"is_disabled":false,"rental_uris":{"android":"levelo://app?vid=95e7a59a-4f5b-46e4-a766-7eb671def489","ios":"levelo://app?vid=95e7a59a-4f5b-46e4-a766-7eb671def489"},"vehicle_type_id":"4","last_reported":1679141513,"current_range_meters":5600,"station_id":"ce4bhq92rcd13ifvqhkg","pricing_plan_id":"free"},{"bike_id":"6c42e6b8-160a-47c9-8c45-e1f82a2d72e4","system_id":"levelo_inurba_marseille","lat":43.320045,"lon":5.415048,"is_reserved":false,"is_disabled":false,"rental_uris":{"android":"levelo://app?vid=6c42e6b8-160a-47c9-8c45-e1f82a2d72e4","ios":"levelo://app?vid=6c42e6b8-160a-47c9-8c45-e1f82a2d72e4"},"vehicle_type_id":"4","last_reported":1679141513,"current_range_meters":16000,"station_id":"ce4bhq92rcd13ifvqhkg","pricing_plan_id":"free"},{"bike_id":"73102b6f-0494-409b-8719-e0930eb848ab","system_id":"levelo_inurba_marseille","lat":43.32052,"lon":5.415447,"is_reserved":false,"is_disabled":false,"rental_uris":{"android":"levelo://app?vid=73102b6f-0494-409b-8719-e0930eb848ab","ios":"levelo://app?vid=73102b6f-0494-409b-8719-e0930eb848ab"},"vehicle_type_id":"4","last_reported":1679141513,"current_range_meters":16800,"station_id":"","pricing_plan_id":"free"},{"bike_id":"b0d952c0-dfb2-48e7-aa40-bc5ebe9a217f","system_id":"levelo_inurba_marseille","lat":43.32039,"lon":5.41553,"is_reserved":false,"is_disabled":false,"rental_uris":{"android":"levelo://app?vid=b0d952c0-dfb2-48e7-aa40-bc5ebe9a217f","ios":"levelo://app?vid=b0d952c0-dfb2-48e7-aa40-bc5ebe9a217f"},"vehicle_type_id":"4","last_reported":1679141513,"current_range_meters":17200,"station_id":"","pricing_plan_id":"free"},{"bike_id":"e9dda882-ca58-4a46-a265-632de5ca5664","system_id":"levelo_inurba_marseille","lat":43.320513,"lon":5.415497,"is_reserved":false,"is_disabled":false,"rental_uris":{"android":"levelo://app?vid=e9dda882-ca58-4a46-a265-632de5ca5664","ios":"levelo://app?vid=e9dda882-ca58-4a46-a265-632de5ca5664"},"vehicle_type_id":"4","last_reported":1679141513,"current_range_meters":19200,"station_id":"","pricing_plan_id":"free"},{"bike_id":"58adbf7b-6361-46bc-beb6-db1532359567","system_id":"levelo_inurba_marseille","lat":43.32048,"lon":5.41551,"is_reserved":false,"is_disabled":false,"rental_uris":{"android":"levelo://app?vid=58adbf7b-6361-46bc-beb6-db1532359567","ios":"levelo://app?vid=58adbf7b-6361-46bc-beb6-db1532359567"},"vehicle_type_id":"4","last_reported":1679141513,"current_range_meters":14400,"station_id":"","pricing_plan_id":"free"},{"bike_id":"fa7815ca-2c41-4197-a2fb-3cdca64b099d","system_id":"levelo_inurba_marseille","lat":43.32038,"lon":5.41564,"is_reserved":false,"is_disabled":false,"rental_uris":{"android":"levelo://app?vid=fa7815ca-2c41-4197-a2fb-3cdca64b099d","ios":"levelo://app?vid=fa7815ca-2c41-4197-a2fb-3cdca64b099d"},"vehicle_type_id":"4","last_reported":1679141513,"current_range_meters":29200,"station_id":"","pricing_plan_id":"free"},{"bike_id":"5a576b60-3e64-493c-a32c-08462ccdddec","system_id":"levelo_inurba_marseille","lat":43.32034,"lon":5.41569,"is_reserved":false,"is_disabled":false,"rental_uris":{"android":"levelo://app?vid=5a576b60-3e64-493c-a32c-08462ccdddec","ios":"levelo://app?vid=5a576b60-3e64-493c-a32c-08462ccdddec"},"vehicle_type_id":"4","last_reported":1679141513,"current_range_meters":4800,"station_id":"","pricing_plan_id":"free"},{"bike_id":"bcfb9e20-4843-439e-9b99-8c5749b87c4b","system_id":"levelo_inurba_marseille","lat":43.32042,"lon":5.415697,"is_reserved":false,"is_disabled":false,"rental_uris":{"android":"levelo://app?vid=bcfb9e20-4843-439e-9b99-8c5749b87c4b","ios":"levelo://app?vid=bcfb9e20-4843-439e-9b99-8c5749b87c4b"},"vehicle_type_id":"4","last_reported":1679141513,"current_range_meters":25600,"station_id":"","pricing_plan_id":"free"},{"bike_id":"9d002998-c479-45f0-879d-1bd38fbf953b","system_id":"levelo_inurba_marseille","lat":43.324759,"lon":5.414354,"is_reserved":false,"is_disabled":false,"rental_uris":{"android":"levelo://app?vid=9d002998-c479-45f0-879d-1bd38fbf953b","ios":"levelo://app?vid=9d002998-c479-45f0-879d-1bd38fbf953b"},"vehicle_type_id":"4","last_reported":1679141513,"current_range_meters":10800,"station_id":"","pricing_plan_id":"free"},{"bike_id":"10d10cf0-6210-416b-aec4-8db00a0c885f","system_id":"levelo_inurba_marseille","lat":43.29254,"lon":5.409133,"is_reserved":false,"is_disabled":false,"rental_uris":{"android":"levelo://app?vid=10d10cf0-6210-416b-aec4-8db00a0c885f","ios":"levelo://app?vid=10d10cf0-6210-416b-aec4-8db00a0c885f"},"vehicle_type_id":"4","last_reported":1679141513,"current_range_meters":29200,"station_id":"ce4bh192rcd13ifvqdc0","pricing_plan_id":"free"},{"bike_id":"cded72e0-49f0-4c53-9c9c-4ed5c3acfa47","system_id":"levelo_inurba_marseille","lat":43.27618,"lon":5.361009,"is_reserved":false,"is_disabled":false,"rental_uris":{"android":"levelo://app?vid=cded72e0-49f0-4c53-9c9c-4ed5c3acfa47","ios":"levelo://app?vid=cded72e0-49f0-4c53-9c9c-4ed5c3acfa47"},"vehicle_type_id":"4","last_reported":1679141513,"current_range_meters":31600,"station_id":"ce4bgj92rcd13ifvqbe0","pricing_plan_id":"free"},{"bike_id":"f995c744-6073-4477-93a7-95eb32c94ed1","system_id":"levelo_inurba_marseille","lat":43.32543,"lon":5.41438,"is_reserved":false,"is_disabled":false,"rental_uris":{"android":"levelo://app?vid=f995c744-6073-4477-93a7-95eb32c94ed1","ios":"levelo://app?vid=f995c744-6073-4477-93a7-95eb32c94ed1"},"vehicle_type_id":"4","last_reported":1679141513,"current_range_meters":9600,"station_id":"ce4bhq12rcd13ifvqhhg","pricing_plan_id":"free"},{"bike_id":"c13cc205-10c1-4534-a996-8c1f999f34c3","system_id":"levelo_inurba_marseille","lat":43.27618,"lon":5.361009,"is_reserved":false,"is_disabled":false,"rental_uris":{"android":"levelo://app?vid=c13cc205-10c1-4534-a996-8c1f999f34c3","ios":"levelo://app?vid=c13cc205-10c1-4534-a996-8c1f999f34c3"},"vehicle_type_id":"4","last_reported":1679141513,"current_range_meters":30400,"station_id":"ce4bgj92rcd13ifvqbe0","pricing_plan_id":"free"},{"bike_id":"5eb79788-81fa-40c5-9dff-eb80d0b727bd","system_id":"levelo_inurba_marseille","lat":43.325413,"lon":5.414433,"is_reserved":false,"is_disabled":false,"rental_uris":{"android":"levelo://app?vid=5eb79788-81fa-40c5-9dff-eb80d0b727bd","ios":"levelo://app?vid=5eb79788-81fa-40c5-9dff-eb80d0b727bd"},"vehicle_type_id":"4","last_reported":1679141513,"current_range_meters":27600,"station_id":"ce4bhq12rcd13ifvqhhg","pricing_plan_id":"free"},{"bike_id":"42fd30d1-61f1-4792-a069-7109fc32152f","system_id":"levelo_inurba_marseille","lat":43.27488,"lon":5.36043,"is_reserved":false,"is_disabled":false,"rental_uris":{"android":"levelo://app?vid=42fd30d1-61f1-4792-a069-7109fc32152f","ios":"levelo://app?vid=42fd30d1-61f1-4792-a069-7109fc32152f"},"vehicle_type_id":"4","last_reported":1679141513,"current_range_meters":28000,"station_id":"","pricing_plan_id":"free"},{"bike_id":"f46933a3-e776-4c05-a3e9-7a9557a8a5b1","system_id":"levelo_inurba_marseille","lat":43.273613,"lon":5.362705,"is_reserved":false,"is_disabled":false,"rental_uris":{"android":"levelo://app?vid=f46933a3-e776-4c05-a3e9-7a9557a8a5b1","ios":"levelo://app?vid=f46933a3-e776-4c05-a3e9-7a9557a8a5b1"},"vehicle_type_id":"4","last_reported":1679141513,"current_range_meters":31600,"station_id":"ce4bhbh2rcd13ifvqeo0","pricing_plan_id":"free"},{"bike_id":"d00c5266-ffba-41c6-8c80-c5aae48da8c4","system_id":"levelo_inurba_marseille","lat":43.276679,"lon":5.389133,"is_reserved":false,"is_disabled":false,"rental_uris":{"android":"levelo://app?vid=d00c5266-ffba-41c6-8c80-c5aae48da8c4","ios":"levelo://app?vid=d00c5266-ffba-41c6-8c80-c5aae48da8c4"},"vehicle_type_id":"4","last_reported":1679141513,"current_range_meters":0,"station_id":"","pricing_plan_id":"free"},{"bike_id":"0a0fa632-122e-4c18-9a0e-6a1cce1a50f6","system_id":"levelo_inurba_marseille","lat":43.27667,"lon":5.38914,"is_reserved":false,"is_disabled":false,"rental_uris":{"android":"levelo://app?vid=0a0fa632-122e-4c18-9a0e-6a1cce1a50f6","ios":"levelo://app?vid=0a0fa632-122e-4c18-9a0e-6a1cce1a50f6"},"vehicle_type_id":"4","last_reported":1679141513,"current_range_meters":0,"station_id":"","pricing_plan_id":"free"},{"bike_id":"b7a56549-6b7d-497e-8496-7ff25fff6ed4","system_id":"levelo_inurba_marseille","lat":43.3108,"lon":5.4243,"is_reserved":false,"is_disabled":false,"rental_uris":{"android":"levelo://app?vid=b7a56549-6b7d-497e-8496-7ff25fff6ed4","ios":"levelo://app?vid=b7a56549-6b7d-497e-8496-7ff25fff6ed4"},"vehicle_type_id":"4","last_reported":1679141513,"current_range_meters":27200,"station_id":"","pricing_plan_id":"free"},{"bike_id":"f3e8fb6d-352b-4dd2-b33c-1eafeef7186f","system_id":"levelo_inurba_marseille","lat":43.31081,"lon":5.42433,"is_reserved":false,"is_disabled":false,"rental_uris":{"android":"levelo://app?vid=f3e8fb6d-352b-4dd2-b33c-1eafeef7186f","ios":"levelo://app?vid=f3e8fb6d-352b-4dd2-b33c-1eafeef7186f"},"vehicle_type_id":"4","last_reported":1679141513,"current_range_meters":27600,"station_id":"","pricing_plan_id":"free"},{"bike_id":"63cde624-31c5-4d5c-afc8-7dbfd988f2f0","system_id":"levelo_inurba_marseille","lat":43.273129,"lon":5.390725,"is_reserved":false,"is_disabled":false,"rental_uris":{"android":"levelo://app?vid=63cde624-31c5-4d5c-afc8-7dbfd988f2f0","ios":"levelo://app?vid=63cde624-31c5-4d5c-afc8-7dbfd988f2f0"},"vehicle_type_id":"4","last_reported":1679141513,"current_range_meters":16400,"station_id":"ce4bhgp2rcd13ifvqfe0","pricing_plan_id":"free"},{"bike_id":"dcf781a7-183f-4b18-a082-0731d10fe12d","system_id":"levelo_inurba_marseille","lat":43.304096,"lon":5.425385,"is_reserved":false,"is_disabled":false,"rental_uris":{"android":"levelo://app?vid=dcf781a7-183f-4b18-a082-0731d10fe12d","ios":"levelo://app?vid=dcf781a7-183f-4b18-a082-0731d10fe12d"},"vehicle_type_id":"4","last_reported":1679141513,"current_range_meters":27600,"station_id":"ce4bhoh2rcd13ifvqh6g","pricing_plan_id":"free"},{"bike_id":"d332159b-fec7-4b67-9919-be60931f34a1","system_id":"levelo_inurba_marseille","lat":43.304096,"lon":5.425385,"is_reserved":false,"is_disabled":false,"rental_uris":{"android":"levelo://app?vid=d332159b-fec7-4b67-9919-be60931f34a1","ios":"levelo://app?vid=d332159b-fec7-4b67-9919-be60931f34a1"},"vehicle_type_id":"4","last_reported":1679141513,"current_range_meters":25200,"station_id":"ce4bhoh2rcd13ifvqh6g","pricing_plan_id":"free"},{"bike_id":"c65b0f2f-ddd4-4ced-99dc-a066a8acf787","system_id":"levelo_inurba_marseille","lat":43.304096,"lon":5.425385,"is_reserved":false,"is_disabled":false,"rental_uris":{"android":"levelo://app?vid=c65b0f2f-ddd4-4ced-99dc-a066a8acf787","ios":"levelo://app?vid=c65b0f2f-ddd4-4ced-99dc-a066a8acf787"},"vehicle_type_id":"4","last_reported":1679141513,"current_range_meters":16400,"station_id":"ce4bhoh2rcd13ifvqh6g","pricing_plan_id":"free"},{"bike_id":"f6c8bd2c-a4dc-41e6-b41c-3f99f5c5dd2b","system_id":"levelo_inurba_marseille","lat":43.304096,"lon":5.425385,"is_reserved":false,"is_disabled":false,"rental_uris":{"android":"levelo://app?vid=f6c8bd2c-a4dc-41e6-b41c-3f99f5c5dd2b","ios":"levelo://app?vid=f6c8bd2c-a4dc-41e6-b41c-3f99f5c5dd2b"},"vehicle_type_id":"4","last_reported":1679141513,"current_range_meters":24800,"station_id":"ce4bhoh2rcd13ifvqh6g","pricing_plan_id":"free"},{"bike_id":"5eecbdc6-4bd3-493c-a320-5c6a01a076fb","system_id":"levelo_inurba_marseille","lat":43.304096,"lon":5.425385,"is_reserved":false,"is_disabled":false,"rental_uris":{"android":"levelo://app?vid=5eecbdc6-4bd3-493c-a320-5c6a01a076fb","ios":"levelo://app?vid=5eecbdc6-4bd3-493c-a320-5c6a01a076fb"},"vehicle_type_id":"4","last_reported":1679141513,"current_range_meters":31600,"station_id":"ce4bhoh2rcd13ifvqh6g","pricing_plan_id":"free"},{"bike_id":"4c260c9a-8730-453f-9a5e-5d3f544c6a77","system_id":"levelo_inurba_marseille","lat":43.30411,"lon":5.42541,"is_reserved":false,"is_disabled":false,"rental_uris":{"android":"levelo://app?vid=4c260c9a-8730-453f-9a5e-5d3f544c6a77","ios":"levelo://app?vid=4c260c9a-8730-453f-9a5e-5d3f544c6a77"},"vehicle_type_id":"4","last_reported":1679141513,"current_range_meters":26800,"station_id":"ce4bhoh2rcd13ifvqh6g","pricing_plan_id":"free"},{"bike_id":"97845fa5-b394-4ad4-aedb-37c067bbba4d","system_id":"levelo_inurba_marseille","lat":43.304096,"lon":5.425385,"is_reserved":false,"is_disabled":false,"rental_uris":{"android":"levelo://app?vid=97845fa5-b394-4ad4-aedb-37c067bbba4d","ios":"levelo://app?vid=97845fa5-b394-4ad4-aedb-37c067bbba4d"},"vehicle_type_id":"4","last_reported":1679141513,"current_range_meters":24400,"station_id":"ce4bhoh2rcd13ifvqh6g","pricing_plan_id":"free"},{"bike_id":"9c019b6d-1b68-4354-91de-7e7dd8b0efa5","system_id":"levelo_inurba_marseille","lat":43.304096,"lon":5.425385,"is_reserved":false,"is_disabled":false,"rental_uris":{"android":"levelo://app?vid=9c019b6d-1b68-4354-91de-7e7dd8b0efa5","ios":"levelo://app?vid=9c019b6d-1b68-4354-91de-7e7dd8b0efa5"},"vehicle_type_id":"4","last_reported":1679141513,"current_range_meters":17600,"station_id":"ce4bhoh2rcd13ifvqh6g","pricing_plan_id":"free"},{"bike_id":"1130bd26-8973-42e5-b748-8c0392d35f23","system_id":"levelo_inurba_marseille","lat":43.304096,"lon":5.425385,"is_reserved":false,"is_disabled":false,"rental_uris":{"android":"levelo://app?vid=1130bd26-8973-42e5-b748-8c0392d35f23","ios":"levelo://app?vid=1130bd26-8973-42e5-b748-8c0392d35f23"},"vehicle_type_id":"4","last_reported":1679141513,"current_range_meters":15600,"station_id":"ce4bhoh2rcd13ifvqh6g","pricing_plan_id":"free"},{"bike_id":"0102a14d-1976-4b23-815b-e01f89045796","system_id":"levelo_inurba_marseille","lat":43.304096,"lon":5.425385,"is_reserved":false,"is_disabled":false,"rental_uris":{"android":"levelo://app?vid=0102a14d-1976-4b23-815b-e01f89045796","ios":"levelo://app?vid=0102a14d-1976-4b23-815b-e01f89045796"},"vehicle_type_id":"4","last_reported":1679141513,"current_range_meters":25200,"station_id":"ce4bhoh2rcd13ifvqh6g","pricing_plan_id":"free"},{"bike_id":"557a9fb7-7278-41af-a957-743bac95ab9a","system_id":"levelo_inurba_marseille","lat":43.245581,"lon":5.395069,"is_reserved":false,"is_disabled":false,"rental_uris":{"android":"levelo://app?vid=557a9fb7-7278-41af-a957-743bac95ab9a","ios":"levelo://app?vid=557a9fb7-7278-41af-a957-743bac95ab9a"},"vehicle_type_id":"4","last_reported":1679141513,"current_range_meters":9200,"station_id":"ce4bhlp2rcd13ifvqgjg","pricing_plan_id":"free"},{"bike_id":"c9972f80-e251-4166-af7c-0461e95842a3","system_id":"levelo_inurba_marseille","lat":43.295523,"lon":5.422926,"is_reserved":false,"is_disabled":false,"rental_uris":{"android":"levelo://app?vid=c9972f80-e251-4166-af7c-0461e95842a3","ios":"levelo://app?vid=c9972f80-e251-4166-af7c-0461e95842a3"},"vehicle_type_id":"4","last_reported":1679141513,"current_range_meters":26000,"station_id":"ce4bhph2rcd13ifvqhdg","pricing_plan_id":"free"},{"bike_id":"784079ae-8b8c-4598-a85e-88040ed01919","system_id":"levelo_inurba_marseille","lat":43.295523,"lon":5.422926,"is_reserved":false,"is_disabled":false,"rental_uris":{"android":"levelo://app?vid=784079ae-8b8c-4598-a85e-88040ed01919","ios":"levelo://app?vid=784079ae-8b8c-4598-a85e-88040ed01919"},"vehicle_type_id":"4","last_reported":1679141513,"current_range_meters":5600,"station_id":"ce4bhph2rcd13ifvqhdg","pricing_plan_id":"free"},{"bike_id":"ed39570b-0d60-4c1a-840f-8bd1149ab069","system_id":"levelo_inurba_marseille","lat":43.29556,"lon":5.42283,"is_reserved":false,"is_disabled":false,"rental_uris":{"android":"levelo://app?vid=ed39570b-0d60-4c1a-840f-8bd1149ab069","ios":"levelo://app?vid=ed39570b-0d60-4c1a-840f-8bd1149ab069"},"vehicle_type_id":"4","last_reported":1679141513,"current_range_meters":31600,"station_id":"","pricing_plan_id":"free"},{"bike_id":"728a5816-028c-4a92-bd69-ad0a44d83942","system_id":"levelo_inurba_marseille","lat":43.2955,"lon":5.42281,"is_reserved":false,"is_disabled":false,"rental_uris":{"android":"levelo://app?vid=728a5816-028c-4a92-bd69-ad0a44d83942","ios":"levelo://app?vid=728a5816-028c-4a92-bd69-ad0a44d83942"},"vehicle_type_id":"4","last_reported":1679141513,"current_range_meters":31600,"station_id":"ce4bhph2rcd13ifvqhdg","pricing_plan_id":"free"},{"bike_id":"a47f368e-fe90-4d64-a60f-12b90f6f925a","system_id":"levelo_inurba_marseille","lat":43.295523,"lon":5.422926,"is_reserved":false,"is_disabled":false,"rental_uris":{"android":"levelo://app?vid=a47f368e-fe90-4d64-a60f-12b90f6f925a","ios":"levelo://app?vid=a47f368e-fe90-4d64-a60f-12b90f6f925a"},"vehicle_type_id":"4","last_reported":1679141513,"current_range_meters":26000,"station_id":"ce4bhph2rcd13ifvqhdg","pricing_plan_id":"free"},{"bike_id":"4a323648-6a6a-4603-bc2c-12b70102a17c","system_id":"levelo_inurba_marseille","lat":43.295487,"lon":5.422837,"is_reserved":false,"is_disabled":false,"rental_uris":{"android":"levelo://app?vid=4a323648-6a6a-4603-bc2c-12b70102a17c","ios":"levelo://app?vid=4a323648-6a6a-4603-bc2c-12b70102a17c"},"vehicle_type_id":"4","last_reported":1679141513,"current_range_meters":29200,"station_id":"","pricing_plan_id":"free"},{"bike_id":"d5ce91c7-eea7-4f5f-869d-fd52053f0c67","system_id":"levelo_inurba_marseille","lat":43.29554,"lon":5.42288,"is_reserved":false,"is_disabled":false,"rental_uris":{"android":"levelo://app?vid=d5ce91c7-eea7-4f5f-869d-fd52053f0c67","ios":"levelo://app?vid=d5ce91c7-eea7-4f5f-869d-fd52053f0c67"},"vehicle_type_id":"4","last_reported":1679141513,"current_range_meters":12000,"station_id":"ce4bhph2rcd13ifvqhdg","pricing_plan_id":"free"},{"bike_id":"07b4fcbf-0b2a-496b-a57f-97dfd12cb6e4","system_id":"levelo_inurba_marseille","lat":43.29555,"lon":5.422927,"is_reserved":false,"is_disabled":false,"rental_uris":{"android":"levelo://app?vid=07b4fcbf-0b2a-496b-a57f-97dfd12cb6e4","ios":"levelo://app?vid=07b4fcbf-0b2a-496b-a57f-97dfd12cb6e4"},"vehicle_type_id":"4","last_reported":1679141513,"current_range_meters":31600,"station_id":"ce4bhph2rcd13ifvqhdg","pricing_plan_id":"free"},{"bike_id":"3bcff764-76d9-40ba-8ddc-7fb4a11db6d7","system_id":"levelo_inurba_marseille","lat":43.29556,"lon":5.42296,"is_reserved":false,"is_disabled":false,"rental_uris":{"android":"levelo://app?vid=3bcff764-76d9-40ba-8ddc-7fb4a11db6d7","ios":"levelo://app?vid=3bcff764-76d9-40ba-8ddc-7fb4a11db6d7"},"vehicle_type_id":"4","last_reported":1679141513,"current_range_meters":22000,"station_id":"ce4bhph2rcd13ifvqhdg","pricing_plan_id":"free"},{"bike_id":"8a624ff5-b19f-4db3-84f4-8e202e9972ad","system_id":"levelo_inurba_marseille","lat":43.272116,"lon":5.391763,"is_reserved":false,"is_disabled":false,"rental_uris":{"android":"levelo://app?vid=8a624ff5-b19f-4db3-84f4-8e202e9972ad","ios":"levelo://app?vid=8a624ff5-b19f-4db3-84f4-8e202e9972ad"},"vehicle_type_id":"4","last_reported":1679141513,"current_range_meters":16000,"station_id":"ce4bhhp2rcd13ifvqfm0","pricing_plan_id":"free"},{"bike_id":"5ec5e1a7-c1cd-4798-bb1c-dad6665cb178","system_id":"levelo_inurba_marseille","lat":43.272118,"lon":5.391758,"is_reserved":false,"is_disabled":false,"rental_uris":{"android":"levelo://app?vid=5ec5e1a7-c1cd-4798-bb1c-dad6665cb178","ios":"levelo://app?vid=5ec5e1a7-c1cd-4798-bb1c-dad6665cb178"},"vehicle_type_id":"4","last_reported":1679141513,"current_range_meters":6800,"station_id":"ce4bhhp2rcd13ifvqfm0","pricing_plan_id":"free"},{"bike_id":"093bedd1-a4ad-44d7-9109-cd659fb3b093","system_id":"levelo_inurba_marseille","lat":43.278128,"lon":5.407195,"is_reserved":false,"is_disabled":false,"rental_uris":{"android":"levelo://app?vid=093bedd1-a4ad-44d7-9109-cd659fb3b093","ios":"levelo://app?vid=093bedd1-a4ad-44d7-9109-cd659fb3b093"},"vehicle_type_id":"4","last_reported":1679141513,"current_range_meters":28000,"station_id":"ce4bhnh2rcd13ifvqgtg","pricing_plan_id":"free"},{"bike_id":"b7418a3c-51c2-4358-855b-8b54e7b33fe4","system_id":"levelo_inurba_marseille","lat":43.278128,"lon":5.407195,"is_reserved":false,"is_disabled":false,"rental_uris":{"android":"levelo://app?vid=b7418a3c-51c2-4358-855b-8b54e7b33fe4","ios":"levelo://app?vid=b7418a3c-51c2-4358-855b-8b54e7b33fe4"},"vehicle_type_id":"4","last_reported":1679141513,"current_range_meters":23200,"station_id":"ce4bhnh2rcd13ifvqgtg","pricing_plan_id":"free"},{"bike_id":"eaac1b2b-b136-4c94-9644-9259a77366e5","system_id":"levelo_inurba_marseille","lat":43.278128,"lon":5.407195,"is_reserved":false,"is_disabled":false,"rental_uris":{"android":"levelo://app?vid=eaac1b2b-b136-4c94-9644-9259a77366e5","ios":"levelo://app?vid=eaac1b2b-b136-4c94-9644-9259a77366e5"},"vehicle_type_id":"4","last_reported":1679141513,"current_range_meters":10000,"station_id":"ce4bhnh2rcd13ifvqgtg","pricing_plan_id":"free"},{"bike_id":"f582f5ec-85fc-4168-a404-1093104d2863","system_id":"levelo_inurba_marseille","lat":43.278128,"lon":5.407195,"is_reserved":false,"is_disabled":false,"rental_uris":{"android":"levelo://app?vid=f582f5ec-85fc-4168-a404-1093104d2863","ios":"levelo://app?vid=f582f5ec-85fc-4168-a404-1093104d2863"},"vehicle_type_id":"4","last_reported":1679141513,"current_range_meters":28400,"station_id":"ce4bhnh2rcd13ifvqgtg","pricing_plan_id":"free"},{"bike_id":"b91f3018-678b-4c80-86f1-5a04841f4fb2","system_id":"levelo_inurba_marseille","lat":43.269467,"lon":5.386439,"is_reserved":false,"is_disabled":false,"rental_uris":{"android":"levelo://app?vid=b91f3018-678b-4c80-86f1-5a04841f4fb2","ios":"levelo://app?vid=b91f3018-678b-4c80-86f1-5a04841f4fb2"},"vehicle_type_id":"4","last_reported":1679141513,"current_range_meters":0,"station_id":"ce4bhh92rcd13ifvqfh0","pricing_plan_id":"free"},{"bike_id":"8edebcb3-f6a7-4ebf-bf77-9a82bfe5233d","system_id":"levelo_inurba_marseille","lat":43.269467,"lon":5.386439,"is_reserved":false,"is_disabled":false,"rental_uris":{"android":"levelo://app?vid=8edebcb3-f6a7-4ebf-bf77-9a82bfe5233d","ios":"levelo://app?vid=8edebcb3-f6a7-4ebf-bf77-9a82bfe5233d"},"vehicle_type_id":"4","last_reported":1679141513,"current_range_meters":26000,"station_id":"ce4bhh92rcd13ifvqfh0","pricing_plan_id":"free"},{"bike_id":"101a0562-b789-42e5-afb5-66976780101d","system_id":"levelo_inurba_marseille","lat":43.269319,"lon":5.389397,"is_reserved":false,"is_disabled":false,"rental_uris":{"android":"levelo://app?vid=101a0562-b789-42e5-afb5-66976780101d","ios":"levelo://app?vid=101a0562-b789-42e5-afb5-66976780101d"},"vehicle_type_id":"4","last_reported":1679141513,"current_range_meters":9200,"station_id":"ce4bhhh2rcd13ifvqfl0","pricing_plan_id":"free"},{"bike_id":"6b3dcc17-e244-4278-873b-dcc4f88e1197","system_id":"levelo_inurba_marseille","lat":43.33775,"lon":5.42131,"is_reserved":false,"is_disabled":false,"rental_uris":{"android":"levelo://app?vid=6b3dcc17-e244-4278-873b-dcc4f88e1197","ios":"levelo://app?vid=6b3dcc17-e244-4278-873b-dcc4f88e1197"},"vehicle_type_id":"4","last_reported":1679141513,"current_range_meters":11200,"station_id":"","pricing_plan_id":"free"},{"bike_id":"387e99dc-a44b-41d3-a36a-60041ee19db8","system_id":"levelo_inurba_marseille","lat":43.265714,"lon":5.372891,"is_reserved":false,"is_disabled":false,"rental_uris":{"android":"levelo://app?vid=387e99dc-a44b-41d3-a36a-60041ee19db8","ios":"levelo://app?vid=387e99dc-a44b-41d3-a36a-60041ee19db8"},"vehicle_type_id":"4","last_reported":1679141513,"current_range_meters":30400,"station_id":"ce4bhg12rcd13ifvqf70","pricing_plan_id":"free"},{"bike_id":"3d142a66-1dac-4a59-ab94-5167f3f5888e","system_id":"levelo_inurba_marseille","lat":43.27996,"lon":5.416624,"is_reserved":false,"is_disabled":false,"rental_uris":{"android":"levelo://app?vid=3d142a66-1dac-4a59-ab94-5167f3f5888e","ios":"levelo://app?vid=3d142a66-1dac-4a59-ab94-5167f3f5888e"},"vehicle_type_id":"4","last_reported":1679141513,"current_range_meters":27600,"station_id":"ce4bho12rcd13ifvqh1g","pricing_plan_id":"free"},{"bike_id":"6320a392-706d-4a4c-899e-d756ea05c1ec","system_id":"levelo_inurba_marseille","lat":43.27996,"lon":5.416624,"is_reserved":false,"is_disabled":false,"rental_uris":{"android":"levelo://app?vid=6320a392-706d-4a4c-899e-d756ea05c1ec","ios":"levelo://app?vid=6320a392-706d-4a4c-899e-d756ea05c1ec"},"vehicle_type_id":"4","last_reported":1679141513,"current_range_meters":20800,"station_id":"ce4bho12rcd13ifvqh1g","pricing_plan_id":"free"},{"bike_id":"12c757ff-8c86-491c-9c60-cf1a38e0f0c8","system_id":"levelo_inurba_marseille","lat":43.267966,"lon":5.393976,"is_reserved":false,"is_disabled":false,"rental_uris":{"android":"levelo://app?vid=12c757ff-8c86-491c-9c60-cf1a38e0f0c8","ios":"levelo://app?vid=12c757ff-8c86-491c-9c60-cf1a38e0f0c8"},"vehicle_type_id":"4","last_reported":1679141513,"current_range_meters":6000,"station_id":"ce4bhh12rcd13ifvqfg0","pricing_plan_id":"free"},{"bike_id":"1c8a0c70-fcfc-46b8-8da2-01105369cdc0","system_id":"levelo_inurba_marseille","lat":43.262012,"lon":5.379307,"is_reserved":false,"is_disabled":false,"rental_uris":{"android":"levelo://app?vid=1c8a0c70-fcfc-46b8-8da2-01105369cdc0","ios":"levelo://app?vid=1c8a0c70-fcfc-46b8-8da2-01105369cdc0"},"vehicle_type_id":"4","last_reported":1679141513,"current_range_meters":19600,"station_id":"ce4bhjp2rcd13ifvqg90","pricing_plan_id":"free"},{"bike_id":"dd582b73-0cb0-4ad0-8358-d75b9f3e9779","system_id":"levelo_inurba_marseille","lat":43.262012,"lon":5.379307,"is_reserved":false,"is_disabled":false,"rental_uris":{"android":"levelo://app?vid=dd582b73-0cb0-4ad0-8358-d75b9f3e9779","ios":"levelo://app?vid=dd582b73-0cb0-4ad0-8358-d75b9f3e9779"},"vehicle_type_id":"4","last_reported":1679141513,"current_range_meters":15600,"station_id":"ce4bhjp2rcd13ifvqg90","pricing_plan_id":"free"},{"bike_id":"07ea1ddc-f530-49e1-8b70-40cf783908e1","system_id":"levelo_inurba_marseille","lat":43.268097,"lon":5.402627,"is_reserved":false,"is_disabled":false,"rental_uris":{"android":"levelo://app?vid=07ea1ddc-f530-49e1-8b70-40cf783908e1","ios":"levelo://app?vid=07ea1ddc-f530-49e1-8b70-40cf783908e1"},"vehicle_type_id":"4","last_reported":1679141513,"current_range_meters":31600,"station_id":"ce501612rcd8frsf0b60","pricing_plan_id":"free"},{"bike_id":"10c56a58-7471-4ff7-9c95-4b778601167b","system_id":"levelo_inurba_marseille","lat":43.267959,"lon":5.402687,"is_reserved":false,"is_disabled":false,"rental_uris":{"android":"levelo://app?vid=10c56a58-7471-4ff7-9c95-4b778601167b","ios":"levelo://app?vid=10c56a58-7471-4ff7-9c95-4b778601167b"},"vehicle_type_id":"4","last_reported":1679141513,"current_range_meters":31600,"station_id":"ce501612rcd8frsf0b60","pricing_plan_id":"free"},{"bike_id":"0363506e-e8a1-4421-a946-e11a9e843ae4","system_id":"levelo_inurba_marseille","lat":43.26803,"lon":5.4026,"is_reserved":false,"is_disabled":false,"rental_uris":{"android":"levelo://app?vid=0363506e-e8a1-4421-a946-e11a9e843ae4","ios":"levelo://app?vid=0363506e-e8a1-4421-a946-e11a9e843ae4"},"vehicle_type_id":"4","last_reported":1679141513,"current_range_meters":0,"station_id":"","pricing_plan_id":"free"},{"bike_id":"479e5822-178a-421d-9349-6de36c300fba","system_id":"levelo_inurba_marseille","lat":43.267959,"lon":5.402687,"is_reserved":false,"is_disabled":false,"rental_uris":{"android":"levelo://app?vid=479e5822-178a-421d-9349-6de36c300fba","ios":"levelo://app?vid=479e5822-178a-421d-9349-6de36c300fba"},"vehicle_type_id":"4","last_reported":1679141513,"current_range_meters":23200,"station_id":"ce501612rcd8frsf0b60","pricing_plan_id":"free"},{"bike_id":"f5534818-ad88-4836-b3dc-c242a5e74772","system_id":"levelo_inurba_marseille","lat":43.2607,"lon":5.393983,"is_reserved":false,"is_disabled":false,"rental_uris":{"android":"levelo://app?vid=f5534818-ad88-4836-b3dc-c242a5e74772","ios":"levelo://app?vid=f5534818-ad88-4836-b3dc-c242a5e74772"},"vehicle_type_id":"4","last_reported":1679141513,"current_range_meters":3600,"station_id":"ce4bhh92rcd13ifvqfj0","pricing_plan_id":"free"},{"bike_id":"356244a4-516b-45ff-a08f-b273eed15a4f","system_id":"levelo_inurba_marseille","lat":43.2607,"lon":5.393983,"is_reserved":false,"is_disabled":false,"rental_uris":{"android":"levelo://app?vid=356244a4-516b-45ff-a08f-b273eed15a4f","ios":"levelo://app?vid=356244a4-516b-45ff-a08f-b273eed15a4f"},"vehicle_type_id":"4","last_reported":1679141513,"current_range_meters":17200,"station_id":"ce4bhh92rcd13ifvqfj0","pricing_plan_id":"free"},{"bike_id":"6b50f83a-9b37-4e71-9273-1d66335402e9","system_id":"levelo_inurba_marseille","lat":43.2607,"lon":5.393983,"is_reserved":false,"is_disabled":false,"rental_uris":{"android":"levelo://app?vid=6b50f83a-9b37-4e71-9273-1d66335402e9","ios":"levelo://app?vid=6b50f83a-9b37-4e71-9273-1d66335402e9"},"vehicle_type_id":"4","last_reported":1679141513,"current_range_meters":31600,"station_id":"ce4bhh92rcd13ifvqfj0","pricing_plan_id":"free"},{"bike_id":"84a7093a-78bd-4aaa-8436-cfc205d9454a","system_id":"levelo_inurba_marseille","lat":43.2607,"lon":5.393983,"is_reserved":false,"is_disabled":false,"rental_uris":{"android":"levelo://app?vid=84a7093a-78bd-4aaa-8436-cfc205d9454a","ios":"levelo://app?vid=84a7093a-78bd-4aaa-8436-cfc205d9454a"},"vehicle_type_id":"4","last_reported":1679141513,"current_range_meters":12000,"station_id":"ce4bhh92rcd13ifvqfj0","pricing_plan_id":"free"},{"bike_id":"a836b76b-ded9-428a-bc5a-4bbfae96cfab","system_id":"levelo_inurba_marseille","lat":43.2607,"lon":5.393983,"is_reserved":false,"is_disabled":false,"rental_uris":{"android":"levelo://app?vid=a836b76b-ded9-428a-bc5a-4bbfae96cfab","ios":"levelo://app?vid=a836b76b-ded9-428a-bc5a-4bbfae96cfab"},"vehicle_type_id":"4","last_reported":1679141513,"current_range_meters":16000,"station_id":"ce4bhh92rcd13ifvqfj0","pricing_plan_id":"free"},{"bike_id":"b2638b17-f6c1-40ce-abc7-841f855245ea","system_id":"levelo_inurba_marseille","lat":43.2607,"lon":5.393983,"is_reserved":false,"is_disabled":false,"rental_uris":{"android":"levelo://app?vid=b2638b17-f6c1-40ce-abc7-841f855245ea","ios":"levelo://app?vid=b2638b17-f6c1-40ce-abc7-841f855245ea"},"vehicle_type_id":"4","last_reported":1679141513,"current_range_meters":15600,"station_id":"ce4bhh92rcd13ifvqfj0","pricing_plan_id":"free"},{"bike_id":"0b34d557-fcee-4ecf-93dc-f7c615866998","system_id":"levelo_inurba_marseille","lat":43.262798,"lon":5.411884,"is_reserved":false,"is_disabled":false,"rental_uris":{"android":"levelo://app?vid=0b34d557-fcee-4ecf-93dc-f7c615866998","ios":"levelo://app?vid=0b34d557-fcee-4ecf-93dc-f7c615866998"},"vehicle_type_id":"4","last_reported":1679141513,"current_range_meters":0,"station_id":"","pricing_plan_id":"free"},{"bike_id":"1e222674-c7fa-4849-9836-a6f20052e7b9","system_id":"levelo_inurba_marseille","lat":43.250009,"lon":5.389195,"is_reserved":false,"is_disabled":false,"rental_uris":{"android":"levelo://app?vid=1e222674-c7fa-4849-9836-a6f20052e7b9","ios":"levelo://app?vid=1e222674-c7fa-4849-9836-a6f20052e7b9"},"vehicle_type_id":"4","last_reported":1679141513,"current_range_meters":26800,"station_id":"ce4bhgp2rcd13ifvqfd0","pricing_plan_id":"free"},{"bike_id":"8b348e26-08a6-4e62-a8a2-d97c2308bf01","system_id":"levelo_inurba_marseille","lat":43.250009,"lon":5.389195,"is_reserved":false,"is_disabled":false,"rental_uris":{"android":"levelo://app?vid=8b348e26-08a6-4e62-a8a2-d97c2308bf01","ios":"levelo://app?vid=8b348e26-08a6-4e62-a8a2-d97c2308bf01"},"vehicle_type_id":"4","last_reported":1679141513,"current_range_meters":31600,"station_id":"ce4bhgp2rcd13ifvqfd0","pricing_plan_id":"free"},{"bike_id":"9402795b-e345-4c63-998c-39ec5c0ea4c1","system_id":"levelo_inurba_marseille","lat":43.250009,"lon":5.389195,"is_reserved":false,"is_disabled":false,"rental_uris":{"android":"levelo://app?vid=9402795b-e345-4c63-998c-39ec5c0ea4c1","ios":"levelo://app?vid=9402795b-e345-4c63-998c-39ec5c0ea4c1"},"vehicle_type_id":"4","last_reported":1679141513,"current_range_meters":31600,"station_id":"ce4bhgp2rcd13ifvqfd0","pricing_plan_id":"free"},{"bike_id":"4fa24eba-609a-44a6-a9b5-1c8089b1e434","system_id":"levelo_inurba_marseille","lat":43.250009,"lon":5.389195,"is_reserved":false,"is_disabled":false,"rental_uris":{"android":"levelo://app?vid=4fa24eba-609a-44a6-a9b5-1c8089b1e434","ios":"levelo://app?vid=4fa24eba-609a-44a6-a9b5-1c8089b1e434"},"vehicle_type_id":"4","last_reported":1679141513,"current_range_meters":17200,"station_id":"ce4bhgp2rcd13ifvqfd0","pricing_plan_id":"free"},{"bike_id":"bf4fb621-500e-4434-aef7-29623ecc99dc","system_id":"levelo_inurba_marseille","lat":43.250009,"lon":5.389195,"is_reserved":false,"is_disabled":false,"rental_uris":{"android":"levelo://app?vid=bf4fb621-500e-4434-aef7-29623ecc99dc","ios":"levelo://app?vid=bf4fb621-500e-4434-aef7-29623ecc99dc"},"vehicle_type_id":"4","last_reported":1679141513,"current_range_meters":13200,"station_id":"ce4bhgp2rcd13ifvqfd0","pricing_plan_id":"free"},{"bike_id":"b97371b0-2081-4d7c-9ff6-4ce3dbddad9f","system_id":"levelo_inurba_marseille","lat":43.250009,"lon":5.389195,"is_reserved":false,"is_disabled":false,"rental_uris":{"android":"levelo://app?vid=b97371b0-2081-4d7c-9ff6-4ce3dbddad9f","ios":"levelo://app?vid=b97371b0-2081-4d7c-9ff6-4ce3dbddad9f"},"vehicle_type_id":"4","last_reported":1679141513,"current_range_meters":30800,"station_id":"ce4bhgp2rcd13ifvqfd0","pricing_plan_id":"free"},{"bike_id":"d3033048-c81a-4bb4-9bf8-b1c88293fa96","system_id":"levelo_inurba_marseille","lat":43.250009,"lon":5.389195,"is_reserved":false,"is_disabled":false,"rental_uris":{"android":"levelo://app?vid=d3033048-c81a-4bb4-9bf8-b1c88293fa96","ios":"levelo://app?vid=d3033048-c81a-4bb4-9bf8-b1c88293fa96"},"vehicle_type_id":"4","last_reported":1679141513,"current_range_meters":31600,"station_id":"ce4bhgp2rcd13ifvqfd0","pricing_plan_id":"free"},{"bike_id":"9c1d0fbc-0802-4fe6-83e8-44642bb13d2e","system_id":"levelo_inurba_marseille","lat":43.250009,"lon":5.389195,"is_reserved":false,"is_disabled":false,"rental_uris":{"android":"levelo://app?vid=9c1d0fbc-0802-4fe6-83e8-44642bb13d2e","ios":"levelo://app?vid=9c1d0fbc-0802-4fe6-83e8-44642bb13d2e"},"vehicle_type_id":"4","last_reported":1679141513,"current_range_meters":30000,"station_id":"ce4bhgp2rcd13ifvqfd0","pricing_plan_id":"free"},{"bike_id":"d4c63f60-40f1-48d2-8689-3c61ecbc0b6c","system_id":"levelo_inurba_marseille","lat":43.250009,"lon":5.389195,"is_reserved":false,"is_disabled":false,"rental_uris":{"android":"levelo://app?vid=d4c63f60-40f1-48d2-8689-3c61ecbc0b6c","ios":"levelo://app?vid=d4c63f60-40f1-48d2-8689-3c61ecbc0b6c"},"vehicle_type_id":"4","last_reported":1679141513,"current_range_meters":31600,"station_id":"ce4bhgp2rcd13ifvqfd0","pricing_plan_id":"free"},{"bike_id":"84af4f38-ec70-4ebb-af39-a66368d94cd0","system_id":"levelo_inurba_marseille","lat":43.250009,"lon":5.389195,"is_reserved":false,"is_disabled":false,"rental_uris":{"android":"levelo://app?vid=84af4f38-ec70-4ebb-af39-a66368d94cd0","ios":"levelo://app?vid=84af4f38-ec70-4ebb-af39-a66368d94cd0"},"vehicle_type_id":"4","last_reported":1679141513,"current_range_meters":28000,"station_id":"ce4bhgp2rcd13ifvqfd0","pricing_plan_id":"free"},{"bike_id":"c8aeffd4-d769-4f54-90b9-6937c7646dac","system_id":"levelo_inurba_marseille","lat":43.24813,"lon":5.37458,"is_reserved":false,"is_disabled":false,"rental_uris":{"android":"levelo://app?vid=c8aeffd4-d769-4f54-90b9-6937c7646dac","ios":"levelo://app?vid=c8aeffd4-d769-4f54-90b9-6937c7646dac"},"vehicle_type_id":"4","last_reported":1679141513,"current_range_meters":11200,"station_id":"ce4bhgh2rcd13ifvqfb0","pricing_plan_id":"free"},{"bike_id":"63b75ead-78fc-43b1-85eb-a9e162fb51f1","system_id":"levelo_inurba_marseille","lat":43.24808,"lon":5.37458,"is_reserved":false,"is_disabled":false,"rental_uris":{"android":"levelo://app?vid=63b75ead-78fc-43b1-85eb-a9e162fb51f1","ios":"levelo://app?vid=63b75ead-78fc-43b1-85eb-a9e162fb51f1"},"vehicle_type_id":"4","last_reported":1679141513,"current_range_meters":26400,"station_id":"","pricing_plan_id":"free"},{"bike_id":"8a60166c-d5a0-4680-8bbf-59587b8f564e","system_id":"levelo_inurba_marseille","lat":43.2479,"lon":5.374457,"is_reserved":false,"is_disabled":false,"rental_uris":{"android":"levelo://app?vid=8a60166c-d5a0-4680-8bbf-59587b8f564e","ios":"levelo://app?vid=8a60166c-d5a0-4680-8bbf-59587b8f564e"},"vehicle_type_id":"4","last_reported":1679141513,"current_range_meters":27200,"station_id":"ce4bhgh2rcd13ifvqfb0","pricing_plan_id":"free"},{"bike_id":"bb8da5b6-8315-4286-9ec5-98f52de794d3","system_id":"levelo_inurba_marseille","lat":43.24807,"lon":5.37456,"is_reserved":false,"is_disabled":false,"rental_uris":{"android":"levelo://app?vid=bb8da5b6-8315-4286-9ec5-98f52de794d3","ios":"levelo://app?vid=bb8da5b6-8315-4286-9ec5-98f52de794d3"},"vehicle_type_id":"4","last_reported":1679141513,"current_range_meters":29600,"station_id":"","pricing_plan_id":"free"},{"bike_id":"a01639dd-e953-4278-8674-cd891c28a0ab","system_id":"levelo_inurba_marseille","lat":43.248057,"lon":5.37457,"is_reserved":false,"is_disabled":false,"rental_uris":{"android":"levelo://app?vid=a01639dd-e953-4278-8674-cd891c28a0ab","ios":"levelo://app?vid=a01639dd-e953-4278-8674-cd891c28a0ab"},"vehicle_type_id":"4","last_reported":1679141513,"current_range_meters":27200,"station_id":"","pricing_plan_id":"free"},{"bike_id":"1121b6ee-cdb6-4101-afa2-223df602b385","system_id":"levelo_inurba_marseille","lat":43.248045,"lon":5.37456,"is_reserved":false,"is_disabled":false,"rental_uris":{"android":"levelo://app?vid=1121b6ee-cdb6-4101-afa2-223df602b385","ios":"levelo://app?vid=1121b6ee-cdb6-4101-afa2-223df602b385"},"vehicle_type_id":"4","last_reported":1679141513,"current_range_meters":23600,"station_id":"","pricing_plan_id":"free"},{"bike_id":"a4c4593e-7995-4a2a-8f18-c08b4e51349e","system_id":"levelo_inurba_marseille","lat":43.24804,"lon":5.37458,"is_reserved":false,"is_disabled":false,"rental_uris":{"android":"levelo://app?vid=a4c4593e-7995-4a2a-8f18-c08b4e51349e","ios":"levelo://app?vid=a4c4593e-7995-4a2a-8f18-c08b4e51349e"},"vehicle_type_id":"4","last_reported":1679141513,"current_range_meters":30400,"station_id":"","pricing_plan_id":"free"},{"bike_id":"148aa54a-cb02-4c92-ac3d-1f41b949cfd2","system_id":"levelo_inurba_marseille","lat":43.2479,"lon":5.374457,"is_reserved":false,"is_disabled":false,"rental_uris":{"android":"levelo://app?vid=148aa54a-cb02-4c92-ac3d-1f41b949cfd2","ios":"levelo://app?vid=148aa54a-cb02-4c92-ac3d-1f41b949cfd2"},"vehicle_type_id":"4","last_reported":1679141513,"current_range_meters":28800,"station_id":"ce4bhgh2rcd13ifvqfb0","pricing_plan_id":"free"},{"bike_id":"ad90196d-0e58-459e-aef8-8817a565511d","system_id":"levelo_inurba_marseille","lat":43.250966,"lon":5.395186,"is_reserved":false,"is_disabled":false,"rental_uris":{"android":"levelo://app?vid=ad90196d-0e58-459e-aef8-8817a565511d","ios":"levelo://app?vid=ad90196d-0e58-459e-aef8-8817a565511d"},"vehicle_type_id":"4","last_reported":1679141513,"current_range_meters":14800,"station_id":"ce4bhm12rcd13ifvqgkg","pricing_plan_id":"free"},{"bike_id":"2b50e5f8-513b-4497-b975-f9b99633bcb9","system_id":"levelo_inurba_marseille","lat":43.24693,"lon":5.382096,"is_reserved":false,"is_disabled":false,"rental_uris":{"android":"levelo://app?vid=2b50e5f8-513b-4497-b975-f9b99633bcb9","ios":"levelo://app?vid=2b50e5f8-513b-4497-b975-f9b99633bcb9"},"vehicle_type_id":"4","last_reported":1679141513,"current_range_meters":12800,"station_id":"ce4bhih2rcd13ifvqfr0","pricing_plan_id":"free"},{"bike_id":"592adabc-a5ae-45cb-8040-f3f3638a9dd4","system_id":"levelo_inurba_marseille","lat":43.246461,"lon":5.389014,"is_reserved":false,"is_disabled":false,"rental_uris":{"android":"levelo://app?vid=592adabc-a5ae-45cb-8040-f3f3638a9dd4","ios":"levelo://app?vid=592adabc-a5ae-45cb-8040-f3f3638a9dd4"},"vehicle_type_id":"4","last_reported":1679141513,"current_range_meters":29600,"station_id":"ce4bhg12rcd13ifvqf60","pricing_plan_id":"free"},{"bike_id":"ecb3a446-224f-464f-b1cd-12740cea4b67","system_id":"levelo_inurba_marseille","lat":43.24391,"lon":5.37062,"is_reserved":false,"is_disabled":false,"rental_uris":{"android":"levelo://app?vid=ecb3a446-224f-464f-b1cd-12740cea4b67","ios":"levelo://app?vid=ecb3a446-224f-464f-b1cd-12740cea4b67"},"vehicle_type_id":"4","last_reported":1679141513,"current_range_meters":29600,"station_id":"","pricing_plan_id":"free"},{"bike_id":"89bd9dfa-5d7a-43d2-847c-e2c648177d88","system_id":"levelo_inurba_marseille","lat":43.2439,"lon":5.37055,"is_reserved":false,"is_disabled":false,"rental_uris":{"android":"levelo://app?vid=89bd9dfa-5d7a-43d2-847c-e2c648177d88","ios":"levelo://app?vid=89bd9dfa-5d7a-43d2-847c-e2c648177d88"},"vehicle_type_id":"4","last_reported":1679141513,"current_range_meters":21600,"station_id":"","pricing_plan_id":"free"},{"bike_id":"27451b56-b88f-4f88-8075-fbbc8f0dc709","system_id":"levelo_inurba_marseille","lat":43.2439,"lon":5.37057,"is_reserved":false,"is_disabled":false,"rental_uris":{"android":"levelo://app?vid=27451b56-b88f-4f88-8075-fbbc8f0dc709","ios":"levelo://app?vid=27451b56-b88f-4f88-8075-fbbc8f0dc709"},"vehicle_type_id":"4","last_reported":1679141513,"current_range_meters":31600,"station_id":"","pricing_plan_id":"free"},{"bike_id":"27450aed-d877-488a-a0ec-8d24e5ef24d4","system_id":"levelo_inurba_marseille","lat":43.2439,"lon":5.37058,"is_reserved":false,"is_disabled":false,"rental_uris":{"android":"levelo://app?vid=27450aed-d877-488a-a0ec-8d24e5ef24d4","ios":"levelo://app?vid=27450aed-d877-488a-a0ec-8d24e5ef24d4"},"vehicle_type_id":"4","last_reported":1679141513,"current_range_meters":19600,"station_id":"","pricing_plan_id":"free"},{"bike_id":"57bf2e4f-643d-4f9d-9bfb-2b77de7399a7","system_id":"levelo_inurba_marseille","lat":43.2439,"lon":5.37059,"is_reserved":false,"is_disabled":false,"rental_uris":{"android":"levelo://app?vid=57bf2e4f-643d-4f9d-9bfb-2b77de7399a7","ios":"levelo://app?vid=57bf2e4f-643d-4f9d-9bfb-2b77de7399a7"},"vehicle_type_id":"4","last_reported":1679141513,"current_range_meters":19200,"station_id":"","pricing_plan_id":"free"},{"bike_id":"a8ecd58c-ee05-4e67-92bd-f45b14543f1d","system_id":"levelo_inurba_marseille","lat":43.24389,"lon":5.37065,"is_reserved":false,"is_disabled":false,"rental_uris":{"android":"levelo://app?vid=a8ecd58c-ee05-4e67-92bd-f45b14543f1d","ios":"levelo://app?vid=a8ecd58c-ee05-4e67-92bd-f45b14543f1d"},"vehicle_type_id":"4","last_reported":1679141513,"current_range_meters":29200,"station_id":"ce4bhhh2rcd13ifvqfk0","pricing_plan_id":"free"},{"bike_id":"7cf502a4-d89a-4150-9a4f-384b140ecf74","system_id":"levelo_inurba_marseille","lat":43.24388,"lon":5.37051,"is_reserved":false,"is_disabled":false,"rental_uris":{"android":"levelo://app?vid=7cf502a4-d89a-4150-9a4f-384b140ecf74","ios":"levelo://app?vid=7cf502a4-d89a-4150-9a4f-384b140ecf74"},"vehicle_type_id":"4","last_reported":1679141513,"current_range_meters":12800,"station_id":"","pricing_plan_id":"free"},{"bike_id":"3cc1b91a-bbdf-4548-bd59-fc3083c04c06","system_id":"levelo_inurba_marseille","lat":43.24386,"lon":5.37058,"is_reserved":false,"is_disabled":false,"rental_uris":{"android":"levelo://app?vid=3cc1b91a-bbdf-4548-bd59-fc3083c04c06","ios":"levelo://app?vid=3cc1b91a-bbdf-4548-bd59-fc3083c04c06"},"vehicle_type_id":"4","last_reported":1679141513,"current_range_meters":12000,"station_id":"","pricing_plan_id":"free"},{"bike_id":"616f7ff5-9d4b-4998-9f13-95338ff38559","system_id":"levelo_inurba_marseille","lat":43.24386,"lon":5.37062,"is_reserved":false,"is_disabled":false,"rental_uris":{"android":"levelo://app?vid=616f7ff5-9d4b-4998-9f13-95338ff38559","ios":"levelo://app?vid=616f7ff5-9d4b-4998-9f13-95338ff38559"},"vehicle_type_id":"4","last_reported":1679141513,"current_range_meters":7200,"station_id":"","pricing_plan_id":"free"},{"bike_id":"9bd9e240-3c49-4b16-8408-ddf83d2b7b5a","system_id":"levelo_inurba_marseille","lat":43.245581,"lon":5.395069,"is_reserved":false,"is_disabled":false,"rental_uris":{"android":"levelo://app?vid=9bd9e240-3c49-4b16-8408-ddf83d2b7b5a","ios":"levelo://app?vid=9bd9e240-3c49-4b16-8408-ddf83d2b7b5a"},"vehicle_type_id":"4","last_reported":1679141513,"current_range_meters":31600,"station_id":"ce4bhlp2rcd13ifvqgjg","pricing_plan_id":"free"},{"bike_id":"74955e39-2cdd-40f1-ae7e-60d1dfbe728d","system_id":"levelo_inurba_marseille","lat":43.245581,"lon":5.395069,"is_reserved":false,"is_disabled":false,"rental_uris":{"android":"levelo://app?vid=74955e39-2cdd-40f1-ae7e-60d1dfbe728d","ios":"levelo://app?vid=74955e39-2cdd-40f1-ae7e-60d1dfbe728d"},"vehicle_type_id":"4","last_reported":1679141513,"current_range_meters":10400,"station_id":"ce4bhlp2rcd13ifvqgjg","pricing_plan_id":"free"},{"bike_id":"1405e1b5-ea6b-437e-8568-056654c484a1","system_id":"levelo_inurba_marseille","lat":43.24078,"lon":5.37762,"is_reserved":false,"is_disabled":false,"rental_uris":{"android":"levelo://app?vid=1405e1b5-ea6b-437e-8568-056654c484a1","ios":"levelo://app?vid=1405e1b5-ea6b-437e-8568-056654c484a1"},"vehicle_type_id":"4","last_reported":1679141513,"current_range_meters":6000,"station_id":"ce4bhnp2rcd13ifvqgvg","pricing_plan_id":"free"},{"bike_id":"5521ec33-ee6d-49f4-9471-d24cf70bcd7b","system_id":"levelo_inurba_marseille","lat":43.240623,"lon":5.377642,"is_reserved":false,"is_disabled":false,"rental_uris":{"android":"levelo://app?vid=5521ec33-ee6d-49f4-9471-d24cf70bcd7b","ios":"levelo://app?vid=5521ec33-ee6d-49f4-9471-d24cf70bcd7b"},"vehicle_type_id":"4","last_reported":1679141513,"current_range_meters":31600,"station_id":"ce4bhnp2rcd13ifvqgvg","pricing_plan_id":"free"},{"bike_id":"b6becebd-2e6b-4a5a-8f62-8e1e476dcf36","system_id":"levelo_inurba_marseille","lat":43.240623,"lon":5.377642,"is_reserved":false,"is_disabled":false,"rental_uris":{"android":"levelo://app?vid=b6becebd-2e6b-4a5a-8f62-8e1e476dcf36","ios":"levelo://app?vid=b6becebd-2e6b-4a5a-8f62-8e1e476dcf36"},"vehicle_type_id":"4","last_reported":1679141513,"current_range_meters":6400,"station_id":"ce4bhnp2rcd13ifvqgvg","pricing_plan_id":"free"},{"bike_id":"a69fb547-f7ee-4cef-a43e-656ad2d45e6c","system_id":"levelo_inurba_marseille","lat":43.240623,"lon":5.377642,"is_reserved":false,"is_disabled":false,"rental_uris":{"android":"levelo://app?vid=a69fb547-f7ee-4cef-a43e-656ad2d45e6c","ios":"levelo://app?vid=a69fb547-f7ee-4cef-a43e-656ad2d45e6c"},"vehicle_type_id":"4","last_reported":1679141513,"current_range_meters":20400,"station_id":"ce4bhnp2rcd13ifvqgvg","pricing_plan_id":"free"},{"bike_id":"ad1dc089-4a54-4561-856d-26d7bb94e38b","system_id":"levelo_inurba_marseille","lat":43.240623,"lon":5.377642,"is_reserved":false,"is_disabled":false,"rental_uris":{"android":"levelo://app?vid=ad1dc089-4a54-4561-856d-26d7bb94e38b","ios":"levelo://app?vid=ad1dc089-4a54-4561-856d-26d7bb94e38b"},"vehicle_type_id":"4","last_reported":1679141513,"current_range_meters":0,"station_id":"ce4bhnp2rcd13ifvqgvg","pricing_plan_id":"free"},{"bike_id":"c03daf93-bd02-4eae-9c2b-09e471aa7c7a","system_id":"levelo_inurba_marseille","lat":43.240623,"lon":5.377642,"is_reserved":false,"is_disabled":false,"rental_uris":{"android":"levelo://app?vid=c03daf93-bd02-4eae-9c2b-09e471aa7c7a","ios":"levelo://app?vid=c03daf93-bd02-4eae-9c2b-09e471aa7c7a"},"vehicle_type_id":"4","last_reported":1679141513,"current_range_meters":14400,"station_id":"ce4bhnp2rcd13ifvqgvg","pricing_plan_id":"free"},{"bike_id":"d1636f64-6b09-4b48-bf38-0b5b7957612a","system_id":"levelo_inurba_marseille","lat":43.24072,"lon":5.37764,"is_reserved":false,"is_disabled":false,"rental_uris":{"android":"levelo://app?vid=d1636f64-6b09-4b48-bf38-0b5b7957612a","ios":"levelo://app?vid=d1636f64-6b09-4b48-bf38-0b5b7957612a"},"vehicle_type_id":"4","last_reported":1679141513,"current_range_meters":31600,"station_id":"","pricing_plan_id":"free"},{"bike_id":"e2b39f61-a433-4fea-8ef4-f9a8742713b8","system_id":"levelo_inurba_marseille","lat":43.240623,"lon":5.377642,"is_reserved":false,"is_disabled":false,"rental_uris":{"android":"levelo://app?vid=e2b39f61-a433-4fea-8ef4-f9a8742713b8","ios":"levelo://app?vid=e2b39f61-a433-4fea-8ef4-f9a8742713b8"},"vehicle_type_id":"4","last_reported":1679141513,"current_range_meters":9600,"station_id":"ce4bhnp2rcd13ifvqgvg","pricing_plan_id":"free"},{"bike_id":"77800063-d00a-4522-9222-b8d7fdda693b","system_id":"levelo_inurba_marseille","lat":43.240623,"lon":5.377642,"is_reserved":false,"is_disabled":false,"rental_uris":{"android":"levelo://app?vid=77800063-d00a-4522-9222-b8d7fdda693b","ios":"levelo://app?vid=77800063-d00a-4522-9222-b8d7fdda693b"},"vehicle_type_id":"4","last_reported":1679141513,"current_range_meters":31600,"station_id":"ce4bhnp2rcd13ifvqgvg","pricing_plan_id":"free"},{"bike_id":"339c1e63-5f80-41c0-9b02-04a53519dd7f","system_id":"levelo_inurba_marseille","lat":43.240623,"lon":5.377642,"is_reserved":false,"is_disabled":false,"rental_uris":{"android":"levelo://app?vid=339c1e63-5f80-41c0-9b02-04a53519dd7f","ios":"levelo://app?vid=339c1e63-5f80-41c0-9b02-04a53519dd7f"},"vehicle_type_id":"4","last_reported":1679141513,"current_range_meters":18800,"station_id":"ce4bhnp2rcd13ifvqgvg","pricing_plan_id":"free"},{"bike_id":"1160818b-86ff-4cff-80c0-e478bee146f0","system_id":"levelo_inurba_marseille","lat":43.239588,"lon":5.366238,"is_reserved":false,"is_disabled":false,"rental_uris":{"android":"levelo://app?vid=1160818b-86ff-4cff-80c0-e478bee146f0","ios":"levelo://app?vid=1160818b-86ff-4cff-80c0-e478bee146f0"},"vehicle_type_id":"4","last_reported":1679141513,"current_range_meters":30800,"station_id":"ce4bhi12rcd13ifvqfp0","pricing_plan_id":"free"},{"bike_id":"ab394c89-8497-404c-883e-f087b1f270d4","system_id":"levelo_inurba_marseille","lat":43.23962,"lon":5.36634,"is_reserved":false,"is_disabled":false,"rental_uris":{"android":"levelo://app?vid=ab394c89-8497-404c-883e-f087b1f270d4","ios":"levelo://app?vid=ab394c89-8497-404c-883e-f087b1f270d4"},"vehicle_type_id":"4","last_reported":1679141513,"current_range_meters":26400,"station_id":"ce4bhi12rcd13ifvqfp0","pricing_plan_id":"free"},{"bike_id":"6a41dcd3-9c6d-4df2-90cf-e224921d13c7","system_id":"levelo_inurba_marseille","lat":43.241782,"lon":5.397264,"is_reserved":false,"is_disabled":false,"rental_uris":{"android":"levelo://app?vid=6a41dcd3-9c6d-4df2-90cf-e224921d13c7","ios":"levelo://app?vid=6a41dcd3-9c6d-4df2-90cf-e224921d13c7"},"vehicle_type_id":"4","last_reported":1679141513,"current_range_meters":2800,"station_id":"ce4bhn12rcd13ifvqgpg","pricing_plan_id":"free"},{"bike_id":"f4640167-e3e5-4e1e-ba91-a79ed39fe6cf","system_id":"levelo_inurba_marseille","lat":43.232055,"lon":5.355421,"is_reserved":false,"is_disabled":false,"rental_uris":{"android":"levelo://app?vid=f4640167-e3e5-4e1e-ba91-a79ed39fe6cf","ios":"levelo://app?vid=f4640167-e3e5-4e1e-ba91-a79ed39fe6cf"},"vehicle_type_id":"4","last_reported":1679141513,"current_range_meters":10800,"station_id":"ce4bhu92rcd13ifvqi70","pricing_plan_id":"free"},{"bike_id":"88879922-dcd9-4b6f-9fe6-a6a039e9642d","system_id":"levelo_inurba_marseille","lat":43.231923,"lon":5.355545,"is_reserved":false,"is_disabled":false,"rental_uris":{"android":"levelo://app?vid=88879922-dcd9-4b6f-9fe6-a6a039e9642d","ios":"levelo://app?vid=88879922-dcd9-4b6f-9fe6-a6a039e9642d"},"vehicle_type_id":"4","last_reported":1679141513,"current_range_meters":31600,"station_id":"ce4bhu92rcd13ifvqi70","pricing_plan_id":"free"},{"bike_id":"cd785eec-bb46-498d-8ae5-4e21b4590df6","system_id":"levelo_inurba_marseille","lat":43.231923,"lon":5.355545,"is_reserved":false,"is_disabled":false,"rental_uris":{"android":"levelo://app?vid=cd785eec-bb46-498d-8ae5-4e21b4590df6","ios":"levelo://app?vid=cd785eec-bb46-498d-8ae5-4e21b4590df6"},"vehicle_type_id":"4","last_reported":1679141513,"current_range_meters":8800,"station_id":"ce4bhu92rcd13ifvqi70","pricing_plan_id":"free"},{"bike_id":"f9079c9a-45b1-4321-bdd7-c26504f6524c","system_id":"levelo_inurba_marseille","lat":43.231923,"lon":5.355545,"is_reserved":false,"is_disabled":false,"rental_uris":{"android":"levelo://app?vid=f9079c9a-45b1-4321-bdd7-c26504f6524c","ios":"levelo://app?vid=f9079c9a-45b1-4321-bdd7-c26504f6524c"},"vehicle_type_id":"4","last_reported":1679141513,"current_range_meters":29200,"station_id":"ce4bhu92rcd13ifvqi70","pricing_plan_id":"free"},{"bike_id":"956fe110-a343-4414-91a1-6e3d50bfa094","system_id":"levelo_inurba_marseille","lat":43.231923,"lon":5.355545,"is_reserved":false,"is_disabled":false,"rental_uris":{"android":"levelo://app?vid=956fe110-a343-4414-91a1-6e3d50bfa094","ios":"levelo://app?vid=956fe110-a343-4414-91a1-6e3d50bfa094"},"vehicle_type_id":"4","last_reported":1679141513,"current_range_meters":31600,"station_id":"ce4bhu92rcd13ifvqi70","pricing_plan_id":"free"},{"bike_id":"5c296cfe-bb42-4ddc-9604-9304ff266475","system_id":"levelo_inurba_marseille","lat":43.23194,"lon":5.35554,"is_reserved":false,"is_disabled":false,"rental_uris":{"android":"levelo://app?vid=5c296cfe-bb42-4ddc-9604-9304ff266475","ios":"levelo://app?vid=5c296cfe-bb42-4ddc-9604-9304ff266475"},"vehicle_type_id":"4","last_reported":1679141513,"current_range_meters":31600,"station_id":"","pricing_plan_id":"free"},{"bike_id":"3396f8cd-a485-415b-8db8-2bba087f8106","system_id":"levelo_inurba_marseille","lat":43.231923,"lon":5.355545,"is_reserved":false,"is_disabled":false,"rental_uris":{"android":"levelo://app?vid=3396f8cd-a485-415b-8db8-2bba087f8106","ios":"levelo://app?vid=3396f8cd-a485-415b-8db8-2bba087f8106"},"vehicle_type_id":"4","last_reported":1679141513,"current_range_meters":9200,"station_id":"ce4bhu92rcd13ifvqi70","pricing_plan_id":"free"},{"bike_id":"ff98316f-748f-4069-a942-b27635abd352","system_id":"levelo_inurba_marseille","lat":43.231923,"lon":5.355545,"is_reserved":false,"is_disabled":false,"rental_uris":{"android":"levelo://app?vid=ff98316f-748f-4069-a942-b27635abd352","ios":"levelo://app?vid=ff98316f-748f-4069-a942-b27635abd352"},"vehicle_type_id":"4","last_reported":1679141513,"current_range_meters":31600,"station_id":"ce4bhu92rcd13ifvqi70","pricing_plan_id":"free"},{"bike_id":"fadf4fdb-4d37-4e56-ac9b-30c332e74b6f","system_id":"levelo_inurba_marseille","lat":43.231923,"lon":5.355545,"is_reserved":false,"is_disabled":false,"rental_uris":{"android":"levelo://app?vid=fadf4fdb-4d37-4e56-ac9b-30c332e74b6f","ios":"levelo://app?vid=fadf4fdb-4d37-4e56-ac9b-30c332e74b6f"},"vehicle_type_id":"4","last_reported":1679141513,"current_range_meters":16800,"station_id":"ce4bhu92rcd13ifvqi70","pricing_plan_id":"free"},{"bike_id":"9396a642-8421-4ca9-b20d-a2492104caf9","system_id":"levelo_inurba_marseille","lat":43.231933,"lon":5.355549,"is_reserved":false,"is_disabled":false,"rental_uris":{"android":"levelo://app?vid=9396a642-8421-4ca9-b20d-a2492104caf9","ios":"levelo://app?vid=9396a642-8421-4ca9-b20d-a2492104caf9"},"vehicle_type_id":"4","last_reported":1679141513,"current_range_meters":31600,"station_id":"","pricing_plan_id":"free"},{"bike_id":"11c62a0d-7882-4db7-9dce-2e8145ca1f47","system_id":"levelo_inurba_marseille","lat":43.231933,"lon":5.355543,"is_reserved":false,"is_disabled":false,"rental_uris":{"android":"levelo://app?vid=11c62a0d-7882-4db7-9dce-2e8145ca1f47","ios":"levelo://app?vid=11c62a0d-7882-4db7-9dce-2e8145ca1f47"},"vehicle_type_id":"4","last_reported":1679141513,"current_range_meters":18800,"station_id":"ce4bhu92rcd13ifvqi70","pricing_plan_id":"free"},{"bike_id":"b9f6f4f0-f36b-4f70-8715-1fede5862196","system_id":"levelo_inurba_marseille","lat":43.231932,"lon":5.355539,"is_reserved":false,"is_disabled":false,"rental_uris":{"android":"levelo://app?vid=b9f6f4f0-f36b-4f70-8715-1fede5862196","ios":"levelo://app?vid=b9f6f4f0-f36b-4f70-8715-1fede5862196"},"vehicle_type_id":"4","last_reported":1679141513,"current_range_meters":31600,"station_id":"","pricing_plan_id":"free"},{"bike_id":"0010ebe6-0da4-49c8-96ff-1cfa6d1925a0","system_id":"levelo_inurba_marseille","lat":43.23192,"lon":5.35557,"is_reserved":false,"is_disabled":false,"rental_uris":{"android":"levelo://app?vid=0010ebe6-0da4-49c8-96ff-1cfa6d1925a0","ios":"levelo://app?vid=0010ebe6-0da4-49c8-96ff-1cfa6d1925a0"},"vehicle_type_id":"4","last_reported":1679141513,"current_range_meters":26400,"station_id":"ce4bhu92rcd13ifvqi70","pricing_plan_id":"free"},{"bike_id":"fb1950d7-12d3-47d0-bd53-c1bd3e1c9a94","system_id":"levelo_inurba_marseille","lat":43.23191,"lon":5.35551,"is_reserved":false,"is_disabled":false,"rental_uris":{"android":"levelo://app?vid=fb1950d7-12d3-47d0-bd53-c1bd3e1c9a94","ios":"levelo://app?vid=fb1950d7-12d3-47d0-bd53-c1bd3e1c9a94"},"vehicle_type_id":"4","last_reported":1679141513,"current_range_meters":13200,"station_id":"ce4bhu92rcd13ifvqi70","pricing_plan_id":"free"},{"bike_id":"c609bd05-9ac8-45c2-9e95-79b7cc3205ec","system_id":"levelo_inurba_marseille","lat":43.2319,"lon":5.35559,"is_reserved":false,"is_disabled":false,"rental_uris":{"android":"levelo://app?vid=c609bd05-9ac8-45c2-9e95-79b7cc3205ec","ios":"levelo://app?vid=c609bd05-9ac8-45c2-9e95-79b7cc3205ec"},"vehicle_type_id":"4","last_reported":1679141513,"current_range_meters":25200,"station_id":"","pricing_plan_id":"free"},{"bike_id":"beaf722f-8cce-48cc-9f08-62b9af3ed634","system_id":"levelo_inurba_marseille","lat":43.2319,"lon":5.35553,"is_reserved":false,"is_disabled":false,"rental_uris":{"android":"levelo://app?vid=beaf722f-8cce-48cc-9f08-62b9af3ed634","ios":"levelo://app?vid=beaf722f-8cce-48cc-9f08-62b9af3ed634"},"vehicle_type_id":"4","last_reported":1679141513,"current_range_meters":26400,"station_id":"","pricing_plan_id":"free"},{"bike_id":"1a1cf502-dc73-49e8-adfb-79041b4bd3aa","system_id":"levelo_inurba_marseille","lat":43.231923,"lon":5.355545,"is_reserved":false,"is_disabled":false,"rental_uris":{"android":"levelo://app?vid=1a1cf502-dc73-49e8-adfb-79041b4bd3aa","ios":"levelo://app?vid=1a1cf502-dc73-49e8-adfb-79041b4bd3aa"},"vehicle_type_id":"4","last_reported":1679141513,"current_range_meters":12400,"station_id":"ce4bhu92rcd13ifvqi70","pricing_plan_id":"free"}]}}