{"last_updated":1783382595,"ttl":60,"version":"2.2","data":{"bikes":[{"bike_id":"ba0c28b1-8732-48e2-8079-f25b2b3fbc3c","system_id":"levelo_inurba_marseille","lat":43.337444,"lon":5.374475,"is_reserved":false,"is_disabled":false,"rental_uris":{"android":"levelo://app?vid=ba0c28b1-8732-48e2-8079-f25b2b3fbc3c","ios":"levelo://app?vid=ba0c28b1-8732-48e2-8079-f25b2b3fbc3c"},"vehicle_type_id":"4","last_reported":1783382596,"current_range_meters":0,"station_id":"","pricing_plan_id":"cebpf4jnsgd1na2vs0mg"},{"bike_id":"994531ab-5b18-4e1d-bf5d-b26f11f0e08e","system_id":"levelo_inurba_marseille","lat":43.29046,"lon":5.37157,"is_reserved":false,"is_disabled":false,"rental_uris":{"android":"levelo://app?vid=994531ab-5b18-4e1d-bf5d-b26f11f0e08e","ios":"levelo://app?vid=994531ab-5b18-4e1d-bf5d-b26f11f0e08e"},"vehicle_type_id":"4","last_reported":1783382596,"current_range_meters":2800,"station_id":"ce4bh5p2rcd13ifvqe4g","pricing_plan_id":"cebpf4jnsgd1na2vs0mg"},{"bike_id":"3fcf6205-f23c-4cee-8363-04389955351d","system_id":"levelo_inurba_marseille","lat":43.22563,"lon":5.41628,"is_reserved":false,"is_disabled":true,"rental_uris":{"android":"levelo://app?vid=3fcf6205-f23c-4cee-8363-04389955351d","ios":"levelo://app?vid=3fcf6205-f23c-4cee-8363-04389955351d"},"vehicle_type_id":"4","last_reported":1783382596,"current_range_meters":2800,"station_id":"st_d2o4gvlbi1j2169b742g","pricing_plan_id":"cebpf4jnsgd1na2vs0mg"},{"bike_id":"700c44ce-0321-4baa-a469-9a23fb7d8608","system_id":"levelo_inurba_marseille","lat":43.2919,"lon":5.37155,"is_reserved":false,"is_disabled":false,"rental_uris":{"android":"levelo://app?vid=700c44ce-0321-4baa-a469-9a23fb7d8608","ios":"levelo://app?vid=700c44ce-0321-4baa-a469-9a23fb7d8608"},"vehicle_type_id":"4","last_reported":1783382596,"current_range_meters":2800,"station_id":"","pricing_plan_id":"cebpf4jnsgd1na2vs0mg"},{"bike_id":"0aacd0f5-8549-4a8f-9e00-1b8187b70e22","system_id":"levelo_inurba_marseille","lat":43.29725,"lon":5.38534,"is_reserved":false,"is_disabled":false,"rental_uris":{"android":"levelo://app?vid=0aacd0f5-8549-4a8f-9e00-1b8187b70e22","ios":"levelo://app?vid=0aacd0f5-8549-4a8f-9e00-1b8187b70e22"},"vehicle_type_id":"4","last_reported":1783382596,"current_range_meters":2800,"station_id":"","pricing_plan_id":"cebpf4jnsgd1na2vs0mg"},{"bike_id":"2d751e78-7522-451b-8408-be5ffc0a415f","system_id":"levelo_inurba_marseille","lat":43.2719,"lon":5.410078,"is_reserved":false,"is_disabled":false,"rental_uris":{"android":"levelo://app?vid=2d751e78-7522-451b-8408-be5ffc0a415f","ios":"levelo://app?vid=2d751e78-7522-451b-8408-be5ffc0a415f"},"vehicle_type_id":"4","last_reported":1783382596,"current_range_meters":2800,"station_id":"ce4bhl12rcd13ifvqgf0","pricing_plan_id":"cebpf4jnsgd1na2vs0mg"},{"bike_id":"2e249453-6630-4044-b6d1-645ec7a6e677","system_id":"levelo_inurba_marseille","lat":43.28927,"lon":5.36637,"is_reserved":false,"is_disabled":false,"rental_uris":{"android":"levelo://app?vid=2e249453-6630-4044-b6d1-645ec7a6e677","ios":"levelo://app?vid=2e249453-6630-4044-b6d1-645ec7a6e677"},"vehicle_type_id":"4","last_reported":1783382596,"current_range_meters":2800,"station_id":"ce4bhap2rcd13ifvqek0","pricing_plan_id":"cebpf4jnsgd1na2vs0mg"},{"bike_id":"acb6b183-d4d6-4d8e-974e-924b61f91a80","system_id":"levelo_inurba_marseille","lat":43.34404,"lon":5.42058,"is_reserved":false,"is_disabled":false,"rental_uris":{"android":"levelo://app?vid=acb6b183-d4d6-4d8e-974e-924b61f91a80","ios":"levelo://app?vid=acb6b183-d4d6-4d8e-974e-924b61f91a80"},"vehicle_type_id":"4","last_reported":1783382596,"current_range_meters":2800,"station_id":"","pricing_plan_id":"cebpf4jnsgd1na2vs0mg"},{"bike_id":"9aad7fb2-4b68-4ff1-a63e-5832ca4f6501","system_id":"levelo_inurba_marseille","lat":43.26916,"lon":5.38535,"is_reserved":false,"is_disabled":false,"rental_uris":{"android":"levelo://app?vid=9aad7fb2-4b68-4ff1-a63e-5832ca4f6501","ios":"levelo://app?vid=9aad7fb2-4b68-4ff1-a63e-5832ca4f6501"},"vehicle_type_id":"4","last_reported":1783382596,"current_range_meters":2800,"station_id":"","pricing_plan_id":"cebpf4jnsgd1na2vs0mg"},{"bike_id":"f7826c83-beb8-416f-bc97-d9c1cfbddb0b","system_id":"levelo_inurba_marseille","lat":43.25152,"lon":5.40481,"is_reserved":false,"is_disabled":false,"rental_uris":{"android":"levelo://app?vid=f7826c83-beb8-416f-bc97-d9c1cfbddb0b","ios":"levelo://app?vid=f7826c83-beb8-416f-bc97-d9c1cfbddb0b"},"vehicle_type_id":"4","last_reported":1783382596,"current_range_meters":2800,"station_id":"","pricing_plan_id":"cebpf4jnsgd1na2vs0mg"},{"bike_id":"a23fdff0-d8eb-4c43-835f-924ee1292ad2","system_id":"levelo_inurba_marseille","lat":43.3032,"lon":5.40439,"is_reserved":false,"is_disabled":false,"rental_uris":{"android":"levelo://app?vid=a23fdff0-d8eb-4c43-835f-924ee1292ad2","ios":"levelo://app?vid=a23fdff0-d8eb-4c43-835f-924ee1292ad2"},"vehicle_type_id":"4","last_reported":1783382596,"current_range_meters":2800,"station_id":"ce4bh012rcd13ifvqd10","pricing_plan_id":"cebpf4jnsgd1na2vs0mg"},{"bike_id":"1023a908-9665-4c19-b4e7-20631027e8e0","system_id":"levelo_inurba_marseille","lat":43.29622,"lon":5.38657,"is_reserved":false,"is_disabled":false,"rental_uris":{"android":"levelo://app?vid=1023a908-9665-4c19-b4e7-20631027e8e0","ios":"levelo://app?vid=1023a908-9665-4c19-b4e7-20631027e8e0"},"vehicle_type_id":"4","last_reported":1783382596,"current_range_meters":3200,"station_id":"","pricing_plan_id":"cebpf4jnsgd1na2vs0mg"},{"bike_id":"58b183a7-f417-40b3-bd08-c6553dfc83c1","system_id":"levelo_inurba_marseille","lat":43.29622,"lon":5.40605,"is_reserved":false,"is_disabled":false,"rental_uris":{"android":"levelo://app?vid=58b183a7-f417-40b3-bd08-c6553dfc83c1","ios":"levelo://app?vid=58b183a7-f417-40b3-bd08-c6553dfc83c1"},"vehicle_type_id":"4","last_reported":1783382596,"current_range_meters":3200,"station_id":"ce4bh0h2rcd13ifvqd60","pricing_plan_id":"cebpf4jnsgd1na2vs0mg"},{"bike_id":"4d52a61b-5c30-41df-a6ac-71b42f016aed","system_id":"levelo_inurba_marseille","lat":43.25861,"lon":5.39901,"is_reserved":false,"is_disabled":true,"rental_uris":{"android":"levelo://app?vid=4d52a61b-5c30-41df-a6ac-71b42f016aed","ios":"levelo://app?vid=4d52a61b-5c30-41df-a6ac-71b42f016aed"},"vehicle_type_id":"4","last_reported":1783382596,"current_range_meters":3200,"station_id":"ce4bhl92rcd13ifvqghg","pricing_plan_id":"cebpf4jnsgd1na2vs0mg"},{"bike_id":"635f15d3-94fb-4b96-bb93-1aa74bc4d00c","system_id":"levelo_inurba_marseille","lat":43.26929,"lon":5.38933,"is_reserved":false,"is_disabled":false,"rental_uris":{"android":"levelo://app?vid=635f15d3-94fb-4b96-bb93-1aa74bc4d00c","ios":"levelo://app?vid=635f15d3-94fb-4b96-bb93-1aa74bc4d00c"},"vehicle_type_id":"4","last_reported":1783382596,"current_range_meters":3200,"station_id":"ce4bhhh2rcd13ifvqfl0","pricing_plan_id":"cebpf4jnsgd1na2vs0mg"},{"bike_id":"ebb69cdb-f57c-486a-9d37-3814132e26e5","system_id":"levelo_inurba_marseille","lat":43.2804,"lon":5.36932,"is_reserved":false,"is_disabled":true,"rental_uris":{"android":"levelo://app?vid=ebb69cdb-f57c-486a-9d37-3814132e26e5","ios":"levelo://app?vid=ebb69cdb-f57c-486a-9d37-3814132e26e5"},"vehicle_type_id":"4","last_reported":1783382596,"current_range_meters":3200,"station_id":"ce4bha12rcd13ifvqef0","pricing_plan_id":"cebpf4jnsgd1na2vs0mg"},{"bike_id":"3f0f92cf-99db-4b24-8059-0d9856758533","system_id":"levelo_inurba_marseille","lat":43.27495,"lon":5.42451,"is_reserved":false,"is_disabled":false,"rental_uris":{"android":"levelo://app?vid=3f0f92cf-99db-4b24-8059-0d9856758533","ios":"levelo://app?vid=3f0f92cf-99db-4b24-8059-0d9856758533"},"vehicle_type_id":"4","last_reported":1783382596,"current_range_meters":3200,"station_id":"ce4bhn92rcd13ifvqgrg","pricing_plan_id":"cebpf4jnsgd1na2vs0mg"},{"bike_id":"dc35cf86-6aac-4a89-981b-39624eae6548","system_id":"levelo_inurba_marseille","lat":43.30314,"lon":5.4006,"is_reserved":false,"is_disabled":false,"rental_uris":{"android":"levelo://app?vid=dc35cf86-6aac-4a89-981b-39624eae6548","ios":"levelo://app?vid=dc35cf86-6aac-4a89-981b-39624eae6548"},"vehicle_type_id":"4","last_reported":1783382596,"current_range_meters":3200,"station_id":"ce4bgvh2rcd13ifvqcs0","pricing_plan_id":"cebpf4jnsgd1na2vs0mg"},{"bike_id":"c9445652-b236-402b-8ec1-fb5567a22b0f","system_id":"levelo_inurba_marseille","lat":43.24451,"lon":5.40947,"is_reserved":false,"is_disabled":false,"rental_uris":{"android":"levelo://app?vid=c9445652-b236-402b-8ec1-fb5567a22b0f","ios":"levelo://app?vid=c9445652-b236-402b-8ec1-fb5567a22b0f"},"vehicle_type_id":"4","last_reported":1783382596,"current_range_meters":3200,"station_id":"","pricing_plan_id":"cebpf4jnsgd1na2vs0mg"},{"bike_id":"0286511f-65d4-4258-b109-93ba4eb6c68e","system_id":"levelo_inurba_marseille","lat":43.29629,"lon":5.40611,"is_reserved":false,"is_disabled":false,"rental_uris":{"android":"levelo://app?vid=0286511f-65d4-4258-b109-93ba4eb6c68e","ios":"levelo://app?vid=0286511f-65d4-4258-b109-93ba4eb6c68e"},"vehicle_type_id":"4","last_reported":1783382596,"current_range_meters":3200,"station_id":"ce4bh0h2rcd13ifvqd60","pricing_plan_id":"cebpf4jnsgd1na2vs0mg"},{"bike_id":"b7ee4768-ee68-4ed6-95f3-2f0514460661","system_id":"levelo_inurba_marseille","lat":43.26777,"lon":5.39418,"is_reserved":false,"is_disabled":false,"rental_uris":{"android":"levelo://app?vid=b7ee4768-ee68-4ed6-95f3-2f0514460661","ios":"levelo://app?vid=b7ee4768-ee68-4ed6-95f3-2f0514460661"},"vehicle_type_id":"4","last_reported":1783382596,"current_range_meters":3200,"station_id":"ce4bhh12rcd13ifvqfg0","pricing_plan_id":"cebpf4jnsgd1na2vs0mg"},{"bike_id":"cd755516-c97d-416c-a40b-5f235709bb64","system_id":"levelo_inurba_marseille","lat":43.31325,"lon":5.39695,"is_reserved":false,"is_disabled":false,"rental_uris":{"android":"levelo://app?vid=cd755516-c97d-416c-a40b-5f235709bb64","ios":"levelo://app?vid=cd755516-c97d-416c-a40b-5f235709bb64"},"vehicle_type_id":"4","last_reported":1783382596,"current_range_meters":3600,"station_id":"ce4bgvp2rcd13ifvqcu0","pricing_plan_id":"cebpf4jnsgd1na2vs0mg"},{"bike_id":"6561da10-7a09-4fd9-b043-45bdb7ded2ef","system_id":"levelo_inurba_marseille","lat":43.25132,"lon":5.4034,"is_reserved":false,"is_disabled":true,"rental_uris":{"android":"levelo://app?vid=6561da10-7a09-4fd9-b043-45bdb7ded2ef","ios":"levelo://app?vid=6561da10-7a09-4fd9-b043-45bdb7ded2ef"},"vehicle_type_id":"4","last_reported":1783382596,"current_range_meters":3600,"station_id":"ce4bhlh2rcd13ifvqgig","pricing_plan_id":"cebpf4jnsgd1na2vs0mg"},{"bike_id":"138e49e7-8d22-4832-895c-d97d918d2d72","system_id":"levelo_inurba_marseille","lat":43.27817,"lon":5.3645,"is_reserved":false,"is_disabled":false,"rental_uris":{"android":"levelo://app?vid=138e49e7-8d22-4832-895c-d97d918d2d72","ios":"levelo://app?vid=138e49e7-8d22-4832-895c-d97d918d2d72"},"vehicle_type_id":"4","last_reported":1783382596,"current_range_meters":3600,"station_id":"","pricing_plan_id":"cebpf4jnsgd1na2vs0mg"},{"bike_id":"308aacec-0478-4771-8dd2-70edaa8d73aa","system_id":"levelo_inurba_marseille","lat":43.27489,"lon":5.42547,"is_reserved":false,"is_disabled":false,"rental_uris":{"android":"levelo://app?vid=308aacec-0478-4771-8dd2-70edaa8d73aa","ios":"levelo://app?vid=308aacec-0478-4771-8dd2-70edaa8d73aa"},"vehicle_type_id":"4","last_reported":1783382596,"current_range_meters":3600,"station_id":"st_d8t4bh7nbrqs73arha60","pricing_plan_id":"cebpf4jnsgd1na2vs0mg"},{"bike_id":"85375d55-e0d1-447d-809b-18247820754d","system_id":"levelo_inurba_marseille","lat":43.28921,"lon":5.48163,"is_reserved":false,"is_disabled":false,"rental_uris":{"android":"levelo://app?vid=85375d55-e0d1-447d-809b-18247820754d","ios":"levelo://app?vid=85375d55-e0d1-447d-809b-18247820754d"},"vehicle_type_id":"4","last_reported":1783382596,"current_range_meters":3600,"station_id":"","pricing_plan_id":"cebpf4jnsgd1na2vs0mg"},{"bike_id":"92e4a174-d1df-42ef-9a30-ba2243e83e35","system_id":"levelo_inurba_marseille","lat":43.272003,"lon":5.391746,"is_reserved":false,"is_disabled":false,"rental_uris":{"android":"levelo://app?vid=92e4a174-d1df-42ef-9a30-ba2243e83e35","ios":"levelo://app?vid=92e4a174-d1df-42ef-9a30-ba2243e83e35"},"vehicle_type_id":"4","last_reported":1783382596,"current_range_meters":3600,"station_id":"ce4bhhp2rcd13ifvqfm0","pricing_plan_id":"cebpf4jnsgd1na2vs0mg"},{"bike_id":"db8a891d-01a8-477c-86bb-61f9ddbc2ad3","system_id":"levelo_inurba_marseille","lat":43.24945,"lon":5.40501,"is_reserved":false,"is_disabled":false,"rental_uris":{"android":"levelo://app?vid=db8a891d-01a8-477c-86bb-61f9ddbc2ad3","ios":"levelo://app?vid=db8a891d-01a8-477c-86bb-61f9ddbc2ad3"},"vehicle_type_id":"4","last_reported":1783382596,"current_range_meters":3600,"station_id":"st_d2ngiaodas8pm72gd1h0","pricing_plan_id":"cebpf4jnsgd1na2vs0mg"},{"bike_id":"e1016c19-fba9-44ef-9d74-26916ff7d026","system_id":"levelo_inurba_marseille","lat":43.30295,"lon":5.40453,"is_reserved":false,"is_disabled":false,"rental_uris":{"android":"levelo://app?vid=e1016c19-fba9-44ef-9d74-26916ff7d026","ios":"levelo://app?vid=e1016c19-fba9-44ef-9d74-26916ff7d026"},"vehicle_type_id":"4","last_reported":1783382596,"current_range_meters":3600,"station_id":"ce4bh012rcd13ifvqd10","pricing_plan_id":"cebpf4jnsgd1na2vs0mg"},{"bike_id":"4508f1bf-b054-47ef-b47b-1a62a4f8a3e9","system_id":"levelo_inurba_marseille","lat":43.2282,"lon":5.34976,"is_reserved":false,"is_disabled":false,"rental_uris":{"android":"levelo://app?vid=4508f1bf-b054-47ef-b47b-1a62a4f8a3e9","ios":"levelo://app?vid=4508f1bf-b054-47ef-b47b-1a62a4f8a3e9"},"vehicle_type_id":"4","last_reported":1783382596,"current_range_meters":3600,"station_id":"","pricing_plan_id":"cebpf4jnsgd1na2vs0mg"},{"bike_id":"0c0c7219-2116-40ed-a579-e510aca1b985","system_id":"levelo_inurba_marseille","lat":43.26339,"lon":5.41088,"is_reserved":false,"is_disabled":false,"rental_uris":{"android":"levelo://app?vid=0c0c7219-2116-40ed-a579-e510aca1b985","ios":"levelo://app?vid=0c0c7219-2116-40ed-a579-e510aca1b985"},"vehicle_type_id":"4","last_reported":1783382596,"current_range_meters":3600,"station_id":"st_d4e5ca6na9uc73bfl5fg","pricing_plan_id":"cebpf4jnsgd1na2vs0mg"},{"bike_id":"66296cca-1fb1-4026-b28e-9962b7dd7cfc","system_id":"levelo_inurba_marseille","lat":43.296288,"lon":5.377172,"is_reserved":false,"is_disabled":true,"rental_uris":{"android":"levelo://app?vid=66296cca-1fb1-4026-b28e-9962b7dd7cfc","ios":"levelo://app?vid=66296cca-1fb1-4026-b28e-9962b7dd7cfc"},"vehicle_type_id":"4","last_reported":1783382596,"current_range_meters":3600,"station_id":"ce4bha92rcd13ifvqeh0","pricing_plan_id":"cebpf4jnsgd1na2vs0mg"},{"bike_id":"fc5d7b22-bed1-4640-a4b2-9379b1406486","system_id":"levelo_inurba_marseille","lat":43.29432,"lon":5.3843,"is_reserved":false,"is_disabled":true,"rental_uris":{"android":"levelo://app?vid=fc5d7b22-bed1-4640-a4b2-9379b1406486","ios":"levelo://app?vid=fc5d7b22-bed1-4640-a4b2-9379b1406486"},"vehicle_type_id":"4","last_reported":1783382596,"current_range_meters":3600,"station_id":"","pricing_plan_id":"cebpf4jnsgd1na2vs0mg"},{"bike_id":"87da481c-7e44-49ce-9617-64ee4bd27ca4","system_id":"levelo_inurba_marseille","lat":43.26416,"lon":5.39898,"is_reserved":false,"is_disabled":false,"rental_uris":{"android":"levelo://app?vid=87da481c-7e44-49ce-9617-64ee4bd27ca4","ios":"levelo://app?vid=87da481c-7e44-49ce-9617-64ee4bd27ca4"},"vehicle_type_id":"4","last_reported":1783382596,"current_range_meters":3600,"station_id":"","pricing_plan_id":"cebpf4jnsgd1na2vs0mg"},{"bike_id":"c1c88b11-92f5-437b-85af-b745aa920b32","system_id":"levelo_inurba_marseille","lat":43.26703,"lon":5.3873,"is_reserved":false,"is_disabled":false,"rental_uris":{"android":"levelo://app?vid=c1c88b11-92f5-437b-85af-b745aa920b32","ios":"levelo://app?vid=c1c88b11-92f5-437b-85af-b745aa920b32"},"vehicle_type_id":"4","last_reported":1783382596,"current_range_meters":3600,"station_id":"","pricing_plan_id":"cebpf4jnsgd1na2vs0mg"},{"bike_id":"c3d94bf3-19b7-443d-bc75-2bac8eb17cbe","system_id":"levelo_inurba_marseille","lat":43.3313,"lon":5.39842,"is_reserved":false,"is_disabled":false,"rental_uris":{"android":"levelo://app?vid=c3d94bf3-19b7-443d-bc75-2bac8eb17cbe","ios":"levelo://app?vid=c3d94bf3-19b7-443d-bc75-2bac8eb17cbe"},"vehicle_type_id":"4","last_reported":1783382596,"current_range_meters":4000,"station_id":"","pricing_plan_id":"cebpf4jnsgd1na2vs0mg"},{"bike_id":"fff6250b-43c6-49a4-86df-1a4ad13c407f","system_id":"levelo_inurba_marseille","lat":43.27372,"lon":5.36261,"is_reserved":false,"is_disabled":true,"rental_uris":{"android":"levelo://app?vid=fff6250b-43c6-49a4-86df-1a4ad13c407f","ios":"levelo://app?vid=fff6250b-43c6-49a4-86df-1a4ad13c407f"},"vehicle_type_id":"4","last_reported":1783382596,"current_range_meters":4000,"station_id":"ce4bhbh2rcd13ifvqeo0","pricing_plan_id":"cebpf4jnsgd1na2vs0mg"},{"bike_id":"c7f46942-974f-4c1c-83dc-d696204e3b0a","system_id":"levelo_inurba_marseille","lat":43.24942,"lon":5.40494,"is_reserved":false,"is_disabled":false,"rental_uris":{"android":"levelo://app?vid=c7f46942-974f-4c1c-83dc-d696204e3b0a","ios":"levelo://app?vid=c7f46942-974f-4c1c-83dc-d696204e3b0a"},"vehicle_type_id":"4","last_reported":1783382596,"current_range_meters":4000,"station_id":"st_d2ngiaodas8pm72gd1h0","pricing_plan_id":"cebpf4jnsgd1na2vs0mg"},{"bike_id":"871f3ed7-a4b0-4e09-9105-27dce2165e99","system_id":"levelo_inurba_marseille","lat":43.29871,"lon":5.38907,"is_reserved":false,"is_disabled":true,"rental_uris":{"android":"levelo://app?vid=871f3ed7-a4b0-4e09-9105-27dce2165e99","ios":"levelo://app?vid=871f3ed7-a4b0-4e09-9105-27dce2165e99"},"vehicle_type_id":"4","last_reported":1783382596,"current_range_meters":4000,"station_id":"ce4bh392rcd13ifvqdl0","pricing_plan_id":"cebpf4jnsgd1na2vs0mg"},{"bike_id":"c223056a-cee4-44b0-b411-9e874d6d5516","system_id":"levelo_inurba_marseille","lat":43.29489,"lon":5.39906,"is_reserved":false,"is_disabled":false,"rental_uris":{"android":"levelo://app?vid=c223056a-cee4-44b0-b411-9e874d6d5516","ios":"levelo://app?vid=c223056a-cee4-44b0-b411-9e874d6d5516"},"vehicle_type_id":"4","last_reported":1783382596,"current_range_meters":4000,"station_id":"","pricing_plan_id":"cebpf4jnsgd1na2vs0mg"},{"bike_id":"1b3387d5-b042-4c75-9dea-b2f5bf6f53d4","system_id":"levelo_inurba_marseille","lat":43.24185,"lon":5.39716,"is_reserved":false,"is_disabled":true,"rental_uris":{"android":"levelo://app?vid=1b3387d5-b042-4c75-9dea-b2f5bf6f53d4","ios":"levelo://app?vid=1b3387d5-b042-4c75-9dea-b2f5bf6f53d4"},"vehicle_type_id":"4","last_reported":1783382596,"current_range_meters":4000,"station_id":"ce4bhn12rcd13ifvqgpg","pricing_plan_id":"cebpf4jnsgd1na2vs0mg"},{"bike_id":"451d79a4-d61c-4c2b-8153-2e7a854d773a","system_id":"levelo_inurba_marseille","lat":43.26366,"lon":5.41068,"is_reserved":false,"is_disabled":false,"rental_uris":{"android":"levelo://app?vid=451d79a4-d61c-4c2b-8153-2e7a854d773a","ios":"levelo://app?vid=451d79a4-d61c-4c2b-8153-2e7a854d773a"},"vehicle_type_id":"4","last_reported":1783382596,"current_range_meters":4000,"station_id":"st_d4e5ca6na9uc73bfl5fg","pricing_plan_id":"cebpf4jnsgd1na2vs0mg"},{"bike_id":"331f399c-9b8d-4e57-9408-6ed4a411f0fd","system_id":"levelo_inurba_marseille","lat":43.28862,"lon":5.39299,"is_reserved":false,"is_disabled":false,"rental_uris":{"android":"levelo://app?vid=331f399c-9b8d-4e57-9408-6ed4a411f0fd","ios":"levelo://app?vid=331f399c-9b8d-4e57-9408-6ed4a411f0fd"},"vehicle_type_id":"4","last_reported":1783382596,"current_range_meters":4000,"station_id":"ce4bh2p2rcd13ifvqdi0","pricing_plan_id":"cebpf4jnsgd1na2vs0mg"},{"bike_id":"7a71c416-c3b5-4289-ad0e-531bcb18f06d","system_id":"levelo_inurba_marseille","lat":43.32067,"lon":5.37478,"is_reserved":false,"is_disabled":false,"rental_uris":{"android":"levelo://app?vid=7a71c416-c3b5-4289-ad0e-531bcb18f06d","ios":"levelo://app?vid=7a71c416-c3b5-4289-ad0e-531bcb18f06d"},"vehicle_type_id":"4","last_reported":1783382596,"current_range_meters":4000,"station_id":"","pricing_plan_id":"cebpf4jnsgd1na2vs0mg"},{"bike_id":"20caa1fc-06d5-4252-9f45-594b25108b35","system_id":"levelo_inurba_marseille","lat":43.284721,"lon":5.483971,"is_reserved":false,"is_disabled":false,"rental_uris":{"android":"levelo://app?vid=20caa1fc-06d5-4252-9f45-594b25108b35","ios":"levelo://app?vid=20caa1fc-06d5-4252-9f45-594b25108b35"},"vehicle_type_id":"4","last_reported":1783382596,"current_range_meters":4000,"station_id":"st_d3svhcjqgbts73a3dn0g","pricing_plan_id":"cebpf4jnsgd1na2vs0mg"},{"bike_id":"c24b0d68-14d9-44af-8b0c-35f8569c6d0c","system_id":"levelo_inurba_marseille","lat":43.28487,"lon":5.38536,"is_reserved":false,"is_disabled":true,"rental_uris":{"android":"levelo://app?vid=c24b0d68-14d9-44af-8b0c-35f8569c6d0c","ios":"levelo://app?vid=c24b0d68-14d9-44af-8b0c-35f8569c6d0c"},"vehicle_type_id":"4","last_reported":1783382596,"current_range_meters":4000,"station_id":"ce4bh8p2rcd13ifvqeb0","pricing_plan_id":"cebpf4jnsgd1na2vs0mg"},{"bike_id":"dc61f3ca-a8fb-4db0-b908-1581f301f45a","system_id":"levelo_inurba_marseille","lat":43.26548,"lon":5.39025,"is_reserved":false,"is_disabled":false,"rental_uris":{"android":"levelo://app?vid=dc61f3ca-a8fb-4db0-b908-1581f301f45a","ios":"levelo://app?vid=dc61f3ca-a8fb-4db0-b908-1581f301f45a"},"vehicle_type_id":"4","last_reported":1783382596,"current_range_meters":4000,"station_id":"ce4bhe12rcd13ifvqf30","pricing_plan_id":"cebpf4jnsgd1na2vs0mg"},{"bike_id":"24101c5c-8eb7-4f51-a037-e1fbe9f469c5","system_id":"levelo_inurba_marseille","lat":43.2498,"lon":5.37929,"is_reserved":false,"is_disabled":false,"rental_uris":{"android":"levelo://app?vid=24101c5c-8eb7-4f51-a037-e1fbe9f469c5","ios":"levelo://app?vid=24101c5c-8eb7-4f51-a037-e1fbe9f469c5"},"vehicle_type_id":"4","last_reported":1783382596,"current_range_meters":4000,"station_id":"","pricing_plan_id":"cebpf4jnsgd1na2vs0mg"},{"bike_id":"d0a0bbf6-38fc-4522-9194-0862de6eee0c","system_id":"levelo_inurba_marseille","lat":43.29377,"lon":5.37864,"is_reserved":false,"is_disabled":false,"rental_uris":{"android":"levelo://app?vid=d0a0bbf6-38fc-4522-9194-0862de6eee0c","ios":"levelo://app?vid=d0a0bbf6-38fc-4522-9194-0862de6eee0c"},"vehicle_type_id":"4","last_reported":1783382596,"current_range_meters":4000,"station_id":"ce4bgjh2rcd13ifvqbf0","pricing_plan_id":"cebpf4jnsgd1na2vs0mg"},{"bike_id":"c31a66f0-c0a1-431d-ad70-44a2638d224e","system_id":"levelo_inurba_marseille","lat":43.25119,"lon":5.40324,"is_reserved":false,"is_disabled":false,"rental_uris":{"android":"levelo://app?vid=c31a66f0-c0a1-431d-ad70-44a2638d224e","ios":"levelo://app?vid=c31a66f0-c0a1-431d-ad70-44a2638d224e"},"vehicle_type_id":"4","last_reported":1783382596,"current_range_meters":4000,"station_id":"ce4bhlh2rcd13ifvqgig","pricing_plan_id":"cebpf4jnsgd1na2vs0mg"},{"bike_id":"72ceab28-108a-4555-b0ac-c2938c047c38","system_id":"levelo_inurba_marseille","lat":43.30596,"lon":5.37215,"is_reserved":false,"is_disabled":false,"rental_uris":{"android":"levelo://app?vid=72ceab28-108a-4555-b0ac-c2938c047c38","ios":"levelo://app?vid=72ceab28-108a-4555-b0ac-c2938c047c38"},"vehicle_type_id":"4","last_reported":1783382596,"current_range_meters":4000,"station_id":"ce4bgqh2rcd13ifvqc4g","pricing_plan_id":"cebpf4jnsgd1na2vs0mg"},{"bike_id":"f0418703-7a27-4dca-9433-bdd8213135dc","system_id":"levelo_inurba_marseille","lat":43.21192,"lon":5.35072,"is_reserved":false,"is_disabled":false,"rental_uris":{"android":"levelo://app?vid=f0418703-7a27-4dca-9433-bdd8213135dc","ios":"levelo://app?vid=f0418703-7a27-4dca-9433-bdd8213135dc"},"vehicle_type_id":"4","last_reported":1783382596,"current_range_meters":4400,"station_id":"st_cvj6sg6p6f1abm77japg","pricing_plan_id":"cebpf4jnsgd1na2vs0mg"},{"bike_id":"268860b7-a6e7-4b6e-a857-94d1ec5f8071","system_id":"levelo_inurba_marseille","lat":43.29176,"lon":5.35793,"is_reserved":false,"is_disabled":true,"rental_uris":{"android":"levelo://app?vid=268860b7-a6e7-4b6e-a857-94d1ec5f8071","ios":"levelo://app?vid=268860b7-a6e7-4b6e-a857-94d1ec5f8071"},"vehicle_type_id":"4","last_reported":1783382596,"current_range_meters":4400,"station_id":"ce4bhb12rcd13ifvqel0","pricing_plan_id":"cebpf4jnsgd1na2vs0mg"},{"bike_id":"6584fea4-3aeb-4646-91eb-6103f8071261","system_id":"levelo_inurba_marseille","lat":43.31094,"lon":5.4007,"is_reserved":false,"is_disabled":false,"rental_uris":{"android":"levelo://app?vid=6584fea4-3aeb-4646-91eb-6103f8071261","ios":"levelo://app?vid=6584fea4-3aeb-4646-91eb-6103f8071261"},"vehicle_type_id":"4","last_reported":1783382596,"current_range_meters":4400,"station_id":"","pricing_plan_id":"cebpf4jnsgd1na2vs0mg"},{"bike_id":"fb2e8bd1-8803-4d96-b5e9-5618c029fbea","system_id":"levelo_inurba_marseille","lat":43.28702,"lon":5.37948,"is_reserved":false,"is_disabled":true,"rental_uris":{"android":"levelo://app?vid=fb2e8bd1-8803-4d96-b5e9-5618c029fbea","ios":"levelo://app?vid=fb2e8bd1-8803-4d96-b5e9-5618c029fbea"},"vehicle_type_id":"4","last_reported":1783382596,"current_range_meters":4400,"station_id":"ce4bh9p2rcd13ifvqec0","pricing_plan_id":"cebpf4jnsgd1na2vs0mg"},{"bike_id":"fd4b120f-ba7b-43c8-9b43-f664e5067ccb","system_id":"levelo_inurba_marseille","lat":43.26235,"lon":5.38786,"is_reserved":false,"is_disabled":false,"rental_uris":{"android":"levelo://app?vid=fd4b120f-ba7b-43c8-9b43-f664e5067ccb","ios":"levelo://app?vid=fd4b120f-ba7b-43c8-9b43-f664e5067ccb"},"vehicle_type_id":"4","last_reported":1783382596,"current_range_meters":4400,"station_id":"st_d8gjfg747rts73coq3b0","pricing_plan_id":"cebpf4jnsgd1na2vs0mg"},{"bike_id":"5f8491b7-6afe-4763-8c6d-f7eadff0e4de","system_id":"levelo_inurba_marseille","lat":43.26512,"lon":5.36949,"is_reserved":false,"is_disabled":true,"rental_uris":{"android":"levelo://app?vid=5f8491b7-6afe-4763-8c6d-f7eadff0e4de","ios":"levelo://app?vid=5f8491b7-6afe-4763-8c6d-f7eadff0e4de"},"vehicle_type_id":"4","last_reported":1783382596,"current_range_meters":4400,"station_id":"","pricing_plan_id":"cebpf4jnsgd1na2vs0mg"},{"bike_id":"92a0c0cb-0818-4864-a9ba-8af564118461","system_id":"levelo_inurba_marseille","lat":43.32394,"lon":5.3739,"is_reserved":false,"is_disabled":false,"rental_uris":{"android":"levelo://app?vid=92a0c0cb-0818-4864-a9ba-8af564118461","ios":"levelo://app?vid=92a0c0cb-0818-4864-a9ba-8af564118461"},"vehicle_type_id":"4","last_reported":1783382596,"current_range_meters":4400,"station_id":"","pricing_plan_id":"cebpf4jnsgd1na2vs0mg"},{"bike_id":"e9c7bfa8-5874-4f90-ad84-6bece76dfa23","system_id":"levelo_inurba_marseille","lat":43.29431,"lon":5.35949,"is_reserved":false,"is_disabled":false,"rental_uris":{"android":"levelo://app?vid=e9c7bfa8-5874-4f90-ad84-6bece76dfa23","ios":"levelo://app?vid=e9c7bfa8-5874-4f90-ad84-6bece76dfa23"},"vehicle_type_id":"4","last_reported":1783382596,"current_range_meters":4400,"station_id":"","pricing_plan_id":"cebpf4jnsgd1na2vs0mg"},{"bike_id":"d2974c90-490a-4ce0-82b2-9802a308be0c","system_id":"levelo_inurba_marseille","lat":43.28688,"lon":5.39995,"is_reserved":false,"is_disabled":true,"rental_uris":{"android":"levelo://app?vid=d2974c90-490a-4ce0-82b2-9802a308be0c","ios":"levelo://app?vid=d2974c90-490a-4ce0-82b2-9802a308be0c"},"vehicle_type_id":"4","last_reported":1783382596,"current_range_meters":4400,"station_id":"ce4bho92rcd13ifvqh3g","pricing_plan_id":"cebpf4jnsgd1na2vs0mg"},{"bike_id":"c09d7abd-1302-4abc-870c-e8de8b056545","system_id":"levelo_inurba_marseille","lat":43.28404,"lon":5.37524,"is_reserved":false,"is_disabled":false,"rental_uris":{"android":"levelo://app?vid=c09d7abd-1302-4abc-870c-e8de8b056545","ios":"levelo://app?vid=c09d7abd-1302-4abc-870c-e8de8b056545"},"vehicle_type_id":"4","last_reported":1783382596,"current_range_meters":4400,"station_id":"ce4bh412rcd13ifvqds0","pricing_plan_id":"cebpf4jnsgd1na2vs0mg"},{"bike_id":"19bd13c8-288d-4a5d-b3f9-03c90cb28fed","system_id":"levelo_inurba_marseille","lat":43.26348,"lon":5.38667,"is_reserved":false,"is_disabled":false,"rental_uris":{"android":"levelo://app?vid=19bd13c8-288d-4a5d-b3f9-03c90cb28fed","ios":"levelo://app?vid=19bd13c8-288d-4a5d-b3f9-03c90cb28fed"},"vehicle_type_id":"4","last_reported":1783382596,"current_range_meters":4400,"station_id":"","pricing_plan_id":"cebpf4jnsgd1na2vs0mg"},{"bike_id":"927f034a-0960-4153-81f1-316c469b9213","system_id":"levelo_inurba_marseille","lat":43.25871,"lon":5.39908,"is_reserved":false,"is_disabled":true,"rental_uris":{"android":"levelo://app?vid=927f034a-0960-4153-81f1-316c469b9213","ios":"levelo://app?vid=927f034a-0960-4153-81f1-316c469b9213"},"vehicle_type_id":"4","last_reported":1783382596,"current_range_meters":4400,"station_id":"ce4bhl92rcd13ifvqghg","pricing_plan_id":"cebpf4jnsgd1na2vs0mg"},{"bike_id":"afe9a566-d8c0-4f06-a183-9935532dd6e0","system_id":"levelo_inurba_marseille","lat":43.25286,"lon":5.37498,"is_reserved":false,"is_disabled":false,"rental_uris":{"android":"levelo://app?vid=afe9a566-d8c0-4f06-a183-9935532dd6e0","ios":"levelo://app?vid=afe9a566-d8c0-4f06-a183-9935532dd6e0"},"vehicle_type_id":"4","last_reported":1783382596,"current_range_meters":4400,"station_id":"","pricing_plan_id":"cebpf4jnsgd1na2vs0mg"},{"bike_id":"f094764f-2ddf-4452-be4a-c8029998973a","system_id":"levelo_inurba_marseille","lat":43.26684,"lon":5.39528,"is_reserved":false,"is_disabled":false,"rental_uris":{"android":"levelo://app?vid=f094764f-2ddf-4452-be4a-c8029998973a","ios":"levelo://app?vid=f094764f-2ddf-4452-be4a-c8029998973a"},"vehicle_type_id":"4","last_reported":1783382596,"current_range_meters":4400,"station_id":"","pricing_plan_id":"cebpf4jnsgd1na2vs0mg"},{"bike_id":"1c1c18a4-14d4-4e02-adef-8ff08589b966","system_id":"levelo_inurba_marseille","lat":43.29959,"lon":5.41317,"is_reserved":false,"is_disabled":false,"rental_uris":{"android":"levelo://app?vid=1c1c18a4-14d4-4e02-adef-8ff08589b966","ios":"levelo://app?vid=1c1c18a4-14d4-4e02-adef-8ff08589b966"},"vehicle_type_id":"4","last_reported":1783382596,"current_range_meters":4400,"station_id":"ce4bhp12rcd13ifvqh9g","pricing_plan_id":"cebpf4jnsgd1na2vs0mg"},{"bike_id":"da995ece-b413-4ae7-8af4-b3e727781c7e","system_id":"levelo_inurba_marseille","lat":43.28474,"lon":5.43732,"is_reserved":false,"is_disabled":false,"rental_uris":{"android":"levelo://app?vid=da995ece-b413-4ae7-8af4-b3e727781c7e","ios":"levelo://app?vid=da995ece-b413-4ae7-8af4-b3e727781c7e"},"vehicle_type_id":"4","last_reported":1783382596,"current_range_meters":4400,"station_id":"","pricing_plan_id":"cebpf4jnsgd1na2vs0mg"},{"bike_id":"85706f81-4982-4276-b755-d4181aa895f9","system_id":"levelo_inurba_marseille","lat":43.28384,"lon":5.38465,"is_reserved":false,"is_disabled":false,"rental_uris":{"android":"levelo://app?vid=85706f81-4982-4276-b755-d4181aa895f9","ios":"levelo://app?vid=85706f81-4982-4276-b755-d4181aa895f9"},"vehicle_type_id":"4","last_reported":1783382596,"current_range_meters":4800,"station_id":"","pricing_plan_id":"cebpf4jnsgd1na2vs0mg"},{"bike_id":"270c8d54-382f-4c26-a411-a00cd804e229","system_id":"levelo_inurba_marseille","lat":43.292627,"lon":5.408999,"is_reserved":false,"is_disabled":false,"rental_uris":{"android":"levelo://app?vid=270c8d54-382f-4c26-a411-a00cd804e229","ios":"levelo://app?vid=270c8d54-382f-4c26-a411-a00cd804e229"},"vehicle_type_id":"4","last_reported":1783382596,"current_range_meters":4800,"station_id":"ce4bh192rcd13ifvqdc0","pricing_plan_id":"cebpf4jnsgd1na2vs0mg"},{"bike_id":"4bb72506-4f3b-4ca7-992e-20cc9c7bb1d6","system_id":"levelo_inurba_marseille","lat":43.24705,"lon":5.41758,"is_reserved":false,"is_disabled":false,"rental_uris":{"android":"levelo://app?vid=4bb72506-4f3b-4ca7-992e-20cc9c7bb1d6","ios":"levelo://app?vid=4bb72506-4f3b-4ca7-992e-20cc9c7bb1d6"},"vehicle_type_id":"4","last_reported":1783382596,"current_range_meters":4800,"station_id":"","pricing_plan_id":"cebpf4jnsgd1na2vs0mg"},{"bike_id":"740e3abb-7a97-4df1-905d-538654b5ac19","system_id":"levelo_inurba_marseille","lat":43.30128,"lon":5.38772,"is_reserved":false,"is_disabled":true,"rental_uris":{"android":"levelo://app?vid=740e3abb-7a97-4df1-905d-538654b5ac19","ios":"levelo://app?vid=740e3abb-7a97-4df1-905d-538654b5ac19"},"vehicle_type_id":"4","last_reported":1783382596,"current_range_meters":4800,"station_id":"ce4bghh2rcd13ifvqb60","pricing_plan_id":"cebpf4jnsgd1na2vs0mg"},{"bike_id":"d8256cb6-cd00-4684-a772-e28a48bc80a1","system_id":"levelo_inurba_marseille","lat":43.23154,"lon":5.43712,"is_reserved":false,"is_disabled":false,"rental_uris":{"android":"levelo://app?vid=d8256cb6-cd00-4684-a772-e28a48bc80a1","ios":"levelo://app?vid=d8256cb6-cd00-4684-a772-e28a48bc80a1"},"vehicle_type_id":"4","last_reported":1783382596,"current_range_meters":4800,"station_id":"ce4bhmp2rcd13ifvqgog","pricing_plan_id":"cebpf4jnsgd1na2vs0mg"},{"bike_id":"ec2af0c4-368d-42f1-99ce-3cfbdfae1d56","system_id":"levelo_inurba_marseille","lat":43.29352,"lon":5.40242,"is_reserved":false,"is_disabled":false,"rental_uris":{"android":"levelo://app?vid=ec2af0c4-368d-42f1-99ce-3cfbdfae1d56","ios":"levelo://app?vid=ec2af0c4-368d-42f1-99ce-3cfbdfae1d56"},"vehicle_type_id":"4","last_reported":1783382596,"current_range_meters":4800,"station_id":"","pricing_plan_id":"cebpf4jnsgd1na2vs0mg"},{"bike_id":"bc7af73c-87f6-4ffe-a5f6-2776458a605d","system_id":"levelo_inurba_marseille","lat":43.2318,"lon":5.39981,"is_reserved":false,"is_disabled":false,"rental_uris":{"android":"levelo://app?vid=bc7af73c-87f6-4ffe-a5f6-2776458a605d","ios":"levelo://app?vid=bc7af73c-87f6-4ffe-a5f6-2776458a605d"},"vehicle_type_id":"4","last_reported":1783382596,"current_range_meters":4800,"station_id":"ce4bhn12rcd13ifvqgqg","pricing_plan_id":"cebpf4jnsgd1na2vs0mg"},{"bike_id":"c973cb87-b014-4ec8-afab-5b95e6fd4602","system_id":"levelo_inurba_marseille","lat":43.28368,"lon":5.38096,"is_reserved":false,"is_disabled":false,"rental_uris":{"android":"levelo://app?vid=c973cb87-b014-4ec8-afab-5b95e6fd4602","ios":"levelo://app?vid=c973cb87-b014-4ec8-afab-5b95e6fd4602"},"vehicle_type_id":"4","last_reported":1783382596,"current_range_meters":4800,"station_id":"ce4bh412rcd13ifvqdr0","pricing_plan_id":"cebpf4jnsgd1na2vs0mg"},{"bike_id":"754b0070-b428-4de3-8a04-dc3802ef9204","system_id":"levelo_inurba_marseille","lat":43.29799,"lon":5.40417,"is_reserved":false,"is_disabled":false,"rental_uris":{"android":"levelo://app?vid=754b0070-b428-4de3-8a04-dc3802ef9204","ios":"levelo://app?vid=754b0070-b428-4de3-8a04-dc3802ef9204"},"vehicle_type_id":"4","last_reported":1783382596,"current_range_meters":4800,"station_id":"ce4bh112rcd13ifvqd90","pricing_plan_id":"cebpf4jnsgd1na2vs0mg"},{"bike_id":"151318e1-1ede-4f1c-8297-71ff21b43437","system_id":"levelo_inurba_marseille","lat":43.289,"lon":5.37755,"is_reserved":false,"is_disabled":false,"rental_uris":{"android":"levelo://app?vid=151318e1-1ede-4f1c-8297-71ff21b43437","ios":"levelo://app?vid=151318e1-1ede-4f1c-8297-71ff21b43437"},"vehicle_type_id":"4","last_reported":1783382596,"current_range_meters":4800,"station_id":"","pricing_plan_id":"cebpf4jnsgd1na2vs0mg"},{"bike_id":"4daf5814-7cfb-4b25-9501-2853b4c01dba","system_id":"levelo_inurba_marseille","lat":43.30947,"lon":5.39057,"is_reserved":false,"is_disabled":false,"rental_uris":{"android":"levelo://app?vid=4daf5814-7cfb-4b25-9501-2853b4c01dba","ios":"levelo://app?vid=4daf5814-7cfb-4b25-9501-2853b4c01dba"},"vehicle_type_id":"4","last_reported":1783382596,"current_range_meters":5600,"station_id":"ce4bgup2rcd13ifvqco0","pricing_plan_id":"cebpf4jnsgd1na2vs0mg"},{"bike_id":"72db5589-dfd0-442a-904d-e9c5bdcd1d4f","system_id":"levelo_inurba_marseille","lat":43.31607,"lon":5.37944,"is_reserved":false,"is_disabled":false,"rental_uris":{"android":"levelo://app?vid=72db5589-dfd0-442a-904d-e9c5bdcd1d4f","ios":"levelo://app?vid=72db5589-dfd0-442a-904d-e9c5bdcd1d4f"},"vehicle_type_id":"4","last_reported":1783382596,"current_range_meters":5600,"station_id":"","pricing_plan_id":"cebpf4jnsgd1na2vs0mg"},{"bike_id":"4b71ea7a-3ffc-4ca2-a5b0-91fcaaf1579c","system_id":"levelo_inurba_marseille","lat":43.30314,"lon":5.38243,"is_reserved":false,"is_disabled":false,"rental_uris":{"android":"levelo://app?vid=4b71ea7a-3ffc-4ca2-a5b0-91fcaaf1579c","ios":"levelo://app?vid=4b71ea7a-3ffc-4ca2-a5b0-91fcaaf1579c"},"vehicle_type_id":"4","last_reported":1783382596,"current_range_meters":5600,"station_id":"","pricing_plan_id":"cebpf4jnsgd1na2vs0mg"},{"bike_id":"1c46beaa-fe19-4c52-8d10-044cf364706c","system_id":"levelo_inurba_marseille","lat":43.24548,"lon":5.39527,"is_reserved":false,"is_disabled":false,"rental_uris":{"android":"levelo://app?vid=1c46beaa-fe19-4c52-8d10-044cf364706c","ios":"levelo://app?vid=1c46beaa-fe19-4c52-8d10-044cf364706c"},"vehicle_type_id":"4","last_reported":1783382596,"current_range_meters":5600,"station_id":"ce4bhlp2rcd13ifvqgjg","pricing_plan_id":"cebpf4jnsgd1na2vs0mg"},{"bike_id":"773f950c-1a37-4f11-85a7-7cbf338fd285","system_id":"levelo_inurba_marseille","lat":43.24954,"lon":5.40508,"is_reserved":false,"is_disabled":false,"rental_uris":{"android":"levelo://app?vid=773f950c-1a37-4f11-85a7-7cbf338fd285","ios":"levelo://app?vid=773f950c-1a37-4f11-85a7-7cbf338fd285"},"vehicle_type_id":"4","last_reported":1783382596,"current_range_meters":5600,"station_id":"st_d2ngiaodas8pm72gd1h0","pricing_plan_id":"cebpf4jnsgd1na2vs0mg"},{"bike_id":"8106ca99-f827-40dd-90a5-a5e8ac3a1d30","system_id":"levelo_inurba_marseille","lat":43.28481,"lon":5.48387,"is_reserved":false,"is_disabled":false,"rental_uris":{"android":"levelo://app?vid=8106ca99-f827-40dd-90a5-a5e8ac3a1d30","ios":"levelo://app?vid=8106ca99-f827-40dd-90a5-a5e8ac3a1d30"},"vehicle_type_id":"4","last_reported":1783382596,"current_range_meters":5600,"station_id":"st_d3svhcjqgbts73a3dn0g","pricing_plan_id":"cebpf4jnsgd1na2vs0mg"},{"bike_id":"9db47c28-d135-4619-b753-4c4fa126f9fd","system_id":"levelo_inurba_marseille","lat":43.29208,"lon":5.36058,"is_reserved":false,"is_disabled":true,"rental_uris":{"android":"levelo://app?vid=9db47c28-d135-4619-b753-4c4fa126f9fd","ios":"levelo://app?vid=9db47c28-d135-4619-b753-4c4fa126f9fd"},"vehicle_type_id":"4","last_reported":1783382596,"current_range_meters":5600,"station_id":"ce4bhbh2rcd13ifvqeqg","pricing_plan_id":"cebpf4jnsgd1na2vs0mg"},{"bike_id":"2361af77-a100-433a-ae8c-fac4e1ee0b95","system_id":"levelo_inurba_marseille","lat":43.23055,"lon":5.35491,"is_reserved":false,"is_disabled":false,"rental_uris":{"android":"levelo://app?vid=2361af77-a100-433a-ae8c-fac4e1ee0b95","ios":"levelo://app?vid=2361af77-a100-433a-ae8c-fac4e1ee0b95"},"vehicle_type_id":"4","last_reported":1783382596,"current_range_meters":5600,"station_id":"cpo3342slgdg3j2ifvpg","pricing_plan_id":"cebpf4jnsgd1na2vs0mg"},{"bike_id":"faae4998-2660-4cc6-a836-6400055fc88a","system_id":"levelo_inurba_marseille","lat":43.29861,"lon":5.36291,"is_reserved":false,"is_disabled":true,"rental_uris":{"android":"levelo://app?vid=faae4998-2660-4cc6-a836-6400055fc88a","ios":"levelo://app?vid=faae4998-2660-4cc6-a836-6400055fc88a"},"vehicle_type_id":"4","last_reported":1783382596,"current_range_meters":5600,"station_id":"ce4bgpp2rcd13ifvqc3g","pricing_plan_id":"cebpf4jnsgd1na2vs0mg"},{"bike_id":"14e98b39-b7a8-4608-8aac-1d8635ff8bf5","system_id":"levelo_inurba_marseille","lat":43.284731,"lon":5.483978,"is_reserved":false,"is_disabled":false,"rental_uris":{"android":"levelo://app?vid=14e98b39-b7a8-4608-8aac-1d8635ff8bf5","ios":"levelo://app?vid=14e98b39-b7a8-4608-8aac-1d8635ff8bf5"},"vehicle_type_id":"4","last_reported":1783382596,"current_range_meters":5600,"station_id":"st_d3svhcjqgbts73a3dn0g","pricing_plan_id":"cebpf4jnsgd1na2vs0mg"},{"bike_id":"7678e258-73ee-4d26-8d86-8beb357c78a0","system_id":"levelo_inurba_marseille","lat":43.24357,"lon":5.40592,"is_reserved":false,"is_disabled":false,"rental_uris":{"android":"levelo://app?vid=7678e258-73ee-4d26-8d86-8beb357c78a0","ios":"levelo://app?vid=7678e258-73ee-4d26-8d86-8beb357c78a0"},"vehicle_type_id":"4","last_reported":1783382596,"current_range_meters":5600,"station_id":"","pricing_plan_id":"cebpf4jnsgd1na2vs0mg"},{"bike_id":"d0626c6f-c1b6-4f88-acc1-06812b059f24","system_id":"levelo_inurba_marseille","lat":43.28439,"lon":5.39182,"is_reserved":false,"is_disabled":false,"rental_uris":{"android":"levelo://app?vid=d0626c6f-c1b6-4f88-acc1-06812b059f24","ios":"levelo://app?vid=d0626c6f-c1b6-4f88-acc1-06812b059f24"},"vehicle_type_id":"4","last_reported":1783382596,"current_range_meters":5600,"station_id":"ce4bhoh2rcd13ifvqh5g","pricing_plan_id":"cebpf4jnsgd1na2vs0mg"},{"bike_id":"d7c33e32-1bf6-466d-abaf-8816e2645afe","system_id":"levelo_inurba_marseille","lat":43.3188,"lon":5.40757,"is_reserved":false,"is_disabled":true,"rental_uris":{"android":"levelo://app?vid=d7c33e32-1bf6-466d-abaf-8816e2645afe","ios":"levelo://app?vid=d7c33e32-1bf6-466d-abaf-8816e2645afe"},"vehicle_type_id":"4","last_reported":1783382596,"current_range_meters":6000,"station_id":"ce4bhq12rcd13ifvqhig","pricing_plan_id":"cebpf4jnsgd1na2vs0mg"},{"bike_id":"67ea3e5f-03d7-4b3c-8318-45951434bc93","system_id":"levelo_inurba_marseille","lat":43.30215,"lon":5.39463,"is_reserved":false,"is_disabled":false,"rental_uris":{"android":"levelo://app?vid=67ea3e5f-03d7-4b3c-8318-45951434bc93","ios":"levelo://app?vid=67ea3e5f-03d7-4b3c-8318-45951434bc93"},"vehicle_type_id":"4","last_reported":1783382596,"current_range_meters":6000,"station_id":"ce4bh0p2rcd13ifvqd70","pricing_plan_id":"cebpf4jnsgd1na2vs0mg"},{"bike_id":"4b030e34-8697-41cc-a2b7-60a40f2af919","system_id":"levelo_inurba_marseille","lat":43.2841,"lon":5.37524,"is_reserved":false,"is_disabled":false,"rental_uris":{"android":"levelo://app?vid=4b030e34-8697-41cc-a2b7-60a40f2af919","ios":"levelo://app?vid=4b030e34-8697-41cc-a2b7-60a40f2af919"},"vehicle_type_id":"4","last_reported":1783382596,"current_range_meters":6000,"station_id":"ce4bh412rcd13ifvqds0","pricing_plan_id":"cebpf4jnsgd1na2vs0mg"},{"bike_id":"7fb54030-81c0-4653-ab50-a6e69be8636f","system_id":"levelo_inurba_marseille","lat":43.26042,"lon":5.37474,"is_reserved":false,"is_disabled":true,"rental_uris":{"android":"levelo://app?vid=7fb54030-81c0-4653-ab50-a6e69be8636f","ios":"levelo://app?vid=7fb54030-81c0-4653-ab50-a6e69be8636f"},"vehicle_type_id":"4","last_reported":1783382596,"current_range_meters":6000,"station_id":"ce4bhgh2rcd13ifvqfa0","pricing_plan_id":"cebpf4jnsgd1na2vs0mg"},{"bike_id":"93d2e4bc-15f6-4c1e-9976-2b0f547a1402","system_id":"levelo_inurba_marseille","lat":43.23188,"lon":5.39993,"is_reserved":false,"is_disabled":false,"rental_uris":{"android":"levelo://app?vid=93d2e4bc-15f6-4c1e-9976-2b0f547a1402","ios":"levelo://app?vid=93d2e4bc-15f6-4c1e-9976-2b0f547a1402"},"vehicle_type_id":"4","last_reported":1783382596,"current_range_meters":6000,"station_id":"ce4bhn12rcd13ifvqgqg","pricing_plan_id":"cebpf4jnsgd1na2vs0mg"},{"bike_id":"efce0065-4524-417a-a35d-e4c1a8a9f922","system_id":"levelo_inurba_marseille","lat":43.2821,"lon":5.3489,"is_reserved":false,"is_disabled":false,"rental_uris":{"android":"levelo://app?vid=efce0065-4524-417a-a35d-e4c1a8a9f922","ios":"levelo://app?vid=efce0065-4524-417a-a35d-e4c1a8a9f922"},"vehicle_type_id":"4","last_reported":1783382596,"current_range_meters":6000,"station_id":"","pricing_plan_id":"cebpf4jnsgd1na2vs0mg"},{"bike_id":"5c27c21d-e49d-4272-89f4-b58751c04dc1","system_id":"levelo_inurba_marseille","lat":43.23428,"lon":5.38144,"is_reserved":false,"is_disabled":false,"rental_uris":{"android":"levelo://app?vid=5c27c21d-e49d-4272-89f4-b58751c04dc1","ios":"levelo://app?vid=5c27c21d-e49d-4272-89f4-b58751c04dc1"},"vehicle_type_id":"4","last_reported":1783382596,"current_range_meters":6000,"station_id":"","pricing_plan_id":"cebpf4jnsgd1na2vs0mg"},{"bike_id":"10eef851-cd11-4897-8f5c-5346e97e8cbe","system_id":"levelo_inurba_marseille","lat":43.2389,"lon":5.37453,"is_reserved":false,"is_disabled":false,"rental_uris":{"android":"levelo://app?vid=10eef851-cd11-4897-8f5c-5346e97e8cbe","ios":"levelo://app?vid=10eef851-cd11-4897-8f5c-5346e97e8cbe"},"vehicle_type_id":"4","last_reported":1783382596,"current_range_meters":6000,"station_id":"st_d6sm7csbq4hs73f8fpjg","pricing_plan_id":"cebpf4jnsgd1na2vs0mg"},{"bike_id":"27fc9101-a369-4e47-9076-0eb666625f7a","system_id":"levelo_inurba_marseille","lat":43.31266,"lon":5.4018,"is_reserved":false,"is_disabled":false,"rental_uris":{"android":"levelo://app?vid=27fc9101-a369-4e47-9076-0eb666625f7a","ios":"levelo://app?vid=27fc9101-a369-4e47-9076-0eb666625f7a"},"vehicle_type_id":"4","last_reported":1783382596,"current_range_meters":6000,"station_id":"ce4bh092rcd13ifvqd30","pricing_plan_id":"cebpf4jnsgd1na2vs0mg"},{"bike_id":"700367e5-6c87-4c9d-b09c-2b54e001a8c5","system_id":"levelo_inurba_marseille","lat":43.29206,"lon":5.36055,"is_reserved":false,"is_disabled":true,"rental_uris":{"android":"levelo://app?vid=700367e5-6c87-4c9d-b09c-2b54e001a8c5","ios":"levelo://app?vid=700367e5-6c87-4c9d-b09c-2b54e001a8c5"},"vehicle_type_id":"4","last_reported":1783382596,"current_range_meters":6000,"station_id":"ce4bhbh2rcd13ifvqeqg","pricing_plan_id":"cebpf4jnsgd1na2vs0mg"},{"bike_id":"3177f657-0de7-42df-990b-aa125d58299f","system_id":"levelo_inurba_marseille","lat":43.2751,"lon":5.4159,"is_reserved":false,"is_disabled":false,"rental_uris":{"android":"levelo://app?vid=3177f657-0de7-42df-990b-aa125d58299f","ios":"levelo://app?vid=3177f657-0de7-42df-990b-aa125d58299f"},"vehicle_type_id":"4","last_reported":1783382596,"current_range_meters":6000,"station_id":"st_d6im8g6chgec73a5pndg","pricing_plan_id":"cebpf4jnsgd1na2vs0mg"},{"bike_id":"6c90781b-8f78-4e75-9a5e-6b641a8a8cca","system_id":"levelo_inurba_marseille","lat":43.28957,"lon":5.37812,"is_reserved":false,"is_disabled":false,"rental_uris":{"android":"levelo://app?vid=6c90781b-8f78-4e75-9a5e-6b641a8a8cca","ios":"levelo://app?vid=6c90781b-8f78-4e75-9a5e-6b641a8a8cca"},"vehicle_type_id":"4","last_reported":1783382596,"current_range_meters":6000,"station_id":"ce4bh9p2rcd13ifvqed0","pricing_plan_id":"cebpf4jnsgd1na2vs0mg"},{"bike_id":"814b0a23-4b15-472b-a08d-7d4fdd4dc68d","system_id":"levelo_inurba_marseille","lat":43.29362,"lon":5.37857,"is_reserved":false,"is_disabled":false,"rental_uris":{"android":"levelo://app?vid=814b0a23-4b15-472b-a08d-7d4fdd4dc68d","ios":"levelo://app?vid=814b0a23-4b15-472b-a08d-7d4fdd4dc68d"},"vehicle_type_id":"4","last_reported":1783382596,"current_range_meters":6000,"station_id":"ce4bgjh2rcd13ifvqbf0","pricing_plan_id":"cebpf4jnsgd1na2vs0mg"},{"bike_id":"925799c8-fed3-4471-b88a-22f675eb4655","system_id":"levelo_inurba_marseille","lat":43.31319,"lon":5.39695,"is_reserved":false,"is_disabled":false,"rental_uris":{"android":"levelo://app?vid=925799c8-fed3-4471-b88a-22f675eb4655","ios":"levelo://app?vid=925799c8-fed3-4471-b88a-22f675eb4655"},"vehicle_type_id":"4","last_reported":1783382596,"current_range_meters":6000,"station_id":"ce4bgvp2rcd13ifvqcu0","pricing_plan_id":"cebpf4jnsgd1na2vs0mg"},{"bike_id":"46468b74-5455-42c1-b355-213b9be4a89c","system_id":"levelo_inurba_marseille","lat":43.22523,"lon":5.34835,"is_reserved":false,"is_disabled":false,"rental_uris":{"android":"levelo://app?vid=46468b74-5455-42c1-b355-213b9be4a89c","ios":"levelo://app?vid=46468b74-5455-42c1-b355-213b9be4a89c"},"vehicle_type_id":"4","last_reported":1783382596,"current_range_meters":6000,"station_id":"st_cvj5dfep6f1abm77gieg","pricing_plan_id":"cebpf4jnsgd1na2vs0mg"},{"bike_id":"9c551a8b-63f1-4033-9310-5bc89a0e39d3","system_id":"levelo_inurba_marseille","lat":43.28485,"lon":5.38426,"is_reserved":false,"is_disabled":false,"rental_uris":{"android":"levelo://app?vid=9c551a8b-63f1-4033-9310-5bc89a0e39d3","ios":"levelo://app?vid=9c551a8b-63f1-4033-9310-5bc89a0e39d3"},"vehicle_type_id":"4","last_reported":1783382596,"current_range_meters":6000,"station_id":"ce4bh512rcd13ifvqe3g","pricing_plan_id":"cebpf4jnsgd1na2vs0mg"},{"bike_id":"be97d0d0-96b1-4dfd-855f-4b3b87855f8b","system_id":"levelo_inurba_marseille","lat":43.28759,"lon":5.4272,"is_reserved":false,"is_disabled":false,"rental_uris":{"android":"levelo://app?vid=be97d0d0-96b1-4dfd-855f-4b3b87855f8b","ios":"levelo://app?vid=be97d0d0-96b1-4dfd-855f-4b3b87855f8b"},"vehicle_type_id":"4","last_reported":1783382596,"current_range_meters":6000,"station_id":"","pricing_plan_id":"cebpf4jnsgd1na2vs0mg"},{"bike_id":"ed9c4203-17e0-4ed3-b081-fd80978ca1b2","system_id":"levelo_inurba_marseille","lat":43.29198,"lon":5.39311,"is_reserved":false,"is_disabled":false,"rental_uris":{"android":"levelo://app?vid=ed9c4203-17e0-4ed3-b081-fd80978ca1b2","ios":"levelo://app?vid=ed9c4203-17e0-4ed3-b081-fd80978ca1b2"},"vehicle_type_id":"4","last_reported":1783382596,"current_range_meters":6000,"station_id":"ce4bh192rcd13ifvqdd0","pricing_plan_id":"cebpf4jnsgd1na2vs0mg"},{"bike_id":"dc2d4f58-5ece-47d1-9114-698e3d91b86c","system_id":"levelo_inurba_marseille","lat":43.29635,"lon":5.406,"is_reserved":false,"is_disabled":false,"rental_uris":{"android":"levelo://app?vid=dc2d4f58-5ece-47d1-9114-698e3d91b86c","ios":"levelo://app?vid=dc2d4f58-5ece-47d1-9114-698e3d91b86c"},"vehicle_type_id":"4","last_reported":1783382596,"current_range_meters":6000,"station_id":"ce4bh0h2rcd13ifvqd60","pricing_plan_id":"cebpf4jnsgd1na2vs0mg"},{"bike_id":"572e68b9-d18d-4505-bc29-553721ee1599","system_id":"levelo_inurba_marseille","lat":43.26363,"lon":5.41082,"is_reserved":false,"is_disabled":false,"rental_uris":{"android":"levelo://app?vid=572e68b9-d18d-4505-bc29-553721ee1599","ios":"levelo://app?vid=572e68b9-d18d-4505-bc29-553721ee1599"},"vehicle_type_id":"4","last_reported":1783382596,"current_range_meters":6400,"station_id":"st_d4e5ca6na9uc73bfl5fg","pricing_plan_id":"cebpf4jnsgd1na2vs0mg"},{"bike_id":"f1fa67ea-70e8-494e-90f1-3cd8a54e2aac","system_id":"levelo_inurba_marseille","lat":43.28269,"lon":5.3507,"is_reserved":false,"is_disabled":true,"rental_uris":{"android":"levelo://app?vid=f1fa67ea-70e8-494e-90f1-3cd8a54e2aac","ios":"levelo://app?vid=f1fa67ea-70e8-494e-90f1-3cd8a54e2aac"},"vehicle_type_id":"4","last_reported":1783382596,"current_range_meters":6400,"station_id":"ce4bhbp2rcd13ifvqerg","pricing_plan_id":"cebpf4jnsgd1na2vs0mg"},{"bike_id":"059bf241-227c-4e62-9ff1-58a118511bc8","system_id":"levelo_inurba_marseille","lat":43.2808,"lon":5.39666,"is_reserved":false,"is_disabled":false,"rental_uris":{"android":"levelo://app?vid=059bf241-227c-4e62-9ff1-58a118511bc8","ios":"levelo://app?vid=059bf241-227c-4e62-9ff1-58a118511bc8"},"vehicle_type_id":"4","last_reported":1783382596,"current_range_meters":6400,"station_id":"ce4bho12rcd13ifvqh2g","pricing_plan_id":"cebpf4jnsgd1na2vs0mg"},{"bike_id":"3112c030-03e7-4ad3-a895-94002cb7d5c7","system_id":"levelo_inurba_marseille","lat":43.23963,"lon":5.36623,"is_reserved":false,"is_disabled":true,"rental_uris":{"android":"levelo://app?vid=3112c030-03e7-4ad3-a895-94002cb7d5c7","ios":"levelo://app?vid=3112c030-03e7-4ad3-a895-94002cb7d5c7"},"vehicle_type_id":"4","last_reported":1783382596,"current_range_meters":6400,"station_id":"ce4bhi12rcd13ifvqfp0","pricing_plan_id":"cebpf4jnsgd1na2vs0mg"},{"bike_id":"e3022a6a-a8f2-4537-83b2-c5cd58afaf3e","system_id":"levelo_inurba_marseille","lat":43.2508,"lon":5.39518,"is_reserved":false,"is_disabled":true,"rental_uris":{"android":"levelo://app?vid=e3022a6a-a8f2-4537-83b2-c5cd58afaf3e","ios":"levelo://app?vid=e3022a6a-a8f2-4537-83b2-c5cd58afaf3e"},"vehicle_type_id":"4","last_reported":1783382596,"current_range_meters":6400,"station_id":"ce4bhm12rcd13ifvqgkg","pricing_plan_id":"cebpf4jnsgd1na2vs0mg"},{"bike_id":"3379fc14-204b-4eac-8f43-1745fcc184c7","system_id":"levelo_inurba_marseille","lat":43.29596,"lon":5.37745,"is_reserved":false,"is_disabled":false,"rental_uris":{"android":"levelo://app?vid=3379fc14-204b-4eac-8f43-1745fcc184c7","ios":"levelo://app?vid=3379fc14-204b-4eac-8f43-1745fcc184c7"},"vehicle_type_id":"4","last_reported":1783382596,"current_range_meters":6400,"station_id":"ce4bgi92rcd13ifvqb90","pricing_plan_id":"cebpf4jnsgd1na2vs0mg"},{"bike_id":"d0b958a4-0781-4a1e-83d0-28cb0b198006","system_id":"levelo_inurba_marseille","lat":43.29605,"lon":5.38593,"is_reserved":false,"is_disabled":false,"rental_uris":{"android":"levelo://app?vid=d0b958a4-0781-4a1e-83d0-28cb0b198006","ios":"levelo://app?vid=d0b958a4-0781-4a1e-83d0-28cb0b198006"},"vehicle_type_id":"4","last_reported":1783382596,"current_range_meters":6400,"station_id":"","pricing_plan_id":"cebpf4jnsgd1na2vs0mg"},{"bike_id":"2a11a66d-c7e1-41da-afcf-2c8c7e2cf4bb","system_id":"levelo_inurba_marseille","lat":43.29908,"lon":5.37461,"is_reserved":false,"is_disabled":true,"rental_uris":{"android":"levelo://app?vid=2a11a66d-c7e1-41da-afcf-2c8c7e2cf4bb","ios":"levelo://app?vid=2a11a66d-c7e1-41da-afcf-2c8c7e2cf4bb"},"vehicle_type_id":"4","last_reported":1783382596,"current_range_meters":6400,"station_id":"ce4bgjh2rcd13ifvqbg0","pricing_plan_id":"cebpf4jnsgd1na2vs0mg"},{"bike_id":"d8ffdd50-a586-4691-8671-a1a286792129","system_id":"levelo_inurba_marseille","lat":43.29275,"lon":5.40907,"is_reserved":false,"is_disabled":false,"rental_uris":{"android":"levelo://app?vid=d8ffdd50-a586-4691-8671-a1a286792129","ios":"levelo://app?vid=d8ffdd50-a586-4691-8671-a1a286792129"},"vehicle_type_id":"4","last_reported":1783382596,"current_range_meters":6400,"station_id":"ce4bh192rcd13ifvqdc0","pricing_plan_id":"cebpf4jnsgd1na2vs0mg"},{"bike_id":"f63c6294-8cf0-4f75-9726-65e8022e284e","system_id":"levelo_inurba_marseille","lat":43.24994,"lon":5.40497,"is_reserved":false,"is_disabled":false,"rental_uris":{"android":"levelo://app?vid=f63c6294-8cf0-4f75-9726-65e8022e284e","ios":"levelo://app?vid=f63c6294-8cf0-4f75-9726-65e8022e284e"},"vehicle_type_id":"4","last_reported":1783382596,"current_range_meters":6400,"station_id":"st_d2ngiaodas8pm72gd1h0","pricing_plan_id":"cebpf4jnsgd1na2vs0mg"},{"bike_id":"1b396dbc-cdbe-441c-a6f9-d18101b3cc4f","system_id":"levelo_inurba_marseille","lat":43.33342,"lon":5.41082,"is_reserved":false,"is_disabled":false,"rental_uris":{"android":"levelo://app?vid=1b396dbc-cdbe-441c-a6f9-d18101b3cc4f","ios":"levelo://app?vid=1b396dbc-cdbe-441c-a6f9-d18101b3cc4f"},"vehicle_type_id":"4","last_reported":1783382596,"current_range_meters":6400,"station_id":"","pricing_plan_id":"cebpf4jnsgd1na2vs0mg"},{"bike_id":"e5b93264-39b1-4cc8-a950-49cb6d17fefa","system_id":"levelo_inurba_marseille","lat":43.29303,"lon":5.38982,"is_reserved":false,"is_disabled":false,"rental_uris":{"android":"levelo://app?vid=e5b93264-39b1-4cc8-a950-49cb6d17fefa","ios":"levelo://app?vid=e5b93264-39b1-4cc8-a950-49cb6d17fefa"},"vehicle_type_id":"4","last_reported":1783382596,"current_range_meters":6400,"station_id":"","pricing_plan_id":"cebpf4jnsgd1na2vs0mg"},{"bike_id":"a40fac1c-fdae-4a33-8735-3f7c9c669ebe","system_id":"levelo_inurba_marseille","lat":43.29729,"lon":5.38242,"is_reserved":false,"is_disabled":false,"rental_uris":{"android":"levelo://app?vid=a40fac1c-fdae-4a33-8735-3f7c9c669ebe","ios":"levelo://app?vid=a40fac1c-fdae-4a33-8735-3f7c9c669ebe"},"vehicle_type_id":"4","last_reported":1783382596,"current_range_meters":6800,"station_id":"","pricing_plan_id":"cebpf4jnsgd1na2vs0mg"},{"bike_id":"4461f359-e578-4853-804a-593f2289f613","system_id":"levelo_inurba_marseille","lat":43.29651,"lon":5.4012,"is_reserved":false,"is_disabled":false,"rental_uris":{"android":"levelo://app?vid=4461f359-e578-4853-804a-593f2289f613","ios":"levelo://app?vid=4461f359-e578-4853-804a-593f2289f613"},"vehicle_type_id":"4","last_reported":1783382596,"current_range_meters":6800,"station_id":"","pricing_plan_id":"cebpf4jnsgd1na2vs0mg"},{"bike_id":"ab418650-7aa1-48e1-943c-df3dcb35a850","system_id":"levelo_inurba_marseille","lat":43.27906,"lon":5.38009,"is_reserved":false,"is_disabled":false,"rental_uris":{"android":"levelo://app?vid=ab418650-7aa1-48e1-943c-df3dcb35a850","ios":"levelo://app?vid=ab418650-7aa1-48e1-943c-df3dcb35a850"},"vehicle_type_id":"4","last_reported":1783382596,"current_range_meters":6800,"station_id":"ce4bhf92rcd13ifvqf50","pricing_plan_id":"cebpf4jnsgd1na2vs0mg"},{"bike_id":"5291857a-d5f7-47a0-b743-13ac73e0440f","system_id":"levelo_inurba_marseille","lat":43.21195,"lon":5.35084,"is_reserved":false,"is_disabled":false,"rental_uris":{"android":"levelo://app?vid=5291857a-d5f7-47a0-b743-13ac73e0440f","ios":"levelo://app?vid=5291857a-d5f7-47a0-b743-13ac73e0440f"},"vehicle_type_id":"4","last_reported":1783382596,"current_range_meters":6800,"station_id":"st_cvj6sg6p6f1abm77japg","pricing_plan_id":"cebpf4jnsgd1na2vs0mg"},{"bike_id":"60b91b85-ed42-47be-ac90-6945fbd7e9a7","system_id":"levelo_inurba_marseille","lat":43.26513,"lon":5.39036,"is_reserved":false,"is_disabled":false,"rental_uris":{"android":"levelo://app?vid=60b91b85-ed42-47be-ac90-6945fbd7e9a7","ios":"levelo://app?vid=60b91b85-ed42-47be-ac90-6945fbd7e9a7"},"vehicle_type_id":"4","last_reported":1783382596,"current_range_meters":6800,"station_id":"","pricing_plan_id":"cebpf4jnsgd1na2vs0mg"},{"bike_id":"19f607a3-0a54-4eff-a69a-0f6684840ec5","system_id":"levelo_inurba_marseille","lat":43.24953,"lon":5.4049,"is_reserved":false,"is_disabled":false,"rental_uris":{"android":"levelo://app?vid=19f607a3-0a54-4eff-a69a-0f6684840ec5","ios":"levelo://app?vid=19f607a3-0a54-4eff-a69a-0f6684840ec5"},"vehicle_type_id":"4","last_reported":1783382596,"current_range_meters":6800,"station_id":"st_d2ngiaodas8pm72gd1h0","pricing_plan_id":"cebpf4jnsgd1na2vs0mg"},{"bike_id":"4c59db62-5427-46c6-9d26-5bad55e837ae","system_id":"levelo_inurba_marseille","lat":43.2364,"lon":5.4035,"is_reserved":false,"is_disabled":false,"rental_uris":{"android":"levelo://app?vid=4c59db62-5427-46c6-9d26-5bad55e837ae","ios":"levelo://app?vid=4c59db62-5427-46c6-9d26-5bad55e837ae"},"vehicle_type_id":"4","last_reported":1783382596,"current_range_meters":6800,"station_id":"","pricing_plan_id":"cebpf4jnsgd1na2vs0mg"},{"bike_id":"f12954c2-1b6f-4584-a636-0a2083bce431","system_id":"levelo_inurba_marseille","lat":43.31335,"lon":5.40468,"is_reserved":false,"is_disabled":false,"rental_uris":{"android":"levelo://app?vid=f12954c2-1b6f-4584-a636-0a2083bce431","ios":"levelo://app?vid=f12954c2-1b6f-4584-a636-0a2083bce431"},"vehicle_type_id":"4","last_reported":1783382596,"current_range_meters":6800,"station_id":"","pricing_plan_id":"cebpf4jnsgd1na2vs0mg"},{"bike_id":"5b0ada4d-76ff-4576-883f-11875d199ef1","system_id":"levelo_inurba_marseille","lat":43.28085,"lon":5.39658,"is_reserved":false,"is_disabled":false,"rental_uris":{"android":"levelo://app?vid=5b0ada4d-76ff-4576-883f-11875d199ef1","ios":"levelo://app?vid=5b0ada4d-76ff-4576-883f-11875d199ef1"},"vehicle_type_id":"4","last_reported":1783382596,"current_range_meters":6800,"station_id":"","pricing_plan_id":"cebpf4jnsgd1na2vs0mg"},{"bike_id":"59abbbac-01d9-4e97-81d7-7cc52e94f3ca","system_id":"levelo_inurba_marseille","lat":43.21742,"lon":5.34605,"is_reserved":false,"is_disabled":false,"rental_uris":{"android":"levelo://app?vid=59abbbac-01d9-4e97-81d7-7cc52e94f3ca","ios":"levelo://app?vid=59abbbac-01d9-4e97-81d7-7cc52e94f3ca"},"vehicle_type_id":"4","last_reported":1783382596,"current_range_meters":6800,"station_id":"st_cvj6r9ubvosntc0bgbag","pricing_plan_id":"cebpf4jnsgd1na2vs0mg"},{"bike_id":"8f9589bc-5102-48ec-bff3-0aa876684c01","system_id":"levelo_inurba_marseille","lat":43.2982,"lon":5.4407,"is_reserved":false,"is_disabled":true,"rental_uris":{"android":"levelo://app?vid=8f9589bc-5102-48ec-bff3-0aa876684c01","ios":"levelo://app?vid=8f9589bc-5102-48ec-bff3-0aa876684c01"},"vehicle_type_id":"4","last_reported":1783382596,"current_range_meters":6800,"station_id":"st_d3jp68qikq2c7381ktn0","pricing_plan_id":"cebpf4jnsgd1na2vs0mg"},{"bike_id":"0f394369-6ea7-4b42-ae04-f02ea20f82ce","system_id":"levelo_inurba_marseille","lat":43.2509,"lon":5.40318,"is_reserved":false,"is_disabled":false,"rental_uris":{"android":"levelo://app?vid=0f394369-6ea7-4b42-ae04-f02ea20f82ce","ios":"levelo://app?vid=0f394369-6ea7-4b42-ae04-f02ea20f82ce"},"vehicle_type_id":"4","last_reported":1783382596,"current_range_meters":6800,"station_id":"ce4bhlh2rcd13ifvqgig","pricing_plan_id":"cebpf4jnsgd1na2vs0mg"},{"bike_id":"93e4d448-d818-4346-80dd-28c46dce6b38","system_id":"levelo_inurba_marseille","lat":43.278168,"lon":5.392049,"is_reserved":false,"is_disabled":false,"rental_uris":{"android":"levelo://app?vid=93e4d448-d818-4346-80dd-28c46dce6b38","ios":"levelo://app?vid=93e4d448-d818-4346-80dd-28c46dce6b38"},"vehicle_type_id":"4","last_reported":1783382596,"current_range_meters":6800,"station_id":"ce4bhjp2rcd13ifvqga0","pricing_plan_id":"cebpf4jnsgd1na2vs0mg"},{"bike_id":"4873bc1e-1155-4c81-9aeb-5f96e3200d87","system_id":"levelo_inurba_marseille","lat":43.30641,"lon":5.40105,"is_reserved":false,"is_disabled":false,"rental_uris":{"android":"levelo://app?vid=4873bc1e-1155-4c81-9aeb-5f96e3200d87","ios":"levelo://app?vid=4873bc1e-1155-4c81-9aeb-5f96e3200d87"},"vehicle_type_id":"4","last_reported":1783382596,"current_range_meters":6800,"station_id":"ce4bh112rcd13ifvqda0","pricing_plan_id":"cebpf4jnsgd1na2vs0mg"},{"bike_id":"3fc7ebfd-f005-49e2-8ddb-a001a4dc34af","system_id":"levelo_inurba_marseille","lat":43.28027,"lon":5.36949,"is_reserved":false,"is_disabled":false,"rental_uris":{"android":"levelo://app?vid=3fc7ebfd-f005-49e2-8ddb-a001a4dc34af","ios":"levelo://app?vid=3fc7ebfd-f005-49e2-8ddb-a001a4dc34af"},"vehicle_type_id":"4","last_reported":1783382596,"current_range_meters":6800,"station_id":"ce4bha12rcd13ifvqef0","pricing_plan_id":"cebpf4jnsgd1na2vs0mg"},{"bike_id":"8dae7ba7-1dab-4436-b8fe-c71765462ed3","system_id":"levelo_inurba_marseille","lat":43.28139,"lon":5.36353,"is_reserved":false,"is_disabled":false,"rental_uris":{"android":"levelo://app?vid=8dae7ba7-1dab-4436-b8fe-c71765462ed3","ios":"levelo://app?vid=8dae7ba7-1dab-4436-b8fe-c71765462ed3"},"vehicle_type_id":"4","last_reported":1783382596,"current_range_meters":6800,"station_id":"","pricing_plan_id":"cebpf4jnsgd1na2vs0mg"},{"bike_id":"9dbc6b5d-d921-4618-b2d6-4ccd5a1ce15a","system_id":"levelo_inurba_marseille","lat":43.31119,"lon":5.38232,"is_reserved":false,"is_disabled":false,"rental_uris":{"android":"levelo://app?vid=9dbc6b5d-d921-4618-b2d6-4ccd5a1ce15a","ios":"levelo://app?vid=9dbc6b5d-d921-4618-b2d6-4ccd5a1ce15a"},"vehicle_type_id":"4","last_reported":1783382596,"current_range_meters":7200,"station_id":"","pricing_plan_id":"cebpf4jnsgd1na2vs0mg"},{"bike_id":"401beb52-7dd5-4e26-b86e-92c4b7a914f4","system_id":"levelo_inurba_marseille","lat":43.28429,"lon":5.34993,"is_reserved":false,"is_disabled":true,"rental_uris":{"android":"levelo://app?vid=401beb52-7dd5-4e26-b86e-92c4b7a914f4","ios":"levelo://app?vid=401beb52-7dd5-4e26-b86e-92c4b7a914f4"},"vehicle_type_id":"4","last_reported":1783382596,"current_range_meters":7200,"station_id":"ce4bhbh2rcd13ifvqepg","pricing_plan_id":"cebpf4jnsgd1na2vs0mg"},{"bike_id":"6dba7751-9b32-49d1-8663-50c18acacf6a","system_id":"levelo_inurba_marseille","lat":43.30621,"lon":5.37573,"is_reserved":false,"is_disabled":false,"rental_uris":{"android":"levelo://app?vid=6dba7751-9b32-49d1-8663-50c18acacf6a","ios":"levelo://app?vid=6dba7751-9b32-49d1-8663-50c18acacf6a"},"vehicle_type_id":"4","last_reported":1783382596,"current_range_meters":7200,"station_id":"","pricing_plan_id":"cebpf4jnsgd1na2vs0mg"},{"bike_id":"17f1decd-895c-457d-8a02-5d1fea2b0446","system_id":"levelo_inurba_marseille","lat":43.2467,"lon":5.38178,"is_reserved":false,"is_disabled":false,"rental_uris":{"android":"levelo://app?vid=17f1decd-895c-457d-8a02-5d1fea2b0446","ios":"levelo://app?vid=17f1decd-895c-457d-8a02-5d1fea2b0446"},"vehicle_type_id":"4","last_reported":1783382596,"current_range_meters":7200,"station_id":"ce4bhih2rcd13ifvqfr0","pricing_plan_id":"cebpf4jnsgd1na2vs0mg"},{"bike_id":"69aa2a07-fa8e-4241-9a10-c2a605583547","system_id":"levelo_inurba_marseille","lat":43.23844,"lon":5.37188,"is_reserved":false,"is_disabled":false,"rental_uris":{"android":"levelo://app?vid=69aa2a07-fa8e-4241-9a10-c2a605583547","ios":"levelo://app?vid=69aa2a07-fa8e-4241-9a10-c2a605583547"},"vehicle_type_id":"4","last_reported":1783382596,"current_range_meters":7200,"station_id":"","pricing_plan_id":"cebpf4jnsgd1na2vs0mg"},{"bike_id":"e522c856-52e6-47d0-b70d-e1816d5e13fd","system_id":"levelo_inurba_marseille","lat":43.28567,"lon":5.39495,"is_reserved":false,"is_disabled":false,"rental_uris":{"android":"levelo://app?vid=e522c856-52e6-47d0-b70d-e1816d5e13fd","ios":"levelo://app?vid=e522c856-52e6-47d0-b70d-e1816d5e13fd"},"vehicle_type_id":"4","last_reported":1783382596,"current_range_meters":7200,"station_id":"ce4bh292rcd13ifvqdg0","pricing_plan_id":"cebpf4jnsgd1na2vs0mg"},{"bike_id":"ec9d965f-5787-4615-b161-5de0c0a63693","system_id":"levelo_inurba_marseille","lat":43.30547,"lon":5.38429,"is_reserved":false,"is_disabled":true,"rental_uris":{"android":"levelo://app?vid=ec9d965f-5787-4615-b161-5de0c0a63693","ios":"levelo://app?vid=ec9d965f-5787-4615-b161-5de0c0a63693"},"vehicle_type_id":"4","last_reported":1783382596,"current_range_meters":7200,"station_id":"ce4bgg92rcd13ifvqb30","pricing_plan_id":"cebpf4jnsgd1na2vs0mg"},{"bike_id":"1b38264d-b828-4294-b072-9ccc46169fbe","system_id":"levelo_inurba_marseille","lat":43.3111,"lon":5.43845,"is_reserved":false,"is_disabled":false,"rental_uris":{"android":"levelo://app?vid=1b38264d-b828-4294-b072-9ccc46169fbe","ios":"levelo://app?vid=1b38264d-b828-4294-b072-9ccc46169fbe"},"vehicle_type_id":"4","last_reported":1783382596,"current_range_meters":7200,"station_id":"","pricing_plan_id":"cebpf4jnsgd1na2vs0mg"},{"bike_id":"9e34d128-1d34-4407-ba36-d96f6162c936","system_id":"levelo_inurba_marseille","lat":43.31272,"lon":5.40165,"is_reserved":false,"is_disabled":false,"rental_uris":{"android":"levelo://app?vid=9e34d128-1d34-4407-ba36-d96f6162c936","ios":"levelo://app?vid=9e34d128-1d34-4407-ba36-d96f6162c936"},"vehicle_type_id":"4","last_reported":1783382596,"current_range_meters":7200,"station_id":"ce4bh092rcd13ifvqd30","pricing_plan_id":"cebpf4jnsgd1na2vs0mg"},{"bike_id":"478faee6-7183-483a-a92f-e1d227ff75fc","system_id":"levelo_inurba_marseille","lat":43.30869,"lon":5.37188,"is_reserved":false,"is_disabled":false,"rental_uris":{"android":"levelo://app?vid=478faee6-7183-483a-a92f-e1d227ff75fc","ios":"levelo://app?vid=478faee6-7183-483a-a92f-e1d227ff75fc"},"vehicle_type_id":"4","last_reported":1783382596,"current_range_meters":7200,"station_id":"ce4bguh2rcd13ifvqckg","pricing_plan_id":"cebpf4jnsgd1na2vs0mg"},{"bike_id":"c01c24ac-7761-4b9e-86f9-c1e700386839","system_id":"levelo_inurba_marseille","lat":43.25335,"lon":5.42167,"is_reserved":false,"is_disabled":false,"rental_uris":{"android":"levelo://app?vid=c01c24ac-7761-4b9e-86f9-c1e700386839","ios":"levelo://app?vid=c01c24ac-7761-4b9e-86f9-c1e700386839"},"vehicle_type_id":"4","last_reported":1783382596,"current_range_meters":7200,"station_id":"st_d2m65c5bi1j21697t3ng","pricing_plan_id":"cebpf4jnsgd1na2vs0mg"},{"bike_id":"cc738f32-f811-4e3f-b968-0bc0d7c9be0d","system_id":"levelo_inurba_marseille","lat":43.29269,"lon":5.40922,"is_reserved":false,"is_disabled":true,"rental_uris":{"android":"levelo://app?vid=cc738f32-f811-4e3f-b968-0bc0d7c9be0d","ios":"levelo://app?vid=cc738f32-f811-4e3f-b968-0bc0d7c9be0d"},"vehicle_type_id":"4","last_reported":1783382596,"current_range_meters":7200,"station_id":"ce4bh192rcd13ifvqdc0","pricing_plan_id":"cebpf4jnsgd1na2vs0mg"},{"bike_id":"194c6e5f-8b80-4cec-a56f-feb5f9982bba","system_id":"levelo_inurba_marseille","lat":43.30141,"lon":5.39863,"is_reserved":false,"is_disabled":false,"rental_uris":{"android":"levelo://app?vid=194c6e5f-8b80-4cec-a56f-feb5f9982bba","ios":"levelo://app?vid=194c6e5f-8b80-4cec-a56f-feb5f9982bba"},"vehicle_type_id":"4","last_reported":1783382596,"current_range_meters":7200,"station_id":"ce4bh0h2rcd13ifvqd40","pricing_plan_id":"cebpf4jnsgd1na2vs0mg"},{"bike_id":"73fe242b-e16e-46cb-b0a2-7d97bdfe86d4","system_id":"levelo_inurba_marseille","lat":43.28326,"lon":5.38113,"is_reserved":false,"is_disabled":false,"rental_uris":{"android":"levelo://app?vid=73fe242b-e16e-46cb-b0a2-7d97bdfe86d4","ios":"levelo://app?vid=73fe242b-e16e-46cb-b0a2-7d97bdfe86d4"},"vehicle_type_id":"4","last_reported":1783382596,"current_range_meters":7200,"station_id":"ce4bh412rcd13ifvqdr0","pricing_plan_id":"cebpf4jnsgd1na2vs0mg"},{"bike_id":"ec21b348-a79c-45e5-a2ca-3a10372453e7","system_id":"levelo_inurba_marseille","lat":43.31914,"lon":5.39871,"is_reserved":false,"is_disabled":false,"rental_uris":{"android":"levelo://app?vid=ec21b348-a79c-45e5-a2ca-3a10372453e7","ios":"levelo://app?vid=ec21b348-a79c-45e5-a2ca-3a10372453e7"},"vehicle_type_id":"4","last_reported":1783382596,"current_range_meters":7200,"station_id":"","pricing_plan_id":"cebpf4jnsgd1na2vs0mg"},{"bike_id":"0acc0fe9-4f43-4f10-9b04-9fe14b2c6061","system_id":"levelo_inurba_marseille","lat":43.28706,"lon":5.37932,"is_reserved":false,"is_disabled":false,"rental_uris":{"android":"levelo://app?vid=0acc0fe9-4f43-4f10-9b04-9fe14b2c6061","ios":"levelo://app?vid=0acc0fe9-4f43-4f10-9b04-9fe14b2c6061"},"vehicle_type_id":"4","last_reported":1783382596,"current_range_meters":7200,"station_id":"ce4bh9p2rcd13ifvqec0","pricing_plan_id":"cebpf4jnsgd1na2vs0mg"},{"bike_id":"0cd0c2b1-6a85-4854-8519-e0e81dd22a24","system_id":"levelo_inurba_marseille","lat":43.30794,"lon":5.38147,"is_reserved":false,"is_disabled":false,"rental_uris":{"android":"levelo://app?vid=0cd0c2b1-6a85-4854-8519-e0e81dd22a24","ios":"levelo://app?vid=0cd0c2b1-6a85-4854-8519-e0e81dd22a24"},"vehicle_type_id":"4","last_reported":1783382596,"current_range_meters":7200,"station_id":"ce4bgt12rcd13ifvqce0","pricing_plan_id":"cebpf4jnsgd1na2vs0mg"},{"bike_id":"7cf32376-6200-45ff-ae05-abfa930fbf9e","system_id":"levelo_inurba_marseille","lat":43.26571,"lon":5.40319,"is_reserved":false,"is_disabled":false,"rental_uris":{"android":"levelo://app?vid=7cf32376-6200-45ff-ae05-abfa930fbf9e","ios":"levelo://app?vid=7cf32376-6200-45ff-ae05-abfa930fbf9e"},"vehicle_type_id":"4","last_reported":1783382596,"current_range_meters":7200,"station_id":"ce4bhmp2rcd13ifvqgng","pricing_plan_id":"cebpf4jnsgd1na2vs0mg"},{"bike_id":"16408646-0f67-4c96-bbd4-175e8b8f4f69","system_id":"levelo_inurba_marseille","lat":43.24469,"lon":5.42529,"is_reserved":false,"is_disabled":false,"rental_uris":{"android":"levelo://app?vid=16408646-0f67-4c96-bbd4-175e8b8f4f69","ios":"levelo://app?vid=16408646-0f67-4c96-bbd4-175e8b8f4f69"},"vehicle_type_id":"4","last_reported":1783382596,"current_range_meters":7200,"station_id":"st_d4a3vfp97mjs738cd8kg","pricing_plan_id":"cebpf4jnsgd1na2vs0mg"},{"bike_id":"6c1578a9-cf4e-4dca-8bb8-d3addb11f80a","system_id":"levelo_inurba_marseille","lat":43.2511,"lon":5.38581,"is_reserved":false,"is_disabled":false,"rental_uris":{"android":"levelo://app?vid=6c1578a9-cf4e-4dca-8bb8-d3addb11f80a","ios":"levelo://app?vid=6c1578a9-cf4e-4dca-8bb8-d3addb11f80a"},"vehicle_type_id":"4","last_reported":1783382596,"current_range_meters":7200,"station_id":"","pricing_plan_id":"cebpf4jnsgd1na2vs0mg"},{"bike_id":"fa7b863f-7f60-4deb-b4b6-b225a2863364","system_id":"levelo_inurba_marseille","lat":43.28332,"lon":5.38069,"is_reserved":false,"is_disabled":false,"rental_uris":{"android":"levelo://app?vid=fa7b863f-7f60-4deb-b4b6-b225a2863364","ios":"levelo://app?vid=fa7b863f-7f60-4deb-b4b6-b225a2863364"},"vehicle_type_id":"4","last_reported":1783382596,"current_range_meters":7200,"station_id":"ce4bh412rcd13ifvqdr0","pricing_plan_id":"cebpf4jnsgd1na2vs0mg"},{"bike_id":"7e7db7de-590b-4a1b-a86a-87265c93e888","system_id":"levelo_inurba_marseille","lat":43.31473,"lon":5.39573,"is_reserved":false,"is_disabled":false,"rental_uris":{"android":"levelo://app?vid=7e7db7de-590b-4a1b-a86a-87265c93e888","ios":"levelo://app?vid=7e7db7de-590b-4a1b-a86a-87265c93e888"},"vehicle_type_id":"4","last_reported":1783382596,"current_range_meters":7200,"station_id":"","pricing_plan_id":"cebpf4jnsgd1na2vs0mg"},{"bike_id":"9b2bbc6f-2370-4924-8b1a-4adef52cee36","system_id":"levelo_inurba_marseille","lat":43.30671,"lon":5.38363,"is_reserved":false,"is_disabled":false,"rental_uris":{"android":"levelo://app?vid=9b2bbc6f-2370-4924-8b1a-4adef52cee36","ios":"levelo://app?vid=9b2bbc6f-2370-4924-8b1a-4adef52cee36"},"vehicle_type_id":"4","last_reported":1783382596,"current_range_meters":7200,"station_id":"","pricing_plan_id":"cebpf4jnsgd1na2vs0mg"},{"bike_id":"48e9f399-608e-4ef3-aef5-0ea0fdd27ad4","system_id":"levelo_inurba_marseille","lat":43.29232,"lon":5.40896,"is_reserved":false,"is_disabled":true,"rental_uris":{"android":"levelo://app?vid=48e9f399-608e-4ef3-aef5-0ea0fdd27ad4","ios":"levelo://app?vid=48e9f399-608e-4ef3-aef5-0ea0fdd27ad4"},"vehicle_type_id":"4","last_reported":1783382596,"current_range_meters":7200,"station_id":"ce4bh192rcd13ifvqdc0","pricing_plan_id":"cebpf4jnsgd1na2vs0mg"},{"bike_id":"5dda9314-2e0f-4609-8210-5351f358d5bd","system_id":"levelo_inurba_marseille","lat":43.2558,"lon":5.38237,"is_reserved":false,"is_disabled":false,"rental_uris":{"android":"levelo://app?vid=5dda9314-2e0f-4609-8210-5351f358d5bd","ios":"levelo://app?vid=5dda9314-2e0f-4609-8210-5351f358d5bd"},"vehicle_type_id":"4","last_reported":1783382596,"current_range_meters":7200,"station_id":"ce4bhih2rcd13ifvqfs0","pricing_plan_id":"cebpf4jnsgd1na2vs0mg"},{"bike_id":"ce246acd-8c78-4e93-8d68-b477575009da","system_id":"levelo_inurba_marseille","lat":43.25228,"lon":5.37781,"is_reserved":false,"is_disabled":false,"rental_uris":{"android":"levelo://app?vid=ce246acd-8c78-4e93-8d68-b477575009da","ios":"levelo://app?vid=ce246acd-8c78-4e93-8d68-b477575009da"},"vehicle_type_id":"4","last_reported":1783382596,"current_range_meters":7200,"station_id":"","pricing_plan_id":"cebpf4jnsgd1na2vs0mg"},{"bike_id":"1feb4c18-fbf5-4abb-af21-96c8e9d59e53","system_id":"levelo_inurba_marseille","lat":43.30142,"lon":5.38114,"is_reserved":false,"is_disabled":false,"rental_uris":{"android":"levelo://app?vid=1feb4c18-fbf5-4abb-af21-96c8e9d59e53","ios":"levelo://app?vid=1feb4c18-fbf5-4abb-af21-96c8e9d59e53"},"vehicle_type_id":"4","last_reported":1783382596,"current_range_meters":8000,"station_id":"ce4bgjp2rcd13ifvqbh0","pricing_plan_id":"cebpf4jnsgd1na2vs0mg"},{"bike_id":"48baf9d8-7c54-446d-acef-aec0f74b8a22","system_id":"levelo_inurba_marseille","lat":43.29753,"lon":5.37104,"is_reserved":false,"is_disabled":false,"rental_uris":{"android":"levelo://app?vid=48baf9d8-7c54-446d-acef-aec0f74b8a22","ios":"levelo://app?vid=48baf9d8-7c54-446d-acef-aec0f74b8a22"},"vehicle_type_id":"4","last_reported":1783382596,"current_range_meters":8000,"station_id":"ce4bgop2rcd13ifvqc1g","pricing_plan_id":"cebpf4jnsgd1na2vs0mg"},{"bike_id":"20cd6934-09a6-4db7-8213-8e0fd256c447","system_id":"levelo_inurba_marseille","lat":43.29343,"lon":5.4451,"is_reserved":false,"is_disabled":false,"rental_uris":{"android":"levelo://app?vid=20cd6934-09a6-4db7-8213-8e0fd256c447","ios":"levelo://app?vid=20cd6934-09a6-4db7-8213-8e0fd256c447"},"vehicle_type_id":"4","last_reported":1783382596,"current_range_meters":8000,"station_id":"","pricing_plan_id":"cebpf4jnsgd1na2vs0mg"},{"bike_id":"5951597b-fe82-4381-875d-23c94025e45c","system_id":"levelo_inurba_marseille","lat":43.28475,"lon":5.48396,"is_reserved":false,"is_disabled":false,"rental_uris":{"android":"levelo://app?vid=5951597b-fe82-4381-875d-23c94025e45c","ios":"levelo://app?vid=5951597b-fe82-4381-875d-23c94025e45c"},"vehicle_type_id":"4","last_reported":1783382596,"current_range_meters":8000,"station_id":"st_d3svhcjqgbts73a3dn0g","pricing_plan_id":"cebpf4jnsgd1na2vs0mg"},{"bike_id":"1c755d28-be73-424d-8522-ffc3d5112773","system_id":"levelo_inurba_marseille","lat":43.29283,"lon":5.40128,"is_reserved":false,"is_disabled":false,"rental_uris":{"android":"levelo://app?vid=1c755d28-be73-424d-8522-ffc3d5112773","ios":"levelo://app?vid=1c755d28-be73-424d-8522-ffc3d5112773"},"vehicle_type_id":"4","last_reported":1783382596,"current_range_meters":8000,"station_id":"ce4bh312rcd13ifvqdk0","pricing_plan_id":"cebpf4jnsgd1na2vs0mg"},{"bike_id":"d1889649-51c1-452a-8149-baefae387508","system_id":"levelo_inurba_marseille","lat":43.27939,"lon":5.39093,"is_reserved":false,"is_disabled":false,"rental_uris":{"android":"levelo://app?vid=d1889649-51c1-452a-8149-baefae387508","ios":"levelo://app?vid=d1889649-51c1-452a-8149-baefae387508"},"vehicle_type_id":"4","last_reported":1783382596,"current_range_meters":8000,"station_id":"","pricing_plan_id":"cebpf4jnsgd1na2vs0mg"},{"bike_id":"02c25041-42bf-4ae9-99b9-cf69ec7acee1","system_id":"levelo_inurba_marseille","lat":43.28095,"lon":5.37855,"is_reserved":false,"is_disabled":false,"rental_uris":{"android":"levelo://app?vid=02c25041-42bf-4ae9-99b9-cf69ec7acee1","ios":"levelo://app?vid=02c25041-42bf-4ae9-99b9-cf69ec7acee1"},"vehicle_type_id":"4","last_reported":1783382596,"current_range_meters":8000,"station_id":"ce4bha12rcd13ifvqee0","pricing_plan_id":"cebpf4jnsgd1na2vs0mg"},{"bike_id":"9ca509cf-5fb4-423e-a472-62cb39ad3997","system_id":"levelo_inurba_marseille","lat":43.28108,"lon":5.37846,"is_reserved":false,"is_disabled":false,"rental_uris":{"android":"levelo://app?vid=9ca509cf-5fb4-423e-a472-62cb39ad3997","ios":"levelo://app?vid=9ca509cf-5fb4-423e-a472-62cb39ad3997"},"vehicle_type_id":"4","last_reported":1783382596,"current_range_meters":8000,"station_id":"ce4bha12rcd13ifvqee0","pricing_plan_id":"cebpf4jnsgd1na2vs0mg"},{"bike_id":"ac5f4070-4c77-4a68-8b7a-96e52d7df351","system_id":"levelo_inurba_marseille","lat":43.28392,"lon":5.37919,"is_reserved":false,"is_disabled":false,"rental_uris":{"android":"levelo://app?vid=ac5f4070-4c77-4a68-8b7a-96e52d7df351","ios":"levelo://app?vid=ac5f4070-4c77-4a68-8b7a-96e52d7df351"},"vehicle_type_id":"4","last_reported":1783382596,"current_range_meters":8000,"station_id":"","pricing_plan_id":"cebpf4jnsgd1na2vs0mg"},{"bike_id":"3ee42266-3712-4488-b386-bdbbb5e2d040","system_id":"levelo_inurba_marseille","lat":43.25089,"lon":5.39523,"is_reserved":false,"is_disabled":true,"rental_uris":{"android":"levelo://app?vid=3ee42266-3712-4488-b386-bdbbb5e2d040","ios":"levelo://app?vid=3ee42266-3712-4488-b386-bdbbb5e2d040"},"vehicle_type_id":"4","last_reported":1783382596,"current_range_meters":8000,"station_id":"ce4bhm12rcd13ifvqgkg","pricing_plan_id":"cebpf4jnsgd1na2vs0mg"},{"bike_id":"f7809977-bda7-43e8-bb7e-4bef8b6f0f97","system_id":"levelo_inurba_marseille","lat":43.30006,"lon":5.37355,"is_reserved":false,"is_disabled":false,"rental_uris":{"android":"levelo://app?vid=f7809977-bda7-43e8-bb7e-4bef8b6f0f97","ios":"levelo://app?vid=f7809977-bda7-43e8-bb7e-4bef8b6f0f97"},"vehicle_type_id":"4","last_reported":1783382596,"current_range_meters":8000,"station_id":"","pricing_plan_id":"cebpf4jnsgd1na2vs0mg"},{"bike_id":"0f582eda-830a-4ae7-98f7-ca864572c926","system_id":"levelo_inurba_marseille","lat":43.28698,"lon":5.4669,"is_reserved":false,"is_disabled":false,"rental_uris":{"android":"levelo://app?vid=0f582eda-830a-4ae7-98f7-ca864572c926","ios":"levelo://app?vid=0f582eda-830a-4ae7-98f7-ca864572c926"},"vehicle_type_id":"4","last_reported":1783382596,"current_range_meters":8000,"station_id":"st_d6tc3vkotcvc738tfjhg","pricing_plan_id":"cebpf4jnsgd1na2vs0mg"},{"bike_id":"b91befbb-6e17-4be1-8cb9-8bec22a584cc","system_id":"levelo_inurba_marseille","lat":43.26545,"lon":5.42218,"is_reserved":false,"is_disabled":false,"rental_uris":{"android":"levelo://app?vid=b91befbb-6e17-4be1-8cb9-8bec22a584cc","ios":"levelo://app?vid=b91befbb-6e17-4be1-8cb9-8bec22a584cc"},"vehicle_type_id":"4","last_reported":1783382596,"current_range_meters":8000,"station_id":"","pricing_plan_id":"cebpf4jnsgd1na2vs0mg"},{"bike_id":"3e227ed0-111b-4453-a7d2-0461beb7e5af","system_id":"levelo_inurba_marseille","lat":43.30513,"lon":5.38835,"is_reserved":false,"is_disabled":false,"rental_uris":{"android":"levelo://app?vid=3e227ed0-111b-4453-a7d2-0461beb7e5af","ios":"levelo://app?vid=3e227ed0-111b-4453-a7d2-0461beb7e5af"},"vehicle_type_id":"4","last_reported":1783382596,"current_range_meters":8000,"station_id":"","pricing_plan_id":"cebpf4jnsgd1na2vs0mg"},{"bike_id":"e7667868-2adf-4474-b30c-08edb42dae74","system_id":"levelo_inurba_marseille","lat":43.22934,"lon":5.35376,"is_reserved":false,"is_disabled":false,"rental_uris":{"android":"levelo://app?vid=e7667868-2adf-4474-b30c-08edb42dae74","ios":"levelo://app?vid=e7667868-2adf-4474-b30c-08edb42dae74"},"vehicle_type_id":"4","last_reported":1783382596,"current_range_meters":8000,"station_id":"cpo3532slgdg3j2ikp40","pricing_plan_id":"cebpf4jnsgd1na2vs0mg"},{"bike_id":"0142e413-32f0-4a67-9da0-eaf8d8ac0718","system_id":"levelo_inurba_marseille","lat":43.31171,"lon":5.44674,"is_reserved":false,"is_disabled":true,"rental_uris":{"android":"levelo://app?vid=0142e413-32f0-4a67-9da0-eaf8d8ac0718","ios":"levelo://app?vid=0142e413-32f0-4a67-9da0-eaf8d8ac0718"},"vehicle_type_id":"4","last_reported":1783382596,"current_range_meters":8000,"station_id":"","pricing_plan_id":"cebpf4jnsgd1na2vs0mg"},{"bike_id":"50cf91c3-b336-4ecb-86c8-47d82bee6911","system_id":"levelo_inurba_marseille","lat":43.2684,"lon":5.39417,"is_reserved":false,"is_disabled":false,"rental_uris":{"android":"levelo://app?vid=50cf91c3-b336-4ecb-86c8-47d82bee6911","ios":"levelo://app?vid=50cf91c3-b336-4ecb-86c8-47d82bee6911"},"vehicle_type_id":"4","last_reported":1783382596,"current_range_meters":8000,"station_id":"ce4bhh12rcd13ifvqfg0","pricing_plan_id":"cebpf4jnsgd1na2vs0mg"},{"bike_id":"3f5a3c1b-1dd0-4f63-adc4-fee55e0c9465","system_id":"levelo_inurba_marseille","lat":43.33387,"lon":5.40718,"is_reserved":false,"is_disabled":false,"rental_uris":{"android":"levelo://app?vid=3f5a3c1b-1dd0-4f63-adc4-fee55e0c9465","ios":"levelo://app?vid=3f5a3c1b-1dd0-4f63-adc4-fee55e0c9465"},"vehicle_type_id":"4","last_reported":1783382596,"current_range_meters":8000,"station_id":"","pricing_plan_id":"cebpf4jnsgd1na2vs0mg"},{"bike_id":"ce984c70-b306-4b18-a72a-4e5e26192971","system_id":"levelo_inurba_marseille","lat":43.23687,"lon":5.36067,"is_reserved":false,"is_disabled":false,"rental_uris":{"android":"levelo://app?vid=ce984c70-b306-4b18-a72a-4e5e26192971","ios":"levelo://app?vid=ce984c70-b306-4b18-a72a-4e5e26192971"},"vehicle_type_id":"4","last_reported":1783382596,"current_range_meters":8000,"station_id":"","pricing_plan_id":"cebpf4jnsgd1na2vs0mg"},{"bike_id":"0fa71897-9cca-46b8-a3ec-c36b09aecc9f","system_id":"levelo_inurba_marseille","lat":43.29631,"lon":5.40597,"is_reserved":false,"is_disabled":false,"rental_uris":{"android":"levelo://app?vid=0fa71897-9cca-46b8-a3ec-c36b09aecc9f","ios":"levelo://app?vid=0fa71897-9cca-46b8-a3ec-c36b09aecc9f"},"vehicle_type_id":"4","last_reported":1783382596,"current_range_meters":8000,"station_id":"ce4bh0h2rcd13ifvqd60","pricing_plan_id":"cebpf4jnsgd1na2vs0mg"},{"bike_id":"a3e9490f-5a0a-4c20-818c-92c869956a89","system_id":"levelo_inurba_marseille","lat":43.25082,"lon":5.39502,"is_reserved":false,"is_disabled":false,"rental_uris":{"android":"levelo://app?vid=a3e9490f-5a0a-4c20-818c-92c869956a89","ios":"levelo://app?vid=a3e9490f-5a0a-4c20-818c-92c869956a89"},"vehicle_type_id":"4","last_reported":1783382596,"current_range_meters":8000,"station_id":"ce4bhm12rcd13ifvqgkg","pricing_plan_id":"cebpf4jnsgd1na2vs0mg"},{"bike_id":"3bae36b2-9d85-480c-a578-1a97c1dc46de","system_id":"levelo_inurba_marseille","lat":43.31539,"lon":5.3741,"is_reserved":false,"is_disabled":false,"rental_uris":{"android":"levelo://app?vid=3bae36b2-9d85-480c-a578-1a97c1dc46de","ios":"levelo://app?vid=3bae36b2-9d85-480c-a578-1a97c1dc46de"},"vehicle_type_id":"4","last_reported":1783382596,"current_range_meters":8000,"station_id":"","pricing_plan_id":"cebpf4jnsgd1na2vs0mg"},{"bike_id":"5d86b446-fd99-4166-8a03-4ca2106a40d6","system_id":"levelo_inurba_marseille","lat":43.25074,"lon":5.40427,"is_reserved":false,"is_disabled":false,"rental_uris":{"android":"levelo://app?vid=5d86b446-fd99-4166-8a03-4ca2106a40d6","ios":"levelo://app?vid=5d86b446-fd99-4166-8a03-4ca2106a40d6"},"vehicle_type_id":"4","last_reported":1783382596,"current_range_meters":8000,"station_id":"","pricing_plan_id":"cebpf4jnsgd1na2vs0mg"},{"bike_id":"299e017c-2e18-42bc-a1e7-ff9688dc2341","system_id":"levelo_inurba_marseille","lat":43.293382,"lon":5.371394,"is_reserved":false,"is_disabled":false,"rental_uris":{"android":"levelo://app?vid=299e017c-2e18-42bc-a1e7-ff9688dc2341","ios":"levelo://app?vid=299e017c-2e18-42bc-a1e7-ff9688dc2341"},"vehicle_type_id":"4","last_reported":1783382596,"current_range_meters":8000,"station_id":"ce4bgh92rcd13ifvqb40","pricing_plan_id":"cebpf4jnsgd1na2vs0mg"},{"bike_id":"7cb6d6a0-9470-4290-bc7d-c958e9c7456d","system_id":"levelo_inurba_marseille","lat":43.30925,"lon":5.40141,"is_reserved":false,"is_disabled":false,"rental_uris":{"android":"levelo://app?vid=7cb6d6a0-9470-4290-bc7d-c958e9c7456d","ios":"levelo://app?vid=7cb6d6a0-9470-4290-bc7d-c958e9c7456d"},"vehicle_type_id":"4","last_reported":1783382596,"current_range_meters":8000,"station_id":"ce4bgvp2rcd13ifvqct0","pricing_plan_id":"cebpf4jnsgd1na2vs0mg"},{"bike_id":"7a6a977d-9153-482a-89a9-246550cd3350","system_id":"levelo_inurba_marseille","lat":43.25083,"lon":5.39526,"is_reserved":false,"is_disabled":false,"rental_uris":{"android":"levelo://app?vid=7a6a977d-9153-482a-89a9-246550cd3350","ios":"levelo://app?vid=7a6a977d-9153-482a-89a9-246550cd3350"},"vehicle_type_id":"4","last_reported":1783382596,"current_range_meters":8000,"station_id":"ce4bhm12rcd13ifvqgkg","pricing_plan_id":"cebpf4jnsgd1na2vs0mg"},{"bike_id":"28589d0d-2304-431c-b49a-901cb28a29f5","system_id":"levelo_inurba_marseille","lat":43.23711,"lon":5.39008,"is_reserved":false,"is_disabled":false,"rental_uris":{"android":"levelo://app?vid=28589d0d-2304-431c-b49a-901cb28a29f5","ios":"levelo://app?vid=28589d0d-2304-431c-b49a-901cb28a29f5"},"vehicle_type_id":"4","last_reported":1783382596,"current_range_meters":8000,"station_id":"","pricing_plan_id":"cebpf4jnsgd1na2vs0mg"},{"bike_id":"715fb222-46c5-48e2-943d-b55ccce8e372","system_id":"levelo_inurba_marseille","lat":43.28748,"lon":5.36095,"is_reserved":false,"is_disabled":false,"rental_uris":{"android":"levelo://app?vid=715fb222-46c5-48e2-943d-b55ccce8e372","ios":"levelo://app?vid=715fb222-46c5-48e2-943d-b55ccce8e372"},"vehicle_type_id":"4","last_reported":1783382596,"current_range_meters":8400,"station_id":"cki0cbj6b192h4jlfktg","pricing_plan_id":"cebpf4jnsgd1na2vs0mg"},{"bike_id":"35a8bd52-7911-4107-a9c6-ce1a25e31e7e","system_id":"levelo_inurba_marseille","lat":43.29346,"lon":5.40223,"is_reserved":false,"is_disabled":false,"rental_uris":{"android":"levelo://app?vid=35a8bd52-7911-4107-a9c6-ce1a25e31e7e","ios":"levelo://app?vid=35a8bd52-7911-4107-a9c6-ce1a25e31e7e"},"vehicle_type_id":"4","last_reported":1783382596,"current_range_meters":8400,"station_id":"","pricing_plan_id":"cebpf4jnsgd1na2vs0mg"},{"bike_id":"40a7e3e2-7186-442f-83e0-abe588ec57c5","system_id":"levelo_inurba_marseille","lat":43.27974,"lon":5.38696,"is_reserved":false,"is_disabled":false,"rental_uris":{"android":"levelo://app?vid=40a7e3e2-7186-442f-83e0-abe588ec57c5","ios":"levelo://app?vid=40a7e3e2-7186-442f-83e0-abe588ec57c5"},"vehicle_type_id":"4","last_reported":1783382596,"current_range_meters":8400,"station_id":"ce4bhg12rcd13ifvqf80","pricing_plan_id":"cebpf4jnsgd1na2vs0mg"},{"bike_id":"228fdd3d-19fc-4b66-baff-f39ddd5aa00c","system_id":"levelo_inurba_marseille","lat":43.29968,"lon":5.38475,"is_reserved":false,"is_disabled":false,"rental_uris":{"android":"levelo://app?vid=228fdd3d-19fc-4b66-baff-f39ddd5aa00c","ios":"levelo://app?vid=228fdd3d-19fc-4b66-baff-f39ddd5aa00c"},"vehicle_type_id":"4","last_reported":1783382596,"current_range_meters":8400,"station_id":"ce4bgj92rcd13ifvqbd0","pricing_plan_id":"cebpf4jnsgd1na2vs0mg"},{"bike_id":"2d8f18c5-fc36-49f4-830e-33307f788a9d","system_id":"levelo_inurba_marseille","lat":43.27047,"lon":5.42249,"is_reserved":false,"is_disabled":false,"rental_uris":{"android":"levelo://app?vid=2d8f18c5-fc36-49f4-830e-33307f788a9d","ios":"levelo://app?vid=2d8f18c5-fc36-49f4-830e-33307f788a9d"},"vehicle_type_id":"4","last_reported":1783382596,"current_range_meters":8400,"station_id":"ce4bhk92rcd13ifvqgb0","pricing_plan_id":"cebpf4jnsgd1na2vs0mg"},{"bike_id":"ca6c165a-13e1-4bcb-a2a1-934c1c474bc6","system_id":"levelo_inurba_marseille","lat":43.2887,"lon":5.39309,"is_reserved":false,"is_disabled":false,"rental_uris":{"android":"levelo://app?vid=ca6c165a-13e1-4bcb-a2a1-934c1c474bc6","ios":"levelo://app?vid=ca6c165a-13e1-4bcb-a2a1-934c1c474bc6"},"vehicle_type_id":"4","last_reported":1783382596,"current_range_meters":8400,"station_id":"ce4bh2p2rcd13ifvqdi0","pricing_plan_id":"cebpf4jnsgd1na2vs0mg"},{"bike_id":"2fa0e237-ba63-4b8c-8993-7270fa3aaacc","system_id":"levelo_inurba_marseille","lat":43.29854,"lon":5.36744,"is_reserved":false,"is_disabled":false,"rental_uris":{"android":"levelo://app?vid=2fa0e237-ba63-4b8c-8993-7270fa3aaacc","ios":"levelo://app?vid=2fa0e237-ba63-4b8c-8993-7270fa3aaacc"},"vehicle_type_id":"4","last_reported":1783382596,"current_range_meters":8400,"station_id":"","pricing_plan_id":"cebpf4jnsgd1na2vs0mg"},{"bike_id":"0961aae5-8acf-4e66-95a7-76ee8fdbcad6","system_id":"levelo_inurba_marseille","lat":43.29608,"lon":5.38115,"is_reserved":false,"is_disabled":true,"rental_uris":{"android":"levelo://app?vid=0961aae5-8acf-4e66-95a7-76ee8fdbcad6","ios":"levelo://app?vid=0961aae5-8acf-4e66-95a7-76ee8fdbcad6"},"vehicle_type_id":"4","last_reported":1783382596,"current_range_meters":8400,"station_id":"ce4bgl12rcd13ifvqbo0","pricing_plan_id":"cebpf4jnsgd1na2vs0mg"},{"bike_id":"11016df3-b1f9-479f-8b7b-0714d0f2b813","system_id":"levelo_inurba_marseille","lat":43.27175,"lon":5.40997,"is_reserved":false,"is_disabled":false,"rental_uris":{"android":"levelo://app?vid=11016df3-b1f9-479f-8b7b-0714d0f2b813","ios":"levelo://app?vid=11016df3-b1f9-479f-8b7b-0714d0f2b813"},"vehicle_type_id":"4","last_reported":1783382596,"current_range_meters":8400,"station_id":"ce4bhl12rcd13ifvqgf0","pricing_plan_id":"cebpf4jnsgd1na2vs0mg"},{"bike_id":"39d344a6-9f9e-4e03-abbf-54d88c3a78f1","system_id":"levelo_inurba_marseille","lat":43.33761,"lon":5.37463,"is_reserved":false,"is_disabled":false,"rental_uris":{"android":"levelo://app?vid=39d344a6-9f9e-4e03-abbf-54d88c3a78f1","ios":"levelo://app?vid=39d344a6-9f9e-4e03-abbf-54d88c3a78f1"},"vehicle_type_id":"4","last_reported":1783382596,"current_range_meters":8400,"station_id":"","pricing_plan_id":"cebpf4jnsgd1na2vs0mg"},{"bike_id":"7158fc6f-1abf-4381-8e00-b4fbac8c82d0","system_id":"levelo_inurba_marseille","lat":43.28675,"lon":5.38652,"is_reserved":false,"is_disabled":false,"rental_uris":{"android":"levelo://app?vid=7158fc6f-1abf-4381-8e00-b4fbac8c82d0","ios":"levelo://app?vid=7158fc6f-1abf-4381-8e00-b4fbac8c82d0"},"vehicle_type_id":"4","last_reported":1783382596,"current_range_meters":8400,"station_id":"ce4bh492rcd13ifvqdug","pricing_plan_id":"cebpf4jnsgd1na2vs0mg"},{"bike_id":"e1ba6431-3d94-434c-8803-d9bd884f8581","system_id":"levelo_inurba_marseille","lat":43.28935,"lon":5.366399,"is_reserved":false,"is_disabled":false,"rental_uris":{"android":"levelo://app?vid=e1ba6431-3d94-434c-8803-d9bd884f8581","ios":"levelo://app?vid=e1ba6431-3d94-434c-8803-d9bd884f8581"},"vehicle_type_id":"4","last_reported":1783382596,"current_range_meters":8400,"station_id":"ce4bhap2rcd13ifvqek0","pricing_plan_id":"cebpf4jnsgd1na2vs0mg"},{"bike_id":"8d75a2fe-d2ad-4140-be84-375939074d27","system_id":"levelo_inurba_marseille","lat":43.30437,"lon":5.38893,"is_reserved":false,"is_disabled":false,"rental_uris":{"android":"levelo://app?vid=8d75a2fe-d2ad-4140-be84-375939074d27","ios":"levelo://app?vid=8d75a2fe-d2ad-4140-be84-375939074d27"},"vehicle_type_id":"4","last_reported":1783382596,"current_range_meters":8400,"station_id":"ce4bgk12rcd13ifvqbi0","pricing_plan_id":"cebpf4jnsgd1na2vs0mg"},{"bike_id":"181230c0-b73e-4f1d-8297-1c53df262a30","system_id":"levelo_inurba_marseille","lat":43.29918,"lon":5.37479,"is_reserved":false,"is_disabled":false,"rental_uris":{"android":"levelo://app?vid=181230c0-b73e-4f1d-8297-1c53df262a30","ios":"levelo://app?vid=181230c0-b73e-4f1d-8297-1c53df262a30"},"vehicle_type_id":"4","last_reported":1783382596,"current_range_meters":8400,"station_id":"ce4bgjh2rcd13ifvqbg0","pricing_plan_id":"cebpf4jnsgd1na2vs0mg"},{"bike_id":"529bc5b1-7d8d-4619-a01a-d34c94fb17bd","system_id":"levelo_inurba_marseille","lat":43.30551,"lon":5.36538,"is_reserved":false,"is_disabled":true,"rental_uris":{"android":"levelo://app?vid=529bc5b1-7d8d-4619-a01a-d34c94fb17bd","ios":"levelo://app?vid=529bc5b1-7d8d-4619-a01a-d34c94fb17bd"},"vehicle_type_id":"4","last_reported":1783382596,"current_range_meters":8400,"station_id":"ce4bgs12rcd13ifvqcag","pricing_plan_id":"cebpf4jnsgd1na2vs0mg"},{"bike_id":"1a60d9d9-0873-40e1-8ed4-6dfbb9d7b564","system_id":"levelo_inurba_marseille","lat":43.25086,"lon":5.39516,"is_reserved":false,"is_disabled":false,"rental_uris":{"android":"levelo://app?vid=1a60d9d9-0873-40e1-8ed4-6dfbb9d7b564","ios":"levelo://app?vid=1a60d9d9-0873-40e1-8ed4-6dfbb9d7b564"},"vehicle_type_id":"4","last_reported":1783382596,"current_range_meters":8400,"station_id":"ce4bhm12rcd13ifvqgkg","pricing_plan_id":"cebpf4jnsgd1na2vs0mg"},{"bike_id":"ec4fef11-b8e3-447d-956f-a1797158205f","system_id":"levelo_inurba_marseille","lat":43.2791,"lon":5.39578,"is_reserved":false,"is_disabled":false,"rental_uris":{"android":"levelo://app?vid=ec4fef11-b8e3-447d-956f-a1797158205f","ios":"levelo://app?vid=ec4fef11-b8e3-447d-956f-a1797158205f"},"vehicle_type_id":"4","last_reported":1783382596,"current_range_meters":8400,"station_id":"ce4bhf92rcd13ifvqf40","pricing_plan_id":"cebpf4jnsgd1na2vs0mg"},{"bike_id":"30943e09-16fc-488e-ad38-eca01f9d1c7b","system_id":"levelo_inurba_marseille","lat":43.24789,"lon":5.37447,"is_reserved":false,"is_disabled":true,"rental_uris":{"android":"levelo://app?vid=30943e09-16fc-488e-ad38-eca01f9d1c7b","ios":"levelo://app?vid=30943e09-16fc-488e-ad38-eca01f9d1c7b"},"vehicle_type_id":"4","last_reported":1783382596,"current_range_meters":8400,"station_id":"ce4bhgh2rcd13ifvqfb0","pricing_plan_id":"cebpf4jnsgd1na2vs0mg"},{"bike_id":"ec6a2655-b5be-4013-b85a-d7852c91b8a4","system_id":"levelo_inurba_marseille","lat":43.25582,"lon":5.38235,"is_reserved":false,"is_disabled":false,"rental_uris":{"android":"levelo://app?vid=ec6a2655-b5be-4013-b85a-d7852c91b8a4","ios":"levelo://app?vid=ec6a2655-b5be-4013-b85a-d7852c91b8a4"},"vehicle_type_id":"4","last_reported":1783382596,"current_range_meters":8400,"station_id":"ce4bhih2rcd13ifvqfs0","pricing_plan_id":"cebpf4jnsgd1na2vs0mg"},{"bike_id":"b62ea962-a506-4079-998d-e8b0a58aa1dc","system_id":"levelo_inurba_marseille","lat":43.23582,"lon":5.37516,"is_reserved":false,"is_disabled":false,"rental_uris":{"android":"levelo://app?vid=b62ea962-a506-4079-998d-e8b0a58aa1dc","ios":"levelo://app?vid=b62ea962-a506-4079-998d-e8b0a58aa1dc"},"vehicle_type_id":"4","last_reported":1783382596,"current_range_meters":8400,"station_id":"","pricing_plan_id":"cebpf4jnsgd1na2vs0mg"},{"bike_id":"6058a7a6-415a-4e25-82e8-6b8b704b811c","system_id":"levelo_inurba_marseille","lat":43.30932,"lon":5.40163,"is_reserved":false,"is_disabled":false,"rental_uris":{"android":"levelo://app?vid=6058a7a6-415a-4e25-82e8-6b8b704b811c","ios":"levelo://app?vid=6058a7a6-415a-4e25-82e8-6b8b704b811c"},"vehicle_type_id":"4","last_reported":1783382596,"current_range_meters":8400,"station_id":"ce4bgvp2rcd13ifvqct0","pricing_plan_id":"cebpf4jnsgd1na2vs0mg"},{"bike_id":"93e14ad7-e4a9-499e-a219-46b97f50530d","system_id":"levelo_inurba_marseille","lat":43.32181,"lon":5.38252,"is_reserved":false,"is_disabled":false,"rental_uris":{"android":"levelo://app?vid=93e14ad7-e4a9-499e-a219-46b97f50530d","ios":"levelo://app?vid=93e14ad7-e4a9-499e-a219-46b97f50530d"},"vehicle_type_id":"4","last_reported":1783382596,"current_range_meters":8400,"station_id":"","pricing_plan_id":"cebpf4jnsgd1na2vs0mg"},{"bike_id":"4d0add21-ff27-4edc-93f5-fa42fb84a03d","system_id":"levelo_inurba_marseille","lat":43.26371,"lon":5.4109,"is_reserved":false,"is_disabled":false,"rental_uris":{"android":"levelo://app?vid=4d0add21-ff27-4edc-93f5-fa42fb84a03d","ios":"levelo://app?vid=4d0add21-ff27-4edc-93f5-fa42fb84a03d"},"vehicle_type_id":"4","last_reported":1783382596,"current_range_meters":8800,"station_id":"st_d4e5ca6na9uc73bfl5fg","pricing_plan_id":"cebpf4jnsgd1na2vs0mg"},{"bike_id":"b7841ab8-cf64-4c27-9ae1-388859f4dffe","system_id":"levelo_inurba_marseille","lat":43.28875,"lon":5.42516,"is_reserved":false,"is_disabled":false,"rental_uris":{"android":"levelo://app?vid=b7841ab8-cf64-4c27-9ae1-388859f4dffe","ios":"levelo://app?vid=b7841ab8-cf64-4c27-9ae1-388859f4dffe"},"vehicle_type_id":"4","last_reported":1783382596,"current_range_meters":8800,"station_id":"st_d3b462108ojc7389ooeg","pricing_plan_id":"cebpf4jnsgd1na2vs0mg"},{"bike_id":"6f4fccde-d7eb-45ae-b31f-60bbbc67f714","system_id":"levelo_inurba_marseille","lat":43.29589,"lon":5.37505,"is_reserved":false,"is_disabled":true,"rental_uris":{"android":"levelo://app?vid=6f4fccde-d7eb-45ae-b31f-60bbbc67f714","ios":"levelo://app?vid=6f4fccde-d7eb-45ae-b31f-60bbbc67f714"},"vehicle_type_id":"4","last_reported":1783382596,"current_range_meters":8800,"station_id":"ce4bgh92rcd13ifvqb50","pricing_plan_id":"cebpf4jnsgd1na2vs0mg"},{"bike_id":"9b9fd579-426b-426f-8714-78b47197543e","system_id":"levelo_inurba_marseille","lat":43.28699,"lon":5.39975,"is_reserved":false,"is_disabled":false,"rental_uris":{"android":"levelo://app?vid=9b9fd579-426b-426f-8714-78b47197543e","ios":"levelo://app?vid=9b9fd579-426b-426f-8714-78b47197543e"},"vehicle_type_id":"4","last_reported":1783382596,"current_range_meters":8800,"station_id":"ce4bho92rcd13ifvqh3g","pricing_plan_id":"cebpf4jnsgd1na2vs0mg"},{"bike_id":"fe3da888-3e9f-4e11-ae7d-7c440f2685d5","system_id":"levelo_inurba_marseille","lat":43.27062,"lon":5.40273,"is_reserved":false,"is_disabled":false,"rental_uris":{"android":"levelo://app?vid=fe3da888-3e9f-4e11-ae7d-7c440f2685d5","ios":"levelo://app?vid=fe3da888-3e9f-4e11-ae7d-7c440f2685d5"},"vehicle_type_id":"4","last_reported":1783382596,"current_range_meters":8800,"station_id":"ce4bhk92rcd13ifvqgc0","pricing_plan_id":"cebpf4jnsgd1na2vs0mg"},{"bike_id":"6cc2e52e-3e0d-46fa-80dd-7c57c4aacffb","system_id":"levelo_inurba_marseille","lat":43.28153,"lon":5.42622,"is_reserved":false,"is_disabled":false,"rental_uris":{"android":"levelo://app?vid=6cc2e52e-3e0d-46fa-80dd-7c57c4aacffb","ios":"levelo://app?vid=6cc2e52e-3e0d-46fa-80dd-7c57c4aacffb"},"vehicle_type_id":"4","last_reported":1783382596,"current_range_meters":8800,"station_id":"ce4bhnh2rcd13ifvqgug","pricing_plan_id":"cebpf4jnsgd1na2vs0mg"},{"bike_id":"c3c91840-2ba3-4e3e-80b8-7f973ffb9d22","system_id":"levelo_inurba_marseille","lat":43.24617,"lon":5.43148,"is_reserved":false,"is_disabled":false,"rental_uris":{"android":"levelo://app?vid=c3c91840-2ba3-4e3e-80b8-7f973ffb9d22","ios":"levelo://app?vid=c3c91840-2ba3-4e3e-80b8-7f973ffb9d22"},"vehicle_type_id":"4","last_reported":1783382596,"current_range_meters":8800,"station_id":"st_d2m6c4gdas8pm72e190g","pricing_plan_id":"cebpf4jnsgd1na2vs0mg"},{"bike_id":"81794b5e-7ec2-4f91-8e91-fd6bd8a3372c","system_id":"levelo_inurba_marseille","lat":43.26913,"lon":5.38895,"is_reserved":false,"is_disabled":false,"rental_uris":{"android":"levelo://app?vid=81794b5e-7ec2-4f91-8e91-fd6bd8a3372c","ios":"levelo://app?vid=81794b5e-7ec2-4f91-8e91-fd6bd8a3372c"},"vehicle_type_id":"4","last_reported":1783382596,"current_range_meters":8800,"station_id":"ce4bhhh2rcd13ifvqfl0","pricing_plan_id":"cebpf4jnsgd1na2vs0mg"},{"bike_id":"11e0987a-629d-4552-9a97-55d17aefe2e2","system_id":"levelo_inurba_marseille","lat":43.25639,"lon":5.38736,"is_reserved":false,"is_disabled":false,"rental_uris":{"android":"levelo://app?vid=11e0987a-629d-4552-9a97-55d17aefe2e2","ios":"levelo://app?vid=11e0987a-629d-4552-9a97-55d17aefe2e2"},"vehicle_type_id":"4","last_reported":1783382596,"current_range_meters":8800,"station_id":"","pricing_plan_id":"cebpf4jnsgd1na2vs0mg"},{"bike_id":"eecfd652-8ae6-4be6-bce4-25c53362f305","system_id":"levelo_inurba_marseille","lat":43.30591,"lon":5.37204,"is_reserved":false,"is_disabled":false,"rental_uris":{"android":"levelo://app?vid=eecfd652-8ae6-4be6-bce4-25c53362f305","ios":"levelo://app?vid=eecfd652-8ae6-4be6-bce4-25c53362f305"},"vehicle_type_id":"4","last_reported":1783382596,"current_range_meters":8800,"station_id":"ce4bgqh2rcd13ifvqc4g","pricing_plan_id":"cebpf4jnsgd1na2vs0mg"},{"bike_id":"1f8f3e40-17a8-4f5c-8f54-b5b36153126c","system_id":"levelo_inurba_marseille","lat":43.28862,"lon":5.425181,"is_reserved":false,"is_disabled":false,"rental_uris":{"android":"levelo://app?vid=1f8f3e40-17a8-4f5c-8f54-b5b36153126c","ios":"levelo://app?vid=1f8f3e40-17a8-4f5c-8f54-b5b36153126c"},"vehicle_type_id":"4","last_reported":1783382596,"current_range_meters":8800,"station_id":"st_d3b462108ojc7389ooeg","pricing_plan_id":"cebpf4jnsgd1na2vs0mg"},