{"last_updated":1739034393,"ttl":60,"version":"2.2","data":{"bikes":[{"bike_id":"4d1cb6c8-6560-49bb-a306-8fb356ee06c2","system_id":"levelo_inurba_marseille","lat":43.28462,"lon":5.38399,"is_reserved":false,"is_disabled":false,"rental_uris":{"android":"levelo://app?vid=4d1cb6c8-6560-49bb-a306-8fb356ee06c2","ios":"levelo://app?vid=4d1cb6c8-6560-49bb-a306-8fb356ee06c2"},"vehicle_type_id":"4","last_reported":1739034393,"current_range_meters":28800,"station_id":"ce4bh512rcd13ifvqe3g","pricing_plan_id":"cebpf4jnsgd1na2vs0mg"},{"bike_id":"8bf9c0d5-b42b-43f3-ac16-58c6303bc32c","system_id":"levelo_inurba_marseille","lat":43.27069,"lon":5.42276,"is_reserved":false,"is_disabled":false,"rental_uris":{"android":"levelo://app?vid=8bf9c0d5-b42b-43f3-ac16-58c6303bc32c","ios":"levelo://app?vid=8bf9c0d5-b42b-43f3-ac16-58c6303bc32c"},"vehicle_type_id":"4","last_reported":1739034393,"current_range_meters":19200,"station_id":"ce4bhk92rcd13ifvqgb0","pricing_plan_id":"cebpf4jnsgd1na2vs0mg"},{"bike_id":"24e6347d-30fc-429d-a054-000bdfd80c76","system_id":"levelo_inurba_marseille","lat":43.28271,"lon":5.35073,"is_reserved":false,"is_disabled":false,"rental_uris":{"android":"levelo://app?vid=24e6347d-30fc-429d-a054-000bdfd80c76","ios":"levelo://app?vid=24e6347d-30fc-429d-a054-000bdfd80c76"},"vehicle_type_id":"4","last_reported":1739034393,"current_range_meters":38800,"station_id":"ce4bhbp2rcd13ifvqerg","pricing_plan_id":"cebpf4jnsgd1na2vs0mg"},{"bike_id":"766888b5-c4fc-4a52-8519-b9f91c1746e2","system_id":"levelo_inurba_marseille","lat":43.29004,"lon":5.35612,"is_reserved":false,"is_disabled":false,"rental_uris":{"android":"levelo://app?vid=766888b5-c4fc-4a52-8519-b9f91c1746e2","ios":"levelo://app?vid=766888b5-c4fc-4a52-8519-b9f91c1746e2"},"vehicle_type_id":"4","last_reported":1739034393,"current_range_meters":39200,"station_id":"ce4bhb92rcd13ifvqen0","pricing_plan_id":"cebpf4jnsgd1na2vs0mg"},{"bike_id":"cfa7f1cc-5150-48ed-843c-f6960ddad1e1","system_id":"levelo_inurba_marseille","lat":43.26494,"lon":5.39539,"is_reserved":false,"is_disabled":true,"rental_uris":{"android":"levelo://app?vid=cfa7f1cc-5150-48ed-843c-f6960ddad1e1","ios":"levelo://app?vid=cfa7f1cc-5150-48ed-843c-f6960ddad1e1"},"vehicle_type_id":"4","last_reported":1739034393,"current_range_meters":13600,"station_id":"ce4bhi12rcd13ifvqfq0","pricing_plan_id":"cebpf4jnsgd1na2vs0mg"},{"bike_id":"5d50f36a-2424-4375-af80-536fab98e351","system_id":"levelo_inurba_marseille","lat":43.26574,"lon":5.39008,"is_reserved":false,"is_disabled":false,"rental_uris":{"android":"levelo://app?vid=5d50f36a-2424-4375-af80-536fab98e351","ios":"levelo://app?vid=5d50f36a-2424-4375-af80-536fab98e351"},"vehicle_type_id":"4","last_reported":1739034393,"current_range_meters":36800,"station_id":"ce4bhe12rcd13ifvqf30","pricing_plan_id":"cebpf4jnsgd1na2vs0mg"},{"bike_id":"e06bad01-5d50-47d2-96c7-a75ef9dc120d","system_id":"levelo_inurba_marseille","lat":43.33763,"lon":5.37479,"is_reserved":false,"is_disabled":false,"rental_uris":{"android":"levelo://app?vid=e06bad01-5d50-47d2-96c7-a75ef9dc120d","ios":"levelo://app?vid=e06bad01-5d50-47d2-96c7-a75ef9dc120d"},"vehicle_type_id":"4","last_reported":1739034393,"current_range_meters":24800,"station_id":"","pricing_plan_id":"cebpf4jnsgd1na2vs0mg"},{"bike_id":"f2e06baa-60fe-40f3-9f0e-2b7a9f451081","system_id":"levelo_inurba_marseille","lat":43.29203,"lon":5.39335,"is_reserved":false,"is_disabled":false,"rental_uris":{"android":"levelo://app?vid=f2e06baa-60fe-40f3-9f0e-2b7a9f451081","ios":"levelo://app?vid=f2e06baa-60fe-40f3-9f0e-2b7a9f451081"},"vehicle_type_id":"4","last_reported":1739034393,"current_range_meters":35200,"station_id":"ce4bh192rcd13ifvqdd0","pricing_plan_id":"cebpf4jnsgd1na2vs0mg"},{"bike_id":"7e8bec65-5945-4fa0-8df6-04403a22eb14","system_id":"levelo_inurba_marseille","lat":43.27322,"lon":5.39097,"is_reserved":false,"is_disabled":false,"rental_uris":{"android":"levelo://app?vid=7e8bec65-5945-4fa0-8df6-04403a22eb14","ios":"levelo://app?vid=7e8bec65-5945-4fa0-8df6-04403a22eb14"},"vehicle_type_id":"4","last_reported":1739034393,"current_range_meters":25600,"station_id":"ce4bhgp2rcd13ifvqfe0","pricing_plan_id":"cebpf4jnsgd1na2vs0mg"},{"bike_id":"15c96056-3eec-481e-ae97-810456b5f874","system_id":"levelo_inurba_marseille","lat":43.29535,"lon":5.39038,"is_reserved":false,"is_disabled":false,"rental_uris":{"android":"levelo://app?vid=15c96056-3eec-481e-ae97-810456b5f874","ios":"levelo://app?vid=15c96056-3eec-481e-ae97-810456b5f874"},"vehicle_type_id":"4","last_reported":1739034393,"current_range_meters":38800,"station_id":"ce4bh3p2rcd13ifvqdp0","pricing_plan_id":"cebpf4jnsgd1na2vs0mg"},{"bike_id":"7d76beb3-3577-4e70-b961-5c1ce14ac0c3","system_id":"levelo_inurba_marseille","lat":43.27899,"lon":5.38072,"is_reserved":false,"is_disabled":false,"rental_uris":{"android":"levelo://app?vid=7d76beb3-3577-4e70-b961-5c1ce14ac0c3","ios":"levelo://app?vid=7d76beb3-3577-4e70-b961-5c1ce14ac0c3"},"vehicle_type_id":"4","last_reported":1739034393,"current_range_meters":38800,"station_id":"ce4bhf92rcd13ifvqf50","pricing_plan_id":"cebpf4jnsgd1na2vs0mg"},{"bike_id":"952ab6ee-c71f-431a-a116-28c771dc3a24","system_id":"levelo_inurba_marseille","lat":43.27938,"lon":5.41048,"is_reserved":false,"is_disabled":true,"rental_uris":{"android":"levelo://app?vid=952ab6ee-c71f-431a-a116-28c771dc3a24","ios":"levelo://app?vid=952ab6ee-c71f-431a-a116-28c771dc3a24"},"vehicle_type_id":"4","last_reported":1739034393,"current_range_meters":0,"station_id":"ce4bhnp2rcd13ifvqh0g","pricing_plan_id":"cebpf4jnsgd1na2vs0mg"},{"bike_id":"8714e017-e286-482f-a290-5462dbc515a7","system_id":"levelo_inurba_marseille","lat":43.29004,"lon":5.35613,"is_reserved":false,"is_disabled":false,"rental_uris":{"android":"levelo://app?vid=8714e017-e286-482f-a290-5462dbc515a7","ios":"levelo://app?vid=8714e017-e286-482f-a290-5462dbc515a7"},"vehicle_type_id":"4","last_reported":1739034393,"current_range_meters":23200,"station_id":"ce4bhb92rcd13ifvqen0","pricing_plan_id":"cebpf4jnsgd1na2vs0mg"},{"bike_id":"748060b5-b076-40e0-8ffa-ae2ef61bee30","system_id":"levelo_inurba_marseille","lat":43.29418,"lon":5.38624,"is_reserved":false,"is_disabled":false,"rental_uris":{"android":"levelo://app?vid=748060b5-b076-40e0-8ffa-ae2ef61bee30","ios":"levelo://app?vid=748060b5-b076-40e0-8ffa-ae2ef61bee30"},"vehicle_type_id":"4","last_reported":1739034393,"current_range_meters":35600,"station_id":"ce4bh2h2rcd13ifvqdh0","pricing_plan_id":"cebpf4jnsgd1na2vs0mg"},{"bike_id":"b6d48149-17e0-40ef-8e68-c604ce775f96","system_id":"levelo_inurba_marseille","lat":43.29575,"lon":5.37511,"is_reserved":false,"is_disabled":false,"rental_uris":{"android":"levelo://app?vid=b6d48149-17e0-40ef-8e68-c604ce775f96","ios":"levelo://app?vid=b6d48149-17e0-40ef-8e68-c604ce775f96"},"vehicle_type_id":"4","last_reported":1739034393,"current_range_meters":38800,"station_id":"ce4bgh92rcd13ifvqb50","pricing_plan_id":"cebpf4jnsgd1na2vs0mg"},{"bike_id":"229ec6e5-63c4-4dd4-acc8-aaaf6999966d","system_id":"levelo_inurba_marseille","lat":43.28932,"lon":5.38401,"is_reserved":false,"is_disabled":false,"rental_uris":{"android":"levelo://app?vid=229ec6e5-63c4-4dd4-acc8-aaaf6999966d","ios":"levelo://app?vid=229ec6e5-63c4-4dd4-acc8-aaaf6999966d"},"vehicle_type_id":"4","last_reported":1739034393,"current_range_meters":38800,"station_id":"ce4bh612rcd13ifvqe6g","pricing_plan_id":"cebpf4jnsgd1na2vs0mg"},{"bike_id":"b0022d8e-34f1-4160-a0a4-61c7a92d5283","system_id":"levelo_inurba_marseille","lat":43.291,"lon":5.38165,"is_reserved":false,"is_disabled":false,"rental_uris":{"android":"levelo://app?vid=b0022d8e-34f1-4160-a0a4-61c7a92d5283","ios":"levelo://app?vid=b0022d8e-34f1-4160-a0a4-61c7a92d5283"},"vehicle_type_id":"4","last_reported":1739034393,"current_range_meters":38800,"station_id":"ce4bh512rcd13ifvqe2g","pricing_plan_id":"cebpf4jnsgd1na2vs0mg"},{"bike_id":"07b57a82-8e6c-43d6-8a3e-711efcab3b84","system_id":"levelo_inurba_marseille","lat":43.2971,"lon":5.37719,"is_reserved":false,"is_disabled":false,"rental_uris":{"android":"levelo://app?vid=07b57a82-8e6c-43d6-8a3e-711efcab3b84","ios":"levelo://app?vid=07b57a82-8e6c-43d6-8a3e-711efcab3b84"},"vehicle_type_id":"4","last_reported":1739034393,"current_range_meters":35200,"station_id":"ce4bgkh2rcd13ifvqbl0","pricing_plan_id":"cebpf4jnsgd1na2vs0mg"},{"bike_id":"949ecb89-56e4-4c04-a100-83de2f0eaaf9","system_id":"levelo_inurba_marseille","lat":43.27804,"lon":5.40715,"is_reserved":false,"is_disabled":false,"rental_uris":{"android":"levelo://app?vid=949ecb89-56e4-4c04-a100-83de2f0eaaf9","ios":"levelo://app?vid=949ecb89-56e4-4c04-a100-83de2f0eaaf9"},"vehicle_type_id":"4","last_reported":1739034393,"current_range_meters":28000,"station_id":"ce4bhnh2rcd13ifvqgtg","pricing_plan_id":"cebpf4jnsgd1na2vs0mg"},{"bike_id":"6a3bf5dc-6406-4053-977a-019d33b4193c","system_id":"levelo_inurba_marseille","lat":43.28409,"lon":5.37529,"is_reserved":false,"is_disabled":false,"rental_uris":{"android":"levelo://app?vid=6a3bf5dc-6406-4053-977a-019d33b4193c","ios":"levelo://app?vid=6a3bf5dc-6406-4053-977a-019d33b4193c"},"vehicle_type_id":"4","last_reported":1739034393,"current_range_meters":28000,"station_id":"ce4bh412rcd13ifvqds0","pricing_plan_id":"cebpf4jnsgd1na2vs0mg"},{"bike_id":"a92bc0c3-079a-47f0-99e6-d552134d15f5","system_id":"levelo_inurba_marseille","lat":43.27581,"lon":5.38436,"is_reserved":false,"is_disabled":false,"rental_uris":{"android":"levelo://app?vid=a92bc0c3-079a-47f0-99e6-d552134d15f5","ios":"levelo://app?vid=a92bc0c3-079a-47f0-99e6-d552134d15f5"},"vehicle_type_id":"4","last_reported":1739034393,"current_range_meters":35200,"station_id":"ce4bhh92rcd13ifvqfi0","pricing_plan_id":"cebpf4jnsgd1na2vs0mg"},{"bike_id":"d71b7d66-cb75-47b1-8de9-872954417f76","system_id":"levelo_inurba_marseille","lat":43.25872,"lon":5.39906,"is_reserved":false,"is_disabled":false,"rental_uris":{"android":"levelo://app?vid=d71b7d66-cb75-47b1-8de9-872954417f76","ios":"levelo://app?vid=d71b7d66-cb75-47b1-8de9-872954417f76"},"vehicle_type_id":"4","last_reported":1739034393,"current_range_meters":7200,"station_id":"ce4bhl92rcd13ifvqghg","pricing_plan_id":"cebpf4jnsgd1na2vs0mg"},{"bike_id":"af3b94d5-ac48-4a4f-9581-92e0687b680b","system_id":"levelo_inurba_marseille","lat":43.28708,"lon":5.37399,"is_reserved":false,"is_disabled":false,"rental_uris":{"android":"levelo://app?vid=af3b94d5-ac48-4a4f-9581-92e0687b680b","ios":"levelo://app?vid=af3b94d5-ac48-4a4f-9581-92e0687b680b"},"vehicle_type_id":"4","last_reported":1739034393,"current_range_meters":16800,"station_id":"ce4bh3p2rcd13ifvqdq0","pricing_plan_id":"cebpf4jnsgd1na2vs0mg"},{"bike_id":"cc5be222-f5b9-4564-8357-792e36ef3901","system_id":"levelo_inurba_marseille","lat":43.28042,"lon":5.36956,"is_reserved":false,"is_disabled":false,"rental_uris":{"android":"levelo://app?vid=cc5be222-f5b9-4564-8357-792e36ef3901","ios":"levelo://app?vid=cc5be222-f5b9-4564-8357-792e36ef3901"},"vehicle_type_id":"4","last_reported":1739034393,"current_range_meters":39200,"station_id":"ce4bha12rcd13ifvqef0","pricing_plan_id":"cebpf4jnsgd1na2vs0mg"},{"bike_id":"1312691e-a704-4c89-93c3-23b24185bdf4","system_id":"levelo_inurba_marseille","lat":43.29629,"lon":5.37756,"is_reserved":false,"is_disabled":false,"rental_uris":{"android":"levelo://app?vid=1312691e-a704-4c89-93c3-23b24185bdf4","ios":"levelo://app?vid=1312691e-a704-4c89-93c3-23b24185bdf4"},"vehicle_type_id":"4","last_reported":1739034393,"current_range_meters":36800,"station_id":"ce4bgi92rcd13ifvqb90","pricing_plan_id":"cebpf4jnsgd1na2vs0mg"},{"bike_id":"3711b840-d678-4287-b469-a5aa91bfc0be","system_id":"levelo_inurba_marseille","lat":43.26205,"lon":5.37437,"is_reserved":false,"is_disabled":false,"rental_uris":{"android":"levelo://app?vid=3711b840-d678-4287-b469-a5aa91bfc0be","ios":"levelo://app?vid=3711b840-d678-4287-b469-a5aa91bfc0be"},"vehicle_type_id":"4","last_reported":1739034393,"current_range_meters":30000,"station_id":"ce4bhgp2rcd13ifvqfc0","pricing_plan_id":"cebpf4jnsgd1na2vs0mg"},{"bike_id":"c7214087-f338-4aa0-87d4-4c782ee32a35","system_id":"levelo_inurba_marseille","lat":43.23963,"lon":5.36636,"is_reserved":false,"is_disabled":false,"rental_uris":{"android":"levelo://app?vid=c7214087-f338-4aa0-87d4-4c782ee32a35","ios":"levelo://app?vid=c7214087-f338-4aa0-87d4-4c782ee32a35"},"vehicle_type_id":"4","last_reported":1739034393,"current_range_meters":16400,"station_id":"ce4bhi12rcd13ifvqfp0","pricing_plan_id":"cebpf4jnsgd1na2vs0mg"},{"bike_id":"d25eec51-bb4e-43cd-9e78-510d5472253f","system_id":"levelo_inurba_marseille","lat":43.26213,"lon":5.37444,"is_reserved":false,"is_disabled":false,"rental_uris":{"android":"levelo://app?vid=d25eec51-bb4e-43cd-9e78-510d5472253f","ios":"levelo://app?vid=d25eec51-bb4e-43cd-9e78-510d5472253f"},"vehicle_type_id":"4","last_reported":1739034393,"current_range_meters":38800,"station_id":"ce4bhgp2rcd13ifvqfc0","pricing_plan_id":"cebpf4jnsgd1na2vs0mg"},{"bike_id":"783fc2ff-dfa2-4105-91ef-df3343ad21e8","system_id":"levelo_inurba_marseille","lat":43.26934,"lon":5.40258,"is_reserved":false,"is_disabled":false,"rental_uris":{"android":"levelo://app?vid=783fc2ff-dfa2-4105-91ef-df3343ad21e8","ios":"levelo://app?vid=783fc2ff-dfa2-4105-91ef-df3343ad21e8"},"vehicle_type_id":"4","last_reported":1739034393,"current_range_meters":29600,"station_id":"cjm6bp8fraef2m0cb0m0","pricing_plan_id":"cebpf4jnsgd1na2vs0mg"},{"bike_id":"d25bc6a0-30b5-4aa4-922b-fcf83a985386","system_id":"levelo_inurba_marseille","lat":43.23946,"lon":5.36622,"is_reserved":false,"is_disabled":false,"rental_uris":{"android":"levelo://app?vid=d25bc6a0-30b5-4aa4-922b-fcf83a985386","ios":"levelo://app?vid=d25bc6a0-30b5-4aa4-922b-fcf83a985386"},"vehicle_type_id":"4","last_reported":1739034393,"current_range_meters":34000,"station_id":"ce4bhi12rcd13ifvqfp0","pricing_plan_id":"cebpf4jnsgd1na2vs0mg"},{"bike_id":"de73440e-29f2-4a83-a3ed-b13e900ec021","system_id":"levelo_inurba_marseille","lat":43.29576,"lon":5.37521,"is_reserved":false,"is_disabled":false,"rental_uris":{"android":"levelo://app?vid=de73440e-29f2-4a83-a3ed-b13e900ec021","ios":"levelo://app?vid=de73440e-29f2-4a83-a3ed-b13e900ec021"},"vehicle_type_id":"4","last_reported":1739034393,"current_range_meters":25600,"station_id":"ce4bgh92rcd13ifvqb50","pricing_plan_id":"cebpf4jnsgd1na2vs0mg"},{"bike_id":"db17e1ea-c776-42a7-84e1-d008d91b30e8","system_id":"levelo_inurba_marseille","lat":43.29309,"lon":5.37428,"is_reserved":false,"is_disabled":false,"rental_uris":{"android":"levelo://app?vid=db17e1ea-c776-42a7-84e1-d008d91b30e8","ios":"levelo://app?vid=db17e1ea-c776-42a7-84e1-d008d91b30e8"},"vehicle_type_id":"4","last_reported":1739034393,"current_range_meters":32800,"station_id":"ce4bgi12rcd13ifvqb70","pricing_plan_id":"cebpf4jnsgd1na2vs0mg"},{"bike_id":"f6cfcedf-4f75-4647-883d-241833cb05c5","system_id":"levelo_inurba_marseille","lat":43.28346,"lon":5.38101,"is_reserved":false,"is_disabled":false,"rental_uris":{"android":"levelo://app?vid=f6cfcedf-4f75-4647-883d-241833cb05c5","ios":"levelo://app?vid=f6cfcedf-4f75-4647-883d-241833cb05c5"},"vehicle_type_id":"4","last_reported":1739034393,"current_range_meters":38800,"station_id":"ce4bh412rcd13ifvqdr0","pricing_plan_id":"cebpf4jnsgd1na2vs0mg"},{"bike_id":"2d6a2e4c-47bb-4bf8-8e22-1e9c987f8b16","system_id":"levelo_inurba_marseille","lat":43.23964,"lon":5.36649,"is_reserved":false,"is_disabled":false,"rental_uris":{"android":"levelo://app?vid=2d6a2e4c-47bb-4bf8-8e22-1e9c987f8b16","ios":"levelo://app?vid=2d6a2e4c-47bb-4bf8-8e22-1e9c987f8b16"},"vehicle_type_id":"4","last_reported":1739034393,"current_range_meters":11200,"station_id":"ce4bhi12rcd13ifvqfp0","pricing_plan_id":"cebpf4jnsgd1na2vs0mg"},{"bike_id":"7dd1a804-3494-49db-a5bb-759f5479bdbd","system_id":"levelo_inurba_marseille","lat":43.28614,"lon":5.37059,"is_reserved":false,"is_disabled":false,"rental_uris":{"android":"levelo://app?vid=7dd1a804-3494-49db-a5bb-759f5479bdbd","ios":"levelo://app?vid=7dd1a804-3494-49db-a5bb-759f5479bdbd"},"vehicle_type_id":"4","last_reported":1739034393,"current_range_meters":38400,"station_id":"ce4bht12rcd13ifvqi60","pricing_plan_id":"cebpf4jnsgd1na2vs0mg"},{"bike_id":"ead9571e-95fb-4e70-b3b3-cbb12a32fb33","system_id":"levelo_inurba_marseille","lat":43.25862,"lon":5.39912,"is_reserved":false,"is_disabled":false,"rental_uris":{"android":"levelo://app?vid=ead9571e-95fb-4e70-b3b3-cbb12a32fb33","ios":"levelo://app?vid=ead9571e-95fb-4e70-b3b3-cbb12a32fb33"},"vehicle_type_id":"4","last_reported":1739034393,"current_range_meters":35200,"station_id":"ce4bhl92rcd13ifvqghg","pricing_plan_id":"cebpf4jnsgd1na2vs0mg"},{"bike_id":"c30965ef-938e-4e04-b1bf-ec639e5d1dc0","system_id":"levelo_inurba_marseille","lat":43.30139,"lon":5.38109,"is_reserved":false,"is_disabled":false,"rental_uris":{"android":"levelo://app?vid=c30965ef-938e-4e04-b1bf-ec639e5d1dc0","ios":"levelo://app?vid=c30965ef-938e-4e04-b1bf-ec639e5d1dc0"},"vehicle_type_id":"4","last_reported":1739034393,"current_range_meters":38800,"station_id":"ce4bgjp2rcd13ifvqbh0","pricing_plan_id":"cebpf4jnsgd1na2vs0mg"},{"bike_id":"098d220b-e449-43ea-8d6d-9fc78e0abad9","system_id":"levelo_inurba_marseille","lat":43.22931,"lon":5.35387,"is_reserved":false,"is_disabled":false,"rental_uris":{"android":"levelo://app?vid=098d220b-e449-43ea-8d6d-9fc78e0abad9","ios":"levelo://app?vid=098d220b-e449-43ea-8d6d-9fc78e0abad9"},"vehicle_type_id":"4","last_reported":1739034393,"current_range_meters":38800,"station_id":"cpo3532slgdg3j2ikp40","pricing_plan_id":"cebpf4jnsgd1na2vs0mg"},{"bike_id":"588df2ce-035f-4877-9564-5ff1fc1a68af","system_id":"levelo_inurba_marseille","lat":43.29368,"lon":5.37842,"is_reserved":false,"is_disabled":false,"rental_uris":{"android":"levelo://app?vid=588df2ce-035f-4877-9564-5ff1fc1a68af","ios":"levelo://app?vid=588df2ce-035f-4877-9564-5ff1fc1a68af"},"vehicle_type_id":"4","last_reported":1739034393,"current_range_meters":38800,"station_id":"ce4bgjh2rcd13ifvqbf0","pricing_plan_id":"cebpf4jnsgd1na2vs0mg"},{"bike_id":"25265f47-6177-48e9-b4ee-d5d5e25bf867","system_id":"levelo_inurba_marseille","lat":43.25724,"lon":5.41129,"is_reserved":false,"is_disabled":false,"rental_uris":{"android":"levelo://app?vid=25265f47-6177-48e9-b4ee-d5d5e25bf867","ios":"levelo://app?vid=25265f47-6177-48e9-b4ee-d5d5e25bf867"},"vehicle_type_id":"4","last_reported":1739034393,"current_range_meters":12000,"station_id":"ce4bhkp2rcd13ifvqgd0","pricing_plan_id":"cebpf4jnsgd1na2vs0mg"},{"bike_id":"b273df5e-9d85-4d58-b2bb-7028c2f8ef6c","system_id":"levelo_inurba_marseille","lat":43.28157,"lon":5.42646,"is_reserved":false,"is_disabled":false,"rental_uris":{"android":"levelo://app?vid=b273df5e-9d85-4d58-b2bb-7028c2f8ef6c","ios":"levelo://app?vid=b273df5e-9d85-4d58-b2bb-7028c2f8ef6c"},"vehicle_type_id":"4","last_reported":1739034393,"current_range_meters":37600,"station_id":"ce4bhnh2rcd13ifvqgug","pricing_plan_id":"cebpf4jnsgd1na2vs0mg"},{"bike_id":"109d8d07-d605-45c4-912d-3e7b38f9a9ae","system_id":"levelo_inurba_marseille","lat":43.2417,"lon":5.36402,"is_reserved":false,"is_disabled":false,"rental_uris":{"android":"levelo://app?vid=109d8d07-d605-45c4-912d-3e7b38f9a9ae","ios":"levelo://app?vid=109d8d07-d605-45c4-912d-3e7b38f9a9ae"},"vehicle_type_id":"4","last_reported":1739034393,"current_range_meters":12400,"station_id":"cpo36qri1sfpv3e86is0","pricing_plan_id":"cebpf4jnsgd1na2vs0mg"},{"bike_id":"25942210-cb49-4e7b-986a-27edd939ad3b","system_id":"levelo_inurba_marseille","lat":43.289999,"lon":5.356134,"is_reserved":false,"is_disabled":false,"rental_uris":{"android":"levelo://app?vid=25942210-cb49-4e7b-986a-27edd939ad3b","ios":"levelo://app?vid=25942210-cb49-4e7b-986a-27edd939ad3b"},"vehicle_type_id":"4","last_reported":1739034393,"current_range_meters":14400,"station_id":"ce4bhb92rcd13ifvqen0","pricing_plan_id":"cebpf4jnsgd1na2vs0mg"},{"bike_id":"2ebd233c-fd15-4f13-9700-c155c053523f","system_id":"levelo_inurba_marseille","lat":43.25943,"lon":5.40923,"is_reserved":false,"is_disabled":true,"rental_uris":{"android":"levelo://app?vid=2ebd233c-fd15-4f13-9700-c155c053523f","ios":"levelo://app?vid=2ebd233c-fd15-4f13-9700-c155c053523f"},"vehicle_type_id":"4","last_reported":1739034393,"current_range_meters":23200,"station_id":"ce4bhm92rcd13ifvqglg","pricing_plan_id":"cebpf4jnsgd1na2vs0mg"},{"bike_id":"3f84f31f-6684-4799-9e8c-c3fd4ea8b71c","system_id":"levelo_inurba_marseille","lat":43.28726,"lon":5.361,"is_reserved":false,"is_disabled":false,"rental_uris":{"android":"levelo://app?vid=3f84f31f-6684-4799-9e8c-c3fd4ea8b71c","ios":"levelo://app?vid=3f84f31f-6684-4799-9e8c-c3fd4ea8b71c"},"vehicle_type_id":"4","last_reported":1739034393,"current_range_meters":22000,"station_id":"cki0cbj6b192h4jlfktg","pricing_plan_id":"cebpf4jnsgd1na2vs0mg"},{"bike_id":"59e2cc12-abf4-4e6b-8568-fe3e56dac9e5","system_id":"levelo_inurba_marseille","lat":43.2784,"lon":5.39213,"is_reserved":false,"is_disabled":false,"rental_uris":{"android":"levelo://app?vid=59e2cc12-abf4-4e6b-8568-fe3e56dac9e5","ios":"levelo://app?vid=59e2cc12-abf4-4e6b-8568-fe3e56dac9e5"},"vehicle_type_id":"4","last_reported":1739034393,"current_range_meters":35600,"station_id":"ce4bhjp2rcd13ifvqga0","pricing_plan_id":"cebpf4jnsgd1na2vs0mg"},{"bike_id":"627717f2-3662-4ad1-9db4-98ca3fdf1f94","system_id":"levelo_inurba_marseille","lat":43.29383,"lon":5.37862,"is_reserved":false,"is_disabled":false,"rental_uris":{"android":"levelo://app?vid=627717f2-3662-4ad1-9db4-98ca3fdf1f94","ios":"levelo://app?vid=627717f2-3662-4ad1-9db4-98ca3fdf1f94"},"vehicle_type_id":"4","last_reported":1739034393,"current_range_meters":37600,"station_id":"ce4bgjh2rcd13ifvqbf0","pricing_plan_id":"cebpf4jnsgd1na2vs0mg"},{"bike_id":"8fdc9d99-5dd6-46ed-933b-a92898878e61","system_id":"levelo_inurba_marseille","lat":43.28099,"lon":5.37838,"is_reserved":false,"is_disabled":false,"rental_uris":{"android":"levelo://app?vid=8fdc9d99-5dd6-46ed-933b-a92898878e61","ios":"levelo://app?vid=8fdc9d99-5dd6-46ed-933b-a92898878e61"},"vehicle_type_id":"4","last_reported":1739034393,"current_range_meters":14000,"station_id":"ce4bha12rcd13ifvqee0","pricing_plan_id":"cebpf4jnsgd1na2vs0mg"},{"bike_id":"c13ae62e-d5d6-4d3f-b979-0be4fe4644ed","system_id":"levelo_inurba_marseille","lat":43.24684,"lon":5.38153,"is_reserved":false,"is_disabled":false,"rental_uris":{"android":"levelo://app?vid=c13ae62e-d5d6-4d3f-b979-0be4fe4644ed","ios":"levelo://app?vid=c13ae62e-d5d6-4d3f-b979-0be4fe4644ed"},"vehicle_type_id":"4","last_reported":1739034393,"current_range_meters":19200,"station_id":"ce4bhih2rcd13ifvqfr0","pricing_plan_id":"cebpf4jnsgd1na2vs0mg"},{"bike_id":"53f878f6-0e30-4d53-86de-bf99042d55b2","system_id":"levelo_inurba_marseille","lat":43.29734,"lon":5.37716,"is_reserved":false,"is_disabled":false,"rental_uris":{"android":"levelo://app?vid=53f878f6-0e30-4d53-86de-bf99042d55b2","ios":"levelo://app?vid=53f878f6-0e30-4d53-86de-bf99042d55b2"},"vehicle_type_id":"4","last_reported":1739034393,"current_range_meters":34800,"station_id":"ce4bgkh2rcd13ifvqbl0","pricing_plan_id":"cebpf4jnsgd1na2vs0mg"},{"bike_id":"a8bf42e9-8dd4-418f-8044-b39c7614f9b5","system_id":"levelo_inurba_marseille","lat":43.28925,"lon":5.3838,"is_reserved":false,"is_disabled":false,"rental_uris":{"android":"levelo://app?vid=a8bf42e9-8dd4-418f-8044-b39c7614f9b5","ios":"levelo://app?vid=a8bf42e9-8dd4-418f-8044-b39c7614f9b5"},"vehicle_type_id":"4","last_reported":1739034393,"current_range_meters":32800,"station_id":"ce4bh612rcd13ifvqe6g","pricing_plan_id":"cebpf4jnsgd1na2vs0mg"},{"bike_id":"b705f561-dbe8-4485-90d5-75b92e94f765","system_id":"levelo_inurba_marseille","lat":43.27572,"lon":5.38436,"is_reserved":false,"is_disabled":false,"rental_uris":{"android":"levelo://app?vid=b705f561-dbe8-4485-90d5-75b92e94f765","ios":"levelo://app?vid=b705f561-dbe8-4485-90d5-75b92e94f765"},"vehicle_type_id":"4","last_reported":1739034393,"current_range_meters":27200,"station_id":"ce4bhh92rcd13ifvqfi0","pricing_plan_id":"cebpf4jnsgd1na2vs0mg"},{"bike_id":"05248eb5-7269-4903-9e59-0e8e45454d8f","system_id":"levelo_inurba_marseille","lat":43.26955,"lon":5.38643,"is_reserved":false,"is_disabled":false,"rental_uris":{"android":"levelo://app?vid=05248eb5-7269-4903-9e59-0e8e45454d8f","ios":"levelo://app?vid=05248eb5-7269-4903-9e59-0e8e45454d8f"},"vehicle_type_id":"4","last_reported":1739034393,"current_range_meters":36800,"station_id":"ce4bhh92rcd13ifvqfh0","pricing_plan_id":"cebpf4jnsgd1na2vs0mg"},{"bike_id":"dd0ef353-f4d0-4343-891f-decfdefa5c22","system_id":"levelo_inurba_marseille","lat":43.27622,"lon":5.36112,"is_reserved":false,"is_disabled":false,"rental_uris":{"android":"levelo://app?vid=dd0ef353-f4d0-4343-891f-decfdefa5c22","ios":"levelo://app?vid=dd0ef353-f4d0-4343-891f-decfdefa5c22"},"vehicle_type_id":"4","last_reported":1739034393,"current_range_meters":38800,"station_id":"ce4bgj92rcd13ifvqbe0","pricing_plan_id":"cebpf4jnsgd1na2vs0mg"},{"bike_id":"6986b042-d67b-490d-a174-01e67df97cbc","system_id":"levelo_inurba_marseille","lat":43.28434,"lon":5.34983,"is_reserved":false,"is_disabled":false,"rental_uris":{"android":"levelo://app?vid=6986b042-d67b-490d-a174-01e67df97cbc","ios":"levelo://app?vid=6986b042-d67b-490d-a174-01e67df97cbc"},"vehicle_type_id":"4","last_reported":1739034393,"current_range_meters":34000,"station_id":"ce4bhbh2rcd13ifvqepg","pricing_plan_id":"cebpf4jnsgd1na2vs0mg"},{"bike_id":"1026c232-bfb4-4162-9f47-6800f4a5b03a","system_id":"levelo_inurba_marseille","lat":43.31534,"lon":5.37281,"is_reserved":false,"is_disabled":false,"rental_uris":{"android":"levelo://app?vid=1026c232-bfb4-4162-9f47-6800f4a5b03a","ios":"levelo://app?vid=1026c232-bfb4-4162-9f47-6800f4a5b03a"},"vehicle_type_id":"4","last_reported":1739034393,"current_range_meters":34800,"station_id":"","pricing_plan_id":"cebpf4jnsgd1na2vs0mg"},{"bike_id":"89912e32-c5f0-448f-82d2-e236e4d6d653","system_id":"levelo_inurba_marseille","lat":43.27794,"lon":5.39876,"is_reserved":false,"is_disabled":true,"rental_uris":{"android":"levelo://app?vid=89912e32-c5f0-448f-82d2-e236e4d6d653","ios":"levelo://app?vid=89912e32-c5f0-448f-82d2-e236e4d6d653"},"vehicle_type_id":"4","last_reported":1739034393,"current_range_meters":400,"station_id":"","pricing_plan_id":"cebpf4jnsgd1na2vs0mg"},{"bike_id":"c5ff82fa-7b73-4bf3-8dbc-849ccfc120f3","system_id":"levelo_inurba_marseille","lat":43.2924,"lon":5.36597,"is_reserved":false,"is_disabled":false,"rental_uris":{"android":"levelo://app?vid=c5ff82fa-7b73-4bf3-8dbc-849ccfc120f3","ios":"levelo://app?vid=c5ff82fa-7b73-4bf3-8dbc-849ccfc120f3"},"vehicle_type_id":"4","last_reported":1739034393,"current_range_meters":35200,"station_id":"","pricing_plan_id":"cebpf4jnsgd1na2vs0mg"},{"bike_id":"d9a64ed3-68f3-407b-88f0-734a3b3f9ebb","system_id":"levelo_inurba_marseille","lat":43.26555,"lon":5.37288,"is_reserved":false,"is_disabled":false,"rental_uris":{"android":"levelo://app?vid=d9a64ed3-68f3-407b-88f0-734a3b3f9ebb","ios":"levelo://app?vid=d9a64ed3-68f3-407b-88f0-734a3b3f9ebb"},"vehicle_type_id":"4","last_reported":1739034393,"current_range_meters":32000,"station_id":"ce4bhg12rcd13ifvqf70","pricing_plan_id":"cebpf4jnsgd1na2vs0mg"},{"bike_id":"07b0c9c7-9389-4511-bb38-b45465fdc042","system_id":"levelo_inurba_marseille","lat":43.28469,"lon":5.35889,"is_reserved":false,"is_disabled":false,"rental_uris":{"android":"levelo://app?vid=07b0c9c7-9389-4511-bb38-b45465fdc042","ios":"levelo://app?vid=07b0c9c7-9389-4511-bb38-b45465fdc042"},"vehicle_type_id":"4","last_reported":1739034393,"current_range_meters":38800,"station_id":"ce4bhah2rcd13ifvqei0","pricing_plan_id":"cebpf4jnsgd1na2vs0mg"},{"bike_id":"25651862-076f-495c-9f56-5b5d71587433","system_id":"levelo_inurba_marseille","lat":43.255,"lon":5.37656,"is_reserved":false,"is_disabled":false,"rental_uris":{"android":"levelo://app?vid=25651862-076f-495c-9f56-5b5d71587433","ios":"levelo://app?vid=25651862-076f-495c-9f56-5b5d71587433"},"vehicle_type_id":"4","last_reported":1739034393,"current_range_meters":38000,"station_id":"ce4bhh12rcd13ifvqff0","pricing_plan_id":"cebpf4jnsgd1na2vs0mg"},{"bike_id":"fb5a704f-a51b-458c-a6e9-f5586a789b94","system_id":"levelo_inurba_marseille","lat":43.24192,"lon":5.36426,"is_reserved":false,"is_disabled":false,"rental_uris":{"android":"levelo://app?vid=fb5a704f-a51b-458c-a6e9-f5586a789b94","ios":"levelo://app?vid=fb5a704f-a51b-458c-a6e9-f5586a789b94"},"vehicle_type_id":"4","last_reported":1739034393,"current_range_meters":36800,"station_id":"cpo36qri1sfpv3e86is0","pricing_plan_id":"cebpf4jnsgd1na2vs0mg"},{"bike_id":"ec1fc395-8ce7-4960-968b-a938a8fa5732","system_id":"levelo_inurba_marseille","lat":43.28001,"lon":5.40021,"is_reserved":false,"is_disabled":false,"rental_uris":{"android":"levelo://app?vid=ec1fc395-8ce7-4960-968b-a938a8fa5732","ios":"levelo://app?vid=ec1fc395-8ce7-4960-968b-a938a8fa5732"},"vehicle_type_id":"4","last_reported":1739034393,"current_range_meters":38800,"station_id":"ce4bho92rcd13ifvqh4g","pricing_plan_id":"cebpf4jnsgd1na2vs0mg"},{"bike_id":"59d8fd88-1c5a-4706-9af2-19af4e045626","system_id":"levelo_inurba_marseille","lat":43.27496,"lon":5.42457,"is_reserved":false,"is_disabled":false,"rental_uris":{"android":"levelo://app?vid=59d8fd88-1c5a-4706-9af2-19af4e045626","ios":"levelo://app?vid=59d8fd88-1c5a-4706-9af2-19af4e045626"},"vehicle_type_id":"4","last_reported":1739034393,"current_range_meters":13600,"station_id":"ce4bhn92rcd13ifvqgrg","pricing_plan_id":"cebpf4jnsgd1na2vs0mg"},{"bike_id":"555baa35-3d54-4498-b226-580f6e30022c","system_id":"levelo_inurba_marseille","lat":43.30523,"lon":5.36537,"is_reserved":false,"is_disabled":false,"rental_uris":{"android":"levelo://app?vid=555baa35-3d54-4498-b226-580f6e30022c","ios":"levelo://app?vid=555baa35-3d54-4498-b226-580f6e30022c"},"vehicle_type_id":"4","last_reported":1739034393,"current_range_meters":38000,"station_id":"ce4bgs12rcd13ifvqcag","pricing_plan_id":"cebpf4jnsgd1na2vs0mg"},{"bike_id":"67171a75-9b78-4b62-8642-66742f978e78","system_id":"levelo_inurba_marseille","lat":43.29043,"lon":5.3758,"is_reserved":false,"is_disabled":false,"rental_uris":{"android":"levelo://app?vid=67171a75-9b78-4b62-8642-66742f978e78","ios":"levelo://app?vid=67171a75-9b78-4b62-8642-66742f978e78"},"vehicle_type_id":"4","last_reported":1739034393,"current_range_meters":22800,"station_id":"ce4bh692rcd13ifvqe90","pricing_plan_id":"cebpf4jnsgd1na2vs0mg"},{"bike_id":"ab54e2d0-4c2c-486a-84c7-811ed9008ddc","system_id":"levelo_inurba_marseille","lat":43.27968,"lon":5.42369,"is_reserved":false,"is_disabled":true,"rental_uris":{"android":"levelo://app?vid=ab54e2d0-4c2c-486a-84c7-811ed9008ddc","ios":"levelo://app?vid=ab54e2d0-4c2c-486a-84c7-811ed9008ddc"},"vehicle_type_id":"4","last_reported":1739034393,"current_range_meters":0,"station_id":"","pricing_plan_id":"cebpf4jnsgd1na2vs0mg"},{"bike_id":"a3f0298b-95a0-47ee-8b8a-fe448bd9b162","system_id":"levelo_inurba_marseille","lat":43.29969,"lon":5.37161,"is_reserved":false,"is_disabled":false,"rental_uris":{"android":"levelo://app?vid=a3f0298b-95a0-47ee-8b8a-fe448bd9b162","ios":"levelo://app?vid=a3f0298b-95a0-47ee-8b8a-fe448bd9b162"},"vehicle_type_id":"4","last_reported":1739034393,"current_range_meters":12000,"station_id":"ce4bgr92rcd13ifvqc7g","pricing_plan_id":"cebpf4jnsgd1na2vs0mg"},{"bike_id":"953eee94-0f8b-4e85-a300-87b1bcf0b454","system_id":"levelo_inurba_marseille","lat":43.29821,"lon":5.37798,"is_reserved":false,"is_disabled":false,"rental_uris":{"android":"levelo://app?vid=953eee94-0f8b-4e85-a300-87b1bcf0b454","ios":"levelo://app?vid=953eee94-0f8b-4e85-a300-87b1bcf0b454"},"vehicle_type_id":"4","last_reported":1739034393,"current_range_meters":37600,"station_id":"","pricing_plan_id":"cebpf4jnsgd1na2vs0mg"},{"bike_id":"1166f4f1-fe32-4e1f-a3aa-abe5152ffa54","system_id":"levelo_inurba_marseille","lat":43.30949,"lon":5.39045,"is_reserved":false,"is_disabled":false,"rental_uris":{"android":"levelo://app?vid=1166f4f1-fe32-4e1f-a3aa-abe5152ffa54","ios":"levelo://app?vid=1166f4f1-fe32-4e1f-a3aa-abe5152ffa54"},"vehicle_type_id":"4","last_reported":1739034393,"current_range_meters":20400,"station_id":"","pricing_plan_id":"cebpf4jnsgd1na2vs0mg"},{"bike_id":"b5135d91-2dbc-4326-bda2-20e06e74cbe2","system_id":"levelo_inurba_marseille","lat":43.29644,"lon":5.37062,"is_reserved":false,"is_disabled":false,"rental_uris":{"android":"levelo://app?vid=b5135d91-2dbc-4326-bda2-20e06e74cbe2","ios":"levelo://app?vid=b5135d91-2dbc-4326-bda2-20e06e74cbe2"},"vehicle_type_id":"4","last_reported":1739034393,"current_range_meters":19600,"station_id":"","pricing_plan_id":"cebpf4jnsgd1na2vs0mg"},{"bike_id":"6835673f-f138-4499-8bdd-83c3f3bccf33","system_id":"levelo_inurba_marseille","lat":43.27997,"lon":5.40015,"is_reserved":false,"is_disabled":false,"rental_uris":{"android":"levelo://app?vid=6835673f-f138-4499-8bdd-83c3f3bccf33","ios":"levelo://app?vid=6835673f-f138-4499-8bdd-83c3f3bccf33"},"vehicle_type_id":"4","last_reported":1739034393,"current_range_meters":34000,"station_id":"ce4bho92rcd13ifvqh4g","pricing_plan_id":"cebpf4jnsgd1na2vs0mg"},{"bike_id":"bb1bab95-412e-41ba-879a-c483b6ec0924","system_id":"levelo_inurba_marseille","lat":43.278181,"lon":5.407166,"is_reserved":false,"is_disabled":false,"rental_uris":{"android":"levelo://app?vid=bb1bab95-412e-41ba-879a-c483b6ec0924","ios":"levelo://app?vid=bb1bab95-412e-41ba-879a-c483b6ec0924"},"vehicle_type_id":"4","last_reported":1739034393,"current_range_meters":12000,"station_id":"ce4bhnh2rcd13ifvqgtg","pricing_plan_id":"cebpf4jnsgd1na2vs0mg"},{"bike_id":"6e358927-ff7d-49ba-8b74-937ec069bd4e","system_id":"levelo_inurba_marseille","lat":43.286211,"lon":5.351047,"is_reserved":false,"is_disabled":false,"rental_uris":{"android":"levelo://app?vid=6e358927-ff7d-49ba-8b74-937ec069bd4e","ios":"levelo://app?vid=6e358927-ff7d-49ba-8b74-937ec069bd4e"},"vehicle_type_id":"4","last_reported":1739034393,"current_range_meters":20800,"station_id":"ce4bhch2rcd13ifvqeug","pricing_plan_id":"cebpf4jnsgd1na2vs0mg"},{"bike_id":"0e2d4c26-570f-402f-9239-ec528efb1d7e","system_id":"levelo_inurba_marseille","lat":43.3172,"lon":5.42399,"is_reserved":false,"is_disabled":false,"rental_uris":{"android":"levelo://app?vid=0e2d4c26-570f-402f-9239-ec528efb1d7e","ios":"levelo://app?vid=0e2d4c26-570f-402f-9239-ec528efb1d7e"},"vehicle_type_id":"4","last_reported":1739034393,"current_range_meters":37600,"station_id":"ce4bhp92rcd13ifvqhbg","pricing_plan_id":"cebpf4jnsgd1na2vs0mg"},{"bike_id":"84b6fdf1-d155-429e-a395-0183435176b8","system_id":"levelo_inurba_marseille","lat":43.29197,"lon":5.39311,"is_reserved":false,"is_disabled":false,"rental_uris":{"android":"levelo://app?vid=84b6fdf1-d155-429e-a395-0183435176b8","ios":"levelo://app?vid=84b6fdf1-d155-429e-a395-0183435176b8"},"vehicle_type_id":"4","last_reported":1739034393,"current_range_meters":38800,"station_id":"ce4bh192rcd13ifvqdd0","pricing_plan_id":"cebpf4jnsgd1na2vs0mg"},{"bike_id":"9ee17cc6-94b6-42f9-a180-22e25ec3ed8d","system_id":"levelo_inurba_marseille","lat":43.28712,"lon":5.37394,"is_reserved":false,"is_disabled":true,"rental_uris":{"android":"levelo://app?vid=9ee17cc6-94b6-42f9-a180-22e25ec3ed8d","ios":"levelo://app?vid=9ee17cc6-94b6-42f9-a180-22e25ec3ed8d"},"vehicle_type_id":"4","last_reported":1739034393,"current_range_meters":12000,"station_id":"ce4bh3p2rcd13ifvqdq0","pricing_plan_id":"cebpf4jnsgd1na2vs0mg"},{"bike_id":"a9faae4d-75a6-46b9-b2bf-bee95ee027d1","system_id":"levelo_inurba_marseille","lat":43.29106,"lon":5.38158,"is_reserved":false,"is_disabled":false,"rental_uris":{"android":"levelo://app?vid=a9faae4d-75a6-46b9-b2bf-bee95ee027d1","ios":"levelo://app?vid=a9faae4d-75a6-46b9-b2bf-bee95ee027d1"},"vehicle_type_id":"4","last_reported":1739034393,"current_range_meters":38800,"station_id":"ce4bh512rcd13ifvqe2g","pricing_plan_id":"cebpf4jnsgd1na2vs0mg"},{"bike_id":"9b7a8c62-e473-4d07-971b-e94975d6428e","system_id":"levelo_inurba_marseille","lat":43.3237,"lon":5.38874,"is_reserved":false,"is_disabled":false,"rental_uris":{"android":"levelo://app?vid=9b7a8c62-e473-4d07-971b-e94975d6428e","ios":"levelo://app?vid=9b7a8c62-e473-4d07-971b-e94975d6428e"},"vehicle_type_id":"4","last_reported":1739034393,"current_range_meters":14000,"station_id":"ce4bhqp2rcd13ifvqhog","pricing_plan_id":"cebpf4jnsgd1na2vs0mg"},{"bike_id":"70ac1a4f-6f86-42ba-b8c6-93e2a4c4f9f8","system_id":"levelo_inurba_marseille","lat":43.25499,"lon":5.37661,"is_reserved":false,"is_disabled":false,"rental_uris":{"android":"levelo://app?vid=70ac1a4f-6f86-42ba-b8c6-93e2a4c4f9f8","ios":"levelo://app?vid=70ac1a4f-6f86-42ba-b8c6-93e2a4c4f9f8"},"vehicle_type_id":"4","last_reported":1739034393,"current_range_meters":38800,"station_id":"ce4bhh12rcd13ifvqff0","pricing_plan_id":"cebpf4jnsgd1na2vs0mg"},{"bike_id":"2e0cc48f-a05e-4597-918e-2adbfd2eaa2f","system_id":"levelo_inurba_marseille","lat":43.2942,"lon":5.38624,"is_reserved":false,"is_disabled":false,"rental_uris":{"android":"levelo://app?vid=2e0cc48f-a05e-4597-918e-2adbfd2eaa2f","ios":"levelo://app?vid=2e0cc48f-a05e-4597-918e-2adbfd2eaa2f"},"vehicle_type_id":"4","last_reported":1739034393,"current_range_meters":38800,"station_id":"ce4bh2h2rcd13ifvqdh0","pricing_plan_id":"cebpf4jnsgd1na2vs0mg"},{"bike_id":"d7cfd9fc-9f1a-4a50-b63e-d046f2d7ec5b","system_id":"levelo_inurba_marseille","lat":43.29618,"lon":5.37147,"is_reserved":false,"is_disabled":false,"rental_uris":{"android":"levelo://app?vid=d7cfd9fc-9f1a-4a50-b63e-d046f2d7ec5b","ios":"levelo://app?vid=d7cfd9fc-9f1a-4a50-b63e-d046f2d7ec5b"},"vehicle_type_id":"4","last_reported":1739034393,"current_range_meters":36800,"station_id":"ce4bgnh2rcd13ifvqc0g","pricing_plan_id":"cebpf4jnsgd1na2vs0mg"},{"bike_id":"b8592e76-a51f-490c-9e3b-ff63d3a6602e","system_id":"levelo_inurba_marseille","lat":43.27326,"lon":5.39085,"is_reserved":false,"is_disabled":false,"rental_uris":{"android":"levelo://app?vid=b8592e76-a51f-490c-9e3b-ff63d3a6602e","ios":"levelo://app?vid=b8592e76-a51f-490c-9e3b-ff63d3a6602e"},"vehicle_type_id":"4","last_reported":1739034393,"current_range_meters":14800,"station_id":"ce4bhgp2rcd13ifvqfe0","pricing_plan_id":"cebpf4jnsgd1na2vs0mg"},{"bike_id":"c315153f-203c-42c6-b08a-7816825b11ba","system_id":"levelo_inurba_marseille","lat":43.29569,"lon":5.37508,"is_reserved":false,"is_disabled":false,"rental_uris":{"android":"levelo://app?vid=c315153f-203c-42c6-b08a-7816825b11ba","ios":"levelo://app?vid=c315153f-203c-42c6-b08a-7816825b11ba"},"vehicle_type_id":"4","last_reported":1739034393,"current_range_meters":30800,"station_id":"ce4bgh92rcd13ifvqb50","pricing_plan_id":"cebpf4jnsgd1na2vs0mg"},{"bike_id":"187375a2-49e4-46d1-b02c-429ac3db4d24","system_id":"levelo_inurba_marseille","lat":43.28619,"lon":5.35105,"is_reserved":false,"is_disabled":false,"rental_uris":{"android":"levelo://app?vid=187375a2-49e4-46d1-b02c-429ac3db4d24","ios":"levelo://app?vid=187375a2-49e4-46d1-b02c-429ac3db4d24"},"vehicle_type_id":"4","last_reported":1739034393,"current_range_meters":26800,"station_id":"ce4bhch2rcd13ifvqeug","pricing_plan_id":"cebpf4jnsgd1na2vs0mg"},{"bike_id":"ee3923b2-9a73-4656-9d0a-7dd3b9627528","system_id":"levelo_inurba_marseille","lat":43.2931,"lon":5.37185,"is_reserved":false,"is_disabled":false,"rental_uris":{"android":"levelo://app?vid=ee3923b2-9a73-4656-9d0a-7dd3b9627528","ios":"levelo://app?vid=ee3923b2-9a73-4656-9d0a-7dd3b9627528"},"vehicle_type_id":"4","last_reported":1739034393,"current_range_meters":36400,"station_id":"ce4bgh92rcd13ifvqb40","pricing_plan_id":"cebpf4jnsgd1na2vs0mg"},{"bike_id":"0ccae692-16fa-48e3-88e0-236b5491d838","system_id":"levelo_inurba_marseille","lat":43.33749,"lon":5.39182,"is_reserved":false,"is_disabled":false,"rental_uris":{"android":"levelo://app?vid=0ccae692-16fa-48e3-88e0-236b5491d838","ios":"levelo://app?vid=0ccae692-16fa-48e3-88e0-236b5491d838"},"vehicle_type_id":"4","last_reported":1739034393,"current_range_meters":38800,"station_id":"ce4bhr92rcd13ifvqhsg","pricing_plan_id":"cebpf4jnsgd1na2vs0mg"},{"bike_id":"4e53624a-1341-4269-a631-c3beec6255ac","system_id":"levelo_inurba_marseille","lat":43.3134,"lon":5.39723,"is_reserved":false,"is_disabled":false,"rental_uris":{"android":"levelo://app?vid=4e53624a-1341-4269-a631-c3beec6255ac","ios":"levelo://app?vid=4e53624a-1341-4269-a631-c3beec6255ac"},"vehicle_type_id":"4","last_reported":1739034393,"current_range_meters":38800,"station_id":"ce4bgvp2rcd13ifvqcu0","pricing_plan_id":"cebpf4jnsgd1na2vs0mg"},{"bike_id":"1cfe21f7-6157-4ffb-a163-41af87f64a95","system_id":"levelo_inurba_marseille","lat":43.28465,"lon":5.35887,"is_reserved":false,"is_disabled":false,"rental_uris":{"android":"levelo://app?vid=1cfe21f7-6157-4ffb-a163-41af87f64a95","ios":"levelo://app?vid=1cfe21f7-6157-4ffb-a163-41af87f64a95"},"vehicle_type_id":"4","last_reported":1739034393,"current_range_meters":38800,"station_id":"ce4bhah2rcd13ifvqei0","pricing_plan_id":"cebpf4jnsgd1na2vs0mg"},{"bike_id":"3554c292-8872-4c53-b116-978e4f04323f","system_id":"levelo_inurba_marseille","lat":43.296282,"lon":5.40598,"is_reserved":false,"is_disabled":false,"rental_uris":{"android":"levelo://app?vid=3554c292-8872-4c53-b116-978e4f04323f","ios":"levelo://app?vid=3554c292-8872-4c53-b116-978e4f04323f"},"vehicle_type_id":"4","last_reported":1739034393,"current_range_meters":38800,"station_id":"ce4bh0h2rcd13ifvqd60","pricing_plan_id":"cebpf4jnsgd1na2vs0mg"},{"bike_id":"5b360c71-44b5-4f3e-bea5-deda2a65dc94","system_id":"levelo_inurba_marseille","lat":43.29971,"lon":5.38508,"is_reserved":false,"is_disabled":false,"rental_uris":{"android":"levelo://app?vid=5b360c71-44b5-4f3e-bea5-deda2a65dc94","ios":"levelo://app?vid=5b360c71-44b5-4f3e-bea5-deda2a65dc94"},"vehicle_type_id":"4","last_reported":1739034393,"current_range_meters":34800,"station_id":"ce4bgj92rcd13ifvqbd0","pricing_plan_id":"cebpf4jnsgd1na2vs0mg"},{"bike_id":"e0bf26a6-5b95-4cf1-acec-2b57815a9a76","system_id":"levelo_inurba_marseille","lat":43.24801,"lon":5.37462,"is_reserved":false,"is_disabled":false,"rental_uris":{"android":"levelo://app?vid=e0bf26a6-5b95-4cf1-acec-2b57815a9a76","ios":"levelo://app?vid=e0bf26a6-5b95-4cf1-acec-2b57815a9a76"},"vehicle_type_id":"4","last_reported":1739034393,"current_range_meters":8000,"station_id":"ce4bhgh2rcd13ifvqfb0","pricing_plan_id":"cebpf4jnsgd1na2vs0mg"},{"bike_id":"c1306b40-4db6-459f-9d01-c8d070fdde97","system_id":"levelo_inurba_marseille","lat":43.28456,"lon":5.3589,"is_reserved":false,"is_disabled":false,"rental_uris":{"android":"levelo://app?vid=c1306b40-4db6-459f-9d01-c8d070fdde97","ios":"levelo://app?vid=c1306b40-4db6-459f-9d01-c8d070fdde97"},"vehicle_type_id":"4","last_reported":1739034393,"current_range_meters":18800,"station_id":"ce4bhah2rcd13ifvqei0","pricing_plan_id":"cebpf4jnsgd1na2vs0mg"},{"bike_id":"38fdb758-c3be-4256-aad6-df19b41d8d0a","system_id":"levelo_inurba_marseille","lat":43.31759,"lon":5.39029,"is_reserved":false,"is_disabled":false,"rental_uris":{"android":"levelo://app?vid=38fdb758-c3be-4256-aad6-df19b41d8d0a","ios":"levelo://app?vid=38fdb758-c3be-4256-aad6-df19b41d8d0a"},"vehicle_type_id":"4","last_reported":1739034393,"current_range_meters":36800,"station_id":"ce4bhqp2rcd13ifvqhng","pricing_plan_id":"cebpf4jnsgd1na2vs0mg"},{"bike_id":"25d075e7-064d-4d30-9612-a4cbd924f01c","system_id":"levelo_inurba_marseille","lat":43.31983,"lon":5.381,"is_reserved":false,"is_disabled":false,"rental_uris":{"android":"levelo://app?vid=25d075e7-064d-4d30-9612-a4cbd924f01c","ios":"levelo://app?vid=25d075e7-064d-4d30-9612-a4cbd924f01c"},"vehicle_type_id":"4","last_reported":1739034393,"current_range_meters":34000,"station_id":"ce4bhr12rcd13ifvqhpg","pricing_plan_id":"cebpf4jnsgd1na2vs0mg"},{"bike_id":"86c526c7-f452-4e48-9bb1-246e754975a9","system_id":"levelo_inurba_marseille","lat":43.30251,"lon":5.40079,"is_reserved":false,"is_disabled":false,"rental_uris":{"android":"levelo://app?vid=86c526c7-f452-4e48-9bb1-246e754975a9","ios":"levelo://app?vid=86c526c7-f452-4e48-9bb1-246e754975a9"},"vehicle_type_id":"4","last_reported":1739034393,"current_range_meters":26000,"station_id":"ce4bgvh2rcd13ifvqcs0","pricing_plan_id":"cebpf4jnsgd1na2vs0mg"},{"bike_id":"71f25586-0a06-455d-a7ed-26c4be85f9ec","system_id":"levelo_inurba_marseille","lat":43.28613,"lon":5.37053,"is_reserved":false,"is_disabled":false,"rental_uris":{"android":"levelo://app?vid=71f25586-0a06-455d-a7ed-26c4be85f9ec","ios":"levelo://app?vid=71f25586-0a06-455d-a7ed-26c4be85f9ec"},"vehicle_type_id":"4","last_reported":1739034393,"current_range_meters":23200,"station_id":"ce4bht12rcd13ifvqi60","pricing_plan_id":"cebpf4jnsgd1na2vs0mg"},{"bike_id":"3fc08358-8942-4e59-879a-7a19c8c36ceb","system_id":"levelo_inurba_marseille","lat":43.29618,"lon":5.37729,"is_reserved":false,"is_disabled":false,"rental_uris":{"android":"levelo://app?vid=3fc08358-8942-4e59-879a-7a19c8c36ceb","ios":"levelo://app?vid=3fc08358-8942-4e59-879a-7a19c8c36ceb"},"vehicle_type_id":"4","last_reported":1739034393,"current_range_meters":24400,"station_id":"ce4bgi92rcd13ifvqb90","pricing_plan_id":"cebpf4jnsgd1na2vs0mg"},{"bike_id":"f67b7531-6c63-4f46-a9d4-4fdf588facb0","system_id":"levelo_inurba_marseille","lat":43.27857,"lon":5.40606,"is_reserved":false,"is_disabled":true,"rental_uris":{"android":"levelo://app?vid=f67b7531-6c63-4f46-a9d4-4fdf588facb0","ios":"levelo://app?vid=f67b7531-6c63-4f46-a9d4-4fdf588facb0"},"vehicle_type_id":"4","last_reported":1739034393,"current_range_meters":0,"station_id":"","pricing_plan_id":"cebpf4jnsgd1na2vs0mg"},{"bike_id":"ccc0d99a-4f06-4847-88ea-bfbf26a9a708","system_id":"levelo_inurba_marseille","lat":43.27365,"lon":5.36253,"is_reserved":false,"is_disabled":false,"rental_uris":{"android":"levelo://app?vid=ccc0d99a-4f06-4847-88ea-bfbf26a9a708","ios":"levelo://app?vid=ccc0d99a-4f06-4847-88ea-bfbf26a9a708"},"vehicle_type_id":"4","last_reported":1739034393,"current_range_meters":38800,"station_id":"ce4bhbh2rcd13ifvqeo0","pricing_plan_id":"cebpf4jnsgd1na2vs0mg"},{"bike_id":"daccefc5-f4f0-499c-b0ad-e75d5edba8c7","system_id":"levelo_inurba_marseille","lat":43.29433,"lon":5.38611,"is_reserved":false,"is_disabled":false,"rental_uris":{"android":"levelo://app?vid=daccefc5-f4f0-499c-b0ad-e75d5edba8c7","ios":"levelo://app?vid=daccefc5-f4f0-499c-b0ad-e75d5edba8c7"},"vehicle_type_id":"4","last_reported":1739034393,"current_range_meters":38800,"station_id":"ce4bh2h2rcd13ifvqdh0","pricing_plan_id":"cebpf4jnsgd1na2vs0mg"},{"bike_id":"a1ff6a73-36b2-4a61-a88f-8f0cc16371c7","system_id":"levelo_inurba_marseille","lat":43.26222,"lon":5.40458,"is_reserved":false,"is_disabled":false,"rental_uris":{"android":"levelo://app?vid=a1ff6a73-36b2-4a61-a88f-8f0cc16371c7","ios":"levelo://app?vid=a1ff6a73-36b2-4a61-a88f-8f0cc16371c7"},"vehicle_type_id":"4","last_reported":1739034393,"current_range_meters":32400,"station_id":"ce4bhmh2rcd13ifvqgmg","pricing_plan_id":"cebpf4jnsgd1na2vs0mg"},{"bike_id":"95142193-e7ab-4f84-8e06-dfbe95511df7","system_id":"levelo_inurba_marseille","lat":43.29303,"lon":5.37473,"is_reserved":false,"is_disabled":false,"rental_uris":{"android":"levelo://app?vid=95142193-e7ab-4f84-8e06-dfbe95511df7","ios":"levelo://app?vid=95142193-e7ab-4f84-8e06-dfbe95511df7"},"vehicle_type_id":"4","last_reported":1739034393,"current_range_meters":26800,"station_id":"ce4bgi12rcd13ifvqb70","pricing_plan_id":"cebpf4jnsgd1na2vs0mg"},{"bike_id":"359b6247-0c56-4066-9203-ed98a21ba5b2","system_id":"levelo_inurba_marseille","lat":43.27574,"lon":5.38428,"is_reserved":false,"is_disabled":false,"rental_uris":{"android":"levelo://app?vid=359b6247-0c56-4066-9203-ed98a21ba5b2","ios":"levelo://app?vid=359b6247-0c56-4066-9203-ed98a21ba5b2"},"vehicle_type_id":"4","last_reported":1739034393,"current_range_meters":38800,"station_id":"ce4bhh92rcd13ifvqfi0","pricing_plan_id":"cebpf4jnsgd1na2vs0mg"},{"bike_id":"5e06dc91-320f-4685-9910-4f359c73b015","system_id":"levelo_inurba_marseille","lat":43.27577,"lon":5.36048,"is_reserved":false,"is_disabled":false,"rental_uris":{"android":"levelo://app?vid=5e06dc91-320f-4685-9910-4f359c73b015","ios":"levelo://app?vid=5e06dc91-320f-4685-9910-4f359c73b015"},"vehicle_type_id":"4","last_reported":1739034393,"current_range_meters":25600,"station_id":"ce4bgj92rcd13ifvqbe0","pricing_plan_id":"cebpf4jnsgd1na2vs0mg"},{"bike_id":"6582ead2-31f7-4ffd-b92e-c00d93770478","system_id":"levelo_inurba_marseille","lat":43.29189,"lon":5.39319,"is_reserved":false,"is_disabled":false,"rental_uris":{"android":"levelo://app?vid=6582ead2-31f7-4ffd-b92e-c00d93770478","ios":"levelo://app?vid=6582ead2-31f7-4ffd-b92e-c00d93770478"},"vehicle_type_id":"4","last_reported":1739034393,"current_range_meters":16800,"station_id":"ce4bh192rcd13ifvqdd0","pricing_plan_id":"cebpf4jnsgd1na2vs0mg"},{"bike_id":"913b075c-01e4-4282-8e86-8307769ca068","system_id":"levelo_inurba_marseille","lat":43.29293,"lon":5.37165,"is_reserved":false,"is_disabled":false,"rental_uris":{"android":"levelo://app?vid=913b075c-01e4-4282-8e86-8307769ca068","ios":"levelo://app?vid=913b075c-01e4-4282-8e86-8307769ca068"},"vehicle_type_id":"4","last_reported":1739034393,"current_range_meters":37600,"station_id":"ce4bgh92rcd13ifvqb40","pricing_plan_id":"cebpf4jnsgd1na2vs0mg"},{"bike_id":"eeb1626b-d9a7-4181-8530-ac28fa96e047","system_id":"levelo_inurba_marseille","lat":43.290334,"lon":5.359149,"is_reserved":false,"is_disabled":false,"rental_uris":{"android":"levelo://app?vid=eeb1626b-d9a7-4181-8530-ac28fa96e047","ios":"levelo://app?vid=eeb1626b-d9a7-4181-8530-ac28fa96e047"},"vehicle_type_id":"4","last_reported":1739034393,"current_range_meters":35600,"station_id":"ce4bha92rcd13ifvqeg0","pricing_plan_id":"cebpf4jnsgd1na2vs0mg"},{"bike_id":"aceacf2b-4377-48a9-9006-7e17c168ebae","system_id":"levelo_inurba_marseille","lat":43.30429,"lon":5.38898,"is_reserved":false,"is_disabled":false,"rental_uris":{"android":"levelo://app?vid=aceacf2b-4377-48a9-9006-7e17c168ebae","ios":"levelo://app?vid=aceacf2b-4377-48a9-9006-7e17c168ebae"},"vehicle_type_id":"4","last_reported":1739034393,"current_range_meters":28000,"station_id":"ce4bgk12rcd13ifvqbi0","pricing_plan_id":"cebpf4jnsgd1na2vs0mg"},{"bike_id":"23644462-c1de-4e99-a2e9-4d0c9cf86788","system_id":"levelo_inurba_marseille","lat":43.3119,"lon":5.36813,"is_reserved":false,"is_disabled":false,"rental_uris":{"android":"levelo://app?vid=23644462-c1de-4e99-a2e9-4d0c9cf86788","ios":"levelo://app?vid=23644462-c1de-4e99-a2e9-4d0c9cf86788"},"vehicle_type_id":"4","last_reported":1739034393,"current_range_meters":34800,"station_id":"","pricing_plan_id":"cebpf4jnsgd1na2vs0mg"},{"bike_id":"dc0bd5cb-7c4c-4766-a75c-252e7bb9898a","system_id":"levelo_inurba_marseille","lat":43.31371,"lon":5.38495,"is_reserved":false,"is_disabled":false,"rental_uris":{"android":"levelo://app?vid=dc0bd5cb-7c4c-4766-a75c-252e7bb9898a","ios":"levelo://app?vid=dc0bd5cb-7c4c-4766-a75c-252e7bb9898a"},"vehicle_type_id":"4","last_reported":1739034393,"current_range_meters":37600,"station_id":"ce4bgt92rcd13ifvqcf0","pricing_plan_id":"cebpf4jnsgd1na2vs0mg"},{"bike_id":"328f0fee-14df-4fdb-9b48-360d557747e5","system_id":"levelo_inurba_marseille","lat":43.26028,"lon":5.37544,"is_reserved":false,"is_disabled":false,"rental_uris":{"android":"levelo://app?vid=328f0fee-14df-4fdb-9b48-360d557747e5","ios":"levelo://app?vid=328f0fee-14df-4fdb-9b48-360d557747e5"},"vehicle_type_id":"4","last_reported":1739034393,"current_range_meters":38800,"station_id":"ce4bhgh2rcd13ifvqfa0","pricing_plan_id":"cebpf4jnsgd1na2vs0mg"},{"bike_id":"392b60a0-1f99-4346-9b17-b6e27b550875","system_id":"levelo_inurba_marseille","lat":43.23152,"lon":5.43723,"is_reserved":false,"is_disabled":false,"rental_uris":{"android":"levelo://app?vid=392b60a0-1f99-4346-9b17-b6e27b550875","ios":"levelo://app?vid=392b60a0-1f99-4346-9b17-b6e27b550875"},"vehicle_type_id":"4","last_reported":1739034393,"current_range_meters":20400,"station_id":"ce4bhmp2rcd13ifvqgog","pricing_plan_id":"cebpf4jnsgd1na2vs0mg"},{"bike_id":"22219a69-ff6e-4128-9c66-6e0ba4f7f3c6","system_id":"levelo_inurba_marseille","lat":43.26215,"lon":5.37919,"is_reserved":false,"is_disabled":false,"rental_uris":{"android":"levelo://app?vid=22219a69-ff6e-4128-9c66-6e0ba4f7f3c6","ios":"levelo://app?vid=22219a69-ff6e-4128-9c66-6e0ba4f7f3c6"},"vehicle_type_id":"4","last_reported":1739034393,"current_range_meters":38800,"station_id":"ce4bhjp2rcd13ifvqg90","pricing_plan_id":"cebpf4jnsgd1na2vs0mg"},{"bike_id":"3c434100-0ec7-4174-be49-81df709efba1","system_id":"levelo_inurba_marseille","lat":43.26476,"lon":5.39552,"is_reserved":false,"is_disabled":false,"rental_uris":{"android":"levelo://app?vid=3c434100-0ec7-4174-be49-81df709efba1","ios":"levelo://app?vid=3c434100-0ec7-4174-be49-81df709efba1"},"vehicle_type_id":"4","last_reported":1739034393,"current_range_meters":24000,"station_id":"ce4bhi12rcd13ifvqfq0","pricing_plan_id":"cebpf4jnsgd1na2vs0mg"},{"bike_id":"c6fc4b4a-5347-4905-8d96-67ea4d004656","system_id":"levelo_inurba_marseille","lat":43.232008,"lon":5.355551,"is_reserved":false,"is_disabled":false,"rental_uris":{"android":"levelo://app?vid=c6fc4b4a-5347-4905-8d96-67ea4d004656","ios":"levelo://app?vid=c6fc4b4a-5347-4905-8d96-67ea4d004656"},"vehicle_type_id":"4","last_reported":1739034393,"current_range_meters":6800,"station_id":"ce4bhu92rcd13ifvqi70","pricing_plan_id":"cebpf4jnsgd1na2vs0mg"},{"bike_id":"1da8b17b-ad28-4780-a711-431647c244ed","system_id":"levelo_inurba_marseille","lat":43.23959,"lon":5.3663,"is_reserved":false,"is_disabled":false,"rental_uris":{"android":"levelo://app?vid=1da8b17b-ad28-4780-a711-431647c244ed","ios":"levelo://app?vid=1da8b17b-ad28-4780-a711-431647c244ed"},"vehicle_type_id":"4","last_reported":1739034393,"current_range_meters":24400,"station_id":"ce4bhi12rcd13ifvqfp0","pricing_plan_id":"cebpf4jnsgd1na2vs0mg"},{"bike_id":"b1db3003-a515-433c-b006-a61b3558f325","system_id":"levelo_inurba_marseille","lat":43.3021,"lon":5.39458,"is_reserved":false,"is_disabled":false,"rental_uris":{"android":"levelo://app?vid=b1db3003-a515-433c-b006-a61b3558f325","ios":"levelo://app?vid=b1db3003-a515-433c-b006-a61b3558f325"},"vehicle_type_id":"4","last_reported":1739034393,"current_range_meters":36400,"station_id":"ce4bh0p2rcd13ifvqd70","pricing_plan_id":"cebpf4jnsgd1na2vs0mg"},{"bike_id":"c4b6b001-41c8-4913-af78-1a819f1de8c3","system_id":"levelo_inurba_marseille","lat":43.29624,"lon":5.37157,"is_reserved":false,"is_disabled":false,"rental_uris":{"android":"levelo://app?vid=c4b6b001-41c8-4913-af78-1a819f1de8c3","ios":"levelo://app?vid=c4b6b001-41c8-4913-af78-1a819f1de8c3"},"vehicle_type_id":"4","last_reported":1739034393,"current_range_meters":21600,"station_id":"ce4bgnh2rcd13ifvqc0g","pricing_plan_id":"cebpf4jnsgd1na2vs0mg"},{"bike_id":"f78952aa-a1e4-42f8-b5d2-31338580d315","system_id":"levelo_inurba_marseille","lat":43.23977,"lon":5.36605,"is_reserved":false,"is_disabled":false,"rental_uris":{"android":"levelo://app?vid=f78952aa-a1e4-42f8-b5d2-31338580d315","ios":"levelo://app?vid=f78952aa-a1e4-42f8-b5d2-31338580d315"},"vehicle_type_id":"4","last_reported":1739034393,"current_range_meters":16800,"station_id":"ce4bhi12rcd13ifvqfp0","pricing_plan_id":"cebpf4jnsgd1na2vs0mg"},{"bike_id":"77b285c6-4cda-4c52-9b0e-88063e3d1b52","system_id":"levelo_inurba_marseille","lat":43.29383,"lon":5.41237,"is_reserved":false,"is_disabled":false,"rental_uris":{"android":"levelo://app?vid=77b285c6-4cda-4c52-9b0e-88063e3d1b52","ios":"levelo://app?vid=77b285c6-4cda-4c52-9b0e-88063e3d1b52"},"vehicle_type_id":"4","last_reported":1739034393,"current_range_meters":35600,"station_id":"","pricing_plan_id":"cebpf4jnsgd1na2vs0mg"},{"bike_id":"985ea620-1838-4cc4-9f45-6622855b2de9","system_id":"levelo_inurba_marseille","lat":43.279974,"lon":5.400044,"is_reserved":false,"is_disabled":false,"rental_uris":{"android":"levelo://app?vid=985ea620-1838-4cc4-9f45-6622855b2de9","ios":"levelo://app?vid=985ea620-1838-4cc4-9f45-6622855b2de9"},"vehicle_type_id":"4","last_reported":1739034393,"current_range_meters":39200,"station_id":"ce4bho92rcd13ifvqh4g","pricing_plan_id":"cebpf4jnsgd1na2vs0mg"},{"bike_id":"e94abe13-d844-415c-b9f7-1e84c45b8719","system_id":"levelo_inurba_marseille","lat":43.25575,"lon":5.38245,"is_reserved":false,"is_disabled":false,"rental_uris":{"android":"levelo://app?vid=e94abe13-d844-415c-b9f7-1e84c45b8719","ios":"levelo://app?vid=e94abe13-d844-415c-b9f7-1e84c45b8719"},"vehicle_type_id":"4","last_reported":1739034393,"current_range_meters":38800,"station_id":"ce4bhih2rcd13ifvqfs0","pricing_plan_id":"cebpf4jnsgd1na2vs0mg"},{"bike_id":"e408d721-1719-4f3b-bfb2-ee76b97560c7","system_id":"levelo_inurba_marseille","lat":43.24642,"lon":5.38907,"is_reserved":false,"is_disabled":false,"rental_uris":{"android":"levelo://app?vid=e408d721-1719-4f3b-bfb2-ee76b97560c7","ios":"levelo://app?vid=e408d721-1719-4f3b-bfb2-ee76b97560c7"},"vehicle_type_id":"4","last_reported":1739034393,"current_range_meters":38800,"station_id":"ce4bhg12rcd13ifvqf60","pricing_plan_id":"cebpf4jnsgd1na2vs0mg"},{"bike_id":"4f73c78f-90e6-4e3b-8a8e-b921ebe5f0fe","system_id":"levelo_inurba_marseille","lat":43.30949,"lon":5.39034,"is_reserved":false,"is_disabled":false,"rental_uris":{"android":"levelo://app?vid=4f73c78f-90e6-4e3b-8a8e-b921ebe5f0fe","ios":"levelo://app?vid=4f73c78f-90e6-4e3b-8a8e-b921ebe5f0fe"},"vehicle_type_id":"4","last_reported":1739034393,"current_range_meters":35600,"station_id":"ce4bgup2rcd13ifvqco0","pricing_plan_id":"cebpf4jnsgd1na2vs0mg"},{"bike_id":"737ddd35-c082-4443-9c12-617ca48bdb83","system_id":"levelo_inurba_marseille","lat":43.29381,"lon":5.37834,"is_reserved":false,"is_disabled":false,"rental_uris":{"android":"levelo://app?vid=737ddd35-c082-4443-9c12-617ca48bdb83","ios":"levelo://app?vid=737ddd35-c082-4443-9c12-617ca48bdb83"},"vehicle_type_id":"4","last_reported":1739034393,"current_range_meters":33200,"station_id":"ce4bgjh2rcd13ifvqbf0","pricing_plan_id":"cebpf4jnsgd1na2vs0mg"},{"bike_id":"44c009d3-c0dc-4027-abdf-110ade9a1957","system_id":"levelo_inurba_marseille","lat":43.33024,"lon":5.39038,"is_reserved":false,"is_disabled":false,"rental_uris":{"android":"levelo://app?vid=44c009d3-c0dc-4027-abdf-110ade9a1957","ios":"levelo://app?vid=44c009d3-c0dc-4027-abdf-110ade9a1957"},"vehicle_type_id":"4","last_reported":1739034393,"current_range_meters":8400,"station_id":"ce4bhr92rcd13ifvqhrg","pricing_plan_id":"cebpf4jnsgd1na2vs0mg"},{"bike_id":"c2cec217-6b42-4da3-b576-9e7e9788dc98","system_id":"levelo_inurba_marseille","lat":43.29571,"lon":5.3997,"is_reserved":false,"is_disabled":false,"rental_uris":{"android":"levelo://app?vid=c2cec217-6b42-4da3-b576-9e7e9788dc98","ios":"levelo://app?vid=c2cec217-6b42-4da3-b576-9e7e9788dc98"},"vehicle_type_id":"4","last_reported":1739034393,"current_range_meters":27200,"station_id":"ce4bh312rcd13ifvqdj0","pricing_plan_id":"cebpf4jnsgd1na2vs0mg"},{"bike_id":"c8467e20-c52a-4fa4-90f2-f69c646cb59f","system_id":"levelo_inurba_marseille","lat":43.30796,"lon":5.43523,"is_reserved":false,"is_disabled":false,"rental_uris":{"android":"levelo://app?vid=c8467e20-c52a-4fa4-90f2-f69c646cb59f","ios":"levelo://app?vid=c8467e20-c52a-4fa4-90f2-f69c646cb59f"},"vehicle_type_id":"4","last_reported":1739034393,"current_range_meters":28000,"station_id":"ce4bhph2rcd13ifvqheg","pricing_plan_id":"cebpf4jnsgd1na2vs0mg"},{"bike_id":"bde073c3-cb91-4858-93fd-86bc03132733","system_id":"levelo_inurba_marseille","lat":43.29922,"lon":5.38148,"is_reserved":false,"is_disabled":false,"rental_uris":{"android":"levelo://app?vid=bde073c3-cb91-4858-93fd-86bc03132733","ios":"levelo://app?vid=bde073c3-cb91-4858-93fd-86bc03132733"},"vehicle_type_id":"4","last_reported":1739034393,"current_range_meters":9600,"station_id":"ce4bgj12rcd13ifvqbc0","pricing_plan_id":"cebpf4jnsgd1na2vs0mg"},{"bike_id":"0a6add5a-f6af-43cb-8f7d-f961cf1c9621","system_id":"levelo_inurba_marseille","lat":43.29709,"lon":5.37706,"is_reserved":false,"is_disabled":false,"rental_uris":{"android":"levelo://app?vid=0a6add5a-f6af-43cb-8f7d-f961cf1c9621","ios":"levelo://app?vid=0a6add5a-f6af-43cb-8f7d-f961cf1c9621"},"vehicle_type_id":"4","last_reported":1739034393,"current_range_meters":30800,"station_id":"ce4bgkh2rcd13ifvqbl0","pricing_plan_id":"cebpf4jnsgd1na2vs0mg"},{"bike_id":"113dc618-9c86-44b2-818a-cf35bc35d92c","system_id":"levelo_inurba_marseille","lat":43.292,"lon":5.39313,"is_reserved":false,"is_disabled":false,"rental_uris":{"android":"levelo://app?vid=113dc618-9c86-44b2-818a-cf35bc35d92c","ios":"levelo://app?vid=113dc618-9c86-44b2-818a-cf35bc35d92c"},"vehicle_type_id":"4","last_reported":1739034393,"current_range_meters":38800,"station_id":"ce4bh192rcd13ifvqdd0","pricing_plan_id":"cebpf4jnsgd1na2vs0mg"},{"bike_id":"cdc4058f-c381-43cb-ae15-0a4991a9814e","system_id":"levelo_inurba_marseille","lat":43.2903,"lon":5.37562,"is_reserved":false,"is_disabled":false,"rental_uris":{"android":"levelo://app?vid=cdc4058f-c381-43cb-ae15-0a4991a9814e","ios":"levelo://app?vid=cdc4058f-c381-43cb-ae15-0a4991a9814e"},"vehicle_type_id":"4","last_reported":1739034393,"current_range_meters":38800,"station_id":"ce4bh692rcd13ifvqe90","pricing_plan_id":"cebpf4jnsgd1na2vs0mg"},{"bike_id":"88d55e63-8299-4315-9bbb-9bf0942f4012","system_id":"levelo_inurba_marseille","lat":43.30136,"lon":5.37418,"is_reserved":false,"is_disabled":false,"rental_uris":{"android":"levelo://app?vid=88d55e63-8299-4315-9bbb-9bf0942f4012","ios":"levelo://app?vid=88d55e63-8299-4315-9bbb-9bf0942f4012"},"vehicle_type_id":"4","last_reported":1739034393,"current_range_meters":38000,"station_id":"ce4bgs92rcd13ifvqcc0","pricing_plan_id":"cebpf4jnsgd1na2vs0mg"},{"bike_id":"afd073ab-b7d7-4d06-a610-4d1b18b5fb42","system_id":"levelo_inurba_marseille","lat":43.27718,"lon":5.38874,"is_reserved":false,"is_disabled":false,"rental_uris":{"android":"levelo://app?vid=afd073ab-b7d7-4d06-a610-4d1b18b5fb42","ios":"levelo://app?vid=afd073ab-b7d7-4d06-a610-4d1b18b5fb42"},"vehicle_type_id":"4","last_reported":1739034393,"current_range_meters":38800,"station_id":"ce4bhi12rcd13ifvqfo0","pricing_plan_id":"cebpf4jnsgd1na2vs0mg"},{"bike_id":"fd7f60dd-1b52-46f9-9b6b-de4b0fe7477f","system_id":"levelo_inurba_marseille","lat":43.27078,"lon":5.4228,"is_reserved":false,"is_disabled":true,"rental_uris":{"android":"levelo://app?vid=fd7f60dd-1b52-46f9-9b6b-de4b0fe7477f","ios":"levelo://app?vid=fd7f60dd-1b52-46f9-9b6b-de4b0fe7477f"},"vehicle_type_id":"4","last_reported":1739034393,"current_range_meters":37600,"station_id":"ce4bhk92rcd13ifvqgb0","pricing_plan_id":"cebpf4jnsgd1na2vs0mg"},{"bike_id":"b4be5dfa-5c90-409b-8588-f4eb967d6998","system_id":"levelo_inurba_marseille","lat":43.29638,"lon":5.40603,"is_reserved":false,"is_disabled":false,"rental_uris":{"android":"levelo://app?vid=b4be5dfa-5c90-409b-8588-f4eb967d6998","ios":"levelo://app?vid=b4be5dfa-5c90-409b-8588-f4eb967d6998"},"vehicle_type_id":"4","last_reported":1739034393,"current_range_meters":21600,"station_id":"ce4bh0h2rcd13ifvqd60","pricing_plan_id":"cebpf4jnsgd1na2vs0mg"},{"bike_id":"d65d8901-9680-4947-8c82-ba0e61fdf3e9","system_id":"levelo_inurba_marseille","lat":43.29006,"lon":5.35615,"is_reserved":false,"is_disabled":false,"rental_uris":{"android":"levelo://app?vid=d65d8901-9680-4947-8c82-ba0e61fdf3e9","ios":"levelo://app?vid=d65d8901-9680-4947-8c82-ba0e61fdf3e9"},"vehicle_type_id":"4","last_reported":1739034393,"current_range_meters":23200,"station_id":"ce4bhb92rcd13ifvqen0","pricing_plan_id":"cebpf4jnsgd1na2vs0mg"},{"bike_id":"71af4c3a-fa26-4039-9ee7-f5d24e009142","system_id":"levelo_inurba_marseille","lat":43.24808,"lon":5.37461,"is_reserved":false,"is_disabled":false,"rental_uris":{"android":"levelo://app?vid=71af4c3a-fa26-4039-9ee7-f5d24e009142","ios":"levelo://app?vid=71af4c3a-fa26-4039-9ee7-f5d24e009142"},"vehicle_type_id":"4","last_reported":1739034393,"current_range_meters":38800,"station_id":"ce4bhgh2rcd13ifvqfb0","pricing_plan_id":"cebpf4jnsgd1na2vs0mg"},{"bike_id":"9231faa6-f65a-4809-b28c-8c57f32febf2","system_id":"levelo_inurba_marseille","lat":43.250805,"lon":5.395192,"is_reserved":false,"is_disabled":false,"rental_uris":{"android":"levelo://app?vid=9231faa6-f65a-4809-b28c-8c57f32febf2","ios":"levelo://app?vid=9231faa6-f65a-4809-b28c-8c57f32febf2"},"vehicle_type_id":"4","last_reported":1739034393,"current_range_meters":30000,"station_id":"ce4bhm12rcd13ifvqgkg","pricing_plan_id":"cebpf4jnsgd1na2vs0mg"},{"bike_id":"86e7fe57-f8b6-4306-adb2-c48a1d6d6515","system_id":"levelo_inurba_marseille","lat":43.25734,"lon":5.41127,"is_reserved":false,"is_disabled":false,"rental_uris":{"android":"levelo://app?vid=86e7fe57-f8b6-4306-adb2-c48a1d6d6515","ios":"levelo://app?vid=86e7fe57-f8b6-4306-adb2-c48a1d6d6515"},"vehicle_type_id":"4","last_reported":1739034393,"current_range_meters":38800,"station_id":"ce4bhkp2rcd13ifvqgd0","pricing_plan_id":"cebpf4jnsgd1na2vs0mg"},{"bike_id":"244783fc-e553-4b13-97c4-77dee0149449","system_id":"levelo_inurba_marseille","lat":43.31313,"lon":5.39708,"is_reserved":false,"is_disabled":false,"rental_uris":{"android":"levelo://app?vid=244783fc-e553-4b13-97c4-77dee0149449","ios":"levelo://app?vid=244783fc-e553-4b13-97c4-77dee0149449"},"vehicle_type_id":"4","last_reported":1739034393,"current_range_meters":28000,"station_id":"ce4bgvp2rcd13ifvqcu0","pricing_plan_id":"cebpf4jnsgd1na2vs0mg"},{"bike_id":"2d93e85a-65e7-4a5b-a324-00f4511865a9","system_id":"levelo_inurba_marseille","lat":43.251805,"lon":5.375799,"is_reserved":false,"is_disabled":false,"rental_uris":{"android":"levelo://app?vid=2d93e85a-65e7-4a5b-a324-00f4511865a9","ios":"levelo://app?vid=2d93e85a-65e7-4a5b-a324-00f4511865a9"},"vehicle_type_id":"4","last_reported":1739034393,"current_range_meters":32000,"station_id":"ce4bhhh2rcd13ifvqfk0","pricing_plan_id":"cebpf4jnsgd1na2vs0mg"},{"bike_id":"d4ad3f67-41ae-4737-b692-4ed67bf4e9b7","system_id":"levelo_inurba_marseille","lat":43.2993,"lon":5.37481,"is_reserved":false,"is_disabled":false,"rental_uris":{"android":"levelo://app?vid=d4ad3f67-41ae-4737-b692-4ed67bf4e9b7","ios":"levelo://app?vid=d4ad3f67-41ae-4737-b692-4ed67bf4e9b7"},"vehicle_type_id":"4","last_reported":1739034393,"current_range_meters":30800,"station_id":"ce4bgjh2rcd13ifvqbg0","pricing_plan_id":"cebpf4jnsgd1na2vs0mg"},{"bike_id":"be03eb0a-4597-4fef-8e89-e0a6de105fab","system_id":"levelo_inurba_marseille","lat":43.32342,"lon":5.40621,"is_reserved":false,"is_disabled":false,"rental_uris":{"android":"levelo://app?vid=be03eb0a-4597-4fef-8e89-e0a6de105fab","ios":"levelo://app?vid=be03eb0a-4597-4fef-8e89-e0a6de105fab"},"vehicle_type_id":"4","last_reported":1739034393,"current_range_meters":38800,"station_id":"ce4bhq92rcd13ifvqhjg","pricing_plan_id":"cebpf4jnsgd1na2vs0mg"},{"bike_id":"ebd9d2e0-1f15-41ae-917b-e757f277157a","system_id":"levelo_inurba_marseille","lat":43.27216,"lon":5.39193,"is_reserved":false,"is_disabled":false,"rental_uris":{"android":"levelo://app?vid=ebd9d2e0-1f15-41ae-917b-e757f277157a","ios":"levelo://app?vid=ebd9d2e0-1f15-41ae-917b-e757f277157a"},"vehicle_type_id":"4","last_reported":1739034393,"current_range_meters":35600,"station_id":"ce4bhhp2rcd13ifvqfm0","pricing_plan_id":"cebpf4jnsgd1na2vs0mg"},{"bike_id":"d5fd2a14-8ff1-4b6e-a72e-8f7d6ba6ec2f","system_id":"levelo_inurba_marseille","lat":43.28277,"lon":5.35071,"is_reserved":false,"is_disabled":false,"rental_uris":{"android":"levelo://app?vid=d5fd2a14-8ff1-4b6e-a72e-8f7d6ba6ec2f","ios":"levelo://app?vid=d5fd2a14-8ff1-4b6e-a72e-8f7d6ba6ec2f"},"vehicle_type_id":"4","last_reported":1739034393,"current_range_meters":25600,"station_id":"ce4bhbp2rcd13ifvqerg","pricing_plan_id":"cebpf4jnsgd1na2vs0mg"},{"bike_id":"e7e21c1e-dbe2-402d-9581-ec29bed00df3","system_id":"levelo_inurba_marseille","lat":43.29615,"lon":5.37742,"is_reserved":false,"is_disabled":false,"rental_uris":{"android":"levelo://app?vid=e7e21c1e-dbe2-402d-9581-ec29bed00df3","ios":"levelo://app?vid=e7e21c1e-dbe2-402d-9581-ec29bed00df3"},"vehicle_type_id":"4","last_reported":1739034393,"current_range_meters":38800,"station_id":"ce4bgi92rcd13ifvqb90","pricing_plan_id":"cebpf4jnsgd1na2vs0mg"},{"bike_id":"f121b4f3-9ce7-4c6a-b725-2596a1176eb8","system_id":"levelo_inurba_marseille","lat":43.26505,"lon":5.3954,"is_reserved":false,"is_disabled":false,"rental_uris":{"android":"levelo://app?vid=f121b4f3-9ce7-4c6a-b725-2596a1176eb8","ios":"levelo://app?vid=f121b4f3-9ce7-4c6a-b725-2596a1176eb8"},"vehicle_type_id":"4","last_reported":1739034393,"current_range_meters":18800,"station_id":"ce4bhi12rcd13ifvqfq0","pricing_plan_id":"cebpf4jnsgd1na2vs0mg"},{"bike_id":"c6f92ca4-91f7-4b27-a97d-0ada5b4e29ae","system_id":"levelo_inurba_marseille","lat":43.24685,"lon":5.38134,"is_reserved":false,"is_disabled":false,"rental_uris":{"android":"levelo://app?vid=c6f92ca4-91f7-4b27-a97d-0ada5b4e29ae","ios":"levelo://app?vid=c6f92ca4-91f7-4b27-a97d-0ada5b4e29ae"},"vehicle_type_id":"4","last_reported":1739034393,"current_range_meters":27200,"station_id":"ce4bhih2rcd13ifvqfr0","pricing_plan_id":"cebpf4jnsgd1na2vs0mg"},{"bike_id":"d4ee20fe-7173-4b0f-b302-1ab0dcc39a2d","system_id":"levelo_inurba_marseille","lat":43.305479,"lon":5.36703,"is_reserved":false,"is_disabled":false,"rental_uris":{"android":"levelo://app?vid=d4ee20fe-7173-4b0f-b302-1ab0dcc39a2d","ios":"levelo://app?vid=d4ee20fe-7173-4b0f-b302-1ab0dcc39a2d"},"vehicle_type_id":"4","last_reported":1739034393,"current_range_meters":39200,"station_id":"ce4bgrp2rcd13ifvqc9g","pricing_plan_id":"cebpf4jnsgd1na2vs0mg"},{"bike_id":"9648e231-be85-43d2-8e2c-d09d9134f0c9","system_id":"levelo_inurba_marseille","lat":43.28081,"lon":5.39647,"is_reserved":false,"is_disabled":false,"rental_uris":{"android":"levelo://app?vid=9648e231-be85-43d2-8e2c-d09d9134f0c9","ios":"levelo://app?vid=9648e231-be85-43d2-8e2c-d09d9134f0c9"},"vehicle_type_id":"4","last_reported":1739034393,"current_range_meters":36000,"station_id":"ce4bho12rcd13ifvqh2g","pricing_plan_id":"cebpf4jnsgd1na2vs0mg"},{"bike_id":"f335f4ea-f372-4b4d-97e9-cf4e01ad5b70","system_id":"levelo_inurba_marseille","lat":43.31515,"lon":5.38921,"is_reserved":false,"is_disabled":false,"rental_uris":{"android":"levelo://app?vid=f335f4ea-f372-4b4d-97e9-cf4e01ad5b70","ios":"levelo://app?vid=f335f4ea-f372-4b4d-97e9-cf4e01ad5b70"},"vehicle_type_id":"4","last_reported":1739034393,"current_range_meters":21600,"station_id":"","pricing_plan_id":"cebpf4jnsgd1na2vs0mg"},{"bike_id":"4142d881-b2ad-4882-95e0-5e6b117d522c","system_id":"levelo_inurba_marseille","lat":43.28423,"lon":5.39183,"is_reserved":false,"is_disabled":false,"rental_uris":{"android":"levelo://app?vid=4142d881-b2ad-4882-95e0-5e6b117d522c","ios":"levelo://app?vid=4142d881-b2ad-4882-95e0-5e6b117d522c"},"vehicle_type_id":"4","last_reported":1739034393,"current_range_meters":18800,"station_id":"ce4bhoh2rcd13ifvqh5g","pricing_plan_id":"cebpf4jnsgd1na2vs0mg"},{"bike_id":"f05ba20a-f232-4412-86c9-21e708ca8ae0","system_id":"levelo_inurba_marseille","lat":43.31535,"lon":5.38047,"is_reserved":false,"is_disabled":false,"rental_uris":{"android":"levelo://app?vid=f05ba20a-f232-4412-86c9-21e708ca8ae0","ios":"levelo://app?vid=f05ba20a-f232-4412-86c9-21e708ca8ae0"},"vehicle_type_id":"4","last_reported":1739034393,"current_range_meters":38800,"station_id":"ce4bhsp2rcd13ifvqi50","pricing_plan_id":"cebpf4jnsgd1na2vs0mg"},{"bike_id":"7e333763-d5b8-4410-90cc-891a6789c5eb","system_id":"levelo_inurba_marseille","lat":43.29575,"lon":5.37504,"is_reserved":false,"is_disabled":false,"rental_uris":{"android":"levelo://app?vid=7e333763-d5b8-4410-90cc-891a6789c5eb","ios":"levelo://app?vid=7e333763-d5b8-4410-90cc-891a6789c5eb"},"vehicle_type_id":"4","last_reported":1739034393,"current_range_meters":38800,"station_id":"ce4bgh92rcd13ifvqb50","pricing_plan_id":"cebpf4jnsgd1na2vs0mg"},{"bike_id":"7d0a6a67-3078-4373-b55e-62596f62cbc5","system_id":"levelo_inurba_marseille","lat":43.29,"lon":5.35606,"is_reserved":false,"is_disabled":false,"rental_uris":{"android":"levelo://app?vid=7d0a6a67-3078-4373-b55e-62596f62cbc5","ios":"levelo://app?vid=7d0a6a67-3078-4373-b55e-62596f62cbc5"},"vehicle_type_id":"4","last_reported":1739034393,"current_range_meters":39200,"station_id":"ce4bhb92rcd13ifvqen0","pricing_plan_id":"cebpf4jnsgd1na2vs0mg"},{"bike_id":"00acf672-47c1-42d5-ae81-0c2dd5fc2c7a","system_id":"levelo_inurba_marseille","lat":43.279254,"lon":5.410635,"is_reserved":false,"is_disabled":false,"rental_uris":{"android":"levelo://app?vid=00acf672-47c1-42d5-ae81-0c2dd5fc2c7a","ios":"levelo://app?vid=00acf672-47c1-42d5-ae81-0c2dd5fc2c7a"},"vehicle_type_id":"4","last_reported":1739034393,"current_range_meters":30000,"station_id":"ce4bhnp2rcd13ifvqh0g","pricing_plan_id":"cebpf4jnsgd1na2vs0mg"},{"bike_id":"c5789181-d252-4c46-b75d-908f3a6a38fe","system_id":"levelo_inurba_marseille","lat":43.33734,"lon":5.39184,"is_reserved":false,"is_disabled":false,"rental_uris":{"android":"levelo://app?vid=c5789181-d252-4c46-b75d-908f3a6a38fe","ios":"levelo://app?vid=c5789181-d252-4c46-b75d-908f3a6a38fe"},"vehicle_type_id":"4","last_reported":1739034393,"current_range_meters":38800,"station_id":"ce4bhr92rcd13ifvqhsg","pricing_plan_id":"cebpf4jnsgd1na2vs0mg"},{"bike_id":"60406f7c-0f79-42c2-96b1-482260785097","system_id":"levelo_inurba_marseille","lat":43.31364,"lon":5.38502,"is_reserved":false,"is_disabled":false,"rental_uris":{"android":"levelo://app?vid=60406f7c-0f79-42c2-96b1-482260785097","ios":"levelo://app?vid=60406f7c-0f79-42c2-96b1-482260785097"},"vehicle_type_id":"4","last_reported":1739034393,"current_range_meters":25200,"station_id":"ce4bgt92rcd13ifvqcf0","pricing_plan_id":"cebpf4jnsgd1na2vs0mg"},{"bike_id":"289dca42-9437-4c5f-a78d-343ca2267558","system_id":"levelo_inurba_marseille","lat":43.33611,"lon":5.41023,"is_reserved":false,"is_disabled":false,"rental_uris":{"android":"levelo://app?vid=289dca42-9437-4c5f-a78d-343ca2267558","ios":"levelo://app?vid=289dca42-9437-4c5f-a78d-343ca2267558"},"vehicle_type_id":"4","last_reported":1739034393,"current_range_meters":36400,"station_id":"ce4bhqh2rcd13ifvqhmg","pricing_plan_id":"cebpf4jnsgd1na2vs0mg"},{"bike_id":"4b346763-af4b-47bb-8f20-016bb4fee202","system_id":"levelo_inurba_marseille","lat":43.2781,"lon":5.40712,"is_reserved":false,"is_disabled":false,"rental_uris":{"android":"levelo://app?vid=4b346763-af4b-47bb-8f20-016bb4fee202","ios":"levelo://app?vid=4b346763-af4b-47bb-8f20-016bb4fee202"},"vehicle_type_id":"4","last_reported":1739034393,"current_range_meters":38800,"station_id":"ce4bhnh2rcd13ifvqgtg","pricing_plan_id":"cebpf4jnsgd1na2vs0mg"},{"bike_id":"b2542839-70e9-4035-8581-0da82c4e947f","system_id":"levelo_inurba_marseille","lat":43.28468,"lon":5.3588,"is_reserved":false,"is_disabled":false,"rental_uris":{"android":"levelo://app?vid=b2542839-70e9-4035-8581-0da82c4e947f","ios":"levelo://app?vid=b2542839-70e9-4035-8581-0da82c4e947f"},"vehicle_type_id":"4","last_reported":1739034393,"current_range_meters":17200,"station_id":"ce4bhah2rcd13ifvqei0","pricing_plan_id":"cebpf4jnsgd1na2vs0mg"},{"bike_id":"157be572-9a60-49cc-b866-5babd43cb65c","system_id":"levelo_inurba_marseille","lat":43.29193,"lon":5.39336,"is_reserved":false,"is_disabled":false,"rental_uris":{"android":"levelo://app?vid=157be572-9a60-49cc-b866-5babd43cb65c","ios":"levelo://app?vid=157be572-9a60-49cc-b866-5babd43cb65c"},"vehicle_type_id":"4","last_reported":1739034393,"current_range_meters":38800,"station_id":"ce4bh192rcd13ifvqdd0","pricing_plan_id":"cebpf4jnsgd1na2vs0mg"},{"bike_id":"09710415-4dac-4e4c-a5b2-403eafa59e89","system_id":"levelo_inurba_marseille","lat":43.23967,"lon":5.3663,"is_reserved":false,"is_disabled":false,"rental_uris":{"android":"levelo://app?vid=09710415-4dac-4e4c-a5b2-403eafa59e89","ios":"levelo://app?vid=09710415-4dac-4e4c-a5b2-403eafa59e89"},"vehicle_type_id":"4","last_reported":1739034393,"current_range_meters":38000,"station_id":"ce4bhi12rcd13ifvqfp0","pricing_plan_id":"cebpf4jnsgd1na2vs0mg"},{"bike_id":"a70d4096-b5db-411d-a9a3-169b62b188df","system_id":"levelo_inurba_marseille","lat":43.26025,"lon":5.37552,"is_reserved":false,"is_disabled":false,"rental_uris":{"android":"levelo://app?vid=a70d4096-b5db-411d-a9a3-169b62b188df","ios":"levelo://app?vid=a70d4096-b5db-411d-a9a3-169b62b188df"},"vehicle_type_id":"4","last_reported":1739034393,"current_range_meters":38800,"station_id":"ce4bhgh2rcd13ifvqfa0","pricing_plan_id":"cebpf4jnsgd1na2vs0mg"},{"bike_id":"d127a229-8836-4c0f-a071-964ec5978504","system_id":"levelo_inurba_marseille","lat":43.27165,"lon":5.41002,"is_reserved":false,"is_disabled":true,"rental_uris":{"android":"levelo://app?vid=d127a229-8836-4c0f-a071-964ec5978504","ios":"levelo://app?vid=d127a229-8836-4c0f-a071-964ec5978504"},"vehicle_type_id":"4","last_reported":1739034393,"current_range_meters":0,"station_id":"ce4bhl12rcd13ifvqgf0","pricing_plan_id":"cebpf4jnsgd1na2vs0mg"},{"bike_id":"118b1d9a-bc00-428d-ac60-6949e2e1ff6b","system_id":"levelo_inurba_marseille","lat":43.24802,"lon":5.37458,"is_reserved":false,"is_disabled":false,"rental_uris":{"android":"levelo://app?vid=118b1d9a-bc00-428d-ac60-6949e2e1ff6b","ios":"levelo://app?vid=118b1d9a-bc00-428d-ac60-6949e2e1ff6b"},"vehicle_type_id":"4","last_reported":1739034393,"current_range_meters":32400,"station_id":"ce4bhgh2rcd13ifvqfb0","pricing_plan_id":"cebpf4jnsgd1na2vs0mg"},{"bike_id":"1e0828cd-a842-4530-ac19-5c9d70070a4a","system_id":"levelo_inurba_marseille","lat":43.28683,"lon":5.38669,"is_reserved":false,"is_disabled":false,"rental_uris":{"android":"levelo://app?vid=1e0828cd-a842-4530-ac19-5c9d70070a4a","ios":"levelo://app?vid=1e0828cd-a842-4530-ac19-5c9d70070a4a"},"vehicle_type_id":"4","last_reported":1739034393,"current_range_meters":11200,"station_id":"ce4bh492rcd13ifvqdug","pricing_plan_id":"cebpf4jnsgd1na2vs0mg"},{"bike_id":"af62d40d-43f5-4ce3-a384-9e3b7f747689","system_id":"levelo_inurba_marseille","lat":43.26196,"lon":5.37455,"is_reserved":false,"is_disabled":false,"rental_uris":{"android":"levelo://app?vid=af62d40d-43f5-4ce3-a384-9e3b7f747689","ios":"levelo://app?vid=af62d40d-43f5-4ce3-a384-9e3b7f747689"},"vehicle_type_id":"4","last_reported":1739034393,"current_range_meters":14400,"station_id":"ce4bhgp2rcd13ifvqfc0","pricing_plan_id":"cebpf4jnsgd1na2vs0mg"},{"bike_id":"3a090f50-5c67-49d3-837b-50245e313c35","system_id":"levelo_inurba_marseille","lat":43.28151,"lon":5.42646,"is_reserved":false,"is_disabled":false,"rental_uris":{"android":"levelo://app?vid=3a090f50-5c67-49d3-837b-50245e313c35","ios":"levelo://app?vid=3a090f50-5c67-49d3-837b-50245e313c35"},"vehicle_type_id":"4","last_reported":1739034393,"current_range_meters":25600,"station_id":"ce4bhnh2rcd13ifvqgug","pricing_plan_id":"cebpf4jnsgd1na2vs0mg"},{"bike_id":"4c356cc4-93cd-4773-aee2-1ee30257a14b","system_id":"levelo_inurba_marseille","lat":43.3041,"lon":5.41283,"is_reserved":false,"is_disabled":false,"rental_uris":{"android":"levelo://app?vid=4c356cc4-93cd-4773-aee2-1ee30257a14b","ios":"levelo://app?vid=4c356cc4-93cd-4773-aee2-1ee30257a14b"},"vehicle_type_id":"4","last_reported":1739034393,"current_range_meters":31200,"station_id":"ce4bhop2rcd13ifvqh8g","pricing_plan_id":"cebpf4jnsgd1na2vs0mg"},{"bike_id":"901fa8c3-b084-4dd3-a547-9f411d0eca02","system_id":"levelo_inurba_marseille","lat":43.29605,"lon":5.36747,"is_reserved":false,"is_disabled":false,"rental_uris":{"android":"levelo://app?vid=901fa8c3-b084-4dd3-a547-9f411d0eca02","ios":"levelo://app?vid=901fa8c3-b084-4dd3-a547-9f411d0eca02"},"vehicle_type_id":"4","last_reported":1739034393,"current_range_meters":38800,"station_id":"ce4bgph2rcd13ifvqc2g","pricing_plan_id":"cebpf4jnsgd1na2vs0mg"},{"bike_id":"2b201bb7-73a6-4c94-b403-7bc6f0bafe13","system_id":"levelo_inurba_marseille","lat":43.28677,"lon":5.38656,"is_reserved":false,"is_disabled":false,"rental_uris":{"android":"levelo://app?vid=2b201bb7-73a6-4c94-b403-7bc6f0bafe13","ios":"levelo://app?vid=2b201bb7-73a6-4c94-b403-7bc6f0bafe13"},"vehicle_type_id":"4","last_reported":1739034393,"current_range_meters":38400,"station_id":"ce4bh492rcd13ifvqdug","pricing_plan_id":"cebpf4jnsgd1na2vs0mg"},{"bike_id":"7533b323-d08c-4f97-b24e-83dcf5ce17b0","system_id":"levelo_inurba_marseille","lat":43.28657,"lon":5.36355,"is_reserved":false,"is_disabled":false,"rental_uris":{"android":"levelo://app?vid=7533b323-d08c-4f97-b24e-83dcf5ce17b0","ios":"levelo://app?vid=7533b323-d08c-4f97-b24e-83dcf5ce17b0"},"vehicle_type_id":"4","last_reported":1739034393,"current_range_meters":36400,"station_id":"ce4bhah2rcd13ifvqej0","pricing_plan_id":"cebpf4jnsgd1na2vs0mg"},{"bike_id":"889ef476-f99b-42ff-95f8-28ea11857507","system_id":"levelo_inurba_marseille","lat":43.23972,"lon":5.36615,"is_reserved":false,"is_disabled":false,"rental_uris":{"android":"levelo://app?vid=889ef476-f99b-42ff-95f8-28ea11857507","ios":"levelo://app?vid=889ef476-f99b-42ff-95f8-28ea11857507"},"vehicle_type_id":"4","last_reported":1739034393,"current_range_meters":30400,"station_id":"ce4bhi12rcd13ifvqfp0","pricing_plan_id":"cebpf4jnsgd1na2vs0mg"},{"bike_id":"7f2deb56-183c-436c-981c-cfbcfece13e6","system_id":"levelo_inurba_marseille","lat":43.23957,"lon":5.36653,"is_reserved":false,"is_disabled":false,"rental_uris":{"android":"levelo://app?vid=7f2deb56-183c-436c-981c-cfbcfece13e6","ios":"levelo://app?vid=7f2deb56-183c-436c-981c-cfbcfece13e6"},"vehicle_type_id":"4","last_reported":1739034393,"current_range_meters":37600,"station_id":"ce4bhi12rcd13ifvqfp0","pricing_plan_id":"cebpf4jnsgd1na2vs0mg"},{"bike_id":"6c4c0e42-55de-458e-8fcf-3d7cb5bdb74d","system_id":"levelo_inurba_marseille","lat":43.29178,"lon":5.37155,"is_reserved":false,"is_disabled":false,"rental_uris":{"android":"levelo://app?vid=6c4c0e42-55de-458e-8fcf-3d7cb5bdb74d","ios":"levelo://app?vid=6c4c0e42-55de-458e-8fcf-3d7cb5bdb74d"},"vehicle_type_id":"4","last_reported":1739034393,"current_range_meters":39200,"station_id":"ce4bha92rcd13ifvqeh0","pricing_plan_id":"cebpf4jnsgd1na2vs0mg"},{"bike_id":"840ebca8-7a3d-41f8-94ee-29a75f39f827","system_id":"levelo_inurba_marseille","lat":43.29172,"lon":5.37164,"is_reserved":false,"is_disabled":false,"rental_uris":{"android":"levelo://app?vid=840ebca8-7a3d-41f8-94ee-29a75f39f827","ios":"levelo://app?vid=840ebca8-7a3d-41f8-94ee-29a75f39f827"},"vehicle_type_id":"4","last_reported":1739034393,"current_range_meters":21600,"station_id":"ce4bha92rcd13ifvqeh0","pricing_plan_id":"cebpf4jnsgd1na2vs0mg"},{"bike_id":"6186afb6-fd6f-42d8-8215-07291eb97707","system_id":"levelo_inurba_marseille","lat":43.24181,"lon":5.39746,"is_reserved":false,"is_disabled":false,"rental_uris":{"android":"levelo://app?vid=6186afb6-fd6f-42d8-8215-07291eb97707","ios":"levelo://app?vid=6186afb6-fd6f-42d8-8215-07291eb97707"},"vehicle_type_id":"4","last_reported":1739034393,"current_range_meters":25600,"station_id":"ce4bhn12rcd13ifvqgpg","pricing_plan_id":"cebpf4jnsgd1na2vs0mg"},{"bike_id":"2f37c01b-9dbf-4f25-a6c6-88a6b88e248f","system_id":"levelo_inurba_marseille","lat":43.29267,"lon":5.36859,"is_reserved":false,"is_disabled":false,"rental_uris":{"android":"levelo://app?vid=2f37c01b-9dbf-4f25-a6c6-88a6b88e248f","ios":"levelo://app?vid=2f37c01b-9dbf-4f25-a6c6-88a6b88e248f"},"vehicle_type_id":"4","last_reported":1739034393,"current_range_meters":38800,"station_id":"ce4bhbp2rcd13ifvqesg","pricing_plan_id":"cebpf4jnsgd1na2vs0mg"},{"bike_id":"c1994bca-8c74-4142-b569-d2f7c47c698f","system_id":"levelo_inurba_marseille","lat":43.27823,"lon":5.40727,"is_reserved":false,"is_disabled":false,"rental_uris":{"android":"levelo://app?vid=c1994bca-8c74-4142-b569-d2f7c47c698f","ios":"levelo://app?vid=c1994bca-8c74-4142-b569-d2f7c47c698f"},"vehicle_type_id":"4","last_reported":1739034393,"current_range_meters":28400,"station_id":"ce4bhnh2rcd13ifvqgtg","pricing_plan_id":"cebpf4jnsgd1na2vs0mg"},{"bike_id":"f2df57fd-48fb-42b4-9b53-5e639c9b06ad","system_id":"levelo_inurba_marseille","lat":43.32369,"lon":5.38907,"is_reserved":false,"is_disabled":false,"rental_uris":{"android":"levelo://app?vid=f2df57fd-48fb-42b4-9b53-5e639c9b06ad","ios":"levelo://app?vid=f2df57fd-48fb-42b4-9b53-5e639c9b06ad"},"vehicle_type_id":"4","last_reported":1739034393,"current_range_meters":33600,"station_id":"ce4bhqp2rcd13ifvqhog","pricing_plan_id":"cebpf4jnsgd1na2vs0mg"},{"bike_id":"aaa34935-1279-4709-8f0a-a124f9432eec","system_id":"levelo_inurba_marseille","lat":43.29023,"lon":5.38668,"is_reserved":false,"is_disabled":false,"rental_uris":{"android":"levelo://app?vid=aaa34935-1279-4709-8f0a-a124f9432eec","ios":"levelo://app?vid=aaa34935-1279-4709-8f0a-a124f9432eec"},"vehicle_type_id":"4","last_reported":1739034393,"current_range_meters":38400,"station_id":"ce4bh4p2rcd13ifvqe0g","pricing_plan_id":"cebpf4jnsgd1na2vs0mg"},{"bike_id":"38050f8e-4fa5-4acc-a22c-1e12314ad332","system_id":"levelo_inurba_marseille","lat":43.29162,"lon":5.37177,"is_reserved":false,"is_disabled":false,"rental_uris":{"android":"levelo://app?vid=38050f8e-4fa5-4acc-a22c-1e12314ad332","ios":"levelo://app?vid=38050f8e-4fa5-4acc-a22c-1e12314ad332"},"vehicle_type_id":"4","last_reported":1739034393,"current_range_meters":4400,"station_id":"ce4bha92rcd13ifvqeh0","pricing_plan_id":"cebpf4jnsgd1na2vs0mg"},{"bike_id":"9f7cf945-ba46-4a30-a487-0537ff799f4a","system_id":"levelo_inurba_marseille","lat":43.28,"lon":5.40033,"is_reserved":false,"is_disabled":false,"rental_uris":{"android":"levelo://app?vid=9f7cf945-ba46-4a30-a487-0537ff799f4a","ios":"levelo://app?vid=9f7cf945-ba46-4a30-a487-0537ff799f4a"},"vehicle_type_id":"4","last_reported":1739034393,"current_range_meters":19600,"station_id":"ce4bho92rcd13ifvqh4g","pricing_plan_id":"cebpf4jnsgd1na2vs0mg"},{"bike_id":"59db9156-837c-4bef-bdf0-6cb05d00fb23","system_id":"levelo_inurba_marseille","lat":43.24176,"lon":5.36385,"is_reserved":false,"is_disabled":false,"rental_uris":{"android":"levelo://app?vid=59db9156-837c-4bef-bdf0-6cb05d00fb23","ios":"levelo://app?vid=59db9156-837c-4bef-bdf0-6cb05d00fb23"},"vehicle_type_id":"4","last_reported":1739034393,"current_range_meters":27200,"station_id":"cpo36qri1sfpv3e86is0","pricing_plan_id":"cebpf4jnsgd1na2vs0mg"},{"bike_id":"0ed84333-b932-4d64-b2f5-6fbac997e6bb","system_id":"levelo_inurba_marseille","lat":43.2805,"lon":5.36927,"is_reserved":false,"is_disabled":false,"rental_uris":{"android":"levelo://app?vid=0ed84333-b932-4d64-b2f5-6fbac997e6bb","ios":"levelo://app?vid=0ed84333-b932-4d64-b2f5-6fbac997e6bb"},"vehicle_type_id":"4","last_reported":1739034393,"current_range_meters":39200,"station_id":"ce4bha12rcd13ifvqef0","pricing_plan_id":"cebpf4jnsgd1na2vs0mg"},{"bike_id":"53bafbfb-e357-4ec1-bf20-fb90dd25ed46","system_id":"levelo_inurba_marseille","lat":43.29234,"lon":5.36089,"is_reserved":false,"is_disabled":false,"rental_uris":{"android":"levelo://app?vid=53bafbfb-e357-4ec1-bf20-fb90dd25ed46","ios":"levelo://app?vid=53bafbfb-e357-4ec1-bf20-fb90dd25ed46"},"vehicle_type_id":"4","last_reported":1739034393,"current_range_meters":26800,"station_id":"ce4bhbh2rcd13ifvqeqg","pricing_plan_id":"cebpf4jnsgd1na2vs0mg"},{"bike_id":"a35cf4c9-a6f6-463f-bf92-4d0b3dfcb4a9","system_id":"levelo_inurba_marseille","lat":43.24665,"lon":5.38175,"is_reserved":false,"is_disabled":false,"rental_uris":{"android":"levelo://app?vid=a35cf4c9-a6f6-463f-bf92-4d0b3dfcb4a9","ios":"levelo://app?vid=a35cf4c9-a6f6-463f-bf92-4d0b3dfcb4a9"},"vehicle_type_id":"4","last_reported":1739034393,"current_range_meters":8000,"station_id":"ce4bhih2rcd13ifvqfr0","pricing_plan_id":"cebpf4jnsgd1na2vs0mg"},{"bike_id":"25779db4-1979-4bf8-9051-93f244d3242a","system_id":"levelo_inurba_marseille","lat":43.31674,"lon":5.39484,"is_reserved":false,"is_disabled":false,"rental_uris":{"android":"levelo://app?vid=25779db4-1979-4bf8-9051-93f244d3242a","ios":"levelo://app?vid=25779db4-1979-4bf8-9051-93f244d3242a"},"vehicle_type_id":"4","last_reported":1739034393,"current_range_meters":30400,"station_id":"","pricing_plan_id":"cebpf4jnsgd1na2vs0mg"},{"bike_id":"d3ccc336-bf7a-4574-adec-fe10400120aa","system_id":"levelo_inurba_marseille","lat":43.25105,"lon":5.40354,"is_reserved":false,"is_disabled":false,"rental_uris":{"android":"levelo://app?vid=d3ccc336-bf7a-4574-adec-fe10400120aa","ios":"levelo://app?vid=d3ccc336-bf7a-4574-adec-fe10400120aa"},"vehicle_type_id":"4","last_reported":1739034393,"current_range_meters":24400,"station_id":"ce4bhlh2rcd13ifvqgig","pricing_plan_id":"cebpf4jnsgd1na2vs0mg"},{"bike_id":"7e424a35-8cf7-4c71-b98f-4231461d22a0","system_id":"levelo_inurba_marseille","lat":43.27535,"lon":5.38997,"is_reserved":false,"is_disabled":false,"rental_uris":{"android":"levelo://app?vid=7e424a35-8cf7-4c71-b98f-4231461d22a0","ios":"levelo://app?vid=7e424a35-8cf7-4c71-b98f-4231461d22a0"},"vehicle_type_id":"4","last_reported":1739034393,"current_range_meters":35600,"station_id":"","pricing_plan_id":"cebpf4jnsgd1na2vs0mg"},{"bike_id":"688cb102-28ba-4c7e-885f-41414f9433e9","system_id":"levelo_inurba_marseille","lat":43.25576,"lon":5.38253,"is_reserved":false,"is_disabled":false,"rental_uris":{"android":"levelo://app?vid=688cb102-28ba-4c7e-885f-41414f9433e9","ios":"levelo://app?vid=688cb102-28ba-4c7e-885f-41414f9433e9"},"vehicle_type_id":"4","last_reported":1739034393,"current_range_meters":22400,"station_id":"ce4bhih2rcd13ifvqfs0","pricing_plan_id":"cebpf4jnsgd1na2vs0mg"},{"bike_id":"3b238840-8a24-4ce8-868e-201f349633f5","system_id":"levelo_inurba_marseille","lat":43.276213,"lon":5.361113,"is_reserved":false,"is_disabled":false,"rental_uris":{"android":"levelo://app?vid=3b238840-8a24-4ce8-868e-201f349633f5","ios":"levelo://app?vid=3b238840-8a24-4ce8-868e-201f349633f5"},"vehicle_type_id":"4","last_reported":1739034393,"current_range_meters":38800,"station_id":"ce4bgj92rcd13ifvqbe0","pricing_plan_id":"cebpf4jnsgd1na2vs0mg"},{"bike_id":"66e9e8fd-0966-44a6-893f-a4b1107d39c6","system_id":"levelo_inurba_marseille","lat":43.28468,"lon":5.35883,"is_reserved":false,"is_disabled":false,"rental_uris":{"android":"levelo://app?vid=66e9e8fd-0966-44a6-893f-a4b1107d39c6","ios":"levelo://app?vid=66e9e8fd-0966-44a6-893f-a4b1107d39c6"},"vehicle_type_id":"4","last_reported":1739034393,"current_range_meters":28400,"station_id":"ce4bhah2rcd13ifvqei0","pricing_plan_id":"cebpf4jnsgd1na2vs0mg"},{"bike_id":"0fd0b636-d28c-4199-8ab1-0c979db2ea94","system_id":"levelo_inurba_marseille","lat":43.31339,"lon":5.36714,"is_reserved":false,"is_disabled":false,"rental_uris":{"android":"levelo://app?vid=0fd0b636-d28c-4199-8ab1-0c979db2ea94","ios":"levelo://app?vid=0fd0b636-d28c-4199-8ab1-0c979db2ea94"},"vehicle_type_id":"4","last_reported":1739034393,"current_range_meters":37600,"station_id":"ce4bgr92rcd13ifvqc6g","pricing_plan_id":"cebpf4jnsgd1na2vs0mg"},{"bike_id":"b557dda7-73c9-4e4b-95b0-603097b3ec6b","system_id":"levelo_inurba_marseille","lat":43.26192,"lon":5.37924,"is_reserved":false,"is_disabled":false,"rental_uris":{"android":"levelo://app?vid=b557dda7-73c9-4e4b-95b0-603097b3ec6b","ios":"levelo://app?vid=b557dda7-73c9-4e4b-95b0-603097b3ec6b"},"vehicle_type_id":"4","last_reported":1739034393,"current_range_meters":38800,"station_id":"ce4bhjp2rcd13ifvqg90","pricing_plan_id":"cebpf4jnsgd1na2vs0mg"},{"bike_id":"3e0f7d59-321e-4e79-a75e-aa4f3500b14f","system_id":"levelo_inurba_marseille","lat":43.28706,"lon":5.37377,"is_reserved":false,"is_disabled":false,"rental_uris":{"android":"levelo://app?vid=3e0f7d59-321e-4e79-a75e-aa4f3500b14f","ios":"levelo://app?vid=3e0f7d59-321e-4e79-a75e-aa4f3500b14f"},"vehicle_type_id":"4","last_reported":1739034393,"current_range_meters":21600,"station_id":"ce4bh3p2rcd13ifvqdq0","pricing_plan_id":"cebpf4jnsgd1na2vs0mg"},{"bike_id":"6ff781d1-2621-44d1-b299-83b571f09432","system_id":"levelo_inurba_marseille","lat":43.34072,"lon":5.38509,"is_reserved":false,"is_disabled":true,"rental_uris":{"android":"levelo://app?vid=6ff781d1-2621-44d1-b299-83b571f09432","ios":"levelo://app?vid=6ff781d1-2621-44d1-b299-83b571f09432"},"vehicle_type_id":"4","last_reported":1739034393,"current_range_meters":2000,"station_id":"","pricing_plan_id":"cebpf4jnsgd1na2vs0mg"},{"bike_id":"0b6c8969-9641-4279-b954-b02e30ea93c0","system_id":"levelo_inurba_marseille","lat":43.31171,"lon":5.3872,"is_reserved":false,"is_disabled":false,"rental_uris":{"android":"levelo://app?vid=0b6c8969-9641-4279-b954-b02e30ea93c0","ios":"levelo://app?vid=0b6c8969-9641-4279-b954-b02e30ea93c0"},"vehicle_type_id":"4","last_reported":1739034393,"current_range_meters":38800,"station_id":"ce4bgv12rcd13ifvqcp0","pricing_plan_id":"cebpf4jnsgd1na2vs0mg"},{"bike_id":"0a484fee-0ef1-47de-86d9-acd71bab934b","system_id":"levelo_inurba_marseille","lat":43.23188,"lon":5.39985,"is_reserved":false,"is_disabled":false,"rental_uris":{"android":"levelo://app?vid=0a484fee-0ef1-47de-86d9-acd71bab934b","ios":"levelo://app?vid=0a484fee-0ef1-47de-86d9-acd71bab934b"},"vehicle_type_id":"4","last_reported":1739034393,"current_range_meters":38800,"station_id":"ce4bhn12rcd13ifvqgqg","pricing_plan_id":"cebpf4jnsgd1na2vs0mg"},{"bike_id":"81c178fa-6760-4d32-94ce-61c662236661","system_id":"levelo_inurba_marseille","lat":43.31528,"lon":5.38034,"is_reserved":false,"is_disabled":false,"rental_uris":{"android":"levelo://app?vid=81c178fa-6760-4d32-94ce-61c662236661","ios":"levelo://app?vid=81c178fa-6760-4d32-94ce-61c662236661"},"vehicle_type_id":"4","last_reported":1739034393,"current_range_meters":38000,"station_id":"ce4bhsp2rcd13ifvqi50","pricing_plan_id":"cebpf4jnsgd1na2vs0mg"},{"bike_id":"8bec6f5e-e450-4c2b-8557-aced9db82d7a","system_id":"levelo_inurba_marseille","lat":43.25719,"lon":5.41116,"is_reserved":false,"is_disabled":false,"rental_uris":{"android":"levelo://app?vid=8bec6f5e-e450-4c2b-8557-aced9db82d7a","ios":"levelo://app?vid=8bec6f5e-e450-4c2b-8557-aced9db82d7a"},"vehicle_type_id":"4","last_reported":1739034393,"current_range_meters":36400,"station_id":"ce4bhkp2rcd13ifvqgd0","pricing_plan_id":"cebpf4jnsgd1na2vs0mg"},{"bike_id":"72095db6-2c6c-452f-9fcd-34d6811a950f","system_id":"levelo_inurba_marseille","lat":43.26563,"lon":5.39014,"is_reserved":false,"is_disabled":false,"rental_uris":{"android":"levelo://app?vid=72095db6-2c6c-452f-9fcd-34d6811a950f","ios":"levelo://app?vid=72095db6-2c6c-452f-9fcd-34d6811a950f"},"vehicle_type_id":"4","last_reported":1739034393,"current_range_meters":16400,"station_id":"ce4bhe12rcd13ifvqf30","pricing_plan_id":"cebpf4jnsgd1na2vs0mg"},{"bike_id":"3fcfaa12-ad1a-4a67-ad2b-1c4ec79cf647","system_id":"levelo_inurba_marseille","lat":43.29367,"lon":5.37841,"is_reserved":false,"is_disabled":false,"rental_uris":{"android":"levelo://app?vid=3fcfaa12-ad1a-4a67-ad2b-1c4ec79cf647","ios":"levelo://app?vid=3fcfaa12-ad1a-4a67-ad2b-1c4ec79cf647"},"vehicle_type_id":"4","last_reported":1739034393,"current_range_meters":38400,"station_id":"ce4bgjh2rcd13ifvqbf0","pricing_plan_id":"cebpf4jnsgd1na2vs0mg"},{"bike_id":"d38745a8-c134-4c35-b845-3f8bd3e6fd53","system_id":"levelo_inurba_marseille","lat":43.28572,"lon":5.39498,"is_reserved":false,"is_disabled":false,"rental_uris":{"android":"levelo://app?vid=d38745a8-c134-4c35-b845-3f8bd3e6fd53","ios":"levelo://app?vid=d38745a8-c134-4c35-b845-3f8bd3e6fd53"},"vehicle_type_id":"4","last_reported":1739034393,"current_range_meters":38000,"station_id":"ce4bh292rcd13ifvqdg0","pricing_plan_id":"cebpf4jnsgd1na2vs0mg"},{"bike_id":"50e3472b-8c17-4d47-ab50-81b6d123b73b","system_id":"levelo_inurba_marseille","lat":43.29056,"lon":5.39977,"is_reserved":false,"is_disabled":false,"rental_uris":{"android":"levelo://app?vid=50e3472b-8c17-4d47-ab50-81b6d123b73b","ios":"levelo://app?vid=50e3472b-8c17-4d47-ab50-81b6d123b73b"},"vehicle_type_id":"4","last_reported":1739034393,"current_range_meters":37600,"station_id":"ce4bh392rcd13ifvqdm0","pricing_plan_id":"cebpf4jnsgd1na2vs0mg"},{"bike_id":"e2200dc8-d2f7-4f30-b1b2-4f395de74e61","system_id":"levelo_inurba_marseille","lat":43.31136,"lon":5.37753,"is_reserved":false,"is_disabled":false,"rental_uris":{"android":"levelo://app?vid=e2200dc8-d2f7-4f30-b1b2-4f395de74e61","ios":"levelo://app?vid=e2200dc8-d2f7-4f30-b1b2-4f395de74e61"},"vehicle_type_id":"4","last_reported":1739034393,"current_range_meters":28400,"station_id":"ce4bgt92rcd13ifvqcg0","pricing_plan_id":"cebpf4jnsgd1na2vs0mg"},{"bike_id":"d302f3f8-0083-4d61-8245-148049cbf11f","system_id":"levelo_inurba_marseille","lat":43.29271,"lon":5.38434,"is_reserved":false,"is_disabled":false,"rental_uris":{"android":"levelo://app?vid=d302f3f8-0083-4d61-8245-148049cbf11f","ios":"levelo://app?vid=d302f3f8-0083-4d61-8245-148049cbf11f"},"vehicle_type_id":"4","last_reported":1739034393,"current_range_meters":34800,"station_id":"ce4bh692rcd13ifvqea0","pricing_plan_id":"cebpf4jnsgd1na2vs0mg"},{"bike_id":"977e6e07-477d-4bf3-b991-07d33b10ebbb","system_id":"levelo_inurba_marseille","lat":43.28446,"lon":5.39206,"is_reserved":false,"is_disabled":false,"rental_uris":{"android":"levelo://app?vid=977e6e07-477d-4bf3-b991-07d33b10ebbb","ios":"levelo://app?vid=977e6e07-477d-4bf3-b991-07d33b10ebbb"},"vehicle_type_id":"4","last_reported":1739034393,"current_range_meters":20800,"station_id":"ce4bhoh2rcd13ifvqh5g","pricing_plan_id":"cebpf4jnsgd1na2vs0mg"},{"bike_id":"55922e5d-9617-41e3-bae5-f93752853521","system_id":"levelo_inurba_marseille","lat":43.32001,"lon":5.38171,"is_reserved":false,"is_disabled":false,"rental_uris":{"android":"levelo://app?vid=55922e5d-9617-41e3-bae5-f93752853521","ios":"levelo://app?vid=55922e5d-9617-41e3-bae5-f93752853521"},"vehicle_type_id":"4","last_reported":1739034393,"current_range_meters":34000,"station_id":"ce4bhr12rcd13ifvqhpg","pricing_plan_id":"cebpf4jnsgd1na2vs0mg"},{"bike_id":"e82fa571-a0a5-482d-a191-562866bf1df5","system_id":"levelo_inurba_marseille","lat":43.2737,"lon":5.36256,"is_reserved":false,"is_disabled":false,"rental_uris":{"android":"levelo://app?vid=e82fa571-a0a5-482d-a191-562866bf1df5","ios":"levelo://app?vid=e82fa571-a0a5-482d-a191-562866bf1df5"},"vehicle_type_id":"4","last_reported":1739034393,"current_range_meters":39200,"station_id":"ce4bhbh2rcd13ifvqeo0","pricing_plan_id":"cebpf4jnsgd1na2vs0mg"},{"bike_id":"54821b8f-03ba-4360-abc1-91db00db4644","system_id":"levelo_inurba_marseille","lat":43.25496,"lon":5.37646,"is_reserved":false,"is_disabled":false,"rental_uris":{"android":"levelo://app?vid=54821b8f-03ba-4360-abc1-91db00db4644","ios":"levelo://app?vid=54821b8f-03ba-4360-abc1-91db00db4644"},"vehicle_type_id":"4","last_reported":1739034393,"current_range_meters":38800,"station_id":"ce4bhh12rcd13ifvqff0","pricing_plan_id":"cebpf4jnsgd1na2vs0mg"},{"bike_id":"a6e1b439-04e4-421f-a5a6-259ce9531499","system_id":"levelo_inurba_marseille","lat":43.270625,"lon":5.402618,"is_reserved":false,"is_disabled":false,"rental_uris":{"android":"levelo://app?vid=a6e1b439-04e4-421f-a5a6-259ce9531499","ios":"levelo://app?vid=a6e1b439-04e4-421f-a5a6-259ce9531499"},"vehicle_type_id":"4","last_reported":1739034393,"current_range_meters":29600,"station_id":"ce4bhk92rcd13ifvqgc0","pricing_plan_id":"cebpf4jnsgd1na2vs0mg"},{"bike_id":"811b596f-d366-4ba7-8bb7-6aab07e70a55","system_id":"levelo_inurba_marseille","lat":43.28277,"lon":5.35065,"is_reserved":false,"is_disabled":false,"rental_uris":{"android":"levelo://app?vid=811b596f-d366-4ba7-8bb7-6aab07e70a55","ios":"levelo://app?vid=811b596f-d366-4ba7-8bb7-6aab07e70a55"},"vehicle_type_id":"4","last_reported":1739034393,"current_range_meters":16800,"station_id":"ce4bhbp2rcd13ifvqerg","pricing_plan_id":"cebpf4jnsgd1na2vs0mg"},{"bike_id":"213121fc-8105-4127-83ce-0c8d78bb7544","system_id":"levelo_inurba_marseille","lat":43.31348,"lon":5.39673,"is_reserved":false,"is_disabled":false,"rental_uris":{"android":"levelo://app?vid=213121fc-8105-4127-83ce-0c8d78bb7544","ios":"levelo://app?vid=213121fc-8105-4127-83ce-0c8d78bb7544"},"vehicle_type_id":"4","last_reported":1739034393,"current_range_meters":29600,"station_id":"ce4bgvp2rcd13ifvqcu0","pricing_plan_id":"cebpf4jnsgd1na2vs0mg"},{"bike_id":"add99ff6-f54a-4f52-b2a1-c4071c3f0d53","system_id":"levelo_inurba_marseille","lat":43.26682,"lon":5.3824,"is_reserved":false,"is_disabled":false,"rental_uris":{"android":"levelo://app?vid=add99ff6-f54a-4f52-b2a1-c4071c3f0d53","ios":"levelo://app?vid=add99ff6-f54a-4f52-b2a1-c4071c3f0d53"},"vehicle_type_id":"4","last_reported":1739034393,"current_range_meters":30800,"station_id":"ce4bhg92rcd13ifvqf90","pricing_plan_id":"cebpf4jnsgd1na2vs0mg"},{"bike_id":"25abaf33-067a-4b80-89fd-6dd825a080ab","system_id":"levelo_inurba_marseille","lat":43.30162,"lon":5.38088,"is_reserved":false,"is_disabled":false,"rental_uris":{"android":"levelo://app?vid=25abaf33-067a-4b80-89fd-6dd825a080ab","ios":"levelo://app?vid=25abaf33-067a-4b80-89fd-6dd825a080ab"},"vehicle_type_id":"4","last_reported":1739034393,"current_range_meters":38800,"station_id":"ce4bgjp2rcd13ifvqbh0","pricing_plan_id":"cebpf4jnsgd1na2vs0mg"},