{"last_updated":1740611339,"ttl":60,"version":"2.2","data":{"bikes":[{"bike_id":"d4e59501-2eb8-40c2-90fe-a8c88ef2f0a0","system_id":"levelo_inurba_marseille","lat":43.24667,"lon":5.38832,"is_reserved":false,"is_disabled":false,"rental_uris":{"android":"levelo://app?vid=d4e59501-2eb8-40c2-90fe-a8c88ef2f0a0","ios":"levelo://app?vid=d4e59501-2eb8-40c2-90fe-a8c88ef2f0a0"},"vehicle_type_id":"4","last_reported":1740611339,"current_range_meters":3200,"station_id":"ce4bhg12rcd13ifvqf60","pricing_plan_id":"cebpf4jnsgd1na2vs0mg"},{"bike_id":"2762f6a9-d1ca-40e0-835c-6af6419e40c1","system_id":"levelo_inurba_marseille","lat":43.27368,"lon":5.36244,"is_reserved":false,"is_disabled":false,"rental_uris":{"android":"levelo://app?vid=2762f6a9-d1ca-40e0-835c-6af6419e40c1","ios":"levelo://app?vid=2762f6a9-d1ca-40e0-835c-6af6419e40c1"},"vehicle_type_id":"4","last_reported":1740611339,"current_range_meters":3600,"station_id":"ce4bhbh2rcd13ifvqeo0","pricing_plan_id":"cebpf4jnsgd1na2vs0mg"},{"bike_id":"d52313f6-211e-4738-9726-7458a89bec85","system_id":"levelo_inurba_marseille","lat":43.30095,"lon":5.39073,"is_reserved":false,"is_disabled":false,"rental_uris":{"android":"levelo://app?vid=d52313f6-211e-4738-9726-7458a89bec85","ios":"levelo://app?vid=d52313f6-211e-4738-9726-7458a89bec85"},"vehicle_type_id":"4","last_reported":1740611339,"current_range_meters":3600,"station_id":"ce4bh192rcd13ifvqdb0","pricing_plan_id":"cebpf4jnsgd1na2vs0mg"},{"bike_id":"349e0b42-9005-4524-ae81-70f682769f76","system_id":"levelo_inurba_marseille","lat":43.23972,"lon":5.36616,"is_reserved":false,"is_disabled":false,"rental_uris":{"android":"levelo://app?vid=349e0b42-9005-4524-ae81-70f682769f76","ios":"levelo://app?vid=349e0b42-9005-4524-ae81-70f682769f76"},"vehicle_type_id":"4","last_reported":1740611339,"current_range_meters":3600,"station_id":"ce4bhi12rcd13ifvqfp0","pricing_plan_id":"cebpf4jnsgd1na2vs0mg"},{"bike_id":"d7ad7d94-e732-4d27-9a64-be8020ed4a87","system_id":"levelo_inurba_marseille","lat":43.28668,"lon":5.36352,"is_reserved":false,"is_disabled":false,"rental_uris":{"android":"levelo://app?vid=d7ad7d94-e732-4d27-9a64-be8020ed4a87","ios":"levelo://app?vid=d7ad7d94-e732-4d27-9a64-be8020ed4a87"},"vehicle_type_id":"4","last_reported":1740611339,"current_range_meters":3600,"station_id":"ce4bhah2rcd13ifvqej0","pricing_plan_id":"cebpf4jnsgd1na2vs0mg"},{"bike_id":"0d58bdd4-45b5-40db-9ced-11725c0c62bd","system_id":"levelo_inurba_marseille","lat":43.32344,"lon":5.4062,"is_reserved":false,"is_disabled":false,"rental_uris":{"android":"levelo://app?vid=0d58bdd4-45b5-40db-9ced-11725c0c62bd","ios":"levelo://app?vid=0d58bdd4-45b5-40db-9ced-11725c0c62bd"},"vehicle_type_id":"4","last_reported":1740611339,"current_range_meters":4400,"station_id":"ce4bhq92rcd13ifvqhjg","pricing_plan_id":"cebpf4jnsgd1na2vs0mg"},{"bike_id":"1f0dcaf3-20ff-45bc-b4ef-8f34cf36e226","system_id":"levelo_inurba_marseille","lat":43.27826,"lon":5.40738,"is_reserved":false,"is_disabled":true,"rental_uris":{"android":"levelo://app?vid=1f0dcaf3-20ff-45bc-b4ef-8f34cf36e226","ios":"levelo://app?vid=1f0dcaf3-20ff-45bc-b4ef-8f34cf36e226"},"vehicle_type_id":"4","last_reported":1740611339,"current_range_meters":4000,"station_id":"ce4bhnh2rcd13ifvqgtg","pricing_plan_id":"cebpf4jnsgd1na2vs0mg"},{"bike_id":"87d69302-a6cb-4094-b9f6-16564c85e522","system_id":"levelo_inurba_marseille","lat":43.25714,"lon":5.411,"is_reserved":false,"is_disabled":false,"rental_uris":{"android":"levelo://app?vid=87d69302-a6cb-4094-b9f6-16564c85e522","ios":"levelo://app?vid=87d69302-a6cb-4094-b9f6-16564c85e522"},"vehicle_type_id":"4","last_reported":1740611339,"current_range_meters":4000,"station_id":"ce4bhkp2rcd13ifvqgd0","pricing_plan_id":"cebpf4jnsgd1na2vs0mg"},{"bike_id":"8672a90a-3d31-4889-8b34-7f9ccaebc950","system_id":"levelo_inurba_marseille","lat":43.278353,"lon":5.392028,"is_reserved":false,"is_disabled":false,"rental_uris":{"android":"levelo://app?vid=8672a90a-3d31-4889-8b34-7f9ccaebc950","ios":"levelo://app?vid=8672a90a-3d31-4889-8b34-7f9ccaebc950"},"vehicle_type_id":"4","last_reported":1740611339,"current_range_meters":4400,"station_id":"ce4bhjp2rcd13ifvqga0","pricing_plan_id":"cebpf4jnsgd1na2vs0mg"},{"bike_id":"e5c275a2-a964-47d8-9489-ed1126cf4cef","system_id":"levelo_inurba_marseille","lat":43.29609,"lon":5.37919,"is_reserved":false,"is_disabled":false,"rental_uris":{"android":"levelo://app?vid=e5c275a2-a964-47d8-9489-ed1126cf4cef","ios":"levelo://app?vid=e5c275a2-a964-47d8-9489-ed1126cf4cef"},"vehicle_type_id":"4","last_reported":1740611339,"current_range_meters":4400,"station_id":"","pricing_plan_id":"cebpf4jnsgd1na2vs0mg"},{"bike_id":"7177b9ca-df5a-4fb3-9f4e-3aaf2239bf94","system_id":"levelo_inurba_marseille","lat":43.28661,"lon":5.36345,"is_reserved":false,"is_disabled":false,"rental_uris":{"android":"levelo://app?vid=7177b9ca-df5a-4fb3-9f4e-3aaf2239bf94","ios":"levelo://app?vid=7177b9ca-df5a-4fb3-9f4e-3aaf2239bf94"},"vehicle_type_id":"4","last_reported":1740611339,"current_range_meters":4400,"station_id":"ce4bhah2rcd13ifvqej0","pricing_plan_id":"cebpf4jnsgd1na2vs0mg"},{"bike_id":"a1879da5-9e75-4549-8cce-fa10e10e4d66","system_id":"levelo_inurba_marseille","lat":43.32331,"lon":5.40782,"is_reserved":false,"is_disabled":false,"rental_uris":{"android":"levelo://app?vid=a1879da5-9e75-4549-8cce-fa10e10e4d66","ios":"levelo://app?vid=a1879da5-9e75-4549-8cce-fa10e10e4d66"},"vehicle_type_id":"4","last_reported":1740611339,"current_range_meters":5600,"station_id":"","pricing_plan_id":"cebpf4jnsgd1na2vs0mg"},{"bike_id":"77d72656-ec37-44f1-ab2b-c05ee9e3e3e9","system_id":"levelo_inurba_marseille","lat":43.29282,"lon":5.37547,"is_reserved":false,"is_disabled":false,"rental_uris":{"android":"levelo://app?vid=77d72656-ec37-44f1-ab2b-c05ee9e3e3e9","ios":"levelo://app?vid=77d72656-ec37-44f1-ab2b-c05ee9e3e3e9"},"vehicle_type_id":"4","last_reported":1740611339,"current_range_meters":5600,"station_id":"","pricing_plan_id":"cebpf4jnsgd1na2vs0mg"},{"bike_id":"411b5315-e03f-43f4-b5cd-9f0caf8d3081","system_id":"levelo_inurba_marseille","lat":43.23194,"lon":5.39994,"is_reserved":false,"is_disabled":false,"rental_uris":{"android":"levelo://app?vid=411b5315-e03f-43f4-b5cd-9f0caf8d3081","ios":"levelo://app?vid=411b5315-e03f-43f4-b5cd-9f0caf8d3081"},"vehicle_type_id":"4","last_reported":1740611339,"current_range_meters":5600,"station_id":"ce4bhn12rcd13ifvqgqg","pricing_plan_id":"cebpf4jnsgd1na2vs0mg"},{"bike_id":"39c490fa-7a92-47db-bc32-fe7f8b3890e2","system_id":"levelo_inurba_marseille","lat":43.292762,"lon":5.368406,"is_reserved":false,"is_disabled":true,"rental_uris":{"android":"levelo://app?vid=39c490fa-7a92-47db-bc32-fe7f8b3890e2","ios":"levelo://app?vid=39c490fa-7a92-47db-bc32-fe7f8b3890e2"},"vehicle_type_id":"4","last_reported":1740611339,"current_range_meters":6000,"station_id":"ce4bhbp2rcd13ifvqesg","pricing_plan_id":"cebpf4jnsgd1na2vs0mg"},{"bike_id":"1198830a-4bc0-41b7-a198-738969d14d31","system_id":"levelo_inurba_marseille","lat":43.28352,"lon":5.38101,"is_reserved":false,"is_disabled":false,"rental_uris":{"android":"levelo://app?vid=1198830a-4bc0-41b7-a198-738969d14d31","ios":"levelo://app?vid=1198830a-4bc0-41b7-a198-738969d14d31"},"vehicle_type_id":"4","last_reported":1740611339,"current_range_meters":3200,"station_id":"ce4bh412rcd13ifvqdr0","pricing_plan_id":"cebpf4jnsgd1na2vs0mg"},{"bike_id":"7c95904b-ee6c-442a-a902-49c0c9d387e4","system_id":"levelo_inurba_marseille","lat":43.244,"lon":5.37062,"is_reserved":false,"is_disabled":false,"rental_uris":{"android":"levelo://app?vid=7c95904b-ee6c-442a-a902-49c0c9d387e4","ios":"levelo://app?vid=7c95904b-ee6c-442a-a902-49c0c9d387e4"},"vehicle_type_id":"4","last_reported":1740611339,"current_range_meters":6000,"station_id":"ce4bhhh2rcd13ifvqfk0","pricing_plan_id":"cebpf4jnsgd1na2vs0mg"},{"bike_id":"8ca15d20-697a-4175-a0bf-719021840d4f","system_id":"levelo_inurba_marseille","lat":43.290283,"lon":5.386527,"is_reserved":false,"is_disabled":false,"rental_uris":{"android":"levelo://app?vid=8ca15d20-697a-4175-a0bf-719021840d4f","ios":"levelo://app?vid=8ca15d20-697a-4175-a0bf-719021840d4f"},"vehicle_type_id":"4","last_reported":1740611339,"current_range_meters":6400,"station_id":"ce4bhb12rcd13ifvqem0","pricing_plan_id":"cebpf4jnsgd1na2vs0mg"},{"bike_id":"c0b6554e-7220-4db1-a1f7-c2dad5fee0c7","system_id":"levelo_inurba_marseille","lat":43.27879,"lon":5.42714,"is_reserved":false,"is_disabled":false,"rental_uris":{"android":"levelo://app?vid=c0b6554e-7220-4db1-a1f7-c2dad5fee0c7","ios":"levelo://app?vid=c0b6554e-7220-4db1-a1f7-c2dad5fee0c7"},"vehicle_type_id":"4","last_reported":1740611339,"current_range_meters":6000,"station_id":"","pricing_plan_id":"cebpf4jnsgd1na2vs0mg"},{"bike_id":"68db716c-6572-40ea-b079-987ee4623b4d","system_id":"levelo_inurba_marseille","lat":43.26885,"lon":5.40951,"is_reserved":false,"is_disabled":false,"rental_uris":{"android":"levelo://app?vid=68db716c-6572-40ea-b079-987ee4623b4d","ios":"levelo://app?vid=68db716c-6572-40ea-b079-987ee4623b4d"},"vehicle_type_id":"4","last_reported":1740611339,"current_range_meters":6800,"station_id":"","pricing_plan_id":"cebpf4jnsgd1na2vs0mg"},{"bike_id":"80d17f27-9cb7-4958-bc84-6012f4c67bf9","system_id":"levelo_inurba_marseille","lat":43.30889,"lon":5.39639,"is_reserved":false,"is_disabled":false,"rental_uris":{"android":"levelo://app?vid=80d17f27-9cb7-4958-bc84-6012f4c67bf9","ios":"levelo://app?vid=80d17f27-9cb7-4958-bc84-6012f4c67bf9"},"vehicle_type_id":"4","last_reported":1740611339,"current_range_meters":6800,"station_id":"ce4bh012rcd13ifvqcv0","pricing_plan_id":"cebpf4jnsgd1na2vs0mg"},{"bike_id":"5299dc37-2b51-4c49-9eed-463128a47b67","system_id":"levelo_inurba_marseille","lat":43.30336,"lon":5.36892,"is_reserved":false,"is_disabled":false,"rental_uris":{"android":"levelo://app?vid=5299dc37-2b51-4c49-9eed-463128a47b67","ios":"levelo://app?vid=5299dc37-2b51-4c49-9eed-463128a47b67"},"vehicle_type_id":"4","last_reported":1740611339,"current_range_meters":7200,"station_id":"ce4bgqh2rcd13ifvqc5g","pricing_plan_id":"cebpf4jnsgd1na2vs0mg"},{"bike_id":"64d1dcdb-2974-4aea-a074-f7aa761c6db6","system_id":"levelo_inurba_marseille","lat":43.25088,"lon":5.41057,"is_reserved":false,"is_disabled":false,"rental_uris":{"android":"levelo://app?vid=64d1dcdb-2974-4aea-a074-f7aa761c6db6","ios":"levelo://app?vid=64d1dcdb-2974-4aea-a074-f7aa761c6db6"},"vehicle_type_id":"4","last_reported":1740611339,"current_range_meters":8000,"station_id":"","pricing_plan_id":"cebpf4jnsgd1na2vs0mg"},{"bike_id":"43999b17-82a3-4776-9265-eb44ae135068","system_id":"levelo_inurba_marseille","lat":43.30884,"lon":5.39634,"is_reserved":false,"is_disabled":false,"rental_uris":{"android":"levelo://app?vid=43999b17-82a3-4776-9265-eb44ae135068","ios":"levelo://app?vid=43999b17-82a3-4776-9265-eb44ae135068"},"vehicle_type_id":"4","last_reported":1740611339,"current_range_meters":7200,"station_id":"ce4bh012rcd13ifvqcv0","pricing_plan_id":"cebpf4jnsgd1na2vs0mg"},{"bike_id":"8a62c3a8-af16-4093-898f-393ba99441e2","system_id":"levelo_inurba_marseille","lat":43.32332,"lon":5.40611,"is_reserved":false,"is_disabled":false,"rental_uris":{"android":"levelo://app?vid=8a62c3a8-af16-4093-898f-393ba99441e2","ios":"levelo://app?vid=8a62c3a8-af16-4093-898f-393ba99441e2"},"vehicle_type_id":"4","last_reported":1740611339,"current_range_meters":7200,"station_id":"ce4bhq92rcd13ifvqhjg","pricing_plan_id":"cebpf4jnsgd1na2vs0mg"},{"bike_id":"f6813c06-f9b0-4ea0-8933-3b79fafc0f60","system_id":"levelo_inurba_marseille","lat":43.28421,"lon":5.37506,"is_reserved":false,"is_disabled":false,"rental_uris":{"android":"levelo://app?vid=f6813c06-f9b0-4ea0-8933-3b79fafc0f60","ios":"levelo://app?vid=f6813c06-f9b0-4ea0-8933-3b79fafc0f60"},"vehicle_type_id":"4","last_reported":1740611339,"current_range_meters":7200,"station_id":"ce4bh412rcd13ifvqds0","pricing_plan_id":"cebpf4jnsgd1na2vs0mg"},{"bike_id":"e80aada6-8a51-4d84-89a9-f7834d4683b3","system_id":"levelo_inurba_marseille","lat":43.28155,"lon":5.42626,"is_reserved":false,"is_disabled":false,"rental_uris":{"android":"levelo://app?vid=e80aada6-8a51-4d84-89a9-f7834d4683b3","ios":"levelo://app?vid=e80aada6-8a51-4d84-89a9-f7834d4683b3"},"vehicle_type_id":"4","last_reported":1740611339,"current_range_meters":7200,"station_id":"ce4bhnh2rcd13ifvqgug","pricing_plan_id":"cebpf4jnsgd1na2vs0mg"},{"bike_id":"934cfe02-b15a-48c5-9ebf-74f78b5215e9","system_id":"levelo_inurba_marseille","lat":43.31531,"lon":5.38039,"is_reserved":false,"is_disabled":true,"rental_uris":{"android":"levelo://app?vid=934cfe02-b15a-48c5-9ebf-74f78b5215e9","ios":"levelo://app?vid=934cfe02-b15a-48c5-9ebf-74f78b5215e9"},"vehicle_type_id":"4","last_reported":1740611339,"current_range_meters":6800,"station_id":"ce4bhsp2rcd13ifvqi50","pricing_plan_id":"cebpf4jnsgd1na2vs0mg"},{"bike_id":"7fb662b6-672f-4516-98b2-7764b86a3ad5","system_id":"levelo_inurba_marseille","lat":43.30932,"lon":5.40136,"is_reserved":false,"is_disabled":false,"rental_uris":{"android":"levelo://app?vid=7fb662b6-672f-4516-98b2-7764b86a3ad5","ios":"levelo://app?vid=7fb662b6-672f-4516-98b2-7764b86a3ad5"},"vehicle_type_id":"4","last_reported":1740611339,"current_range_meters":8000,"station_id":"ce4bgvp2rcd13ifvqct0","pricing_plan_id":"cebpf4jnsgd1na2vs0mg"},{"bike_id":"94139441-edb7-414c-a3ae-bcb79cc117c0","system_id":"levelo_inurba_marseille","lat":43.28045,"lon":5.36912,"is_reserved":false,"is_disabled":false,"rental_uris":{"android":"levelo://app?vid=94139441-edb7-414c-a3ae-bcb79cc117c0","ios":"levelo://app?vid=94139441-edb7-414c-a3ae-bcb79cc117c0"},"vehicle_type_id":"4","last_reported":1740611339,"current_range_meters":7200,"station_id":"ce4bha12rcd13ifvqef0","pricing_plan_id":"cebpf4jnsgd1na2vs0mg"},{"bike_id":"cfda1dd5-ba16-49f4-89bf-360c24b2268a","system_id":"levelo_inurba_marseille","lat":43.27818,"lon":5.40722,"is_reserved":false,"is_disabled":false,"rental_uris":{"android":"levelo://app?vid=cfda1dd5-ba16-49f4-89bf-360c24b2268a","ios":"levelo://app?vid=cfda1dd5-ba16-49f4-89bf-360c24b2268a"},"vehicle_type_id":"4","last_reported":1740611339,"current_range_meters":7200,"station_id":"ce4bhnh2rcd13ifvqgtg","pricing_plan_id":"cebpf4jnsgd1na2vs0mg"},{"bike_id":"fd749d3e-13c0-4845-9576-ccfbc237ffe0","system_id":"levelo_inurba_marseille","lat":43.28255,"lon":5.35091,"is_reserved":false,"is_disabled":false,"rental_uris":{"android":"levelo://app?vid=fd749d3e-13c0-4845-9576-ccfbc237ffe0","ios":"levelo://app?vid=fd749d3e-13c0-4845-9576-ccfbc237ffe0"},"vehicle_type_id":"4","last_reported":1740611339,"current_range_meters":8000,"station_id":"ce4bhbp2rcd13ifvqerg","pricing_plan_id":"cebpf4jnsgd1na2vs0mg"},{"bike_id":"5c47d4c3-83ff-4b25-91fb-a87385c61f6a","system_id":"levelo_inurba_marseille","lat":43.31725,"lon":5.43715,"is_reserved":false,"is_disabled":false,"rental_uris":{"android":"levelo://app?vid=5c47d4c3-83ff-4b25-91fb-a87385c61f6a","ios":"levelo://app?vid=5c47d4c3-83ff-4b25-91fb-a87385c61f6a"},"vehicle_type_id":"4","last_reported":1740611339,"current_range_meters":8000,"station_id":"ce4bhp92rcd13ifvqhcg","pricing_plan_id":"cebpf4jnsgd1na2vs0mg"},{"bike_id":"eddb909d-bf4a-4d76-a25a-7ebf4e498d1f","system_id":"levelo_inurba_marseille","lat":43.24397,"lon":5.37052,"is_reserved":false,"is_disabled":false,"rental_uris":{"android":"levelo://app?vid=eddb909d-bf4a-4d76-a25a-7ebf4e498d1f","ios":"levelo://app?vid=eddb909d-bf4a-4d76-a25a-7ebf4e498d1f"},"vehicle_type_id":"4","last_reported":1740611339,"current_range_meters":8000,"station_id":"ce4bhhh2rcd13ifvqfk0","pricing_plan_id":"cebpf4jnsgd1na2vs0mg"},{"bike_id":"749b8865-8421-4153-8fd1-9d77ec509272","system_id":"levelo_inurba_marseille","lat":43.28864,"lon":5.36325,"is_reserved":false,"is_disabled":false,"rental_uris":{"android":"levelo://app?vid=749b8865-8421-4153-8fd1-9d77ec509272","ios":"levelo://app?vid=749b8865-8421-4153-8fd1-9d77ec509272"},"vehicle_type_id":"4","last_reported":1740611339,"current_range_meters":8400,"station_id":"","pricing_plan_id":"cebpf4jnsgd1na2vs0mg"},{"bike_id":"8f4f5c61-91cc-4fd5-85ad-d5b23eff483d","system_id":"levelo_inurba_marseille","lat":43.29741,"lon":5.36248,"is_reserved":false,"is_disabled":false,"rental_uris":{"android":"levelo://app?vid=8f4f5c61-91cc-4fd5-85ad-d5b23eff483d","ios":"levelo://app?vid=8f4f5c61-91cc-4fd5-85ad-d5b23eff483d"},"vehicle_type_id":"4","last_reported":1740611339,"current_range_meters":8000,"station_id":"","pricing_plan_id":"cebpf4jnsgd1na2vs0mg"},{"bike_id":"37e99989-7bc5-4327-b075-6f578166a871","system_id":"levelo_inurba_marseille","lat":43.31333,"lon":5.39693,"is_reserved":false,"is_disabled":false,"rental_uris":{"android":"levelo://app?vid=37e99989-7bc5-4327-b075-6f578166a871","ios":"levelo://app?vid=37e99989-7bc5-4327-b075-6f578166a871"},"vehicle_type_id":"4","last_reported":1740611339,"current_range_meters":8000,"station_id":"ce4bgvp2rcd13ifvqcu0","pricing_plan_id":"cebpf4jnsgd1na2vs0mg"},{"bike_id":"26d1edd1-2a52-428c-b2a6-7dd75e71037c","system_id":"levelo_inurba_marseille","lat":43.28619,"lon":5.35113,"is_reserved":false,"is_disabled":false,"rental_uris":{"android":"levelo://app?vid=26d1edd1-2a52-428c-b2a6-7dd75e71037c","ios":"levelo://app?vid=26d1edd1-2a52-428c-b2a6-7dd75e71037c"},"vehicle_type_id":"4","last_reported":1740611339,"current_range_meters":8400,"station_id":"ce4bhch2rcd13ifvqeug","pricing_plan_id":"cebpf4jnsgd1na2vs0mg"},{"bike_id":"939c031e-684f-4a3f-8b91-979871392d85","system_id":"levelo_inurba_marseille","lat":43.30878,"lon":5.39654,"is_reserved":false,"is_disabled":false,"rental_uris":{"android":"levelo://app?vid=939c031e-684f-4a3f-8b91-979871392d85","ios":"levelo://app?vid=939c031e-684f-4a3f-8b91-979871392d85"},"vehicle_type_id":"4","last_reported":1740611339,"current_range_meters":8400,"station_id":"ce4bh012rcd13ifvqcv0","pricing_plan_id":"cebpf4jnsgd1na2vs0mg"},{"bike_id":"86a4855b-877a-422a-9b6c-2eb9bbcb6b80","system_id":"levelo_inurba_marseille","lat":43.28231,"lon":5.39097,"is_reserved":false,"is_disabled":false,"rental_uris":{"android":"levelo://app?vid=86a4855b-877a-422a-9b6c-2eb9bbcb6b80","ios":"levelo://app?vid=86a4855b-877a-422a-9b6c-2eb9bbcb6b80"},"vehicle_type_id":"4","last_reported":1740611339,"current_range_meters":8400,"station_id":"","pricing_plan_id":"cebpf4jnsgd1na2vs0mg"},{"bike_id":"b709cef7-b67b-4fcb-a160-dcf377c9f671","system_id":"levelo_inurba_marseille","lat":43.31759,"lon":5.40575,"is_reserved":false,"is_disabled":false,"rental_uris":{"android":"levelo://app?vid=b709cef7-b67b-4fcb-a160-dcf377c9f671","ios":"levelo://app?vid=b709cef7-b67b-4fcb-a160-dcf377c9f671"},"vehicle_type_id":"4","last_reported":1740611339,"current_range_meters":8400,"station_id":"ce4bhqh2rcd13ifvqhmg","pricing_plan_id":"cebpf4jnsgd1na2vs0mg"},{"bike_id":"1b6bae6d-00eb-4e15-87b1-b0be3094e338","system_id":"levelo_inurba_marseille","lat":43.30892,"lon":5.39662,"is_reserved":false,"is_disabled":false,"rental_uris":{"android":"levelo://app?vid=1b6bae6d-00eb-4e15-87b1-b0be3094e338","ios":"levelo://app?vid=1b6bae6d-00eb-4e15-87b1-b0be3094e338"},"vehicle_type_id":"4","last_reported":1740611339,"current_range_meters":8400,"station_id":"ce4bh012rcd13ifvqcv0","pricing_plan_id":"cebpf4jnsgd1na2vs0mg"},{"bike_id":"6b286004-f086-4023-9675-02a95f8e917b","system_id":"levelo_inurba_marseille","lat":43.309555,"lon":5.390404,"is_reserved":false,"is_disabled":true,"rental_uris":{"android":"levelo://app?vid=6b286004-f086-4023-9675-02a95f8e917b","ios":"levelo://app?vid=6b286004-f086-4023-9675-02a95f8e917b"},"vehicle_type_id":"4","last_reported":1740611339,"current_range_meters":8400,"station_id":"ce4bgup2rcd13ifvqco0","pricing_plan_id":"cebpf4jnsgd1na2vs0mg"},{"bike_id":"aee583d7-55ec-44bc-9acf-d8d4998772b4","system_id":"levelo_inurba_marseille","lat":43.30644,"lon":5.40107,"is_reserved":false,"is_disabled":false,"rental_uris":{"android":"levelo://app?vid=aee583d7-55ec-44bc-9acf-d8d4998772b4","ios":"levelo://app?vid=aee583d7-55ec-44bc-9acf-d8d4998772b4"},"vehicle_type_id":"4","last_reported":1740611339,"current_range_meters":8400,"station_id":"ce4bh112rcd13ifvqda0","pricing_plan_id":"cebpf4jnsgd1na2vs0mg"},{"bike_id":"e7e7027c-2ea3-4f62-b0fe-1687b5820395","system_id":"levelo_inurba_marseille","lat":43.28461,"lon":5.35872,"is_reserved":false,"is_disabled":false,"rental_uris":{"android":"levelo://app?vid=e7e7027c-2ea3-4f62-b0fe-1687b5820395","ios":"levelo://app?vid=e7e7027c-2ea3-4f62-b0fe-1687b5820395"},"vehicle_type_id":"4","last_reported":1740611339,"current_range_meters":8400,"station_id":"ce4bhah2rcd13ifvqei0","pricing_plan_id":"cebpf4jnsgd1na2vs0mg"},{"bike_id":"a18d2462-6430-4fa5-8ce7-637ac348b4cd","system_id":"levelo_inurba_marseille","lat":43.27963,"lon":5.41068,"is_reserved":false,"is_disabled":false,"rental_uris":{"android":"levelo://app?vid=a18d2462-6430-4fa5-8ce7-637ac348b4cd","ios":"levelo://app?vid=a18d2462-6430-4fa5-8ce7-637ac348b4cd"},"vehicle_type_id":"4","last_reported":1740611339,"current_range_meters":8400,"station_id":"ce4bhnp2rcd13ifvqh0g","pricing_plan_id":"cebpf4jnsgd1na2vs0mg"},{"bike_id":"cc5b8803-1413-4f2d-912e-42c063433ae4","system_id":"levelo_inurba_marseille","lat":43.32105,"lon":5.36776,"is_reserved":false,"is_disabled":false,"rental_uris":{"android":"levelo://app?vid=cc5b8803-1413-4f2d-912e-42c063433ae4","ios":"levelo://app?vid=cc5b8803-1413-4f2d-912e-42c063433ae4"},"vehicle_type_id":"4","last_reported":1740611339,"current_range_meters":8800,"station_id":"ce4bhrh2rcd13ifvqhug","pricing_plan_id":"cebpf4jnsgd1na2vs0mg"},{"bike_id":"2936fc2e-f08a-4467-a6fa-e5f80105c9ff","system_id":"levelo_inurba_marseille","lat":43.30924,"lon":5.40145,"is_reserved":false,"is_disabled":false,"rental_uris":{"android":"levelo://app?vid=2936fc2e-f08a-4467-a6fa-e5f80105c9ff","ios":"levelo://app?vid=2936fc2e-f08a-4467-a6fa-e5f80105c9ff"},"vehicle_type_id":"4","last_reported":1740611339,"current_range_meters":8800,"station_id":"ce4bgvp2rcd13ifvqct0","pricing_plan_id":"cebpf4jnsgd1na2vs0mg"},{"bike_id":"b007f058-4163-4bbe-ba13-50835769bd43","system_id":"levelo_inurba_marseille","lat":43.31709,"lon":5.43712,"is_reserved":false,"is_disabled":false,"rental_uris":{"android":"levelo://app?vid=b007f058-4163-4bbe-ba13-50835769bd43","ios":"levelo://app?vid=b007f058-4163-4bbe-ba13-50835769bd43"},"vehicle_type_id":"4","last_reported":1740611339,"current_range_meters":8800,"station_id":"ce4bhp92rcd13ifvqhcg","pricing_plan_id":"cebpf4jnsgd1na2vs0mg"},{"bike_id":"719baaea-c293-42a3-a0f8-1e9953de7b58","system_id":"levelo_inurba_marseille","lat":43.26518,"lon":5.39025,"is_reserved":false,"is_disabled":true,"rental_uris":{"android":"levelo://app?vid=719baaea-c293-42a3-a0f8-1e9953de7b58","ios":"levelo://app?vid=719baaea-c293-42a3-a0f8-1e9953de7b58"},"vehicle_type_id":"4","last_reported":1740611339,"current_range_meters":8800,"station_id":"ce4bhe12rcd13ifvqf30","pricing_plan_id":"cebpf4jnsgd1na2vs0mg"},{"bike_id":"954ce63b-1d42-4ba1-9eb0-83c6377ed1bd","system_id":"levelo_inurba_marseille","lat":43.30648,"lon":5.40085,"is_reserved":false,"is_disabled":false,"rental_uris":{"android":"levelo://app?vid=954ce63b-1d42-4ba1-9eb0-83c6377ed1bd","ios":"levelo://app?vid=954ce63b-1d42-4ba1-9eb0-83c6377ed1bd"},"vehicle_type_id":"4","last_reported":1740611339,"current_range_meters":9200,"station_id":"ce4bh112rcd13ifvqda0","pricing_plan_id":"cebpf4jnsgd1na2vs0mg"},{"bike_id":"52a02ec7-8e0c-4781-ae9b-a63b7edaabaf","system_id":"levelo_inurba_marseille","lat":43.282752,"lon":5.350678,"is_reserved":false,"is_disabled":false,"rental_uris":{"android":"levelo://app?vid=52a02ec7-8e0c-4781-ae9b-a63b7edaabaf","ios":"levelo://app?vid=52a02ec7-8e0c-4781-ae9b-a63b7edaabaf"},"vehicle_type_id":"4","last_reported":1740611339,"current_range_meters":9200,"station_id":"ce4bhbp2rcd13ifvqerg","pricing_plan_id":"cebpf4jnsgd1na2vs0mg"},{"bike_id":"284a0e7b-046c-4a6a-972f-6192daeb9a55","system_id":"levelo_inurba_marseille","lat":43.29525,"lon":5.39392,"is_reserved":false,"is_disabled":true,"rental_uris":{"android":"levelo://app?vid=284a0e7b-046c-4a6a-972f-6192daeb9a55","ios":"levelo://app?vid=284a0e7b-046c-4a6a-972f-6192daeb9a55"},"vehicle_type_id":"4","last_reported":1740611339,"current_range_meters":9600,"station_id":"ce4bh292rcd13ifvqdf0","pricing_plan_id":"cebpf4jnsgd1na2vs0mg"},{"bike_id":"cc0f0a33-8776-49b0-b177-6d3fba0c78fd","system_id":"levelo_inurba_marseille","lat":43.31323,"lon":5.39726,"is_reserved":false,"is_disabled":false,"rental_uris":{"android":"levelo://app?vid=cc0f0a33-8776-49b0-b177-6d3fba0c78fd","ios":"levelo://app?vid=cc0f0a33-8776-49b0-b177-6d3fba0c78fd"},"vehicle_type_id":"4","last_reported":1740611339,"current_range_meters":9200,"station_id":"ce4bgvp2rcd13ifvqcu0","pricing_plan_id":"cebpf4jnsgd1na2vs0mg"},{"bike_id":"22cc966a-4114-4778-9335-cdca6ce2c02e","system_id":"levelo_inurba_marseille","lat":43.32359,"lon":5.38879,"is_reserved":false,"is_disabled":false,"rental_uris":{"android":"levelo://app?vid=22cc966a-4114-4778-9335-cdca6ce2c02e","ios":"levelo://app?vid=22cc966a-4114-4778-9335-cdca6ce2c02e"},"vehicle_type_id":"4","last_reported":1740611339,"current_range_meters":9600,"station_id":"ce4bhqp2rcd13ifvqhog","pricing_plan_id":"cebpf4jnsgd1na2vs0mg"},{"bike_id":"1e37517c-7c13-497e-93a6-2c0209fd3d04","system_id":"levelo_inurba_marseille","lat":43.28659,"lon":5.35086,"is_reserved":false,"is_disabled":false,"rental_uris":{"android":"levelo://app?vid=1e37517c-7c13-497e-93a6-2c0209fd3d04","ios":"levelo://app?vid=1e37517c-7c13-497e-93a6-2c0209fd3d04"},"vehicle_type_id":"4","last_reported":1740611339,"current_range_meters":9600,"station_id":"ce4bhch2rcd13ifvqeug","pricing_plan_id":"cebpf4jnsgd1na2vs0mg"},{"bike_id":"1d70c622-10e8-4a33-8612-a7dc67991c51","system_id":"levelo_inurba_marseille","lat":43.31693,"lon":5.37754,"is_reserved":false,"is_disabled":false,"rental_uris":{"android":"levelo://app?vid=1d70c622-10e8-4a33-8612-a7dc67991c51","ios":"levelo://app?vid=1d70c622-10e8-4a33-8612-a7dc67991c51"},"vehicle_type_id":"4","last_reported":1740611339,"current_range_meters":9600,"station_id":"ce4bgth2rcd13ifvqch0","pricing_plan_id":"cebpf4jnsgd1na2vs0mg"},{"bike_id":"538c571f-bd4a-4045-ac59-31a81e83e594","system_id":"levelo_inurba_marseille","lat":43.28936,"lon":5.36401,"is_reserved":false,"is_disabled":false,"rental_uris":{"android":"levelo://app?vid=538c571f-bd4a-4045-ac59-31a81e83e594","ios":"levelo://app?vid=538c571f-bd4a-4045-ac59-31a81e83e594"},"vehicle_type_id":"4","last_reported":1740611339,"current_range_meters":9600,"station_id":"ce4bhc92rcd13ifvqetg","pricing_plan_id":"cebpf4jnsgd1na2vs0mg"},{"bike_id":"9f4ebea0-1844-4cd6-b15a-4bdeb3ff54e9","system_id":"levelo_inurba_marseille","lat":43.29866,"lon":5.38928,"is_reserved":false,"is_disabled":true,"rental_uris":{"android":"levelo://app?vid=9f4ebea0-1844-4cd6-b15a-4bdeb3ff54e9","ios":"levelo://app?vid=9f4ebea0-1844-4cd6-b15a-4bdeb3ff54e9"},"vehicle_type_id":"4","last_reported":1740611339,"current_range_meters":10800,"station_id":"ce4bh392rcd13ifvqdl0","pricing_plan_id":"cebpf4jnsgd1na2vs0mg"},{"bike_id":"6abc9bbb-7858-4f53-b665-ac4af517c97a","system_id":"levelo_inurba_marseille","lat":43.29245,"lon":5.409,"is_reserved":false,"is_disabled":false,"rental_uris":{"android":"levelo://app?vid=6abc9bbb-7858-4f53-b665-ac4af517c97a","ios":"levelo://app?vid=6abc9bbb-7858-4f53-b665-ac4af517c97a"},"vehicle_type_id":"4","last_reported":1740611339,"current_range_meters":10000,"station_id":"ce4bh192rcd13ifvqdc0","pricing_plan_id":"cebpf4jnsgd1na2vs0mg"},{"bike_id":"128d9f19-560e-4907-b2b5-99db2fe70c71","system_id":"levelo_inurba_marseille","lat":43.30638,"lon":5.40089,"is_reserved":false,"is_disabled":false,"rental_uris":{"android":"levelo://app?vid=128d9f19-560e-4907-b2b5-99db2fe70c71","ios":"levelo://app?vid=128d9f19-560e-4907-b2b5-99db2fe70c71"},"vehicle_type_id":"4","last_reported":1740611339,"current_range_meters":10000,"station_id":"ce4bh112rcd13ifvqda0","pricing_plan_id":"cebpf4jnsgd1na2vs0mg"},{"bike_id":"3eff3051-14d0-4607-91c9-fe973dc6a19e","system_id":"levelo_inurba_marseille","lat":43.31117,"lon":5.37766,"is_reserved":false,"is_disabled":false,"rental_uris":{"android":"levelo://app?vid=3eff3051-14d0-4607-91c9-fe973dc6a19e","ios":"levelo://app?vid=3eff3051-14d0-4607-91c9-fe973dc6a19e"},"vehicle_type_id":"4","last_reported":1740611339,"current_range_meters":10000,"station_id":"ce4bgt92rcd13ifvqcg0","pricing_plan_id":"cebpf4jnsgd1na2vs0mg"},{"bike_id":"2da828eb-ceb1-490f-ba6e-6557a2f25d6b","system_id":"levelo_inurba_marseille","lat":43.25568,"lon":5.38236,"is_reserved":false,"is_disabled":false,"rental_uris":{"android":"levelo://app?vid=2da828eb-ceb1-490f-ba6e-6557a2f25d6b","ios":"levelo://app?vid=2da828eb-ceb1-490f-ba6e-6557a2f25d6b"},"vehicle_type_id":"4","last_reported":1740611339,"current_range_meters":10800,"station_id":"ce4bhih2rcd13ifvqfs0","pricing_plan_id":"cebpf4jnsgd1na2vs0mg"},{"bike_id":"1690cf1f-489e-42fe-b2b4-7448c418d56d","system_id":"levelo_inurba_marseille","lat":43.32001,"lon":5.38161,"is_reserved":false,"is_disabled":false,"rental_uris":{"android":"levelo://app?vid=1690cf1f-489e-42fe-b2b4-7448c418d56d","ios":"levelo://app?vid=1690cf1f-489e-42fe-b2b4-7448c418d56d"},"vehicle_type_id":"4","last_reported":1740611339,"current_range_meters":10000,"station_id":"ce4bhr12rcd13ifvqhpg","pricing_plan_id":"cebpf4jnsgd1na2vs0mg"},{"bike_id":"53f6206c-2750-42e7-a8f3-9533b6f35c4a","system_id":"levelo_inurba_marseille","lat":43.28616,"lon":5.35119,"is_reserved":false,"is_disabled":false,"rental_uris":{"android":"levelo://app?vid=53f6206c-2750-42e7-a8f3-9533b6f35c4a","ios":"levelo://app?vid=53f6206c-2750-42e7-a8f3-9533b6f35c4a"},"vehicle_type_id":"4","last_reported":1740611339,"current_range_meters":10000,"station_id":"ce4bhch2rcd13ifvqeug","pricing_plan_id":"cebpf4jnsgd1na2vs0mg"},{"bike_id":"1d603e55-5939-499f-95ae-55d30c9c2364","system_id":"levelo_inurba_marseille","lat":43.28146,"lon":5.42655,"is_reserved":false,"is_disabled":false,"rental_uris":{"android":"levelo://app?vid=1d603e55-5939-499f-95ae-55d30c9c2364","ios":"levelo://app?vid=1d603e55-5939-499f-95ae-55d30c9c2364"},"vehicle_type_id":"4","last_reported":1740611339,"current_range_meters":11200,"station_id":"ce4bhnh2rcd13ifvqgug","pricing_plan_id":"cebpf4jnsgd1na2vs0mg"},{"bike_id":"ad9571bc-5194-4f71-90ef-f1cb0835f36e","system_id":"levelo_inurba_marseille","lat":43.25504,"lon":5.37592,"is_reserved":false,"is_disabled":false,"rental_uris":{"android":"levelo://app?vid=ad9571bc-5194-4f71-90ef-f1cb0835f36e","ios":"levelo://app?vid=ad9571bc-5194-4f71-90ef-f1cb0835f36e"},"vehicle_type_id":"4","last_reported":1740611339,"current_range_meters":11200,"station_id":"ce4bhh12rcd13ifvqff0","pricing_plan_id":"cebpf4jnsgd1na2vs0mg"},{"bike_id":"a425e775-b361-4ab4-93f9-fa2ea28a8286","system_id":"levelo_inurba_marseille","lat":43.32488,"lon":5.36554,"is_reserved":false,"is_disabled":false,"rental_uris":{"android":"levelo://app?vid=a425e775-b361-4ab4-93f9-fa2ea28a8286","ios":"levelo://app?vid=a425e775-b361-4ab4-93f9-fa2ea28a8286"},"vehicle_type_id":"4","last_reported":1740611339,"current_range_meters":10800,"station_id":"ce4bhs12rcd13ifvqhvg","pricing_plan_id":"cebpf4jnsgd1na2vs0mg"},{"bike_id":"4a55367e-93a4-4ad3-bcb1-42567a1393b2","system_id":"levelo_inurba_marseille","lat":43.29188,"lon":5.36081,"is_reserved":false,"is_disabled":false,"rental_uris":{"android":"levelo://app?vid=4a55367e-93a4-4ad3-bcb1-42567a1393b2","ios":"levelo://app?vid=4a55367e-93a4-4ad3-bcb1-42567a1393b2"},"vehicle_type_id":"4","last_reported":1740611339,"current_range_meters":10800,"station_id":"ce4bhbh2rcd13ifvqeqg","pricing_plan_id":"cebpf4jnsgd1na2vs0mg"},{"bike_id":"7b33f413-8f08-43ef-9261-24eef4ff1549","system_id":"levelo_inurba_marseille","lat":43.23968,"lon":5.36626,"is_reserved":false,"is_disabled":false,"rental_uris":{"android":"levelo://app?vid=7b33f413-8f08-43ef-9261-24eef4ff1549","ios":"levelo://app?vid=7b33f413-8f08-43ef-9261-24eef4ff1549"},"vehicle_type_id":"4","last_reported":1740611339,"current_range_meters":10800,"station_id":"ce4bhi12rcd13ifvqfp0","pricing_plan_id":"cebpf4jnsgd1na2vs0mg"},{"bike_id":"f8f1be42-5e6b-4e88-9eda-4294491ed5a7","system_id":"levelo_inurba_marseille","lat":43.28456,"lon":5.35872,"is_reserved":false,"is_disabled":false,"rental_uris":{"android":"levelo://app?vid=f8f1be42-5e6b-4e88-9eda-4294491ed5a7","ios":"levelo://app?vid=f8f1be42-5e6b-4e88-9eda-4294491ed5a7"},"vehicle_type_id":"4","last_reported":1740611339,"current_range_meters":10800,"station_id":"ce4bhah2rcd13ifvqei0","pricing_plan_id":"cebpf4jnsgd1na2vs0mg"},{"bike_id":"741f2886-00db-4229-8ef7-9571d6d6537d","system_id":"levelo_inurba_marseille","lat":43.28077,"lon":5.39652,"is_reserved":false,"is_disabled":false,"rental_uris":{"android":"levelo://app?vid=741f2886-00db-4229-8ef7-9571d6d6537d","ios":"levelo://app?vid=741f2886-00db-4229-8ef7-9571d6d6537d"},"vehicle_type_id":"4","last_reported":1740611339,"current_range_meters":10800,"station_id":"ce4bho12rcd13ifvqh2g","pricing_plan_id":"cebpf4jnsgd1na2vs0mg"},{"bike_id":"8499335b-1f69-46ce-b2b8-b33648ef3191","system_id":"levelo_inurba_marseille","lat":43.30882,"lon":5.39699,"is_reserved":false,"is_disabled":false,"rental_uris":{"android":"levelo://app?vid=8499335b-1f69-46ce-b2b8-b33648ef3191","ios":"levelo://app?vid=8499335b-1f69-46ce-b2b8-b33648ef3191"},"vehicle_type_id":"4","last_reported":1740611339,"current_range_meters":11200,"station_id":"ce4bh012rcd13ifvqcv0","pricing_plan_id":"cebpf4jnsgd1na2vs0mg"},{"bike_id":"240631fb-e1ef-49c9-bf78-176ba3465e14","system_id":"levelo_inurba_marseille","lat":43.28842,"lon":5.35818,"is_reserved":false,"is_disabled":false,"rental_uris":{"android":"levelo://app?vid=240631fb-e1ef-49c9-bf78-176ba3465e14","ios":"levelo://app?vid=240631fb-e1ef-49c9-bf78-176ba3465e14"},"vehicle_type_id":"4","last_reported":1740611339,"current_range_meters":11200,"station_id":"ce4bhb12rcd13ifvqem0","pricing_plan_id":"cebpf4jnsgd1na2vs0mg"},{"bike_id":"48d4fd2b-fdb2-4869-8ad0-efacd47af7df","system_id":"levelo_inurba_marseille","lat":43.29571,"lon":5.39984,"is_reserved":false,"is_disabled":false,"rental_uris":{"android":"levelo://app?vid=48d4fd2b-fdb2-4869-8ad0-efacd47af7df","ios":"levelo://app?vid=48d4fd2b-fdb2-4869-8ad0-efacd47af7df"},"vehicle_type_id":"4","last_reported":1740611339,"current_range_meters":11200,"station_id":"ce4bh312rcd13ifvqdj0","pricing_plan_id":"cebpf4jnsgd1na2vs0mg"},{"bike_id":"35d5ccaf-27ee-40f3-aa7c-141363d515e4","system_id":"levelo_inurba_marseille","lat":43.29178,"lon":5.39327,"is_reserved":false,"is_disabled":false,"rental_uris":{"android":"levelo://app?vid=35d5ccaf-27ee-40f3-aa7c-141363d515e4","ios":"levelo://app?vid=35d5ccaf-27ee-40f3-aa7c-141363d515e4"},"vehicle_type_id":"4","last_reported":1740611339,"current_range_meters":11200,"station_id":"ce4bh192rcd13ifvqdd0","pricing_plan_id":"cebpf4jnsgd1na2vs0mg"},{"bike_id":"07231509-f031-44bd-a024-8b5dd56e800b","system_id":"levelo_inurba_marseille","lat":43.31659,"lon":5.39591,"is_reserved":false,"is_disabled":false,"rental_uris":{"android":"levelo://app?vid=07231509-f031-44bd-a024-8b5dd56e800b","ios":"levelo://app?vid=07231509-f031-44bd-a024-8b5dd56e800b"},"vehicle_type_id":"4","last_reported":1740611339,"current_range_meters":11200,"station_id":"","pricing_plan_id":"cebpf4jnsgd1na2vs0mg"},{"bike_id":"297e0534-dfe8-437f-a8cf-46f8f61d5eef","system_id":"levelo_inurba_marseille","lat":43.27943,"lon":5.41048,"is_reserved":false,"is_disabled":false,"rental_uris":{"android":"levelo://app?vid=297e0534-dfe8-437f-a8cf-46f8f61d5eef","ios":"levelo://app?vid=297e0534-dfe8-437f-a8cf-46f8f61d5eef"},"vehicle_type_id":"4","last_reported":1740611339,"current_range_meters":10800,"station_id":"ce4bhnp2rcd13ifvqh0g","pricing_plan_id":"cebpf4jnsgd1na2vs0mg"},{"bike_id":"029f4640-4897-4b2f-bb9d-5d9661c1b9b8","system_id":"levelo_inurba_marseille","lat":43.30251,"lon":5.40054,"is_reserved":false,"is_disabled":false,"rental_uris":{"android":"levelo://app?vid=029f4640-4897-4b2f-bb9d-5d9661c1b9b8","ios":"levelo://app?vid=029f4640-4897-4b2f-bb9d-5d9661c1b9b8"},"vehicle_type_id":"4","last_reported":1740611339,"current_range_meters":10800,"station_id":"ce4bgvh2rcd13ifvqcs0","pricing_plan_id":"cebpf4jnsgd1na2vs0mg"},{"bike_id":"111d7a52-a5a6-42f1-ad28-44ed6f1f21b2","system_id":"levelo_inurba_marseille","lat":43.30261,"lon":5.40064,"is_reserved":false,"is_disabled":false,"rental_uris":{"android":"levelo://app?vid=111d7a52-a5a6-42f1-ad28-44ed6f1f21b2","ios":"levelo://app?vid=111d7a52-a5a6-42f1-ad28-44ed6f1f21b2"},"vehicle_type_id":"4","last_reported":1740611339,"current_range_meters":11200,"station_id":"ce4bgvh2rcd13ifvqcs0","pricing_plan_id":"cebpf4jnsgd1na2vs0mg"},{"bike_id":"f66913d8-adc8-4497-b81a-8613461ae8a9","system_id":"levelo_inurba_marseille","lat":43.28392,"lon":5.35011,"is_reserved":false,"is_disabled":false,"rental_uris":{"android":"levelo://app?vid=f66913d8-adc8-4497-b81a-8613461ae8a9","ios":"levelo://app?vid=f66913d8-adc8-4497-b81a-8613461ae8a9"},"vehicle_type_id":"4","last_reported":1740611339,"current_range_meters":11600,"station_id":"ce4bhbh2rcd13ifvqepg","pricing_plan_id":"cebpf4jnsgd1na2vs0mg"},{"bike_id":"620faf8f-9860-4e84-b6cd-4559a0b9a89c","system_id":"levelo_inurba_marseille","lat":43.32467,"lon":5.36584,"is_reserved":false,"is_disabled":false,"rental_uris":{"android":"levelo://app?vid=620faf8f-9860-4e84-b6cd-4559a0b9a89c","ios":"levelo://app?vid=620faf8f-9860-4e84-b6cd-4559a0b9a89c"},"vehicle_type_id":"4","last_reported":1740611339,"current_range_meters":12000,"station_id":"ce4bhs12rcd13ifvqhvg","pricing_plan_id":"cebpf4jnsgd1na2vs0mg"},{"bike_id":"e2231c40-4e68-4e65-8d31-9d3b67df341a","system_id":"levelo_inurba_marseille","lat":43.254937,"lon":5.376618,"is_reserved":false,"is_disabled":false,"rental_uris":{"android":"levelo://app?vid=e2231c40-4e68-4e65-8d31-9d3b67df341a","ios":"levelo://app?vid=e2231c40-4e68-4e65-8d31-9d3b67df341a"},"vehicle_type_id":"4","last_reported":1740611339,"current_range_meters":12000,"station_id":"ce4bhh12rcd13ifvqff0","pricing_plan_id":"cebpf4jnsgd1na2vs0mg"},{"bike_id":"3b5eb973-61df-4c9f-b3f4-58839f85ef14","system_id":"levelo_inurba_marseille","lat":43.251088,"lon":5.403202,"is_reserved":false,"is_disabled":false,"rental_uris":{"android":"levelo://app?vid=3b5eb973-61df-4c9f-b3f4-58839f85ef14","ios":"levelo://app?vid=3b5eb973-61df-4c9f-b3f4-58839f85ef14"},"vehicle_type_id":"4","last_reported":1740611339,"current_range_meters":12400,"station_id":"ce4bhlh2rcd13ifvqgig","pricing_plan_id":"cebpf4jnsgd1na2vs0mg"},{"bike_id":"0fe73288-2a9e-45dd-a7fd-796e3cdd5bff","system_id":"levelo_inurba_marseille","lat":43.28508,"lon":5.38997,"is_reserved":false,"is_disabled":false,"rental_uris":{"android":"levelo://app?vid=0fe73288-2a9e-45dd-a7fd-796e3cdd5bff","ios":"levelo://app?vid=0fe73288-2a9e-45dd-a7fd-796e3cdd5bff"},"vehicle_type_id":"4","last_reported":1740611339,"current_range_meters":12400,"station_id":"ce4bhoh2rcd13ifvqh5g","pricing_plan_id":"cebpf4jnsgd1na2vs0mg"},{"bike_id":"5c69ca05-7670-443c-8ece-5e8b903a3514","system_id":"levelo_inurba_marseille","lat":43.30799,"lon":5.37643,"is_reserved":false,"is_disabled":false,"rental_uris":{"android":"levelo://app?vid=5c69ca05-7670-443c-8ece-5e8b903a3514","ios":"levelo://app?vid=5c69ca05-7670-443c-8ece-5e8b903a3514"},"vehicle_type_id":"4","last_reported":1740611339,"current_range_meters":12400,"station_id":"ce4bgv92rcd13ifvqcq0","pricing_plan_id":"cebpf4jnsgd1na2vs0mg"},{"bike_id":"669c2581-a097-40fe-bcaa-8917d2cf5180","system_id":"levelo_inurba_marseille","lat":43.29208,"lon":5.39332,"is_reserved":false,"is_disabled":false,"rental_uris":{"android":"levelo://app?vid=669c2581-a097-40fe-bcaa-8917d2cf5180","ios":"levelo://app?vid=669c2581-a097-40fe-bcaa-8917d2cf5180"},"vehicle_type_id":"4","last_reported":1740611339,"current_range_meters":12000,"station_id":"ce4bh192rcd13ifvqdd0","pricing_plan_id":"cebpf4jnsgd1na2vs0mg"},{"bike_id":"19e4983d-b74d-4524-9c14-80fb6905f947","system_id":"levelo_inurba_marseille","lat":43.32105,"lon":5.36773,"is_reserved":false,"is_disabled":false,"rental_uris":{"android":"levelo://app?vid=19e4983d-b74d-4524-9c14-80fb6905f947","ios":"levelo://app?vid=19e4983d-b74d-4524-9c14-80fb6905f947"},"vehicle_type_id":"4","last_reported":1740611339,"current_range_meters":12000,"station_id":"ce4bhrh2rcd13ifvqhug","pricing_plan_id":"cebpf4jnsgd1na2vs0mg"},{"bike_id":"5a481296-e871-4b52-a74d-63b409ae45c3","system_id":"levelo_inurba_marseille","lat":43.30094,"lon":5.39083,"is_reserved":false,"is_disabled":false,"rental_uris":{"android":"levelo://app?vid=5a481296-e871-4b52-a74d-63b409ae45c3","ios":"levelo://app?vid=5a481296-e871-4b52-a74d-63b409ae45c3"},"vehicle_type_id":"4","last_reported":1740611339,"current_range_meters":11600,"station_id":"ce4bh192rcd13ifvqdb0","pricing_plan_id":"cebpf4jnsgd1na2vs0mg"},{"bike_id":"aab8d1b9-0c54-45c9-91de-042e3831224a","system_id":"levelo_inurba_marseille","lat":43.29976,"lon":5.37176,"is_reserved":false,"is_disabled":false,"rental_uris":{"android":"levelo://app?vid=aab8d1b9-0c54-45c9-91de-042e3831224a","ios":"levelo://app?vid=aab8d1b9-0c54-45c9-91de-042e3831224a"},"vehicle_type_id":"4","last_reported":1740611339,"current_range_meters":12800,"station_id":"ce4bgr92rcd13ifvqc7g","pricing_plan_id":"cebpf4jnsgd1na2vs0mg"},{"bike_id":"afd98e29-9e65-49b1-96e9-da6c0e62de76","system_id":"levelo_inurba_marseille","lat":43.29257,"lon":5.38199,"is_reserved":false,"is_disabled":false,"rental_uris":{"android":"levelo://app?vid=afd98e29-9e65-49b1-96e9-da6c0e62de76","ios":"levelo://app?vid=afd98e29-9e65-49b1-96e9-da6c0e62de76"},"vehicle_type_id":"4","last_reported":1740611339,"current_range_meters":12400,"station_id":"","pricing_plan_id":"cebpf4jnsgd1na2vs0mg"},{"bike_id":"32c78026-eae4-4cf3-91d4-dc2fc0b3e466","system_id":"levelo_inurba_marseille","lat":43.31492,"lon":5.37268,"is_reserved":false,"is_disabled":false,"rental_uris":{"android":"levelo://app?vid=32c78026-eae4-4cf3-91d4-dc2fc0b3e466","ios":"levelo://app?vid=32c78026-eae4-4cf3-91d4-dc2fc0b3e466"},"vehicle_type_id":"4","last_reported":1740611339,"current_range_meters":12400,"station_id":"ce4bgt12rcd13ifvqcd0","pricing_plan_id":"cebpf4jnsgd1na2vs0mg"},{"bike_id":"9ea15ae9-9c11-486a-bb35-d4dcef991c05","system_id":"levelo_inurba_marseille","lat":43.28674,"lon":5.35063,"is_reserved":false,"is_disabled":false,"rental_uris":{"android":"levelo://app?vid=9ea15ae9-9c11-486a-bb35-d4dcef991c05","ios":"levelo://app?vid=9ea15ae9-9c11-486a-bb35-d4dcef991c05"},"vehicle_type_id":"4","last_reported":1740611339,"current_range_meters":12400,"station_id":"","pricing_plan_id":"cebpf4jnsgd1na2vs0mg"},{"bike_id":"d905ca0c-c944-4730-94c6-4871cc7ae277","system_id":"levelo_inurba_marseille","lat":43.28391,"lon":5.37539,"is_reserved":false,"is_disabled":false,"rental_uris":{"android":"levelo://app?vid=d905ca0c-c944-4730-94c6-4871cc7ae277","ios":"levelo://app?vid=d905ca0c-c944-4730-94c6-4871cc7ae277"},"vehicle_type_id":"4","last_reported":1740611339,"current_range_meters":12400,"station_id":"ce4bh412rcd13ifvqds0","pricing_plan_id":"cebpf4jnsgd1na2vs0mg"},{"bike_id":"3f7ee1e3-d518-49d8-b2cf-8d55bf28bc5a","system_id":"levelo_inurba_marseille","lat":43.27985,"lon":5.41664,"is_reserved":false,"is_disabled":false,"rental_uris":{"android":"levelo://app?vid=3f7ee1e3-d518-49d8-b2cf-8d55bf28bc5a","ios":"levelo://app?vid=3f7ee1e3-d518-49d8-b2cf-8d55bf28bc5a"},"vehicle_type_id":"4","last_reported":1740611339,"current_range_meters":12800,"station_id":"ce4bho12rcd13ifvqh1g","pricing_plan_id":"cebpf4jnsgd1na2vs0mg"},{"bike_id":"dbbfe273-fe78-4ee1-abd4-c84186b9f85c","system_id":"levelo_inurba_marseille","lat":43.24053,"lon":5.37766,"is_reserved":false,"is_disabled":false,"rental_uris":{"android":"levelo://app?vid=dbbfe273-fe78-4ee1-abd4-c84186b9f85c","ios":"levelo://app?vid=dbbfe273-fe78-4ee1-abd4-c84186b9f85c"},"vehicle_type_id":"4","last_reported":1740611339,"current_range_meters":12400,"station_id":"ce4bhnp2rcd13ifvqgvg","pricing_plan_id":"cebpf4jnsgd1na2vs0mg"},{"bike_id":"17973595-0627-4cbe-be09-6d52168568c1","system_id":"levelo_inurba_marseille","lat":43.27816,"lon":5.40726,"is_reserved":false,"is_disabled":false,"rental_uris":{"android":"levelo://app?vid=17973595-0627-4cbe-be09-6d52168568c1","ios":"levelo://app?vid=17973595-0627-4cbe-be09-6d52168568c1"},"vehicle_type_id":"4","last_reported":1740611339,"current_range_meters":12400,"station_id":"ce4bhnh2rcd13ifvqgtg","pricing_plan_id":"cebpf4jnsgd1na2vs0mg"},{"bike_id":"f2efebfb-a79e-412e-890d-11ae26b9b9c7","system_id":"levelo_inurba_marseille","lat":43.28246,"lon":5.35108,"is_reserved":false,"is_disabled":false,"rental_uris":{"android":"levelo://app?vid=f2efebfb-a79e-412e-890d-11ae26b9b9c7","ios":"levelo://app?vid=f2efebfb-a79e-412e-890d-11ae26b9b9c7"},"vehicle_type_id":"4","last_reported":1740611339,"current_range_meters":12400,"station_id":"ce4bhbp2rcd13ifvqerg","pricing_plan_id":"cebpf4jnsgd1na2vs0mg"},{"bike_id":"7266af47-e9f0-4e43-bba1-095ebf3818bf","system_id":"levelo_inurba_marseille","lat":43.25074,"lon":5.39523,"is_reserved":false,"is_disabled":false,"rental_uris":{"android":"levelo://app?vid=7266af47-e9f0-4e43-bba1-095ebf3818bf","ios":"levelo://app?vid=7266af47-e9f0-4e43-bba1-095ebf3818bf"},"vehicle_type_id":"4","last_reported":1740611339,"current_range_meters":12400,"station_id":"ce4bhm12rcd13ifvqgkg","pricing_plan_id":"cebpf4jnsgd1na2vs0mg"},{"bike_id":"aa1c1254-8b09-4cc6-908c-bacac335dd0d","system_id":"levelo_inurba_marseille","lat":43.24092,"lon":5.37726,"is_reserved":false,"is_disabled":false,"rental_uris":{"android":"levelo://app?vid=aa1c1254-8b09-4cc6-908c-bacac335dd0d","ios":"levelo://app?vid=aa1c1254-8b09-4cc6-908c-bacac335dd0d"},"vehicle_type_id":"4","last_reported":1740611339,"current_range_meters":12800,"station_id":"ce4bhnp2rcd13ifvqgvg","pricing_plan_id":"cebpf4jnsgd1na2vs0mg"},{"bike_id":"ee07e172-028f-4d96-9f9c-0e283dc141d5","system_id":"levelo_inurba_marseille","lat":43.32376,"lon":5.38874,"is_reserved":false,"is_disabled":false,"rental_uris":{"android":"levelo://app?vid=ee07e172-028f-4d96-9f9c-0e283dc141d5","ios":"levelo://app?vid=ee07e172-028f-4d96-9f9c-0e283dc141d5"},"vehicle_type_id":"4","last_reported":1740611339,"current_range_meters":12800,"station_id":"ce4bhqp2rcd13ifvqhog","pricing_plan_id":"cebpf4jnsgd1na2vs0mg"},{"bike_id":"e53cb2a8-562b-4bde-a5af-5769bafad603","system_id":"levelo_inurba_marseille","lat":43.291978,"lon":5.393129,"is_reserved":false,"is_disabled":false,"rental_uris":{"android":"levelo://app?vid=e53cb2a8-562b-4bde-a5af-5769bafad603","ios":"levelo://app?vid=e53cb2a8-562b-4bde-a5af-5769bafad603"},"vehicle_type_id":"4","last_reported":1740611339,"current_range_meters":12800,"station_id":"ce4bh192rcd13ifvqdc0","pricing_plan_id":"cebpf4jnsgd1na2vs0mg"},{"bike_id":"66f45410-3ba7-4c09-83fa-7ef501f9d763","system_id":"levelo_inurba_marseille","lat":43.28704,"lon":5.37391,"is_reserved":false,"is_disabled":false,"rental_uris":{"android":"levelo://app?vid=66f45410-3ba7-4c09-83fa-7ef501f9d763","ios":"levelo://app?vid=66f45410-3ba7-4c09-83fa-7ef501f9d763"},"vehicle_type_id":"4","last_reported":1740611339,"current_range_meters":12800,"station_id":"ce4bh3p2rcd13ifvqdq0","pricing_plan_id":"cebpf4jnsgd1na2vs0mg"},{"bike_id":"91f909e9-358e-43ed-a45f-822af931a978","system_id":"levelo_inurba_marseille","lat":43.23208,"lon":5.40375,"is_reserved":false,"is_disabled":false,"rental_uris":{"android":"levelo://app?vid=91f909e9-358e-43ed-a45f-822af931a978","ios":"levelo://app?vid=91f909e9-358e-43ed-a45f-822af931a978"},"vehicle_type_id":"4","last_reported":1740611339,"current_range_meters":13600,"station_id":"","pricing_plan_id":"cebpf4jnsgd1na2vs0mg"},{"bike_id":"4841ad10-ebe8-484d-80b2-25279a3a26d1","system_id":"levelo_inurba_marseille","lat":43.27921,"lon":5.39595,"is_reserved":false,"is_disabled":false,"rental_uris":{"android":"levelo://app?vid=4841ad10-ebe8-484d-80b2-25279a3a26d1","ios":"levelo://app?vid=4841ad10-ebe8-484d-80b2-25279a3a26d1"},"vehicle_type_id":"4","last_reported":1740611339,"current_range_meters":13600,"station_id":"ce4bhf92rcd13ifvqf40","pricing_plan_id":"cebpf4jnsgd1na2vs0mg"},{"bike_id":"345a2a27-d318-4432-ac2a-158311af24ed","system_id":"levelo_inurba_marseille","lat":43.29783,"lon":5.39344,"is_reserved":false,"is_disabled":false,"rental_uris":{"android":"levelo://app?vid=345a2a27-d318-4432-ac2a-158311af24ed","ios":"levelo://app?vid=345a2a27-d318-4432-ac2a-158311af24ed"},"vehicle_type_id":"4","last_reported":1740611339,"current_range_meters":13600,"station_id":"chh1huq6cuj3fo74tm60","pricing_plan_id":"cebpf4jnsgd1na2vs0mg"},{"bike_id":"555da0d3-9aa3-498c-81f8-f4ef96e72283","system_id":"levelo_inurba_marseille","lat":43.3089,"lon":5.39647,"is_reserved":false,"is_disabled":false,"rental_uris":{"android":"levelo://app?vid=555da0d3-9aa3-498c-81f8-f4ef96e72283","ios":"levelo://app?vid=555da0d3-9aa3-498c-81f8-f4ef96e72283"},"vehicle_type_id":"4","last_reported":1740611339,"current_range_meters":13600,"station_id":"ce4bh012rcd13ifvqcv0","pricing_plan_id":"cebpf4jnsgd1na2vs0mg"},{"bike_id":"b1f10de4-4a39-4feb-9655-51978f0274ef","system_id":"levelo_inurba_marseille","lat":43.30656,"lon":5.40083,"is_reserved":false,"is_disabled":false,"rental_uris":{"android":"levelo://app?vid=b1f10de4-4a39-4feb-9655-51978f0274ef","ios":"levelo://app?vid=b1f10de4-4a39-4feb-9655-51978f0274ef"},"vehicle_type_id":"4","last_reported":1740611339,"current_range_meters":13600,"station_id":"ce4bh112rcd13ifvqda0","pricing_plan_id":"cebpf4jnsgd1na2vs0mg"},{"bike_id":"62cbb18c-2f31-4f5c-9351-9e9b31dd9036","system_id":"levelo_inurba_marseille","lat":43.29856,"lon":5.38662,"is_reserved":false,"is_disabled":false,"rental_uris":{"android":"levelo://app?vid=62cbb18c-2f31-4f5c-9351-9e9b31dd9036","ios":"levelo://app?vid=62cbb18c-2f31-4f5c-9351-9e9b31dd9036"},"vehicle_type_id":"4","last_reported":1740611339,"current_range_meters":13600,"station_id":"","pricing_plan_id":"cebpf4jnsgd1na2vs0mg"},{"bike_id":"ff25c959-3f15-4cc6-a27c-34344c42ffa5","system_id":"levelo_inurba_marseille","lat":43.25076,"lon":5.39516,"is_reserved":false,"is_disabled":false,"rental_uris":{"android":"levelo://app?vid=ff25c959-3f15-4cc6-a27c-34344c42ffa5","ios":"levelo://app?vid=ff25c959-3f15-4cc6-a27c-34344c42ffa5"},"vehicle_type_id":"4","last_reported":1740611339,"current_range_meters":13600,"station_id":"ce4bhm12rcd13ifvqgkg","pricing_plan_id":"cebpf4jnsgd1na2vs0mg"},{"bike_id":"b8d8e0e5-e929-41c9-9bd0-33936ba10d3f","system_id":"levelo_inurba_marseille","lat":43.31544,"lon":5.38024,"is_reserved":false,"is_disabled":false,"rental_uris":{"android":"levelo://app?vid=b8d8e0e5-e929-41c9-9bd0-33936ba10d3f","ios":"levelo://app?vid=b8d8e0e5-e929-41c9-9bd0-33936ba10d3f"},"vehicle_type_id":"4","last_reported":1740611339,"current_range_meters":13600,"station_id":"ce4bhsp2rcd13ifvqi50","pricing_plan_id":"cebpf4jnsgd1na2vs0mg"},{"bike_id":"a5a523ab-bb7a-496b-8563-c6bbfca91b96","system_id":"levelo_inurba_marseille","lat":43.292574,"lon":5.409095,"is_reserved":false,"is_disabled":false,"rental_uris":{"android":"levelo://app?vid=a5a523ab-bb7a-496b-8563-c6bbfca91b96","ios":"levelo://app?vid=a5a523ab-bb7a-496b-8563-c6bbfca91b96"},"vehicle_type_id":"4","last_reported":1740611339,"current_range_meters":12800,"station_id":"ce4bgjh2rcd13ifvqbf0","pricing_plan_id":"cebpf4jnsgd1na2vs0mg"},{"bike_id":"12233c19-4786-43c7-b87e-c054ec841669","system_id":"levelo_inurba_marseille","lat":43.28413,"lon":5.37518,"is_reserved":false,"is_disabled":false,"rental_uris":{"android":"levelo://app?vid=12233c19-4786-43c7-b87e-c054ec841669","ios":"levelo://app?vid=12233c19-4786-43c7-b87e-c054ec841669"},"vehicle_type_id":"4","last_reported":1740611339,"current_range_meters":13600,"station_id":"ce4bh412rcd13ifvqds0","pricing_plan_id":"cebpf4jnsgd1na2vs0mg"},{"bike_id":"5bf0e3ba-f837-43c2-bde3-d2afcf4595b9","system_id":"levelo_inurba_marseille","lat":43.28659,"lon":5.3635,"is_reserved":false,"is_disabled":false,"rental_uris":{"android":"levelo://app?vid=5bf0e3ba-f837-43c2-bde3-d2afcf4595b9","ios":"levelo://app?vid=5bf0e3ba-f837-43c2-bde3-d2afcf4595b9"},"vehicle_type_id":"4","last_reported":1740611339,"current_range_meters":13600,"station_id":"ce4bhah2rcd13ifvqej0","pricing_plan_id":"cebpf4jnsgd1na2vs0mg"},{"bike_id":"bc6ef5b5-466c-4f14-b43a-a23b7fb12a30","system_id":"levelo_inurba_marseille","lat":43.28483,"lon":5.35877,"is_reserved":false,"is_disabled":false,"rental_uris":{"android":"levelo://app?vid=bc6ef5b5-466c-4f14-b43a-a23b7fb12a30","ios":"levelo://app?vid=bc6ef5b5-466c-4f14-b43a-a23b7fb12a30"},"vehicle_type_id":"4","last_reported":1740611339,"current_range_meters":14000,"station_id":"ce4bhah2rcd13ifvqei0","pricing_plan_id":"cebpf4jnsgd1na2vs0mg"},{"bike_id":"2215d5e4-8798-4621-81ec-24430288d53b","system_id":"levelo_inurba_marseille","lat":43.32008,"lon":5.38162,"is_reserved":false,"is_disabled":false,"rental_uris":{"android":"levelo://app?vid=2215d5e4-8798-4621-81ec-24430288d53b","ios":"levelo://app?vid=2215d5e4-8798-4621-81ec-24430288d53b"},"vehicle_type_id":"4","last_reported":1740611339,"current_range_meters":14000,"station_id":"ce4bhr12rcd13ifvqhpg","pricing_plan_id":"cebpf4jnsgd1na2vs0mg"},{"bike_id":"7eebcedb-18f4-4398-b9bd-d7d8a33415a2","system_id":"levelo_inurba_marseille","lat":43.29219,"lon":5.36068,"is_reserved":false,"is_disabled":false,"rental_uris":{"android":"levelo://app?vid=7eebcedb-18f4-4398-b9bd-d7d8a33415a2","ios":"levelo://app?vid=7eebcedb-18f4-4398-b9bd-d7d8a33415a2"},"vehicle_type_id":"4","last_reported":1740611339,"current_range_meters":14000,"station_id":"ce4bhbh2rcd13ifvqeqg","pricing_plan_id":"cebpf4jnsgd1na2vs0mg"},{"bike_id":"98713af8-0bcb-49aa-8f94-80b87751ee40","system_id":"levelo_inurba_marseille","lat":43.30699,"lon":5.40031,"is_reserved":false,"is_disabled":false,"rental_uris":{"android":"levelo://app?vid=98713af8-0bcb-49aa-8f94-80b87751ee40","ios":"levelo://app?vid=98713af8-0bcb-49aa-8f94-80b87751ee40"},"vehicle_type_id":"4","last_reported":1740611339,"current_range_meters":14400,"station_id":"ce4bh112rcd13ifvqda0","pricing_plan_id":"cebpf4jnsgd1na2vs0mg"},{"bike_id":"342e968d-d4db-4448-9b3b-859697777187","system_id":"levelo_inurba_marseille","lat":43.3088,"lon":5.39651,"is_reserved":false,"is_disabled":false,"rental_uris":{"android":"levelo://app?vid=342e968d-d4db-4448-9b3b-859697777187","ios":"levelo://app?vid=342e968d-d4db-4448-9b3b-859697777187"},"vehicle_type_id":"4","last_reported":1740611339,"current_range_meters":14800,"station_id":"ce4bh012rcd13ifvqcv0","pricing_plan_id":"cebpf4jnsgd1na2vs0mg"},{"bike_id":"79a585c5-cf42-4150-9df4-5cf43862e690","system_id":"levelo_inurba_marseille","lat":43.24661,"lon":5.3889,"is_reserved":false,"is_disabled":false,"rental_uris":{"android":"levelo://app?vid=79a585c5-cf42-4150-9df4-5cf43862e690","ios":"levelo://app?vid=79a585c5-cf42-4150-9df4-5cf43862e690"},"vehicle_type_id":"4","last_reported":1740611339,"current_range_meters":14800,"station_id":"ce4bhg12rcd13ifvqf60","pricing_plan_id":"cebpf4jnsgd1na2vs0mg"},{"bike_id":"dc1deb5f-be60-47dd-a397-2458bf714b12","system_id":"levelo_inurba_marseille","lat":43.23061,"lon":5.35493,"is_reserved":false,"is_disabled":false,"rental_uris":{"android":"levelo://app?vid=dc1deb5f-be60-47dd-a397-2458bf714b12","ios":"levelo://app?vid=dc1deb5f-be60-47dd-a397-2458bf714b12"},"vehicle_type_id":"4","last_reported":1740611339,"current_range_meters":14400,"station_id":"cpo3342slgdg3j2ifvpg","pricing_plan_id":"cebpf4jnsgd1na2vs0mg"},{"bike_id":"6b62f5fe-76f7-4cf3-9d84-0a37a25c18ef","system_id":"levelo_inurba_marseille","lat":43.28941,"lon":5.36633,"is_reserved":false,"is_disabled":false,"rental_uris":{"android":"levelo://app?vid=6b62f5fe-76f7-4cf3-9d84-0a37a25c18ef","ios":"levelo://app?vid=6b62f5fe-76f7-4cf3-9d84-0a37a25c18ef"},"vehicle_type_id":"4","last_reported":1740611339,"current_range_meters":16400,"station_id":"ce4bhap2rcd13ifvqek0","pricing_plan_id":"cebpf4jnsgd1na2vs0mg"},{"bike_id":"666da614-c634-45ed-868c-1cf0aae15027","system_id":"levelo_inurba_marseille","lat":43.30891,"lon":5.39638,"is_reserved":false,"is_disabled":false,"rental_uris":{"android":"levelo://app?vid=666da614-c634-45ed-868c-1cf0aae15027","ios":"levelo://app?vid=666da614-c634-45ed-868c-1cf0aae15027"},"vehicle_type_id":"4","last_reported":1740611339,"current_range_meters":13600,"station_id":"ce4bh012rcd13ifvqcv0","pricing_plan_id":"cebpf4jnsgd1na2vs0mg"},{"bike_id":"d52f0219-7e16-4dc5-bdd6-5f76ea649f0a","system_id":"levelo_inurba_marseille","lat":43.30885,"lon":5.37198,"is_reserved":false,"is_disabled":false,"rental_uris":{"android":"levelo://app?vid=d52f0219-7e16-4dc5-bdd6-5f76ea649f0a","ios":"levelo://app?vid=d52f0219-7e16-4dc5-bdd6-5f76ea649f0a"},"vehicle_type_id":"4","last_reported":1740611339,"current_range_meters":14400,"station_id":"ce4bguh2rcd13ifvqckg","pricing_plan_id":"cebpf4jnsgd1na2vs0mg"},{"bike_id":"f54e85e9-e8aa-4872-a10a-f06009a78e54","system_id":"levelo_inurba_marseille","lat":43.29262,"lon":5.38437,"is_reserved":false,"is_disabled":false,"rental_uris":{"android":"levelo://app?vid=f54e85e9-e8aa-4872-a10a-f06009a78e54","ios":"levelo://app?vid=f54e85e9-e8aa-4872-a10a-f06009a78e54"},"vehicle_type_id":"4","last_reported":1740611339,"current_range_meters":15200,"station_id":"ce4bh692rcd13ifvqea0","pricing_plan_id":"cebpf4jnsgd1na2vs0mg"},{"bike_id":"9ee05a79-6ed0-471b-8dcb-b288b1c46214","system_id":"levelo_inurba_marseille","lat":43.29197,"lon":5.39346,"is_reserved":false,"is_disabled":false,"rental_uris":{"android":"levelo://app?vid=9ee05a79-6ed0-471b-8dcb-b288b1c46214","ios":"levelo://app?vid=9ee05a79-6ed0-471b-8dcb-b288b1c46214"},"vehicle_type_id":"4","last_reported":1740611339,"current_range_meters":14800,"station_id":"ce4bh192rcd13ifvqdd0","pricing_plan_id":"cebpf4jnsgd1na2vs0mg"},{"bike_id":"9d301360-426b-4103-9783-18a245c174ea","system_id":"levelo_inurba_marseille","lat":43.25717,"lon":5.41113,"is_reserved":false,"is_disabled":false,"rental_uris":{"android":"levelo://app?vid=9d301360-426b-4103-9783-18a245c174ea","ios":"levelo://app?vid=9d301360-426b-4103-9783-18a245c174ea"},"vehicle_type_id":"4","last_reported":1740611339,"current_range_meters":14800,"station_id":"ce4bhkp2rcd13ifvqgd0","pricing_plan_id":"cebpf4jnsgd1na2vs0mg"},{"bike_id":"31cd2bc8-f809-4f03-8e49-86b5d3a51e7a","system_id":"levelo_inurba_marseille","lat":43.2869,"lon":5.37388,"is_reserved":false,"is_disabled":false,"rental_uris":{"android":"levelo://app?vid=31cd2bc8-f809-4f03-8e49-86b5d3a51e7a","ios":"levelo://app?vid=31cd2bc8-f809-4f03-8e49-86b5d3a51e7a"},"vehicle_type_id":"4","last_reported":1740611339,"current_range_meters":14800,"station_id":"ce4bh3p2rcd13ifvqdq0","pricing_plan_id":"cebpf4jnsgd1na2vs0mg"},{"bike_id":"5ab74027-0266-42e6-903d-055b2632fc94","system_id":"levelo_inurba_marseille","lat":43.2763,"lon":5.36108,"is_reserved":false,"is_disabled":false,"rental_uris":{"android":"levelo://app?vid=5ab74027-0266-42e6-903d-055b2632fc94","ios":"levelo://app?vid=5ab74027-0266-42e6-903d-055b2632fc94"},"vehicle_type_id":"4","last_reported":1740611339,"current_range_meters":15200,"station_id":"ce4bgj92rcd13ifvqbe0","pricing_plan_id":"cebpf4jnsgd1na2vs0mg"},{"bike_id":"d9edb359-99e6-43de-99dd-b9b1164fad3d","system_id":"levelo_inurba_marseille","lat":43.28471,"lon":5.38424,"is_reserved":false,"is_disabled":true,"rental_uris":{"android":"levelo://app?vid=d9edb359-99e6-43de-99dd-b9b1164fad3d","ios":"levelo://app?vid=d9edb359-99e6-43de-99dd-b9b1164fad3d"},"vehicle_type_id":"4","last_reported":1740611339,"current_range_meters":15200,"station_id":"ce4bh512rcd13ifvqe3g","pricing_plan_id":"cebpf4jnsgd1na2vs0mg"},{"bike_id":"188f81ad-b442-48d0-b495-160b6b9fef7e","system_id":"levelo_inurba_marseille","lat":43.28722,"lon":5.36089,"is_reserved":false,"is_disabled":false,"rental_uris":{"android":"levelo://app?vid=188f81ad-b442-48d0-b495-160b6b9fef7e","ios":"levelo://app?vid=188f81ad-b442-48d0-b495-160b6b9fef7e"},"vehicle_type_id":"4","last_reported":1740611339,"current_range_meters":14800,"station_id":"cki0cbj6b192h4jlfktg","pricing_plan_id":"cebpf4jnsgd1na2vs0mg"},{"bike_id":"f3dcfc0c-6d5d-4263-b40e-6208dab2037f","system_id":"levelo_inurba_marseille","lat":43.28725,"lon":5.3609,"is_reserved":false,"is_disabled":false,"rental_uris":{"android":"levelo://app?vid=f3dcfc0c-6d5d-4263-b40e-6208dab2037f","ios":"levelo://app?vid=f3dcfc0c-6d5d-4263-b40e-6208dab2037f"},"vehicle_type_id":"4","last_reported":1740611339,"current_range_meters":16000,"station_id":"cki0cbj6b192h4jlfktg","pricing_plan_id":"cebpf4jnsgd1na2vs0mg"},{"bike_id":"1b575eb4-f076-45fc-af63-0ccd9d6b87de","system_id":"levelo_inurba_marseille","lat":43.29532,"lon":5.39387,"is_reserved":false,"is_disabled":false,"rental_uris":{"android":"levelo://app?vid=1b575eb4-f076-45fc-af63-0ccd9d6b87de","ios":"levelo://app?vid=1b575eb4-f076-45fc-af63-0ccd9d6b87de"},"vehicle_type_id":"4","last_reported":1740611339,"current_range_meters":16000,"station_id":"ce4bh292rcd13ifvqdf0","pricing_plan_id":"cebpf4jnsgd1na2vs0mg"},{"bike_id":"6f5e6b2b-b94b-4eea-910a-3764064b3c05","system_id":"levelo_inurba_marseille","lat":43.27989,"lon":5.40025,"is_reserved":false,"is_disabled":false,"rental_uris":{"android":"levelo://app?vid=6f5e6b2b-b94b-4eea-910a-3764064b3c05","ios":"levelo://app?vid=6f5e6b2b-b94b-4eea-910a-3764064b3c05"},"vehicle_type_id":"4","last_reported":1740611339,"current_range_meters":16400,"station_id":"ce4bho92rcd13ifvqh4g","pricing_plan_id":"cebpf4jnsgd1na2vs0mg"},{"bike_id":"1c9d6822-f1a4-41ae-8212-02c18fed1780","system_id":"levelo_inurba_marseille","lat":43.28949,"lon":5.36626,"is_reserved":false,"is_disabled":false,"rental_uris":{"android":"levelo://app?vid=1c9d6822-f1a4-41ae-8212-02c18fed1780","ios":"levelo://app?vid=1c9d6822-f1a4-41ae-8212-02c18fed1780"},"vehicle_type_id":"4","last_reported":1740611339,"current_range_meters":15200,"station_id":"ce4bhap2rcd13ifvqek0","pricing_plan_id":"cebpf4jnsgd1na2vs0mg"},{"bike_id":"d66c4c2f-8a7c-42b3-8adc-6056e6aa3202","system_id":"levelo_inurba_marseille","lat":43.30884,"lon":5.39666,"is_reserved":false,"is_disabled":false,"rental_uris":{"android":"levelo://app?vid=d66c4c2f-8a7c-42b3-8adc-6056e6aa3202","ios":"levelo://app?vid=d66c4c2f-8a7c-42b3-8adc-6056e6aa3202"},"vehicle_type_id":"4","last_reported":1740611339,"current_range_meters":16000,"station_id":"ce4bh012rcd13ifvqcv0","pricing_plan_id":"cebpf4jnsgd1na2vs0mg"},{"bike_id":"bc679af8-b2d8-495d-8f01-39de79e9748b","system_id":"levelo_inurba_marseille","lat":43.29592,"lon":5.36729,"is_reserved":false,"is_disabled":false,"rental_uris":{"android":"levelo://app?vid=bc679af8-b2d8-495d-8f01-39de79e9748b","ios":"levelo://app?vid=bc679af8-b2d8-495d-8f01-39de79e9748b"},"vehicle_type_id":"4","last_reported":1740611339,"current_range_meters":16000,"station_id":"ce4bgph2rcd13ifvqc2g","pricing_plan_id":"cebpf4jnsgd1na2vs0mg"},{"bike_id":"3ef4a283-1278-481d-a678-2032504e228a","system_id":"levelo_inurba_marseille","lat":43.28966,"lon":5.35605,"is_reserved":false,"is_disabled":true,"rental_uris":{"android":"levelo://app?vid=3ef4a283-1278-481d-a678-2032504e228a","ios":"levelo://app?vid=3ef4a283-1278-481d-a678-2032504e228a"},"vehicle_type_id":"4","last_reported":1740611339,"current_range_meters":16000,"station_id":"ce4bhb92rcd13ifvqen0","pricing_plan_id":"cebpf4jnsgd1na2vs0mg"},{"bike_id":"5fdbaa49-16e6-43d7-bb68-6ad87f72c301","system_id":"levelo_inurba_marseille","lat":43.33063,"lon":5.40821,"is_reserved":false,"is_disabled":false,"rental_uris":{"android":"levelo://app?vid=5fdbaa49-16e6-43d7-bb68-6ad87f72c301","ios":"levelo://app?vid=5fdbaa49-16e6-43d7-bb68-6ad87f72c301"},"vehicle_type_id":"4","last_reported":1740611339,"current_range_meters":16000,"station_id":"","pricing_plan_id":"cebpf4jnsgd1na2vs0mg"},{"bike_id":"c8cf8366-0c44-45bd-9143-3b5fae02e2ac","system_id":"levelo_inurba_marseille","lat":43.28171,"lon":5.42645,"is_reserved":false,"is_disabled":false,"rental_uris":{"android":"levelo://app?vid=c8cf8366-0c44-45bd-9143-3b5fae02e2ac","ios":"levelo://app?vid=c8cf8366-0c44-45bd-9143-3b5fae02e2ac"},"vehicle_type_id":"4","last_reported":1740611339,"current_range_meters":16000,"station_id":"ce4bhnh2rcd13ifvqgug","pricing_plan_id":"cebpf4jnsgd1na2vs0mg"},{"bike_id":"63569115-3240-4df6-ada0-ada3d9c2e5bc","system_id":"levelo_inurba_marseille","lat":43.2397,"lon":5.36624,"is_reserved":false,"is_disabled":false,"rental_uris":{"android":"levelo://app?vid=63569115-3240-4df6-ada0-ada3d9c2e5bc","ios":"levelo://app?vid=63569115-3240-4df6-ada0-ada3d9c2e5bc"},"vehicle_type_id":"4","last_reported":1740611339,"current_range_meters":16000,"station_id":"ce4bhi12rcd13ifvqfp0","pricing_plan_id":"cebpf4jnsgd1na2vs0mg"},{"bike_id":"eb71c3b9-353b-4f9a-83b6-abece59acd47","system_id":"levelo_inurba_marseille","lat":43.31711,"lon":5.43705,"is_reserved":false,"is_disabled":false,"rental_uris":{"android":"levelo://app?vid=eb71c3b9-353b-4f9a-83b6-abece59acd47","ios":"levelo://app?vid=eb71c3b9-353b-4f9a-83b6-abece59acd47"},"vehicle_type_id":"4","last_reported":1740611339,"current_range_meters":20400,"station_id":"ce4bhp92rcd13ifvqhcg","pricing_plan_id":"cebpf4jnsgd1na2vs0mg"},{"bike_id":"1de86b69-54c0-4bac-b321-f4d8d8bfd779","system_id":"levelo_inurba_marseille","lat":43.28752,"lon":5.3607,"is_reserved":false,"is_disabled":false,"rental_uris":{"android":"levelo://app?vid=1de86b69-54c0-4bac-b321-f4d8d8bfd779","ios":"levelo://app?vid=1de86b69-54c0-4bac-b321-f4d8d8bfd779"},"vehicle_type_id":"4","last_reported":1740611339,"current_range_meters":16000,"station_id":"cki0cbj6b192h4jlfktg","pricing_plan_id":"cebpf4jnsgd1na2vs0mg"},{"bike_id":"68070861-9d2d-44f3-a538-bf2996732e9c","system_id":"levelo_inurba_marseille","lat":43.28404,"lon":5.37522,"is_reserved":false,"is_disabled":false,"rental_uris":{"android":"levelo://app?vid=68070861-9d2d-44f3-a538-bf2996732e9c","ios":"levelo://app?vid=68070861-9d2d-44f3-a538-bf2996732e9c"},"vehicle_type_id":"4","last_reported":1740611339,"current_range_meters":16400,"station_id":"ce4bh412rcd13ifvqds0","pricing_plan_id":"cebpf4jnsgd1na2vs0mg"},{"bike_id":"7154528e-ee54-4049-bee4-ff5abef8fa21","system_id":"levelo_inurba_marseille","lat":43.23964,"lon":5.36629,"is_reserved":false,"is_disabled":false,"rental_uris":{"android":"levelo://app?vid=7154528e-ee54-4049-bee4-ff5abef8fa21","ios":"levelo://app?vid=7154528e-ee54-4049-bee4-ff5abef8fa21"},"vehicle_type_id":"4","last_reported":1740611339,"current_range_meters":16000,"station_id":"ce4bhi12rcd13ifvqfp0","pricing_plan_id":"cebpf4jnsgd1na2vs0mg"},{"bike_id":"7c4729ad-3ac2-4e30-8e54-e5474b687920","system_id":"levelo_inurba_marseille","lat":43.30328,"lon":5.40434,"is_reserved":false,"is_disabled":false,"rental_uris":{"android":"levelo://app?vid=7c4729ad-3ac2-4e30-8e54-e5474b687920","ios":"levelo://app?vid=7c4729ad-3ac2-4e30-8e54-e5474b687920"},"vehicle_type_id":"4","last_reported":1740611339,"current_range_meters":18800,"station_id":"ce4bh012rcd13ifvqd10","pricing_plan_id":"cebpf4jnsgd1na2vs0mg"},{"bike_id":"e556532c-e357-4953-95b9-d4a4bdbdafc9","system_id":"levelo_inurba_marseille","lat":43.28723,"lon":5.36088,"is_reserved":false,"is_disabled":false,"rental_uris":{"android":"levelo://app?vid=e556532c-e357-4953-95b9-d4a4bdbdafc9","ios":"levelo://app?vid=e556532c-e357-4953-95b9-d4a4bdbdafc9"},"vehicle_type_id":"4","last_reported":1740611339,"current_range_meters":16400,"station_id":"cki0cbj6b192h4jlfktg","pricing_plan_id":"cebpf4jnsgd1na2vs0mg"},{"bike_id":"8a339686-9723-415b-8f3c-02f3810e4035","system_id":"levelo_inurba_marseille","lat":43.29875,"lon":5.39731,"is_reserved":false,"is_disabled":false,"rental_uris":{"android":"levelo://app?vid=8a339686-9723-415b-8f3c-02f3810e4035","ios":"levelo://app?vid=8a339686-9723-415b-8f3c-02f3810e4035"},"vehicle_type_id":"4","last_reported":1740611339,"current_range_meters":16400,"station_id":"ce4bh0h2rcd13ifvqd50","pricing_plan_id":"cebpf4jnsgd1na2vs0mg"},{"bike_id":"3648d549-1aa7-44d1-bde4-30bac4ece65c","system_id":"levelo_inurba_marseille","lat":43.25572,"lon":5.38229,"is_reserved":false,"is_disabled":false,"rental_uris":{"android":"levelo://app?vid=3648d549-1aa7-44d1-bde4-30bac4ece65c","ios":"levelo://app?vid=3648d549-1aa7-44d1-bde4-30bac4ece65c"},"vehicle_type_id":"4","last_reported":1740611339,"current_range_meters":16400,"station_id":"ce4bhih2rcd13ifvqfs0","pricing_plan_id":"cebpf4jnsgd1na2vs0mg"},{"bike_id":"3a71ac56-502b-4f5a-a8dd-c1d6a1f0b62a","system_id":"levelo_inurba_marseille","lat":43.31167,"lon":5.38725,"is_reserved":false,"is_disabled":false,"rental_uris":{"android":"levelo://app?vid=3a71ac56-502b-4f5a-a8dd-c1d6a1f0b62a","ios":"levelo://app?vid=3a71ac56-502b-4f5a-a8dd-c1d6a1f0b62a"},"vehicle_type_id":"4","last_reported":1740611339,"current_range_meters":16800,"station_id":"ce4bgv12rcd13ifvqcp0","pricing_plan_id":"cebpf4jnsgd1na2vs0mg"},{"bike_id":"1afe79f3-229c-4252-a0d3-309f3064fa33","system_id":"levelo_inurba_marseille","lat":43.24073,"lon":5.37765,"is_reserved":false,"is_disabled":false,"rental_uris":{"android":"levelo://app?vid=1afe79f3-229c-4252-a0d3-309f3064fa33","ios":"levelo://app?vid=1afe79f3-229c-4252-a0d3-309f3064fa33"},"vehicle_type_id":"4","last_reported":1740611339,"current_range_meters":16400,"station_id":"ce4bhnp2rcd13ifvqgvg","pricing_plan_id":"cebpf4jnsgd1na2vs0mg"},{"bike_id":"a6832e75-8e45-48db-b564-ea05f030f386","system_id":"levelo_inurba_marseille","lat":43.28474,"lon":5.35873,"is_reserved":false,"is_disabled":false,"rental_uris":{"android":"levelo://app?vid=a6832e75-8e45-48db-b564-ea05f030f386","ios":"levelo://app?vid=a6832e75-8e45-48db-b564-ea05f030f386"},"vehicle_type_id":"4","last_reported":1740611339,"current_range_meters":16400,"station_id":"ce4bhah2rcd13ifvqei0","pricing_plan_id":"cebpf4jnsgd1na2vs0mg"},{"bike_id":"93180074-894b-4258-b14f-95b739552fa3","system_id":"levelo_inurba_marseille","lat":43.30584,"lon":5.39338,"is_reserved":false,"is_disabled":false,"rental_uris":{"android":"levelo://app?vid=93180074-894b-4258-b14f-95b739552fa3","ios":"levelo://app?vid=93180074-894b-4258-b14f-95b739552fa3"},"vehicle_type_id":"4","last_reported":1740611339,"current_range_meters":16800,"station_id":"ce4bh0p2rcd13ifvqd80","pricing_plan_id":"cebpf4jnsgd1na2vs0mg"},{"bike_id":"8e7ca1de-f2e1-45da-a0a6-c0442942ed30","system_id":"levelo_inurba_marseille","lat":43.25504,"lon":5.37647,"is_reserved":false,"is_disabled":false,"rental_uris":{"android":"levelo://app?vid=8e7ca1de-f2e1-45da-a0a6-c0442942ed30","ios":"levelo://app?vid=8e7ca1de-f2e1-45da-a0a6-c0442942ed30"},"vehicle_type_id":"4","last_reported":1740611339,"current_range_meters":16800,"station_id":"ce4bhh12rcd13ifvqff0","pricing_plan_id":"cebpf4jnsgd1na2vs0mg"},{"bike_id":"0bac474b-3e53-4ae8-8589-ca7ba7e00c57","system_id":"levelo_inurba_marseille","lat":43.30772,"lon":5.37654,"is_reserved":false,"is_disabled":false,"rental_uris":{"android":"levelo://app?vid=0bac474b-3e53-4ae8-8589-ca7ba7e00c57","ios":"levelo://app?vid=0bac474b-3e53-4ae8-8589-ca7ba7e00c57"},"vehicle_type_id":"4","last_reported":1740611339,"current_range_meters":16800,"station_id":"ce4bgv92rcd13ifvqcq0","pricing_plan_id":"cebpf4jnsgd1na2vs0mg"},{"bike_id":"1a112124-f138-4737-80fe-996684a8fd7d","system_id":"levelo_inurba_marseille","lat":43.28444,"lon":5.35883,"is_reserved":false,"is_disabled":false,"rental_uris":{"android":"levelo://app?vid=1a112124-f138-4737-80fe-996684a8fd7d","ios":"levelo://app?vid=1a112124-f138-4737-80fe-996684a8fd7d"},"vehicle_type_id":"4","last_reported":1740611339,"current_range_meters":16800,"station_id":"ce4bhah2rcd13ifvqei0","pricing_plan_id":"cebpf4jnsgd1na2vs0mg"},{"bike_id":"3de9aeda-1f9a-4bbc-8b90-e02a49e56ca9","system_id":"levelo_inurba_marseille","lat":43.231896,"lon":5.355574,"is_reserved":false,"is_disabled":false,"rental_uris":{"android":"levelo://app?vid=3de9aeda-1f9a-4bbc-8b90-e02a49e56ca9","ios":"levelo://app?vid=3de9aeda-1f9a-4bbc-8b90-e02a49e56ca9"},"vehicle_type_id":"4","last_reported":1740611339,"current_range_meters":16800,"station_id":"ce4bhu92rcd13ifvqi70","pricing_plan_id":"cebpf4jnsgd1na2vs0mg"},{"bike_id":"e582f131-4506-41d1-bbb3-154638223117","system_id":"levelo_inurba_marseille","lat":43.29943,"lon":5.36543,"is_reserved":false,"is_disabled":false,"rental_uris":{"android":"levelo://app?vid=e582f131-4506-41d1-bbb3-154638223117","ios":"levelo://app?vid=e582f131-4506-41d1-bbb3-154638223117"},"vehicle_type_id":"4","last_reported":1740611339,"current_range_meters":17200,"station_id":"ce4bgm92rcd13ifvqbr0","pricing_plan_id":"cebpf4jnsgd1na2vs0mg"},{"bike_id":"c0a67ada-412e-4406-b902-8f037dfa5b08","system_id":"levelo_inurba_marseille","lat":43.29076,"lon":5.37162,"is_reserved":false,"is_disabled":false,"rental_uris":{"android":"levelo://app?vid=c0a67ada-412e-4406-b902-8f037dfa5b08","ios":"levelo://app?vid=c0a67ada-412e-4406-b902-8f037dfa5b08"},"vehicle_type_id":"4","last_reported":1740611339,"current_range_meters":17200,"station_id":"ce4bh5p2rcd13ifvqe4g","pricing_plan_id":"cebpf4jnsgd1na2vs0mg"},{"bike_id":"7c6f2e19-e14e-482e-81a7-645fe762ee86","system_id":"levelo_inurba_marseille","lat":43.29592,"lon":5.36736,"is_reserved":false,"is_disabled":false,"rental_uris":{"android":"levelo://app?vid=7c6f2e19-e14e-482e-81a7-645fe762ee86","ios":"levelo://app?vid=7c6f2e19-e14e-482e-81a7-645fe762ee86"},"vehicle_type_id":"4","last_reported":1740611339,"current_range_meters":17200,"station_id":"ce4bgph2rcd13ifvqc2g","pricing_plan_id":"cebpf4jnsgd1na2vs0mg"},{"bike_id":"0e875642-847b-4eb4-8b93-6d1e557f1084","system_id":"levelo_inurba_marseille","lat":43.28564,"lon":5.39496,"is_reserved":false,"is_disabled":false,"rental_uris":{"android":"levelo://app?vid=0e875642-847b-4eb4-8b93-6d1e557f1084","ios":"levelo://app?vid=0e875642-847b-4eb4-8b93-6d1e557f1084"},"vehicle_type_id":"4","last_reported":1740611339,"current_range_meters":17200,"station_id":"ce4bh292rcd13ifvqdg0","pricing_plan_id":"cebpf4jnsgd1na2vs0mg"},{"bike_id":"56b97ce9-cec6-4c78-aaa7-b910aae8b368","system_id":"levelo_inurba_marseille","lat":43.31174,"lon":5.38723,"is_reserved":false,"is_disabled":false,"rental_uris":{"android":"levelo://app?vid=56b97ce9-cec6-4c78-aaa7-b910aae8b368","ios":"levelo://app?vid=56b97ce9-cec6-4c78-aaa7-b910aae8b368"},"vehicle_type_id":"4","last_reported":1740611339,"current_range_meters":17200,"station_id":"ce4bgv12rcd13ifvqcp0","pricing_plan_id":"cebpf4jnsgd1na2vs0mg"},{"bike_id":"201b43e1-9166-4b93-9ecb-211bb1985890","system_id":"levelo_inurba_marseille","lat":43.32358,"lon":5.36757,"is_reserved":false,"is_disabled":false,"rental_uris":{"android":"levelo://app?vid=201b43e1-9166-4b93-9ecb-211bb1985890","ios":"levelo://app?vid=201b43e1-9166-4b93-9ecb-211bb1985890"},"vehicle_type_id":"4","last_reported":1740611339,"current_range_meters":17200,"station_id":"ce4bhsh2rcd13ifvqi2g","pricing_plan_id":"cebpf4jnsgd1na2vs0mg"},{"bike_id":"8b2a3c22-ac57-49b4-95bf-f5f1eb901db5","system_id":"levelo_inurba_marseille","lat":43.304272,"lon":5.388878,"is_reserved":false,"is_disabled":false,"rental_uris":{"android":"levelo://app?vid=8b2a3c22-ac57-49b4-95bf-f5f1eb901db5","ios":"levelo://app?vid=8b2a3c22-ac57-49b4-95bf-f5f1eb901db5"},"vehicle_type_id":"4","last_reported":1740611339,"current_range_meters":17200,"station_id":"ce4bgk12rcd13ifvqbi0","pricing_plan_id":"cebpf4jnsgd1na2vs0mg"},{"bike_id":"4c56b05b-d311-4d1d-b526-605a805d1bd4","system_id":"levelo_inurba_marseille","lat":43.28084,"lon":5.40579,"is_reserved":false,"is_disabled":false,"rental_uris":{"android":"levelo://app?vid=4c56b05b-d311-4d1d-b526-605a805d1bd4","ios":"levelo://app?vid=4c56b05b-d311-4d1d-b526-605a805d1bd4"},"vehicle_type_id":"4","last_reported":1740611339,"current_range_meters":17200,"station_id":"","pricing_plan_id":"cebpf4jnsgd1na2vs0mg"},{"bike_id":"a05f0b98-a92c-4bff-8a2e-dc25e96a6b19","system_id":"levelo_inurba_marseille","lat":43.28607,"lon":5.35105,"is_reserved":false,"is_disabled":false,"rental_uris":{"android":"levelo://app?vid=a05f0b98-a92c-4bff-8a2e-dc25e96a6b19","ios":"levelo://app?vid=a05f0b98-a92c-4bff-8a2e-dc25e96a6b19"},"vehicle_type_id":"4","last_reported":1740611339,"current_range_meters":17200,"station_id":"ce4bhch2rcd13ifvqeug","pricing_plan_id":"cebpf4jnsgd1na2vs0mg"},{"bike_id":"2f34318e-a597-4538-b566-d434ea3bf60b","system_id":"levelo_inurba_marseille","lat":43.28672,"lon":5.36344,"is_reserved":false,"is_disabled":false,"rental_uris":{"android":"levelo://app?vid=2f34318e-a597-4538-b566-d434ea3bf60b","ios":"levelo://app?vid=2f34318e-a597-4538-b566-d434ea3bf60b"},"vehicle_type_id":"4","last_reported":1740611339,"current_range_meters":17200,"station_id":"ce4bhah2rcd13ifvqej0","pricing_plan_id":"cebpf4jnsgd1na2vs0mg"},{"bike_id":"6bf62df5-9f2c-4676-be2e-3425368f3119","system_id":"levelo_inurba_marseille","lat":43.29308,"lon":5.38278,"is_reserved":false,"is_disabled":false,"rental_uris":{"android":"levelo://app?vid=6bf62df5-9f2c-4676-be2e-3425368f3119","ios":"levelo://app?vid=6bf62df5-9f2c-4676-be2e-3425368f3119"},"vehicle_type_id":"4","last_reported":1740611339,"current_range_meters":17600,"station_id":"","pricing_plan_id":"cebpf4jnsgd1na2vs0mg"},{"bike_id":"a0f4d1f3-ac6e-4559-9d8c-12200114cfdc","system_id":"levelo_inurba_marseille","lat":43.29874,"lon":5.3972,"is_reserved":false,"is_disabled":false,"rental_uris":{"android":"levelo://app?vid=a0f4d1f3-ac6e-4559-9d8c-12200114cfdc","ios":"levelo://app?vid=a0f4d1f3-ac6e-4559-9d8c-12200114cfdc"},"vehicle_type_id":"4","last_reported":1740611339,"current_range_meters":17200,"station_id":"ce4bh0h2rcd13ifvqd50","pricing_plan_id":"cebpf4jnsgd1na2vs0mg"},{"bike_id":"6b4f55f7-04de-49c0-bd50-a3ecceed8b7d","system_id":"levelo_inurba_marseille","lat":43.292021,"lon":5.393228,"is_reserved":false,"is_disabled":false,"rental_uris":{"android":"levelo://app?vid=6b4f55f7-04de-49c0-bd50-a3ecceed8b7d","ios":"levelo://app?vid=6b4f55f7-04de-49c0-bd50-a3ecceed8b7d"},"vehicle_type_id":"4","last_reported":1740611339,"current_range_meters":17200,"station_id":"ce4bh192rcd13ifvqdd0","pricing_plan_id":"cebpf4jnsgd1na2vs0mg"},{"bike_id":"dc7c8222-d2b8-4328-9e4d-04b5eafb0ac0","system_id":"levelo_inurba_marseille","lat":43.23968,"lon":5.36628,"is_reserved":false,"is_disabled":false,"rental_uris":{"android":"levelo://app?vid=dc7c8222-d2b8-4328-9e4d-04b5eafb0ac0","ios":"levelo://app?vid=dc7c8222-d2b8-4328-9e4d-04b5eafb0ac0"},"vehicle_type_id":"4","last_reported":1740611339,"current_range_meters":17600,"station_id":"ce4bhi12rcd13ifvqfp0","pricing_plan_id":"cebpf4jnsgd1na2vs0mg"},{"bike_id":"ea79e0c7-e983-4b60-98ee-a2e32b9bef8f","system_id":"levelo_inurba_marseille","lat":43.26064,"lon":5.39398,"is_reserved":false,"is_disabled":false,"rental_uris":{"android":"levelo://app?vid=ea79e0c7-e983-4b60-98ee-a2e32b9bef8f","ios":"levelo://app?vid=ea79e0c7-e983-4b60-98ee-a2e32b9bef8f"},"vehicle_type_id":"4","last_reported":1740611339,"current_range_meters":17600,"station_id":"ce4bhh92rcd13ifvqfj0","pricing_plan_id":"cebpf4jnsgd1na2vs0mg"},{"bike_id":"f2652af0-7f89-4f32-835a-da4ab8b102ce","system_id":"levelo_inurba_marseille","lat":43.28431,"lon":5.35005,"is_reserved":false,"is_disabled":false,"rental_uris":{"android":"levelo://app?vid=f2652af0-7f89-4f32-835a-da4ab8b102ce","ios":"levelo://app?vid=f2652af0-7f89-4f32-835a-da4ab8b102ce"},"vehicle_type_id":"4","last_reported":1740611339,"current_range_meters":17600,"station_id":"ce4bhbh2rcd13ifvqepg","pricing_plan_id":"cebpf4jnsgd1na2vs0mg"},{"bike_id":"40e25f70-02b5-4811-add6-6e8dbc26a035","system_id":"levelo_inurba_marseille","lat":43.28475,"lon":5.34941,"is_reserved":false,"is_disabled":false,"rental_uris":{"android":"levelo://app?vid=40e25f70-02b5-4811-add6-6e8dbc26a035","ios":"levelo://app?vid=40e25f70-02b5-4811-add6-6e8dbc26a035"},"vehicle_type_id":"4","last_reported":1740611339,"current_range_meters":17600,"station_id":"ce4bhbh2rcd13ifvqepg","pricing_plan_id":"cebpf4jnsgd1na2vs0mg"},{"bike_id":"8d8d43e1-7cd2-49f9-ba2a-c5dad8cae27e","system_id":"levelo_inurba_marseille","lat":43.27949,"lon":5.410403,"is_reserved":false,"is_disabled":false,"rental_uris":{"android":"levelo://app?vid=8d8d43e1-7cd2-49f9-ba2a-c5dad8cae27e","ios":"levelo://app?vid=8d8d43e1-7cd2-49f9-ba2a-c5dad8cae27e"},"vehicle_type_id":"4","last_reported":1740611339,"current_range_meters":17600,"station_id":"ce4bhnp2rcd13ifvqh0g","pricing_plan_id":"cebpf4jnsgd1na2vs0mg"},{"bike_id":"d353aafc-5cc1-4732-9b75-faadcba26647","system_id":"levelo_inurba_marseille","lat":43.24169,"lon":5.39718,"is_reserved":false,"is_disabled":false,"rental_uris":{"android":"levelo://app?vid=d353aafc-5cc1-4732-9b75-faadcba26647","ios":"levelo://app?vid=d353aafc-5cc1-4732-9b75-faadcba26647"},"vehicle_type_id":"4","last_reported":1740611339,"current_range_meters":17600,"station_id":"ce4bhn12rcd13ifvqgpg","pricing_plan_id":"cebpf4jnsgd1na2vs0mg"},{"bike_id":"d337cc62-b29d-4e4a-bd4f-e767bd643d41","system_id":"levelo_inurba_marseille","lat":43.32093,"lon":5.36763,"is_reserved":false,"is_disabled":false,"rental_uris":{"android":"levelo://app?vid=d337cc62-b29d-4e4a-bd4f-e767bd643d41","ios":"levelo://app?vid=d337cc62-b29d-4e4a-bd4f-e767bd643d41"},"vehicle_type_id":"4","last_reported":1740611339,"current_range_meters":17600,"station_id":"ce4bhrh2rcd13ifvqhug","pricing_plan_id":"cebpf4jnsgd1na2vs0mg"},{"bike_id":"43451c77-03a7-49d4-b420-755614ba114d","system_id":"levelo_inurba_marseille","lat":43.29552,"lon":5.42295,"is_reserved":false,"is_disabled":false,"rental_uris":{"android":"levelo://app?vid=43451c77-03a7-49d4-b420-755614ba114d","ios":"levelo://app?vid=43451c77-03a7-49d4-b420-755614ba114d"},"vehicle_type_id":"4","last_reported":1740611339,"current_range_meters":17200,"station_id":"ce4bhph2rcd13ifvqhdg","pricing_plan_id":"cebpf4jnsgd1na2vs0mg"},{"bike_id":"d6083c35-fd0f-4865-b92a-aebf582bb1ce","system_id":"levelo_inurba_marseille","lat":43.290312,"lon":5.386453,"is_reserved":false,"is_disabled":false,"rental_uris":{"android":"levelo://app?vid=d6083c35-fd0f-4865-b92a-aebf582bb1ce","ios":"levelo://app?vid=d6083c35-fd0f-4865-b92a-aebf582bb1ce"},"vehicle_type_id":"4","last_reported":1740611339,"current_range_meters":17600,"station_id":"ce4bhgp2rcd13ifvqfe0","pricing_plan_id":"cebpf4jnsgd1na2vs0mg"},{"bike_id":"eecdd693-6027-4f53-b1fe-18cfac5b70e8","system_id":"levelo_inurba_marseille","lat":43.29007,"lon":5.35617,"is_reserved":false,"is_disabled":false,"rental_uris":{"android":"levelo://app?vid=eecdd693-6027-4f53-b1fe-18cfac5b70e8","ios":"levelo://app?vid=eecdd693-6027-4f53-b1fe-18cfac5b70e8"},"vehicle_type_id":"4","last_reported":1740611339,"current_range_meters":18000,"station_id":"ce4bhb92rcd13ifvqen0","pricing_plan_id":"cebpf4jnsgd1na2vs0mg"},{"bike_id":"78faf8ab-fdd7-412f-902d-0fa7f6a56bc9","system_id":"levelo_inurba_marseille","lat":43.28727,"lon":5.36074,"is_reserved":false,"is_disabled":false,"rental_uris":{"android":"levelo://app?vid=78faf8ab-fdd7-412f-902d-0fa7f6a56bc9","ios":"levelo://app?vid=78faf8ab-fdd7-412f-902d-0fa7f6a56bc9"},"vehicle_type_id":"4","last_reported":1740611339,"current_range_meters":18000,"station_id":"cki0cbj6b192h4jlfktg","pricing_plan_id":"cebpf4jnsgd1na2vs0mg"},{"bike_id":"f9cb66d8-5341-4f58-ade7-74e9dc87f85d","system_id":"levelo_inurba_marseille","lat":43.31172,"lon":5.38716,"is_reserved":false,"is_disabled":false,"rental_uris":{"android":"levelo://app?vid=f9cb66d8-5341-4f58-ade7-74e9dc87f85d","ios":"levelo://app?vid=f9cb66d8-5341-4f58-ade7-74e9dc87f85d"},"vehicle_type_id":"4","last_reported":1740611339,"current_range_meters":18000,"station_id":"ce4bgv12rcd13ifvqcp0","pricing_plan_id":"cebpf4jnsgd1na2vs0mg"},{"bike_id":"f1ac3114-0d4b-4a9b-9960-f283796fe758","system_id":"levelo_inurba_marseille","lat":43.28294,"lon":5.35106,"is_reserved":false,"is_disabled":false,"rental_uris":{"android":"levelo://app?vid=f1ac3114-0d4b-4a9b-9960-f283796fe758","ios":"levelo://app?vid=f1ac3114-0d4b-4a9b-9960-f283796fe758"},"vehicle_type_id":"4","last_reported":1740611339,"current_range_meters":18000,"station_id":"ce4bhbp2rcd13ifvqerg","pricing_plan_id":"cebpf4jnsgd1na2vs0mg"},{"bike_id":"aa41ce44-23f4-4860-9813-4d22ddbb744b","system_id":"levelo_inurba_marseille","lat":43.30588,"lon":5.39361,"is_reserved":false,"is_disabled":false,"rental_uris":{"android":"levelo://app?vid=aa41ce44-23f4-4860-9813-4d22ddbb744b","ios":"levelo://app?vid=aa41ce44-23f4-4860-9813-4d22ddbb744b"},"vehicle_type_id":"4","last_reported":1740611339,"current_range_meters":18000,"station_id":"ce4bh0p2rcd13ifvqd80","pricing_plan_id":"cebpf4jnsgd1na2vs0mg"},{"bike_id":"0e538aff-cab5-4886-979e-a6d3d6135864","system_id":"levelo_inurba_marseille","lat":43.2782,"lon":5.40707,"is_reserved":false,"is_disabled":false,"rental_uris":{"android":"levelo://app?vid=0e538aff-cab5-4886-979e-a6d3d6135864","ios":"levelo://app?vid=0e538aff-cab5-4886-979e-a6d3d6135864"},"vehicle_type_id":"4","last_reported":1740611339,"current_range_meters":18800,"station_id":"ce4bhnh2rcd13ifvqgtg","pricing_plan_id":"cebpf4jnsgd1na2vs0mg"},{"bike_id":"8e5970ad-dc10-42e4-955e-ae8f9c3e18b8","system_id":"levelo_inurba_marseille","lat":43.27961,"lon":5.41046,"is_reserved":false,"is_disabled":false,"rental_uris":{"android":"levelo://app?vid=8e5970ad-dc10-42e4-955e-ae8f9c3e18b8","ios":"levelo://app?vid=8e5970ad-dc10-42e4-955e-ae8f9c3e18b8"},"vehicle_type_id":"4","last_reported":1740611339,"current_range_meters":18000,"station_id":"ce4bhnp2rcd13ifvqh0g","pricing_plan_id":"cebpf4jnsgd1na2vs0mg"},{"bike_id":"ef77bf7f-5b88-41c9-8d3b-c8c9c0447dd9","system_id":"levelo_inurba_marseille","lat":43.2807,"lon":5.35032,"is_reserved":false,"is_disabled":false,"rental_uris":{"android":"levelo://app?vid=ef77bf7f-5b88-41c9-8d3b-c8c9c0447dd9","ios":"levelo://app?vid=ef77bf7f-5b88-41c9-8d3b-c8c9c0447dd9"},"vehicle_type_id":"4","last_reported":1740611339,"current_range_meters":18000,"station_id":"","pricing_plan_id":"cebpf4jnsgd1na2vs0mg"},{"bike_id":"0ffceea9-ca7f-496b-b9ee-c18123072cf4","system_id":"levelo_inurba_marseille","lat":43.3014,"lon":5.39859,"is_reserved":false,"is_disabled":false,"rental_uris":{"android":"levelo://app?vid=0ffceea9-ca7f-496b-b9ee-c18123072cf4","ios":"levelo://app?vid=0ffceea9-ca7f-496b-b9ee-c18123072cf4"},"vehicle_type_id":"4","last_reported":1740611339,"current_range_meters":18000,"station_id":"ce4bh0h2rcd13ifvqd40","pricing_plan_id":"cebpf4jnsgd1na2vs0mg"},{"bike_id":"8e6795ef-5cc7-4703-bc55-898144eada56","system_id":"levelo_inurba_marseille","lat":43.28397,"lon":5.34994,"is_reserved":false,"is_disabled":false,"rental_uris":{"android":"levelo://app?vid=8e6795ef-5cc7-4703-bc55-898144eada56","ios":"levelo://app?vid=8e6795ef-5cc7-4703-bc55-898144eada56"},"vehicle_type_id":"4","last_reported":1740611339,"current_range_meters":18000,"station_id":"ce4bhbh2rcd13ifvqepg","pricing_plan_id":"cebpf4jnsgd1na2vs0mg"},{"bike_id":"69166d8f-c1ce-46bb-b6f4-0fcaee044253","system_id":"levelo_inurba_marseille","lat":43.26517,"lon":5.39052,"is_reserved":false,"is_disabled":false,"rental_uris":{"android":"levelo://app?vid=69166d8f-c1ce-46bb-b6f4-0fcaee044253","ios":"levelo://app?vid=69166d8f-c1ce-46bb-b6f4-0fcaee044253"},"vehicle_type_id":"4","last_reported":1740611339,"current_range_meters":18800,"station_id":"ce4bhe12rcd13ifvqf30","pricing_plan_id":"cebpf4jnsgd1na2vs0mg"},{"bike_id":"055e4e05-bc00-47a1-ba3f-c80362c5907e","system_id":"levelo_inurba_marseille","lat":43.31164,"lon":5.38723,"is_reserved":false,"is_disabled":false,"rental_uris":{"android":"levelo://app?vid=055e4e05-bc00-47a1-ba3f-c80362c5907e","ios":"levelo://app?vid=055e4e05-bc00-47a1-ba3f-c80362c5907e"},"vehicle_type_id":"4","last_reported":1740611339,"current_range_meters":17600,"station_id":"ce4bgv12rcd13ifvqcp0","pricing_plan_id":"cebpf4jnsgd1na2vs0mg"},{"bike_id":"31c58e5d-9342-432b-b32a-4dfcdf1667fa","system_id":"levelo_inurba_marseille","lat":43.2439,"lon":5.37041,"is_reserved":false,"is_disabled":false,"rental_uris":{"android":"levelo://app?vid=31c58e5d-9342-432b-b32a-4dfcdf1667fa","ios":"levelo://app?vid=31c58e5d-9342-432b-b32a-4dfcdf1667fa"},"vehicle_type_id":"4","last_reported":1740611339,"current_range_meters":18000,"station_id":"ce4bhhh2rcd13ifvqfk0","pricing_plan_id":"cebpf4jnsgd1na2vs0mg"},{"bike_id":"07e71897-7b0a-4f02-b034-4876af832b3a","system_id":"levelo_inurba_marseille","lat":43.28276,"lon":5.35078,"is_reserved":false,"is_disabled":false,"rental_uris":{"android":"levelo://app?vid=07e71897-7b0a-4f02-b034-4876af832b3a","ios":"levelo://app?vid=07e71897-7b0a-4f02-b034-4876af832b3a"},"vehicle_type_id":"4","last_reported":1740611339,"current_range_meters":18800,"station_id":"ce4bhbp2rcd13ifvqerg","pricing_plan_id":"cebpf4jnsgd1na2vs0mg"},{"bike_id":"a15d7fa4-2269-42f0-a671-9145475a30a1","system_id":"levelo_inurba_marseille","lat":43.30408,"lon":5.38903,"is_reserved":false,"is_disabled":false,"rental_uris":{"android":"levelo://app?vid=a15d7fa4-2269-42f0-a671-9145475a30a1","ios":"levelo://app?vid=a15d7fa4-2269-42f0-a671-9145475a30a1"},"vehicle_type_id":"4","last_reported":1740611339,"current_range_meters":19200,"station_id":"ce4bgk12rcd13ifvqbi0","pricing_plan_id":"cebpf4jnsgd1na2vs0mg"},{"bike_id":"c45131f9-12d6-49cd-bb97-ba5378f1f25d","system_id":"levelo_inurba_marseille","lat":43.28739,"lon":5.37383,"is_reserved":false,"is_disabled":false,"rental_uris":{"android":"levelo://app?vid=c45131f9-12d6-49cd-bb97-ba5378f1f25d","ios":"levelo://app?vid=c45131f9-12d6-49cd-bb97-ba5378f1f25d"},"vehicle_type_id":"4","last_reported":1740611339,"current_range_meters":18800,"station_id":"ce4bh3p2rcd13ifvqdq0","pricing_plan_id":"cebpf4jnsgd1na2vs0mg"},{"bike_id":"6755398d-5629-4336-b10b-5678360bad01","system_id":"levelo_inurba_marseille","lat":43.28004,"lon":5.36964,"is_reserved":false,"is_disabled":false,"rental_uris":{"android":"levelo://app?vid=6755398d-5629-4336-b10b-5678360bad01","ios":"levelo://app?vid=6755398d-5629-4336-b10b-5678360bad01"},"vehicle_type_id":"4","last_reported":1740611339,"current_range_meters":18800,"station_id":"ce4bha12rcd13ifvqef0","pricing_plan_id":"cebpf4jnsgd1na2vs0mg"},{"bike_id":"a3330923-f009-4b12-b123-0f1e45378e96","system_id":"levelo_inurba_marseille","lat":43.25107,"lon":5.40318,"is_reserved":false,"is_disabled":false,"rental_uris":{"android":"levelo://app?vid=a3330923-f009-4b12-b123-0f1e45378e96","ios":"levelo://app?vid=a3330923-f009-4b12-b123-0f1e45378e96"},"vehicle_type_id":"4","last_reported":1740611339,"current_range_meters":18000,"station_id":"ce4bhlh2rcd13ifvqgig","pricing_plan_id":"cebpf4jnsgd1na2vs0mg"},{"bike_id":"4a6e4dab-77e7-4727-9943-ddb1faa90067","system_id":"levelo_inurba_marseille","lat":43.29899,"lon":5.43661,"is_reserved":false,"is_disabled":false,"rental_uris":{"android":"levelo://app?vid=4a6e4dab-77e7-4727-9943-ddb1faa90067","ios":"levelo://app?vid=4a6e4dab-77e7-4727-9943-ddb1faa90067"},"vehicle_type_id":"4","last_reported":1740611339,"current_range_meters":18800,"station_id":"ce4bhpp2rcd13ifvqhfg","pricing_plan_id":"cebpf4jnsgd1na2vs0mg"},{"bike_id":"2675981e-9b6f-4016-9feb-800927de94b3","system_id":"levelo_inurba_marseille","lat":43.31112,"lon":5.37772,"is_reserved":false,"is_disabled":false,"rental_uris":{"android":"levelo://app?vid=2675981e-9b6f-4016-9feb-800927de94b3","ios":"levelo://app?vid=2675981e-9b6f-4016-9feb-800927de94b3"},"vehicle_type_id":"4","last_reported":1740611339,"current_range_meters":18800,"station_id":"ce4bgt92rcd13ifvqcg0","pricing_plan_id":"cebpf4jnsgd1na2vs0mg"},{"bike_id":"497c81e2-f6a9-4a01-b17c-7a1678788bd8","system_id":"levelo_inurba_marseille","lat":43.2872,"lon":5.37387,"is_reserved":false,"is_disabled":false,"rental_uris":{"android":"levelo://app?vid=497c81e2-f6a9-4a01-b17c-7a1678788bd8","ios":"levelo://app?vid=497c81e2-f6a9-4a01-b17c-7a1678788bd8"},"vehicle_type_id":"4","last_reported":1740611339,"current_range_meters":21600,"station_id":"ce4bh3p2rcd13ifvqdq0","pricing_plan_id":"cebpf4jnsgd1na2vs0mg"},{"bike_id":"3f5e4c77-943b-4a46-b257-614bf13afec4","system_id":"levelo_inurba_marseille","lat":43.24168,"lon":5.36389,"is_reserved":false,"is_disabled":false,"rental_uris":{"android":"levelo://app?vid=3f5e4c77-943b-4a46-b257-614bf13afec4","ios":"levelo://app?vid=3f5e4c77-943b-4a46-b257-614bf13afec4"},"vehicle_type_id":"4","last_reported":1740611339,"current_range_meters":18800,"station_id":"cpo36qri1sfpv3e86is0","pricing_plan_id":"cebpf4jnsgd1na2vs0mg"},{"bike_id":"2500d8f6-0a3a-4b62-87a5-3637dd8635ff","system_id":"levelo_inurba_marseille","lat":43.30145,"lon":5.39883,"is_reserved":false,"is_disabled":false,"rental_uris":{"android":"levelo://app?vid=2500d8f6-0a3a-4b62-87a5-3637dd8635ff","ios":"levelo://app?vid=2500d8f6-0a3a-4b62-87a5-3637dd8635ff"},"vehicle_type_id":"4","last_reported":1740611339,"current_range_meters":18800,"station_id":"ce4bh0h2rcd13ifvqd40","pricing_plan_id":"cebpf4jnsgd1na2vs0mg"},{"bike_id":"df31c7b7-88a8-40b1-b01a-fdb544dc3310","system_id":"levelo_inurba_marseille","lat":43.29042,"lon":5.35911,"is_reserved":false,"is_disabled":false,"rental_uris":{"android":"levelo://app?vid=df31c7b7-88a8-40b1-b01a-fdb544dc3310","ios":"levelo://app?vid=df31c7b7-88a8-40b1-b01a-fdb544dc3310"},"vehicle_type_id":"4","last_reported":1740611339,"current_range_meters":18800,"station_id":"ce4bha92rcd13ifvqeg0","pricing_plan_id":"cebpf4jnsgd1na2vs0mg"},{"bike_id":"a424d550-c6cc-41aa-a556-0658fe8b69da","system_id":"levelo_inurba_marseille","lat":43.28546,"lon":5.39495,"is_reserved":false,"is_disabled":false,"rental_uris":{"android":"levelo://app?vid=a424d550-c6cc-41aa-a556-0658fe8b69da","ios":"levelo://app?vid=a424d550-c6cc-41aa-a556-0658fe8b69da"},"vehicle_type_id":"4","last_reported":1740611339,"current_range_meters":18800,"station_id":"ce4bh292rcd13ifvqdg0","pricing_plan_id":"cebpf4jnsgd1na2vs0mg"},{"bike_id":"8b4a504d-5def-451e-a1be-23e8b0228190","system_id":"levelo_inurba_marseille","lat":43.3093,"lon":5.40141,"is_reserved":false,"is_disabled":false,"rental_uris":{"android":"levelo://app?vid=8b4a504d-5def-451e-a1be-23e8b0228190","ios":"levelo://app?vid=8b4a504d-5def-451e-a1be-23e8b0228190"},"vehicle_type_id":"4","last_reported":1740611339,"current_range_meters":18800,"station_id":"ce4bgvp2rcd13ifvqct0","pricing_plan_id":"cebpf4jnsgd1na2vs0mg"},{"bike_id":"d93602e4-ef44-42f5-bb82-9da7a7cd890a","system_id":"levelo_inurba_marseille","lat":43.28005,"lon":5.40003,"is_reserved":false,"is_disabled":false,"rental_uris":{"android":"levelo://app?vid=d93602e4-ef44-42f5-bb82-9da7a7cd890a","ios":"levelo://app?vid=d93602e4-ef44-42f5-bb82-9da7a7cd890a"},"vehicle_type_id":"4","last_reported":1740611339,"current_range_meters":18800,"station_id":"ce4bho92rcd13ifvqh4g","pricing_plan_id":"cebpf4jnsgd1na2vs0mg"},{"bike_id":"201ea875-dcfb-46bc-8b15-e3348accddfb","system_id":"levelo_inurba_marseille","lat":43.28407,"lon":5.35004,"is_reserved":false,"is_disabled":false,"rental_uris":{"android":"levelo://app?vid=201ea875-dcfb-46bc-8b15-e3348accddfb","ios":"levelo://app?vid=201ea875-dcfb-46bc-8b15-e3348accddfb"},"vehicle_type_id":"4","last_reported":1740611339,"current_range_meters":18800,"station_id":"ce4bhbh2rcd13ifvqepg","pricing_plan_id":"cebpf4jnsgd1na2vs0mg"},{"bike_id":"9e55b257-0901-4099-94e8-0be5d2d6fac4","system_id":"levelo_inurba_marseille","lat":43.304275,"lon":5.388887,"is_reserved":false,"is_disabled":false,"rental_uris":{"android":"levelo://app?vid=9e55b257-0901-4099-94e8-0be5d2d6fac4","ios":"levelo://app?vid=9e55b257-0901-4099-94e8-0be5d2d6fac4"},"vehicle_type_id":"4","last_reported":1740611339,"current_range_meters":18800,"station_id":"ce4bgk12rcd13ifvqbi0","pricing_plan_id":"cebpf4jnsgd1na2vs0mg"},{"bike_id":"c44bdca3-46ab-4cc5-9135-ceeaec0964d2","system_id":"levelo_inurba_marseille","lat":43.28098,"lon":5.37881,"is_reserved":false,"is_disabled":false,"rental_uris":{"android":"levelo://app?vid=c44bdca3-46ab-4cc5-9135-ceeaec0964d2","ios":"levelo://app?vid=c44bdca3-46ab-4cc5-9135-ceeaec0964d2"},"vehicle_type_id":"4","last_reported":1740611339,"current_range_meters":18800,"station_id":"ce4bha12rcd13ifvqee0","pricing_plan_id":"cebpf4jnsgd1na2vs0mg"},{"bike_id":"28b8f428-ea09-4e67-b3b0-79c295ceab1f","system_id":"levelo_inurba_marseille","lat":43.29316,"lon":5.37185,"is_reserved":false,"is_disabled":false,"rental_uris":{"android":"levelo://app?vid=28b8f428-ea09-4e67-b3b0-79c295ceab1f","ios":"levelo://app?vid=28b8f428-ea09-4e67-b3b0-79c295ceab1f"},"vehicle_type_id":"4","last_reported":1740611339,"current_range_meters":19200,"station_id":"ce4bgh92rcd13ifvqb40","pricing_plan_id":"cebpf4jnsgd1na2vs0mg"},{"bike_id":"b0d65645-9be0-4a60-ba62-757f335d603e","system_id":"levelo_inurba_marseille","lat":43.25081,"lon":5.39511,"is_reserved":false,"is_disabled":false,"rental_uris":{"android":"levelo://app?vid=b0d65645-9be0-4a60-ba62-757f335d603e","ios":"levelo://app?vid=b0d65645-9be0-4a60-ba62-757f335d603e"},"vehicle_type_id":"4","last_reported":1740611339,"current_range_meters":19200,"station_id":"ce4bhm12rcd13ifvqgkg","pricing_plan_id":"cebpf4jnsgd1na2vs0mg"},{"bike_id":"43d6aa6f-20c7-4a1b-bcb8-31b660876567","system_id":"levelo_inurba_marseille","lat":43.26556,"lon":5.37291,"is_reserved":false,"is_disabled":false,"rental_uris":{"android":"levelo://app?vid=43d6aa6f-20c7-4a1b-bcb8-31b660876567","ios":"levelo://app?vid=43d6aa6f-20c7-4a1b-bcb8-31b660876567"},"vehicle_type_id":"4","last_reported":1740611339,"current_range_meters":19200,"station_id":"ce4bhg12rcd13ifvqf70","pricing_plan_id":"cebpf4jnsgd1na2vs0mg"},{"bike_id":"55c7edab-00a1-472f-8b7d-0fc541440b53","system_id":"levelo_inurba_marseille","lat":43.279785,"lon":5.387377,"is_reserved":false,"is_disabled":false,"rental_uris":{"android":"levelo://app?vid=55c7edab-00a1-472f-8b7d-0fc541440b53","ios":"levelo://app?vid=55c7edab-00a1-472f-8b7d-0fc541440b53"},"vehicle_type_id":"4","last_reported":1740611339,"current_range_meters":19200,"station_id":"ce4bhg12rcd13ifvqf80","pricing_plan_id":"cebpf4jnsgd1na2vs0mg"},{"bike_id":"26323dc2-e8b2-43f9-80bb-1c7b85e1a16d","system_id":"levelo_inurba_marseille","lat":43.28418,"lon":5.3498,"is_reserved":false,"is_disabled":false,"rental_uris":{"android":"levelo://app?vid=26323dc2-e8b2-43f9-80bb-1c7b85e1a16d","ios":"levelo://app?vid=26323dc2-e8b2-43f9-80bb-1c7b85e1a16d"},"vehicle_type_id":"4","last_reported":1740611339,"current_range_meters":19200,"station_id":"ce4bhbh2rcd13ifvqepg","pricing_plan_id":"cebpf4jnsgd1na2vs0mg"},{"bike_id":"4aeb7717-91a8-458b-a368-917129279353","system_id":"levelo_inurba_marseille","lat":43.26922,"lon":5.40252,"is_reserved":false,"is_disabled":false,"rental_uris":{"android":"levelo://app?vid=4aeb7717-91a8-458b-a368-917129279353","ios":"levelo://app?vid=4aeb7717-91a8-458b-a368-917129279353"},"vehicle_type_id":"4","last_reported":1740611339,"current_range_meters":19200,"station_id":"cjm6bp8fraef2m0cb0m0","pricing_plan_id":"cebpf4jnsgd1na2vs0mg"},{"bike_id":"786ebbca-c760-4823-bfcd-65363bf4c0fe","system_id":"levelo_inurba_marseille","lat":43.31713,"lon":5.43703,"is_reserved":false,"is_disabled":false,"rental_uris":{"android":"levelo://app?vid=786ebbca-c760-4823-bfcd-65363bf4c0fe","ios":"levelo://app?vid=786ebbca-c760-4823-bfcd-65363bf4c0fe"},"vehicle_type_id":"4","last_reported":1740611339,"current_range_meters":19200,"station_id":"ce4bhp92rcd13ifvqhcg","pricing_plan_id":"cebpf4jnsgd1na2vs0mg"},{"bike_id":"304df838-b133-4174-bfb6-4755460cc02a","system_id":"levelo_inurba_marseille","lat":43.2862,"lon":5.35093,"is_reserved":false,"is_disabled":false,"rental_uris":{"android":"levelo://app?vid=304df838-b133-4174-bfb6-4755460cc02a","ios":"levelo://app?vid=304df838-b133-4174-bfb6-4755460cc02a"},"vehicle_type_id":"4","last_reported":1740611339,"current_range_meters":19200,"station_id":"ce4bhch2rcd13ifvqeug","pricing_plan_id":"cebpf4jnsgd1na2vs0mg"},{"bike_id":"10194aa5-b5c0-44a6-8a7e-78c3d138ed8b","system_id":"levelo_inurba_marseille","lat":43.28601,"lon":5.37071,"is_reserved":false,"is_disabled":false,"rental_uris":{"android":"levelo://app?vid=10194aa5-b5c0-44a6-8a7e-78c3d138ed8b","ios":"levelo://app?vid=10194aa5-b5c0-44a6-8a7e-78c3d138ed8b"},"vehicle_type_id":"4","last_reported":1740611339,"current_range_meters":19200,"station_id":"ce4bht12rcd13ifvqi60","pricing_plan_id":"cebpf4jnsgd1na2vs0mg"},{"bike_id":"e4d0b515-254a-4741-b117-890a48c4b3ac","system_id":"levelo_inurba_marseille","lat":43.28342,"lon":5.38631,"is_reserved":false,"is_disabled":false,"rental_uris":{"android":"levelo://app?vid=e4d0b515-254a-4741-b117-890a48c4b3ac","ios":"levelo://app?vid=e4d0b515-254a-4741-b117-890a48c4b3ac"},"vehicle_type_id":"4","last_reported":1740611339,"current_range_meters":19200,"station_id":"ce4bh492rcd13ifvqdvg","pricing_plan_id":"cebpf4jnsgd1na2vs0mg"},