{"last_updated":1744315908,"ttl":60,"version":"2.2","data":{"bikes":[{"bike_id":"fff87a7f-6766-4f8a-8d22-1d9d21fe9e0d","system_id":"levelo_inurba_marseille","lat":43.288407,"lon":5.39304,"is_reserved":false,"is_disabled":true,"rental_uris":{"android":"levelo://app?vid=fff87a7f-6766-4f8a-8d22-1d9d21fe9e0d","ios":"levelo://app?vid=fff87a7f-6766-4f8a-8d22-1d9d21fe9e0d"},"vehicle_type_id":"4","last_reported":1744315908,"current_range_meters":2800,"station_id":"ce4bh2p2rcd13ifvqdi0","pricing_plan_id":"cebpf4jnsgd1na2vs0mg"},{"bike_id":"5855c9ce-3014-4ed1-adee-16a6e9e5aa56","system_id":"levelo_inurba_marseille","lat":43.28703,"lon":5.37921,"is_reserved":false,"is_disabled":false,"rental_uris":{"android":"levelo://app?vid=5855c9ce-3014-4ed1-adee-16a6e9e5aa56","ios":"levelo://app?vid=5855c9ce-3014-4ed1-adee-16a6e9e5aa56"},"vehicle_type_id":"4","last_reported":1744315908,"current_range_meters":2800,"station_id":"ce4bh9p2rcd13ifvqec0","pricing_plan_id":"cebpf4jnsgd1na2vs0mg"},{"bike_id":"80663e12-6b64-446d-88c9-20255bde1a8a","system_id":"levelo_inurba_marseille","lat":43.30899,"lon":5.39679,"is_reserved":false,"is_disabled":true,"rental_uris":{"android":"levelo://app?vid=80663e12-6b64-446d-88c9-20255bde1a8a","ios":"levelo://app?vid=80663e12-6b64-446d-88c9-20255bde1a8a"},"vehicle_type_id":"4","last_reported":1744315908,"current_range_meters":2800,"station_id":"ce4bh012rcd13ifvqcv0","pricing_plan_id":"cebpf4jnsgd1na2vs0mg"},{"bike_id":"3a5d5587-b23d-4114-aad1-1efc1909a514","system_id":"levelo_inurba_marseille","lat":43.27906,"lon":5.37998,"is_reserved":false,"is_disabled":true,"rental_uris":{"android":"levelo://app?vid=3a5d5587-b23d-4114-aad1-1efc1909a514","ios":"levelo://app?vid=3a5d5587-b23d-4114-aad1-1efc1909a514"},"vehicle_type_id":"4","last_reported":1744315908,"current_range_meters":2800,"station_id":"ce4bhf92rcd13ifvqf50","pricing_plan_id":"cebpf4jnsgd1na2vs0mg"},{"bike_id":"228bb6d8-2d94-4b2c-8526-8312b79763f1","system_id":"levelo_inurba_marseille","lat":43.28101,"lon":5.37842,"is_reserved":false,"is_disabled":false,"rental_uris":{"android":"levelo://app?vid=228bb6d8-2d94-4b2c-8526-8312b79763f1","ios":"levelo://app?vid=228bb6d8-2d94-4b2c-8526-8312b79763f1"},"vehicle_type_id":"4","last_reported":1744315908,"current_range_meters":2800,"station_id":"ce4bha12rcd13ifvqee0","pricing_plan_id":"cebpf4jnsgd1na2vs0mg"},{"bike_id":"caf2e612-0d07-4975-a511-be1f176bfca5","system_id":"levelo_inurba_marseille","lat":43.247743,"lon":5.400249,"is_reserved":false,"is_disabled":true,"rental_uris":{"android":"levelo://app?vid=caf2e612-0d07-4975-a511-be1f176bfca5","ios":"levelo://app?vid=caf2e612-0d07-4975-a511-be1f176bfca5"},"vehicle_type_id":"4","last_reported":1744315908,"current_range_meters":2800,"station_id":"","pricing_plan_id":"cebpf4jnsgd1na2vs0mg"},{"bike_id":"a9110417-81ea-4e8d-b75e-9dc9cbfc5257","system_id":"levelo_inurba_marseille","lat":43.308058,"lon":5.381533,"is_reserved":false,"is_disabled":false,"rental_uris":{"android":"levelo://app?vid=a9110417-81ea-4e8d-b75e-9dc9cbfc5257","ios":"levelo://app?vid=a9110417-81ea-4e8d-b75e-9dc9cbfc5257"},"vehicle_type_id":"4","last_reported":1744315908,"current_range_meters":2800,"station_id":"ce4bgt12rcd13ifvqce0","pricing_plan_id":"cebpf4jnsgd1na2vs0mg"},{"bike_id":"8aea6885-47b7-45fa-b8f0-9642aa581704","system_id":"levelo_inurba_marseille","lat":43.31326,"lon":5.39691,"is_reserved":false,"is_disabled":false,"rental_uris":{"android":"levelo://app?vid=8aea6885-47b7-45fa-b8f0-9642aa581704","ios":"levelo://app?vid=8aea6885-47b7-45fa-b8f0-9642aa581704"},"vehicle_type_id":"4","last_reported":1744315908,"current_range_meters":3200,"station_id":"ce4bgvp2rcd13ifvqcu0","pricing_plan_id":"cebpf4jnsgd1na2vs0mg"},{"bike_id":"c4cca64d-9799-43d5-80a4-f5b178e0a0e7","system_id":"levelo_inurba_marseille","lat":43.25001,"lon":5.38921,"is_reserved":false,"is_disabled":false,"rental_uris":{"android":"levelo://app?vid=c4cca64d-9799-43d5-80a4-f5b178e0a0e7","ios":"levelo://app?vid=c4cca64d-9799-43d5-80a4-f5b178e0a0e7"},"vehicle_type_id":"4","last_reported":1744315908,"current_range_meters":3200,"station_id":"ce4bhgp2rcd13ifvqfd0","pricing_plan_id":"cebpf4jnsgd1na2vs0mg"},{"bike_id":"0b21fe4d-ba57-47d7-bd39-a1832bc69444","system_id":"levelo_inurba_marseille","lat":43.262785,"lon":5.374403,"is_reserved":false,"is_disabled":false,"rental_uris":{"android":"levelo://app?vid=0b21fe4d-ba57-47d7-bd39-a1832bc69444","ios":"levelo://app?vid=0b21fe4d-ba57-47d7-bd39-a1832bc69444"},"vehicle_type_id":"4","last_reported":1744315908,"current_range_meters":3200,"station_id":"","pricing_plan_id":"cebpf4jnsgd1na2vs0mg"},{"bike_id":"91999e49-f985-4fcd-948e-f0e7a4b0016e","system_id":"levelo_inurba_marseille","lat":43.2868,"lon":5.38662,"is_reserved":false,"is_disabled":false,"rental_uris":{"android":"levelo://app?vid=91999e49-f985-4fcd-948e-f0e7a4b0016e","ios":"levelo://app?vid=91999e49-f985-4fcd-948e-f0e7a4b0016e"},"vehicle_type_id":"4","last_reported":1744315908,"current_range_meters":3600,"station_id":"ce4bh492rcd13ifvqdug","pricing_plan_id":"cebpf4jnsgd1na2vs0mg"},{"bike_id":"7a06fc79-e49d-4778-9cec-9bdf00b92342","system_id":"levelo_inurba_marseille","lat":43.303232,"lon":5.404355,"is_reserved":false,"is_disabled":true,"rental_uris":{"android":"levelo://app?vid=7a06fc79-e49d-4778-9cec-9bdf00b92342","ios":"levelo://app?vid=7a06fc79-e49d-4778-9cec-9bdf00b92342"},"vehicle_type_id":"4","last_reported":1744315908,"current_range_meters":3600,"station_id":"ce4bh012rcd13ifvqd10","pricing_plan_id":"cebpf4jnsgd1na2vs0mg"},{"bike_id":"807456d8-87c0-4fc6-b876-d1e72ab7ed13","system_id":"levelo_inurba_marseille","lat":43.28339,"lon":5.3811,"is_reserved":false,"is_disabled":false,"rental_uris":{"android":"levelo://app?vid=807456d8-87c0-4fc6-b876-d1e72ab7ed13","ios":"levelo://app?vid=807456d8-87c0-4fc6-b876-d1e72ab7ed13"},"vehicle_type_id":"4","last_reported":1744315908,"current_range_meters":3600,"station_id":"ce4bh412rcd13ifvqdr0","pricing_plan_id":"cebpf4jnsgd1na2vs0mg"},{"bike_id":"08f9c0c8-8b33-4578-8a03-20f44d582241","system_id":"levelo_inurba_marseille","lat":43.30527,"lon":5.36941,"is_reserved":false,"is_disabled":false,"rental_uris":{"android":"levelo://app?vid=08f9c0c8-8b33-4578-8a03-20f44d582241","ios":"levelo://app?vid=08f9c0c8-8b33-4578-8a03-20f44d582241"},"vehicle_type_id":"4","last_reported":1744315908,"current_range_meters":4000,"station_id":"","pricing_plan_id":"cebpf4jnsgd1na2vs0mg"},{"bike_id":"31f216d5-3fa9-4c09-a518-2f9232b7fe04","system_id":"levelo_inurba_marseille","lat":43.30933,"lon":5.40145,"is_reserved":false,"is_disabled":false,"rental_uris":{"android":"levelo://app?vid=31f216d5-3fa9-4c09-a518-2f9232b7fe04","ios":"levelo://app?vid=31f216d5-3fa9-4c09-a518-2f9232b7fe04"},"vehicle_type_id":"4","last_reported":1744315908,"current_range_meters":4000,"station_id":"ce4bgvp2rcd13ifvqct0","pricing_plan_id":"cebpf4jnsgd1na2vs0mg"},{"bike_id":"3dbd53ff-4a57-4772-a642-83be2a39da35","system_id":"levelo_inurba_marseille","lat":43.29974,"lon":5.38529,"is_reserved":false,"is_disabled":false,"rental_uris":{"android":"levelo://app?vid=3dbd53ff-4a57-4772-a642-83be2a39da35","ios":"levelo://app?vid=3dbd53ff-4a57-4772-a642-83be2a39da35"},"vehicle_type_id":"4","last_reported":1744315908,"current_range_meters":4000,"station_id":"ce4bgj92rcd13ifvqbd0","pricing_plan_id":"cebpf4jnsgd1na2vs0mg"},{"bike_id":"a8b211e3-6147-4441-a4fa-b8ed390074b5","system_id":"levelo_inurba_marseille","lat":43.298,"lon":5.38097,"is_reserved":false,"is_disabled":false,"rental_uris":{"android":"levelo://app?vid=a8b211e3-6147-4441-a4fa-b8ed390074b5","ios":"levelo://app?vid=a8b211e3-6147-4441-a4fa-b8ed390074b5"},"vehicle_type_id":"4","last_reported":1744315908,"current_range_meters":4000,"station_id":"ce4bgip2rcd13ifvqbb0","pricing_plan_id":"cebpf4jnsgd1na2vs0mg"},{"bike_id":"345a27ac-b42f-4e35-9473-442738ecfb0c","system_id":"levelo_inurba_marseille","lat":43.283852,"lon":5.375155,"is_reserved":false,"is_disabled":false,"rental_uris":{"android":"levelo://app?vid=345a27ac-b42f-4e35-9473-442738ecfb0c","ios":"levelo://app?vid=345a27ac-b42f-4e35-9473-442738ecfb0c"},"vehicle_type_id":"4","last_reported":1744315908,"current_range_meters":4000,"station_id":"","pricing_plan_id":"cebpf4jnsgd1na2vs0mg"},{"bike_id":"28c2ee12-2948-4d1e-8706-f445681bfdff","system_id":"levelo_inurba_marseille","lat":43.31649,"lon":5.38756,"is_reserved":false,"is_disabled":true,"rental_uris":{"android":"levelo://app?vid=28c2ee12-2948-4d1e-8706-f445681bfdff","ios":"levelo://app?vid=28c2ee12-2948-4d1e-8706-f445681bfdff"},"vehicle_type_id":"4","last_reported":1744315908,"current_range_meters":4000,"station_id":"","pricing_plan_id":"cebpf4jnsgd1na2vs0mg"},{"bike_id":"1d51e0f7-178c-4ae3-88a2-488d4f01b826","system_id":"levelo_inurba_marseille","lat":43.28227,"lon":5.42354,"is_reserved":false,"is_disabled":false,"rental_uris":{"android":"levelo://app?vid=1d51e0f7-178c-4ae3-88a2-488d4f01b826","ios":"levelo://app?vid=1d51e0f7-178c-4ae3-88a2-488d4f01b826"},"vehicle_type_id":"4","last_reported":1744315908,"current_range_meters":4400,"station_id":"","pricing_plan_id":"cebpf4jnsgd1na2vs0mg"},{"bike_id":"a1675bd0-1410-477c-86a8-cfdebb45a55a","system_id":"levelo_inurba_marseille","lat":43.28338,"lon":5.38115,"is_reserved":false,"is_disabled":true,"rental_uris":{"android":"levelo://app?vid=a1675bd0-1410-477c-86a8-cfdebb45a55a","ios":"levelo://app?vid=a1675bd0-1410-477c-86a8-cfdebb45a55a"},"vehicle_type_id":"4","last_reported":1744315908,"current_range_meters":4400,"station_id":"ce4bh412rcd13ifvqdr0","pricing_plan_id":"cebpf4jnsgd1na2vs0mg"},{"bike_id":"4e586dd9-df43-4fb1-adc0-764a36ef2b80","system_id":"levelo_inurba_marseille","lat":43.30089,"lon":5.39091,"is_reserved":false,"is_disabled":false,"rental_uris":{"android":"levelo://app?vid=4e586dd9-df43-4fb1-adc0-764a36ef2b80","ios":"levelo://app?vid=4e586dd9-df43-4fb1-adc0-764a36ef2b80"},"vehicle_type_id":"4","last_reported":1744315908,"current_range_meters":4400,"station_id":"ce4bh192rcd13ifvqdb0","pricing_plan_id":"cebpf4jnsgd1na2vs0mg"},{"bike_id":"f0e98d81-0117-4b68-ad1c-512aceae0e2e","system_id":"levelo_inurba_marseille","lat":43.290956,"lon":5.381514,"is_reserved":false,"is_disabled":false,"rental_uris":{"android":"levelo://app?vid=f0e98d81-0117-4b68-ad1c-512aceae0e2e","ios":"levelo://app?vid=f0e98d81-0117-4b68-ad1c-512aceae0e2e"},"vehicle_type_id":"4","last_reported":1744315908,"current_range_meters":4400,"station_id":"ce4bh512rcd13ifvqe2g","pricing_plan_id":"cebpf4jnsgd1na2vs0mg"},{"bike_id":"a4e712d6-a598-44c2-bfae-ca2721fbcd57","system_id":"levelo_inurba_marseille","lat":43.303229,"lon":5.404356,"is_reserved":false,"is_disabled":false,"rental_uris":{"android":"levelo://app?vid=a4e712d6-a598-44c2-bfae-ca2721fbcd57","ios":"levelo://app?vid=a4e712d6-a598-44c2-bfae-ca2721fbcd57"},"vehicle_type_id":"4","last_reported":1744315908,"current_range_meters":4800,"station_id":"ce4bh012rcd13ifvqd10","pricing_plan_id":"cebpf4jnsgd1na2vs0mg"},{"bike_id":"4343fb13-bbf5-45f7-9ca0-9eccac2a1201","system_id":"levelo_inurba_marseille","lat":43.29034,"lon":5.39966,"is_reserved":false,"is_disabled":false,"rental_uris":{"android":"levelo://app?vid=4343fb13-bbf5-45f7-9ca0-9eccac2a1201","ios":"levelo://app?vid=4343fb13-bbf5-45f7-9ca0-9eccac2a1201"},"vehicle_type_id":"4","last_reported":1744315908,"current_range_meters":2000,"station_id":"ce4bh392rcd13ifvqdm0","pricing_plan_id":"cebpf4jnsgd1na2vs0mg"},{"bike_id":"cc150e3d-fd24-4fe2-b34c-44e94f73276f","system_id":"levelo_inurba_marseille","lat":43.3173,"lon":5.42398,"is_reserved":false,"is_disabled":false,"rental_uris":{"android":"levelo://app?vid=cc150e3d-fd24-4fe2-b34c-44e94f73276f","ios":"levelo://app?vid=cc150e3d-fd24-4fe2-b34c-44e94f73276f"},"vehicle_type_id":"4","last_reported":1744315908,"current_range_meters":4800,"station_id":"ce4bhp92rcd13ifvqhbg","pricing_plan_id":"cebpf4jnsgd1na2vs0mg"},{"bike_id":"488970c7-ad85-4166-a4ad-456252c5bcc5","system_id":"levelo_inurba_marseille","lat":43.27315,"lon":5.429,"is_reserved":false,"is_disabled":false,"rental_uris":{"android":"levelo://app?vid=488970c7-ad85-4166-a4ad-456252c5bcc5","ios":"levelo://app?vid=488970c7-ad85-4166-a4ad-456252c5bcc5"},"vehicle_type_id":"4","last_reported":1744315908,"current_range_meters":4800,"station_id":"","pricing_plan_id":"cebpf4jnsgd1na2vs0mg"},{"bike_id":"cdf7f30c-b91f-42b3-b758-22ad26becd66","system_id":"levelo_inurba_marseille","lat":43.2904,"lon":5.35938,"is_reserved":false,"is_disabled":true,"rental_uris":{"android":"levelo://app?vid=cdf7f30c-b91f-42b3-b758-22ad26becd66","ios":"levelo://app?vid=cdf7f30c-b91f-42b3-b758-22ad26becd66"},"vehicle_type_id":"4","last_reported":1744315908,"current_range_meters":5600,"station_id":"ce4bha92rcd13ifvqeg0","pricing_plan_id":"cebpf4jnsgd1na2vs0mg"},{"bike_id":"157843b7-895f-4ca6-82bc-7c250c302aba","system_id":"levelo_inurba_marseille","lat":43.28487,"lon":5.38421,"is_reserved":false,"is_disabled":false,"rental_uris":{"android":"levelo://app?vid=157843b7-895f-4ca6-82bc-7c250c302aba","ios":"levelo://app?vid=157843b7-895f-4ca6-82bc-7c250c302aba"},"vehicle_type_id":"4","last_reported":1744315908,"current_range_meters":5600,"station_id":"ce4bh512rcd13ifvqe3g","pricing_plan_id":"cebpf4jnsgd1na2vs0mg"},{"bike_id":"aa80f814-a305-4b54-8c31-84b823a1e3c7","system_id":"levelo_inurba_marseille","lat":43.28573,"lon":5.395,"is_reserved":false,"is_disabled":false,"rental_uris":{"android":"levelo://app?vid=aa80f814-a305-4b54-8c31-84b823a1e3c7","ios":"levelo://app?vid=aa80f814-a305-4b54-8c31-84b823a1e3c7"},"vehicle_type_id":"4","last_reported":1744315908,"current_range_meters":5600,"station_id":"ce4bh292rcd13ifvqdg0","pricing_plan_id":"cebpf4jnsgd1na2vs0mg"},{"bike_id":"c6327eb5-c784-40e7-a80a-be30589d93fa","system_id":"levelo_inurba_marseille","lat":43.29598,"lon":5.37677,"is_reserved":false,"is_disabled":false,"rental_uris":{"android":"levelo://app?vid=c6327eb5-c784-40e7-a80a-be30589d93fa","ios":"levelo://app?vid=c6327eb5-c784-40e7-a80a-be30589d93fa"},"vehicle_type_id":"4","last_reported":1744315908,"current_range_meters":5600,"station_id":"ce4bgi92rcd13ifvqb90","pricing_plan_id":"cebpf4jnsgd1na2vs0mg"},{"bike_id":"f2af1a5e-1169-4e00-9f06-1c9e6e95afaf","system_id":"levelo_inurba_marseille","lat":43.31836,"lon":5.40076,"is_reserved":false,"is_disabled":false,"rental_uris":{"android":"levelo://app?vid=f2af1a5e-1169-4e00-9f06-1c9e6e95afaf","ios":"levelo://app?vid=f2af1a5e-1169-4e00-9f06-1c9e6e95afaf"},"vehicle_type_id":"4","last_reported":1744315908,"current_range_meters":5600,"station_id":"","pricing_plan_id":"cebpf4jnsgd1na2vs0mg"},{"bike_id":"f8aeb67b-964f-476d-819d-4acf100c9c0c","system_id":"levelo_inurba_marseille","lat":43.23966,"lon":5.36634,"is_reserved":false,"is_disabled":false,"rental_uris":{"android":"levelo://app?vid=f8aeb67b-964f-476d-819d-4acf100c9c0c","ios":"levelo://app?vid=f8aeb67b-964f-476d-819d-4acf100c9c0c"},"vehicle_type_id":"4","last_reported":1744315908,"current_range_meters":5600,"station_id":"ce4bhi12rcd13ifvqfp0","pricing_plan_id":"cebpf4jnsgd1na2vs0mg"},{"bike_id":"add6f1f3-87ee-4fe9-8026-4a44b9d7cdbd","system_id":"levelo_inurba_marseille","lat":43.29367,"lon":5.37835,"is_reserved":false,"is_disabled":false,"rental_uris":{"android":"levelo://app?vid=add6f1f3-87ee-4fe9-8026-4a44b9d7cdbd","ios":"levelo://app?vid=add6f1f3-87ee-4fe9-8026-4a44b9d7cdbd"},"vehicle_type_id":"4","last_reported":1744315908,"current_range_meters":6000,"station_id":"ce4bgjh2rcd13ifvqbf0","pricing_plan_id":"cebpf4jnsgd1na2vs0mg"},{"bike_id":"e05c1e2a-1ed0-4ae5-8a58-08e26deb95b9","system_id":"levelo_inurba_marseille","lat":43.28733,"lon":5.44783,"is_reserved":false,"is_disabled":false,"rental_uris":{"android":"levelo://app?vid=e05c1e2a-1ed0-4ae5-8a58-08e26deb95b9","ios":"levelo://app?vid=e05c1e2a-1ed0-4ae5-8a58-08e26deb95b9"},"vehicle_type_id":"4","last_reported":1744315908,"current_range_meters":6000,"station_id":"","pricing_plan_id":"cebpf4jnsgd1na2vs0mg"},{"bike_id":"e115a2ea-217d-43a8-9108-e4edd516ee9e","system_id":"levelo_inurba_marseille","lat":43.28722,"lon":5.36077,"is_reserved":false,"is_disabled":false,"rental_uris":{"android":"levelo://app?vid=e115a2ea-217d-43a8-9108-e4edd516ee9e","ios":"levelo://app?vid=e115a2ea-217d-43a8-9108-e4edd516ee9e"},"vehicle_type_id":"4","last_reported":1744315908,"current_range_meters":6000,"station_id":"cki0cbj6b192h4jlfktg","pricing_plan_id":"cebpf4jnsgd1na2vs0mg"},{"bike_id":"948d0f56-f1c7-4f81-8715-8d5b1abbd134","system_id":"levelo_inurba_marseille","lat":43.2835,"lon":5.38102,"is_reserved":false,"is_disabled":false,"rental_uris":{"android":"levelo://app?vid=948d0f56-f1c7-4f81-8715-8d5b1abbd134","ios":"levelo://app?vid=948d0f56-f1c7-4f81-8715-8d5b1abbd134"},"vehicle_type_id":"4","last_reported":1744315908,"current_range_meters":5600,"station_id":"ce4bh412rcd13ifvqdr0","pricing_plan_id":"cebpf4jnsgd1na2vs0mg"},{"bike_id":"d4f3746d-fea6-47c1-bb43-1777f19358b3","system_id":"levelo_inurba_marseille","lat":43.30149,"lon":5.38754,"is_reserved":false,"is_disabled":false,"rental_uris":{"android":"levelo://app?vid=d4f3746d-fea6-47c1-bb43-1777f19358b3","ios":"levelo://app?vid=d4f3746d-fea6-47c1-bb43-1777f19358b3"},"vehicle_type_id":"4","last_reported":1744315908,"current_range_meters":6000,"station_id":"ce4bghh2rcd13ifvqb60","pricing_plan_id":"cebpf4jnsgd1na2vs0mg"},{"bike_id":"9548b4e3-0351-4fc8-9d7f-50466c468d40","system_id":"levelo_inurba_marseille","lat":43.23056,"lon":5.35493,"is_reserved":false,"is_disabled":false,"rental_uris":{"android":"levelo://app?vid=9548b4e3-0351-4fc8-9d7f-50466c468d40","ios":"levelo://app?vid=9548b4e3-0351-4fc8-9d7f-50466c468d40"},"vehicle_type_id":"4","last_reported":1744315908,"current_range_meters":6400,"station_id":"cpo3342slgdg3j2ifvpg","pricing_plan_id":"cebpf4jnsgd1na2vs0mg"},{"bike_id":"627403f8-4468-4a41-8798-323347b58cc9","system_id":"levelo_inurba_marseille","lat":43.27178,"lon":5.40996,"is_reserved":false,"is_disabled":false,"rental_uris":{"android":"levelo://app?vid=627403f8-4468-4a41-8798-323347b58cc9","ios":"levelo://app?vid=627403f8-4468-4a41-8798-323347b58cc9"},"vehicle_type_id":"4","last_reported":1744315908,"current_range_meters":6400,"station_id":"ce4bhl12rcd13ifvqgf0","pricing_plan_id":"cebpf4jnsgd1na2vs0mg"},{"bike_id":"76021347-cdb0-4170-8fa7-32f61a2a6094","system_id":"levelo_inurba_marseille","lat":43.24809,"lon":5.37461,"is_reserved":false,"is_disabled":false,"rental_uris":{"android":"levelo://app?vid=76021347-cdb0-4170-8fa7-32f61a2a6094","ios":"levelo://app?vid=76021347-cdb0-4170-8fa7-32f61a2a6094"},"vehicle_type_id":"4","last_reported":1744315908,"current_range_meters":6400,"station_id":"ce4bhgh2rcd13ifvqfb0","pricing_plan_id":"cebpf4jnsgd1na2vs0mg"},{"bike_id":"8f78fb23-fe4f-4dd7-b80f-99eaf12a8543","system_id":"levelo_inurba_marseille","lat":43.28437,"lon":5.39203,"is_reserved":false,"is_disabled":false,"rental_uris":{"android":"levelo://app?vid=8f78fb23-fe4f-4dd7-b80f-99eaf12a8543","ios":"levelo://app?vid=8f78fb23-fe4f-4dd7-b80f-99eaf12a8543"},"vehicle_type_id":"4","last_reported":1744315908,"current_range_meters":6400,"station_id":"ce4bhoh2rcd13ifvqh5g","pricing_plan_id":"cebpf4jnsgd1na2vs0mg"},{"bike_id":"5be6a842-98f7-4807-b52d-c318fce2de8a","system_id":"levelo_inurba_marseille","lat":43.29042,"lon":5.39959,"is_reserved":false,"is_disabled":false,"rental_uris":{"android":"levelo://app?vid=5be6a842-98f7-4807-b52d-c318fce2de8a","ios":"levelo://app?vid=5be6a842-98f7-4807-b52d-c318fce2de8a"},"vehicle_type_id":"4","last_reported":1744315908,"current_range_meters":6000,"station_id":"ce4bh392rcd13ifvqdm0","pricing_plan_id":"cebpf4jnsgd1na2vs0mg"},{"bike_id":"49cc619b-8e3a-4bbc-b031-da3c7b361d76","system_id":"levelo_inurba_marseille","lat":43.29599,"lon":5.38107,"is_reserved":false,"is_disabled":false,"rental_uris":{"android":"levelo://app?vid=49cc619b-8e3a-4bbc-b031-da3c7b361d76","ios":"levelo://app?vid=49cc619b-8e3a-4bbc-b031-da3c7b361d76"},"vehicle_type_id":"4","last_reported":1744315908,"current_range_meters":6400,"station_id":"ce4bgl12rcd13ifvqbo0","pricing_plan_id":"cebpf4jnsgd1na2vs0mg"},{"bike_id":"b9ade24a-2531-40f0-a6b0-ed6d8d5c96aa","system_id":"levelo_inurba_marseille","lat":43.24394,"lon":5.37048,"is_reserved":false,"is_disabled":false,"rental_uris":{"android":"levelo://app?vid=b9ade24a-2531-40f0-a6b0-ed6d8d5c96aa","ios":"levelo://app?vid=b9ade24a-2531-40f0-a6b0-ed6d8d5c96aa"},"vehicle_type_id":"4","last_reported":1744315908,"current_range_meters":6400,"station_id":"ce4bhhh2rcd13ifvqfk0","pricing_plan_id":"cebpf4jnsgd1na2vs0mg"},{"bike_id":"7615ce65-68df-4d79-919c-d391d6e3ecf1","system_id":"levelo_inurba_marseille","lat":43.29865,"lon":5.39737,"is_reserved":false,"is_disabled":false,"rental_uris":{"android":"levelo://app?vid=7615ce65-68df-4d79-919c-d391d6e3ecf1","ios":"levelo://app?vid=7615ce65-68df-4d79-919c-d391d6e3ecf1"},"vehicle_type_id":"4","last_reported":1744315908,"current_range_meters":6400,"station_id":"ce4bh0h2rcd13ifvqd50","pricing_plan_id":"cebpf4jnsgd1na2vs0mg"},{"bike_id":"16e530bd-c628-4813-aaee-bc16c68ce937","system_id":"levelo_inurba_marseille","lat":43.30209,"lon":5.39476,"is_reserved":false,"is_disabled":false,"rental_uris":{"android":"levelo://app?vid=16e530bd-c628-4813-aaee-bc16c68ce937","ios":"levelo://app?vid=16e530bd-c628-4813-aaee-bc16c68ce937"},"vehicle_type_id":"4","last_reported":1744315908,"current_range_meters":6400,"station_id":"ce4bh0p2rcd13ifvqd70","pricing_plan_id":"cebpf4jnsgd1na2vs0mg"},{"bike_id":"f618ff77-d4cb-41d4-963f-fdcbe8bd86b8","system_id":"levelo_inurba_marseille","lat":43.3059,"lon":5.3936,"is_reserved":false,"is_disabled":false,"rental_uris":{"android":"levelo://app?vid=f618ff77-d4cb-41d4-963f-fdcbe8bd86b8","ios":"levelo://app?vid=f618ff77-d4cb-41d4-963f-fdcbe8bd86b8"},"vehicle_type_id":"4","last_reported":1744315908,"current_range_meters":6400,"station_id":"ce4bh0p2rcd13ifvqd80","pricing_plan_id":"cebpf4jnsgd1na2vs0mg"},{"bike_id":"8c876ded-2351-4a40-b46f-d37e31decbcd","system_id":"levelo_inurba_marseille","lat":43.2318,"lon":5.39991,"is_reserved":false,"is_disabled":false,"rental_uris":{"android":"levelo://app?vid=8c876ded-2351-4a40-b46f-d37e31decbcd","ios":"levelo://app?vid=8c876ded-2351-4a40-b46f-d37e31decbcd"},"vehicle_type_id":"4","last_reported":1744315908,"current_range_meters":6400,"station_id":"ce4bhn12rcd13ifvqgqg","pricing_plan_id":"cebpf4jnsgd1na2vs0mg"},{"bike_id":"a1451a1f-835a-4861-997a-faa2bbe05c1b","system_id":"levelo_inurba_marseille","lat":43.28102,"lon":5.37834,"is_reserved":false,"is_disabled":false,"rental_uris":{"android":"levelo://app?vid=a1451a1f-835a-4861-997a-faa2bbe05c1b","ios":"levelo://app?vid=a1451a1f-835a-4861-997a-faa2bbe05c1b"},"vehicle_type_id":"4","last_reported":1744315908,"current_range_meters":6800,"station_id":"ce4bha12rcd13ifvqee0","pricing_plan_id":"cebpf4jnsgd1na2vs0mg"},{"bike_id":"4c1f7691-a169-4713-b675-2a5153227ffe","system_id":"levelo_inurba_marseille","lat":43.27823,"lon":5.40708,"is_reserved":false,"is_disabled":false,"rental_uris":{"android":"levelo://app?vid=4c1f7691-a169-4713-b675-2a5153227ffe","ios":"levelo://app?vid=4c1f7691-a169-4713-b675-2a5153227ffe"},"vehicle_type_id":"4","last_reported":1744315908,"current_range_meters":6800,"station_id":"ce4bhnh2rcd13ifvqgtg","pricing_plan_id":"cebpf4jnsgd1na2vs0mg"},{"bike_id":"1f1efd4c-d8d3-4eab-bd4b-d61e2580506c","system_id":"levelo_inurba_marseille","lat":43.29514,"lon":5.39403,"is_reserved":false,"is_disabled":false,"rental_uris":{"android":"levelo://app?vid=1f1efd4c-d8d3-4eab-bd4b-d61e2580506c","ios":"levelo://app?vid=1f1efd4c-d8d3-4eab-bd4b-d61e2580506c"},"vehicle_type_id":"4","last_reported":1744315908,"current_range_meters":6800,"station_id":"ce4bh292rcd13ifvqdf0","pricing_plan_id":"cebpf4jnsgd1na2vs0mg"},{"bike_id":"0034db4b-efd6-4119-a358-80e858a45e83","system_id":"levelo_inurba_marseille","lat":43.31749,"lon":5.38915,"is_reserved":false,"is_disabled":false,"rental_uris":{"android":"levelo://app?vid=0034db4b-efd6-4119-a358-80e858a45e83","ios":"levelo://app?vid=0034db4b-efd6-4119-a358-80e858a45e83"},"vehicle_type_id":"4","last_reported":1744315908,"current_range_meters":6800,"station_id":"","pricing_plan_id":"cebpf4jnsgd1na2vs0mg"},{"bike_id":"7d2cb020-3a23-495f-93f8-26869ec94c00","system_id":"levelo_inurba_marseille","lat":43.32234,"lon":5.36765,"is_reserved":false,"is_disabled":false,"rental_uris":{"android":"levelo://app?vid=7d2cb020-3a23-495f-93f8-26869ec94c00","ios":"levelo://app?vid=7d2cb020-3a23-495f-93f8-26869ec94c00"},"vehicle_type_id":"4","last_reported":1744315908,"current_range_meters":6800,"station_id":"","pricing_plan_id":"cebpf4jnsgd1na2vs0mg"},{"bike_id":"11759475-6145-4871-9f00-00fc7a68c553","system_id":"levelo_inurba_marseille","lat":43.29418,"lon":5.38633,"is_reserved":false,"is_disabled":false,"rental_uris":{"android":"levelo://app?vid=11759475-6145-4871-9f00-00fc7a68c553","ios":"levelo://app?vid=11759475-6145-4871-9f00-00fc7a68c553"},"vehicle_type_id":"4","last_reported":1744315908,"current_range_meters":6800,"station_id":"ce4bh2h2rcd13ifvqdh0","pricing_plan_id":"cebpf4jnsgd1na2vs0mg"},{"bike_id":"8873c2eb-8ad8-4e25-91de-b719c66e5edb","system_id":"levelo_inurba_marseille","lat":43.29794,"lon":5.39342,"is_reserved":false,"is_disabled":false,"rental_uris":{"android":"levelo://app?vid=8873c2eb-8ad8-4e25-91de-b719c66e5edb","ios":"levelo://app?vid=8873c2eb-8ad8-4e25-91de-b719c66e5edb"},"vehicle_type_id":"4","last_reported":1744315908,"current_range_meters":6800,"station_id":"chh1huq6cuj3fo74tm60","pricing_plan_id":"cebpf4jnsgd1na2vs0mg"},{"bike_id":"252d5874-aaf5-4c62-a799-a9e4d2d42077","system_id":"levelo_inurba_marseille","lat":43.2925,"lon":5.38443,"is_reserved":false,"is_disabled":false,"rental_uris":{"android":"levelo://app?vid=252d5874-aaf5-4c62-a799-a9e4d2d42077","ios":"levelo://app?vid=252d5874-aaf5-4c62-a799-a9e4d2d42077"},"vehicle_type_id":"4","last_reported":1744315908,"current_range_meters":6800,"station_id":"ce4bh692rcd13ifvqea0","pricing_plan_id":"cebpf4jnsgd1na2vs0mg"},{"bike_id":"98bde375-1946-4247-9779-ef60c95239a6","system_id":"levelo_inurba_marseille","lat":43.30807,"lon":5.43519,"is_reserved":false,"is_disabled":false,"rental_uris":{"android":"levelo://app?vid=98bde375-1946-4247-9779-ef60c95239a6","ios":"levelo://app?vid=98bde375-1946-4247-9779-ef60c95239a6"},"vehicle_type_id":"4","last_reported":1744315908,"current_range_meters":7200,"station_id":"ce4bhph2rcd13ifvqheg","pricing_plan_id":"cebpf4jnsgd1na2vs0mg"},{"bike_id":"9d73e8d6-abd5-4fb7-a3eb-96ab852019a5","system_id":"levelo_inurba_marseille","lat":43.29376,"lon":5.37847,"is_reserved":false,"is_disabled":false,"rental_uris":{"android":"levelo://app?vid=9d73e8d6-abd5-4fb7-a3eb-96ab852019a5","ios":"levelo://app?vid=9d73e8d6-abd5-4fb7-a3eb-96ab852019a5"},"vehicle_type_id":"4","last_reported":1744315908,"current_range_meters":7200,"station_id":"ce4bgjh2rcd13ifvqbf0","pricing_plan_id":"cebpf4jnsgd1na2vs0mg"},{"bike_id":"83c132b1-a954-4d5a-a32d-9f99af4faa3c","system_id":"levelo_inurba_marseille","lat":43.30915,"lon":5.41523,"is_reserved":false,"is_disabled":false,"rental_uris":{"android":"levelo://app?vid=83c132b1-a954-4d5a-a32d-9f99af4faa3c","ios":"levelo://app?vid=83c132b1-a954-4d5a-a32d-9f99af4faa3c"},"vehicle_type_id":"4","last_reported":1744315908,"current_range_meters":7200,"station_id":"","pricing_plan_id":"cebpf4jnsgd1na2vs0mg"},{"bike_id":"3864ca11-eba3-4ea9-aa8d-c2b29b8c6d15","system_id":"levelo_inurba_marseille","lat":43.27172,"lon":5.40997,"is_reserved":false,"is_disabled":false,"rental_uris":{"android":"levelo://app?vid=3864ca11-eba3-4ea9-aa8d-c2b29b8c6d15","ios":"levelo://app?vid=3864ca11-eba3-4ea9-aa8d-c2b29b8c6d15"},"vehicle_type_id":"4","last_reported":1744315908,"current_range_meters":7200,"station_id":"ce4bhl12rcd13ifvqgf0","pricing_plan_id":"cebpf4jnsgd1na2vs0mg"},{"bike_id":"d14544b5-b03c-480c-9d2e-206754e0bf0c","system_id":"levelo_inurba_marseille","lat":43.28569,"lon":5.39455,"is_reserved":false,"is_disabled":false,"rental_uris":{"android":"levelo://app?vid=d14544b5-b03c-480c-9d2e-206754e0bf0c","ios":"levelo://app?vid=d14544b5-b03c-480c-9d2e-206754e0bf0c"},"vehicle_type_id":"4","last_reported":1744315908,"current_range_meters":7200,"station_id":"ce4bh292rcd13ifvqdg0","pricing_plan_id":"cebpf4jnsgd1na2vs0mg"},{"bike_id":"39d7b7e9-1518-487c-a790-1399dac14686","system_id":"levelo_inurba_marseille","lat":43.29521,"lon":5.39036,"is_reserved":false,"is_disabled":false,"rental_uris":{"android":"levelo://app?vid=39d7b7e9-1518-487c-a790-1399dac14686","ios":"levelo://app?vid=39d7b7e9-1518-487c-a790-1399dac14686"},"vehicle_type_id":"4","last_reported":1744315908,"current_range_meters":8000,"station_id":"ce4bh3p2rcd13ifvqdp0","pricing_plan_id":"cebpf4jnsgd1na2vs0mg"},{"bike_id":"ed9bb9b7-662e-474a-9451-992c89875d1e","system_id":"levelo_inurba_marseille","lat":43.28354,"lon":5.38108,"is_reserved":false,"is_disabled":false,"rental_uris":{"android":"levelo://app?vid=ed9bb9b7-662e-474a-9451-992c89875d1e","ios":"levelo://app?vid=ed9bb9b7-662e-474a-9451-992c89875d1e"},"vehicle_type_id":"4","last_reported":1744315908,"current_range_meters":7200,"station_id":"ce4bh412rcd13ifvqdr0","pricing_plan_id":"cebpf4jnsgd1na2vs0mg"},{"bike_id":"6046b3fa-b72a-4317-8556-7000edff2c7e","system_id":"levelo_inurba_marseille","lat":43.26934,"lon":5.3892,"is_reserved":false,"is_disabled":false,"rental_uris":{"android":"levelo://app?vid=6046b3fa-b72a-4317-8556-7000edff2c7e","ios":"levelo://app?vid=6046b3fa-b72a-4317-8556-7000edff2c7e"},"vehicle_type_id":"4","last_reported":1744315908,"current_range_meters":7200,"station_id":"ce4bhhh2rcd13ifvqfl0","pricing_plan_id":"cebpf4jnsgd1na2vs0mg"},{"bike_id":"b85b7a56-fd2b-46f9-bb02-0d646ed4fe7b","system_id":"levelo_inurba_marseille","lat":43.295192,"lon":5.394089,"is_reserved":false,"is_disabled":false,"rental_uris":{"android":"levelo://app?vid=b85b7a56-fd2b-46f9-bb02-0d646ed4fe7b","ios":"levelo://app?vid=b85b7a56-fd2b-46f9-bb02-0d646ed4fe7b"},"vehicle_type_id":"4","last_reported":1744315908,"current_range_meters":8000,"station_id":"ce4bh292rcd13ifvqdf0","pricing_plan_id":"cebpf4jnsgd1na2vs0mg"},{"bike_id":"9bf8a48a-540d-43cf-9e91-96a227eae4df","system_id":"levelo_inurba_marseille","lat":43.286977,"lon":5.399834,"is_reserved":false,"is_disabled":false,"rental_uris":{"android":"levelo://app?vid=9bf8a48a-540d-43cf-9e91-96a227eae4df","ios":"levelo://app?vid=9bf8a48a-540d-43cf-9e91-96a227eae4df"},"vehicle_type_id":"4","last_reported":1744315908,"current_range_meters":8000,"station_id":"ce4bho92rcd13ifvqh3g","pricing_plan_id":"cebpf4jnsgd1na2vs0mg"},{"bike_id":"8cb01b2e-bd48-4d6d-a6d8-32fa94eb40ba","system_id":"levelo_inurba_marseille","lat":43.29532,"lon":5.38533,"is_reserved":false,"is_disabled":false,"rental_uris":{"android":"levelo://app?vid=8cb01b2e-bd48-4d6d-a6d8-32fa94eb40ba","ios":"levelo://app?vid=8cb01b2e-bd48-4d6d-a6d8-32fa94eb40ba"},"vehicle_type_id":"4","last_reported":1744315908,"current_range_meters":8000,"station_id":"ce4bgih2rcd13ifvqba0","pricing_plan_id":"cebpf4jnsgd1na2vs0mg"},{"bike_id":"75fd33a0-cfc3-46db-849b-08122c836afa","system_id":"levelo_inurba_marseille","lat":43.29416,"lon":5.38624,"is_reserved":false,"is_disabled":false,"rental_uris":{"android":"levelo://app?vid=75fd33a0-cfc3-46db-849b-08122c836afa","ios":"levelo://app?vid=75fd33a0-cfc3-46db-849b-08122c836afa"},"vehicle_type_id":"4","last_reported":1744315908,"current_range_meters":8000,"station_id":"ce4bh2h2rcd13ifvqdh0","pricing_plan_id":"cebpf4jnsgd1na2vs0mg"},{"bike_id":"db5e0582-7e40-4884-b42e-b3b741427bc3","system_id":"levelo_inurba_marseille","lat":43.31164,"lon":5.38723,"is_reserved":false,"is_disabled":false,"rental_uris":{"android":"levelo://app?vid=db5e0582-7e40-4884-b42e-b3b741427bc3","ios":"levelo://app?vid=db5e0582-7e40-4884-b42e-b3b741427bc3"},"vehicle_type_id":"4","last_reported":1744315908,"current_range_meters":4800,"station_id":"ce4bgv12rcd13ifvqcp0","pricing_plan_id":"cebpf4jnsgd1na2vs0mg"},{"bike_id":"01e31f15-bc9b-4d18-bebd-edf19bcedef2","system_id":"levelo_inurba_marseille","lat":43.28741,"lon":5.37929,"is_reserved":false,"is_disabled":true,"rental_uris":{"android":"levelo://app?vid=01e31f15-bc9b-4d18-bebd-edf19bcedef2","ios":"levelo://app?vid=01e31f15-bc9b-4d18-bebd-edf19bcedef2"},"vehicle_type_id":"4","last_reported":1744315908,"current_range_meters":8000,"station_id":"ce4bh9p2rcd13ifvqec0","pricing_plan_id":"cebpf4jnsgd1na2vs0mg"},{"bike_id":"5f163a41-c6ee-4ee7-bf33-5991a052746c","system_id":"levelo_inurba_marseille","lat":43.294862,"lon":5.386242,"is_reserved":false,"is_disabled":false,"rental_uris":{"android":"levelo://app?vid=5f163a41-c6ee-4ee7-bf33-5991a052746c","ios":"levelo://app?vid=5f163a41-c6ee-4ee7-bf33-5991a052746c"},"vehicle_type_id":"4","last_reported":1744315908,"current_range_meters":8000,"station_id":"","pricing_plan_id":"cebpf4jnsgd1na2vs0mg"},{"bike_id":"5f30a5a4-de9f-499e-b151-b811ebb3b43a","system_id":"levelo_inurba_marseille","lat":43.31088,"lon":5.38347,"is_reserved":false,"is_disabled":true,"rental_uris":{"android":"levelo://app?vid=5f30a5a4-de9f-499e-b151-b811ebb3b43a","ios":"levelo://app?vid=5f30a5a4-de9f-499e-b151-b811ebb3b43a"},"vehicle_type_id":"4","last_reported":1744315908,"current_range_meters":8000,"station_id":"ce4bgv92rcd13ifvqcr0","pricing_plan_id":"cebpf4jnsgd1na2vs0mg"},{"bike_id":"3cc21430-ad05-4c1f-ae42-1925c305c6c3","system_id":"levelo_inurba_marseille","lat":43.281,"lon":5.37834,"is_reserved":false,"is_disabled":false,"rental_uris":{"android":"levelo://app?vid=3cc21430-ad05-4c1f-ae42-1925c305c6c3","ios":"levelo://app?vid=3cc21430-ad05-4c1f-ae42-1925c305c6c3"},"vehicle_type_id":"4","last_reported":1744315908,"current_range_meters":8000,"station_id":"ce4bha12rcd13ifvqee0","pricing_plan_id":"cebpf4jnsgd1na2vs0mg"},{"bike_id":"77681eb7-0ca7-4181-8f4d-dc0d81e04ff3","system_id":"levelo_inurba_marseille","lat":43.241784,"lon":5.364038,"is_reserved":false,"is_disabled":false,"rental_uris":{"android":"levelo://app?vid=77681eb7-0ca7-4181-8f4d-dc0d81e04ff3","ios":"levelo://app?vid=77681eb7-0ca7-4181-8f4d-dc0d81e04ff3"},"vehicle_type_id":"4","last_reported":1744315908,"current_range_meters":8000,"station_id":"cpo36qri1sfpv3e86is0","pricing_plan_id":"cebpf4jnsgd1na2vs0mg"},{"bike_id":"e0877638-bfce-4c91-83b1-a14d9c34a427","system_id":"levelo_inurba_marseille","lat":43.30636,"lon":5.40088,"is_reserved":false,"is_disabled":false,"rental_uris":{"android":"levelo://app?vid=e0877638-bfce-4c91-83b1-a14d9c34a427","ios":"levelo://app?vid=e0877638-bfce-4c91-83b1-a14d9c34a427"},"vehicle_type_id":"4","last_reported":1744315908,"current_range_meters":8000,"station_id":"ce4bh112rcd13ifvqda0","pricing_plan_id":"cebpf4jnsgd1na2vs0mg"},{"bike_id":"c243072f-6bd2-4d94-ba83-04162cf2a05c","system_id":"levelo_inurba_marseille","lat":43.2721,"lon":5.40113,"is_reserved":false,"is_disabled":false,"rental_uris":{"android":"levelo://app?vid=c243072f-6bd2-4d94-ba83-04162cf2a05c","ios":"levelo://app?vid=c243072f-6bd2-4d94-ba83-04162cf2a05c"},"vehicle_type_id":"4","last_reported":1744315908,"current_range_meters":8000,"station_id":"","pricing_plan_id":"cebpf4jnsgd1na2vs0mg"},{"bike_id":"df898f78-34ac-4e3e-8bec-e2876138ccb5","system_id":"levelo_inurba_marseille","lat":43.30427,"lon":5.39745,"is_reserved":false,"is_disabled":false,"rental_uris":{"android":"levelo://app?vid=df898f78-34ac-4e3e-8bec-e2876138ccb5","ios":"levelo://app?vid=df898f78-34ac-4e3e-8bec-e2876138ccb5"},"vehicle_type_id":"4","last_reported":1744315908,"current_range_meters":12400,"station_id":"ce4bh092rcd13ifvqd20","pricing_plan_id":"cebpf4jnsgd1na2vs0mg"},{"bike_id":"60f68600-e0f5-41c4-9759-56a2ea7cc82c","system_id":"levelo_inurba_marseille","lat":43.29268,"lon":5.3843,"is_reserved":false,"is_disabled":false,"rental_uris":{"android":"levelo://app?vid=60f68600-e0f5-41c4-9759-56a2ea7cc82c","ios":"levelo://app?vid=60f68600-e0f5-41c4-9759-56a2ea7cc82c"},"vehicle_type_id":"4","last_reported":1744315908,"current_range_meters":8400,"station_id":"ce4bh692rcd13ifvqea0","pricing_plan_id":"cebpf4jnsgd1na2vs0mg"},{"bike_id":"10f72831-a14e-4eee-8e16-4a84e6f3ae45","system_id":"levelo_inurba_marseille","lat":43.30795,"lon":5.38155,"is_reserved":false,"is_disabled":false,"rental_uris":{"android":"levelo://app?vid=10f72831-a14e-4eee-8e16-4a84e6f3ae45","ios":"levelo://app?vid=10f72831-a14e-4eee-8e16-4a84e6f3ae45"},"vehicle_type_id":"4","last_reported":1744315908,"current_range_meters":8400,"station_id":"ce4bgt12rcd13ifvqce0","pricing_plan_id":"cebpf4jnsgd1na2vs0mg"},{"bike_id":"ba983684-f45a-413c-b4a7-994483e98f38","system_id":"levelo_inurba_marseille","lat":43.29606,"lon":5.38088,"is_reserved":false,"is_disabled":false,"rental_uris":{"android":"levelo://app?vid=ba983684-f45a-413c-b4a7-994483e98f38","ios":"levelo://app?vid=ba983684-f45a-413c-b4a7-994483e98f38"},"vehicle_type_id":"4","last_reported":1744315908,"current_range_meters":8400,"station_id":"ce4bgl12rcd13ifvqbo0","pricing_plan_id":"cebpf4jnsgd1na2vs0mg"},{"bike_id":"895df394-6cf9-4f71-8ed7-b58772d8fa7a","system_id":"levelo_inurba_marseille","lat":43.25828,"lon":5.39436,"is_reserved":false,"is_disabled":false,"rental_uris":{"android":"levelo://app?vid=895df394-6cf9-4f71-8ed7-b58772d8fa7a","ios":"levelo://app?vid=895df394-6cf9-4f71-8ed7-b58772d8fa7a"},"vehicle_type_id":"4","last_reported":1744315908,"current_range_meters":8400,"station_id":"ce4bhip2rcd13ifvqft0","pricing_plan_id":"cebpf4jnsgd1na2vs0mg"},{"bike_id":"c784f9b7-9f58-4301-acfc-acf266bb36f2","system_id":"levelo_inurba_marseille","lat":43.30141,"lon":5.3806,"is_reserved":false,"is_disabled":false,"rental_uris":{"android":"levelo://app?vid=c784f9b7-9f58-4301-acfc-acf266bb36f2","ios":"levelo://app?vid=c784f9b7-9f58-4301-acfc-acf266bb36f2"},"vehicle_type_id":"4","last_reported":1744315908,"current_range_meters":7200,"station_id":"ce4bgjp2rcd13ifvqbh0","pricing_plan_id":"cebpf4jnsgd1na2vs0mg"},{"bike_id":"4a3e0919-27c2-445a-a961-2bd3243a227d","system_id":"levelo_inurba_marseille","lat":43.31648,"lon":5.37303,"is_reserved":false,"is_disabled":false,"rental_uris":{"android":"levelo://app?vid=4a3e0919-27c2-445a-a961-2bd3243a227d","ios":"levelo://app?vid=4a3e0919-27c2-445a-a961-2bd3243a227d"},"vehicle_type_id":"4","last_reported":1744315908,"current_range_meters":8800,"station_id":"","pricing_plan_id":"cebpf4jnsgd1na2vs0mg"},{"bike_id":"d37408de-b5d7-4466-8973-ab7c2a7000bc","system_id":"levelo_inurba_marseille","lat":43.29259,"lon":5.36847,"is_reserved":false,"is_disabled":true,"rental_uris":{"android":"levelo://app?vid=d37408de-b5d7-4466-8973-ab7c2a7000bc","ios":"levelo://app?vid=d37408de-b5d7-4466-8973-ab7c2a7000bc"},"vehicle_type_id":"4","last_reported":1744315908,"current_range_meters":8800,"station_id":"ce4bhbp2rcd13ifvqesg","pricing_plan_id":"cebpf4jnsgd1na2vs0mg"},{"bike_id":"a1f601f0-6cba-4448-aafb-c397ab34f8f8","system_id":"levelo_inurba_marseille","lat":43.30428,"lon":5.38891,"is_reserved":false,"is_disabled":false,"rental_uris":{"android":"levelo://app?vid=a1f601f0-6cba-4448-aafb-c397ab34f8f8","ios":"levelo://app?vid=a1f601f0-6cba-4448-aafb-c397ab34f8f8"},"vehicle_type_id":"4","last_reported":1744315908,"current_range_meters":8800,"station_id":"ce4bgk12rcd13ifvqbi0","pricing_plan_id":"cebpf4jnsgd1na2vs0mg"},{"bike_id":"49fef583-e508-49d2-be9e-4b38c63e21b6","system_id":"levelo_inurba_marseille","lat":43.29252,"lon":5.38447,"is_reserved":false,"is_disabled":false,"rental_uris":{"android":"levelo://app?vid=49fef583-e508-49d2-be9e-4b38c63e21b6","ios":"levelo://app?vid=49fef583-e508-49d2-be9e-4b38c63e21b6"},"vehicle_type_id":"4","last_reported":1744315908,"current_range_meters":8800,"station_id":"ce4bh692rcd13ifvqea0","pricing_plan_id":"cebpf4jnsgd1na2vs0mg"},{"bike_id":"1b5e1a6a-30b1-49b2-8140-7fe8bbbd4144","system_id":"levelo_inurba_marseille","lat":43.2988,"lon":5.3891,"is_reserved":false,"is_disabled":false,"rental_uris":{"android":"levelo://app?vid=1b5e1a6a-30b1-49b2-8140-7fe8bbbd4144","ios":"levelo://app?vid=1b5e1a6a-30b1-49b2-8140-7fe8bbbd4144"},"vehicle_type_id":"4","last_reported":1744315908,"current_range_meters":8800,"station_id":"ce4bh392rcd13ifvqdl0","pricing_plan_id":"cebpf4jnsgd1na2vs0mg"},{"bike_id":"cec94938-5836-4fb1-b107-6be08662aa0a","system_id":"levelo_inurba_marseille","lat":43.27496,"lon":5.42454,"is_reserved":false,"is_disabled":false,"rental_uris":{"android":"levelo://app?vid=cec94938-5836-4fb1-b107-6be08662aa0a","ios":"levelo://app?vid=cec94938-5836-4fb1-b107-6be08662aa0a"},"vehicle_type_id":"4","last_reported":1744315908,"current_range_meters":8800,"station_id":"ce4bhn92rcd13ifvqgrg","pricing_plan_id":"cebpf4jnsgd1na2vs0mg"},{"bike_id":"be7774be-1888-4252-a2c8-7f48d15281b9","system_id":"levelo_inurba_marseille","lat":43.29801,"lon":5.40396,"is_reserved":false,"is_disabled":false,"rental_uris":{"android":"levelo://app?vid=be7774be-1888-4252-a2c8-7f48d15281b9","ios":"levelo://app?vid=be7774be-1888-4252-a2c8-7f48d15281b9"},"vehicle_type_id":"4","last_reported":1744315908,"current_range_meters":8800,"station_id":"ce4bh112rcd13ifvqd90","pricing_plan_id":"cebpf4jnsgd1na2vs0mg"},{"bike_id":"b5b46c18-f313-484a-a32d-a28c21593fa8","system_id":"levelo_inurba_marseille","lat":43.285995,"lon":5.373537,"is_reserved":false,"is_disabled":false,"rental_uris":{"android":"levelo://app?vid=b5b46c18-f313-484a-a32d-a28c21593fa8","ios":"levelo://app?vid=b5b46c18-f313-484a-a32d-a28c21593fa8"},"vehicle_type_id":"4","last_reported":1744315908,"current_range_meters":8400,"station_id":"ce4bh412rcd13ifvqds0","pricing_plan_id":"cebpf4jnsgd1na2vs0mg"},{"bike_id":"9ce80678-2ca4-4baa-a7d2-19d4fc944020","system_id":"levelo_inurba_marseille","lat":43.24161,"lon":5.36401,"is_reserved":false,"is_disabled":false,"rental_uris":{"android":"levelo://app?vid=9ce80678-2ca4-4baa-a7d2-19d4fc944020","ios":"levelo://app?vid=9ce80678-2ca4-4baa-a7d2-19d4fc944020"},"vehicle_type_id":"4","last_reported":1744315908,"current_range_meters":8800,"station_id":"cpo36qri1sfpv3e86is0","pricing_plan_id":"cebpf4jnsgd1na2vs0mg"},{"bike_id":"18198008-2b79-4368-b512-7c83b96eebeb","system_id":"levelo_inurba_marseille","lat":43.28161,"lon":5.4263,"is_reserved":false,"is_disabled":false,"rental_uris":{"android":"levelo://app?vid=18198008-2b79-4368-b512-7c83b96eebeb","ios":"levelo://app?vid=18198008-2b79-4368-b512-7c83b96eebeb"},"vehicle_type_id":"4","last_reported":1744315908,"current_range_meters":8800,"station_id":"ce4bhnh2rcd13ifvqgug","pricing_plan_id":"cebpf4jnsgd1na2vs0mg"},{"bike_id":"19925b0c-bf13-433b-a8af-947f6f1941e5","system_id":"levelo_inurba_marseille","lat":43.29415,"lon":5.38629,"is_reserved":false,"is_disabled":false,"rental_uris":{"android":"levelo://app?vid=19925b0c-bf13-433b-a8af-947f6f1941e5","ios":"levelo://app?vid=19925b0c-bf13-433b-a8af-947f6f1941e5"},"vehicle_type_id":"4","last_reported":1744315908,"current_range_meters":8800,"station_id":"ce4bh2h2rcd13ifvqdh0","pricing_plan_id":"cebpf4jnsgd1na2vs0mg"},{"bike_id":"cd94694b-42fa-44d6-807a-2d5a6758fe67","system_id":"levelo_inurba_marseille","lat":43.28152,"lon":5.42643,"is_reserved":false,"is_disabled":true,"rental_uris":{"android":"levelo://app?vid=cd94694b-42fa-44d6-807a-2d5a6758fe67","ios":"levelo://app?vid=cd94694b-42fa-44d6-807a-2d5a6758fe67"},"vehicle_type_id":"4","last_reported":1744315908,"current_range_meters":8800,"station_id":"ce4bhnh2rcd13ifvqgug","pricing_plan_id":"cebpf4jnsgd1na2vs0mg"},{"bike_id":"c66e0227-8dab-43f7-959d-ad39878fa71f","system_id":"levelo_inurba_marseille","lat":43.23085,"lon":5.35489,"is_reserved":false,"is_disabled":false,"rental_uris":{"android":"levelo://app?vid=c66e0227-8dab-43f7-959d-ad39878fa71f","ios":"levelo://app?vid=c66e0227-8dab-43f7-959d-ad39878fa71f"},"vehicle_type_id":"4","last_reported":1744315908,"current_range_meters":9200,"station_id":"cpo3342slgdg3j2ifvpg","pricing_plan_id":"cebpf4jnsgd1na2vs0mg"},{"bike_id":"40f5318d-4aae-48d8-94b0-7c984048c3cb","system_id":"levelo_inurba_marseille","lat":43.27971,"lon":5.41654,"is_reserved":false,"is_disabled":false,"rental_uris":{"android":"levelo://app?vid=40f5318d-4aae-48d8-94b0-7c984048c3cb","ios":"levelo://app?vid=40f5318d-4aae-48d8-94b0-7c984048c3cb"},"vehicle_type_id":"4","last_reported":1744315908,"current_range_meters":9200,"station_id":"ce4bho12rcd13ifvqh1g","pricing_plan_id":"cebpf4jnsgd1na2vs0mg"},{"bike_id":"32858a8d-a537-4b01-bdf8-76eec2f7ecf3","system_id":"levelo_inurba_marseille","lat":43.29046,"lon":5.35927,"is_reserved":false,"is_disabled":false,"rental_uris":{"android":"levelo://app?vid=32858a8d-a537-4b01-bdf8-76eec2f7ecf3","ios":"levelo://app?vid=32858a8d-a537-4b01-bdf8-76eec2f7ecf3"},"vehicle_type_id":"4","last_reported":1744315908,"current_range_meters":9200,"station_id":"ce4bha92rcd13ifvqeg0","pricing_plan_id":"cebpf4jnsgd1na2vs0mg"},{"bike_id":"5f1b660d-7279-4ea3-ab65-0269b9db2ced","system_id":"levelo_inurba_marseille","lat":43.30427,"lon":5.38885,"is_reserved":false,"is_disabled":false,"rental_uris":{"android":"levelo://app?vid=5f1b660d-7279-4ea3-ab65-0269b9db2ced","ios":"levelo://app?vid=5f1b660d-7279-4ea3-ab65-0269b9db2ced"},"vehicle_type_id":"4","last_reported":1744315908,"current_range_meters":9200,"station_id":"ce4bgk12rcd13ifvqbi0","pricing_plan_id":"cebpf4jnsgd1na2vs0mg"},{"bike_id":"a08fdf65-f7c3-4eb9-83c1-6d1abed3497e","system_id":"levelo_inurba_marseille","lat":43.286966,"lon":5.39983,"is_reserved":false,"is_disabled":true,"rental_uris":{"android":"levelo://app?vid=a08fdf65-f7c3-4eb9-83c1-6d1abed3497e","ios":"levelo://app?vid=a08fdf65-f7c3-4eb9-83c1-6d1abed3497e"},"vehicle_type_id":"4","last_reported":1744315908,"current_range_meters":9200,"station_id":"ce4bho92rcd13ifvqh3g","pricing_plan_id":"cebpf4jnsgd1na2vs0mg"},{"bike_id":"4d6f0b25-6620-4007-a775-35a6d21dbbf9","system_id":"levelo_inurba_marseille","lat":43.29405,"lon":5.38613,"is_reserved":false,"is_disabled":false,"rental_uris":{"android":"levelo://app?vid=4d6f0b25-6620-4007-a775-35a6d21dbbf9","ios":"levelo://app?vid=4d6f0b25-6620-4007-a775-35a6d21dbbf9"},"vehicle_type_id":"4","last_reported":1744315908,"current_range_meters":9200,"station_id":"ce4bh2h2rcd13ifvqdh0","pricing_plan_id":"cebpf4jnsgd1na2vs0mg"},{"bike_id":"85edcce7-26b2-4dfa-bcf0-df9446e27cad","system_id":"levelo_inurba_marseille","lat":43.24806,"lon":5.37458,"is_reserved":false,"is_disabled":false,"rental_uris":{"android":"levelo://app?vid=85edcce7-26b2-4dfa-bcf0-df9446e27cad","ios":"levelo://app?vid=85edcce7-26b2-4dfa-bcf0-df9446e27cad"},"vehicle_type_id":"4","last_reported":1744315908,"current_range_meters":9200,"station_id":"ce4bhgh2rcd13ifvqfb0","pricing_plan_id":"cebpf4jnsgd1na2vs0mg"},{"bike_id":"b41c54d7-d64c-431d-a820-f5ecd5da34e7","system_id":"levelo_inurba_marseille","lat":43.31481,"lon":5.36866,"is_reserved":false,"is_disabled":false,"rental_uris":{"android":"levelo://app?vid=b41c54d7-d64c-431d-a820-f5ecd5da34e7","ios":"levelo://app?vid=b41c54d7-d64c-431d-a820-f5ecd5da34e7"},"vehicle_type_id":"4","last_reported":1744315908,"current_range_meters":9200,"station_id":"","pricing_plan_id":"cebpf4jnsgd1na2vs0mg"},{"bike_id":"bb01a1f5-406f-4c53-8fe4-17fae7a56b0e","system_id":"levelo_inurba_marseille","lat":43.281606,"lon":5.426445,"is_reserved":false,"is_disabled":false,"rental_uris":{"android":"levelo://app?vid=bb01a1f5-406f-4c53-8fe4-17fae7a56b0e","ios":"levelo://app?vid=bb01a1f5-406f-4c53-8fe4-17fae7a56b0e"},"vehicle_type_id":"4","last_reported":1744315908,"current_range_meters":9200,"station_id":"ce4bhq12rcd13ifvqhig","pricing_plan_id":"cebpf4jnsgd1na2vs0mg"},{"bike_id":"1c543187-a26e-4795-b86f-ba6cec340c93","system_id":"levelo_inurba_marseille","lat":43.28712,"lon":5.3794,"is_reserved":false,"is_disabled":false,"rental_uris":{"android":"levelo://app?vid=1c543187-a26e-4795-b86f-ba6cec340c93","ios":"levelo://app?vid=1c543187-a26e-4795-b86f-ba6cec340c93"},"vehicle_type_id":"4","last_reported":1744315908,"current_range_meters":9200,"station_id":"ce4bh9p2rcd13ifvqec0","pricing_plan_id":"cebpf4jnsgd1na2vs0mg"},{"bike_id":"9544e58f-863e-4776-8bcf-8ed5b564fd18","system_id":"levelo_inurba_marseille","lat":43.27557,"lon":5.38428,"is_reserved":false,"is_disabled":false,"rental_uris":{"android":"levelo://app?vid=9544e58f-863e-4776-8bcf-8ed5b564fd18","ios":"levelo://app?vid=9544e58f-863e-4776-8bcf-8ed5b564fd18"},"vehicle_type_id":"4","last_reported":1744315908,"current_range_meters":9600,"station_id":"ce4bhh92rcd13ifvqfi0","pricing_plan_id":"cebpf4jnsgd1na2vs0mg"},{"bike_id":"0f118835-01f7-4f2a-a945-c7ea12b7820a","system_id":"levelo_inurba_marseille","lat":43.29897,"lon":5.4367,"is_reserved":false,"is_disabled":false,"rental_uris":{"android":"levelo://app?vid=0f118835-01f7-4f2a-a945-c7ea12b7820a","ios":"levelo://app?vid=0f118835-01f7-4f2a-a945-c7ea12b7820a"},"vehicle_type_id":"4","last_reported":1744315908,"current_range_meters":9600,"station_id":"ce4bhpp2rcd13ifvqhfg","pricing_plan_id":"cebpf4jnsgd1na2vs0mg"},{"bike_id":"a1fdd794-2cd0-4fb6-96b3-8dafaa593e65","system_id":"levelo_inurba_marseille","lat":43.33777,"lon":5.37463,"is_reserved":false,"is_disabled":true,"rental_uris":{"android":"levelo://app?vid=a1fdd794-2cd0-4fb6-96b3-8dafaa593e65","ios":"levelo://app?vid=a1fdd794-2cd0-4fb6-96b3-8dafaa593e65"},"vehicle_type_id":"4","last_reported":1744315908,"current_range_meters":9600,"station_id":"","pricing_plan_id":"cebpf4jnsgd1na2vs0mg"},{"bike_id":"2c3909c8-40e0-4dd5-8b39-e2ef8d1f4118","system_id":"levelo_inurba_marseille","lat":43.30892,"lon":5.37198,"is_reserved":false,"is_disabled":false,"rental_uris":{"android":"levelo://app?vid=2c3909c8-40e0-4dd5-8b39-e2ef8d1f4118","ios":"levelo://app?vid=2c3909c8-40e0-4dd5-8b39-e2ef8d1f4118"},"vehicle_type_id":"4","last_reported":1744315908,"current_range_meters":9600,"station_id":"ce4bguh2rcd13ifvqckg","pricing_plan_id":"cebpf4jnsgd1na2vs0mg"},{"bike_id":"7eed11d0-8337-4e1a-b4d6-a3190b8df602","system_id":"levelo_inurba_marseille","lat":43.29095,"lon":5.38128,"is_reserved":false,"is_disabled":false,"rental_uris":{"android":"levelo://app?vid=7eed11d0-8337-4e1a-b4d6-a3190b8df602","ios":"levelo://app?vid=7eed11d0-8337-4e1a-b4d6-a3190b8df602"},"vehicle_type_id":"4","last_reported":1744315908,"current_range_meters":9600,"station_id":"ce4bh512rcd13ifvqe2g","pricing_plan_id":"cebpf4jnsgd1na2vs0mg"},{"bike_id":"c7922c9e-df40-4d6f-92a1-640cc6bd2ff7","system_id":"levelo_inurba_marseille","lat":43.24164,"lon":5.36385,"is_reserved":false,"is_disabled":false,"rental_uris":{"android":"levelo://app?vid=c7922c9e-df40-4d6f-92a1-640cc6bd2ff7","ios":"levelo://app?vid=c7922c9e-df40-4d6f-92a1-640cc6bd2ff7"},"vehicle_type_id":"4","last_reported":1744315908,"current_range_meters":9600,"station_id":"cpo36qri1sfpv3e86is0","pricing_plan_id":"cebpf4jnsgd1na2vs0mg"},{"bike_id":"2101f5e9-8114-44e2-b97b-a40129475b60","system_id":"levelo_inurba_marseille","lat":43.24815,"lon":5.37443,"is_reserved":false,"is_disabled":false,"rental_uris":{"android":"levelo://app?vid=2101f5e9-8114-44e2-b97b-a40129475b60","ios":"levelo://app?vid=2101f5e9-8114-44e2-b97b-a40129475b60"},"vehicle_type_id":"4","last_reported":1744315908,"current_range_meters":9600,"station_id":"ce4bhgh2rcd13ifvqfb0","pricing_plan_id":"cebpf4jnsgd1na2vs0mg"},{"bike_id":"d8b0aa2f-1985-400d-b3f1-fbf677acfa41","system_id":"levelo_inurba_marseille","lat":43.30277,"lon":5.37716,"is_reserved":false,"is_disabled":false,"rental_uris":{"android":"levelo://app?vid=d8b0aa2f-1985-400d-b3f1-fbf677acfa41","ios":"levelo://app?vid=d8b0aa2f-1985-400d-b3f1-fbf677acfa41"},"vehicle_type_id":"4","last_reported":1744315908,"current_range_meters":9600,"station_id":"ce4bguh2rcd13ifvqcj0","pricing_plan_id":"cebpf4jnsgd1na2vs0mg"},{"bike_id":"4320eead-890e-4be7-b94e-6cf50f5b3365","system_id":"levelo_inurba_marseille","lat":43.28945,"lon":5.39637,"is_reserved":false,"is_disabled":false,"rental_uris":{"android":"levelo://app?vid=4320eead-890e-4be7-b94e-6cf50f5b3365","ios":"levelo://app?vid=4320eead-890e-4be7-b94e-6cf50f5b3365"},"vehicle_type_id":"4","last_reported":1744315908,"current_range_meters":9600,"station_id":"ce4bh3h2rcd13ifvqdn0","pricing_plan_id":"cebpf4jnsgd1na2vs0mg"},{"bike_id":"bff67837-c676-4b88-9fdc-8db7fe587121","system_id":"levelo_inurba_marseille","lat":43.30234,"lon":5.40057,"is_reserved":false,"is_disabled":true,"rental_uris":{"android":"levelo://app?vid=bff67837-c676-4b88-9fdc-8db7fe587121","ios":"levelo://app?vid=bff67837-c676-4b88-9fdc-8db7fe587121"},"vehicle_type_id":"4","last_reported":1744315908,"current_range_meters":9600,"station_id":"ce4bgvh2rcd13ifvqcs0","pricing_plan_id":"cebpf4jnsgd1na2vs0mg"},{"bike_id":"6d67d7c5-3bbb-4f2d-8d91-b53987f005bd","system_id":"levelo_inurba_marseille","lat":43.28861,"lon":5.39316,"is_reserved":false,"is_disabled":false,"rental_uris":{"android":"levelo://app?vid=6d67d7c5-3bbb-4f2d-8d91-b53987f005bd","ios":"levelo://app?vid=6d67d7c5-3bbb-4f2d-8d91-b53987f005bd"},"vehicle_type_id":"4","last_reported":1744315908,"current_range_meters":9200,"station_id":"ce4bh2p2rcd13ifvqdi0","pricing_plan_id":"cebpf4jnsgd1na2vs0mg"},{"bike_id":"4651bfde-0ff3-4f15-bd15-152ce211037a","system_id":"levelo_inurba_marseille","lat":43.31267,"lon":5.40181,"is_reserved":false,"is_disabled":false,"rental_uris":{"android":"levelo://app?vid=4651bfde-0ff3-4f15-bd15-152ce211037a","ios":"levelo://app?vid=4651bfde-0ff3-4f15-bd15-152ce211037a"},"vehicle_type_id":"4","last_reported":1744315908,"current_range_meters":13600,"station_id":"ce4bh092rcd13ifvqd30","pricing_plan_id":"cebpf4jnsgd1na2vs0mg"},{"bike_id":"e6d2e435-93e4-4eb2-8766-702d4335f6bb","system_id":"levelo_inurba_marseille","lat":43.28842,"lon":5.39322,"is_reserved":false,"is_disabled":false,"rental_uris":{"android":"levelo://app?vid=e6d2e435-93e4-4eb2-8766-702d4335f6bb","ios":"levelo://app?vid=e6d2e435-93e4-4eb2-8766-702d4335f6bb"},"vehicle_type_id":"4","last_reported":1744315908,"current_range_meters":9600,"station_id":"ce4bh2p2rcd13ifvqdi0","pricing_plan_id":"cebpf4jnsgd1na2vs0mg"},{"bike_id":"a4f54658-c2c5-41ee-8ff5-d904f6a3de5a","system_id":"levelo_inurba_marseille","lat":43.29748,"lon":5.40014,"is_reserved":false,"is_disabled":false,"rental_uris":{"android":"levelo://app?vid=a4f54658-c2c5-41ee-8ff5-d904f6a3de5a","ios":"levelo://app?vid=a4f54658-c2c5-41ee-8ff5-d904f6a3de5a"},"vehicle_type_id":"4","last_reported":1744315908,"current_range_meters":9600,"station_id":"","pricing_plan_id":"cebpf4jnsgd1na2vs0mg"},{"bike_id":"33443bd1-63f0-4476-823e-4549241d83bd","system_id":"levelo_inurba_marseille","lat":43.229378,"lon":5.353766,"is_reserved":false,"is_disabled":false,"rental_uris":{"android":"levelo://app?vid=33443bd1-63f0-4476-823e-4549241d83bd","ios":"levelo://app?vid=33443bd1-63f0-4476-823e-4549241d83bd"},"vehicle_type_id":"4","last_reported":1744315908,"current_range_meters":10000,"station_id":"cpo3532slgdg3j2ikp40","pricing_plan_id":"cebpf4jnsgd1na2vs0mg"},{"bike_id":"888887eb-2a38-4d2f-8b2a-a68ca5298a1d","system_id":"levelo_inurba_marseille","lat":43.31488,"lon":5.37304,"is_reserved":false,"is_disabled":false,"rental_uris":{"android":"levelo://app?vid=888887eb-2a38-4d2f-8b2a-a68ca5298a1d","ios":"levelo://app?vid=888887eb-2a38-4d2f-8b2a-a68ca5298a1d"},"vehicle_type_id":"4","last_reported":1744315908,"current_range_meters":10000,"station_id":"ce4bgt12rcd13ifvqcd0","pricing_plan_id":"cebpf4jnsgd1na2vs0mg"},{"bike_id":"8af86071-fba0-4e95-95b0-de571a89c787","system_id":"levelo_inurba_marseille","lat":43.292592,"lon":5.384383,"is_reserved":false,"is_disabled":false,"rental_uris":{"android":"levelo://app?vid=8af86071-fba0-4e95-95b0-de571a89c787","ios":"levelo://app?vid=8af86071-fba0-4e95-95b0-de571a89c787"},"vehicle_type_id":"4","last_reported":1744315908,"current_range_meters":10000,"station_id":"","pricing_plan_id":"cebpf4jnsgd1na2vs0mg"},{"bike_id":"bd26530b-0f92-4e11-b8b3-926bb281a2c1","system_id":"levelo_inurba_marseille","lat":43.302269,"lon":5.371072,"is_reserved":false,"is_disabled":false,"rental_uris":{"android":"levelo://app?vid=bd26530b-0f92-4e11-b8b3-926bb281a2c1","ios":"levelo://app?vid=bd26530b-0f92-4e11-b8b3-926bb281a2c1"},"vehicle_type_id":"4","last_reported":1744315908,"current_range_meters":10000,"station_id":"ce4bgt12rcd13ifvqce0","pricing_plan_id":"cebpf4jnsgd1na2vs0mg"},{"bike_id":"63829faa-5ddc-4c99-9690-96ab5f6c89d8","system_id":"levelo_inurba_marseille","lat":43.28937,"lon":5.39615,"is_reserved":false,"is_disabled":false,"rental_uris":{"android":"levelo://app?vid=63829faa-5ddc-4c99-9690-96ab5f6c89d8","ios":"levelo://app?vid=63829faa-5ddc-4c99-9690-96ab5f6c89d8"},"vehicle_type_id":"4","last_reported":1744315908,"current_range_meters":10000,"station_id":"ce4bh3h2rcd13ifvqdn0","pricing_plan_id":"cebpf4jnsgd1na2vs0mg"},{"bike_id":"e24916fb-7755-4e53-b60d-62182a1de7b1","system_id":"levelo_inurba_marseille","lat":43.30078,"lon":5.39085,"is_reserved":false,"is_disabled":false,"rental_uris":{"android":"levelo://app?vid=e24916fb-7755-4e53-b60d-62182a1de7b1","ios":"levelo://app?vid=e24916fb-7755-4e53-b60d-62182a1de7b1"},"vehicle_type_id":"4","last_reported":1744315908,"current_range_meters":10000,"station_id":"ce4bh192rcd13ifvqdb0","pricing_plan_id":"cebpf4jnsgd1na2vs0mg"},{"bike_id":"632cd09d-01af-445a-84a2-7670ec80df1e","system_id":"levelo_inurba_marseille","lat":43.29581,"lon":5.38104,"is_reserved":false,"is_disabled":false,"rental_uris":{"android":"levelo://app?vid=632cd09d-01af-445a-84a2-7670ec80df1e","ios":"levelo://app?vid=632cd09d-01af-445a-84a2-7670ec80df1e"},"vehicle_type_id":"4","last_reported":1744315908,"current_range_meters":10000,"station_id":"ce4bgl12rcd13ifvqbo0","pricing_plan_id":"cebpf4jnsgd1na2vs0mg"},{"bike_id":"6cc1640d-fd9b-4ae9-abc0-b298c49ff868","system_id":"levelo_inurba_marseille","lat":43.29263,"lon":5.38439,"is_reserved":false,"is_disabled":false,"rental_uris":{"android":"levelo://app?vid=6cc1640d-fd9b-4ae9-abc0-b298c49ff868","ios":"levelo://app?vid=6cc1640d-fd9b-4ae9-abc0-b298c49ff868"},"vehicle_type_id":"4","last_reported":1744315908,"current_range_meters":10000,"station_id":"ce4bh692rcd13ifvqea0","pricing_plan_id":"cebpf4jnsgd1na2vs0mg"},{"bike_id":"8e69bd05-9633-4d7c-9c72-1fe42e0c7a83","system_id":"levelo_inurba_marseille","lat":43.26192,"lon":5.37448,"is_reserved":false,"is_disabled":false,"rental_uris":{"android":"levelo://app?vid=8e69bd05-9633-4d7c-9c72-1fe42e0c7a83","ios":"levelo://app?vid=8e69bd05-9633-4d7c-9c72-1fe42e0c7a83"},"vehicle_type_id":"4","last_reported":1744315908,"current_range_meters":10000,"station_id":"ce4bhgp2rcd13ifvqfc0","pricing_plan_id":"cebpf4jnsgd1na2vs0mg"},{"bike_id":"d00f31c2-6271-4542-b6a6-c74cb0410ea0","system_id":"levelo_inurba_marseille","lat":43.284422,"lon":5.39204,"is_reserved":false,"is_disabled":false,"rental_uris":{"android":"levelo://app?vid=d00f31c2-6271-4542-b6a6-c74cb0410ea0","ios":"levelo://app?vid=d00f31c2-6271-4542-b6a6-c74cb0410ea0"},"vehicle_type_id":"4","last_reported":1744315908,"current_range_meters":10000,"station_id":"ce4bhoh2rcd13ifvqh5g","pricing_plan_id":"cebpf4jnsgd1na2vs0mg"},{"bike_id":"ebec6783-b4fd-4a8c-bb14-4cc00bc79e20","system_id":"levelo_inurba_marseille","lat":43.290982,"lon":5.381413,"is_reserved":false,"is_disabled":false,"rental_uris":{"android":"levelo://app?vid=ebec6783-b4fd-4a8c-bb14-4cc00bc79e20","ios":"levelo://app?vid=ebec6783-b4fd-4a8c-bb14-4cc00bc79e20"},"vehicle_type_id":"4","last_reported":1744315908,"current_range_meters":10000,"station_id":"ce4bh512rcd13ifvqe2g","pricing_plan_id":"cebpf4jnsgd1na2vs0mg"},{"bike_id":"4e9167ce-1a0b-4147-8617-eebc5c8a3390","system_id":"levelo_inurba_marseille","lat":43.29035,"lon":5.3997,"is_reserved":false,"is_disabled":false,"rental_uris":{"android":"levelo://app?vid=4e9167ce-1a0b-4147-8617-eebc5c8a3390","ios":"levelo://app?vid=4e9167ce-1a0b-4147-8617-eebc5c8a3390"},"vehicle_type_id":"4","last_reported":1744315908,"current_range_meters":10000,"station_id":"ce4bh392rcd13ifvqdm0","pricing_plan_id":"cebpf4jnsgd1na2vs0mg"},{"bike_id":"2000497b-6d4b-416f-b43b-2a4143aad53b","system_id":"levelo_inurba_marseille","lat":43.32326,"lon":5.38567,"is_reserved":false,"is_disabled":false,"rental_uris":{"android":"levelo://app?vid=2000497b-6d4b-416f-b43b-2a4143aad53b","ios":"levelo://app?vid=2000497b-6d4b-416f-b43b-2a4143aad53b"},"vehicle_type_id":"4","last_reported":1744315908,"current_range_meters":10000,"station_id":"","pricing_plan_id":"cebpf4jnsgd1na2vs0mg"},{"bike_id":"74fb6ada-5912-4908-9bc3-7b7c6b0830fc","system_id":"levelo_inurba_marseille","lat":43.273134,"lon":5.39076,"is_reserved":false,"is_disabled":false,"rental_uris":{"android":"levelo://app?vid=74fb6ada-5912-4908-9bc3-7b7c6b0830fc","ios":"levelo://app?vid=74fb6ada-5912-4908-9bc3-7b7c6b0830fc"},"vehicle_type_id":"4","last_reported":1744315908,"current_range_meters":10000,"station_id":"ce4bhgp2rcd13ifvqfe0","pricing_plan_id":"cebpf4jnsgd1na2vs0mg"},{"bike_id":"46140d2e-b067-479d-a37c-2e6656b5f142","system_id":"levelo_inurba_marseille","lat":43.26925,"lon":5.38931,"is_reserved":false,"is_disabled":false,"rental_uris":{"android":"levelo://app?vid=46140d2e-b067-479d-a37c-2e6656b5f142","ios":"levelo://app?vid=46140d2e-b067-479d-a37c-2e6656b5f142"},"vehicle_type_id":"4","last_reported":1744315908,"current_range_meters":10800,"station_id":"ce4bhhh2rcd13ifvqfl0","pricing_plan_id":"cebpf4jnsgd1na2vs0mg"},{"bike_id":"c4b78367-cdbd-4cc2-a8db-f7594583c928","system_id":"levelo_inurba_marseille","lat":43.30932,"lon":5.40145,"is_reserved":false,"is_disabled":false,"rental_uris":{"android":"levelo://app?vid=c4b78367-cdbd-4cc2-a8db-f7594583c928","ios":"levelo://app?vid=c4b78367-cdbd-4cc2-a8db-f7594583c928"},"vehicle_type_id":"4","last_reported":1744315908,"current_range_meters":10800,"station_id":"ce4bgvp2rcd13ifvqct0","pricing_plan_id":"cebpf4jnsgd1na2vs0mg"},{"bike_id":"23a454cd-8909-4779-8b28-94851cf77f55","system_id":"levelo_inurba_marseille","lat":43.29535,"lon":5.38544,"is_reserved":false,"is_disabled":false,"rental_uris":{"android":"levelo://app?vid=23a454cd-8909-4779-8b28-94851cf77f55","ios":"levelo://app?vid=23a454cd-8909-4779-8b28-94851cf77f55"},"vehicle_type_id":"4","last_reported":1744315908,"current_range_meters":10800,"station_id":"ce4bgih2rcd13ifvqba0","pricing_plan_id":"cebpf4jnsgd1na2vs0mg"},{"bike_id":"eac420dd-0edc-47df-9dd1-4e69f09fc51b","system_id":"levelo_inurba_marseille","lat":43.29591,"lon":5.39326,"is_reserved":false,"is_disabled":false,"rental_uris":{"android":"levelo://app?vid=eac420dd-0edc-47df-9dd1-4e69f09fc51b","ios":"levelo://app?vid=eac420dd-0edc-47df-9dd1-4e69f09fc51b"},"vehicle_type_id":"4","last_reported":1744315908,"current_range_meters":10800,"station_id":"","pricing_plan_id":"cebpf4jnsgd1na2vs0mg"},{"bike_id":"30ee2873-7884-45b5-ad52-967ec2cd5388","system_id":"levelo_inurba_marseille","lat":43.27821,"lon":5.40729,"is_reserved":false,"is_disabled":false,"rental_uris":{"android":"levelo://app?vid=30ee2873-7884-45b5-ad52-967ec2cd5388","ios":"levelo://app?vid=30ee2873-7884-45b5-ad52-967ec2cd5388"},"vehicle_type_id":"4","last_reported":1744315908,"current_range_meters":10800,"station_id":"ce4bhnh2rcd13ifvqgtg","pricing_plan_id":"cebpf4jnsgd1na2vs0mg"},{"bike_id":"65f52e07-c7c1-4b0b-a98a-2cb0cb6e9ef2","system_id":"levelo_inurba_marseille","lat":43.24089,"lon":5.37727,"is_reserved":false,"is_disabled":false,"rental_uris":{"android":"levelo://app?vid=65f52e07-c7c1-4b0b-a98a-2cb0cb6e9ef2","ios":"levelo://app?vid=65f52e07-c7c1-4b0b-a98a-2cb0cb6e9ef2"},"vehicle_type_id":"4","last_reported":1744315908,"current_range_meters":10800,"station_id":"ce4bhnp2rcd13ifvqgvg","pricing_plan_id":"cebpf4jnsgd1na2vs0mg"},{"bike_id":"b2120413-bf26-4c0a-a45d-e5a3cb07ab1c","system_id":"levelo_inurba_marseille","lat":43.30941,"lon":5.39043,"is_reserved":false,"is_disabled":false,"rental_uris":{"android":"levelo://app?vid=b2120413-bf26-4c0a-a45d-e5a3cb07ab1c","ios":"levelo://app?vid=b2120413-bf26-4c0a-a45d-e5a3cb07ab1c"},"vehicle_type_id":"4","last_reported":1744315908,"current_range_meters":11200,"station_id":"ce4bgup2rcd13ifvqco0","pricing_plan_id":"cebpf4jnsgd1na2vs0mg"},{"bike_id":"68e0119a-8645-4479-b5b1-70d812883054","system_id":"levelo_inurba_marseille","lat":43.28094,"lon":5.37841,"is_reserved":false,"is_disabled":false,"rental_uris":{"android":"levelo://app?vid=68e0119a-8645-4479-b5b1-70d812883054","ios":"levelo://app?vid=68e0119a-8645-4479-b5b1-70d812883054"},"vehicle_type_id":"4","last_reported":1744315908,"current_range_meters":11200,"station_id":"ce4bha12rcd13ifvqee0","pricing_plan_id":"cebpf4jnsgd1na2vs0mg"},{"bike_id":"28079729-0482-4b35-83b7-a5e23b590d83","system_id":"levelo_inurba_marseille","lat":43.29426,"lon":5.38611,"is_reserved":false,"is_disabled":false,"rental_uris":{"android":"levelo://app?vid=28079729-0482-4b35-83b7-a5e23b590d83","ios":"levelo://app?vid=28079729-0482-4b35-83b7-a5e23b590d83"},"vehicle_type_id":"4","last_reported":1744315908,"current_range_meters":11200,"station_id":"ce4bh2h2rcd13ifvqdh0","pricing_plan_id":"cebpf4jnsgd1na2vs0mg"},{"bike_id":"6eb61986-8e92-47db-8c9a-ad77976386e7","system_id":"levelo_inurba_marseille","lat":43.30538,"lon":5.38438,"is_reserved":false,"is_disabled":true,"rental_uris":{"android":"levelo://app?vid=6eb61986-8e92-47db-8c9a-ad77976386e7","ios":"levelo://app?vid=6eb61986-8e92-47db-8c9a-ad77976386e7"},"vehicle_type_id":"4","last_reported":1744315908,"current_range_meters":11200,"station_id":"ce4bgg92rcd13ifvqb30","pricing_plan_id":"cebpf4jnsgd1na2vs0mg"},{"bike_id":"6652cf7c-e343-4af3-8768-9311ef2a6a17","system_id":"levelo_inurba_marseille","lat":43.28438,"lon":5.39213,"is_reserved":false,"is_disabled":false,"rental_uris":{"android":"levelo://app?vid=6652cf7c-e343-4af3-8768-9311ef2a6a17","ios":"levelo://app?vid=6652cf7c-e343-4af3-8768-9311ef2a6a17"},"vehicle_type_id":"4","last_reported":1744315908,"current_range_meters":11200,"station_id":"ce4bhoh2rcd13ifvqh5g","pricing_plan_id":"cebpf4jnsgd1na2vs0mg"},{"bike_id":"674363a5-747a-4d33-89d6-adee419a8014","system_id":"levelo_inurba_marseille","lat":43.29407,"lon":5.38635,"is_reserved":false,"is_disabled":false,"rental_uris":{"android":"levelo://app?vid=674363a5-747a-4d33-89d6-adee419a8014","ios":"levelo://app?vid=674363a5-747a-4d33-89d6-adee419a8014"},"vehicle_type_id":"4","last_reported":1744315908,"current_range_meters":11600,"station_id":"ce4bh2h2rcd13ifvqdh0","pricing_plan_id":"cebpf4jnsgd1na2vs0mg"},{"bike_id":"766488c0-e8c9-45da-a7ef-ba95d1783edc","system_id":"levelo_inurba_marseille","lat":43.28401,"lon":5.3752,"is_reserved":false,"is_disabled":false,"rental_uris":{"android":"levelo://app?vid=766488c0-e8c9-45da-a7ef-ba95d1783edc","ios":"levelo://app?vid=766488c0-e8c9-45da-a7ef-ba95d1783edc"},"vehicle_type_id":"4","last_reported":1744315908,"current_range_meters":11600,"station_id":"ce4bh412rcd13ifvqds0","pricing_plan_id":"cebpf4jnsgd1na2vs0mg"},{"bike_id":"f35bf9dc-54a4-4991-936a-0ccd70a88e10","system_id":"levelo_inurba_marseille","lat":43.29533,"lon":5.38543,"is_reserved":false,"is_disabled":false,"rental_uris":{"android":"levelo://app?vid=f35bf9dc-54a4-4991-936a-0ccd70a88e10","ios":"levelo://app?vid=f35bf9dc-54a4-4991-936a-0ccd70a88e10"},"vehicle_type_id":"4","last_reported":1744315908,"current_range_meters":11600,"station_id":"ce4bgih2rcd13ifvqba0","pricing_plan_id":"cebpf4jnsgd1na2vs0mg"},{"bike_id":"ac9c9b50-06ec-4d5d-bd8c-2690e8ae53c2","system_id":"levelo_inurba_marseille","lat":43.28348,"lon":5.38113,"is_reserved":false,"is_disabled":false,"rental_uris":{"android":"levelo://app?vid=ac9c9b50-06ec-4d5d-bd8c-2690e8ae53c2","ios":"levelo://app?vid=ac9c9b50-06ec-4d5d-bd8c-2690e8ae53c2"},"vehicle_type_id":"4","last_reported":1744315908,"current_range_meters":11600,"station_id":"ce4bh412rcd13ifvqdr0","pricing_plan_id":"cebpf4jnsgd1na2vs0mg"},{"bike_id":"31988951-a875-4951-87a2-1daaae233052","system_id":"levelo_inurba_marseille","lat":43.25496,"lon":5.37638,"is_reserved":false,"is_disabled":false,"rental_uris":{"android":"levelo://app?vid=31988951-a875-4951-87a2-1daaae233052","ios":"levelo://app?vid=31988951-a875-4951-87a2-1daaae233052"},"vehicle_type_id":"4","last_reported":1744315908,"current_range_meters":11600,"station_id":"ce4bhh12rcd13ifvqff0","pricing_plan_id":"cebpf4jnsgd1na2vs0mg"},{"bike_id":"a21dde5e-5aa4-4729-9446-ebf1b2f89710","system_id":"levelo_inurba_marseille","lat":43.29956,"lon":5.41321,"is_reserved":false,"is_disabled":false,"rental_uris":{"android":"levelo://app?vid=a21dde5e-5aa4-4729-9446-ebf1b2f89710","ios":"levelo://app?vid=a21dde5e-5aa4-4729-9446-ebf1b2f89710"},"vehicle_type_id":"4","last_reported":1744315908,"current_range_meters":12000,"station_id":"ce4bhp12rcd13ifvqh9g","pricing_plan_id":"cebpf4jnsgd1na2vs0mg"},{"bike_id":"fbd51d4f-3071-4609-b042-52b0dcccbe4b","system_id":"levelo_inurba_marseille","lat":43.24385,"lon":5.37059,"is_reserved":false,"is_disabled":false,"rental_uris":{"android":"levelo://app?vid=fbd51d4f-3071-4609-b042-52b0dcccbe4b","ios":"levelo://app?vid=fbd51d4f-3071-4609-b042-52b0dcccbe4b"},"vehicle_type_id":"4","last_reported":1744315908,"current_range_meters":12000,"station_id":"ce4bhhh2rcd13ifvqfk0","pricing_plan_id":"cebpf4jnsgd1na2vs0mg"},{"bike_id":"0dd567c6-0c23-4370-a2e1-3f9f717685dc","system_id":"levelo_inurba_marseille","lat":43.29466,"lon":5.38682,"is_reserved":false,"is_disabled":false,"rental_uris":{"android":"levelo://app?vid=0dd567c6-0c23-4370-a2e1-3f9f717685dc","ios":"levelo://app?vid=0dd567c6-0c23-4370-a2e1-3f9f717685dc"},"vehicle_type_id":"4","last_reported":1744315908,"current_range_meters":12000,"station_id":"","pricing_plan_id":"cebpf4jnsgd1na2vs0mg"},{"bike_id":"1741b489-a8ea-4c41-9d0d-75107d63165f","system_id":"levelo_inurba_marseille","lat":43.29421,"lon":5.38616,"is_reserved":false,"is_disabled":false,"rental_uris":{"android":"levelo://app?vid=1741b489-a8ea-4c41-9d0d-75107d63165f","ios":"levelo://app?vid=1741b489-a8ea-4c41-9d0d-75107d63165f"},"vehicle_type_id":"4","last_reported":1744315908,"current_range_meters":12000,"station_id":"ce4bh2h2rcd13ifvqdh0","pricing_plan_id":"cebpf4jnsgd1na2vs0mg"},{"bike_id":"872c2c56-2ca2-429f-bf74-abf0a69eeaca","system_id":"levelo_inurba_marseille","lat":43.30433,"lon":5.38893,"is_reserved":false,"is_disabled":false,"rental_uris":{"android":"levelo://app?vid=872c2c56-2ca2-429f-bf74-abf0a69eeaca","ios":"levelo://app?vid=872c2c56-2ca2-429f-bf74-abf0a69eeaca"},"vehicle_type_id":"4","last_reported":1744315908,"current_range_meters":12000,"station_id":"ce4bgk12rcd13ifvqbi0","pricing_plan_id":"cebpf4jnsgd1na2vs0mg"},{"bike_id":"b8559ad8-e571-45fa-92ff-1e0aa7813dbf","system_id":"levelo_inurba_marseille","lat":43.2819,"lon":5.42648,"is_reserved":false,"is_disabled":false,"rental_uris":{"android":"levelo://app?vid=b8559ad8-e571-45fa-92ff-1e0aa7813dbf","ios":"levelo://app?vid=b8559ad8-e571-45fa-92ff-1e0aa7813dbf"},"vehicle_type_id":"4","last_reported":1744315908,"current_range_meters":12000,"station_id":"ce4bhnh2rcd13ifvqgug","pricing_plan_id":"cebpf4jnsgd1na2vs0mg"},{"bike_id":"1066df41-75c6-40c9-be1b-a76eee937607","system_id":"levelo_inurba_marseille","lat":43.2987,"lon":5.38914,"is_reserved":false,"is_disabled":false,"rental_uris":{"android":"levelo://app?vid=1066df41-75c6-40c9-be1b-a76eee937607","ios":"levelo://app?vid=1066df41-75c6-40c9-be1b-a76eee937607"},"vehicle_type_id":"4","last_reported":1744315908,"current_range_meters":12000,"station_id":"ce4bh392rcd13ifvqdl0","pricing_plan_id":"cebpf4jnsgd1na2vs0mg"},{"bike_id":"2640c520-75d3-4743-a94e-54c5baedbf37","system_id":"levelo_inurba_marseille","lat":43.28714,"lon":5.37941,"is_reserved":false,"is_disabled":false,"rental_uris":{"android":"levelo://app?vid=2640c520-75d3-4743-a94e-54c5baedbf37","ios":"levelo://app?vid=2640c520-75d3-4743-a94e-54c5baedbf37"},"vehicle_type_id":"4","last_reported":1744315908,"current_range_meters":12000,"station_id":"ce4bh9p2rcd13ifvqec0","pricing_plan_id":"cebpf4jnsgd1na2vs0mg"},{"bike_id":"9f72ff23-41fc-43df-98da-40a58014c2c9","system_id":"levelo_inurba_marseille","lat":43.2953,"lon":5.38543,"is_reserved":false,"is_disabled":false,"rental_uris":{"android":"levelo://app?vid=9f72ff23-41fc-43df-98da-40a58014c2c9","ios":"levelo://app?vid=9f72ff23-41fc-43df-98da-40a58014c2c9"},"vehicle_type_id":"4","last_reported":1744315908,"current_range_meters":12000,"station_id":"ce4bgih2rcd13ifvqba0","pricing_plan_id":"cebpf4jnsgd1na2vs0mg"},{"bike_id":"6a44d07f-efb6-44c9-9903-b0eb2ef1be59","system_id":"levelo_inurba_marseille","lat":43.2293,"lon":5.35375,"is_reserved":false,"is_disabled":false,"rental_uris":{"android":"levelo://app?vid=6a44d07f-efb6-44c9-9903-b0eb2ef1be59","ios":"levelo://app?vid=6a44d07f-efb6-44c9-9903-b0eb2ef1be59"},"vehicle_type_id":"4","last_reported":1744315908,"current_range_meters":12400,"station_id":"cpo3532slgdg3j2ikp40","pricing_plan_id":"cebpf4jnsgd1na2vs0mg"},{"bike_id":"b6c0523e-d7a7-485b-930a-04dbca08fcbe","system_id":"levelo_inurba_marseille","lat":43.2926,"lon":5.38435,"is_reserved":false,"is_disabled":false,"rental_uris":{"android":"levelo://app?vid=b6c0523e-d7a7-485b-930a-04dbca08fcbe","ios":"levelo://app?vid=b6c0523e-d7a7-485b-930a-04dbca08fcbe"},"vehicle_type_id":"4","last_reported":1744315908,"current_range_meters":12400,"station_id":"ce4bh692rcd13ifvqea0","pricing_plan_id":"cebpf4jnsgd1na2vs0mg"},{"bike_id":"de07953f-a368-43dd-aba2-34a7197efe50","system_id":"levelo_inurba_marseille","lat":43.256115,"lon":5.405147,"is_reserved":false,"is_disabled":false,"rental_uris":{"android":"levelo://app?vid=de07953f-a368-43dd-aba2-34a7197efe50","ios":"levelo://app?vid=de07953f-a368-43dd-aba2-34a7197efe50"},"vehicle_type_id":"4","last_reported":1744315908,"current_range_meters":12400,"station_id":"","pricing_plan_id":"cebpf4jnsgd1na2vs0mg"},{"bike_id":"fb616cd3-23a4-48e3-9a4e-7023a427b4b8","system_id":"levelo_inurba_marseille","lat":43.29668,"lon":5.39585,"is_reserved":false,"is_disabled":false,"rental_uris":{"android":"levelo://app?vid=fb616cd3-23a4-48e3-9a4e-7023a427b4b8","ios":"levelo://app?vid=fb616cd3-23a4-48e3-9a4e-7023a427b4b8"},"vehicle_type_id":"4","last_reported":1744315908,"current_range_meters":12400,"station_id":"","pricing_plan_id":"cebpf4jnsgd1na2vs0mg"},{"bike_id":"8c439f75-0e78-478e-9d3b-c51e25624a4c","system_id":"levelo_inurba_marseille","lat":43.31324,"lon":5.39687,"is_reserved":false,"is_disabled":false,"rental_uris":{"android":"levelo://app?vid=8c439f75-0e78-478e-9d3b-c51e25624a4c","ios":"levelo://app?vid=8c439f75-0e78-478e-9d3b-c51e25624a4c"},"vehicle_type_id":"4","last_reported":1744315908,"current_range_meters":12000,"station_id":"ce4bgvp2rcd13ifvqcu0","pricing_plan_id":"cebpf4jnsgd1na2vs0mg"},{"bike_id":"ed80d9cf-90e4-4ae0-8a60-71f57ccf26d0","system_id":"levelo_inurba_marseille","lat":43.3014,"lon":5.38776,"is_reserved":false,"is_disabled":false,"rental_uris":{"android":"levelo://app?vid=ed80d9cf-90e4-4ae0-8a60-71f57ccf26d0","ios":"levelo://app?vid=ed80d9cf-90e4-4ae0-8a60-71f57ccf26d0"},"vehicle_type_id":"4","last_reported":1744315908,"current_range_meters":12000,"station_id":"ce4bghh2rcd13ifvqb60","pricing_plan_id":"cebpf4jnsgd1na2vs0mg"},{"bike_id":"d4a1fc33-4313-4254-8a3d-5b22f97cf603","system_id":"levelo_inurba_marseille","lat":43.29295,"lon":5.40103,"is_reserved":false,"is_disabled":false,"rental_uris":{"android":"levelo://app?vid=d4a1fc33-4313-4254-8a3d-5b22f97cf603","ios":"levelo://app?vid=d4a1fc33-4313-4254-8a3d-5b22f97cf603"},"vehicle_type_id":"4","last_reported":1744315908,"current_range_meters":12000,"station_id":"ce4bh312rcd13ifvqdk0","pricing_plan_id":"cebpf4jnsgd1na2vs0mg"},{"bike_id":"36dd2f5e-4014-41b9-8f6e-aa54636e0b8b","system_id":"levelo_inurba_marseille","lat":43.24163,"lon":5.36412,"is_reserved":false,"is_disabled":false,"rental_uris":{"android":"levelo://app?vid=36dd2f5e-4014-41b9-8f6e-aa54636e0b8b","ios":"levelo://app?vid=36dd2f5e-4014-41b9-8f6e-aa54636e0b8b"},"vehicle_type_id":"4","last_reported":1744315908,"current_range_meters":12400,"station_id":"cpo36qri1sfpv3e86is0","pricing_plan_id":"cebpf4jnsgd1na2vs0mg"},{"bike_id":"8df28d80-d52c-4659-98f1-edc0d7f321ca","system_id":"levelo_inurba_marseille","lat":43.29279,"lon":5.40118,"is_reserved":false,"is_disabled":false,"rental_uris":{"android":"levelo://app?vid=8df28d80-d52c-4659-98f1-edc0d7f321ca","ios":"levelo://app?vid=8df28d80-d52c-4659-98f1-edc0d7f321ca"},"vehicle_type_id":"4","last_reported":1744315908,"current_range_meters":14000,"station_id":"ce4bh312rcd13ifvqdk0","pricing_plan_id":"cebpf4jnsgd1na2vs0mg"},{"bike_id":"17f5363c-fef9-4613-a6c1-cf1e5424fa4f","system_id":"levelo_inurba_marseille","lat":43.29591,"lon":5.38106,"is_reserved":false,"is_disabled":false,"rental_uris":{"android":"levelo://app?vid=17f5363c-fef9-4613-a6c1-cf1e5424fa4f","ios":"levelo://app?vid=17f5363c-fef9-4613-a6c1-cf1e5424fa4f"},"vehicle_type_id":"4","last_reported":1744315908,"current_range_meters":12800,"station_id":"ce4bgl12rcd13ifvqbo0","pricing_plan_id":"cebpf4jnsgd1na2vs0mg"},{"bike_id":"7e6bbaa5-b4ae-4870-baf4-585f161e3b8e","system_id":"levelo_inurba_marseille","lat":43.30949,"lon":5.39028,"is_reserved":false,"is_disabled":false,"rental_uris":{"android":"levelo://app?vid=7e6bbaa5-b4ae-4870-baf4-585f161e3b8e","ios":"levelo://app?vid=7e6bbaa5-b4ae-4870-baf4-585f161e3b8e"},"vehicle_type_id":"4","last_reported":1744315908,"current_range_meters":12800,"station_id":"ce4bgup2rcd13ifvqco0","pricing_plan_id":"cebpf4jnsgd1na2vs0mg"},{"bike_id":"b24b8b5e-d537-496c-8bfb-33c04905b018","system_id":"levelo_inurba_marseille","lat":43.310808,"lon":5.424292,"is_reserved":false,"is_disabled":false,"rental_uris":{"android":"levelo://app?vid=b24b8b5e-d537-496c-8bfb-33c04905b018","ios":"levelo://app?vid=b24b8b5e-d537-496c-8bfb-33c04905b018"},"vehicle_type_id":"4","last_reported":1744315908,"current_range_meters":12800,"station_id":"ce4bhp92rcd13ifvqhag","pricing_plan_id":"cebpf4jnsgd1na2vs0mg"},{"bike_id":"a8ce148c-c646-49c7-bc93-8e16c53d9a41","system_id":"levelo_inurba_marseille","lat":43.23177,"lon":5.39986,"is_reserved":false,"is_disabled":false,"rental_uris":{"android":"levelo://app?vid=a8ce148c-c646-49c7-bc93-8e16c53d9a41","ios":"levelo://app?vid=a8ce148c-c646-49c7-bc93-8e16c53d9a41"},"vehicle_type_id":"4","last_reported":1744315908,"current_range_meters":12800,"station_id":"ce4bhn12rcd13ifvqgqg","pricing_plan_id":"cebpf4jnsgd1na2vs0mg"},{"bike_id":"52d84cef-0b7e-4276-bacb-e42a6589921b","system_id":"levelo_inurba_marseille","lat":43.24174,"lon":5.39726,"is_reserved":false,"is_disabled":false,"rental_uris":{"android":"levelo://app?vid=52d84cef-0b7e-4276-bacb-e42a6589921b","ios":"levelo://app?vid=52d84cef-0b7e-4276-bacb-e42a6589921b"},"vehicle_type_id":"4","last_reported":1744315908,"current_range_meters":12800,"station_id":"ce4bhn12rcd13ifvqgpg","pricing_plan_id":"cebpf4jnsgd1na2vs0mg"},{"bike_id":"ca2645bd-903e-4a0e-9ad3-b9a2ab31b51e","system_id":"levelo_inurba_marseille","lat":43.28934,"lon":5.38408,"is_reserved":false,"is_disabled":false,"rental_uris":{"android":"levelo://app?vid=ca2645bd-903e-4a0e-9ad3-b9a2ab31b51e","ios":"levelo://app?vid=ca2645bd-903e-4a0e-9ad3-b9a2ab31b51e"},"vehicle_type_id":"4","last_reported":1744315908,"current_range_meters":12800,"station_id":"ce4bh612rcd13ifvqe6g","pricing_plan_id":"cebpf4jnsgd1na2vs0mg"},{"bike_id":"ffeb1a27-7d40-459d-9212-da041f50aae5","system_id":"levelo_inurba_marseille","lat":43.30187,"lon":5.39481,"is_reserved":false,"is_disabled":false,"rental_uris":{"android":"levelo://app?vid=ffeb1a27-7d40-459d-9212-da041f50aae5","ios":"levelo://app?vid=ffeb1a27-7d40-459d-9212-da041f50aae5"},"vehicle_type_id":"4","last_reported":1744315908,"current_range_meters":13600,"station_id":"ce4bh0p2rcd13ifvqd70","pricing_plan_id":"cebpf4jnsgd1na2vs0mg"},{"bike_id":"3a0adae9-eec3-4c10-abbc-131050a97578","system_id":"levelo_inurba_marseille","lat":43.29532,"lon":5.38551,"is_reserved":false,"is_disabled":false,"rental_uris":{"android":"levelo://app?vid=3a0adae9-eec3-4c10-abbc-131050a97578","ios":"levelo://app?vid=3a0adae9-eec3-4c10-abbc-131050a97578"},"vehicle_type_id":"4","last_reported":1744315908,"current_range_meters":13600,"station_id":"ce4bgih2rcd13ifvqba0","pricing_plan_id":"cebpf4jnsgd1na2vs0mg"},{"bike_id":"bd2f5995-27ec-4e39-9257-a3bd08cd44e1","system_id":"levelo_inurba_marseille","lat":43.28425,"lon":5.37526,"is_reserved":false,"is_disabled":false,"rental_uris":{"android":"levelo://app?vid=bd2f5995-27ec-4e39-9257-a3bd08cd44e1","ios":"levelo://app?vid=bd2f5995-27ec-4e39-9257-a3bd08cd44e1"},"vehicle_type_id":"4","last_reported":1744315908,"current_range_meters":13600,"station_id":"ce4bh412rcd13ifvqds0","pricing_plan_id":"cebpf4jnsgd1na2vs0mg"},{"bike_id":"eab6cbfa-cb8e-47d7-b0d6-226ab7facec7","system_id":"levelo_inurba_marseille","lat":43.31719,"lon":5.42397,"is_reserved":false,"is_disabled":true,"rental_uris":{"android":"levelo://app?vid=eab6cbfa-cb8e-47d7-b0d6-226ab7facec7","ios":"levelo://app?vid=eab6cbfa-cb8e-47d7-b0d6-226ab7facec7"},"vehicle_type_id":"4","last_reported":1744315908,"current_range_meters":13600,"station_id":"ce4bhp92rcd13ifvqhbg","pricing_plan_id":"cebpf4jnsgd1na2vs0mg"},{"bike_id":"24f61094-2884-4505-92cb-05f0f0516800","system_id":"levelo_inurba_marseille","lat":43.29261,"lon":5.40901,"is_reserved":false,"is_disabled":false,"rental_uris":{"android":"levelo://app?vid=24f61094-2884-4505-92cb-05f0f0516800","ios":"levelo://app?vid=24f61094-2884-4505-92cb-05f0f0516800"},"vehicle_type_id":"4","last_reported":1744315908,"current_range_meters":13600,"station_id":"ce4bh192rcd13ifvqdc0","pricing_plan_id":"cebpf4jnsgd1na2vs0mg"},{"bike_id":"255973b5-39a3-4d41-861a-c1f5618bc0b5","system_id":"levelo_inurba_marseille","lat":43.27053,"lon":5.40261,"is_reserved":false,"is_disabled":false,"rental_uris":{"android":"levelo://app?vid=255973b5-39a3-4d41-861a-c1f5618bc0b5","ios":"levelo://app?vid=255973b5-39a3-4d41-861a-c1f5618bc0b5"},"vehicle_type_id":"4","last_reported":1744315908,"current_range_meters":14000,"station_id":"ce4bhk92rcd13ifvqgc0","pricing_plan_id":"cebpf4jnsgd1na2vs0mg"},{"bike_id":"7c771e70-c4c7-44a9-8836-e6ddaac64a95","system_id":"levelo_inurba_marseille","lat":43.30805,"lon":5.3814,"is_reserved":false,"is_disabled":false,"rental_uris":{"android":"levelo://app?vid=7c771e70-c4c7-44a9-8836-e6ddaac64a95","ios":"levelo://app?vid=7c771e70-c4c7-44a9-8836-e6ddaac64a95"},"vehicle_type_id":"4","last_reported":1744315908,"current_range_meters":14000,"station_id":"ce4bgt12rcd13ifvqce0","pricing_plan_id":"cebpf4jnsgd1na2vs0mg"},{"bike_id":"e7de89d8-5ab1-4757-b9bc-cdd9e4869f74","system_id":"levelo_inurba_marseille","lat":43.2987,"lon":5.38908,"is_reserved":false,"is_disabled":false,"rental_uris":{"android":"levelo://app?vid=e7de89d8-5ab1-4757-b9bc-cdd9e4869f74","ios":"levelo://app?vid=e7de89d8-5ab1-4757-b9bc-cdd9e4869f74"},"vehicle_type_id":"4","last_reported":1744315908,"current_range_meters":13600,"station_id":"ce4bh392rcd13ifvqdl0","pricing_plan_id":"cebpf4jnsgd1na2vs0mg"},{"bike_id":"0922821c-4e1d-4817-9469-860e55f8f0d1","system_id":"levelo_inurba_marseille","lat":43.22508,"lon":5.34773,"is_reserved":false,"is_disabled":false,"rental_uris":{"android":"levelo://app?vid=0922821c-4e1d-4817-9469-860e55f8f0d1","ios":"levelo://app?vid=0922821c-4e1d-4817-9469-860e55f8f0d1"},"vehicle_type_id":"4","last_reported":1744315908,"current_range_meters":14000,"station_id":"st_cvj5dfep6f1abm77gieg","pricing_plan_id":"cebpf4jnsgd1na2vs0mg"},{"bike_id":"8c01c616-33d3-4f21-a94b-3bf76ab48ae7","system_id":"levelo_inurba_marseille","lat":43.28948,"lon":5.36629,"is_reserved":false,"is_disabled":true,"rental_uris":{"android":"levelo://app?vid=8c01c616-33d3-4f21-a94b-3bf76ab48ae7","ios":"levelo://app?vid=8c01c616-33d3-4f21-a94b-3bf76ab48ae7"},"vehicle_type_id":"4","last_reported":1744315908,"current_range_meters":14400,"station_id":"ce4bhap2rcd13ifvqek0","pricing_plan_id":"cebpf4jnsgd1na2vs0mg"},{"bike_id":"ce11be39-c666-4785-9f7f-729a97095841","system_id":"levelo_inurba_marseille","lat":43.29537,"lon":5.38552,"is_reserved":false,"is_disabled":false,"rental_uris":{"android":"levelo://app?vid=ce11be39-c666-4785-9f7f-729a97095841","ios":"levelo://app?vid=ce11be39-c666-4785-9f7f-729a97095841"},"vehicle_type_id":"4","last_reported":1744315908,"current_range_meters":14400,"station_id":"ce4bgih2rcd13ifvqba0","pricing_plan_id":"cebpf4jnsgd1na2vs0mg"},{"bike_id":"61956625-103c-4e29-8e73-824de117931b","system_id":"levelo_inurba_marseille","lat":43.31495,"lon":5.37306,"is_reserved":false,"is_disabled":false,"rental_uris":{"android":"levelo://app?vid=61956625-103c-4e29-8e73-824de117931b","ios":"levelo://app?vid=61956625-103c-4e29-8e73-824de117931b"},"vehicle_type_id":"4","last_reported":1744315908,"current_range_meters":14400,"station_id":"ce4bgt12rcd13ifvqcd0","pricing_plan_id":"cebpf4jnsgd1na2vs0mg"},{"bike_id":"792b517f-decc-4f18-a88b-558710987d78","system_id":"levelo_inurba_marseille","lat":43.28929,"lon":5.39624,"is_reserved":false,"is_disabled":false,"rental_uris":{"android":"levelo://app?vid=792b517f-decc-4f18-a88b-558710987d78","ios":"levelo://app?vid=792b517f-decc-4f18-a88b-558710987d78"},"vehicle_type_id":"4","last_reported":1744315908,"current_range_meters":14400,"station_id":"ce4bh3h2rcd13ifvqdn0","pricing_plan_id":"cebpf4jnsgd1na2vs0mg"},{"bike_id":"9c07b687-0cca-4a28-82f6-66c50d295640","system_id":"levelo_inurba_marseille","lat":43.32342,"lon":5.38328,"is_reserved":false,"is_disabled":false,"rental_uris":{"android":"levelo://app?vid=9c07b687-0cca-4a28-82f6-66c50d295640","ios":"levelo://app?vid=9c07b687-0cca-4a28-82f6-66c50d295640"},"vehicle_type_id":"4","last_reported":1744315908,"current_range_meters":14400,"station_id":"","pricing_plan_id":"cebpf4jnsgd1na2vs0mg"},{"bike_id":"050cd063-181e-4ee5-8ef4-42912453dbbd","system_id":"levelo_inurba_marseille","lat":43.29965,"lon":5.38504,"is_reserved":false,"is_disabled":false,"rental_uris":{"android":"levelo://app?vid=050cd063-181e-4ee5-8ef4-42912453dbbd","ios":"levelo://app?vid=050cd063-181e-4ee5-8ef4-42912453dbbd"},"vehicle_type_id":"4","last_reported":1744315908,"current_range_meters":14000,"station_id":"ce4bgj92rcd13ifvqbd0","pricing_plan_id":"cebpf4jnsgd1na2vs0mg"},{"bike_id":"784f6f6f-9f28-47b2-878e-a7ec8d21c437","system_id":"levelo_inurba_marseille","lat":43.33767,"lon":5.3747,"is_reserved":false,"is_disabled":false,"rental_uris":{"android":"levelo://app?vid=784f6f6f-9f28-47b2-878e-a7ec8d21c437","ios":"levelo://app?vid=784f6f6f-9f28-47b2-878e-a7ec8d21c437"},"vehicle_type_id":"4","last_reported":1744315908,"current_range_meters":14400,"station_id":"","pricing_plan_id":"cebpf4jnsgd1na2vs0mg"},{"bike_id":"1fbd55e0-e3e0-46f4-902f-25bf704231d9","system_id":"levelo_inurba_marseille","lat":43.28929,"lon":5.39629,"is_reserved":false,"is_disabled":false,"rental_uris":{"android":"levelo://app?vid=1fbd55e0-e3e0-46f4-902f-25bf704231d9","ios":"levelo://app?vid=1fbd55e0-e3e0-46f4-902f-25bf704231d9"},"vehicle_type_id":"4","last_reported":1744315908,"current_range_meters":14400,"station_id":"ce4bh3h2rcd13ifvqdn0","pricing_plan_id":"cebpf4jnsgd1na2vs0mg"},{"bike_id":"8795a189-59b6-42a9-ae53-771596120f98","system_id":"levelo_inurba_marseille","lat":43.30145,"lon":5.38786,"is_reserved":false,"is_disabled":false,"rental_uris":{"android":"levelo://app?vid=8795a189-59b6-42a9-ae53-771596120f98","ios":"levelo://app?vid=8795a189-59b6-42a9-ae53-771596120f98"},"vehicle_type_id":"4","last_reported":1744315908,"current_range_meters":14800,"station_id":"ce4bghh2rcd13ifvqb60","pricing_plan_id":"cebpf4jnsgd1na2vs0mg"},{"bike_id":"9cd25f07-3f82-4678-9adf-c4bff19145ac","system_id":"levelo_inurba_marseille","lat":43.31322,"lon":5.39693,"is_reserved":false,"is_disabled":false,"rental_uris":{"android":"levelo://app?vid=9cd25f07-3f82-4678-9adf-c4bff19145ac","ios":"levelo://app?vid=9cd25f07-3f82-4678-9adf-c4bff19145ac"},"vehicle_type_id":"4","last_reported":1744315908,"current_range_meters":14800,"station_id":"ce4bgvp2rcd13ifvqcu0","pricing_plan_id":"cebpf4jnsgd1na2vs0mg"},{"bike_id":"f678cb81-4386-4594-8074-801a443cb2ed","system_id":"levelo_inurba_marseille","lat":43.28147,"lon":5.42634,"is_reserved":false,"is_disabled":false,"rental_uris":{"android":"levelo://app?vid=f678cb81-4386-4594-8074-801a443cb2ed","ios":"levelo://app?vid=f678cb81-4386-4594-8074-801a443cb2ed"},"vehicle_type_id":"4","last_reported":1744315908,"current_range_meters":14800,"station_id":"ce4bhnh2rcd13ifvqgug","pricing_plan_id":"cebpf4jnsgd1na2vs0mg"},{"bike_id":"2f604b1b-d5c1-4825-8a1c-02d30e0bb26a","system_id":"levelo_inurba_marseille","lat":43.310669,"lon":5.383547,"is_reserved":false,"is_disabled":false,"rental_uris":{"android":"levelo://app?vid=2f604b1b-d5c1-4825-8a1c-02d30e0bb26a","ios":"levelo://app?vid=2f604b1b-d5c1-4825-8a1c-02d30e0bb26a"},"vehicle_type_id":"4","last_reported":1744315908,"current_range_meters":14800,"station_id":"ce4bgv92rcd13ifvqcr0","pricing_plan_id":"cebpf4jnsgd1na2vs0mg"},{"bike_id":"c266cdc4-c7b8-499b-9979-d13187952b82","system_id":"levelo_inurba_marseille","lat":43.26929,"lon":5.38921,"is_reserved":false,"is_disabled":false,"rental_uris":{"android":"levelo://app?vid=c266cdc4-c7b8-499b-9979-d13187952b82","ios":"levelo://app?vid=c266cdc4-c7b8-499b-9979-d13187952b82"},"vehicle_type_id":"4","last_reported":1744315908,"current_range_meters":14800,"station_id":"ce4bhhh2rcd13ifvqfl0","pricing_plan_id":"cebpf4jnsgd1na2vs0mg"},{"bike_id":"797b7195-7bfb-4b60-adae-bf20979fcc75","system_id":"levelo_inurba_marseille","lat":43.30794,"lon":5.37645,"is_reserved":false,"is_disabled":false,"rental_uris":{"android":"levelo://app?vid=797b7195-7bfb-4b60-adae-bf20979fcc75","ios":"levelo://app?vid=797b7195-7bfb-4b60-adae-bf20979fcc75"},"vehicle_type_id":"4","last_reported":1744315908,"current_range_meters":14800,"station_id":"ce4bgv92rcd13ifvqcq0","pricing_plan_id":"cebpf4jnsgd1na2vs0mg"},{"bike_id":"b44a3465-06ec-48e8-a01a-eca7184200a1","system_id":"levelo_inurba_marseille","lat":43.29036,"lon":5.37568,"is_reserved":false,"is_disabled":false,"rental_uris":{"android":"levelo://app?vid=b44a3465-06ec-48e8-a01a-eca7184200a1","ios":"levelo://app?vid=b44a3465-06ec-48e8-a01a-eca7184200a1"},"vehicle_type_id":"4","last_reported":1744315908,"current_range_meters":14800,"station_id":"ce4bh692rcd13ifvqe90","pricing_plan_id":"cebpf4jnsgd1na2vs0mg"},{"bike_id":"20f65c92-555f-4418-99be-36df14bd09e6","system_id":"levelo_inurba_marseille","lat":43.24648,"lon":5.38889,"is_reserved":false,"is_disabled":false,"rental_uris":{"android":"levelo://app?vid=20f65c92-555f-4418-99be-36df14bd09e6","ios":"levelo://app?vid=20f65c92-555f-4418-99be-36df14bd09e6"},"vehicle_type_id":"4","last_reported":1744315908,"current_range_meters":14800,"station_id":"ce4bhg12rcd13ifvqf60","pricing_plan_id":"cebpf4jnsgd1na2vs0mg"},{"bike_id":"692cc98c-3560-4504-a902-f3e2ecaa791b","system_id":"levelo_inurba_marseille","lat":43.30799,"lon":5.38172,"is_reserved":false,"is_disabled":false,"rental_uris":{"android":"levelo://app?vid=692cc98c-3560-4504-a902-f3e2ecaa791b","ios":"levelo://app?vid=692cc98c-3560-4504-a902-f3e2ecaa791b"},"vehicle_type_id":"4","last_reported":1744315908,"current_range_meters":14800,"station_id":"ce4bgt12rcd13ifvqce0","pricing_plan_id":"cebpf4jnsgd1na2vs0mg"},{"bike_id":"078a6dc5-3c98-4f01-aecd-ecf8c0f132d9","system_id":"levelo_inurba_marseille","lat":43.29963,"lon":5.38498,"is_reserved":false,"is_disabled":true,"rental_uris":{"android":"levelo://app?vid=078a6dc5-3c98-4f01-aecd-ecf8c0f132d9","ios":"levelo://app?vid=078a6dc5-3c98-4f01-aecd-ecf8c0f132d9"},"vehicle_type_id":"4","last_reported":1744315908,"current_range_meters":15200,"station_id":"ce4bgj92rcd13ifvqbd0","pricing_plan_id":"cebpf4jnsgd1na2vs0mg"},{"bike_id":"77a8a90c-f769-4d75-a8db-50d94d71c6dc","system_id":"levelo_inurba_marseille","lat":43.29619,"lon":5.37162,"is_reserved":false,"is_disabled":false,"rental_uris":{"android":"levelo://app?vid=77a8a90c-f769-4d75-a8db-50d94d71c6dc","ios":"levelo://app?vid=77a8a90c-f769-4d75-a8db-50d94d71c6dc"},"vehicle_type_id":"4","last_reported":1744315908,"current_range_meters":15200,"station_id":"ce4bgnh2rcd13ifvqc0g","pricing_plan_id":"cebpf4jnsgd1na2vs0mg"},{"bike_id":"0b038a1f-e858-436e-a7a1-95f6b304f9a8","system_id":"levelo_inurba_marseille","lat":43.2319,"lon":5.39981,"is_reserved":false,"is_disabled":false,"rental_uris":{"android":"levelo://app?vid=0b038a1f-e858-436e-a7a1-95f6b304f9a8","ios":"levelo://app?vid=0b038a1f-e858-436e-a7a1-95f6b304f9a8"},"vehicle_type_id":"4","last_reported":1744315908,"current_range_meters":15200,"station_id":"ce4bhn12rcd13ifvqgqg","pricing_plan_id":"cebpf4jnsgd1na2vs0mg"},{"bike_id":"4b109572-5912-4c88-b21e-93f6f3ddd48d","system_id":"levelo_inurba_marseille","lat":43.28698,"lon":5.39978,"is_reserved":false,"is_disabled":false,"rental_uris":{"android":"levelo://app?vid=4b109572-5912-4c88-b21e-93f6f3ddd48d","ios":"levelo://app?vid=4b109572-5912-4c88-b21e-93f6f3ddd48d"},"vehicle_type_id":"4","last_reported":1744315908,"current_range_meters":15200,"station_id":"ce4bho92rcd13ifvqh3g","pricing_plan_id":"cebpf4jnsgd1na2vs0mg"},{"bike_id":"4da27587-7654-48d6-91a0-28fe88a30a56","system_id":"levelo_inurba_marseille","lat":43.31711,"lon":5.43709,"is_reserved":false,"is_disabled":false,"rental_uris":{"android":"levelo://app?vid=4da27587-7654-48d6-91a0-28fe88a30a56","ios":"levelo://app?vid=4da27587-7654-48d6-91a0-28fe88a30a56"},"vehicle_type_id":"4","last_reported":1744315908,"current_range_meters":14800,"station_id":"ce4bhp92rcd13ifvqhcg","pricing_plan_id":"cebpf4jnsgd1na2vs0mg"},{"bike_id":"2396c1d2-099c-40ee-8d50-cabd8ce2b5d3","system_id":"levelo_inurba_marseille","lat":43.26192,"lon":5.37447,"is_reserved":false,"is_disabled":false,"rental_uris":{"android":"levelo://app?vid=2396c1d2-099c-40ee-8d50-cabd8ce2b5d3","ios":"levelo://app?vid=2396c1d2-099c-40ee-8d50-cabd8ce2b5d3"},"vehicle_type_id":"4","last_reported":1744315908,"current_range_meters":16000,"station_id":"ce4bhgp2rcd13ifvqfc0","pricing_plan_id":"cebpf4jnsgd1na2vs0mg"},{"bike_id":"a737f5db-dfb3-4dd8-aeff-67617975e190","system_id":"levelo_inurba_marseille","lat":43.29619,"lon":5.37681,"is_reserved":false,"is_disabled":true,"rental_uris":{"android":"levelo://app?vid=a737f5db-dfb3-4dd8-aeff-67617975e190","ios":"levelo://app?vid=a737f5db-dfb3-4dd8-aeff-67617975e190"},"vehicle_type_id":"4","last_reported":1744315908,"current_range_meters":16000,"station_id":"ce4bgi92rcd13ifvqb90","pricing_plan_id":"cebpf4jnsgd1na2vs0mg"},{"bike_id":"23718e9a-5ce7-4d28-99a5-8f754f56e13c","system_id":"levelo_inurba_marseille","lat":43.22517,"lon":5.34783,"is_reserved":false,"is_disabled":false,"rental_uris":{"android":"levelo://app?vid=23718e9a-5ce7-4d28-99a5-8f754f56e13c","ios":"levelo://app?vid=23718e9a-5ce7-4d28-99a5-8f754f56e13c"},"vehicle_type_id":"4","last_reported":1744315908,"current_range_meters":16000,"station_id":"","pricing_plan_id":"cebpf4jnsgd1na2vs0mg"},{"bike_id":"989cfda3-e11f-45b5-a08c-71c9a276e15d","system_id":"levelo_inurba_marseille","lat":43.29786,"lon":5.3935,"is_reserved":false,"is_disabled":false,"rental_uris":{"android":"levelo://app?vid=989cfda3-e11f-45b5-a08c-71c9a276e15d","ios":"levelo://app?vid=989cfda3-e11f-45b5-a08c-71c9a276e15d"},"vehicle_type_id":"4","last_reported":1744315908,"current_range_meters":16000,"station_id":"chh1huq6cuj3fo74tm60","pricing_plan_id":"cebpf4jnsgd1na2vs0mg"},{"bike_id":"88b76a37-b923-434f-94b0-a0e6250c97d1","system_id":"levelo_inurba_marseille","lat":43.30327,"lon":5.40428,"is_reserved":false,"is_disabled":false,"rental_uris":{"android":"levelo://app?vid=88b76a37-b923-434f-94b0-a0e6250c97d1","ios":"levelo://app?vid=88b76a37-b923-434f-94b0-a0e6250c97d1"},"vehicle_type_id":"4","last_reported":1744315908,"current_range_meters":16000,"station_id":"ce4bh012rcd13ifvqd10","pricing_plan_id":"cebpf4jnsgd1na2vs0mg"},{"bike_id":"f3ef8d3b-f0e9-4c71-bce1-9ed7ffa1d403","system_id":"levelo_inurba_marseille","lat":43.31486,"lon":5.37311,"is_reserved":false,"is_disabled":false,"rental_uris":{"android":"levelo://app?vid=f3ef8d3b-f0e9-4c71-bce1-9ed7ffa1d403","ios":"levelo://app?vid=f3ef8d3b-f0e9-4c71-bce1-9ed7ffa1d403"},"vehicle_type_id":"4","last_reported":1744315908,"current_range_meters":16000,"station_id":"ce4bgt12rcd13ifvqcd0","pricing_plan_id":"cebpf4jnsgd1na2vs0mg"},{"bike_id":"94455896-0f19-4fae-bd72-9879f01fcd6e","system_id":"levelo_inurba_marseille","lat":43.29552,"lon":5.42281,"is_reserved":false,"is_disabled":true,"rental_uris":{"android":"levelo://app?vid=94455896-0f19-4fae-bd72-9879f01fcd6e","ios":"levelo://app?vid=94455896-0f19-4fae-bd72-9879f01fcd6e"},"vehicle_type_id":"4","last_reported":1744315908,"current_range_meters":16000,"station_id":"ce4bhph2rcd13ifvqhdg","pricing_plan_id":"cebpf4jnsgd1na2vs0mg"},{"bike_id":"1a8675f7-96a5-4fc2-8fd4-53f39f26b59b","system_id":"levelo_inurba_marseille","lat":43.32397,"lon":5.38997,"is_reserved":false,"is_disabled":false,"rental_uris":{"android":"levelo://app?vid=1a8675f7-96a5-4fc2-8fd4-53f39f26b59b","ios":"levelo://app?vid=1a8675f7-96a5-4fc2-8fd4-53f39f26b59b"},"vehicle_type_id":"4","last_reported":1744315908,"current_range_meters":16000,"station_id":"ce4bhr12rcd13ifvqhqg","pricing_plan_id":"cebpf4jnsgd1na2vs0mg"},{"bike_id":"579b1f3c-9822-4861-a125-c2edfb9e093a","system_id":"levelo_inurba_marseille","lat":43.29428,"lon":5.38601,"is_reserved":false,"is_disabled":false,"rental_uris":{"android":"levelo://app?vid=579b1f3c-9822-4861-a125-c2edfb9e093a","ios":"levelo://app?vid=579b1f3c-9822-4861-a125-c2edfb9e093a"},"vehicle_type_id":"4","last_reported":1744315908,"current_range_meters":16000,"station_id":"ce4bh2h2rcd13ifvqdh0","pricing_plan_id":"cebpf4jnsgd1na2vs0mg"},{"bike_id":"018914c3-f746-4eec-b169-472b6242ef0b","system_id":"levelo_inurba_marseille","lat":43.31363,"lon":5.38503,"is_reserved":false,"is_disabled":false,"rental_uris":{"android":"levelo://app?vid=018914c3-f746-4eec-b169-472b6242ef0b","ios":"levelo://app?vid=018914c3-f746-4eec-b169-472b6242ef0b"},"vehicle_type_id":"4","last_reported":1744315908,"current_range_meters":16400,"station_id":"ce4bgt92rcd13ifvqcf0","pricing_plan_id":"cebpf4jnsgd1na2vs0mg"},{"bike_id":"e6f2667a-967d-45e2-b958-44177a82c2c2","system_id":"levelo_inurba_marseille","lat":43.27945,"lon":5.41049,"is_reserved":false,"is_disabled":false,"rental_uris":{"android":"levelo://app?vid=e6f2667a-967d-45e2-b958-44177a82c2c2","ios":"levelo://app?vid=e6f2667a-967d-45e2-b958-44177a82c2c2"},"vehicle_type_id":"4","last_reported":1744315908,"current_range_meters":16400,"station_id":"ce4bhnp2rcd13ifvqh0g","pricing_plan_id":"cebpf4jnsgd1na2vs0mg"},{"bike_id":"965f43a6-4a0d-40a9-b4ab-5ea8390b4769","system_id":"levelo_inurba_marseille","lat":43.23186,"lon":5.39983,"is_reserved":false,"is_disabled":false,"rental_uris":{"android":"levelo://app?vid=965f43a6-4a0d-40a9-b4ab-5ea8390b4769","ios":"levelo://app?vid=965f43a6-4a0d-40a9-b4ab-5ea8390b4769"},"vehicle_type_id":"4","last_reported":1744315908,"current_range_meters":16400,"station_id":"ce4bhn12rcd13ifvqgqg","pricing_plan_id":"cebpf4jnsgd1na2vs0mg"},{"bike_id":"50e370fb-4638-428f-8dae-ad491b3fa95b","system_id":"levelo_inurba_marseille","lat":43.29526,"lon":5.38538,"is_reserved":false,"is_disabled":false,"rental_uris":{"android":"levelo://app?vid=50e370fb-4638-428f-8dae-ad491b3fa95b","ios":"levelo://app?vid=50e370fb-4638-428f-8dae-ad491b3fa95b"},"vehicle_type_id":"4","last_reported":1744315908,"current_range_meters":16400,"station_id":"ce4bgih2rcd13ifvqba0","pricing_plan_id":"cebpf4jnsgd1na2vs0mg"},{"bike_id":"467924d9-889a-4591-a26d-c954ba0abb33","system_id":"levelo_inurba_marseille","lat":43.32381,"lon":5.38992,"is_reserved":false,"is_disabled":false,"rental_uris":{"android":"levelo://app?vid=467924d9-889a-4591-a26d-c954ba0abb33","ios":"levelo://app?vid=467924d9-889a-4591-a26d-c954ba0abb33"},"vehicle_type_id":"4","last_reported":1744315908,"current_range_meters":16400,"station_id":"","pricing_plan_id":"cebpf4jnsgd1na2vs0mg"},{"bike_id":"bbeb0663-2d78-4bcb-a029-b89cced8a388","system_id":"levelo_inurba_marseille","lat":43.294137,"lon":5.386337,"is_reserved":false,"is_disabled":false,"rental_uris":{"android":"levelo://app?vid=bbeb0663-2d78-4bcb-a029-b89cced8a388","ios":"levelo://app?vid=bbeb0663-2d78-4bcb-a029-b89cced8a388"},"vehicle_type_id":"4","last_reported":1744315908,"current_range_meters":16400,"station_id":"ce4bh2h2rcd13ifvqdh0","pricing_plan_id":"cebpf4jnsgd1na2vs0mg"},{"bike_id":"c2d04246-33d1-4429-b4a8-ce97275bd035","system_id":"levelo_inurba_marseille","lat":43.29876,"lon":5.38912,"is_reserved":false,"is_disabled":false,"rental_uris":{"android":"levelo://app?vid=c2d04246-33d1-4429-b4a8-ce97275bd035","ios":"levelo://app?vid=c2d04246-33d1-4429-b4a8-ce97275bd035"},"vehicle_type_id":"4","last_reported":1744315908,"current_range_meters":16400,"station_id":"ce4bh392rcd13ifvqdl0","pricing_plan_id":"cebpf4jnsgd1na2vs0mg"},