{"last_updated":1684620344,"ttl":30,"version":"2.2","data":{"bikes":[{"bike_id":"a62a7dee-1071-4a7f-bd50-e81bf1aead9f","system_id":"levelo_inurba_marseille","lat":43.31338,"lon":5.36732,"is_reserved":false,"is_disabled":false,"rental_uris":{"android":"levelo://app?vid=a62a7dee-1071-4a7f-bd50-e81bf1aead9f","ios":"levelo://app?vid=a62a7dee-1071-4a7f-bd50-e81bf1aead9f"},"vehicle_type_id":"4","last_reported":1684620344,"current_range_meters":0,"station_id":"ce4bgr92rcd13ifvqc6g","pricing_plan_id":"free"},{"bike_id":"b9a83316-f642-4535-b39b-2f571d430a5f","system_id":"levelo_inurba_marseille","lat":43.31343,"lon":5.36731,"is_reserved":false,"is_disabled":false,"rental_uris":{"android":"levelo://app?vid=b9a83316-f642-4535-b39b-2f571d430a5f","ios":"levelo://app?vid=b9a83316-f642-4535-b39b-2f571d430a5f"},"vehicle_type_id":"4","last_reported":1684620344,"current_range_meters":25600,"station_id":"ce4bgr92rcd13ifvqc6g","pricing_plan_id":"free"},{"bike_id":"7bdf4c5f-5855-4aae-93f1-1f2abb30b761","system_id":"levelo_inurba_marseille","lat":43.31341,"lon":5.367098,"is_reserved":false,"is_disabled":false,"rental_uris":{"android":"levelo://app?vid=7bdf4c5f-5855-4aae-93f1-1f2abb30b761","ios":"levelo://app?vid=7bdf4c5f-5855-4aae-93f1-1f2abb30b761"},"vehicle_type_id":"4","last_reported":1684620344,"current_range_meters":31200,"station_id":"ce4bgr92rcd13ifvqc6g","pricing_plan_id":"free"},{"bike_id":"a1c981e9-b61a-4f92-9da3-bc88edc1cf4a","system_id":"levelo_inurba_marseille","lat":43.3135,"lon":5.3671,"is_reserved":false,"is_disabled":false,"rental_uris":{"android":"levelo://app?vid=a1c981e9-b61a-4f92-9da3-bc88edc1cf4a","ios":"levelo://app?vid=a1c981e9-b61a-4f92-9da3-bc88edc1cf4a"},"vehicle_type_id":"4","last_reported":1684620344,"current_range_meters":30000,"station_id":"ce4bgr92rcd13ifvqc6g","pricing_plan_id":"free"},{"bike_id":"32b74d7b-e2eb-4609-add9-6dc4e28a0ff3","system_id":"levelo_inurba_marseille","lat":43.313391,"lon":5.36706,"is_reserved":false,"is_disabled":false,"rental_uris":{"android":"levelo://app?vid=32b74d7b-e2eb-4609-add9-6dc4e28a0ff3","ios":"levelo://app?vid=32b74d7b-e2eb-4609-add9-6dc4e28a0ff3"},"vehicle_type_id":"4","last_reported":1684620344,"current_range_meters":26400,"station_id":"ce4bgr92rcd13ifvqc6g","pricing_plan_id":"free"},{"bike_id":"c11e8c0d-8f2e-4468-9d4a-529348fce7ac","system_id":"levelo_inurba_marseille","lat":43.31341,"lon":5.367098,"is_reserved":false,"is_disabled":false,"rental_uris":{"android":"levelo://app?vid=c11e8c0d-8f2e-4468-9d4a-529348fce7ac","ios":"levelo://app?vid=c11e8c0d-8f2e-4468-9d4a-529348fce7ac"},"vehicle_type_id":"4","last_reported":1684620344,"current_range_meters":30400,"station_id":"ce4bgr92rcd13ifvqc6g","pricing_plan_id":"free"},{"bike_id":"31a6a8f8-35fd-49f7-9a38-8e1123c1c126","system_id":"levelo_inurba_marseille","lat":43.31352,"lon":5.36714,"is_reserved":false,"is_disabled":false,"rental_uris":{"android":"levelo://app?vid=31a6a8f8-35fd-49f7-9a38-8e1123c1c126","ios":"levelo://app?vid=31a6a8f8-35fd-49f7-9a38-8e1123c1c126"},"vehicle_type_id":"4","last_reported":1684620344,"current_range_meters":28800,"station_id":"ce4bgr92rcd13ifvqc6g","pricing_plan_id":"free"},{"bike_id":"423051dc-23e3-41ae-a453-4e9c309d34ab","system_id":"levelo_inurba_marseille","lat":43.31353,"lon":5.36726,"is_reserved":false,"is_disabled":false,"rental_uris":{"android":"levelo://app?vid=423051dc-23e3-41ae-a453-4e9c309d34ab","ios":"levelo://app?vid=423051dc-23e3-41ae-a453-4e9c309d34ab"},"vehicle_type_id":"4","last_reported":1684620344,"current_range_meters":31200,"station_id":"ce4bgr92rcd13ifvqc6g","pricing_plan_id":"free"},{"bike_id":"6fab6182-4dc3-4313-8053-6b640d65ff04","system_id":"levelo_inurba_marseille","lat":43.31357,"lon":5.36722,"is_reserved":false,"is_disabled":false,"rental_uris":{"android":"levelo://app?vid=6fab6182-4dc3-4313-8053-6b640d65ff04","ios":"levelo://app?vid=6fab6182-4dc3-4313-8053-6b640d65ff04"},"vehicle_type_id":"4","last_reported":1684620344,"current_range_meters":13600,"station_id":"ce4bgr92rcd13ifvqc6g","pricing_plan_id":"free"},{"bike_id":"bd32a1b9-3f5c-4caf-b724-871ee9e54ea2","system_id":"levelo_inurba_marseille","lat":43.312239,"lon":5.368562,"is_reserved":false,"is_disabled":false,"rental_uris":{"android":"levelo://app?vid=bd32a1b9-3f5c-4caf-b724-871ee9e54ea2","ios":"levelo://app?vid=bd32a1b9-3f5c-4caf-b724-871ee9e54ea2"},"vehicle_type_id":"4","last_reported":1684620344,"current_range_meters":20400,"station_id":"ce4bgl92rcd13ifvqbq0","pricing_plan_id":"free"},{"bike_id":"4052371d-0b40-45a2-a6cf-9cf2875c3212","system_id":"levelo_inurba_marseille","lat":43.3122,"lon":5.36863,"is_reserved":false,"is_disabled":false,"rental_uris":{"android":"levelo://app?vid=4052371d-0b40-45a2-a6cf-9cf2875c3212","ios":"levelo://app?vid=4052371d-0b40-45a2-a6cf-9cf2875c3212"},"vehicle_type_id":"4","last_reported":1684620344,"current_range_meters":31200,"station_id":"ce4bgl92rcd13ifvqbq0","pricing_plan_id":"free"},{"bike_id":"3a66aaf4-f597-4b8a-9b1e-815e18e32f3c","system_id":"levelo_inurba_marseille","lat":43.312239,"lon":5.368562,"is_reserved":false,"is_disabled":false,"rental_uris":{"android":"levelo://app?vid=3a66aaf4-f597-4b8a-9b1e-815e18e32f3c","ios":"levelo://app?vid=3a66aaf4-f597-4b8a-9b1e-815e18e32f3c"},"vehicle_type_id":"4","last_reported":1684620344,"current_range_meters":30800,"station_id":"ce4bgl92rcd13ifvqbq0","pricing_plan_id":"free"},{"bike_id":"965182c0-0343-4088-b325-3037f5548f9d","system_id":"levelo_inurba_marseille","lat":43.312239,"lon":5.368562,"is_reserved":false,"is_disabled":false,"rental_uris":{"android":"levelo://app?vid=965182c0-0343-4088-b325-3037f5548f9d","ios":"levelo://app?vid=965182c0-0343-4088-b325-3037f5548f9d"},"vehicle_type_id":"4","last_reported":1684620344,"current_range_meters":26000,"station_id":"ce4bgl92rcd13ifvqbq0","pricing_plan_id":"free"},{"bike_id":"79dc37ee-0d88-4a2b-81de-8f86b0985009","system_id":"levelo_inurba_marseille","lat":43.312239,"lon":5.368562,"is_reserved":false,"is_disabled":false,"rental_uris":{"android":"levelo://app?vid=79dc37ee-0d88-4a2b-81de-8f86b0985009","ios":"levelo://app?vid=79dc37ee-0d88-4a2b-81de-8f86b0985009"},"vehicle_type_id":"4","last_reported":1684620344,"current_range_meters":31200,"station_id":"ce4bgl92rcd13ifvqbq0","pricing_plan_id":"free"},{"bike_id":"5e1dbe6a-8459-4aed-8189-73d8264a152c","system_id":"levelo_inurba_marseille","lat":43.312239,"lon":5.368562,"is_reserved":false,"is_disabled":false,"rental_uris":{"android":"levelo://app?vid=5e1dbe6a-8459-4aed-8189-73d8264a152c","ios":"levelo://app?vid=5e1dbe6a-8459-4aed-8189-73d8264a152c"},"vehicle_type_id":"4","last_reported":1684620344,"current_range_meters":31200,"station_id":"ce4bgl92rcd13ifvqbq0","pricing_plan_id":"free"},{"bike_id":"02e41708-8beb-4995-b683-23c8aadcac8b","system_id":"levelo_inurba_marseille","lat":43.312239,"lon":5.368562,"is_reserved":false,"is_disabled":false,"rental_uris":{"android":"levelo://app?vid=02e41708-8beb-4995-b683-23c8aadcac8b","ios":"levelo://app?vid=02e41708-8beb-4995-b683-23c8aadcac8b"},"vehicle_type_id":"4","last_reported":1684620344,"current_range_meters":31200,"station_id":"ce4bgl92rcd13ifvqbq0","pricing_plan_id":"free"},{"bike_id":"b68d8102-992e-4d73-8af3-3071ab25293c","system_id":"levelo_inurba_marseille","lat":43.312239,"lon":5.368562,"is_reserved":false,"is_disabled":false,"rental_uris":{"android":"levelo://app?vid=b68d8102-992e-4d73-8af3-3071ab25293c","ios":"levelo://app?vid=b68d8102-992e-4d73-8af3-3071ab25293c"},"vehicle_type_id":"4","last_reported":1684620344,"current_range_meters":26400,"station_id":"ce4bgl92rcd13ifvqbq0","pricing_plan_id":"free"},{"bike_id":"ab4c692c-0635-4e77-bf8f-1514e2bb1aea","system_id":"levelo_inurba_marseille","lat":43.309076,"lon":5.368465,"is_reserved":false,"is_disabled":false,"rental_uris":{"android":"levelo://app?vid=ab4c692c-0635-4e77-bf8f-1514e2bb1aea","ios":"levelo://app?vid=ab4c692c-0635-4e77-bf8f-1514e2bb1aea"},"vehicle_type_id":"4","last_reported":1684620344,"current_range_meters":27200,"station_id":"ce4bgn92rcd13ifvqbvg","pricing_plan_id":"free"},{"bike_id":"d734d8f3-6c46-49d1-9671-0ad92bcd2953","system_id":"levelo_inurba_marseille","lat":43.314811,"lon":5.373103,"is_reserved":false,"is_disabled":false,"rental_uris":{"android":"levelo://app?vid=d734d8f3-6c46-49d1-9671-0ad92bcd2953","ios":"levelo://app?vid=d734d8f3-6c46-49d1-9671-0ad92bcd2953"},"vehicle_type_id":"4","last_reported":1684620344,"current_range_meters":30800,"station_id":"ce4bgt12rcd13ifvqcd0","pricing_plan_id":"free"},{"bike_id":"46a958db-deea-4536-9495-95f4bcdc056c","system_id":"levelo_inurba_marseille","lat":43.314811,"lon":5.373103,"is_reserved":false,"is_disabled":false,"rental_uris":{"android":"levelo://app?vid=46a958db-deea-4536-9495-95f4bcdc056c","ios":"levelo://app?vid=46a958db-deea-4536-9495-95f4bcdc056c"},"vehicle_type_id":"4","last_reported":1684620344,"current_range_meters":31200,"station_id":"ce4bgt12rcd13ifvqcd0","pricing_plan_id":"free"},{"bike_id":"88a30ca5-98af-438d-b6d2-d037f0901158","system_id":"levelo_inurba_marseille","lat":43.314811,"lon":5.373104,"is_reserved":false,"is_disabled":false,"rental_uris":{"android":"levelo://app?vid=88a30ca5-98af-438d-b6d2-d037f0901158","ios":"levelo://app?vid=88a30ca5-98af-438d-b6d2-d037f0901158"},"vehicle_type_id":"4","last_reported":1684620344,"current_range_meters":24400,"station_id":"ce4bgt12rcd13ifvqcd0","pricing_plan_id":"free"},{"bike_id":"33b53780-07a5-429d-a47e-799a79df70ef","system_id":"levelo_inurba_marseille","lat":43.30893,"lon":5.37191,"is_reserved":false,"is_disabled":false,"rental_uris":{"android":"levelo://app?vid=33b53780-07a5-429d-a47e-799a79df70ef","ios":"levelo://app?vid=33b53780-07a5-429d-a47e-799a79df70ef"},"vehicle_type_id":"4","last_reported":1684620344,"current_range_meters":20800,"station_id":"","pricing_plan_id":"free"},{"bike_id":"3b9abfcf-be2e-4603-9fb4-bc0ab9d2eaa7","system_id":"levelo_inurba_marseille","lat":43.308614,"lon":5.372098,"is_reserved":false,"is_disabled":false,"rental_uris":{"android":"levelo://app?vid=3b9abfcf-be2e-4603-9fb4-bc0ab9d2eaa7","ios":"levelo://app?vid=3b9abfcf-be2e-4603-9fb4-bc0ab9d2eaa7"},"vehicle_type_id":"4","last_reported":1684620344,"current_range_meters":15200,"station_id":"ce4bguh2rcd13ifvqckg","pricing_plan_id":"free"},{"bike_id":"48ec1c15-ac1e-4d06-9ed5-7733e83d223e","system_id":"levelo_inurba_marseille","lat":43.308614,"lon":5.372098,"is_reserved":false,"is_disabled":false,"rental_uris":{"android":"levelo://app?vid=48ec1c15-ac1e-4d06-9ed5-7733e83d223e","ios":"levelo://app?vid=48ec1c15-ac1e-4d06-9ed5-7733e83d223e"},"vehicle_type_id":"4","last_reported":1684620344,"current_range_meters":26800,"station_id":"ce4bguh2rcd13ifvqckg","pricing_plan_id":"free"},{"bike_id":"e0992195-4c45-4aa2-9415-4fef18478594","system_id":"levelo_inurba_marseille","lat":43.308614,"lon":5.372098,"is_reserved":false,"is_disabled":false,"rental_uris":{"android":"levelo://app?vid=e0992195-4c45-4aa2-9415-4fef18478594","ios":"levelo://app?vid=e0992195-4c45-4aa2-9415-4fef18478594"},"vehicle_type_id":"4","last_reported":1684620344,"current_range_meters":26400,"station_id":"ce4bguh2rcd13ifvqckg","pricing_plan_id":"free"},{"bike_id":"00ed1216-100c-401a-b868-a50b9eb144af","system_id":"levelo_inurba_marseille","lat":43.308614,"lon":5.372098,"is_reserved":false,"is_disabled":false,"rental_uris":{"android":"levelo://app?vid=00ed1216-100c-401a-b868-a50b9eb144af","ios":"levelo://app?vid=00ed1216-100c-401a-b868-a50b9eb144af"},"vehicle_type_id":"4","last_reported":1684620344,"current_range_meters":16400,"station_id":"ce4bguh2rcd13ifvqckg","pricing_plan_id":"free"},{"bike_id":"10fec6e0-5fca-4eca-99a7-8811f1bdaeed","system_id":"levelo_inurba_marseille","lat":43.305368,"lon":5.367343,"is_reserved":false,"is_disabled":false,"rental_uris":{"android":"levelo://app?vid=10fec6e0-5fca-4eca-99a7-8811f1bdaeed","ios":"levelo://app?vid=10fec6e0-5fca-4eca-99a7-8811f1bdaeed"},"vehicle_type_id":"4","last_reported":1684620344,"current_range_meters":10000,"station_id":"ce4bgrp2rcd13ifvqc9g","pricing_plan_id":"free"},{"bike_id":"9d278554-9280-4acc-912a-1fbac15ca724","system_id":"levelo_inurba_marseille","lat":43.305368,"lon":5.367343,"is_reserved":false,"is_disabled":false,"rental_uris":{"android":"levelo://app?vid=9d278554-9280-4acc-912a-1fbac15ca724","ios":"levelo://app?vid=9d278554-9280-4acc-912a-1fbac15ca724"},"vehicle_type_id":"4","last_reported":1684620344,"current_range_meters":28800,"station_id":"ce4bgrp2rcd13ifvqc9g","pricing_plan_id":"free"},{"bike_id":"5d15b9e7-f9ea-484a-8fb2-8dfbba322fbb","system_id":"levelo_inurba_marseille","lat":43.305368,"lon":5.367343,"is_reserved":false,"is_disabled":false,"rental_uris":{"android":"levelo://app?vid=5d15b9e7-f9ea-484a-8fb2-8dfbba322fbb","ios":"levelo://app?vid=5d15b9e7-f9ea-484a-8fb2-8dfbba322fbb"},"vehicle_type_id":"4","last_reported":1684620344,"current_range_meters":7600,"station_id":"ce4bgrp2rcd13ifvqc9g","pricing_plan_id":"free"},{"bike_id":"8fc59387-b2d3-4f7c-a8b1-60124ac6f4a4","system_id":"levelo_inurba_marseille","lat":43.305368,"lon":5.367343,"is_reserved":false,"is_disabled":false,"rental_uris":{"android":"levelo://app?vid=8fc59387-b2d3-4f7c-a8b1-60124ac6f4a4","ios":"levelo://app?vid=8fc59387-b2d3-4f7c-a8b1-60124ac6f4a4"},"vehicle_type_id":"4","last_reported":1684620344,"current_range_meters":26000,"station_id":"ce4bgrp2rcd13ifvqc9g","pricing_plan_id":"free"},{"bike_id":"847cabc4-b461-4c99-aeb7-2f39f102b183","system_id":"levelo_inurba_marseille","lat":43.305368,"lon":5.367343,"is_reserved":false,"is_disabled":false,"rental_uris":{"android":"levelo://app?vid=847cabc4-b461-4c99-aeb7-2f39f102b183","ios":"levelo://app?vid=847cabc4-b461-4c99-aeb7-2f39f102b183"},"vehicle_type_id":"4","last_reported":1684620344,"current_range_meters":22400,"station_id":"ce4bgrp2rcd13ifvqc9g","pricing_plan_id":"free"},{"bike_id":"a9a86a19-e328-423e-a326-d535231bdd26","system_id":"levelo_inurba_marseille","lat":43.305706,"lon":5.365654,"is_reserved":false,"is_disabled":false,"rental_uris":{"android":"levelo://app?vid=a9a86a19-e328-423e-a326-d535231bdd26","ios":"levelo://app?vid=a9a86a19-e328-423e-a326-d535231bdd26"},"vehicle_type_id":"4","last_reported":1684620344,"current_range_meters":18800,"station_id":"ce4bgs12rcd13ifvqcag","pricing_plan_id":"free"},{"bike_id":"3646b87a-93a3-4734-9883-6c51d831f921","system_id":"levelo_inurba_marseille","lat":43.305706,"lon":5.365654,"is_reserved":false,"is_disabled":false,"rental_uris":{"android":"levelo://app?vid=3646b87a-93a3-4734-9883-6c51d831f921","ios":"levelo://app?vid=3646b87a-93a3-4734-9883-6c51d831f921"},"vehicle_type_id":"4","last_reported":1684620344,"current_range_meters":31200,"station_id":"ce4bgs12rcd13ifvqcag","pricing_plan_id":"free"},{"bike_id":"1348413d-8796-4729-b223-1caf9be9bf16","system_id":"levelo_inurba_marseille","lat":43.30526,"lon":5.36544,"is_reserved":false,"is_disabled":false,"rental_uris":{"android":"levelo://app?vid=1348413d-8796-4729-b223-1caf9be9bf16","ios":"levelo://app?vid=1348413d-8796-4729-b223-1caf9be9bf16"},"vehicle_type_id":"4","last_reported":1684620344,"current_range_meters":15600,"station_id":"","pricing_plan_id":"free"},{"bike_id":"75ea2005-04af-4825-a5ab-a4f599be61fd","system_id":"levelo_inurba_marseille","lat":43.305989,"lon":5.37225,"is_reserved":false,"is_disabled":false,"rental_uris":{"android":"levelo://app?vid=75ea2005-04af-4825-a5ab-a4f599be61fd","ios":"levelo://app?vid=75ea2005-04af-4825-a5ab-a4f599be61fd"},"vehicle_type_id":"4","last_reported":1684620344,"current_range_meters":29200,"station_id":"ce4bgqh2rcd13ifvqc4g","pricing_plan_id":"free"},{"bike_id":"71e1299e-8fd4-4aca-ada5-273e8e5bdbd6","system_id":"levelo_inurba_marseille","lat":43.305989,"lon":5.37225,"is_reserved":false,"is_disabled":false,"rental_uris":{"android":"levelo://app?vid=71e1299e-8fd4-4aca-ada5-273e8e5bdbd6","ios":"levelo://app?vid=71e1299e-8fd4-4aca-ada5-273e8e5bdbd6"},"vehicle_type_id":"4","last_reported":1684620344,"current_range_meters":31200,"station_id":"ce4bgqh2rcd13ifvqc4g","pricing_plan_id":"free"},{"bike_id":"de80d3de-562d-4d7d-9f21-a0a2fde1c615","system_id":"levelo_inurba_marseille","lat":43.305989,"lon":5.37225,"is_reserved":false,"is_disabled":false,"rental_uris":{"android":"levelo://app?vid=de80d3de-562d-4d7d-9f21-a0a2fde1c615","ios":"levelo://app?vid=de80d3de-562d-4d7d-9f21-a0a2fde1c615"},"vehicle_type_id":"4","last_reported":1684620344,"current_range_meters":25200,"station_id":"ce4bgqh2rcd13ifvqc4g","pricing_plan_id":"free"},{"bike_id":"37c72503-e5c3-47c0-8602-fed8b60838e2","system_id":"levelo_inurba_marseille","lat":43.305989,"lon":5.37225,"is_reserved":false,"is_disabled":false,"rental_uris":{"android":"levelo://app?vid=37c72503-e5c3-47c0-8602-fed8b60838e2","ios":"levelo://app?vid=37c72503-e5c3-47c0-8602-fed8b60838e2"},"vehicle_type_id":"4","last_reported":1684620344,"current_range_meters":30000,"station_id":"ce4bgqh2rcd13ifvqc4g","pricing_plan_id":"free"},{"bike_id":"35f8d8bd-55e6-49af-9818-224b5db96b33","system_id":"levelo_inurba_marseille","lat":43.30601,"lon":5.37223,"is_reserved":false,"is_disabled":false,"rental_uris":{"android":"levelo://app?vid=35f8d8bd-55e6-49af-9818-224b5db96b33","ios":"levelo://app?vid=35f8d8bd-55e6-49af-9818-224b5db96b33"},"vehicle_type_id":"4","last_reported":1684620344,"current_range_meters":14800,"station_id":"ce4bgqh2rcd13ifvqc4g","pricing_plan_id":"free"},{"bike_id":"3e764068-0c0e-4053-9d84-292d9942519b","system_id":"levelo_inurba_marseille","lat":43.305989,"lon":5.37225,"is_reserved":false,"is_disabled":false,"rental_uris":{"android":"levelo://app?vid=3e764068-0c0e-4053-9d84-292d9942519b","ios":"levelo://app?vid=3e764068-0c0e-4053-9d84-292d9942519b"},"vehicle_type_id":"4","last_reported":1684620344,"current_range_meters":32000,"station_id":"ce4bgqh2rcd13ifvqc4g","pricing_plan_id":"free"},{"bike_id":"ad0b2edf-9ce6-484a-b2ff-4a1feabe9b31","system_id":"levelo_inurba_marseille","lat":43.305989,"lon":5.37225,"is_reserved":false,"is_disabled":false,"rental_uris":{"android":"levelo://app?vid=ad0b2edf-9ce6-484a-b2ff-4a1feabe9b31","ios":"levelo://app?vid=ad0b2edf-9ce6-484a-b2ff-4a1feabe9b31"},"vehicle_type_id":"4","last_reported":1684620344,"current_range_meters":18000,"station_id":"ce4bgqh2rcd13ifvqc4g","pricing_plan_id":"free"},{"bike_id":"0f66b3b1-fdc2-47bf-a8d8-47d681d7ce82","system_id":"levelo_inurba_marseille","lat":43.30597,"lon":5.37231,"is_reserved":false,"is_disabled":false,"rental_uris":{"android":"levelo://app?vid=0f66b3b1-fdc2-47bf-a8d8-47d681d7ce82","ios":"levelo://app?vid=0f66b3b1-fdc2-47bf-a8d8-47d681d7ce82"},"vehicle_type_id":"4","last_reported":1684620344,"current_range_meters":22800,"station_id":"ce4bgqh2rcd13ifvqc4g","pricing_plan_id":"free"},{"bike_id":"e58fedb9-a57d-4be1-8ab0-757e8b5b800f","system_id":"levelo_inurba_marseille","lat":43.31709,"lon":5.37653,"is_reserved":false,"is_disabled":false,"rental_uris":{"android":"levelo://app?vid=e58fedb9-a57d-4be1-8ab0-757e8b5b800f","ios":"levelo://app?vid=e58fedb9-a57d-4be1-8ab0-757e8b5b800f"},"vehicle_type_id":"4","last_reported":1684620344,"current_range_meters":3200,"station_id":"","pricing_plan_id":"free"},{"bike_id":"3fdf3590-377d-4457-aec6-c56425f43c68","system_id":"levelo_inurba_marseille","lat":43.31705,"lon":5.37666,"is_reserved":false,"is_disabled":false,"rental_uris":{"android":"levelo://app?vid=3fdf3590-377d-4457-aec6-c56425f43c68","ios":"levelo://app?vid=3fdf3590-377d-4457-aec6-c56425f43c68"},"vehicle_type_id":"4","last_reported":1684620344,"current_range_meters":0,"station_id":"","pricing_plan_id":"free"},{"bike_id":"906de340-506a-4f05-9639-8551c35c3cf4","system_id":"levelo_inurba_marseille","lat":43.317075,"lon":5.377367,"is_reserved":false,"is_disabled":false,"rental_uris":{"android":"levelo://app?vid=906de340-506a-4f05-9639-8551c35c3cf4","ios":"levelo://app?vid=906de340-506a-4f05-9639-8551c35c3cf4"},"vehicle_type_id":"4","last_reported":1684620344,"current_range_meters":31200,"station_id":"ce4bgth2rcd13ifvqch0","pricing_plan_id":"free"},{"bike_id":"e3cbc53a-0b41-4fee-b6bb-f6494b8dfd38","system_id":"levelo_inurba_marseille","lat":43.317075,"lon":5.377367,"is_reserved":false,"is_disabled":false,"rental_uris":{"android":"levelo://app?vid=e3cbc53a-0b41-4fee-b6bb-f6494b8dfd38","ios":"levelo://app?vid=e3cbc53a-0b41-4fee-b6bb-f6494b8dfd38"},"vehicle_type_id":"4","last_reported":1684620344,"current_range_meters":28000,"station_id":"ce4bgth2rcd13ifvqch0","pricing_plan_id":"free"},{"bike_id":"9f53324e-4118-4eb1-ae1f-c18ea90a6e62","system_id":"levelo_inurba_marseille","lat":43.3171,"lon":5.37748,"is_reserved":false,"is_disabled":false,"rental_uris":{"android":"levelo://app?vid=9f53324e-4118-4eb1-ae1f-c18ea90a6e62","ios":"levelo://app?vid=9f53324e-4118-4eb1-ae1f-c18ea90a6e62"},"vehicle_type_id":"4","last_reported":1684620344,"current_range_meters":29200,"station_id":"ce4bgth2rcd13ifvqch0","pricing_plan_id":"free"},{"bike_id":"1882916f-80f8-41b8-b1de-6c334bcf1f0b","system_id":"levelo_inurba_marseille","lat":43.317075,"lon":5.377367,"is_reserved":false,"is_disabled":false,"rental_uris":{"android":"levelo://app?vid=1882916f-80f8-41b8-b1de-6c334bcf1f0b","ios":"levelo://app?vid=1882916f-80f8-41b8-b1de-6c334bcf1f0b"},"vehicle_type_id":"4","last_reported":1684620344,"current_range_meters":31200,"station_id":"ce4bgth2rcd13ifvqch0","pricing_plan_id":"free"},{"bike_id":"c27523af-0050-40ba-86ce-6f147ab29d86","system_id":"levelo_inurba_marseille","lat":43.317075,"lon":5.377367,"is_reserved":false,"is_disabled":false,"rental_uris":{"android":"levelo://app?vid=c27523af-0050-40ba-86ce-6f147ab29d86","ios":"levelo://app?vid=c27523af-0050-40ba-86ce-6f147ab29d86"},"vehicle_type_id":"4","last_reported":1684620344,"current_range_meters":13600,"station_id":"ce4bgth2rcd13ifvqch0","pricing_plan_id":"free"},{"bike_id":"8ea90558-9c37-49ab-90f3-ff36a36b0556","system_id":"levelo_inurba_marseille","lat":43.303046,"lon":5.368981,"is_reserved":false,"is_disabled":false,"rental_uris":{"android":"levelo://app?vid=8ea90558-9c37-49ab-90f3-ff36a36b0556","ios":"levelo://app?vid=8ea90558-9c37-49ab-90f3-ff36a36b0556"},"vehicle_type_id":"4","last_reported":1684620344,"current_range_meters":6800,"station_id":"ce4bgqh2rcd13ifvqc5g","pricing_plan_id":"free"},{"bike_id":"752d47ae-6d5c-4077-8a80-524f92481ff9","system_id":"levelo_inurba_marseille","lat":43.30285,"lon":5.36908,"is_reserved":false,"is_disabled":false,"rental_uris":{"android":"levelo://app?vid=752d47ae-6d5c-4077-8a80-524f92481ff9","ios":"levelo://app?vid=752d47ae-6d5c-4077-8a80-524f92481ff9"},"vehicle_type_id":"4","last_reported":1684620344,"current_range_meters":25600,"station_id":"ce4bgqh2rcd13ifvqc5g","pricing_plan_id":"free"},{"bike_id":"d291ddc1-0407-44d8-b043-ed97bc1e7850","system_id":"levelo_inurba_marseille","lat":43.315289,"lon":5.380349,"is_reserved":false,"is_disabled":false,"rental_uris":{"android":"levelo://app?vid=d291ddc1-0407-44d8-b043-ed97bc1e7850","ios":"levelo://app?vid=d291ddc1-0407-44d8-b043-ed97bc1e7850"},"vehicle_type_id":"4","last_reported":1684620344,"current_range_meters":28400,"station_id":"ce4bhsp2rcd13ifvqi50","pricing_plan_id":"free"},{"bike_id":"e974bce5-f02f-4930-a1ba-6edbff55b68a","system_id":"levelo_inurba_marseille","lat":43.308012,"lon":5.381511,"is_reserved":false,"is_disabled":false,"rental_uris":{"android":"levelo://app?vid=e974bce5-f02f-4930-a1ba-6edbff55b68a","ios":"levelo://app?vid=e974bce5-f02f-4930-a1ba-6edbff55b68a"},"vehicle_type_id":"4","last_reported":1684620344,"current_range_meters":23200,"station_id":"ce4bgt12rcd13ifvqce0","pricing_plan_id":"free"},{"bike_id":"1c85d5b6-8ee4-4aa3-a270-977d5772da60","system_id":"levelo_inurba_marseille","lat":43.308012,"lon":5.381511,"is_reserved":false,"is_disabled":false,"rental_uris":{"android":"levelo://app?vid=1c85d5b6-8ee4-4aa3-a270-977d5772da60","ios":"levelo://app?vid=1c85d5b6-8ee4-4aa3-a270-977d5772da60"},"vehicle_type_id":"4","last_reported":1684620344,"current_range_meters":22000,"station_id":"ce4bgt12rcd13ifvqce0","pricing_plan_id":"free"},{"bike_id":"510b9e40-2393-4d0e-9320-c40b36402a61","system_id":"levelo_inurba_marseille","lat":43.308012,"lon":5.381511,"is_reserved":false,"is_disabled":false,"rental_uris":{"android":"levelo://app?vid=510b9e40-2393-4d0e-9320-c40b36402a61","ios":"levelo://app?vid=510b9e40-2393-4d0e-9320-c40b36402a61"},"vehicle_type_id":"4","last_reported":1684620344,"current_range_meters":31200,"station_id":"ce4bgt12rcd13ifvqce0","pricing_plan_id":"free"},{"bike_id":"88884c60-6d71-47ce-83ee-5b4422b8b753","system_id":"levelo_inurba_marseille","lat":43.308012,"lon":5.381511,"is_reserved":false,"is_disabled":false,"rental_uris":{"android":"levelo://app?vid=88884c60-6d71-47ce-83ee-5b4422b8b753","ios":"levelo://app?vid=88884c60-6d71-47ce-83ee-5b4422b8b753"},"vehicle_type_id":"4","last_reported":1684620344,"current_range_meters":13600,"station_id":"ce4bgt12rcd13ifvqce0","pricing_plan_id":"free"},{"bike_id":"a306ec02-8814-4e5f-98a0-0f90a7154a6e","system_id":"levelo_inurba_marseille","lat":43.308012,"lon":5.381511,"is_reserved":false,"is_disabled":false,"rental_uris":{"android":"levelo://app?vid=a306ec02-8814-4e5f-98a0-0f90a7154a6e","ios":"levelo://app?vid=a306ec02-8814-4e5f-98a0-0f90a7154a6e"},"vehicle_type_id":"4","last_reported":1684620344,"current_range_meters":18800,"station_id":"ce4bgt12rcd13ifvqce0","pricing_plan_id":"free"},{"bike_id":"802515b4-f2fe-4f88-8cb0-818adff6ccac","system_id":"levelo_inurba_marseille","lat":43.304606,"lon":5.379026,"is_reserved":false,"is_disabled":false,"rental_uris":{"android":"levelo://app?vid=802515b4-f2fe-4f88-8cb0-818adff6ccac","ios":"levelo://app?vid=802515b4-f2fe-4f88-8cb0-818adff6ccac"},"vehicle_type_id":"4","last_reported":1684620344,"current_range_meters":26000,"station_id":"ce4bgup2rcd13ifvqcn0","pricing_plan_id":"free"},{"bike_id":"d6383257-fc3f-4b04-b848-29e9967948c7","system_id":"levelo_inurba_marseille","lat":43.30146,"lon":5.37404,"is_reserved":false,"is_disabled":false,"rental_uris":{"android":"levelo://app?vid=d6383257-fc3f-4b04-b848-29e9967948c7","ios":"levelo://app?vid=d6383257-fc3f-4b04-b848-29e9967948c7"},"vehicle_type_id":"4","last_reported":1684620344,"current_range_meters":19600,"station_id":"","pricing_plan_id":"free"},{"bike_id":"7142b64d-6cb8-4308-bcd7-643639486303","system_id":"levelo_inurba_marseille","lat":43.319935,"lon":5.381699,"is_reserved":false,"is_disabled":false,"rental_uris":{"android":"levelo://app?vid=7142b64d-6cb8-4308-bcd7-643639486303","ios":"levelo://app?vid=7142b64d-6cb8-4308-bcd7-643639486303"},"vehicle_type_id":"4","last_reported":1684620344,"current_range_meters":30000,"station_id":"ce4bhr12rcd13ifvqhpg","pricing_plan_id":"free"},{"bike_id":"139082d9-1532-42a9-b682-d4b8d6d765b1","system_id":"levelo_inurba_marseille","lat":43.319935,"lon":5.381699,"is_reserved":false,"is_disabled":false,"rental_uris":{"android":"levelo://app?vid=139082d9-1532-42a9-b682-d4b8d6d765b1","ios":"levelo://app?vid=139082d9-1532-42a9-b682-d4b8d6d765b1"},"vehicle_type_id":"4","last_reported":1684620344,"current_range_meters":16000,"station_id":"ce4bhr12rcd13ifvqhpg","pricing_plan_id":"free"},{"bike_id":"e30a8554-ecf9-4054-ad2d-4392dae1b66d","system_id":"levelo_inurba_marseille","lat":43.313571,"lon":5.384829,"is_reserved":false,"is_disabled":false,"rental_uris":{"android":"levelo://app?vid=e30a8554-ecf9-4054-ad2d-4392dae1b66d","ios":"levelo://app?vid=e30a8554-ecf9-4054-ad2d-4392dae1b66d"},"vehicle_type_id":"4","last_reported":1684620344,"current_range_meters":22800,"station_id":"ce4bgt92rcd13ifvqcf0","pricing_plan_id":"free"},{"bike_id":"cdee02f5-c3cc-4e03-b762-c2de8d28e1b0","system_id":"levelo_inurba_marseille","lat":43.299222,"lon":5.365554,"is_reserved":false,"is_disabled":false,"rental_uris":{"android":"levelo://app?vid=cdee02f5-c3cc-4e03-b762-c2de8d28e1b0","ios":"levelo://app?vid=cdee02f5-c3cc-4e03-b762-c2de8d28e1b0"},"vehicle_type_id":"4","last_reported":1684620344,"current_range_meters":24800,"station_id":"ce4bgm92rcd13ifvqbr0","pricing_plan_id":"free"},{"bike_id":"aa7ff445-8562-4b4b-b18c-16a6ff539ecf","system_id":"levelo_inurba_marseille","lat":43.29847,"lon":5.36276,"is_reserved":false,"is_disabled":false,"rental_uris":{"android":"levelo://app?vid=aa7ff445-8562-4b4b-b18c-16a6ff539ecf","ios":"levelo://app?vid=aa7ff445-8562-4b4b-b18c-16a6ff539ecf"},"vehicle_type_id":"4","last_reported":1684620344,"current_range_meters":22400,"station_id":"ce4bgpp2rcd13ifvqc3g","pricing_plan_id":"free"},{"bike_id":"3c9a7abf-4aaa-4321-9866-bc8e27ee661d","system_id":"levelo_inurba_marseille","lat":43.305364,"lon":5.384119,"is_reserved":false,"is_disabled":false,"rental_uris":{"android":"levelo://app?vid=3c9a7abf-4aaa-4321-9866-bc8e27ee661d","ios":"levelo://app?vid=3c9a7abf-4aaa-4321-9866-bc8e27ee661d"},"vehicle_type_id":"4","last_reported":1684620344,"current_range_meters":26000,"station_id":"ce4bgg92rcd13ifvqb30","pricing_plan_id":"free"},{"bike_id":"c4e81a65-e9c9-40c7-938f-08dd366aef79","system_id":"levelo_inurba_marseille","lat":43.299243,"lon":5.374807,"is_reserved":false,"is_disabled":false,"rental_uris":{"android":"levelo://app?vid=c4e81a65-e9c9-40c7-938f-08dd366aef79","ios":"levelo://app?vid=c4e81a65-e9c9-40c7-938f-08dd366aef79"},"vehicle_type_id":"4","last_reported":1684620344,"current_range_meters":22400,"station_id":"ce4bgjh2rcd13ifvqbg0","pricing_plan_id":"free"},{"bike_id":"17758178-c0e1-4742-a332-e2df57be5107","system_id":"levelo_inurba_marseille","lat":43.29917,"lon":5.37472,"is_reserved":false,"is_disabled":false,"rental_uris":{"android":"levelo://app?vid=17758178-c0e1-4742-a332-e2df57be5107","ios":"levelo://app?vid=17758178-c0e1-4742-a332-e2df57be5107"},"vehicle_type_id":"4","last_reported":1684620344,"current_range_meters":23200,"station_id":"ce4bgjh2rcd13ifvqbg0","pricing_plan_id":"free"},{"bike_id":"a90336bf-2eff-4e88-9ec0-008b8099440c","system_id":"levelo_inurba_marseille","lat":43.299243,"lon":5.374807,"is_reserved":false,"is_disabled":false,"rental_uris":{"android":"levelo://app?vid=a90336bf-2eff-4e88-9ec0-008b8099440c","ios":"levelo://app?vid=a90336bf-2eff-4e88-9ec0-008b8099440c"},"vehicle_type_id":"4","last_reported":1684620344,"current_range_meters":21200,"station_id":"ce4bgjh2rcd13ifvqbg0","pricing_plan_id":"free"},{"bike_id":"e66f6cdd-fb89-4a87-8588-ea0549ec081d","system_id":"levelo_inurba_marseille","lat":43.299243,"lon":5.374807,"is_reserved":false,"is_disabled":false,"rental_uris":{"android":"levelo://app?vid=e66f6cdd-fb89-4a87-8588-ea0549ec081d","ios":"levelo://app?vid=e66f6cdd-fb89-4a87-8588-ea0549ec081d"},"vehicle_type_id":"4","last_reported":1684620344,"current_range_meters":31200,"station_id":"ce4bgjh2rcd13ifvqbg0","pricing_plan_id":"free"},{"bike_id":"6421aa2c-37f7-4298-a882-e69ef2c52659","system_id":"levelo_inurba_marseille","lat":43.299243,"lon":5.374807,"is_reserved":false,"is_disabled":false,"rental_uris":{"android":"levelo://app?vid=6421aa2c-37f7-4298-a882-e69ef2c52659","ios":"levelo://app?vid=6421aa2c-37f7-4298-a882-e69ef2c52659"},"vehicle_type_id":"4","last_reported":1684620344,"current_range_meters":26800,"station_id":"ce4bgjh2rcd13ifvqbg0","pricing_plan_id":"free"},{"bike_id":"a3a0c130-bef6-4552-af38-7944adfcc05e","system_id":"levelo_inurba_marseille","lat":43.311722,"lon":5.387247,"is_reserved":false,"is_disabled":false,"rental_uris":{"android":"levelo://app?vid=a3a0c130-bef6-4552-af38-7944adfcc05e","ios":"levelo://app?vid=a3a0c130-bef6-4552-af38-7944adfcc05e"},"vehicle_type_id":"4","last_reported":1684620344,"current_range_meters":25600,"station_id":"ce4bgv12rcd13ifvqcp0","pricing_plan_id":"free"},{"bike_id":"c8055d66-e67d-4494-8b36-ba022f1c0e46","system_id":"levelo_inurba_marseille","lat":43.299243,"lon":5.374807,"is_reserved":false,"is_disabled":false,"rental_uris":{"android":"levelo://app?vid=c8055d66-e67d-4494-8b36-ba022f1c0e46","ios":"levelo://app?vid=c8055d66-e67d-4494-8b36-ba022f1c0e46"},"vehicle_type_id":"4","last_reported":1684620344,"current_range_meters":30400,"station_id":"ce4bgjh2rcd13ifvqbg0","pricing_plan_id":"free"},{"bike_id":"3cf87e46-abc3-4b36-ae13-cb54111b24cb","system_id":"levelo_inurba_marseille","lat":43.311722,"lon":5.387247,"is_reserved":false,"is_disabled":false,"rental_uris":{"android":"levelo://app?vid=3cf87e46-abc3-4b36-ae13-cb54111b24cb","ios":"levelo://app?vid=3cf87e46-abc3-4b36-ae13-cb54111b24cb"},"vehicle_type_id":"4","last_reported":1684620344,"current_range_meters":27200,"station_id":"ce4bgv12rcd13ifvqcp0","pricing_plan_id":"free"},{"bike_id":"5e34cc0a-bc99-4ca6-96d7-a8e71198c69d","system_id":"levelo_inurba_marseille","lat":43.299243,"lon":5.37481,"is_reserved":false,"is_disabled":false,"rental_uris":{"android":"levelo://app?vid=5e34cc0a-bc99-4ca6-96d7-a8e71198c69d","ios":"levelo://app?vid=5e34cc0a-bc99-4ca6-96d7-a8e71198c69d"},"vehicle_type_id":"4","last_reported":1684620344,"current_range_meters":26800,"station_id":"ce4bgjh2rcd13ifvqbg0","pricing_plan_id":"free"},{"bike_id":"62713cae-5a8d-4848-8924-84a42582c98a","system_id":"levelo_inurba_marseille","lat":43.299243,"lon":5.37481,"is_reserved":false,"is_disabled":false,"rental_uris":{"android":"levelo://app?vid=62713cae-5a8d-4848-8924-84a42582c98a","ios":"levelo://app?vid=62713cae-5a8d-4848-8924-84a42582c98a"},"vehicle_type_id":"4","last_reported":1684620344,"current_range_meters":31200,"station_id":"ce4bgjh2rcd13ifvqbg0","pricing_plan_id":"free"},{"bike_id":"71a7cd51-c98e-4b63-902f-c2f5a808a065","system_id":"levelo_inurba_marseille","lat":43.3277,"lon":5.36695,"is_reserved":false,"is_disabled":false,"rental_uris":{"android":"levelo://app?vid=71a7cd51-c98e-4b63-902f-c2f5a808a065","ios":"levelo://app?vid=71a7cd51-c98e-4b63-902f-c2f5a808a065"},"vehicle_type_id":"4","last_reported":1684620344,"current_range_meters":21200,"station_id":"","pricing_plan_id":"free"},{"bike_id":"5cf7ffc9-a389-4209-a251-5b3b341d543c","system_id":"levelo_inurba_marseille","lat":43.297794,"lon":5.370888,"is_reserved":false,"is_disabled":false,"rental_uris":{"android":"levelo://app?vid=5cf7ffc9-a389-4209-a251-5b3b341d543c","ios":"levelo://app?vid=5cf7ffc9-a389-4209-a251-5b3b341d543c"},"vehicle_type_id":"4","last_reported":1684620344,"current_range_meters":31200,"station_id":"ce4bgop2rcd13ifvqc1g","pricing_plan_id":"free"},{"bike_id":"3a71f41b-23a8-4407-ba65-e6ca37d7f313","system_id":"levelo_inurba_marseille","lat":43.297794,"lon":5.370888,"is_reserved":false,"is_disabled":false,"rental_uris":{"android":"levelo://app?vid=3a71f41b-23a8-4407-ba65-e6ca37d7f313","ios":"levelo://app?vid=3a71f41b-23a8-4407-ba65-e6ca37d7f313"},"vehicle_type_id":"4","last_reported":1684620344,"current_range_meters":31200,"station_id":"ce4bgop2rcd13ifvqc1g","pricing_plan_id":"free"},{"bike_id":"41a2b8f0-2bb4-48af-b01a-5624103b582f","system_id":"levelo_inurba_marseille","lat":43.297794,"lon":5.370888,"is_reserved":false,"is_disabled":false,"rental_uris":{"android":"levelo://app?vid=41a2b8f0-2bb4-48af-b01a-5624103b582f","ios":"levelo://app?vid=41a2b8f0-2bb4-48af-b01a-5624103b582f"},"vehicle_type_id":"4","last_reported":1684620344,"current_range_meters":31200,"station_id":"ce4bgop2rcd13ifvqc1g","pricing_plan_id":"free"},{"bike_id":"da5c6273-c63c-47c5-8d95-bdac8afdbd5e","system_id":"levelo_inurba_marseille","lat":43.297794,"lon":5.370888,"is_reserved":false,"is_disabled":false,"rental_uris":{"android":"levelo://app?vid=da5c6273-c63c-47c5-8d95-bdac8afdbd5e","ios":"levelo://app?vid=da5c6273-c63c-47c5-8d95-bdac8afdbd5e"},"vehicle_type_id":"4","last_reported":1684620344,"current_range_meters":23200,"station_id":"ce4bgop2rcd13ifvqc1g","pricing_plan_id":"free"},{"bike_id":"2d4ea538-f0d0-4dfc-9202-567977f1d062","system_id":"levelo_inurba_marseille","lat":43.297774,"lon":5.370875,"is_reserved":false,"is_disabled":false,"rental_uris":{"android":"levelo://app?vid=2d4ea538-f0d0-4dfc-9202-567977f1d062","ios":"levelo://app?vid=2d4ea538-f0d0-4dfc-9202-567977f1d062"},"vehicle_type_id":"4","last_reported":1684620344,"current_range_meters":26800,"station_id":"ce4bgop2rcd13ifvqc1g","pricing_plan_id":"free"},{"bike_id":"411c53dc-8a67-493a-b123-b1e299cae53c","system_id":"levelo_inurba_marseille","lat":43.328371,"lon":5.366909,"is_reserved":false,"is_disabled":false,"rental_uris":{"android":"levelo://app?vid=411c53dc-8a67-493a-b123-b1e299cae53c","ios":"levelo://app?vid=411c53dc-8a67-493a-b123-b1e299cae53c"},"vehicle_type_id":"4","last_reported":1684620344,"current_range_meters":30400,"station_id":"ce4bhs92rcd13ifvqi0g","pricing_plan_id":"free"},{"bike_id":"fccfd339-db22-4277-bdd0-196f87e474ac","system_id":"levelo_inurba_marseille","lat":43.328371,"lon":5.366909,"is_reserved":false,"is_disabled":false,"rental_uris":{"android":"levelo://app?vid=fccfd339-db22-4277-bdd0-196f87e474ac","ios":"levelo://app?vid=fccfd339-db22-4277-bdd0-196f87e474ac"},"vehicle_type_id":"4","last_reported":1684620344,"current_range_meters":21600,"station_id":"ce4bhs92rcd13ifvqi0g","pricing_plan_id":"free"},{"bike_id":"9d891959-73d6-4c5c-ad12-227228d64e9d","system_id":"levelo_inurba_marseille","lat":43.328371,"lon":5.366909,"is_reserved":false,"is_disabled":false,"rental_uris":{"android":"levelo://app?vid=9d891959-73d6-4c5c-ad12-227228d64e9d","ios":"levelo://app?vid=9d891959-73d6-4c5c-ad12-227228d64e9d"},"vehicle_type_id":"4","last_reported":1684620344,"current_range_meters":19200,"station_id":"ce4bhs92rcd13ifvqi0g","pricing_plan_id":"free"},{"bike_id":"a7fb6a73-9ebf-4b56-938e-67995ffda768","system_id":"levelo_inurba_marseille","lat":43.328371,"lon":5.366909,"is_reserved":false,"is_disabled":false,"rental_uris":{"android":"levelo://app?vid=a7fb6a73-9ebf-4b56-938e-67995ffda768","ios":"levelo://app?vid=a7fb6a73-9ebf-4b56-938e-67995ffda768"},"vehicle_type_id":"4","last_reported":1684620344,"current_range_meters":31200,"station_id":"ce4bhs92rcd13ifvqi0g","pricing_plan_id":"free"},{"bike_id":"bd0cd171-ddc8-443f-ad52-c3c60e0946fd","system_id":"levelo_inurba_marseille","lat":43.29718,"lon":5.36613,"is_reserved":false,"is_disabled":false,"rental_uris":{"android":"levelo://app?vid=bd0cd171-ddc8-443f-ad52-c3c60e0946fd","ios":"levelo://app?vid=bd0cd171-ddc8-443f-ad52-c3c60e0946fd"},"vehicle_type_id":"4","last_reported":1684620344,"current_range_meters":2400,"station_id":"","pricing_plan_id":"free"},{"bike_id":"de338054-150d-4f92-8ba2-f43c70283500","system_id":"levelo_inurba_marseille","lat":43.328371,"lon":5.366909,"is_reserved":false,"is_disabled":false,"rental_uris":{"android":"levelo://app?vid=de338054-150d-4f92-8ba2-f43c70283500","ios":"levelo://app?vid=de338054-150d-4f92-8ba2-f43c70283500"},"vehicle_type_id":"4","last_reported":1684620344,"current_range_meters":19200,"station_id":"ce4bhs92rcd13ifvqi0g","pricing_plan_id":"free"},{"bike_id":"603ebff5-e2d7-41cd-ab80-1218573f88c5","system_id":"levelo_inurba_marseille","lat":43.328371,"lon":5.366909,"is_reserved":false,"is_disabled":false,"rental_uris":{"android":"levelo://app?vid=603ebff5-e2d7-41cd-ab80-1218573f88c5","ios":"levelo://app?vid=603ebff5-e2d7-41cd-ab80-1218573f88c5"},"vehicle_type_id":"4","last_reported":1684620344,"current_range_meters":30000,"station_id":"ce4bhs92rcd13ifvqi0g","pricing_plan_id":"free"},{"bike_id":"4c34d452-7e64-4a57-a842-ccf742ccfa47","system_id":"levelo_inurba_marseille","lat":43.29714,"lon":5.36611,"is_reserved":false,"is_disabled":false,"rental_uris":{"android":"levelo://app?vid=4c34d452-7e64-4a57-a842-ccf742ccfa47","ios":"levelo://app?vid=4c34d452-7e64-4a57-a842-ccf742ccfa47"},"vehicle_type_id":"4","last_reported":1684620344,"current_range_meters":28000,"station_id":"","pricing_plan_id":"free"},{"bike_id":"50d173d1-18ff-41f7-9eb8-ae9dc916a04c","system_id":"levelo_inurba_marseille","lat":43.296131,"lon":5.370791,"is_reserved":false,"is_disabled":false,"rental_uris":{"android":"levelo://app?vid=50d173d1-18ff-41f7-9eb8-ae9dc916a04c","ios":"levelo://app?vid=50d173d1-18ff-41f7-9eb8-ae9dc916a04c"},"vehicle_type_id":"4","last_reported":1684620344,"current_range_meters":28800,"station_id":"ce4bgnh2rcd13ifvqc0g","pricing_plan_id":"free"},{"bike_id":"14060c1f-51a9-426a-86f0-e4083e7e25f7","system_id":"levelo_inurba_marseille","lat":43.296131,"lon":5.370791,"is_reserved":false,"is_disabled":false,"rental_uris":{"android":"levelo://app?vid=14060c1f-51a9-426a-86f0-e4083e7e25f7","ios":"levelo://app?vid=14060c1f-51a9-426a-86f0-e4083e7e25f7"},"vehicle_type_id":"4","last_reported":1684620344,"current_range_meters":31200,"station_id":"ce4bgnh2rcd13ifvqc0g","pricing_plan_id":"free"},{"bike_id":"ee6619ff-faea-4d23-a990-697445c25ee4","system_id":"levelo_inurba_marseille","lat":43.296131,"lon":5.370773,"is_reserved":false,"is_disabled":false,"rental_uris":{"android":"levelo://app?vid=ee6619ff-faea-4d23-a990-697445c25ee4","ios":"levelo://app?vid=ee6619ff-faea-4d23-a990-697445c25ee4"},"vehicle_type_id":"4","last_reported":1684620344,"current_range_meters":25200,"station_id":"ce4bgnh2rcd13ifvqc0g","pricing_plan_id":"free"},{"bike_id":"9428382f-f8d8-43ea-8dce-6c96c2d3e1a1","system_id":"levelo_inurba_marseille","lat":43.296129,"lon":5.370777,"is_reserved":false,"is_disabled":false,"rental_uris":{"android":"levelo://app?vid=9428382f-f8d8-43ea-8dce-6c96c2d3e1a1","ios":"levelo://app?vid=9428382f-f8d8-43ea-8dce-6c96c2d3e1a1"},"vehicle_type_id":"4","last_reported":1684620344,"current_range_meters":27200,"station_id":"ce4bgnh2rcd13ifvqc0g","pricing_plan_id":"free"},{"bike_id":"4ee5bc37-8c2b-4e71-bcf4-7883170f0091","system_id":"levelo_inurba_marseille","lat":43.296223,"lon":5.371758,"is_reserved":false,"is_disabled":false,"rental_uris":{"android":"levelo://app?vid=4ee5bc37-8c2b-4e71-bcf4-7883170f0091","ios":"levelo://app?vid=4ee5bc37-8c2b-4e71-bcf4-7883170f0091"},"vehicle_type_id":"4","last_reported":1684620344,"current_range_meters":17200,"station_id":"ce4bh012rcd13ifvqd00","pricing_plan_id":"free"},{"bike_id":"df1b25b6-fabb-4679-bf02-68540579ca43","system_id":"levelo_inurba_marseille","lat":43.29573,"lon":5.367355,"is_reserved":false,"is_disabled":false,"rental_uris":{"android":"levelo://app?vid=df1b25b6-fabb-4679-bf02-68540579ca43","ios":"levelo://app?vid=df1b25b6-fabb-4679-bf02-68540579ca43"},"vehicle_type_id":"4","last_reported":1684620344,"current_range_meters":31200,"station_id":"ce4bgph2rcd13ifvqc2g","pricing_plan_id":"free"},{"bike_id":"1d0998d3-da8c-4aed-96f0-608a1f7a49d9","system_id":"levelo_inurba_marseille","lat":43.29573,"lon":5.367355,"is_reserved":false,"is_disabled":false,"rental_uris":{"android":"levelo://app?vid=1d0998d3-da8c-4aed-96f0-608a1f7a49d9","ios":"levelo://app?vid=1d0998d3-da8c-4aed-96f0-608a1f7a49d9"},"vehicle_type_id":"4","last_reported":1684620344,"current_range_meters":31200,"station_id":"ce4bgph2rcd13ifvqc2g","pricing_plan_id":"free"},{"bike_id":"657bca6d-8e8f-47c9-aff1-e87c0019496b","system_id":"levelo_inurba_marseille","lat":43.29573,"lon":5.367355,"is_reserved":false,"is_disabled":false,"rental_uris":{"android":"levelo://app?vid=657bca6d-8e8f-47c9-aff1-e87c0019496b","ios":"levelo://app?vid=657bca6d-8e8f-47c9-aff1-e87c0019496b"},"vehicle_type_id":"4","last_reported":1684620344,"current_range_meters":31200,"station_id":"ce4bgph2rcd13ifvqc2g","pricing_plan_id":"free"},{"bike_id":"d4a0ed23-79ff-45e9-8a98-d2e951bad43c","system_id":"levelo_inurba_marseille","lat":43.296935,"lon":5.376544,"is_reserved":false,"is_disabled":false,"rental_uris":{"android":"levelo://app?vid=d4a0ed23-79ff-45e9-8a98-d2e951bad43c","ios":"levelo://app?vid=d4a0ed23-79ff-45e9-8a98-d2e951bad43c"},"vehicle_type_id":"4","last_reported":1684620344,"current_range_meters":22400,"station_id":"ce4bgkh2rcd13ifvqbl0","pricing_plan_id":"free"},{"bike_id":"16a563ad-43db-42f8-8fcb-7619ef6fe513","system_id":"levelo_inurba_marseille","lat":43.299028,"lon":5.381509,"is_reserved":false,"is_disabled":false,"rental_uris":{"android":"levelo://app?vid=16a563ad-43db-42f8-8fcb-7619ef6fe513","ios":"levelo://app?vid=16a563ad-43db-42f8-8fcb-7619ef6fe513"},"vehicle_type_id":"4","last_reported":1684620344,"current_range_meters":30000,"station_id":"ce4bgj12rcd13ifvqbc0","pricing_plan_id":"free"},{"bike_id":"0a29580f-5e9b-4579-96f8-0784851378ec","system_id":"levelo_inurba_marseille","lat":43.309589,"lon":5.390258,"is_reserved":false,"is_disabled":false,"rental_uris":{"android":"levelo://app?vid=0a29580f-5e9b-4579-96f8-0784851378ec","ios":"levelo://app?vid=0a29580f-5e9b-4579-96f8-0784851378ec"},"vehicle_type_id":"4","last_reported":1684620344,"current_range_meters":26400,"station_id":"ce4bgup2rcd13ifvqco0","pricing_plan_id":"free"},{"bike_id":"9d86434f-5223-48f9-a3dd-3590e33f267a","system_id":"levelo_inurba_marseille","lat":43.299028,"lon":5.381509,"is_reserved":false,"is_disabled":false,"rental_uris":{"android":"levelo://app?vid=9d86434f-5223-48f9-a3dd-3590e33f267a","ios":"levelo://app?vid=9d86434f-5223-48f9-a3dd-3590e33f267a"},"vehicle_type_id":"4","last_reported":1684620344,"current_range_meters":14000,"station_id":"ce4bgj12rcd13ifvqbc0","pricing_plan_id":"free"},{"bike_id":"24afc3a5-fdf1-4307-b286-11676542cba9","system_id":"levelo_inurba_marseille","lat":43.299028,"lon":5.381509,"is_reserved":false,"is_disabled":false,"rental_uris":{"android":"levelo://app?vid=24afc3a5-fdf1-4307-b286-11676542cba9","ios":"levelo://app?vid=24afc3a5-fdf1-4307-b286-11676542cba9"},"vehicle_type_id":"4","last_reported":1684620344,"current_range_meters":31200,"station_id":"ce4bgj12rcd13ifvqbc0","pricing_plan_id":"free"},{"bike_id":"e3da0674-8f80-42a2-8bb4-91461a674945","system_id":"levelo_inurba_marseille","lat":43.299028,"lon":5.381509,"is_reserved":false,"is_disabled":false,"rental_uris":{"android":"levelo://app?vid=e3da0674-8f80-42a2-8bb4-91461a674945","ios":"levelo://app?vid=e3da0674-8f80-42a2-8bb4-91461a674945"},"vehicle_type_id":"4","last_reported":1684620344,"current_range_meters":25600,"station_id":"ce4bgj12rcd13ifvqbc0","pricing_plan_id":"free"},{"bike_id":"e6462721-6c45-4449-8abf-e2e1bec5ffe1","system_id":"levelo_inurba_marseille","lat":43.309589,"lon":5.390258,"is_reserved":false,"is_disabled":false,"rental_uris":{"android":"levelo://app?vid=e6462721-6c45-4449-8abf-e2e1bec5ffe1","ios":"levelo://app?vid=e6462721-6c45-4449-8abf-e2e1bec5ffe1"},"vehicle_type_id":"4","last_reported":1684620344,"current_range_meters":29200,"station_id":"ce4bgup2rcd13ifvqco0","pricing_plan_id":"free"},{"bike_id":"f33db1fe-926d-4a99-a51f-962f8f76e53b","system_id":"levelo_inurba_marseille","lat":43.309589,"lon":5.390258,"is_reserved":false,"is_disabled":false,"rental_uris":{"android":"levelo://app?vid=f33db1fe-926d-4a99-a51f-962f8f76e53b","ios":"levelo://app?vid=f33db1fe-926d-4a99-a51f-962f8f76e53b"},"vehicle_type_id":"4","last_reported":1684620344,"current_range_meters":31200,"station_id":"ce4bgup2rcd13ifvqco0","pricing_plan_id":"free"},{"bike_id":"fb93c5a0-9bd3-4259-a605-c6520d0c8359","system_id":"levelo_inurba_marseille","lat":43.31755,"lon":5.39015,"is_reserved":false,"is_disabled":false,"rental_uris":{"android":"levelo://app?vid=fb93c5a0-9bd3-4259-a605-c6520d0c8359","ios":"levelo://app?vid=fb93c5a0-9bd3-4259-a605-c6520d0c8359"},"vehicle_type_id":"4","last_reported":1684620344,"current_range_meters":24800,"station_id":"ce4bhqp2rcd13ifvqhng","pricing_plan_id":"free"},{"bike_id":"f033f00a-6274-4738-9f29-de87994da64a","system_id":"levelo_inurba_marseille","lat":43.317557,"lon":5.390173,"is_reserved":false,"is_disabled":false,"rental_uris":{"android":"levelo://app?vid=f033f00a-6274-4738-9f29-de87994da64a","ios":"levelo://app?vid=f033f00a-6274-4738-9f29-de87994da64a"},"vehicle_type_id":"4","last_reported":1684620344,"current_range_meters":5600,"station_id":"ce4bhqp2rcd13ifvqhng","pricing_plan_id":"free"},{"bike_id":"5ecb331d-8c6f-4338-8806-8cde07be5d2b","system_id":"levelo_inurba_marseille","lat":43.317557,"lon":5.390173,"is_reserved":false,"is_disabled":false,"rental_uris":{"android":"levelo://app?vid=5ecb331d-8c6f-4338-8806-8cde07be5d2b","ios":"levelo://app?vid=5ecb331d-8c6f-4338-8806-8cde07be5d2b"},"vehicle_type_id":"4","last_reported":1684620344,"current_range_meters":20400,"station_id":"ce4bhqp2rcd13ifvqhng","pricing_plan_id":"free"},{"bike_id":"7ccdf964-879f-4af8-bcb9-0bfc70a2cad2","system_id":"levelo_inurba_marseille","lat":43.317557,"lon":5.390173,"is_reserved":false,"is_disabled":false,"rental_uris":{"android":"levelo://app?vid=7ccdf964-879f-4af8-bcb9-0bfc70a2cad2","ios":"levelo://app?vid=7ccdf964-879f-4af8-bcb9-0bfc70a2cad2"},"vehicle_type_id":"4","last_reported":1684620344,"current_range_meters":21200,"station_id":"ce4bhqp2rcd13ifvqhng","pricing_plan_id":"free"},{"bike_id":"47a7ee9d-1dcd-4ae3-8893-63534ab6480c","system_id":"levelo_inurba_marseille","lat":43.298037,"lon":5.381066,"is_reserved":false,"is_disabled":false,"rental_uris":{"android":"levelo://app?vid=47a7ee9d-1dcd-4ae3-8893-63534ab6480c","ios":"levelo://app?vid=47a7ee9d-1dcd-4ae3-8893-63534ab6480c"},"vehicle_type_id":"4","last_reported":1684620344,"current_range_meters":16000,"station_id":"ce4bgip2rcd13ifvqbb0","pricing_plan_id":"free"},{"bike_id":"1db118af-764a-46bd-bb70-607a508d6111","system_id":"levelo_inurba_marseille","lat":43.298037,"lon":5.381066,"is_reserved":false,"is_disabled":false,"rental_uris":{"android":"levelo://app?vid=1db118af-764a-46bd-bb70-607a508d6111","ios":"levelo://app?vid=1db118af-764a-46bd-bb70-607a508d6111"},"vehicle_type_id":"4","last_reported":1684620344,"current_range_meters":12000,"station_id":"ce4bgip2rcd13ifvqbb0","pricing_plan_id":"free"},{"bike_id":"206b2e9b-0b51-4fff-8ba6-a3797a63ee6f","system_id":"levelo_inurba_marseille","lat":43.298037,"lon":5.381066,"is_reserved":false,"is_disabled":false,"rental_uris":{"android":"levelo://app?vid=206b2e9b-0b51-4fff-8ba6-a3797a63ee6f","ios":"levelo://app?vid=206b2e9b-0b51-4fff-8ba6-a3797a63ee6f"},"vehicle_type_id":"4","last_reported":1684620344,"current_range_meters":30000,"station_id":"ce4bgip2rcd13ifvqbb0","pricing_plan_id":"free"},{"bike_id":"04295d5c-7d7c-4d4b-a820-0404e0221d6f","system_id":"levelo_inurba_marseille","lat":43.298037,"lon":5.381066,"is_reserved":false,"is_disabled":false,"rental_uris":{"android":"levelo://app?vid=04295d5c-7d7c-4d4b-a820-0404e0221d6f","ios":"levelo://app?vid=04295d5c-7d7c-4d4b-a820-0404e0221d6f"},"vehicle_type_id":"4","last_reported":1684620344,"current_range_meters":6000,"station_id":"ce4bgip2rcd13ifvqbb0","pricing_plan_id":"free"},{"bike_id":"e08123c8-5dfa-492f-b0c9-6e0277fdd7cc","system_id":"levelo_inurba_marseille","lat":43.304278,"lon":5.388868,"is_reserved":false,"is_disabled":false,"rental_uris":{"android":"levelo://app?vid=e08123c8-5dfa-492f-b0c9-6e0277fdd7cc","ios":"levelo://app?vid=e08123c8-5dfa-492f-b0c9-6e0277fdd7cc"},"vehicle_type_id":"4","last_reported":1684620344,"current_range_meters":16400,"station_id":"ce4bgk12rcd13ifvqbi0","pricing_plan_id":"free"},{"bike_id":"c9ee41a9-6e34-4557-8c1e-08edb8f400a7","system_id":"levelo_inurba_marseille","lat":43.30436,"lon":5.38892,"is_reserved":false,"is_disabled":false,"rental_uris":{"android":"levelo://app?vid=c9ee41a9-6e34-4557-8c1e-08edb8f400a7","ios":"levelo://app?vid=c9ee41a9-6e34-4557-8c1e-08edb8f400a7"},"vehicle_type_id":"4","last_reported":1684620344,"current_range_meters":12400,"station_id":"ce4bgk12rcd13ifvqbi0","pricing_plan_id":"free"},{"bike_id":"2b972580-3540-4eb2-be90-34e0806fb729","system_id":"levelo_inurba_marseille","lat":43.304278,"lon":5.388868,"is_reserved":false,"is_disabled":false,"rental_uris":{"android":"levelo://app?vid=2b972580-3540-4eb2-be90-34e0806fb729","ios":"levelo://app?vid=2b972580-3540-4eb2-be90-34e0806fb729"},"vehicle_type_id":"4","last_reported":1684620344,"current_range_meters":19600,"station_id":"ce4bgk12rcd13ifvqbi0","pricing_plan_id":"free"},{"bike_id":"cdaafd20-5dbd-436c-8bdc-f9b2322cb1b6","system_id":"levelo_inurba_marseille","lat":43.29565,"lon":5.3755,"is_reserved":false,"is_disabled":false,"rental_uris":{"android":"levelo://app?vid=cdaafd20-5dbd-436c-8bdc-f9b2322cb1b6","ios":"levelo://app?vid=cdaafd20-5dbd-436c-8bdc-f9b2322cb1b6"},"vehicle_type_id":"4","last_reported":1684620344,"current_range_meters":26000,"station_id":"ce4bgh92rcd13ifvqb50","pricing_plan_id":"free"},{"bike_id":"f7f6072c-1e57-437d-be00-5e34076695f7","system_id":"levelo_inurba_marseille","lat":43.29539,"lon":5.37509,"is_reserved":false,"is_disabled":false,"rental_uris":{"android":"levelo://app?vid=f7f6072c-1e57-437d-be00-5e34076695f7","ios":"levelo://app?vid=f7f6072c-1e57-437d-be00-5e34076695f7"},"vehicle_type_id":"4","last_reported":1684620344,"current_range_meters":30800,"station_id":"ce4bgkp2rcd13ifvqbmg","pricing_plan_id":"free"},{"bike_id":"f5c1b90c-3ae4-4f7d-afb4-6e3e76254bcf","system_id":"levelo_inurba_marseille","lat":43.29976,"lon":5.38496,"is_reserved":false,"is_disabled":false,"rental_uris":{"android":"levelo://app?vid=f5c1b90c-3ae4-4f7d-afb4-6e3e76254bcf","ios":"levelo://app?vid=f5c1b90c-3ae4-4f7d-afb4-6e3e76254bcf"},"vehicle_type_id":"4","last_reported":1684620344,"current_range_meters":8400,"station_id":"ce4bgj92rcd13ifvqbd0","pricing_plan_id":"free"},{"bike_id":"14442db2-56a3-414f-a568-68f508db28a1","system_id":"levelo_inurba_marseille","lat":43.299717,"lon":5.384845,"is_reserved":false,"is_disabled":false,"rental_uris":{"android":"levelo://app?vid=14442db2-56a3-414f-a568-68f508db28a1","ios":"levelo://app?vid=14442db2-56a3-414f-a568-68f508db28a1"},"vehicle_type_id":"4","last_reported":1684620344,"current_range_meters":10000,"station_id":"ce4bgj92rcd13ifvqbd0","pricing_plan_id":"free"},{"bike_id":"bab02152-e99b-4871-a7d3-84536db6db53","system_id":"levelo_inurba_marseille","lat":43.29515,"lon":5.37507,"is_reserved":false,"is_disabled":false,"rental_uris":{"android":"levelo://app?vid=bab02152-e99b-4871-a7d3-84536db6db53","ios":"levelo://app?vid=bab02152-e99b-4871-a7d3-84536db6db53"},"vehicle_type_id":"4","last_reported":1684620344,"current_range_meters":27200,"station_id":"ce4bgkp2rcd13ifvqbmg","pricing_plan_id":"free"},{"bike_id":"03b8a0a9-c33b-43fa-a282-a3d337c274aa","system_id":"levelo_inurba_marseille","lat":43.29514,"lon":5.37515,"is_reserved":false,"is_disabled":false,"rental_uris":{"android":"levelo://app?vid=03b8a0a9-c33b-43fa-a282-a3d337c274aa","ios":"levelo://app?vid=03b8a0a9-c33b-43fa-a282-a3d337c274aa"},"vehicle_type_id":"4","last_reported":1684620344,"current_range_meters":31200,"station_id":"ce4bgkp2rcd13ifvqbmg","pricing_plan_id":"free"},{"bike_id":"51fdf8ed-0c4a-4f56-8223-a756ead3343a","system_id":"levelo_inurba_marseille","lat":43.29512,"lon":5.37511,"is_reserved":false,"is_disabled":false,"rental_uris":{"android":"levelo://app?vid=51fdf8ed-0c4a-4f56-8223-a756ead3343a","ios":"levelo://app?vid=51fdf8ed-0c4a-4f56-8223-a756ead3343a"},"vehicle_type_id":"4","last_reported":1684620344,"current_range_meters":20000,"station_id":"ce4bgkp2rcd13ifvqbmg","pricing_plan_id":"free"},{"bike_id":"52a6850f-f203-4723-9ad0-8e1af0436565","system_id":"levelo_inurba_marseille","lat":43.3236,"lon":5.38877,"is_reserved":false,"is_disabled":false,"rental_uris":{"android":"levelo://app?vid=52a6850f-f203-4723-9ad0-8e1af0436565","ios":"levelo://app?vid=52a6850f-f203-4723-9ad0-8e1af0436565"},"vehicle_type_id":"4","last_reported":1684620344,"current_range_meters":15600,"station_id":"ce4bhqp2rcd13ifvqhog","pricing_plan_id":"free"},{"bike_id":"4ac8d894-44aa-44fe-a5bc-75ed68bed853","system_id":"levelo_inurba_marseille","lat":43.32363,"lon":5.38878,"is_reserved":false,"is_disabled":false,"rental_uris":{"android":"levelo://app?vid=4ac8d894-44aa-44fe-a5bc-75ed68bed853","ios":"levelo://app?vid=4ac8d894-44aa-44fe-a5bc-75ed68bed853"},"vehicle_type_id":"4","last_reported":1684620344,"current_range_meters":19600,"station_id":"ce4bhqp2rcd13ifvqhog","pricing_plan_id":"free"},{"bike_id":"73045699-9656-449f-aed1-96552ac57a20","system_id":"levelo_inurba_marseille","lat":43.32363,"lon":5.38881,"is_reserved":false,"is_disabled":false,"rental_uris":{"android":"levelo://app?vid=73045699-9656-449f-aed1-96552ac57a20","ios":"levelo://app?vid=73045699-9656-449f-aed1-96552ac57a20"},"vehicle_type_id":"4","last_reported":1684620344,"current_range_meters":10800,"station_id":"ce4bhqp2rcd13ifvqhog","pricing_plan_id":"free"},{"bike_id":"e267f340-98f6-4e1c-9dff-034ba5864fb0","system_id":"levelo_inurba_marseille","lat":43.32362,"lon":5.38883,"is_reserved":false,"is_disabled":false,"rental_uris":{"android":"levelo://app?vid=e267f340-98f6-4e1c-9dff-034ba5864fb0","ios":"levelo://app?vid=e267f340-98f6-4e1c-9dff-034ba5864fb0"},"vehicle_type_id":"4","last_reported":1684620344,"current_range_meters":6400,"station_id":"ce4bhqp2rcd13ifvqhog","pricing_plan_id":"free"},{"bike_id":"54116cb7-e06e-44b7-b6c6-7288ee4c40a3","system_id":"levelo_inurba_marseille","lat":43.32369,"lon":5.38883,"is_reserved":false,"is_disabled":false,"rental_uris":{"android":"levelo://app?vid=54116cb7-e06e-44b7-b6c6-7288ee4c40a3","ios":"levelo://app?vid=54116cb7-e06e-44b7-b6c6-7288ee4c40a3"},"vehicle_type_id":"4","last_reported":1684620344,"current_range_meters":2400,"station_id":"ce4bhqp2rcd13ifvqhog","pricing_plan_id":"free"},{"bike_id":"53c80b4b-d032-45da-9217-748d7d82aa73","system_id":"levelo_inurba_marseille","lat":43.3237,"lon":5.38883,"is_reserved":false,"is_disabled":false,"rental_uris":{"android":"levelo://app?vid=53c80b4b-d032-45da-9217-748d7d82aa73","ios":"levelo://app?vid=53c80b4b-d032-45da-9217-748d7d82aa73"},"vehicle_type_id":"4","last_reported":1684620344,"current_range_meters":15200,"station_id":"ce4bhqp2rcd13ifvqhog","pricing_plan_id":"free"},{"bike_id":"3412a373-aecd-4d88-b7ef-1ec34573d2fa","system_id":"levelo_inurba_marseille","lat":43.32367,"lon":5.38886,"is_reserved":false,"is_disabled":false,"rental_uris":{"android":"levelo://app?vid=3412a373-aecd-4d88-b7ef-1ec34573d2fa","ios":"levelo://app?vid=3412a373-aecd-4d88-b7ef-1ec34573d2fa"},"vehicle_type_id":"4","last_reported":1684620344,"current_range_meters":22400,"station_id":"ce4bhqp2rcd13ifvqhog","pricing_plan_id":"free"},{"bike_id":"01d401da-ad68-4b2e-a4ac-24f3f8771d91","system_id":"levelo_inurba_marseille","lat":43.32367,"lon":5.388836,"is_reserved":false,"is_disabled":false,"rental_uris":{"android":"levelo://app?vid=01d401da-ad68-4b2e-a4ac-24f3f8771d91","ios":"levelo://app?vid=01d401da-ad68-4b2e-a4ac-24f3f8771d91"},"vehicle_type_id":"4","last_reported":1684620344,"current_range_meters":24400,"station_id":"ce4bhqp2rcd13ifvqhog","pricing_plan_id":"free"},{"bike_id":"9d4a523c-4236-4d29-a467-a285d6b1a309","system_id":"levelo_inurba_marseille","lat":43.29315,"lon":5.37186,"is_reserved":false,"is_disabled":false,"rental_uris":{"android":"levelo://app?vid=9d4a523c-4236-4d29-a467-a285d6b1a309","ios":"levelo://app?vid=9d4a523c-4236-4d29-a467-a285d6b1a309"},"vehicle_type_id":"4","last_reported":1684620344,"current_range_meters":14800,"station_id":"ce4bgh92rcd13ifvqb40","pricing_plan_id":"free"},{"bike_id":"90e5241c-3642-4e36-9eba-566bfc7c4130","system_id":"levelo_inurba_marseille","lat":43.293249,"lon":5.371578,"is_reserved":false,"is_disabled":false,"rental_uris":{"android":"levelo://app?vid=90e5241c-3642-4e36-9eba-566bfc7c4130","ios":"levelo://app?vid=90e5241c-3642-4e36-9eba-566bfc7c4130"},"vehicle_type_id":"4","last_reported":1684620344,"current_range_meters":24800,"station_id":"ce4bgh92rcd13ifvqb40","pricing_plan_id":"free"},{"bike_id":"e81a20f8-ecfa-4819-a0d2-9dd13463dc45","system_id":"levelo_inurba_marseille","lat":43.29302,"lon":5.37186,"is_reserved":false,"is_disabled":false,"rental_uris":{"android":"levelo://app?vid=e81a20f8-ecfa-4819-a0d2-9dd13463dc45","ios":"levelo://app?vid=e81a20f8-ecfa-4819-a0d2-9dd13463dc45"},"vehicle_type_id":"4","last_reported":1684620344,"current_range_meters":27200,"station_id":"","pricing_plan_id":"free"},{"bike_id":"537a2131-1d65-44d1-ac36-50b478b92c1c","system_id":"levelo_inurba_marseille","lat":43.293009,"lon":5.374584,"is_reserved":false,"is_disabled":false,"rental_uris":{"android":"levelo://app?vid=537a2131-1d65-44d1-ac36-50b478b92c1c","ios":"levelo://app?vid=537a2131-1d65-44d1-ac36-50b478b92c1c"},"vehicle_type_id":"4","last_reported":1684620344,"current_range_meters":29600,"station_id":"ce4bgi12rcd13ifvqb70","pricing_plan_id":"free"},{"bike_id":"25b83541-432b-44a6-bd50-48e663a38fee","system_id":"levelo_inurba_marseille","lat":43.305994,"lon":5.393687,"is_reserved":false,"is_disabled":false,"rental_uris":{"android":"levelo://app?vid=25b83541-432b-44a6-bd50-48e663a38fee","ios":"levelo://app?vid=25b83541-432b-44a6-bd50-48e663a38fee"},"vehicle_type_id":"4","last_reported":1684620344,"current_range_meters":31200,"station_id":"ce4bh0p2rcd13ifvqd80","pricing_plan_id":"free"},{"bike_id":"9d074ca4-a1f4-4744-8203-e893e3c63a0f","system_id":"levelo_inurba_marseille","lat":43.293009,"lon":5.374584,"is_reserved":false,"is_disabled":false,"rental_uris":{"android":"levelo://app?vid=9d074ca4-a1f4-4744-8203-e893e3c63a0f","ios":"levelo://app?vid=9d074ca4-a1f4-4744-8203-e893e3c63a0f"},"vehicle_type_id":"4","last_reported":1684620344,"current_range_meters":31200,"station_id":"ce4bgi12rcd13ifvqb70","pricing_plan_id":"free"},{"bike_id":"febed918-b5c6-40fa-a0df-c6564988b292","system_id":"levelo_inurba_marseille","lat":43.305994,"lon":5.393687,"is_reserved":false,"is_disabled":false,"rental_uris":{"android":"levelo://app?vid=febed918-b5c6-40fa-a0df-c6564988b292","ios":"levelo://app?vid=febed918-b5c6-40fa-a0df-c6564988b292"},"vehicle_type_id":"4","last_reported":1684620344,"current_range_meters":24800,"station_id":"ce4bh0p2rcd13ifvqd80","pricing_plan_id":"free"},{"bike_id":"7a7213b4-8b58-4ba6-8b24-3c1b3598f2ca","system_id":"levelo_inurba_marseille","lat":43.293009,"lon":5.374584,"is_reserved":false,"is_disabled":false,"rental_uris":{"android":"levelo://app?vid=7a7213b4-8b58-4ba6-8b24-3c1b3598f2ca","ios":"levelo://app?vid=7a7213b4-8b58-4ba6-8b24-3c1b3598f2ca"},"vehicle_type_id":"4","last_reported":1684620344,"current_range_meters":31200,"station_id":"ce4bgi12rcd13ifvqb70","pricing_plan_id":"free"},{"bike_id":"dde61fa3-8643-43b0-83d4-c442aeabf7f1","system_id":"levelo_inurba_marseille","lat":43.29297,"lon":5.37457,"is_reserved":false,"is_disabled":false,"rental_uris":{"android":"levelo://app?vid=dde61fa3-8643-43b0-83d4-c442aeabf7f1","ios":"levelo://app?vid=dde61fa3-8643-43b0-83d4-c442aeabf7f1"},"vehicle_type_id":"4","last_reported":1684620344,"current_range_meters":2000,"station_id":"ce4bgi12rcd13ifvqb70","pricing_plan_id":"free"},{"bike_id":"a6866917-dd8b-4212-a01f-8c6d15213116","system_id":"levelo_inurba_marseille","lat":43.293009,"lon":5.374584,"is_reserved":false,"is_disabled":false,"rental_uris":{"android":"levelo://app?vid=a6866917-dd8b-4212-a01f-8c6d15213116","ios":"levelo://app?vid=a6866917-dd8b-4212-a01f-8c6d15213116"},"vehicle_type_id":"4","last_reported":1684620344,"current_range_meters":31200,"station_id":"ce4bgi12rcd13ifvqb70","pricing_plan_id":"free"},{"bike_id":"1a9835fc-caae-4f16-ac1d-caa2d2dae76c","system_id":"levelo_inurba_marseille","lat":43.305994,"lon":5.393687,"is_reserved":false,"is_disabled":false,"rental_uris":{"android":"levelo://app?vid=1a9835fc-caae-4f16-ac1d-caa2d2dae76c","ios":"levelo://app?vid=1a9835fc-caae-4f16-ac1d-caa2d2dae76c"},"vehicle_type_id":"4","last_reported":1684620344,"current_range_meters":24400,"station_id":"ce4bh0p2rcd13ifvqd80","pricing_plan_id":"free"},{"bike_id":"12fdec0e-5a65-4f24-9479-66312d6634a2","system_id":"levelo_inurba_marseille","lat":43.303002,"lon":5.392142,"is_reserved":false,"is_disabled":false,"rental_uris":{"android":"levelo://app?vid=12fdec0e-5a65-4f24-9479-66312d6634a2","ios":"levelo://app?vid=12fdec0e-5a65-4f24-9479-66312d6634a2"},"vehicle_type_id":"4","last_reported":1684620344,"current_range_meters":30800,"station_id":"ce4bgkh2rcd13ifvqbk0","pricing_plan_id":"free"},{"bike_id":"c88b49fc-dde2-42ad-a4bf-ea3b91ff5480","system_id":"levelo_inurba_marseille","lat":43.2936,"lon":5.37835,"is_reserved":false,"is_disabled":false,"rental_uris":{"android":"levelo://app?vid=c88b49fc-dde2-42ad-a4bf-ea3b91ff5480","ios":"levelo://app?vid=c88b49fc-dde2-42ad-a4bf-ea3b91ff5480"},"vehicle_type_id":"4","last_reported":1684620344,"current_range_meters":20800,"station_id":"ce4bgjh2rcd13ifvqbf0","pricing_plan_id":"free"},{"bike_id":"559c322c-0300-401b-9529-c587eb3e2359","system_id":"levelo_inurba_marseille","lat":43.302992,"lon":5.392136,"is_reserved":false,"is_disabled":false,"rental_uris":{"android":"levelo://app?vid=559c322c-0300-401b-9529-c587eb3e2359","ios":"levelo://app?vid=559c322c-0300-401b-9529-c587eb3e2359"},"vehicle_type_id":"4","last_reported":1684620344,"current_range_meters":28400,"station_id":"ce4bgkh2rcd13ifvqbk0","pricing_plan_id":"free"},{"bike_id":"67ec3e43-acdd-4bed-9f1b-ad02c91598e3","system_id":"levelo_inurba_marseille","lat":43.300852,"lon":5.390859,"is_reserved":false,"is_disabled":false,"rental_uris":{"android":"levelo://app?vid=67ec3e43-acdd-4bed-9f1b-ad02c91598e3","ios":"levelo://app?vid=67ec3e43-acdd-4bed-9f1b-ad02c91598e3"},"vehicle_type_id":"4","last_reported":1684620344,"current_range_meters":7200,"station_id":"ce4bh192rcd13ifvqdb0","pricing_plan_id":"free"},{"bike_id":"6c9b281a-dcaf-47d0-aff1-582228173fb2","system_id":"levelo_inurba_marseille","lat":43.300852,"lon":5.390859,"is_reserved":false,"is_disabled":false,"rental_uris":{"android":"levelo://app?vid=6c9b281a-dcaf-47d0-aff1-582228173fb2","ios":"levelo://app?vid=6c9b281a-dcaf-47d0-aff1-582228173fb2"},"vehicle_type_id":"4","last_reported":1684620344,"current_range_meters":30400,"station_id":"ce4bh192rcd13ifvqdb0","pricing_plan_id":"free"},{"bike_id":"c3a6626c-fed3-4298-b7e0-33ffd339759e","system_id":"levelo_inurba_marseille","lat":43.30085,"lon":5.390856,"is_reserved":false,"is_disabled":false,"rental_uris":{"android":"levelo://app?vid=c3a6626c-fed3-4298-b7e0-33ffd339759e","ios":"levelo://app?vid=c3a6626c-fed3-4298-b7e0-33ffd339759e"},"vehicle_type_id":"4","last_reported":1684620344,"current_range_meters":9200,"station_id":"ce4bh192rcd13ifvqdb0","pricing_plan_id":"free"},{"bike_id":"3d46510d-c7de-4cf3-9594-0c2acbd3d40d","system_id":"levelo_inurba_marseille","lat":43.298764,"lon":5.388973,"is_reserved":false,"is_disabled":false,"rental_uris":{"android":"levelo://app?vid=3d46510d-c7de-4cf3-9594-0c2acbd3d40d","ios":"levelo://app?vid=3d46510d-c7de-4cf3-9594-0c2acbd3d40d"},"vehicle_type_id":"4","last_reported":1684620344,"current_range_meters":19600,"station_id":"ce4bh392rcd13ifvqdl0","pricing_plan_id":"free"},{"bike_id":"157943ef-ff85-4f51-bdef-e0d89042904c","system_id":"levelo_inurba_marseille","lat":43.298764,"lon":5.388973,"is_reserved":false,"is_disabled":false,"rental_uris":{"android":"levelo://app?vid=157943ef-ff85-4f51-bdef-e0d89042904c","ios":"levelo://app?vid=157943ef-ff85-4f51-bdef-e0d89042904c"},"vehicle_type_id":"4","last_reported":1684620344,"current_range_meters":11200,"station_id":"ce4bh392rcd13ifvqdl0","pricing_plan_id":"free"},{"bike_id":"a729ab1f-9983-435c-92d3-74a83b4048f6","system_id":"levelo_inurba_marseille","lat":43.291675,"lon":5.371583,"is_reserved":false,"is_disabled":false,"rental_uris":{"android":"levelo://app?vid=a729ab1f-9983-435c-92d3-74a83b4048f6","ios":"levelo://app?vid=a729ab1f-9983-435c-92d3-74a83b4048f6"},"vehicle_type_id":"4","last_reported":1684620344,"current_range_meters":31200,"station_id":"ce4bha92rcd13ifvqeh0","pricing_plan_id":"free"},{"bike_id":"a97908cf-9a18-4888-88d0-04013c50604a","system_id":"levelo_inurba_marseille","lat":43.298764,"lon":5.388973,"is_reserved":false,"is_disabled":false,"rental_uris":{"android":"levelo://app?vid=a97908cf-9a18-4888-88d0-04013c50604a","ios":"levelo://app?vid=a97908cf-9a18-4888-88d0-04013c50604a"},"vehicle_type_id":"4","last_reported":1684620344,"current_range_meters":19200,"station_id":"ce4bh392rcd13ifvqdl0","pricing_plan_id":"free"},{"bike_id":"9436dfb9-0c50-4f56-b170-8b1581d29d77","system_id":"levelo_inurba_marseille","lat":43.291671,"lon":5.371575,"is_reserved":false,"is_disabled":false,"rental_uris":{"android":"levelo://app?vid=9436dfb9-0c50-4f56-b170-8b1581d29d77","ios":"levelo://app?vid=9436dfb9-0c50-4f56-b170-8b1581d29d77"},"vehicle_type_id":"4","last_reported":1684620344,"current_range_meters":30400,"station_id":"ce4bha92rcd13ifvqeh0","pricing_plan_id":"free"},{"bike_id":"631cf141-6f0a-41bf-9e49-ca488df68b37","system_id":"levelo_inurba_marseille","lat":43.298764,"lon":5.388973,"is_reserved":false,"is_disabled":false,"rental_uris":{"android":"levelo://app?vid=631cf141-6f0a-41bf-9e49-ca488df68b37","ios":"levelo://app?vid=631cf141-6f0a-41bf-9e49-ca488df68b37"},"vehicle_type_id":"4","last_reported":1684620344,"current_range_meters":12400,"station_id":"ce4bh392rcd13ifvqdl0","pricing_plan_id":"free"},{"bike_id":"734d3108-d469-4678-a552-8b6b171e70b5","system_id":"levelo_inurba_marseille","lat":43.29164,"lon":5.3715,"is_reserved":false,"is_disabled":false,"rental_uris":{"android":"levelo://app?vid=734d3108-d469-4678-a552-8b6b171e70b5","ios":"levelo://app?vid=734d3108-d469-4678-a552-8b6b171e70b5"},"vehicle_type_id":"4","last_reported":1684620344,"current_range_meters":20000,"station_id":"ce4bha92rcd13ifvqeh0","pricing_plan_id":"free"},{"bike_id":"100df340-0d9b-48f5-aafc-1d254a417dc3","system_id":"levelo_inurba_marseille","lat":43.298764,"lon":5.388973,"is_reserved":false,"is_disabled":false,"rental_uris":{"android":"levelo://app?vid=100df340-0d9b-48f5-aafc-1d254a417dc3","ios":"levelo://app?vid=100df340-0d9b-48f5-aafc-1d254a417dc3"},"vehicle_type_id":"4","last_reported":1684620344,"current_range_meters":23600,"station_id":"ce4bh392rcd13ifvqdl0","pricing_plan_id":"free"},{"bike_id":"168820a3-5cc1-445c-b7de-2ed9f6dcf6a5","system_id":"levelo_inurba_marseille","lat":43.298764,"lon":5.388973,"is_reserved":false,"is_disabled":false,"rental_uris":{"android":"levelo://app?vid=168820a3-5cc1-445c-b7de-2ed9f6dcf6a5","ios":"levelo://app?vid=168820a3-5cc1-445c-b7de-2ed9f6dcf6a5"},"vehicle_type_id":"4","last_reported":1684620344,"current_range_meters":0,"station_id":"ce4bh392rcd13ifvqdl0","pricing_plan_id":"free"},{"bike_id":"b2da6e50-f669-4733-a2b1-a6f5ca2d74a7","system_id":"levelo_inurba_marseille","lat":43.29161,"lon":5.37153,"is_reserved":false,"is_disabled":false,"rental_uris":{"android":"levelo://app?vid=b2da6e50-f669-4733-a2b1-a6f5ca2d74a7","ios":"levelo://app?vid=b2da6e50-f669-4733-a2b1-a6f5ca2d74a7"},"vehicle_type_id":"4","last_reported":1684620344,"current_range_meters":6400,"station_id":"ce4bha92rcd13ifvqeh0","pricing_plan_id":"free"},{"bike_id":"d4fdf4a6-839a-4b44-b03d-66bbb7ad8772","system_id":"levelo_inurba_marseille","lat":43.298764,"lon":5.388973,"is_reserved":false,"is_disabled":false,"rental_uris":{"android":"levelo://app?vid=d4fdf4a6-839a-4b44-b03d-66bbb7ad8772","ios":"levelo://app?vid=d4fdf4a6-839a-4b44-b03d-66bbb7ad8772"},"vehicle_type_id":"4","last_reported":1684620344,"current_range_meters":3200,"station_id":"ce4bh392rcd13ifvqdl0","pricing_plan_id":"free"},{"bike_id":"93a0805c-c1e5-432e-b2ec-521dc82438da","system_id":"levelo_inurba_marseille","lat":43.29208,"lon":5.35912,"is_reserved":false,"is_disabled":false,"rental_uris":{"android":"levelo://app?vid=93a0805c-c1e5-432e-b2ec-521dc82438da","ios":"levelo://app?vid=93a0805c-c1e5-432e-b2ec-521dc82438da"},"vehicle_type_id":"4","last_reported":1684620344,"current_range_meters":30800,"station_id":"","pricing_plan_id":"free"},{"bike_id":"c3bb868b-d73d-4d76-a0e2-f02ceaa0a50d","system_id":"levelo_inurba_marseille","lat":43.30889,"lon":5.39633,"is_reserved":false,"is_disabled":false,"rental_uris":{"android":"levelo://app?vid=c3bb868b-d73d-4d76-a0e2-f02ceaa0a50d","ios":"levelo://app?vid=c3bb868b-d73d-4d76-a0e2-f02ceaa0a50d"},"vehicle_type_id":"4","last_reported":1684620344,"current_range_meters":12400,"station_id":"ce4bh012rcd13ifvqcv0","pricing_plan_id":"free"},{"bike_id":"65e575fa-a358-41d8-a675-f34d67f48ecf","system_id":"levelo_inurba_marseille","lat":43.30889,"lon":5.39635,"is_reserved":false,"is_disabled":false,"rental_uris":{"android":"levelo://app?vid=65e575fa-a358-41d8-a675-f34d67f48ecf","ios":"levelo://app?vid=65e575fa-a358-41d8-a675-f34d67f48ecf"},"vehicle_type_id":"4","last_reported":1684620344,"current_range_meters":24000,"station_id":"ce4bh012rcd13ifvqcv0","pricing_plan_id":"free"},{"bike_id":"277d0ef9-8202-4f24-b4a4-a89d43b5f795","system_id":"levelo_inurba_marseille","lat":43.29198,"lon":5.3579,"is_reserved":false,"is_disabled":false,"rental_uris":{"android":"levelo://app?vid=277d0ef9-8202-4f24-b4a4-a89d43b5f795","ios":"levelo://app?vid=277d0ef9-8202-4f24-b4a4-a89d43b5f795"},"vehicle_type_id":"4","last_reported":1684620344,"current_range_meters":19200,"station_id":"ce4bhb12rcd13ifvqel0","pricing_plan_id":"free"},{"bike_id":"7bd616d9-1de0-4f44-beec-c18f87869800","system_id":"levelo_inurba_marseille","lat":43.30884,"lon":5.39637,"is_reserved":false,"is_disabled":false,"rental_uris":{"android":"levelo://app?vid=7bd616d9-1de0-4f44-beec-c18f87869800","ios":"levelo://app?vid=7bd616d9-1de0-4f44-beec-c18f87869800"},"vehicle_type_id":"4","last_reported":1684620344,"current_range_meters":31200,"station_id":"","pricing_plan_id":"free"},{"bike_id":"81d9fee4-cd3d-4b8c-9858-7f72234fa5b5","system_id":"levelo_inurba_marseille","lat":43.313291,"lon":5.396838,"is_reserved":false,"is_disabled":false,"rental_uris":{"android":"levelo://app?vid=81d9fee4-cd3d-4b8c-9858-7f72234fa5b5","ios":"levelo://app?vid=81d9fee4-cd3d-4b8c-9858-7f72234fa5b5"},"vehicle_type_id":"4","last_reported":1684620344,"current_range_meters":22400,"station_id":"ce4bgvp2rcd13ifvqcu0","pricing_plan_id":"free"},{"bike_id":"19ce7439-a588-42db-9450-d17afc9e1229","system_id":"levelo_inurba_marseille","lat":43.313291,"lon":5.396838,"is_reserved":false,"is_disabled":false,"rental_uris":{"android":"levelo://app?vid=19ce7439-a588-42db-9450-d17afc9e1229","ios":"levelo://app?vid=19ce7439-a588-42db-9450-d17afc9e1229"},"vehicle_type_id":"4","last_reported":1684620344,"current_range_meters":24000,"station_id":"ce4bgvp2rcd13ifvqcu0","pricing_plan_id":"free"},{"bike_id":"83a54c1f-be2d-4315-8a6e-c23d1dea63b0","system_id":"levelo_inurba_marseille","lat":43.309038,"lon":5.396546,"is_reserved":false,"is_disabled":false,"rental_uris":{"android":"levelo://app?vid=83a54c1f-be2d-4315-8a6e-c23d1dea63b0","ios":"levelo://app?vid=83a54c1f-be2d-4315-8a6e-c23d1dea63b0"},"vehicle_type_id":"4","last_reported":1684620344,"current_range_meters":17600,"station_id":"ce4bh012rcd13ifvqcv0","pricing_plan_id":"free"},{"bike_id":"dc368bd4-28a3-4521-a8ff-8f20aed7e729","system_id":"levelo_inurba_marseille","lat":43.30893,"lon":5.39645,"is_reserved":false,"is_disabled":false,"rental_uris":{"android":"levelo://app?vid=dc368bd4-28a3-4521-a8ff-8f20aed7e729","ios":"levelo://app?vid=dc368bd4-28a3-4521-a8ff-8f20aed7e729"},"vehicle_type_id":"4","last_reported":1684620344,"current_range_meters":21200,"station_id":"ce4bh012rcd13ifvqcv0","pricing_plan_id":"free"},{"bike_id":"86278db7-8898-4866-9e40-671e7eda7ded","system_id":"levelo_inurba_marseille","lat":43.309038,"lon":5.396546,"is_reserved":false,"is_disabled":false,"rental_uris":{"android":"levelo://app?vid=86278db7-8898-4866-9e40-671e7eda7ded","ios":"levelo://app?vid=86278db7-8898-4866-9e40-671e7eda7ded"},"vehicle_type_id":"4","last_reported":1684620344,"current_range_meters":20000,"station_id":"ce4bh012rcd13ifvqcv0","pricing_plan_id":"free"},{"bike_id":"00b4637a-42e4-41c2-b306-4969effcc106","system_id":"levelo_inurba_marseille","lat":43.30882,"lon":5.3965,"is_reserved":false,"is_disabled":false,"rental_uris":{"android":"levelo://app?vid=00b4637a-42e4-41c2-b306-4969effcc106","ios":"levelo://app?vid=00b4637a-42e4-41c2-b306-4969effcc106"},"vehicle_type_id":"4","last_reported":1684620344,"current_range_meters":30000,"station_id":"ce4bh012rcd13ifvqcv0","pricing_plan_id":"free"},{"bike_id":"0c0ef071-b901-4368-9f46-46b3492353ea","system_id":"levelo_inurba_marseille","lat":43.313291,"lon":5.396838,"is_reserved":false,"is_disabled":false,"rental_uris":{"android":"levelo://app?vid=0c0ef071-b901-4368-9f46-46b3492353ea","ios":"levelo://app?vid=0c0ef071-b901-4368-9f46-46b3492353ea"},"vehicle_type_id":"4","last_reported":1684620344,"current_range_meters":7200,"station_id":"ce4bgvp2rcd13ifvqcu0","pricing_plan_id":"free"},{"bike_id":"d2ae3085-2478-4856-a3eb-d79b11f9f3f2","system_id":"levelo_inurba_marseille","lat":43.30892,"lon":5.39654,"is_reserved":false,"is_disabled":false,"rental_uris":{"android":"levelo://app?vid=d2ae3085-2478-4856-a3eb-d79b11f9f3f2","ios":"levelo://app?vid=d2ae3085-2478-4856-a3eb-d79b11f9f3f2"},"vehicle_type_id":"4","last_reported":1684620344,"current_range_meters":2800,"station_id":"ce4bh012rcd13ifvqcv0","pricing_plan_id":"free"},{"bike_id":"560fb464-6bff-4314-aa59-c1cb6143d36c","system_id":"levelo_inurba_marseille","lat":43.309038,"lon":5.396546,"is_reserved":false,"is_disabled":false,"rental_uris":{"android":"levelo://app?vid=560fb464-6bff-4314-aa59-c1cb6143d36c","ios":"levelo://app?vid=560fb464-6bff-4314-aa59-c1cb6143d36c"},"vehicle_type_id":"4","last_reported":1684620344,"current_range_meters":22000,"station_id":"ce4bh012rcd13ifvqcv0","pricing_plan_id":"free"},{"bike_id":"fc95d3b4-02a5-4732-b0ce-2308f3f0dc5c","system_id":"levelo_inurba_marseille","lat":43.29529,"lon":5.385581,"is_reserved":false,"is_disabled":false,"rental_uris":{"android":"levelo://app?vid=fc95d3b4-02a5-4732-b0ce-2308f3f0dc5c","ios":"levelo://app?vid=fc95d3b4-02a5-4732-b0ce-2308f3f0dc5c"},"vehicle_type_id":"4","last_reported":1684620344,"current_range_meters":31200,"station_id":"ce4bgih2rcd13ifvqba0","pricing_plan_id":"free"},{"bike_id":"2d4d6f92-40e2-45e6-8a18-c9bb92723283","system_id":"levelo_inurba_marseille","lat":43.29529,"lon":5.385581,"is_reserved":false,"is_disabled":false,"rental_uris":{"android":"levelo://app?vid=2d4d6f92-40e2-45e6-8a18-c9bb92723283","ios":"levelo://app?vid=2d4d6f92-40e2-45e6-8a18-c9bb92723283"},"vehicle_type_id":"4","last_reported":1684620344,"current_range_meters":26400,"station_id":"ce4bgih2rcd13ifvqba0","pricing_plan_id":"free"},{"bike_id":"b28cc7b1-810f-474b-9872-515591386f95","system_id":"levelo_inurba_marseille","lat":43.29529,"lon":5.385581,"is_reserved":false,"is_disabled":false,"rental_uris":{"android":"levelo://app?vid=b28cc7b1-810f-474b-9872-515591386f95","ios":"levelo://app?vid=b28cc7b1-810f-474b-9872-515591386f95"},"vehicle_type_id":"4","last_reported":1684620344,"current_range_meters":21600,"station_id":"ce4bgih2rcd13ifvqba0","pricing_plan_id":"free"},{"bike_id":"4eb0beed-14be-4983-88d9-dfc09b440871","system_id":"levelo_inurba_marseille","lat":43.29534,"lon":5.38544,"is_reserved":false,"is_disabled":false,"rental_uris":{"android":"levelo://app?vid=4eb0beed-14be-4983-88d9-dfc09b440871","ios":"levelo://app?vid=4eb0beed-14be-4983-88d9-dfc09b440871"},"vehicle_type_id":"4","last_reported":1684620344,"current_range_meters":31600,"station_id":"ce4bgih2rcd13ifvqba0","pricing_plan_id":"free"},{"bike_id":"b0b37863-9444-4044-b796-d981e2dda76d","system_id":"levelo_inurba_marseille","lat":43.29529,"lon":5.385581,"is_reserved":false,"is_disabled":false,"rental_uris":{"android":"levelo://app?vid=b0b37863-9444-4044-b796-d981e2dda76d","ios":"levelo://app?vid=b0b37863-9444-4044-b796-d981e2dda76d"},"vehicle_type_id":"4","last_reported":1684620344,"current_range_meters":19600,"station_id":"ce4bgih2rcd13ifvqba0","pricing_plan_id":"free"},{"bike_id":"56c6237c-83fe-4ff0-b11c-64a8154910db","system_id":"levelo_inurba_marseille","lat":43.29529,"lon":5.385581,"is_reserved":false,"is_disabled":false,"rental_uris":{"android":"levelo://app?vid=56c6237c-83fe-4ff0-b11c-64a8154910db","ios":"levelo://app?vid=56c6237c-83fe-4ff0-b11c-64a8154910db"},"vehicle_type_id":"4","last_reported":1684620344,"current_range_meters":22000,"station_id":"ce4bgih2rcd13ifvqba0","pricing_plan_id":"free"},{"bike_id":"b6f2b3a2-6861-41b2-a93e-9c5ff8afc542","system_id":"levelo_inurba_marseille","lat":43.29529,"lon":5.385581,"is_reserved":false,"is_disabled":false,"rental_uris":{"android":"levelo://app?vid=b6f2b3a2-6861-41b2-a93e-9c5ff8afc542","ios":"levelo://app?vid=b6f2b3a2-6861-41b2-a93e-9c5ff8afc542"},"vehicle_type_id":"4","last_reported":1684620344,"current_range_meters":30800,"station_id":"ce4bgih2rcd13ifvqba0","pricing_plan_id":"free"},{"bike_id":"327da11f-9bf9-4e8c-9a54-113005a48640","system_id":"levelo_inurba_marseille","lat":43.32819,"lon":5.38911,"is_reserved":false,"is_disabled":false,"rental_uris":{"android":"levelo://app?vid=327da11f-9bf9-4e8c-9a54-113005a48640","ios":"levelo://app?vid=327da11f-9bf9-4e8c-9a54-113005a48640"},"vehicle_type_id":"4","last_reported":1684620344,"current_range_meters":28800,"station_id":"","pricing_plan_id":"free"},{"bike_id":"e004e7e3-df08-4410-b00c-3345fbaf8a95","system_id":"levelo_inurba_marseille","lat":43.302008,"lon":5.394694,"is_reserved":false,"is_disabled":false,"rental_uris":{"android":"levelo://app?vid=e004e7e3-df08-4410-b00c-3345fbaf8a95","ios":"levelo://app?vid=e004e7e3-df08-4410-b00c-3345fbaf8a95"},"vehicle_type_id":"4","last_reported":1684620344,"current_range_meters":13200,"station_id":"ce4bh0p2rcd13ifvqd70","pricing_plan_id":"free"},{"bike_id":"5f030b58-aef4-4fb4-8e64-d6eae5bacc49","system_id":"levelo_inurba_marseille","lat":43.302008,"lon":5.394694,"is_reserved":false,"is_disabled":false,"rental_uris":{"android":"levelo://app?vid=5f030b58-aef4-4fb4-8e64-d6eae5bacc49","ios":"levelo://app?vid=5f030b58-aef4-4fb4-8e64-d6eae5bacc49"},"vehicle_type_id":"4","last_reported":1684620344,"current_range_meters":24400,"station_id":"ce4bh0p2rcd13ifvqd70","pricing_plan_id":"free"},{"bike_id":"4ebe0c7d-a903-4bd6-bab5-80680e9b58a9","system_id":"levelo_inurba_marseille","lat":43.302008,"lon":5.394694,"is_reserved":false,"is_disabled":false,"rental_uris":{"android":"levelo://app?vid=4ebe0c7d-a903-4bd6-bab5-80680e9b58a9","ios":"levelo://app?vid=4ebe0c7d-a903-4bd6-bab5-80680e9b58a9"},"vehicle_type_id":"4","last_reported":1684620344,"current_range_meters":24000,"station_id":"ce4bh0p2rcd13ifvqd70","pricing_plan_id":"free"},{"bike_id":"1e0a5868-8efc-4408-a159-cd5bd94ed6ec","system_id":"levelo_inurba_marseille","lat":43.302008,"lon":5.394694,"is_reserved":false,"is_disabled":false,"rental_uris":{"android":"levelo://app?vid=1e0a5868-8efc-4408-a159-cd5bd94ed6ec","ios":"levelo://app?vid=1e0a5868-8efc-4408-a159-cd5bd94ed6ec"},"vehicle_type_id":"4","last_reported":1684620344,"current_range_meters":31600,"station_id":"ce4bh0p2rcd13ifvqd70","pricing_plan_id":"free"},{"bike_id":"dba57a29-c5fe-4533-9070-67be3242723e","system_id":"levelo_inurba_marseille","lat":43.290624,"lon":5.359245,"is_reserved":false,"is_disabled":false,"rental_uris":{"android":"levelo://app?vid=dba57a29-c5fe-4533-9070-67be3242723e","ios":"levelo://app?vid=dba57a29-c5fe-4533-9070-67be3242723e"},"vehicle_type_id":"4","last_reported":1684620344,"current_range_meters":20000,"station_id":"ce4bha92rcd13ifvqeg0","pricing_plan_id":"free"},{"bike_id":"5a34e7b1-6d47-4422-a257-5b7c5559283e","system_id":"levelo_inurba_marseille","lat":43.302008,"lon":5.394694,"is_reserved":false,"is_disabled":false,"rental_uris":{"android":"levelo://app?vid=5a34e7b1-6d47-4422-a257-5b7c5559283e","ios":"levelo://app?vid=5a34e7b1-6d47-4422-a257-5b7c5559283e"},"vehicle_type_id":"4","last_reported":1684620344,"current_range_meters":30400,"station_id":"ce4bh0p2rcd13ifvqd70","pricing_plan_id":"free"},{"bike_id":"4fffcc47-27e9-4725-a4cf-890ee42cf029","system_id":"levelo_inurba_marseille","lat":43.290631,"lon":5.359244,"is_reserved":false,"is_disabled":false,"rental_uris":{"android":"levelo://app?vid=4fffcc47-27e9-4725-a4cf-890ee42cf029","ios":"levelo://app?vid=4fffcc47-27e9-4725-a4cf-890ee42cf029"},"vehicle_type_id":"4","last_reported":1684620344,"current_range_meters":22000,"station_id":"ce4bha92rcd13ifvqeg0","pricing_plan_id":"free"},{"bike_id":"52840670-adf9-433a-a316-2a64c5a381b4","system_id":"levelo_inurba_marseille","lat":43.294153,"lon":5.386305,"is_reserved":false,"is_disabled":false,"rental_uris":{"android":"levelo://app?vid=52840670-adf9-433a-a316-2a64c5a381b4","ios":"levelo://app?vid=52840670-adf9-433a-a316-2a64c5a381b4"},"vehicle_type_id":"4","last_reported":1684620344,"current_range_meters":31200,"station_id":"ce4bh2h2rcd13ifvqdh0","pricing_plan_id":"free"},{"bike_id":"962087f6-81d5-4df7-bd30-73e08cc02a76","system_id":"levelo_inurba_marseille","lat":43.29424,"lon":5.38625,"is_reserved":false,"is_disabled":false,"rental_uris":{"android":"levelo://app?vid=962087f6-81d5-4df7-bd30-73e08cc02a76","ios":"levelo://app?vid=962087f6-81d5-4df7-bd30-73e08cc02a76"},"vehicle_type_id":"4","last_reported":1684620344,"current_range_meters":28400,"station_id":"ce4bh2h2rcd13ifvqdh0","pricing_plan_id":"free"},{"bike_id":"3a3e72e2-c6a3-49e8-b775-79d6a10a3504","system_id":"levelo_inurba_marseille","lat":43.294153,"lon":5.386305,"is_reserved":false,"is_disabled":false,"rental_uris":{"android":"levelo://app?vid=3a3e72e2-c6a3-49e8-b775-79d6a10a3504","ios":"levelo://app?vid=3a3e72e2-c6a3-49e8-b775-79d6a10a3504"},"vehicle_type_id":"4","last_reported":1684620344,"current_range_meters":28400,"station_id":"ce4bh2h2rcd13ifvqdh0","pricing_plan_id":"free"},{"bike_id":"02fa5ae5-b3ff-444d-b45a-54b9201ca890","system_id":"levelo_inurba_marseille","lat":43.294153,"lon":5.386305,"is_reserved":false,"is_disabled":false,"rental_uris":{"android":"levelo://app?vid=02fa5ae5-b3ff-444d-b45a-54b9201ca890","ios":"levelo://app?vid=02fa5ae5-b3ff-444d-b45a-54b9201ca890"},"vehicle_type_id":"4","last_reported":1684620344,"current_range_meters":31200,"station_id":"ce4bh2h2rcd13ifvqdh0","pricing_plan_id":"free"},{"bike_id":"ce8ad783-35db-44b1-b597-d0b0803b08ea","system_id":"levelo_inurba_marseille","lat":43.2942,"lon":5.38622,"is_reserved":false,"is_disabled":false,"rental_uris":{"android":"levelo://app?vid=ce8ad783-35db-44b1-b597-d0b0803b08ea","ios":"levelo://app?vid=ce8ad783-35db-44b1-b597-d0b0803b08ea"},"vehicle_type_id":"4","last_reported":1684620344,"current_range_meters":5600,"station_id":"ce4bh2h2rcd13ifvqdh0","pricing_plan_id":"free"},{"bike_id":"b37b2f9a-c6bb-44be-99c7-32d0df1ded0a","system_id":"levelo_inurba_marseille","lat":43.29419,"lon":5.38622,"is_reserved":false,"is_disabled":false,"rental_uris":{"android":"levelo://app?vid=b37b2f9a-c6bb-44be-99c7-32d0df1ded0a","ios":"levelo://app?vid=b37b2f9a-c6bb-44be-99c7-32d0df1ded0a"},"vehicle_type_id":"4","last_reported":1684620344,"current_range_meters":28800,"station_id":"ce4bh2h2rcd13ifvqdh0","pricing_plan_id":"free"},{"bike_id":"13c8c367-9e64-4dc9-a4b1-ae1d1be2fe8a","system_id":"levelo_inurba_marseille","lat":43.2942,"lon":5.38625,"is_reserved":false,"is_disabled":false,"rental_uris":{"android":"levelo://app?vid=13c8c367-9e64-4dc9-a4b1-ae1d1be2fe8a","ios":"levelo://app?vid=13c8c367-9e64-4dc9-a4b1-ae1d1be2fe8a"},"vehicle_type_id":"4","last_reported":1684620344,"current_range_meters":29600,"station_id":"ce4bh2h2rcd13ifvqdh0","pricing_plan_id":"free"},{"bike_id":"d554c963-3dd3-4cd0-8427-56054b9b7f76","system_id":"levelo_inurba_marseille","lat":43.29419,"lon":5.38624,"is_reserved":false,"is_disabled":false,"rental_uris":{"android":"levelo://app?vid=d554c963-3dd3-4cd0-8427-56054b9b7f76","ios":"levelo://app?vid=d554c963-3dd3-4cd0-8427-56054b9b7f76"},"vehicle_type_id":"4","last_reported":1684620344,"current_range_meters":28000,"station_id":"ce4bh2h2rcd13ifvqdh0","pricing_plan_id":"free"},{"bike_id":"009bb9df-27b2-4075-a2d2-f749c3ae4413","system_id":"levelo_inurba_marseille","lat":43.29418,"lon":5.38624,"is_reserved":false,"is_disabled":false,"rental_uris":{"android":"levelo://app?vid=009bb9df-27b2-4075-a2d2-f749c3ae4413","ios":"levelo://app?vid=009bb9df-27b2-4075-a2d2-f749c3ae4413"},"vehicle_type_id":"4","last_reported":1684620344,"current_range_meters":18000,"station_id":"ce4bh2h2rcd13ifvqdh0","pricing_plan_id":"free"},{"bike_id":"ea790441-eb84-4fe5-8c63-5be1511c11e1","system_id":"levelo_inurba_marseille","lat":43.29418,"lon":5.38625,"is_reserved":false,"is_disabled":false,"rental_uris":{"android":"levelo://app?vid=ea790441-eb84-4fe5-8c63-5be1511c11e1","ios":"levelo://app?vid=ea790441-eb84-4fe5-8c63-5be1511c11e1"},"vehicle_type_id":"4","last_reported":1684620344,"current_range_meters":22800,"station_id":"ce4bh2h2rcd13ifvqdh0","pricing_plan_id":"free"},{"bike_id":"33f3eb18-0dee-40dd-be71-cb972db06ed5","system_id":"levelo_inurba_marseille","lat":43.29419,"lon":5.38627,"is_reserved":false,"is_disabled":false,"rental_uris":{"android":"levelo://app?vid=33f3eb18-0dee-40dd-be71-cb972db06ed5","ios":"levelo://app?vid=33f3eb18-0dee-40dd-be71-cb972db06ed5"},"vehicle_type_id":"4","last_reported":1684620344,"current_range_meters":13200,"station_id":"ce4bh2h2rcd13ifvqdh0","pricing_plan_id":"free"},{"bike_id":"1188f680-a7dd-40c1-be28-7caefda9fbc9","system_id":"levelo_inurba_marseille","lat":43.290319,"lon":5.375732,"is_reserved":false,"is_disabled":false,"rental_uris":{"android":"levelo://app?vid=1188f680-a7dd-40c1-be28-7caefda9fbc9","ios":"levelo://app?vid=1188f680-a7dd-40c1-be28-7caefda9fbc9"},"vehicle_type_id":"4","last_reported":1684620344,"current_range_meters":28400,"station_id":"ce4bh692rcd13ifvqe90","pricing_plan_id":"free"},{"bike_id":"9df58e7d-7ceb-450e-a784-212f6a8f0f6e","system_id":"levelo_inurba_marseille","lat":43.29417,"lon":5.38627,"is_reserved":false,"is_disabled":false,"rental_uris":{"android":"levelo://app?vid=9df58e7d-7ceb-450e-a784-212f6a8f0f6e","ios":"levelo://app?vid=9df58e7d-7ceb-450e-a784-212f6a8f0f6e"},"vehicle_type_id":"4","last_reported":1684620344,"current_range_meters":14400,"station_id":"ce4bh2h2rcd13ifvqdh0","pricing_plan_id":"free"},{"bike_id":"982b7c83-bfa4-4f19-b6f2-4933f6621050","system_id":"levelo_inurba_marseille","lat":43.29418,"lon":5.38629,"is_reserved":false,"is_disabled":false,"rental_uris":{"android":"levelo://app?vid=982b7c83-bfa4-4f19-b6f2-4933f6621050","ios":"levelo://app?vid=982b7c83-bfa4-4f19-b6f2-4933f6621050"},"vehicle_type_id":"4","last_reported":1684620344,"current_range_meters":21200,"station_id":"ce4bh2h2rcd13ifvqdh0","pricing_plan_id":"free"},{"bike_id":"b0a9cc6e-e415-4a00-a684-437b0c4780f2","system_id":"levelo_inurba_marseille","lat":43.294106,"lon":5.386169,"is_reserved":false,"is_disabled":false,"rental_uris":{"android":"levelo://app?vid=b0a9cc6e-e415-4a00-a684-437b0c4780f2","ios":"levelo://app?vid=b0a9cc6e-e415-4a00-a684-437b0c4780f2"},"vehicle_type_id":"4","last_reported":1684620344,"current_range_meters":24000,"station_id":"ce4bh2h2rcd13ifvqdh0","pricing_plan_id":"free"},{"bike_id":"3e655afc-190f-4652-9b44-712496fc74fe","system_id":"levelo_inurba_marseille","lat":43.29415,"lon":5.38627,"is_reserved":false,"is_disabled":false,"rental_uris":{"android":"levelo://app?vid=3e655afc-190f-4652-9b44-712496fc74fe","ios":"levelo://app?vid=3e655afc-190f-4652-9b44-712496fc74fe"},"vehicle_type_id":"4","last_reported":1684620344,"current_range_meters":28000,"station_id":"ce4bh2h2rcd13ifvqdh0","pricing_plan_id":"free"},{"bike_id":"be2700bc-e38b-4b32-add6-6b3dac026f14","system_id":"levelo_inurba_marseille","lat":43.289184,"lon":5.366408,"is_reserved":false,"is_disabled":false,"rental_uris":{"android":"levelo://app?vid=be2700bc-e38b-4b32-add6-6b3dac026f14","ios":"levelo://app?vid=be2700bc-e38b-4b32-add6-6b3dac026f14"},"vehicle_type_id":"4","last_reported":1684620344,"current_range_meters":25200,"station_id":"ce4bhap2rcd13ifvqek0","pricing_plan_id":"free"},{"bike_id":"c6fe1cf5-40aa-4795-ad0e-e8d58d80a7fe","system_id":"levelo_inurba_marseille","lat":43.289184,"lon":5.366408,"is_reserved":false,"is_disabled":false,"rental_uris":{"android":"levelo://app?vid=c6fe1cf5-40aa-4795-ad0e-e8d58d80a7fe","ios":"levelo://app?vid=c6fe1cf5-40aa-4795-ad0e-e8d58d80a7fe"},"vehicle_type_id":"4","last_reported":1684620344,"current_range_meters":28800,"station_id":"ce4bhap2rcd13ifvqek0","pricing_plan_id":"free"},{"bike_id":"51f37e0f-95d6-4835-a6db-5ca70b0c4054","system_id":"levelo_inurba_marseille","lat":43.289184,"lon":5.366408,"is_reserved":false,"is_disabled":false,"rental_uris":{"android":"levelo://app?vid=51f37e0f-95d6-4835-a6db-5ca70b0c4054","ios":"levelo://app?vid=51f37e0f-95d6-4835-a6db-5ca70b0c4054"},"vehicle_type_id":"4","last_reported":1684620344,"current_range_meters":28800,"station_id":"ce4bhap2rcd13ifvqek0","pricing_plan_id":"free"},{"bike_id":"7f26f1e5-cd81-41d3-a68f-b332aad71eb4","system_id":"levelo_inurba_marseille","lat":43.29412,"lon":5.38632,"is_reserved":false,"is_disabled":false,"rental_uris":{"android":"levelo://app?vid=7f26f1e5-cd81-41d3-a68f-b332aad71eb4","ios":"levelo://app?vid=7f26f1e5-cd81-41d3-a68f-b332aad71eb4"},"vehicle_type_id":"4","last_reported":1684620344,"current_range_meters":22800,"station_id":"ce4bh2h2rcd13ifvqdh0","pricing_plan_id":"free"},{"bike_id":"bea32610-beac-406e-b1c1-83ebce03ee0c","system_id":"levelo_inurba_marseille","lat":43.289184,"lon":5.366408,"is_reserved":false,"is_disabled":false,"rental_uris":{"android":"levelo://app?vid=bea32610-beac-406e-b1c1-83ebce03ee0c","ios":"levelo://app?vid=bea32610-beac-406e-b1c1-83ebce03ee0c"},"vehicle_type_id":"4","last_reported":1684620344,"current_range_meters":13200,"station_id":"ce4bhap2rcd13ifvqek0","pricing_plan_id":"free"},{"bike_id":"b9ac7daa-7e7a-4825-8331-09cf1fc42e79","system_id":"levelo_inurba_marseille","lat":43.289468,"lon":5.363719,"is_reserved":false,"is_disabled":false,"rental_uris":{"android":"levelo://app?vid=b9ac7daa-7e7a-4825-8331-09cf1fc42e79","ios":"levelo://app?vid=b9ac7daa-7e7a-4825-8331-09cf1fc42e79"},"vehicle_type_id":"4","last_reported":1684620344,"current_range_meters":28800,"station_id":"ce4bhc92rcd13ifvqetg","pricing_plan_id":"free"},{"bike_id":"93ae4ea4-a38c-4b5f-99a1-3d7185022eff","system_id":"levelo_inurba_marseille","lat":43.28935,"lon":5.36639,"is_reserved":false,"is_disabled":false,"rental_uris":{"android":"levelo://app?vid=93ae4ea4-a38c-4b5f-99a1-3d7185022eff","ios":"levelo://app?vid=93ae4ea4-a38c-4b5f-99a1-3d7185022eff"},"vehicle_type_id":"4","last_reported":1684620344,"current_range_meters":15200,"station_id":"ce4bhap2rcd13ifvqek0","pricing_plan_id":"free"},{"bike_id":"318178b6-c36a-4d8f-a444-b45a641eab6b","system_id":"levelo_inurba_marseille","lat":43.289468,"lon":5.363719,"is_reserved":false,"is_disabled":false,"rental_uris":{"android":"levelo://app?vid=318178b6-c36a-4d8f-a444-b45a641eab6b","ios":"levelo://app?vid=318178b6-c36a-4d8f-a444-b45a641eab6b"},"vehicle_type_id":"4","last_reported":1684620344,"current_range_meters":29200,"station_id":"ce4bhc92rcd13ifvqetg","pricing_plan_id":"free"},{"bike_id":"48a3d624-22ff-43bd-86f8-6974e7166ae9","system_id":"levelo_inurba_marseille","lat":43.289468,"lon":5.363719,"is_reserved":false,"is_disabled":false,"rental_uris":{"android":"levelo://app?vid=48a3d624-22ff-43bd-86f8-6974e7166ae9","ios":"levelo://app?vid=48a3d624-22ff-43bd-86f8-6974e7166ae9"},"vehicle_type_id":"4","last_reported":1684620344,"current_range_meters":12000,"station_id":"ce4bhc92rcd13ifvqetg","pricing_plan_id":"free"},{"bike_id":"cd8f4067-38ee-4bba-ab0f-a8ba2947805e","system_id":"levelo_inurba_marseille","lat":43.289468,"lon":5.363719,"is_reserved":false,"is_disabled":false,"rental_uris":{"android":"levelo://app?vid=cd8f4067-38ee-4bba-ab0f-a8ba2947805e","ios":"levelo://app?vid=cd8f4067-38ee-4bba-ab0f-a8ba2947805e"},"vehicle_type_id":"4","last_reported":1684620344,"current_range_meters":30400,"station_id":"ce4bhc92rcd13ifvqetg","pricing_plan_id":"free"},{"bike_id":"0f6ef3cd-725e-4767-9268-1b2c8df8b81f","system_id":"levelo_inurba_marseille","lat":43.29049,"lon":5.37802,"is_reserved":false,"is_disabled":false,"rental_uris":{"android":"levelo://app?vid=0f6ef3cd-725e-4767-9268-1b2c8df8b81f","ios":"levelo://app?vid=0f6ef3cd-725e-4767-9268-1b2c8df8b81f"},"vehicle_type_id":"4","last_reported":1684620344,"current_range_meters":27600,"station_id":"ce4bhbh2rcd13ifvqepg","pricing_plan_id":"free"},{"bike_id":"187fa688-1042-4a86-9b85-d4344bcdc1b0","system_id":"levelo_inurba_marseille","lat":43.304296,"lon":5.397513,"is_reserved":false,"is_disabled":false,"rental_uris":{"android":"levelo://app?vid=187fa688-1042-4a86-9b85-d4344bcdc1b0","ios":"levelo://app?vid=187fa688-1042-4a86-9b85-d4344bcdc1b0"},"vehicle_type_id":"4","last_reported":1684620344,"current_range_meters":14800,"station_id":"ce4bh092rcd13ifvqd20","pricing_plan_id":"free"},{"bike_id":"1962c686-e486-4015-8c71-e3b25df1edef","system_id":"levelo_inurba_marseille","lat":43.292642,"lon":5.384254,"is_reserved":false,"is_disabled":false,"rental_uris":{"android":"levelo://app?vid=1962c686-e486-4015-8c71-e3b25df1edef","ios":"levelo://app?vid=1962c686-e486-4015-8c71-e3b25df1edef"},"vehicle_type_id":"4","last_reported":1684620344,"current_range_meters":28000,"station_id":"ce4bh692rcd13ifvqea0","pricing_plan_id":"free"},{"bike_id":"90dd1bc8-fe17-46dc-a15d-c616f6aeb618","system_id":"levelo_inurba_marseille","lat":43.292642,"lon":5.384254,"is_reserved":false,"is_disabled":false,"rental_uris":{"android":"levelo://app?vid=90dd1bc8-fe17-46dc-a15d-c616f6aeb618","ios":"levelo://app?vid=90dd1bc8-fe17-46dc-a15d-c616f6aeb618"},"vehicle_type_id":"4","last_reported":1684620344,"current_range_meters":22400,"station_id":"ce4bh692rcd13ifvqea0","pricing_plan_id":"free"},{"bike_id":"839c49a7-12bf-4eba-9657-d1ce35e9e57f","system_id":"levelo_inurba_marseille","lat":43.29263,"lon":5.38441,"is_reserved":false,"is_disabled":false,"rental_uris":{"android":"levelo://app?vid=839c49a7-12bf-4eba-9657-d1ce35e9e57f","ios":"levelo://app?vid=839c49a7-12bf-4eba-9657-d1ce35e9e57f"},"vehicle_type_id":"4","last_reported":1684620344,"current_range_meters":14000,"station_id":"ce4bh692rcd13ifvqea0","pricing_plan_id":"free"},{"bike_id":"d4e361c7-aa06-46de-81d9-15308ba71532","system_id":"levelo_inurba_marseille","lat":43.292642,"lon":5.384254,"is_reserved":false,"is_disabled":false,"rental_uris":{"android":"levelo://app?vid=d4e361c7-aa06-46de-81d9-15308ba71532","ios":"levelo://app?vid=d4e361c7-aa06-46de-81d9-15308ba71532"},"vehicle_type_id":"4","last_reported":1684620344,"current_range_meters":31200,"station_id":"ce4bh692rcd13ifvqea0","pricing_plan_id":"free"},{"bike_id":"4300a994-b575-4ee1-8aa5-240fd12fafec","system_id":"levelo_inurba_marseille","lat":43.292644,"lon":5.384257,"is_reserved":false,"is_disabled":false,"rental_uris":{"android":"levelo://app?vid=4300a994-b575-4ee1-8aa5-240fd12fafec","ios":"levelo://app?vid=4300a994-b575-4ee1-8aa5-240fd12fafec"},"vehicle_type_id":"4","last_reported":1684620344,"current_range_meters":12800,"station_id":"ce4bh692rcd13ifvqea0","pricing_plan_id":"free"},{"bike_id":"10add061-8da5-4d59-bdeb-6d2ac0b0a15b","system_id":"levelo_inurba_marseille","lat":43.29259,"lon":5.38441,"is_reserved":false,"is_disabled":false,"rental_uris":{"android":"levelo://app?vid=10add061-8da5-4d59-bdeb-6d2ac0b0a15b","ios":"levelo://app?vid=10add061-8da5-4d59-bdeb-6d2ac0b0a15b"},"vehicle_type_id":"4","last_reported":1684620344,"current_range_meters":11600,"station_id":"ce4bh692rcd13ifvqea0","pricing_plan_id":"free"},{"bike_id":"2657c4a6-4e18-4794-b08f-7e1e34f75cd4","system_id":"levelo_inurba_marseille","lat":43.292644,"lon":5.384257,"is_reserved":false,"is_disabled":false,"rental_uris":{"android":"levelo://app?vid=2657c4a6-4e18-4794-b08f-7e1e34f75cd4","ios":"levelo://app?vid=2657c4a6-4e18-4794-b08f-7e1e34f75cd4"},"vehicle_type_id":"4","last_reported":1684620344,"current_range_meters":31200,"station_id":"ce4bh692rcd13ifvqea0","pricing_plan_id":"free"},{"bike_id":"5be263dc-919e-40a7-bdba-c47480b414bc","system_id":"levelo_inurba_marseille","lat":43.292644,"lon":5.384257,"is_reserved":false,"is_disabled":false,"rental_uris":{"android":"levelo://app?vid=5be263dc-919e-40a7-bdba-c47480b414bc","ios":"levelo://app?vid=5be263dc-919e-40a7-bdba-c47480b414bc"},"vehicle_type_id":"4","last_reported":1684620344,"current_range_meters":29200,"station_id":"ce4bh692rcd13ifvqea0","pricing_plan_id":"free"},{"bike_id":"3a052c00-62d7-4ef3-b2f2-02d8d27f5c42","system_id":"levelo_inurba_marseille","lat":43.304274,"lon":5.397513,"is_reserved":false,"is_disabled":false,"rental_uris":{"android":"levelo://app?vid=3a052c00-62d7-4ef3-b2f2-02d8d27f5c42","ios":"levelo://app?vid=3a052c00-62d7-4ef3-b2f2-02d8d27f5c42"},"vehicle_type_id":"4","last_reported":1684620344,"current_range_meters":31200,"station_id":"ce4bh092rcd13ifvqd20","pricing_plan_id":"free"},{"bike_id":"c9385c13-f39c-460f-b6b2-99ec8d617571","system_id":"levelo_inurba_marseille","lat":43.304296,"lon":5.397513,"is_reserved":false,"is_disabled":false,"rental_uris":{"android":"levelo://app?vid=c9385c13-f39c-460f-b6b2-99ec8d617571","ios":"levelo://app?vid=c9385c13-f39c-460f-b6b2-99ec8d617571"},"vehicle_type_id":"4","last_reported":1684620344,"current_range_meters":0,"station_id":"ce4bh092rcd13ifvqd20","pricing_plan_id":"free"},