{"last_updated":1738599036,"ttl":60,"version":"2.2","data":{"bikes":[{"bike_id":"0731d36f-35c9-460b-967c-3fbdf2d55c05","system_id":"levelo_inurba_marseille","lat":43.2512,"lon":5.40343,"is_reserved":false,"is_disabled":false,"rental_uris":{"android":"levelo://app?vid=0731d36f-35c9-460b-967c-3fbdf2d55c05","ios":"levelo://app?vid=0731d36f-35c9-460b-967c-3fbdf2d55c05"},"vehicle_type_id":"4","last_reported":1738599036,"current_range_meters":38800,"station_id":"ce4bhlh2rcd13ifvqgig","pricing_plan_id":"cebpf4jnsgd1na2vs0mg"},{"bike_id":"073a51a9-fd1b-417f-aae2-f7f251627a5a","system_id":"levelo_inurba_marseille","lat":43.26563,"lon":5.39012,"is_reserved":false,"is_disabled":false,"rental_uris":{"android":"levelo://app?vid=073a51a9-fd1b-417f-aae2-f7f251627a5a","ios":"levelo://app?vid=073a51a9-fd1b-417f-aae2-f7f251627a5a"},"vehicle_type_id":"4","last_reported":1738599036,"current_range_meters":25600,"station_id":"ce4bhe12rcd13ifvqf30","pricing_plan_id":"cebpf4jnsgd1na2vs0mg"},{"bike_id":"176cb06f-f5e2-40ce-a5f0-b94c8af2011d","system_id":"levelo_inurba_marseille","lat":43.3089,"lon":5.36854,"is_reserved":false,"is_disabled":true,"rental_uris":{"android":"levelo://app?vid=176cb06f-f5e2-40ce-a5f0-b94c8af2011d","ios":"levelo://app?vid=176cb06f-f5e2-40ce-a5f0-b94c8af2011d"},"vehicle_type_id":"4","last_reported":1738599036,"current_range_meters":28800,"station_id":"ce4bgn92rcd13ifvqbvg","pricing_plan_id":"cebpf4jnsgd1na2vs0mg"},{"bike_id":"2f038ff4-3a27-4eb8-a99c-de259c656bf5","system_id":"levelo_inurba_marseille","lat":43.2998,"lon":5.37172,"is_reserved":false,"is_disabled":false,"rental_uris":{"android":"levelo://app?vid=2f038ff4-3a27-4eb8-a99c-de259c656bf5","ios":"levelo://app?vid=2f038ff4-3a27-4eb8-a99c-de259c656bf5"},"vehicle_type_id":"4","last_reported":1738599036,"current_range_meters":9200,"station_id":"ce4bgr92rcd13ifvqc7g","pricing_plan_id":"cebpf4jnsgd1na2vs0mg"},{"bike_id":"3c8bb8af-c37c-4142-93cd-b4170fe38a2b","system_id":"levelo_inurba_marseille","lat":43.29571,"lon":5.39978,"is_reserved":false,"is_disabled":false,"rental_uris":{"android":"levelo://app?vid=3c8bb8af-c37c-4142-93cd-b4170fe38a2b","ios":"levelo://app?vid=3c8bb8af-c37c-4142-93cd-b4170fe38a2b"},"vehicle_type_id":"4","last_reported":1738599036,"current_range_meters":14800,"station_id":"ce4bh312rcd13ifvqdj0","pricing_plan_id":"cebpf4jnsgd1na2vs0mg"},{"bike_id":"fc814a83-4ff5-43a8-a34b-7b78fc22ed1e","system_id":"levelo_inurba_marseille","lat":43.26669,"lon":5.3827,"is_reserved":false,"is_disabled":true,"rental_uris":{"android":"levelo://app?vid=fc814a83-4ff5-43a8-a34b-7b78fc22ed1e","ios":"levelo://app?vid=fc814a83-4ff5-43a8-a34b-7b78fc22ed1e"},"vehicle_type_id":"4","last_reported":1738599036,"current_range_meters":400,"station_id":"ce4bhg92rcd13ifvqf90","pricing_plan_id":"cebpf4jnsgd1na2vs0mg"},{"bike_id":"0c4ce1c9-5dfd-498a-9268-e97e1b569d3a","system_id":"levelo_inurba_marseille","lat":43.23201,"lon":5.35549,"is_reserved":false,"is_disabled":false,"rental_uris":{"android":"levelo://app?vid=0c4ce1c9-5dfd-498a-9268-e97e1b569d3a","ios":"levelo://app?vid=0c4ce1c9-5dfd-498a-9268-e97e1b569d3a"},"vehicle_type_id":"4","last_reported":1738599036,"current_range_meters":38800,"station_id":"ce4bhu92rcd13ifvqi70","pricing_plan_id":"cebpf4jnsgd1na2vs0mg"},{"bike_id":"7ad543c6-fb45-451c-add8-0b23712390bd","system_id":"levelo_inurba_marseille","lat":43.26923,"lon":5.40268,"is_reserved":false,"is_disabled":false,"rental_uris":{"android":"levelo://app?vid=7ad543c6-fb45-451c-add8-0b23712390bd","ios":"levelo://app?vid=7ad543c6-fb45-451c-add8-0b23712390bd"},"vehicle_type_id":"4","last_reported":1738599036,"current_range_meters":21600,"station_id":"cjm6bp8fraef2m0cb0m0","pricing_plan_id":"cebpf4jnsgd1na2vs0mg"},{"bike_id":"e028bef9-de68-41b8-97d0-a5d118a020b1","system_id":"levelo_inurba_marseille","lat":43.2706,"lon":5.40255,"is_reserved":false,"is_disabled":false,"rental_uris":{"android":"levelo://app?vid=e028bef9-de68-41b8-97d0-a5d118a020b1","ios":"levelo://app?vid=e028bef9-de68-41b8-97d0-a5d118a020b1"},"vehicle_type_id":"4","last_reported":1738599036,"current_range_meters":38800,"station_id":"ce4bhk92rcd13ifvqgc0","pricing_plan_id":"cebpf4jnsgd1na2vs0mg"},{"bike_id":"80b7cc4c-a3e1-4351-9eea-8f37a7e361fd","system_id":"levelo_inurba_marseille","lat":43.27205,"lon":5.39187,"is_reserved":false,"is_disabled":false,"rental_uris":{"android":"levelo://app?vid=80b7cc4c-a3e1-4351-9eea-8f37a7e361fd","ios":"levelo://app?vid=80b7cc4c-a3e1-4351-9eea-8f37a7e361fd"},"vehicle_type_id":"4","last_reported":1738599036,"current_range_meters":22000,"station_id":"ce4bhhp2rcd13ifvqfm0","pricing_plan_id":"cebpf4jnsgd1na2vs0mg"},{"bike_id":"39fe4d38-0e6b-4ea1-b4af-c92b785fbb3f","system_id":"levelo_inurba_marseille","lat":43.30528,"lon":5.3653,"is_reserved":false,"is_disabled":false,"rental_uris":{"android":"levelo://app?vid=39fe4d38-0e6b-4ea1-b4af-c92b785fbb3f","ios":"levelo://app?vid=39fe4d38-0e6b-4ea1-b4af-c92b785fbb3f"},"vehicle_type_id":"4","last_reported":1738599036,"current_range_meters":38800,"station_id":"ce4bgs12rcd13ifvqcag","pricing_plan_id":"cebpf4jnsgd1na2vs0mg"},{"bike_id":"b2f5ad0b-e859-4a5a-afe6-19f2444b14ba","system_id":"levelo_inurba_marseille","lat":43.31979,"lon":5.38125,"is_reserved":false,"is_disabled":false,"rental_uris":{"android":"levelo://app?vid=b2f5ad0b-e859-4a5a-afe6-19f2444b14ba","ios":"levelo://app?vid=b2f5ad0b-e859-4a5a-afe6-19f2444b14ba"},"vehicle_type_id":"4","last_reported":1738599036,"current_range_meters":38800,"station_id":"ce4bhr12rcd13ifvqhpg","pricing_plan_id":"cebpf4jnsgd1na2vs0mg"},{"bike_id":"84e53465-926b-43ef-956d-fb0614e2633b","system_id":"levelo_inurba_marseille","lat":43.30413,"lon":5.41287,"is_reserved":false,"is_disabled":true,"rental_uris":{"android":"levelo://app?vid=84e53465-926b-43ef-956d-fb0614e2633b","ios":"levelo://app?vid=84e53465-926b-43ef-956d-fb0614e2633b"},"vehicle_type_id":"4","last_reported":1738599036,"current_range_meters":0,"station_id":"ce4bhop2rcd13ifvqh8g","pricing_plan_id":"cebpf4jnsgd1na2vs0mg"},{"bike_id":"46d57953-5a8b-4a73-a05f-e65f22d873c6","system_id":"levelo_inurba_marseille","lat":43.26962,"lon":5.40383,"is_reserved":false,"is_disabled":false,"rental_uris":{"android":"levelo://app?vid=46d57953-5a8b-4a73-a05f-e65f22d873c6","ios":"levelo://app?vid=46d57953-5a8b-4a73-a05f-e65f22d873c6"},"vehicle_type_id":"4","last_reported":1738599036,"current_range_meters":36400,"station_id":"","pricing_plan_id":"cebpf4jnsgd1na2vs0mg"},{"bike_id":"fc2c2534-6b38-404c-91a0-095506c82e66","system_id":"levelo_inurba_marseille","lat":43.26944,"lon":5.40242,"is_reserved":false,"is_disabled":false,"rental_uris":{"android":"levelo://app?vid=fc2c2534-6b38-404c-91a0-095506c82e66","ios":"levelo://app?vid=fc2c2534-6b38-404c-91a0-095506c82e66"},"vehicle_type_id":"4","last_reported":1738599036,"current_range_meters":38800,"station_id":"cjm6bp8fraef2m0cb0m0","pricing_plan_id":"cebpf4jnsgd1na2vs0mg"},{"bike_id":"9a7d6e39-8deb-433a-b57c-91c4e124170d","system_id":"levelo_inurba_marseille","lat":43.2835,"lon":5.38117,"is_reserved":false,"is_disabled":false,"rental_uris":{"android":"levelo://app?vid=9a7d6e39-8deb-433a-b57c-91c4e124170d","ios":"levelo://app?vid=9a7d6e39-8deb-433a-b57c-91c4e124170d"},"vehicle_type_id":"4","last_reported":1738599036,"current_range_meters":17600,"station_id":"ce4bh412rcd13ifvqdr0","pricing_plan_id":"cebpf4jnsgd1na2vs0mg"},{"bike_id":"4255d86f-6cd2-4c78-b044-c18b3a57a600","system_id":"levelo_inurba_marseille","lat":43.2695,"lon":5.40231,"is_reserved":false,"is_disabled":false,"rental_uris":{"android":"levelo://app?vid=4255d86f-6cd2-4c78-b044-c18b3a57a600","ios":"levelo://app?vid=4255d86f-6cd2-4c78-b044-c18b3a57a600"},"vehicle_type_id":"4","last_reported":1738599036,"current_range_meters":39200,"station_id":"cjm6bp8fraef2m0cb0m0","pricing_plan_id":"cebpf4jnsgd1na2vs0mg"},{"bike_id":"5f2e9518-7d8d-4b3b-872f-985dce81789d","system_id":"levelo_inurba_marseille","lat":43.30886,"lon":5.39626,"is_reserved":false,"is_disabled":false,"rental_uris":{"android":"levelo://app?vid=5f2e9518-7d8d-4b3b-872f-985dce81789d","ios":"levelo://app?vid=5f2e9518-7d8d-4b3b-872f-985dce81789d"},"vehicle_type_id":"4","last_reported":1738599036,"current_range_meters":39200,"station_id":"ce4bh012rcd13ifvqcv0","pricing_plan_id":"cebpf4jnsgd1na2vs0mg"},{"bike_id":"dc8d3144-ec34-471f-acf0-712a79c7d769","system_id":"levelo_inurba_marseille","lat":43.29979,"lon":5.37172,"is_reserved":false,"is_disabled":false,"rental_uris":{"android":"levelo://app?vid=dc8d3144-ec34-471f-acf0-712a79c7d769","ios":"levelo://app?vid=dc8d3144-ec34-471f-acf0-712a79c7d769"},"vehicle_type_id":"4","last_reported":1738599036,"current_range_meters":39200,"station_id":"ce4bgr92rcd13ifvqc7g","pricing_plan_id":"cebpf4jnsgd1na2vs0mg"},{"bike_id":"430d5648-146c-4ec7-bbfa-6e1440b57110","system_id":"levelo_inurba_marseille","lat":43.337444,"lon":5.374475,"is_reserved":false,"is_disabled":false,"rental_uris":{"android":"levelo://app?vid=430d5648-146c-4ec7-bbfa-6e1440b57110","ios":"levelo://app?vid=430d5648-146c-4ec7-bbfa-6e1440b57110"},"vehicle_type_id":"4","last_reported":1738599036,"current_range_meters":20800,"station_id":"","pricing_plan_id":"cebpf4jnsgd1na2vs0mg"},{"bike_id":"3e574816-3754-460d-8072-f6ebe3757ea0","system_id":"levelo_inurba_marseille","lat":43.32362,"lon":5.36758,"is_reserved":false,"is_disabled":false,"rental_uris":{"android":"levelo://app?vid=3e574816-3754-460d-8072-f6ebe3757ea0","ios":"levelo://app?vid=3e574816-3754-460d-8072-f6ebe3757ea0"},"vehicle_type_id":"4","last_reported":1738599036,"current_range_meters":22400,"station_id":"ce4bhsh2rcd13ifvqi2g","pricing_plan_id":"cebpf4jnsgd1na2vs0mg"},{"bike_id":"73c5adb8-0998-4854-bb2c-683f7adc0ad5","system_id":"levelo_inurba_marseille","lat":43.324838,"lon":5.365745,"is_reserved":false,"is_disabled":false,"rental_uris":{"android":"levelo://app?vid=73c5adb8-0998-4854-bb2c-683f7adc0ad5","ios":"levelo://app?vid=73c5adb8-0998-4854-bb2c-683f7adc0ad5"},"vehicle_type_id":"4","last_reported":1738599036,"current_range_meters":26800,"station_id":"ce4bhs12rcd13ifvqhvg","pricing_plan_id":"cebpf4jnsgd1na2vs0mg"},{"bike_id":"ea76d1e4-acbc-4c3a-9b0f-69dc0f884ed4","system_id":"levelo_inurba_marseille","lat":43.24999,"lon":5.38936,"is_reserved":false,"is_disabled":false,"rental_uris":{"android":"levelo://app?vid=ea76d1e4-acbc-4c3a-9b0f-69dc0f884ed4","ios":"levelo://app?vid=ea76d1e4-acbc-4c3a-9b0f-69dc0f884ed4"},"vehicle_type_id":"4","last_reported":1738599036,"current_range_meters":11200,"station_id":"ce4bhgp2rcd13ifvqfd0","pricing_plan_id":"cebpf4jnsgd1na2vs0mg"},{"bike_id":"a1a7079b-68b5-45ca-9af8-b6bc9f7cd559","system_id":"levelo_inurba_marseille","lat":43.22931,"lon":5.35376,"is_reserved":false,"is_disabled":false,"rental_uris":{"android":"levelo://app?vid=a1a7079b-68b5-45ca-9af8-b6bc9f7cd559","ios":"levelo://app?vid=a1a7079b-68b5-45ca-9af8-b6bc9f7cd559"},"vehicle_type_id":"4","last_reported":1738599036,"current_range_meters":39200,"station_id":"cpo3532slgdg3j2ikp40","pricing_plan_id":"cebpf4jnsgd1na2vs0mg"},{"bike_id":"391156ab-23e6-4087-9fff-4d00554806c8","system_id":"levelo_inurba_marseille","lat":43.2756,"lon":5.38423,"is_reserved":false,"is_disabled":false,"rental_uris":{"android":"levelo://app?vid=391156ab-23e6-4087-9fff-4d00554806c8","ios":"levelo://app?vid=391156ab-23e6-4087-9fff-4d00554806c8"},"vehicle_type_id":"4","last_reported":1738599036,"current_range_meters":36800,"station_id":"ce4bhh92rcd13ifvqfi0","pricing_plan_id":"cebpf4jnsgd1na2vs0mg"},{"bike_id":"0dda88ed-558c-4fc5-baae-42647b0e32e6","system_id":"levelo_inurba_marseille","lat":43.29001,"lon":5.3561,"is_reserved":false,"is_disabled":false,"rental_uris":{"android":"levelo://app?vid=0dda88ed-558c-4fc5-baae-42647b0e32e6","ios":"levelo://app?vid=0dda88ed-558c-4fc5-baae-42647b0e32e6"},"vehicle_type_id":"4","last_reported":1738599036,"current_range_meters":8400,"station_id":"ce4bhb92rcd13ifvqen0","pricing_plan_id":"cebpf4jnsgd1na2vs0mg"},{"bike_id":"4a02347c-ae91-4c9d-adba-44e31fcd384a","system_id":"levelo_inurba_marseille","lat":43.284164,"lon":5.349922,"is_reserved":false,"is_disabled":false,"rental_uris":{"android":"levelo://app?vid=4a02347c-ae91-4c9d-adba-44e31fcd384a","ios":"levelo://app?vid=4a02347c-ae91-4c9d-adba-44e31fcd384a"},"vehicle_type_id":"4","last_reported":1738599036,"current_range_meters":8000,"station_id":"ce4bhbh2rcd13ifvqepg","pricing_plan_id":"cebpf4jnsgd1na2vs0mg"},{"bike_id":"55ed2eb8-900e-4bd6-9637-daca728a6d25","system_id":"levelo_inurba_marseille","lat":43.29371,"lon":5.37853,"is_reserved":false,"is_disabled":false,"rental_uris":{"android":"levelo://app?vid=55ed2eb8-900e-4bd6-9637-daca728a6d25","ios":"levelo://app?vid=55ed2eb8-900e-4bd6-9637-daca728a6d25"},"vehicle_type_id":"4","last_reported":1738599036,"current_range_meters":13600,"station_id":"ce4bgjh2rcd13ifvqbf0","pricing_plan_id":"cebpf4jnsgd1na2vs0mg"},{"bike_id":"1e80229c-3730-4f6a-ad92-db35f7d75e3d","system_id":"levelo_inurba_marseille","lat":43.27191,"lon":5.40979,"is_reserved":false,"is_disabled":false,"rental_uris":{"android":"levelo://app?vid=1e80229c-3730-4f6a-ad92-db35f7d75e3d","ios":"levelo://app?vid=1e80229c-3730-4f6a-ad92-db35f7d75e3d"},"vehicle_type_id":"4","last_reported":1738599036,"current_range_meters":38800,"station_id":"ce4bhl12rcd13ifvqgf0","pricing_plan_id":"cebpf4jnsgd1na2vs0mg"},{"bike_id":"b2a6436f-4c95-46dd-a3bd-6af91e9591d2","system_id":"levelo_inurba_marseille","lat":43.25591,"lon":5.38223,"is_reserved":false,"is_disabled":false,"rental_uris":{"android":"levelo://app?vid=b2a6436f-4c95-46dd-a3bd-6af91e9591d2","ios":"levelo://app?vid=b2a6436f-4c95-46dd-a3bd-6af91e9591d2"},"vehicle_type_id":"4","last_reported":1738599036,"current_range_meters":24000,"station_id":"ce4bhih2rcd13ifvqfs0","pricing_plan_id":"cebpf4jnsgd1na2vs0mg"},{"bike_id":"5efe355d-d9c2-401d-88f5-2fff99e370f5","system_id":"levelo_inurba_marseille","lat":43.29532,"lon":5.38548,"is_reserved":false,"is_disabled":false,"rental_uris":{"android":"levelo://app?vid=5efe355d-d9c2-401d-88f5-2fff99e370f5","ios":"levelo://app?vid=5efe355d-d9c2-401d-88f5-2fff99e370f5"},"vehicle_type_id":"4","last_reported":1738599036,"current_range_meters":11600,"station_id":"ce4bgih2rcd13ifvqba0","pricing_plan_id":"cebpf4jnsgd1na2vs0mg"},{"bike_id":"1a794636-1de8-48ff-a1bf-f41557cb147d","system_id":"levelo_inurba_marseille","lat":43.346158,"lon":5.380729,"is_reserved":false,"is_disabled":false,"rental_uris":{"android":"levelo://app?vid=1a794636-1de8-48ff-a1bf-f41557cb147d","ios":"levelo://app?vid=1a794636-1de8-48ff-a1bf-f41557cb147d"},"vehicle_type_id":"4","last_reported":1738599036,"current_range_meters":17600,"station_id":"","pricing_plan_id":"cebpf4jnsgd1na2vs0mg"},{"bike_id":"38020501-1a3f-448d-99bc-341766efd62f","system_id":"levelo_inurba_marseille","lat":43.3088,"lon":5.39619,"is_reserved":false,"is_disabled":false,"rental_uris":{"android":"levelo://app?vid=38020501-1a3f-448d-99bc-341766efd62f","ios":"levelo://app?vid=38020501-1a3f-448d-99bc-341766efd62f"},"vehicle_type_id":"4","last_reported":1738599036,"current_range_meters":39200,"station_id":"ce4bh012rcd13ifvqcv0","pricing_plan_id":"cebpf4jnsgd1na2vs0mg"},{"bike_id":"8ffd93a7-f1da-4894-a175-b7b2afaf3cb9","system_id":"levelo_inurba_marseille","lat":43.29272,"lon":5.36859,"is_reserved":false,"is_disabled":false,"rental_uris":{"android":"levelo://app?vid=8ffd93a7-f1da-4894-a175-b7b2afaf3cb9","ios":"levelo://app?vid=8ffd93a7-f1da-4894-a175-b7b2afaf3cb9"},"vehicle_type_id":"4","last_reported":1738599036,"current_range_meters":38400,"station_id":"ce4bhbp2rcd13ifvqesg","pricing_plan_id":"cebpf4jnsgd1na2vs0mg"},{"bike_id":"1072a59e-6a14-4a14-b356-7d5cf661bfb6","system_id":"levelo_inurba_marseille","lat":43.30148,"lon":5.37432,"is_reserved":false,"is_disabled":false,"rental_uris":{"android":"levelo://app?vid=1072a59e-6a14-4a14-b356-7d5cf661bfb6","ios":"levelo://app?vid=1072a59e-6a14-4a14-b356-7d5cf661bfb6"},"vehicle_type_id":"4","last_reported":1738599036,"current_range_meters":38800,"station_id":"ce4bgs92rcd13ifvqcc0","pricing_plan_id":"cebpf4jnsgd1na2vs0mg"},{"bike_id":"45d9d2cd-ea1e-47f9-9ccc-2db3cf095c07","system_id":"levelo_inurba_marseille","lat":43.30875,"lon":5.39623,"is_reserved":false,"is_disabled":false,"rental_uris":{"android":"levelo://app?vid=45d9d2cd-ea1e-47f9-9ccc-2db3cf095c07","ios":"levelo://app?vid=45d9d2cd-ea1e-47f9-9ccc-2db3cf095c07"},"vehicle_type_id":"4","last_reported":1738599036,"current_range_meters":38800,"station_id":"ce4bh012rcd13ifvqcv0","pricing_plan_id":"cebpf4jnsgd1na2vs0mg"},{"bike_id":"c3f024be-846e-467d-8c49-c1790a4b148c","system_id":"levelo_inurba_marseille","lat":43.30878,"lon":5.39625,"is_reserved":false,"is_disabled":true,"rental_uris":{"android":"levelo://app?vid=c3f024be-846e-467d-8c49-c1790a4b148c","ios":"levelo://app?vid=c3f024be-846e-467d-8c49-c1790a4b148c"},"vehicle_type_id":"4","last_reported":1738599036,"current_range_meters":0,"station_id":"ce4bh012rcd13ifvqcv0","pricing_plan_id":"cebpf4jnsgd1na2vs0mg"},{"bike_id":"30d68ac6-7ba6-4749-8154-bf914e372a6a","system_id":"levelo_inurba_marseille","lat":43.32368,"lon":5.38882,"is_reserved":false,"is_disabled":true,"rental_uris":{"android":"levelo://app?vid=30d68ac6-7ba6-4749-8154-bf914e372a6a","ios":"levelo://app?vid=30d68ac6-7ba6-4749-8154-bf914e372a6a"},"vehicle_type_id":"4","last_reported":1738599036,"current_range_meters":400,"station_id":"ce4bhqp2rcd13ifvqhog","pricing_plan_id":"cebpf4jnsgd1na2vs0mg"},{"bike_id":"70db77fa-5101-4cc3-b5ef-7ecd27e20697","system_id":"levelo_inurba_marseille","lat":43.23057,"lon":5.35496,"is_reserved":false,"is_disabled":false,"rental_uris":{"android":"levelo://app?vid=70db77fa-5101-4cc3-b5ef-7ecd27e20697","ios":"levelo://app?vid=70db77fa-5101-4cc3-b5ef-7ecd27e20697"},"vehicle_type_id":"4","last_reported":1738599036,"current_range_meters":27600,"station_id":"cpo3342slgdg3j2ifvpg","pricing_plan_id":"cebpf4jnsgd1na2vs0mg"},{"bike_id":"48cb7823-b7a3-45e1-bd5c-e4d26010b10a","system_id":"levelo_inurba_marseille","lat":43.29201,"lon":5.35809,"is_reserved":false,"is_disabled":false,"rental_uris":{"android":"levelo://app?vid=48cb7823-b7a3-45e1-bd5c-e4d26010b10a","ios":"levelo://app?vid=48cb7823-b7a3-45e1-bd5c-e4d26010b10a"},"vehicle_type_id":"4","last_reported":1738599036,"current_range_meters":17600,"station_id":"ce4bhb12rcd13ifvqel0","pricing_plan_id":"cebpf4jnsgd1na2vs0mg"},{"bike_id":"e33c097b-83d0-40ec-9fbf-364e5b0a9ef8","system_id":"levelo_inurba_marseille","lat":43.23196,"lon":5.35553,"is_reserved":false,"is_disabled":false,"rental_uris":{"android":"levelo://app?vid=e33c097b-83d0-40ec-9fbf-364e5b0a9ef8","ios":"levelo://app?vid=e33c097b-83d0-40ec-9fbf-364e5b0a9ef8"},"vehicle_type_id":"4","last_reported":1738599036,"current_range_meters":39200,"station_id":"ce4bhu92rcd13ifvqi70","pricing_plan_id":"cebpf4jnsgd1na2vs0mg"},{"bike_id":"1617ca30-3ddd-4564-aa46-e3a45a47f20f","system_id":"levelo_inurba_marseille","lat":43.27204,"lon":5.391842,"is_reserved":false,"is_disabled":false,"rental_uris":{"android":"levelo://app?vid=1617ca30-3ddd-4564-aa46-e3a45a47f20f","ios":"levelo://app?vid=1617ca30-3ddd-4564-aa46-e3a45a47f20f"},"vehicle_type_id":"4","last_reported":1738599036,"current_range_meters":27600,"station_id":"ce4bhhp2rcd13ifvqfm0","pricing_plan_id":"cebpf4jnsgd1na2vs0mg"},{"bike_id":"8210c432-ac74-47b7-8e64-bb053ed8969d","system_id":"levelo_inurba_marseille","lat":43.311988,"lon":5.368628,"is_reserved":false,"is_disabled":false,"rental_uris":{"android":"levelo://app?vid=8210c432-ac74-47b7-8e64-bb053ed8969d","ios":"levelo://app?vid=8210c432-ac74-47b7-8e64-bb053ed8969d"},"vehicle_type_id":"4","last_reported":1738599036,"current_range_meters":8800,"station_id":"ce4bgl92rcd13ifvqbq0","pricing_plan_id":"cebpf4jnsgd1na2vs0mg"},{"bike_id":"272a6181-bfe1-4f12-b3df-d057573256ce","system_id":"levelo_inurba_marseille","lat":43.28459,"lon":5.35894,"is_reserved":false,"is_disabled":false,"rental_uris":{"android":"levelo://app?vid=272a6181-bfe1-4f12-b3df-d057573256ce","ios":"levelo://app?vid=272a6181-bfe1-4f12-b3df-d057573256ce"},"vehicle_type_id":"4","last_reported":1738599036,"current_range_meters":38800,"station_id":"ce4bhah2rcd13ifvqei0","pricing_plan_id":"cebpf4jnsgd1na2vs0mg"},{"bike_id":"88a9606f-57eb-4ada-bcd9-9d189bfeae6e","system_id":"levelo_inurba_marseille","lat":43.31326,"lon":5.36743,"is_reserved":false,"is_disabled":false,"rental_uris":{"android":"levelo://app?vid=88a9606f-57eb-4ada-bcd9-9d189bfeae6e","ios":"levelo://app?vid=88a9606f-57eb-4ada-bcd9-9d189bfeae6e"},"vehicle_type_id":"4","last_reported":1738599036,"current_range_meters":14400,"station_id":"ce4bgr92rcd13ifvqc6g","pricing_plan_id":"cebpf4jnsgd1na2vs0mg"},{"bike_id":"36c59cc3-cea9-47a3-a8cf-c96b91c44490","system_id":"levelo_inurba_marseille","lat":43.27989,"lon":5.40023,"is_reserved":false,"is_disabled":false,"rental_uris":{"android":"levelo://app?vid=36c59cc3-cea9-47a3-a8cf-c96b91c44490","ios":"levelo://app?vid=36c59cc3-cea9-47a3-a8cf-c96b91c44490"},"vehicle_type_id":"4","last_reported":1738599036,"current_range_meters":15200,"station_id":"ce4bho92rcd13ifvqh4g","pricing_plan_id":"cebpf4jnsgd1na2vs0mg"},{"bike_id":"7332df3b-6dcc-4945-b28a-b602fe1d5a24","system_id":"levelo_inurba_marseille","lat":43.22926,"lon":5.35377,"is_reserved":false,"is_disabled":false,"rental_uris":{"android":"levelo://app?vid=7332df3b-6dcc-4945-b28a-b602fe1d5a24","ios":"levelo://app?vid=7332df3b-6dcc-4945-b28a-b602fe1d5a24"},"vehicle_type_id":"4","last_reported":1738599036,"current_range_meters":3200,"station_id":"cpo3532slgdg3j2ikp40","pricing_plan_id":"cebpf4jnsgd1na2vs0mg"},{"bike_id":"98aea7c6-6ead-45cc-83b7-57b81452bc31","system_id":"levelo_inurba_marseille","lat":43.28397,"lon":5.3755,"is_reserved":false,"is_disabled":false,"rental_uris":{"android":"levelo://app?vid=98aea7c6-6ead-45cc-83b7-57b81452bc31","ios":"levelo://app?vid=98aea7c6-6ead-45cc-83b7-57b81452bc31"},"vehicle_type_id":"4","last_reported":1738599036,"current_range_meters":27600,"station_id":"ce4bh412rcd13ifvqds0","pricing_plan_id":"cebpf4jnsgd1na2vs0mg"},{"bike_id":"de27dfc9-f2fb-4778-8226-69a993c0eb2e","system_id":"levelo_inurba_marseille","lat":43.24553,"lon":5.39501,"is_reserved":false,"is_disabled":false,"rental_uris":{"android":"levelo://app?vid=de27dfc9-f2fb-4778-8226-69a993c0eb2e","ios":"levelo://app?vid=de27dfc9-f2fb-4778-8226-69a993c0eb2e"},"vehicle_type_id":"4","last_reported":1738599036,"current_range_meters":38800,"station_id":"ce4bhlp2rcd13ifvqgjg","pricing_plan_id":"cebpf4jnsgd1na2vs0mg"},{"bike_id":"761f8c7e-e88b-48dc-b0de-7607c12c337a","system_id":"levelo_inurba_marseille","lat":43.24992,"lon":5.38932,"is_reserved":false,"is_disabled":false,"rental_uris":{"android":"levelo://app?vid=761f8c7e-e88b-48dc-b0de-7607c12c337a","ios":"levelo://app?vid=761f8c7e-e88b-48dc-b0de-7607c12c337a"},"vehicle_type_id":"4","last_reported":1738599036,"current_range_meters":12400,"station_id":"ce4bhgp2rcd13ifvqfd0","pricing_plan_id":"cebpf4jnsgd1na2vs0mg"},{"bike_id":"3bee43d5-e27e-4692-8630-5bfa4bfc3f39","system_id":"levelo_inurba_marseille","lat":43.32298,"lon":5.38279,"is_reserved":false,"is_disabled":false,"rental_uris":{"android":"levelo://app?vid=3bee43d5-e27e-4692-8630-5bfa4bfc3f39","ios":"levelo://app?vid=3bee43d5-e27e-4692-8630-5bfa4bfc3f39"},"vehicle_type_id":"4","last_reported":1738599036,"current_range_meters":28000,"station_id":"ce4bhr12rcd13ifvqhqg","pricing_plan_id":"cebpf4jnsgd1na2vs0mg"},{"bike_id":"62d1a490-bbbf-4d53-94f1-76dec4778cdb","system_id":"levelo_inurba_marseille","lat":43.28919,"lon":5.38399,"is_reserved":false,"is_disabled":false,"rental_uris":{"android":"levelo://app?vid=62d1a490-bbbf-4d53-94f1-76dec4778cdb","ios":"levelo://app?vid=62d1a490-bbbf-4d53-94f1-76dec4778cdb"},"vehicle_type_id":"4","last_reported":1738599036,"current_range_meters":34800,"station_id":"ce4bh612rcd13ifvqe6g","pricing_plan_id":"cebpf4jnsgd1na2vs0mg"},{"bike_id":"65e4b118-bb33-4806-b0f1-f95d0831c413","system_id":"levelo_inurba_marseille","lat":43.28667,"lon":5.36343,"is_reserved":false,"is_disabled":false,"rental_uris":{"android":"levelo://app?vid=65e4b118-bb33-4806-b0f1-f95d0831c413","ios":"levelo://app?vid=65e4b118-bb33-4806-b0f1-f95d0831c413"},"vehicle_type_id":"4","last_reported":1738599036,"current_range_meters":8800,"station_id":"ce4bhah2rcd13ifvqej0","pricing_plan_id":"cebpf4jnsgd1na2vs0mg"},{"bike_id":"3ab0ceb6-cd89-477f-8038-1be761eb4bda","system_id":"levelo_inurba_marseille","lat":43.29219,"lon":5.36048,"is_reserved":false,"is_disabled":false,"rental_uris":{"android":"levelo://app?vid=3ab0ceb6-cd89-477f-8038-1be761eb4bda","ios":"levelo://app?vid=3ab0ceb6-cd89-477f-8038-1be761eb4bda"},"vehicle_type_id":"4","last_reported":1738599036,"current_range_meters":18000,"station_id":"ce4bhbh2rcd13ifvqeqg","pricing_plan_id":"cebpf4jnsgd1na2vs0mg"},{"bike_id":"7039640e-6c88-40b8-a9a0-90b00d09b602","system_id":"levelo_inurba_marseille","lat":43.28404,"lon":5.37522,"is_reserved":false,"is_disabled":false,"rental_uris":{"android":"levelo://app?vid=7039640e-6c88-40b8-a9a0-90b00d09b602","ios":"levelo://app?vid=7039640e-6c88-40b8-a9a0-90b00d09b602"},"vehicle_type_id":"4","last_reported":1738599036,"current_range_meters":24000,"station_id":"ce4bh412rcd13ifvqds0","pricing_plan_id":"cebpf4jnsgd1na2vs0mg"},{"bike_id":"8e599b88-5a17-40c8-a99e-aa5dfac0c156","system_id":"levelo_inurba_marseille","lat":43.24812,"lon":5.37454,"is_reserved":false,"is_disabled":false,"rental_uris":{"android":"levelo://app?vid=8e599b88-5a17-40c8-a99e-aa5dfac0c156","ios":"levelo://app?vid=8e599b88-5a17-40c8-a99e-aa5dfac0c156"},"vehicle_type_id":"4","last_reported":1738599036,"current_range_meters":29600,"station_id":"ce4bhgh2rcd13ifvqfb0","pricing_plan_id":"cebpf4jnsgd1na2vs0mg"},{"bike_id":"508fa1c9-aee4-4f6d-9b9e-b05c02995bbb","system_id":"levelo_inurba_marseille","lat":43.32363,"lon":5.3678,"is_reserved":false,"is_disabled":false,"rental_uris":{"android":"levelo://app?vid=508fa1c9-aee4-4f6d-9b9e-b05c02995bbb","ios":"levelo://app?vid=508fa1c9-aee4-4f6d-9b9e-b05c02995bbb"},"vehicle_type_id":"4","last_reported":1738599036,"current_range_meters":16400,"station_id":"ce4bhsh2rcd13ifvqi2g","pricing_plan_id":"cebpf4jnsgd1na2vs0mg"},{"bike_id":"336ba170-f212-47ec-a8a9-236ae819b98c","system_id":"levelo_inurba_marseille","lat":43.30879,"lon":5.37204,"is_reserved":false,"is_disabled":false,"rental_uris":{"android":"levelo://app?vid=336ba170-f212-47ec-a8a9-236ae819b98c","ios":"levelo://app?vid=336ba170-f212-47ec-a8a9-236ae819b98c"},"vehicle_type_id":"4","last_reported":1738599036,"current_range_meters":28400,"station_id":"ce4bguh2rcd13ifvqckg","pricing_plan_id":"cebpf4jnsgd1na2vs0mg"},{"bike_id":"040c186f-291f-4f61-a54f-cd742e5fa1c4","system_id":"levelo_inurba_marseille","lat":43.324793,"lon":5.365588,"is_reserved":false,"is_disabled":false,"rental_uris":{"android":"levelo://app?vid=040c186f-291f-4f61-a54f-cd742e5fa1c4","ios":"levelo://app?vid=040c186f-291f-4f61-a54f-cd742e5fa1c4"},"vehicle_type_id":"4","last_reported":1738599036,"current_range_meters":12000,"station_id":"ce4bhs12rcd13ifvqhvg","pricing_plan_id":"cebpf4jnsgd1na2vs0mg"},{"bike_id":"fe7841ee-6c3b-41b6-ba59-419273b65ba5","system_id":"levelo_inurba_marseille","lat":43.29268,"lon":5.40909,"is_reserved":false,"is_disabled":false,"rental_uris":{"android":"levelo://app?vid=fe7841ee-6c3b-41b6-ba59-419273b65ba5","ios":"levelo://app?vid=fe7841ee-6c3b-41b6-ba59-419273b65ba5"},"vehicle_type_id":"4","last_reported":1738599036,"current_range_meters":30000,"station_id":"ce4bh192rcd13ifvqdc0","pricing_plan_id":"cebpf4jnsgd1na2vs0mg"},{"bike_id":"e7c80f8b-1242-47b4-a3b2-fe3e5e85ce7e","system_id":"levelo_inurba_marseille","lat":43.26051,"lon":5.39393,"is_reserved":false,"is_disabled":false,"rental_uris":{"android":"levelo://app?vid=e7c80f8b-1242-47b4-a3b2-fe3e5e85ce7e","ios":"levelo://app?vid=e7c80f8b-1242-47b4-a3b2-fe3e5e85ce7e"},"vehicle_type_id":"4","last_reported":1738599036,"current_range_meters":16400,"station_id":"ce4bhh92rcd13ifvqfj0","pricing_plan_id":"cebpf4jnsgd1na2vs0mg"},{"bike_id":"6078d863-33a0-4376-876e-6fec937f50e2","system_id":"levelo_inurba_marseille","lat":43.298653,"lon":5.397212,"is_reserved":false,"is_disabled":false,"rental_uris":{"android":"levelo://app?vid=6078d863-33a0-4376-876e-6fec937f50e2","ios":"levelo://app?vid=6078d863-33a0-4376-876e-6fec937f50e2"},"vehicle_type_id":"4","last_reported":1738599036,"current_range_meters":32400,"station_id":"ce4bh0h2rcd13ifvqd50","pricing_plan_id":"cebpf4jnsgd1na2vs0mg"},{"bike_id":"ddb05c0d-6ac5-4ab9-9eb6-92276965fbaf","system_id":"levelo_inurba_marseille","lat":43.28482,"lon":5.38414,"is_reserved":false,"is_disabled":false,"rental_uris":{"android":"levelo://app?vid=ddb05c0d-6ac5-4ab9-9eb6-92276965fbaf","ios":"levelo://app?vid=ddb05c0d-6ac5-4ab9-9eb6-92276965fbaf"},"vehicle_type_id":"4","last_reported":1738599036,"current_range_meters":38800,"station_id":"ce4bh512rcd13ifvqe3g","pricing_plan_id":"cebpf4jnsgd1na2vs0mg"},{"bike_id":"c615a262-07fe-45ce-ac17-a4cff1529903","system_id":"levelo_inurba_marseille","lat":43.28924,"lon":5.38385,"is_reserved":false,"is_disabled":false,"rental_uris":{"android":"levelo://app?vid=c615a262-07fe-45ce-ac17-a4cff1529903","ios":"levelo://app?vid=c615a262-07fe-45ce-ac17-a4cff1529903"},"vehicle_type_id":"4","last_reported":1738599036,"current_range_meters":25200,"station_id":"ce4bh612rcd13ifvqe6g","pricing_plan_id":"cebpf4jnsgd1na2vs0mg"},{"bike_id":"87421f52-c1bd-4821-80ab-89120db75bd2","system_id":"levelo_inurba_marseille","lat":43.2902,"lon":5.38624,"is_reserved":false,"is_disabled":false,"rental_uris":{"android":"levelo://app?vid=87421f52-c1bd-4821-80ab-89120db75bd2","ios":"levelo://app?vid=87421f52-c1bd-4821-80ab-89120db75bd2"},"vehicle_type_id":"4","last_reported":1738599036,"current_range_meters":18000,"station_id":"ce4bh4p2rcd13ifvqe0g","pricing_plan_id":"cebpf4jnsgd1na2vs0mg"},{"bike_id":"88ee01dd-09eb-444e-8936-31705a60e0a9","system_id":"levelo_inurba_marseille","lat":43.29601,"lon":5.38102,"is_reserved":false,"is_disabled":false,"rental_uris":{"android":"levelo://app?vid=88ee01dd-09eb-444e-8936-31705a60e0a9","ios":"levelo://app?vid=88ee01dd-09eb-444e-8936-31705a60e0a9"},"vehicle_type_id":"4","last_reported":1738599036,"current_range_meters":19600,"station_id":"ce4bgl12rcd13ifvqbo0","pricing_plan_id":"cebpf4jnsgd1na2vs0mg"},{"bike_id":"0a1df72b-6902-46e8-84ca-d6442cdf93c7","system_id":"levelo_inurba_marseille","lat":43.2857,"lon":5.39498,"is_reserved":false,"is_disabled":false,"rental_uris":{"android":"levelo://app?vid=0a1df72b-6902-46e8-84ca-d6442cdf93c7","ios":"levelo://app?vid=0a1df72b-6902-46e8-84ca-d6442cdf93c7"},"vehicle_type_id":"4","last_reported":1738599036,"current_range_meters":17600,"station_id":"ce4bh292rcd13ifvqdg0","pricing_plan_id":"cebpf4jnsgd1na2vs0mg"},{"bike_id":"932e631e-8837-4f8e-b148-8a51a367af40","system_id":"levelo_inurba_marseille","lat":43.270558,"lon":5.40262,"is_reserved":false,"is_disabled":false,"rental_uris":{"android":"levelo://app?vid=932e631e-8837-4f8e-b148-8a51a367af40","ios":"levelo://app?vid=932e631e-8837-4f8e-b148-8a51a367af40"},"vehicle_type_id":"4","last_reported":1738599036,"current_range_meters":16400,"station_id":"ce4bhk92rcd13ifvqgc0","pricing_plan_id":"cebpf4jnsgd1na2vs0mg"},{"bike_id":"0416cf78-7863-4eec-b5e5-3557e2310ee1","system_id":"levelo_inurba_marseille","lat":43.26779,"lon":5.39428,"is_reserved":false,"is_disabled":true,"rental_uris":{"android":"levelo://app?vid=0416cf78-7863-4eec-b5e5-3557e2310ee1","ios":"levelo://app?vid=0416cf78-7863-4eec-b5e5-3557e2310ee1"},"vehicle_type_id":"4","last_reported":1738599036,"current_range_meters":0,"station_id":"ce4bhh12rcd13ifvqfg0","pricing_plan_id":"cebpf4jnsgd1na2vs0mg"},{"bike_id":"d956c0fa-8e81-4a5c-a819-66560ebeacd2","system_id":"levelo_inurba_marseille","lat":43.28149,"lon":5.42644,"is_reserved":false,"is_disabled":false,"rental_uris":{"android":"levelo://app?vid=d956c0fa-8e81-4a5c-a819-66560ebeacd2","ios":"levelo://app?vid=d956c0fa-8e81-4a5c-a819-66560ebeacd2"},"vehicle_type_id":"4","last_reported":1738599036,"current_range_meters":9600,"station_id":"ce4bhnh2rcd13ifvqgug","pricing_plan_id":"cebpf4jnsgd1na2vs0mg"},{"bike_id":"da34d4f8-fcc3-4716-a4b5-ebb5e90aeefc","system_id":"levelo_inurba_marseille","lat":43.31325,"lon":5.39703,"is_reserved":false,"is_disabled":false,"rental_uris":{"android":"levelo://app?vid=da34d4f8-fcc3-4716-a4b5-ebb5e90aeefc","ios":"levelo://app?vid=da34d4f8-fcc3-4716-a4b5-ebb5e90aeefc"},"vehicle_type_id":"4","last_reported":1738599036,"current_range_meters":39200,"station_id":"ce4bgvp2rcd13ifvqcu0","pricing_plan_id":"cebpf4jnsgd1na2vs0mg"},{"bike_id":"21c89297-c791-4464-9214-e643c17f7aa6","system_id":"levelo_inurba_marseille","lat":43.31328,"lon":5.39691,"is_reserved":false,"is_disabled":false,"rental_uris":{"android":"levelo://app?vid=21c89297-c791-4464-9214-e643c17f7aa6","ios":"levelo://app?vid=21c89297-c791-4464-9214-e643c17f7aa6"},"vehicle_type_id":"4","last_reported":1738599036,"current_range_meters":38800,"station_id":"ce4bgvp2rcd13ifvqcu0","pricing_plan_id":"cebpf4jnsgd1na2vs0mg"},{"bike_id":"0b7f9d6f-ad94-4c24-966b-26d81803aa27","system_id":"levelo_inurba_marseille","lat":43.26025,"lon":5.3756,"is_reserved":false,"is_disabled":false,"rental_uris":{"android":"levelo://app?vid=0b7f9d6f-ad94-4c24-966b-26d81803aa27","ios":"levelo://app?vid=0b7f9d6f-ad94-4c24-966b-26d81803aa27"},"vehicle_type_id":"4","last_reported":1738599036,"current_range_meters":8800,"station_id":"ce4bhgh2rcd13ifvqfa0","pricing_plan_id":"cebpf4jnsgd1na2vs0mg"},{"bike_id":"f3922263-3d11-4427-bb92-433564af85bf","system_id":"levelo_inurba_marseille","lat":43.26945,"lon":5.38918,"is_reserved":false,"is_disabled":false,"rental_uris":{"android":"levelo://app?vid=f3922263-3d11-4427-bb92-433564af85bf","ios":"levelo://app?vid=f3922263-3d11-4427-bb92-433564af85bf"},"vehicle_type_id":"4","last_reported":1738599036,"current_range_meters":38400,"station_id":"ce4bhhh2rcd13ifvqfl0","pricing_plan_id":"cebpf4jnsgd1na2vs0mg"},{"bike_id":"9852d283-9027-465c-82cf-12dda472aabb","system_id":"levelo_inurba_marseille","lat":43.30532,"lon":5.36691,"is_reserved":false,"is_disabled":false,"rental_uris":{"android":"levelo://app?vid=9852d283-9027-465c-82cf-12dda472aabb","ios":"levelo://app?vid=9852d283-9027-465c-82cf-12dda472aabb"},"vehicle_type_id":"4","last_reported":1738599036,"current_range_meters":33600,"station_id":"ce4bgrp2rcd13ifvqc9g","pricing_plan_id":"cebpf4jnsgd1na2vs0mg"},{"bike_id":"71ec8193-f671-4e06-9ff4-9da8f309a0bc","system_id":"levelo_inurba_marseille","lat":43.28464,"lon":5.38403,"is_reserved":false,"is_disabled":true,"rental_uris":{"android":"levelo://app?vid=71ec8193-f671-4e06-9ff4-9da8f309a0bc","ios":"levelo://app?vid=71ec8193-f671-4e06-9ff4-9da8f309a0bc"},"vehicle_type_id":"4","last_reported":1738599036,"current_range_meters":24000,"station_id":"ce4bh512rcd13ifvqe3g","pricing_plan_id":"cebpf4jnsgd1na2vs0mg"},{"bike_id":"b5ce7cf9-a3a6-4006-9109-b69ec21a68e8","system_id":"levelo_inurba_marseille","lat":43.30139,"lon":5.38064,"is_reserved":false,"is_disabled":false,"rental_uris":{"android":"levelo://app?vid=b5ce7cf9-a3a6-4006-9109-b69ec21a68e8","ios":"levelo://app?vid=b5ce7cf9-a3a6-4006-9109-b69ec21a68e8"},"vehicle_type_id":"4","last_reported":1738599036,"current_range_meters":37600,"station_id":"ce4bgjp2rcd13ifvqbh0","pricing_plan_id":"cebpf4jnsgd1na2vs0mg"},{"bike_id":"48c23db0-b5b4-47ef-bf29-862bb3b67da5","system_id":"levelo_inurba_marseille","lat":43.29934,"lon":5.36548,"is_reserved":false,"is_disabled":false,"rental_uris":{"android":"levelo://app?vid=48c23db0-b5b4-47ef-bf29-862bb3b67da5","ios":"levelo://app?vid=48c23db0-b5b4-47ef-bf29-862bb3b67da5"},"vehicle_type_id":"4","last_reported":1738599036,"current_range_meters":32000,"station_id":"ce4bgm92rcd13ifvqbr0","pricing_plan_id":"cebpf4jnsgd1na2vs0mg"},{"bike_id":"2d28ea07-f5e2-4bd2-80fc-3d6f7196c583","system_id":"levelo_inurba_marseille","lat":43.27996,"lon":5.41656,"is_reserved":false,"is_disabled":false,"rental_uris":{"android":"levelo://app?vid=2d28ea07-f5e2-4bd2-80fc-3d6f7196c583","ios":"levelo://app?vid=2d28ea07-f5e2-4bd2-80fc-3d6f7196c583"},"vehicle_type_id":"4","last_reported":1738599036,"current_range_meters":33600,"station_id":"ce4bho12rcd13ifvqh1g","pricing_plan_id":"cebpf4jnsgd1na2vs0mg"},{"bike_id":"ee896339-7745-479c-936e-0ce3b2ab28ce","system_id":"levelo_inurba_marseille","lat":43.27998,"lon":5.40007,"is_reserved":false,"is_disabled":false,"rental_uris":{"android":"levelo://app?vid=ee896339-7745-479c-936e-0ce3b2ab28ce","ios":"levelo://app?vid=ee896339-7745-479c-936e-0ce3b2ab28ce"},"vehicle_type_id":"4","last_reported":1738599036,"current_range_meters":25200,"station_id":"ce4bho92rcd13ifvqh4g","pricing_plan_id":"cebpf4jnsgd1na2vs0mg"},{"bike_id":"88f6ec14-1047-428a-bfc8-ed7564b679d3","system_id":"levelo_inurba_marseille","lat":43.243981,"lon":5.370656,"is_reserved":false,"is_disabled":false,"rental_uris":{"android":"levelo://app?vid=88f6ec14-1047-428a-bfc8-ed7564b679d3","ios":"levelo://app?vid=88f6ec14-1047-428a-bfc8-ed7564b679d3"},"vehicle_type_id":"4","last_reported":1738599036,"current_range_meters":8000,"station_id":"ce4bhhh2rcd13ifvqfk0","pricing_plan_id":"cebpf4jnsgd1na2vs0mg"},{"bike_id":"b2d8d49d-b968-417e-aebd-1bc27e81ce1e","system_id":"levelo_inurba_marseille","lat":43.27999,"lon":5.4166,"is_reserved":false,"is_disabled":false,"rental_uris":{"android":"levelo://app?vid=b2d8d49d-b968-417e-aebd-1bc27e81ce1e","ios":"levelo://app?vid=b2d8d49d-b968-417e-aebd-1bc27e81ce1e"},"vehicle_type_id":"4","last_reported":1738599036,"current_range_meters":38800,"station_id":"ce4bho12rcd13ifvqh1g","pricing_plan_id":"cebpf4jnsgd1na2vs0mg"},{"bike_id":"fad26299-4859-48d9-af16-461be31a4018","system_id":"levelo_inurba_marseille","lat":43.23128,"lon":5.40042,"is_reserved":false,"is_disabled":true,"rental_uris":{"android":"levelo://app?vid=fad26299-4859-48d9-af16-461be31a4018","ios":"levelo://app?vid=fad26299-4859-48d9-af16-461be31a4018"},"vehicle_type_id":"4","last_reported":1738599036,"current_range_meters":800,"station_id":"","pricing_plan_id":"cebpf4jnsgd1na2vs0mg"},{"bike_id":"336460d3-c9df-41cc-a7c3-92d979cc459f","system_id":"levelo_inurba_marseille","lat":43.24805,"lon":5.37455,"is_reserved":false,"is_disabled":false,"rental_uris":{"android":"levelo://app?vid=336460d3-c9df-41cc-a7c3-92d979cc459f","ios":"levelo://app?vid=336460d3-c9df-41cc-a7c3-92d979cc459f"},"vehicle_type_id":"4","last_reported":1738599036,"current_range_meters":23200,"station_id":"ce4bhgh2rcd13ifvqfb0","pricing_plan_id":"cebpf4jnsgd1na2vs0mg"},{"bike_id":"4b2b9d8c-585b-4bc9-9164-cf07f1d29c72","system_id":"levelo_inurba_marseille","lat":43.29597,"lon":5.38106,"is_reserved":false,"is_disabled":false,"rental_uris":{"android":"levelo://app?vid=4b2b9d8c-585b-4bc9-9164-cf07f1d29c72","ios":"levelo://app?vid=4b2b9d8c-585b-4bc9-9164-cf07f1d29c72"},"vehicle_type_id":"4","last_reported":1738599036,"current_range_meters":17600,"station_id":"ce4bgl12rcd13ifvqbo0","pricing_plan_id":"cebpf4jnsgd1na2vs0mg"},{"bike_id":"03a45520-e48f-4fa5-b585-641f461b4f41","system_id":"levelo_inurba_marseille","lat":43.29922,"lon":5.37485,"is_reserved":false,"is_disabled":false,"rental_uris":{"android":"levelo://app?vid=03a45520-e48f-4fa5-b585-641f461b4f41","ios":"levelo://app?vid=03a45520-e48f-4fa5-b585-641f461b4f41"},"vehicle_type_id":"4","last_reported":1738599036,"current_range_meters":12400,"station_id":"ce4bgjh2rcd13ifvqbg0","pricing_plan_id":"cebpf4jnsgd1na2vs0mg"},{"bike_id":"14818910-03bb-4416-a9d2-19ffa77db388","system_id":"levelo_inurba_marseille","lat":43.2903,"lon":5.38652,"is_reserved":false,"is_disabled":false,"rental_uris":{"android":"levelo://app?vid=14818910-03bb-4416-a9d2-19ffa77db388","ios":"levelo://app?vid=14818910-03bb-4416-a9d2-19ffa77db388"},"vehicle_type_id":"4","last_reported":1738599036,"current_range_meters":8400,"station_id":"ce4bh4p2rcd13ifvqe0g","pricing_plan_id":"cebpf4jnsgd1na2vs0mg"},{"bike_id":"a1cecde7-649f-4649-b593-274521c6fb10","system_id":"levelo_inurba_marseille","lat":43.32489,"lon":5.36614,"is_reserved":false,"is_disabled":false,"rental_uris":{"android":"levelo://app?vid=a1cecde7-649f-4649-b593-274521c6fb10","ios":"levelo://app?vid=a1cecde7-649f-4649-b593-274521c6fb10"},"vehicle_type_id":"4","last_reported":1738599036,"current_range_meters":38800,"station_id":"ce4bhs12rcd13ifvqhvg","pricing_plan_id":"cebpf4jnsgd1na2vs0mg"},{"bike_id":"7bacce1b-afcc-4aad-b76d-9e0d45060e2b","system_id":"levelo_inurba_marseille","lat":43.29524,"lon":5.37498,"is_reserved":false,"is_disabled":false,"rental_uris":{"android":"levelo://app?vid=7bacce1b-afcc-4aad-b76d-9e0d45060e2b","ios":"levelo://app?vid=7bacce1b-afcc-4aad-b76d-9e0d45060e2b"},"vehicle_type_id":"4","last_reported":1738599036,"current_range_meters":37600,"station_id":"ce4bgkp2rcd13ifvqbmg","pricing_plan_id":"cebpf4jnsgd1na2vs0mg"},{"bike_id":"cda031b0-e656-4c16-b543-546dc0e10493","system_id":"levelo_inurba_marseille","lat":43.24997,"lon":5.38927,"is_reserved":false,"is_disabled":false,"rental_uris":{"android":"levelo://app?vid=cda031b0-e656-4c16-b543-546dc0e10493","ios":"levelo://app?vid=cda031b0-e656-4c16-b543-546dc0e10493"},"vehicle_type_id":"4","last_reported":1738599036,"current_range_meters":28000,"station_id":"ce4bhgp2rcd13ifvqfd0","pricing_plan_id":"cebpf4jnsgd1na2vs0mg"},{"bike_id":"30e962a5-ed17-4781-966d-335d338660e0","system_id":"levelo_inurba_marseille","lat":43.32362,"lon":5.38884,"is_reserved":false,"is_disabled":false,"rental_uris":{"android":"levelo://app?vid=30e962a5-ed17-4781-966d-335d338660e0","ios":"levelo://app?vid=30e962a5-ed17-4781-966d-335d338660e0"},"vehicle_type_id":"4","last_reported":1738599036,"current_range_meters":16800,"station_id":"ce4bhqp2rcd13ifvqhog","pricing_plan_id":"cebpf4jnsgd1na2vs0mg"},{"bike_id":"c7ffedac-349c-4fc0-8875-a3ceaf85f7b5","system_id":"levelo_inurba_marseille","lat":43.24169,"lon":5.36398,"is_reserved":false,"is_disabled":false,"rental_uris":{"android":"levelo://app?vid=c7ffedac-349c-4fc0-8875-a3ceaf85f7b5","ios":"levelo://app?vid=c7ffedac-349c-4fc0-8875-a3ceaf85f7b5"},"vehicle_type_id":"4","last_reported":1738599036,"current_range_meters":7200,"station_id":"cpo36qri1sfpv3e86is0","pricing_plan_id":"cebpf4jnsgd1na2vs0mg"},{"bike_id":"d08ca28b-23df-4eba-b7b5-7910c4aa69d2","system_id":"levelo_inurba_marseille","lat":43.32477,"lon":5.36597,"is_reserved":false,"is_disabled":false,"rental_uris":{"android":"levelo://app?vid=d08ca28b-23df-4eba-b7b5-7910c4aa69d2","ios":"levelo://app?vid=d08ca28b-23df-4eba-b7b5-7910c4aa69d2"},"vehicle_type_id":"4","last_reported":1738599036,"current_range_meters":38000,"station_id":"ce4bhs12rcd13ifvqhvg","pricing_plan_id":"cebpf4jnsgd1na2vs0mg"},{"bike_id":"a816f447-264a-443b-b9b4-cb93fecced3e","system_id":"levelo_inurba_marseille","lat":43.31166,"lon":5.38715,"is_reserved":false,"is_disabled":false,"rental_uris":{"android":"levelo://app?vid=a816f447-264a-443b-b9b4-cb93fecced3e","ios":"levelo://app?vid=a816f447-264a-443b-b9b4-cb93fecced3e"},"vehicle_type_id":"4","last_reported":1738599036,"current_range_meters":39200,"station_id":"ce4bgv12rcd13ifvqcp0","pricing_plan_id":"cebpf4jnsgd1na2vs0mg"},{"bike_id":"a8df4c27-7db1-4288-8fe6-150b2f91f1c8","system_id":"levelo_inurba_marseille","lat":43.30215,"lon":5.39471,"is_reserved":false,"is_disabled":true,"rental_uris":{"android":"levelo://app?vid=a8df4c27-7db1-4288-8fe6-150b2f91f1c8","ios":"levelo://app?vid=a8df4c27-7db1-4288-8fe6-150b2f91f1c8"},"vehicle_type_id":"4","last_reported":1738599036,"current_range_meters":0,"station_id":"ce4bh0p2rcd13ifvqd70","pricing_plan_id":"cebpf4jnsgd1na2vs0mg"},{"bike_id":"fb7a385f-1179-4996-b602-2bee4c381110","system_id":"levelo_inurba_marseille","lat":43.24078,"lon":5.37762,"is_reserved":false,"is_disabled":false,"rental_uris":{"android":"levelo://app?vid=fb7a385f-1179-4996-b602-2bee4c381110","ios":"levelo://app?vid=fb7a385f-1179-4996-b602-2bee4c381110"},"vehicle_type_id":"4","last_reported":1738599036,"current_range_meters":20000,"station_id":"ce4bhnp2rcd13ifvqgvg","pricing_plan_id":"cebpf4jnsgd1na2vs0mg"},{"bike_id":"2cbd5193-ddde-4715-a2bf-e1cb8bb201c9","system_id":"levelo_inurba_marseille","lat":43.2849,"lon":5.38432,"is_reserved":false,"is_disabled":true,"rental_uris":{"android":"levelo://app?vid=2cbd5193-ddde-4715-a2bf-e1cb8bb201c9","ios":"levelo://app?vid=2cbd5193-ddde-4715-a2bf-e1cb8bb201c9"},"vehicle_type_id":"4","last_reported":1738599036,"current_range_meters":0,"station_id":"ce4bh512rcd13ifvqe3g","pricing_plan_id":"cebpf4jnsgd1na2vs0mg"},{"bike_id":"0570fa00-dcc1-45f2-92dd-a890f5ad8110","system_id":"levelo_inurba_marseille","lat":43.29052,"lon":5.35916,"is_reserved":false,"is_disabled":false,"rental_uris":{"android":"levelo://app?vid=0570fa00-dcc1-45f2-92dd-a890f5ad8110","ios":"levelo://app?vid=0570fa00-dcc1-45f2-92dd-a890f5ad8110"},"vehicle_type_id":"4","last_reported":1738599036,"current_range_meters":24400,"station_id":"ce4bha92rcd13ifvqeg0","pricing_plan_id":"cebpf4jnsgd1na2vs0mg"},{"bike_id":"4a18fa25-a72b-4cad-ab40-77dc9d93d71e","system_id":"levelo_inurba_marseille","lat":43.28419,"lon":5.37499,"is_reserved":false,"is_disabled":true,"rental_uris":{"android":"levelo://app?vid=4a18fa25-a72b-4cad-ab40-77dc9d93d71e","ios":"levelo://app?vid=4a18fa25-a72b-4cad-ab40-77dc9d93d71e"},"vehicle_type_id":"4","last_reported":1738599036,"current_range_meters":0,"station_id":"ce4bh412rcd13ifvqds0","pricing_plan_id":"cebpf4jnsgd1na2vs0mg"},{"bike_id":"9305e1b7-25f3-4984-83bf-54ae7bc76463","system_id":"levelo_inurba_marseille","lat":43.2848,"lon":5.38421,"is_reserved":false,"is_disabled":false,"rental_uris":{"android":"levelo://app?vid=9305e1b7-25f3-4984-83bf-54ae7bc76463","ios":"levelo://app?vid=9305e1b7-25f3-4984-83bf-54ae7bc76463"},"vehicle_type_id":"4","last_reported":1738599036,"current_range_meters":25600,"station_id":"ce4bh512rcd13ifvqe3g","pricing_plan_id":"cebpf4jnsgd1na2vs0mg"},{"bike_id":"604dcf97-653b-4f7d-91b8-b15d3ba07d60","system_id":"levelo_inurba_marseille","lat":43.2827,"lon":5.35058,"is_reserved":false,"is_disabled":false,"rental_uris":{"android":"levelo://app?vid=604dcf97-653b-4f7d-91b8-b15d3ba07d60","ios":"levelo://app?vid=604dcf97-653b-4f7d-91b8-b15d3ba07d60"},"vehicle_type_id":"4","last_reported":1738599036,"current_range_meters":20800,"station_id":"ce4bhbp2rcd13ifvqerg","pricing_plan_id":"cebpf4jnsgd1na2vs0mg"},{"bike_id":"bfa610f3-403a-4289-a277-6b18d2942e6c","system_id":"levelo_inurba_marseille","lat":43.3044,"lon":5.38887,"is_reserved":false,"is_disabled":false,"rental_uris":{"android":"levelo://app?vid=bfa610f3-403a-4289-a277-6b18d2942e6c","ios":"levelo://app?vid=bfa610f3-403a-4289-a277-6b18d2942e6c"},"vehicle_type_id":"4","last_reported":1738599036,"current_range_meters":33600,"station_id":"ce4bgk12rcd13ifvqbi0","pricing_plan_id":"cebpf4jnsgd1na2vs0mg"},{"bike_id":"15751c8b-a3a7-454f-96d5-a92ac3978ce2","system_id":"levelo_inurba_marseille","lat":43.28638,"lon":5.35056,"is_reserved":false,"is_disabled":false,"rental_uris":{"android":"levelo://app?vid=15751c8b-a3a7-454f-96d5-a92ac3978ce2","ios":"levelo://app?vid=15751c8b-a3a7-454f-96d5-a92ac3978ce2"},"vehicle_type_id":"4","last_reported":1738599036,"current_range_meters":28800,"station_id":"ce4bhch2rcd13ifvqeug","pricing_plan_id":"cebpf4jnsgd1na2vs0mg"},{"bike_id":"895b886d-f041-450f-bbc7-c95d89abf42f","system_id":"levelo_inurba_marseille","lat":43.31121,"lon":5.38007,"is_reserved":false,"is_disabled":false,"rental_uris":{"android":"levelo://app?vid=895b886d-f041-450f-bbc7-c95d89abf42f","ios":"levelo://app?vid=895b886d-f041-450f-bbc7-c95d89abf42f"},"vehicle_type_id":"4","last_reported":1738599036,"current_range_meters":30000,"station_id":"","pricing_plan_id":"cebpf4jnsgd1na2vs0mg"},{"bike_id":"99630b4f-d397-4cd1-b643-a51d074b76bb","system_id":"levelo_inurba_marseille","lat":43.2846,"lon":5.35892,"is_reserved":false,"is_disabled":false,"rental_uris":{"android":"levelo://app?vid=99630b4f-d397-4cd1-b643-a51d074b76bb","ios":"levelo://app?vid=99630b4f-d397-4cd1-b643-a51d074b76bb"},"vehicle_type_id":"4","last_reported":1738599036,"current_range_meters":38800,"station_id":"ce4bhah2rcd13ifvqei0","pricing_plan_id":"cebpf4jnsgd1na2vs0mg"},{"bike_id":"dfca75c2-55e3-4e13-8b26-4b6ce664ebef","system_id":"levelo_inurba_marseille","lat":43.284164,"lon":5.349792,"is_reserved":false,"is_disabled":false,"rental_uris":{"android":"levelo://app?vid=dfca75c2-55e3-4e13-8b26-4b6ce664ebef","ios":"levelo://app?vid=dfca75c2-55e3-4e13-8b26-4b6ce664ebef"},"vehicle_type_id":"4","last_reported":1738599036,"current_range_meters":8800,"station_id":"ce4bhbh2rcd13ifvqepg","pricing_plan_id":"cebpf4jnsgd1na2vs0mg"},{"bike_id":"115e302a-af5d-408a-980b-094c657f62a3","system_id":"levelo_inurba_marseille","lat":43.27569,"lon":5.38415,"is_reserved":false,"is_disabled":false,"rental_uris":{"android":"levelo://app?vid=115e302a-af5d-408a-980b-094c657f62a3","ios":"levelo://app?vid=115e302a-af5d-408a-980b-094c657f62a3"},"vehicle_type_id":"4","last_reported":1738599036,"current_range_meters":9600,"station_id":"ce4bhh92rcd13ifvqfi0","pricing_plan_id":"cebpf4jnsgd1na2vs0mg"},{"bike_id":"339024e8-3d81-4c07-84dd-594593317646","system_id":"levelo_inurba_marseille","lat":43.30527,"lon":5.367,"is_reserved":false,"is_disabled":false,"rental_uris":{"android":"levelo://app?vid=339024e8-3d81-4c07-84dd-594593317646","ios":"levelo://app?vid=339024e8-3d81-4c07-84dd-594593317646"},"vehicle_type_id":"4","last_reported":1738599036,"current_range_meters":17600,"station_id":"ce4bgrp2rcd13ifvqc9g","pricing_plan_id":"cebpf4jnsgd1na2vs0mg"},{"bike_id":"85d38624-0f5e-42ed-9443-eabb2bd1a782","system_id":"levelo_inurba_marseille","lat":43.31487,"lon":5.37307,"is_reserved":false,"is_disabled":false,"rental_uris":{"android":"levelo://app?vid=85d38624-0f5e-42ed-9443-eabb2bd1a782","ios":"levelo://app?vid=85d38624-0f5e-42ed-9443-eabb2bd1a782"},"vehicle_type_id":"4","last_reported":1738599036,"current_range_meters":11600,"station_id":"ce4bgt12rcd13ifvqcd0","pricing_plan_id":"cebpf4jnsgd1na2vs0mg"},{"bike_id":"4e790c06-2a94-477c-a2da-9a0330388cc5","system_id":"levelo_inurba_marseille","lat":43.2621,"lon":5.37453,"is_reserved":false,"is_disabled":false,"rental_uris":{"android":"levelo://app?vid=4e790c06-2a94-477c-a2da-9a0330388cc5","ios":"levelo://app?vid=4e790c06-2a94-477c-a2da-9a0330388cc5"},"vehicle_type_id":"4","last_reported":1738599036,"current_range_meters":19600,"station_id":"ce4bhgp2rcd13ifvqfc0","pricing_plan_id":"cebpf4jnsgd1na2vs0mg"},{"bike_id":"df721def-598a-4e24-a89a-4771bf19c6fb","system_id":"levelo_inurba_marseille","lat":43.27806,"lon":5.40696,"is_reserved":false,"is_disabled":false,"rental_uris":{"android":"levelo://app?vid=df721def-598a-4e24-a89a-4771bf19c6fb","ios":"levelo://app?vid=df721def-598a-4e24-a89a-4771bf19c6fb"},"vehicle_type_id":"4","last_reported":1738599036,"current_range_meters":38800,"station_id":"ce4bhnh2rcd13ifvqgtg","pricing_plan_id":"cebpf4jnsgd1na2vs0mg"},{"bike_id":"432bc086-190c-49bd-9f0f-b7d592e08498","system_id":"levelo_inurba_marseille","lat":43.23161,"lon":5.43695,"is_reserved":false,"is_disabled":false,"rental_uris":{"android":"levelo://app?vid=432bc086-190c-49bd-9f0f-b7d592e08498","ios":"levelo://app?vid=432bc086-190c-49bd-9f0f-b7d592e08498"},"vehicle_type_id":"4","last_reported":1738599036,"current_range_meters":18800,"station_id":"ce4bhmp2rcd13ifvqgog","pricing_plan_id":"cebpf4jnsgd1na2vs0mg"},{"bike_id":"905522ef-d4d4-4a33-8994-defbf52775ca","system_id":"levelo_inurba_marseille","lat":43.26238,"lon":5.40443,"is_reserved":false,"is_disabled":true,"rental_uris":{"android":"levelo://app?vid=905522ef-d4d4-4a33-8994-defbf52775ca","ios":"levelo://app?vid=905522ef-d4d4-4a33-8994-defbf52775ca"},"vehicle_type_id":"4","last_reported":1738599036,"current_range_meters":0,"station_id":"ce4bhmh2rcd13ifvqgmg","pricing_plan_id":"cebpf4jnsgd1na2vs0mg"},{"bike_id":"22597755-fdbe-4a5c-8ad5-304ff162b938","system_id":"levelo_inurba_marseille","lat":43.25868,"lon":5.39894,"is_reserved":false,"is_disabled":false,"rental_uris":{"android":"levelo://app?vid=22597755-fdbe-4a5c-8ad5-304ff162b938","ios":"levelo://app?vid=22597755-fdbe-4a5c-8ad5-304ff162b938"},"vehicle_type_id":"4","last_reported":1738599036,"current_range_meters":19600,"station_id":"ce4bhl92rcd13ifvqghg","pricing_plan_id":"cebpf4jnsgd1na2vs0mg"},{"bike_id":"d9c614f7-8968-45e8-82a0-4ae06e41b32a","system_id":"levelo_inurba_marseille","lat":43.29203,"lon":5.36049,"is_reserved":false,"is_disabled":false,"rental_uris":{"android":"levelo://app?vid=d9c614f7-8968-45e8-82a0-4ae06e41b32a","ios":"levelo://app?vid=d9c614f7-8968-45e8-82a0-4ae06e41b32a"},"vehicle_type_id":"4","last_reported":1738599036,"current_range_meters":16000,"station_id":"ce4bhbh2rcd13ifvqeqg","pricing_plan_id":"cebpf4jnsgd1na2vs0mg"},{"bike_id":"3034d64e-f78e-468c-b4d6-2520a053438f","system_id":"levelo_inurba_marseille","lat":43.23199,"lon":5.3999,"is_reserved":false,"is_disabled":true,"rental_uris":{"android":"levelo://app?vid=3034d64e-f78e-468c-b4d6-2520a053438f","ios":"levelo://app?vid=3034d64e-f78e-468c-b4d6-2520a053438f"},"vehicle_type_id":"4","last_reported":1738599036,"current_range_meters":16000,"station_id":"ce4bhn12rcd13ifvqgqg","pricing_plan_id":"cebpf4jnsgd1na2vs0mg"},{"bike_id":"dad2cb9d-0670-4a16-9712-8f5a70cbc2c7","system_id":"levelo_inurba_marseille","lat":43.28991,"lon":5.35608,"is_reserved":false,"is_disabled":false,"rental_uris":{"android":"levelo://app?vid=dad2cb9d-0670-4a16-9712-8f5a70cbc2c7","ios":"levelo://app?vid=dad2cb9d-0670-4a16-9712-8f5a70cbc2c7"},"vehicle_type_id":"4","last_reported":1738599036,"current_range_meters":39200,"station_id":"ce4bhb92rcd13ifvqen0","pricing_plan_id":"cebpf4jnsgd1na2vs0mg"},{"bike_id":"21bc96aa-aa3d-4432-97d0-ae89bcf9e54d","system_id":"levelo_inurba_marseille","lat":43.30301,"lon":5.36873,"is_reserved":false,"is_disabled":false,"rental_uris":{"android":"levelo://app?vid=21bc96aa-aa3d-4432-97d0-ae89bcf9e54d","ios":"levelo://app?vid=21bc96aa-aa3d-4432-97d0-ae89bcf9e54d"},"vehicle_type_id":"4","last_reported":1738599036,"current_range_meters":34800,"station_id":"ce4bgqh2rcd13ifvqc5g","pricing_plan_id":"cebpf4jnsgd1na2vs0mg"},{"bike_id":"9e768907-2758-4663-849c-1bfedc158f31","system_id":"levelo_inurba_marseille","lat":43.279114,"lon":5.395864,"is_reserved":false,"is_disabled":true,"rental_uris":{"android":"levelo://app?vid=9e768907-2758-4663-849c-1bfedc158f31","ios":"levelo://app?vid=9e768907-2758-4663-849c-1bfedc158f31"},"vehicle_type_id":"4","last_reported":1738599036,"current_range_meters":0,"station_id":"ce4bhf92rcd13ifvqf40","pricing_plan_id":"cebpf4jnsgd1na2vs0mg"},{"bike_id":"aa9462c4-d8ab-474f-9e59-bd021459ce10","system_id":"levelo_inurba_marseille","lat":43.26067,"lon":5.39396,"is_reserved":false,"is_disabled":false,"rental_uris":{"android":"levelo://app?vid=aa9462c4-d8ab-474f-9e59-bd021459ce10","ios":"levelo://app?vid=aa9462c4-d8ab-474f-9e59-bd021459ce10"},"vehicle_type_id":"4","last_reported":1738599036,"current_range_meters":38800,"station_id":"ce4bhh92rcd13ifvqfj0","pricing_plan_id":"cebpf4jnsgd1na2vs0mg"},{"bike_id":"b7ea58ae-3f30-49d0-a01c-e557c57933d6","system_id":"levelo_inurba_marseille","lat":43.29307,"lon":5.37158,"is_reserved":false,"is_disabled":false,"rental_uris":{"android":"levelo://app?vid=b7ea58ae-3f30-49d0-a01c-e557c57933d6","ios":"levelo://app?vid=b7ea58ae-3f30-49d0-a01c-e557c57933d6"},"vehicle_type_id":"4","last_reported":1738599036,"current_range_meters":32000,"station_id":"ce4bgh92rcd13ifvqb40","pricing_plan_id":"cebpf4jnsgd1na2vs0mg"},{"bike_id":"a9d2cac9-2915-4695-bc3e-f9f2b0d58cbb","system_id":"levelo_inurba_marseille","lat":43.29853,"lon":5.3629,"is_reserved":false,"is_disabled":false,"rental_uris":{"android":"levelo://app?vid=a9d2cac9-2915-4695-bc3e-f9f2b0d58cbb","ios":"levelo://app?vid=a9d2cac9-2915-4695-bc3e-f9f2b0d58cbb"},"vehicle_type_id":"4","last_reported":1738599036,"current_range_meters":38000,"station_id":"ce4bgpp2rcd13ifvqc3g","pricing_plan_id":"cebpf4jnsgd1na2vs0mg"},{"bike_id":"942ee348-f601-4816-a32c-40a8d55d3f6b","system_id":"levelo_inurba_marseille","lat":43.337444,"lon":5.374475,"is_reserved":false,"is_disabled":true,"rental_uris":{"android":"levelo://app?vid=942ee348-f601-4816-a32c-40a8d55d3f6b","ios":"levelo://app?vid=942ee348-f601-4816-a32c-40a8d55d3f6b"},"vehicle_type_id":"4","last_reported":1738599036,"current_range_meters":0,"station_id":"","pricing_plan_id":"cebpf4jnsgd1na2vs0mg"},{"bike_id":"a7dc0848-081a-4438-bce6-7e161a91f066","system_id":"levelo_inurba_marseille","lat":43.28149,"lon":5.42675,"is_reserved":false,"is_disabled":true,"rental_uris":{"android":"levelo://app?vid=a7dc0848-081a-4438-bce6-7e161a91f066","ios":"levelo://app?vid=a7dc0848-081a-4438-bce6-7e161a91f066"},"vehicle_type_id":"4","last_reported":1738599036,"current_range_meters":0,"station_id":"ce4bhnh2rcd13ifvqgug","pricing_plan_id":"cebpf4jnsgd1na2vs0mg"},{"bike_id":"a7d3b724-e07d-4e52-8cab-21bbc0e96cf8","system_id":"levelo_inurba_marseille","lat":43.26213,"lon":5.3744,"is_reserved":false,"is_disabled":false,"rental_uris":{"android":"levelo://app?vid=a7d3b724-e07d-4e52-8cab-21bbc0e96cf8","ios":"levelo://app?vid=a7d3b724-e07d-4e52-8cab-21bbc0e96cf8"},"vehicle_type_id":"4","last_reported":1738599036,"current_range_meters":22800,"station_id":"ce4bhgp2rcd13ifvqfc0","pricing_plan_id":"cebpf4jnsgd1na2vs0mg"},{"bike_id":"f509805c-cf62-4952-8cc2-f1abfdf78735","system_id":"levelo_inurba_marseille","lat":43.29275,"lon":5.3684,"is_reserved":false,"is_disabled":false,"rental_uris":{"android":"levelo://app?vid=f509805c-cf62-4952-8cc2-f1abfdf78735","ios":"levelo://app?vid=f509805c-cf62-4952-8cc2-f1abfdf78735"},"vehicle_type_id":"4","last_reported":1738599036,"current_range_meters":33200,"station_id":"ce4bhbp2rcd13ifvqesg","pricing_plan_id":"cebpf4jnsgd1na2vs0mg"},{"bike_id":"f0b53076-d51d-4c78-be73-c20056d1b4ad","system_id":"levelo_inurba_marseille","lat":43.29969,"lon":5.38494,"is_reserved":false,"is_disabled":true,"rental_uris":{"android":"levelo://app?vid=f0b53076-d51d-4c78-be73-c20056d1b4ad","ios":"levelo://app?vid=f0b53076-d51d-4c78-be73-c20056d1b4ad"},"vehicle_type_id":"4","last_reported":1738599036,"current_range_meters":38400,"station_id":"ce4bgj92rcd13ifvqbd0","pricing_plan_id":"cebpf4jnsgd1na2vs0mg"},{"bike_id":"9819be76-2d4b-4fb5-a60b-698c25adabe5","system_id":"levelo_inurba_marseille","lat":43.26216,"lon":5.37449,"is_reserved":false,"is_disabled":false,"rental_uris":{"android":"levelo://app?vid=9819be76-2d4b-4fb5-a60b-698c25adabe5","ios":"levelo://app?vid=9819be76-2d4b-4fb5-a60b-698c25adabe5"},"vehicle_type_id":"4","last_reported":1738599036,"current_range_meters":32400,"station_id":"ce4bhgp2rcd13ifvqfc0","pricing_plan_id":"cebpf4jnsgd1na2vs0mg"},{"bike_id":"c8bd1d84-2291-473f-ab82-361f165fe1db","system_id":"levelo_inurba_marseille","lat":43.24173,"lon":5.3638,"is_reserved":false,"is_disabled":false,"rental_uris":{"android":"levelo://app?vid=c8bd1d84-2291-473f-ab82-361f165fe1db","ios":"levelo://app?vid=c8bd1d84-2291-473f-ab82-361f165fe1db"},"vehicle_type_id":"4","last_reported":1738599036,"current_range_meters":24800,"station_id":"cpo36qri1sfpv3e86is0","pricing_plan_id":"cebpf4jnsgd1na2vs0mg"},{"bike_id":"87e2ffd2-9b11-47e0-98e2-0de5260bd635","system_id":"levelo_inurba_marseille","lat":43.29552,"lon":5.42274,"is_reserved":false,"is_disabled":false,"rental_uris":{"android":"levelo://app?vid=87e2ffd2-9b11-47e0-98e2-0de5260bd635","ios":"levelo://app?vid=87e2ffd2-9b11-47e0-98e2-0de5260bd635"},"vehicle_type_id":"4","last_reported":1738599036,"current_range_meters":27200,"station_id":"ce4bhph2rcd13ifvqhdg","pricing_plan_id":"cebpf4jnsgd1na2vs0mg"},{"bike_id":"bb846df9-2969-480a-aed6-edbcf9c326fb","system_id":"levelo_inurba_marseille","lat":43.24808,"lon":5.37456,"is_reserved":false,"is_disabled":false,"rental_uris":{"android":"levelo://app?vid=bb846df9-2969-480a-aed6-edbcf9c326fb","ios":"levelo://app?vid=bb846df9-2969-480a-aed6-edbcf9c326fb"},"vehicle_type_id":"4","last_reported":1738599036,"current_range_meters":28800,"station_id":"ce4bhgh2rcd13ifvqfb0","pricing_plan_id":"cebpf4jnsgd1na2vs0mg"},{"bike_id":"48ebfd2e-3b3a-4da2-a76d-11ff63396ffb","system_id":"levelo_inurba_marseille","lat":43.279983,"lon":5.400024,"is_reserved":false,"is_disabled":true,"rental_uris":{"android":"levelo://app?vid=48ebfd2e-3b3a-4da2-a76d-11ff63396ffb","ios":"levelo://app?vid=48ebfd2e-3b3a-4da2-a76d-11ff63396ffb"},"vehicle_type_id":"4","last_reported":1738599036,"current_range_meters":20000,"station_id":"ce4bho92rcd13ifvqh4g","pricing_plan_id":"cebpf4jnsgd1na2vs0mg"},{"bike_id":"85e0a930-26fd-4edc-a536-795827c6b8db","system_id":"levelo_inurba_marseille","lat":43.28705,"lon":5.374,"is_reserved":false,"is_disabled":false,"rental_uris":{"android":"levelo://app?vid=85e0a930-26fd-4edc-a536-795827c6b8db","ios":"levelo://app?vid=85e0a930-26fd-4edc-a536-795827c6b8db"},"vehicle_type_id":"4","last_reported":1738599036,"current_range_meters":17600,"station_id":"ce4bh3p2rcd13ifvqdq0","pricing_plan_id":"cebpf4jnsgd1na2vs0mg"},{"bike_id":"cd07e062-2af1-406e-bcb9-5f1ec4730937","system_id":"levelo_inurba_marseille","lat":43.23064,"lon":5.35498,"is_reserved":false,"is_disabled":false,"rental_uris":{"android":"levelo://app?vid=cd07e062-2af1-406e-bcb9-5f1ec4730937","ios":"levelo://app?vid=cd07e062-2af1-406e-bcb9-5f1ec4730937"},"vehicle_type_id":"4","last_reported":1738599036,"current_range_meters":12400,"station_id":"cpo3342slgdg3j2ifvpg","pricing_plan_id":"cebpf4jnsgd1na2vs0mg"},{"bike_id":"ef522ec1-733b-4526-883e-365a20f2baa8","system_id":"levelo_inurba_marseille","lat":43.308001,"lon":5.368032,"is_reserved":false,"is_disabled":false,"rental_uris":{"android":"levelo://app?vid=ef522ec1-733b-4526-883e-365a20f2baa8","ios":"levelo://app?vid=ef522ec1-733b-4526-883e-365a20f2baa8"},"vehicle_type_id":"4","last_reported":1738599036,"current_range_meters":38800,"station_id":"ce4bgrp2rcd13ifvqc9g","pricing_plan_id":"cebpf4jnsgd1na2vs0mg"},{"bike_id":"6153e716-74d1-4ec8-8480-f5be62fa3825","system_id":"levelo_inurba_marseille","lat":43.24809,"lon":5.37448,"is_reserved":false,"is_disabled":false,"rental_uris":{"android":"levelo://app?vid=6153e716-74d1-4ec8-8480-f5be62fa3825","ios":"levelo://app?vid=6153e716-74d1-4ec8-8480-f5be62fa3825"},"vehicle_type_id":"4","last_reported":1738599036,"current_range_meters":10800,"station_id":"ce4bhgh2rcd13ifvqfb0","pricing_plan_id":"cebpf4jnsgd1na2vs0mg"},{"bike_id":"516f2549-79cf-4297-a0ad-3d3f06a71f80","system_id":"levelo_inurba_marseille","lat":43.31713,"lon":5.42399,"is_reserved":false,"is_disabled":true,"rental_uris":{"android":"levelo://app?vid=516f2549-79cf-4297-a0ad-3d3f06a71f80","ios":"levelo://app?vid=516f2549-79cf-4297-a0ad-3d3f06a71f80"},"vehicle_type_id":"4","last_reported":1738599036,"current_range_meters":8000,"station_id":"ce4bhp92rcd13ifvqhbg","pricing_plan_id":"cebpf4jnsgd1na2vs0mg"},{"bike_id":"2560298a-7b73-4b42-b024-41069cd9db21","system_id":"levelo_inurba_marseille","lat":43.27063,"lon":5.40254,"is_reserved":false,"is_disabled":true,"rental_uris":{"android":"levelo://app?vid=2560298a-7b73-4b42-b024-41069cd9db21","ios":"levelo://app?vid=2560298a-7b73-4b42-b024-41069cd9db21"},"vehicle_type_id":"4","last_reported":1738599036,"current_range_meters":1200,"station_id":"ce4bhk92rcd13ifvqgc0","pricing_plan_id":"cebpf4jnsgd1na2vs0mg"},{"bike_id":"9797f441-c0cc-4329-bca2-5f9673cfe537","system_id":"levelo_inurba_marseille","lat":43.302121,"lon":5.394689,"is_reserved":false,"is_disabled":false,"rental_uris":{"android":"levelo://app?vid=9797f441-c0cc-4329-bca2-5f9673cfe537","ios":"levelo://app?vid=9797f441-c0cc-4329-bca2-5f9673cfe537"},"vehicle_type_id":"4","last_reported":1738599036,"current_range_meters":35600,"station_id":"ce4bh0p2rcd13ifvqd70","pricing_plan_id":"cebpf4jnsgd1na2vs0mg"},{"bike_id":"3fb41fed-e373-40db-90da-e4138c99838d","system_id":"levelo_inurba_marseille","lat":43.29603,"lon":5.37702,"is_reserved":false,"is_disabled":false,"rental_uris":{"android":"levelo://app?vid=3fb41fed-e373-40db-90da-e4138c99838d","ios":"levelo://app?vid=3fb41fed-e373-40db-90da-e4138c99838d"},"vehicle_type_id":"4","last_reported":1738599036,"current_range_meters":38000,"station_id":"ce4bgi92rcd13ifvqb90","pricing_plan_id":"cebpf4jnsgd1na2vs0mg"},{"bike_id":"a64e153d-116b-4a73-a713-bc1e4fff9381","system_id":"levelo_inurba_marseille","lat":43.29271,"lon":5.38435,"is_reserved":false,"is_disabled":false,"rental_uris":{"android":"levelo://app?vid=a64e153d-116b-4a73-a713-bc1e4fff9381","ios":"levelo://app?vid=a64e153d-116b-4a73-a713-bc1e4fff9381"},"vehicle_type_id":"4","last_reported":1738599036,"current_range_meters":33200,"station_id":"ce4bh692rcd13ifvqea0","pricing_plan_id":"cebpf4jnsgd1na2vs0mg"},{"bike_id":"9e568335-6327-4a31-9bda-7bae44c290b1","system_id":"levelo_inurba_marseille","lat":43.30175,"lon":5.36596,"is_reserved":false,"is_disabled":false,"rental_uris":{"android":"levelo://app?vid=9e568335-6327-4a31-9bda-7bae44c290b1","ios":"levelo://app?vid=9e568335-6327-4a31-9bda-7bae44c290b1"},"vehicle_type_id":"4","last_reported":1738599036,"current_range_meters":38800,"station_id":"ce4bgrh2rcd13ifvqc8g","pricing_plan_id":"cebpf4jnsgd1na2vs0mg"},{"bike_id":"9836167b-c1cb-41fc-abff-bdd3dcfe5c83","system_id":"levelo_inurba_marseille","lat":43.25495,"lon":5.37649,"is_reserved":false,"is_disabled":false,"rental_uris":{"android":"levelo://app?vid=9836167b-c1cb-41fc-abff-bdd3dcfe5c83","ios":"levelo://app?vid=9836167b-c1cb-41fc-abff-bdd3dcfe5c83"},"vehicle_type_id":"4","last_reported":1738599036,"current_range_meters":12000,"station_id":"ce4bhh12rcd13ifvqff0","pricing_plan_id":"cebpf4jnsgd1na2vs0mg"},{"bike_id":"3eeff02b-8268-4022-b26d-26bab769f3f5","system_id":"levelo_inurba_marseille","lat":43.2841,"lon":5.37517,"is_reserved":false,"is_disabled":false,"rental_uris":{"android":"levelo://app?vid=3eeff02b-8268-4022-b26d-26bab769f3f5","ios":"levelo://app?vid=3eeff02b-8268-4022-b26d-26bab769f3f5"},"vehicle_type_id":"4","last_reported":1738599036,"current_range_meters":27200,"station_id":"ce4bh412rcd13ifvqds0","pricing_plan_id":"cebpf4jnsgd1na2vs0mg"},{"bike_id":"51437e3c-95e5-4ed8-bcbd-f1e6187c2490","system_id":"levelo_inurba_marseille","lat":43.2998,"lon":5.37179,"is_reserved":false,"is_disabled":false,"rental_uris":{"android":"levelo://app?vid=51437e3c-95e5-4ed8-bcbd-f1e6187c2490","ios":"levelo://app?vid=51437e3c-95e5-4ed8-bcbd-f1e6187c2490"},"vehicle_type_id":"4","last_reported":1738599036,"current_range_meters":37600,"station_id":"ce4bgr92rcd13ifvqc7g","pricing_plan_id":"cebpf4jnsgd1na2vs0mg"},{"bike_id":"c3066916-eed2-4635-b496-6709235f4164","system_id":"levelo_inurba_marseille","lat":43.249972,"lon":5.3894,"is_reserved":false,"is_disabled":false,"rental_uris":{"android":"levelo://app?vid=c3066916-eed2-4635-b496-6709235f4164","ios":"levelo://app?vid=c3066916-eed2-4635-b496-6709235f4164"},"vehicle_type_id":"4","last_reported":1738599036,"current_range_meters":17600,"station_id":"ce4bhgp2rcd13ifvqfd0","pricing_plan_id":"cebpf4jnsgd1na2vs0mg"},{"bike_id":"5718481c-817c-4453-ad50-860ac1fd6949","system_id":"levelo_inurba_marseille","lat":43.26496,"lon":5.39542,"is_reserved":false,"is_disabled":false,"rental_uris":{"android":"levelo://app?vid=5718481c-817c-4453-ad50-860ac1fd6949","ios":"levelo://app?vid=5718481c-817c-4453-ad50-860ac1fd6949"},"vehicle_type_id":"4","last_reported":1738599036,"current_range_meters":38800,"station_id":"ce4bhi12rcd13ifvqfq0","pricing_plan_id":"cebpf4jnsgd1na2vs0mg"},{"bike_id":"fa48af50-f7f8-463b-8073-011bea7848cf","system_id":"levelo_inurba_marseille","lat":43.26963,"lon":5.40235,"is_reserved":false,"is_disabled":false,"rental_uris":{"android":"levelo://app?vid=fa48af50-f7f8-463b-8073-011bea7848cf","ios":"levelo://app?vid=fa48af50-f7f8-463b-8073-011bea7848cf"},"vehicle_type_id":"4","last_reported":1738599036,"current_range_meters":36400,"station_id":"cjm6bp8fraef2m0cb0m0","pricing_plan_id":"cebpf4jnsgd1na2vs0mg"},{"bike_id":"12fa9366-48c9-4df6-ae19-3143bbd392e7","system_id":"levelo_inurba_marseille","lat":43.29588,"lon":5.38097,"is_reserved":false,"is_disabled":false,"rental_uris":{"android":"levelo://app?vid=12fa9366-48c9-4df6-ae19-3143bbd392e7","ios":"levelo://app?vid=12fa9366-48c9-4df6-ae19-3143bbd392e7"},"vehicle_type_id":"4","last_reported":1738599036,"current_range_meters":12400,"station_id":"ce4bgl12rcd13ifvqbo0","pricing_plan_id":"cebpf4jnsgd1na2vs0mg"},{"bike_id":"7bbd1ca9-5cb4-4750-a3f0-60560373cbff","system_id":"levelo_inurba_marseille","lat":43.254926,"lon":5.3765,"is_reserved":false,"is_disabled":false,"rental_uris":{"android":"levelo://app?vid=7bbd1ca9-5cb4-4750-a3f0-60560373cbff","ios":"levelo://app?vid=7bbd1ca9-5cb4-4750-a3f0-60560373cbff"},"vehicle_type_id":"4","last_reported":1738599036,"current_range_meters":38800,"station_id":"ce4bhh12rcd13ifvqff0","pricing_plan_id":"cebpf4jnsgd1na2vs0mg"},{"bike_id":"42ad3b60-8ff9-4cf4-b036-3f56a4049c41","system_id":"levelo_inurba_marseille","lat":43.30083,"lon":5.39062,"is_reserved":false,"is_disabled":false,"rental_uris":{"android":"levelo://app?vid=42ad3b60-8ff9-4cf4-b036-3f56a4049c41","ios":"levelo://app?vid=42ad3b60-8ff9-4cf4-b036-3f56a4049c41"},"vehicle_type_id":"4","last_reported":1738599036,"current_range_meters":19600,"station_id":"ce4bh192rcd13ifvqdb0","pricing_plan_id":"cebpf4jnsgd1na2vs0mg"},{"bike_id":"1baca861-f635-48dc-a46b-c35885a03a68","system_id":"levelo_inurba_marseille","lat":43.29974,"lon":5.37134,"is_reserved":false,"is_disabled":false,"rental_uris":{"android":"levelo://app?vid=1baca861-f635-48dc-a46b-c35885a03a68","ios":"levelo://app?vid=1baca861-f635-48dc-a46b-c35885a03a68"},"vehicle_type_id":"4","last_reported":1738599036,"current_range_meters":35600,"station_id":"ce4bgr92rcd13ifvqc7g","pricing_plan_id":"cebpf4jnsgd1na2vs0mg"},{"bike_id":"b9825535-2a4d-4612-85d2-4b2d1acaab74","system_id":"levelo_inurba_marseille","lat":43.26055,"lon":5.39397,"is_reserved":false,"is_disabled":false,"rental_uris":{"android":"levelo://app?vid=b9825535-2a4d-4612-85d2-4b2d1acaab74","ios":"levelo://app?vid=b9825535-2a4d-4612-85d2-4b2d1acaab74"},"vehicle_type_id":"4","last_reported":1738599036,"current_range_meters":36000,"station_id":"ce4bhh92rcd13ifvqfj0","pricing_plan_id":"cebpf4jnsgd1na2vs0mg"},{"bike_id":"577383b2-bf58-4b25-8224-bf0cdd1be01d","system_id":"levelo_inurba_marseille","lat":43.24182,"lon":5.39722,"is_reserved":false,"is_disabled":false,"rental_uris":{"android":"levelo://app?vid=577383b2-bf58-4b25-8224-bf0cdd1be01d","ios":"levelo://app?vid=577383b2-bf58-4b25-8224-bf0cdd1be01d"},"vehicle_type_id":"4","last_reported":1738599036,"current_range_meters":24800,"station_id":"ce4bhn12rcd13ifvqgpg","pricing_plan_id":"cebpf4jnsgd1na2vs0mg"},{"bike_id":"ae50caec-5ecb-4a77-8148-ffb9866043e3","system_id":"levelo_inurba_marseille","lat":43.32367,"lon":5.38882,"is_reserved":false,"is_disabled":false,"rental_uris":{"android":"levelo://app?vid=ae50caec-5ecb-4a77-8148-ffb9866043e3","ios":"levelo://app?vid=ae50caec-5ecb-4a77-8148-ffb9866043e3"},"vehicle_type_id":"4","last_reported":1738599036,"current_range_meters":28400,"station_id":"ce4bhqp2rcd13ifvqhog","pricing_plan_id":"cebpf4jnsgd1na2vs0mg"},{"bike_id":"6bb18b6b-35db-4080-8375-2a2e83c6fc4b","system_id":"levelo_inurba_marseille","lat":43.23151,"lon":5.43682,"is_reserved":false,"is_disabled":true,"rental_uris":{"android":"levelo://app?vid=6bb18b6b-35db-4080-8375-2a2e83c6fc4b","ios":"levelo://app?vid=6bb18b6b-35db-4080-8375-2a2e83c6fc4b"},"vehicle_type_id":"4","last_reported":1738599036,"current_range_meters":38800,"station_id":"ce4bhmp2rcd13ifvqgog","pricing_plan_id":"cebpf4jnsgd1na2vs0mg"},{"bike_id":"89dafe30-c4ed-4a6a-a3fe-8ec7b46769be","system_id":"levelo_inurba_marseille","lat":43.29002,"lon":5.35616,"is_reserved":false,"is_disabled":false,"rental_uris":{"android":"levelo://app?vid=89dafe30-c4ed-4a6a-a3fe-8ec7b46769be","ios":"levelo://app?vid=89dafe30-c4ed-4a6a-a3fe-8ec7b46769be"},"vehicle_type_id":"4","last_reported":1738599036,"current_range_meters":7200,"station_id":"ce4bhb92rcd13ifvqen0","pricing_plan_id":"cebpf4jnsgd1na2vs0mg"},{"bike_id":"16d2c7b1-d8b9-4b3c-a6a9-f5add58b3e7a","system_id":"levelo_inurba_marseille","lat":43.24064,"lon":5.37682,"is_reserved":false,"is_disabled":false,"rental_uris":{"android":"levelo://app?vid=16d2c7b1-d8b9-4b3c-a6a9-f5add58b3e7a","ios":"levelo://app?vid=16d2c7b1-d8b9-4b3c-a6a9-f5add58b3e7a"},"vehicle_type_id":"4","last_reported":1738599036,"current_range_meters":24800,"station_id":"","pricing_plan_id":"cebpf4jnsgd1na2vs0mg"},{"bike_id":"73da363e-32af-49e1-a6b2-5b1de4da8c50","system_id":"levelo_inurba_marseille","lat":43.29276,"lon":5.3686,"is_reserved":false,"is_disabled":false,"rental_uris":{"android":"levelo://app?vid=73da363e-32af-49e1-a6b2-5b1de4da8c50","ios":"levelo://app?vid=73da363e-32af-49e1-a6b2-5b1de4da8c50"},"vehicle_type_id":"4","last_reported":1738599036,"current_range_meters":30000,"station_id":"ce4bhbp2rcd13ifvqesg","pricing_plan_id":"cebpf4jnsgd1na2vs0mg"},{"bike_id":"848aeba8-aa7b-402b-9baf-b1031a138bb1","system_id":"levelo_inurba_marseille","lat":43.25583,"lon":5.38249,"is_reserved":false,"is_disabled":false,"rental_uris":{"android":"levelo://app?vid=848aeba8-aa7b-402b-9baf-b1031a138bb1","ios":"levelo://app?vid=848aeba8-aa7b-402b-9baf-b1031a138bb1"},"vehicle_type_id":"4","last_reported":1738599036,"current_range_meters":24000,"station_id":"ce4bhih2rcd13ifvqfs0","pricing_plan_id":"cebpf4jnsgd1na2vs0mg"},{"bike_id":"db9c9c7d-d282-4df0-b912-069f13396d5b","system_id":"levelo_inurba_marseille","lat":43.29504,"lon":5.38528,"is_reserved":false,"is_disabled":false,"rental_uris":{"android":"levelo://app?vid=db9c9c7d-d282-4df0-b912-069f13396d5b","ios":"levelo://app?vid=db9c9c7d-d282-4df0-b912-069f13396d5b"},"vehicle_type_id":"4","last_reported":1738599036,"current_range_meters":33200,"station_id":"ce4bgih2rcd13ifvqba0","pricing_plan_id":"cebpf4jnsgd1na2vs0mg"},{"bike_id":"5804672b-52c6-4005-aabe-d9aef083bfe2","system_id":"levelo_inurba_marseille","lat":43.31748,"lon":5.37194,"is_reserved":false,"is_disabled":false,"rental_uris":{"android":"levelo://app?vid=5804672b-52c6-4005-aabe-d9aef083bfe2","ios":"levelo://app?vid=5804672b-52c6-4005-aabe-d9aef083bfe2"},"vehicle_type_id":"4","last_reported":1738599036,"current_range_meters":39200,"station_id":"","pricing_plan_id":"cebpf4jnsgd1na2vs0mg"},{"bike_id":"ccdaac70-0abe-4771-8318-4fc92eb915a9","system_id":"levelo_inurba_marseille","lat":43.26059,"lon":5.39391,"is_reserved":false,"is_disabled":false,"rental_uris":{"android":"levelo://app?vid=ccdaac70-0abe-4771-8318-4fc92eb915a9","ios":"levelo://app?vid=ccdaac70-0abe-4771-8318-4fc92eb915a9"},"vehicle_type_id":"4","last_reported":1738599036,"current_range_meters":16800,"station_id":"ce4bhh92rcd13ifvqfj0","pricing_plan_id":"cebpf4jnsgd1na2vs0mg"},{"bike_id":"8654b126-eecc-48d2-96fd-5d032bef9699","system_id":"levelo_inurba_marseille","lat":43.299285,"lon":5.365295,"is_reserved":false,"is_disabled":false,"rental_uris":{"android":"levelo://app?vid=8654b126-eecc-48d2-96fd-5d032bef9699","ios":"levelo://app?vid=8654b126-eecc-48d2-96fd-5d032bef9699"},"vehicle_type_id":"4","last_reported":1738599036,"current_range_meters":30800,"station_id":"ce4bgm92rcd13ifvqbr0","pricing_plan_id":"cebpf4jnsgd1na2vs0mg"},{"bike_id":"eb9c859e-ef39-446e-afa7-9063d5540a2c","system_id":"levelo_inurba_marseille","lat":43.32916,"lon":5.36707,"is_reserved":false,"is_disabled":false,"rental_uris":{"android":"levelo://app?vid=eb9c859e-ef39-446e-afa7-9063d5540a2c","ios":"levelo://app?vid=eb9c859e-ef39-446e-afa7-9063d5540a2c"},"vehicle_type_id":"4","last_reported":1738599036,"current_range_meters":32400,"station_id":"","pricing_plan_id":"cebpf4jnsgd1na2vs0mg"},{"bike_id":"9c42114e-ea61-4c3d-98b3-5089f1e0e4ce","system_id":"levelo_inurba_marseille","lat":43.29251,"lon":5.40896,"is_reserved":false,"is_disabled":false,"rental_uris":{"android":"levelo://app?vid=9c42114e-ea61-4c3d-98b3-5089f1e0e4ce","ios":"levelo://app?vid=9c42114e-ea61-4c3d-98b3-5089f1e0e4ce"},"vehicle_type_id":"4","last_reported":1738599036,"current_range_meters":37600,"station_id":"ce4bh192rcd13ifvqdc0","pricing_plan_id":"cebpf4jnsgd1na2vs0mg"},{"bike_id":"66eb7c6c-0e06-4383-b56b-044884a71894","system_id":"levelo_inurba_marseille","lat":43.29373,"lon":5.37854,"is_reserved":false,"is_disabled":false,"rental_uris":{"android":"levelo://app?vid=66eb7c6c-0e06-4383-b56b-044884a71894","ios":"levelo://app?vid=66eb7c6c-0e06-4383-b56b-044884a71894"},"vehicle_type_id":"4","last_reported":1738599036,"current_range_meters":27600,"station_id":"ce4bgjh2rcd13ifvqbf0","pricing_plan_id":"cebpf4jnsgd1na2vs0mg"},{"bike_id":"5688ac17-5443-4dac-8fe6-c32fce7d33ec","system_id":"levelo_inurba_marseille","lat":43.27382,"lon":5.36251,"is_reserved":false,"is_disabled":false,"rental_uris":{"android":"levelo://app?vid=5688ac17-5443-4dac-8fe6-c32fce7d33ec","ios":"levelo://app?vid=5688ac17-5443-4dac-8fe6-c32fce7d33ec"},"vehicle_type_id":"4","last_reported":1738599036,"current_range_meters":6800,"station_id":"ce4bhbh2rcd13ifvqeo0","pricing_plan_id":"cebpf4jnsgd1na2vs0mg"},{"bike_id":"bd8fce10-db60-4637-88ad-07a5a938f039","system_id":"levelo_inurba_marseille","lat":43.28632,"lon":5.3705,"is_reserved":false,"is_disabled":true,"rental_uris":{"android":"levelo://app?vid=bd8fce10-db60-4637-88ad-07a5a938f039","ios":"levelo://app?vid=bd8fce10-db60-4637-88ad-07a5a938f039"},"vehicle_type_id":"4","last_reported":1738599036,"current_range_meters":38400,"station_id":"ce4bht12rcd13ifvqi60","pricing_plan_id":"cebpf4jnsgd1na2vs0mg"},{"bike_id":"aca7f856-95b0-4e97-8a0a-cf9d567272bd","system_id":"levelo_inurba_marseille","lat":43.23063,"lon":5.35493,"is_reserved":false,"is_disabled":false,"rental_uris":{"android":"levelo://app?vid=aca7f856-95b0-4e97-8a0a-cf9d567272bd","ios":"levelo://app?vid=aca7f856-95b0-4e97-8a0a-cf9d567272bd"},"vehicle_type_id":"4","last_reported":1738599036,"current_range_meters":36400,"station_id":"cpo3342slgdg3j2ifvpg","pricing_plan_id":"cebpf4jnsgd1na2vs0mg"},{"bike_id":"d5fdd631-4613-47d3-957c-71490edf7eff","system_id":"levelo_inurba_marseille","lat":43.29578,"lon":5.367425,"is_reserved":false,"is_disabled":false,"rental_uris":{"android":"levelo://app?vid=d5fdd631-4613-47d3-957c-71490edf7eff","ios":"levelo://app?vid=d5fdd631-4613-47d3-957c-71490edf7eff"},"vehicle_type_id":"4","last_reported":1738599036,"current_range_meters":27600,"station_id":"ce4bgph2rcd13ifvqc2g","pricing_plan_id":"cebpf4jnsgd1na2vs0mg"},{"bike_id":"9d9e6714-036c-4151-8a5d-515ad00cd54b","system_id":"levelo_inurba_marseille","lat":43.23197,"lon":5.35546,"is_reserved":false,"is_disabled":false,"rental_uris":{"android":"levelo://app?vid=9d9e6714-036c-4151-8a5d-515ad00cd54b","ios":"levelo://app?vid=9d9e6714-036c-4151-8a5d-515ad00cd54b"},"vehicle_type_id":"4","last_reported":1738599036,"current_range_meters":21600,"station_id":"ce4bhu92rcd13ifvqi70","pricing_plan_id":"cebpf4jnsgd1na2vs0mg"},{"bike_id":"a0a9ff7c-65bc-459c-b1ae-c94d1bfe3e15","system_id":"levelo_inurba_marseille","lat":43.32505,"lon":5.36558,"is_reserved":false,"is_disabled":false,"rental_uris":{"android":"levelo://app?vid=a0a9ff7c-65bc-459c-b1ae-c94d1bfe3e15","ios":"levelo://app?vid=a0a9ff7c-65bc-459c-b1ae-c94d1bfe3e15"},"vehicle_type_id":"4","last_reported":1738599036,"current_range_meters":38800,"station_id":"ce4bhs12rcd13ifvqhvg","pricing_plan_id":"cebpf4jnsgd1na2vs0mg"},{"bike_id":"6f47217d-29d2-49bc-b01f-b8375fd47483","system_id":"levelo_inurba_marseille","lat":43.32375,"lon":5.3887,"is_reserved":false,"is_disabled":false,"rental_uris":{"android":"levelo://app?vid=6f47217d-29d2-49bc-b01f-b8375fd47483","ios":"levelo://app?vid=6f47217d-29d2-49bc-b01f-b8375fd47483"},"vehicle_type_id":"4","last_reported":1738599036,"current_range_meters":13600,"station_id":"ce4bhqp2rcd13ifvqhog","pricing_plan_id":"cebpf4jnsgd1na2vs0mg"},{"bike_id":"56e9681b-2d37-4b2c-957b-46ae6a15a367","system_id":"levelo_inurba_marseille","lat":43.29715,"lon":5.36605,"is_reserved":false,"is_disabled":false,"rental_uris":{"android":"levelo://app?vid=56e9681b-2d37-4b2c-957b-46ae6a15a367","ios":"levelo://app?vid=56e9681b-2d37-4b2c-957b-46ae6a15a367"},"vehicle_type_id":"4","last_reported":1738599036,"current_range_meters":32800,"station_id":"ce4bgn12rcd13ifvqbt0","pricing_plan_id":"cebpf4jnsgd1na2vs0mg"},{"bike_id":"b39173c5-b93d-42e7-aa9f-ef1b710f7b45","system_id":"levelo_inurba_marseille","lat":43.30125,"lon":5.3987,"is_reserved":false,"is_disabled":true,"rental_uris":{"android":"levelo://app?vid=b39173c5-b93d-42e7-aa9f-ef1b710f7b45","ios":"levelo://app?vid=b39173c5-b93d-42e7-aa9f-ef1b710f7b45"},"vehicle_type_id":"4","last_reported":1738599036,"current_range_meters":38800,"station_id":"ce4bh0h2rcd13ifvqd40","pricing_plan_id":"cebpf4jnsgd1na2vs0mg"},{"bike_id":"d1f73a6e-4a72-4ba1-ace0-3d4a39f9f484","system_id":"levelo_inurba_marseille","lat":43.3036,"lon":5.41883,"is_reserved":false,"is_disabled":true,"rental_uris":{"android":"levelo://app?vid=d1f73a6e-4a72-4ba1-ace0-3d4a39f9f484","ios":"levelo://app?vid=d1f73a6e-4a72-4ba1-ace0-3d4a39f9f484"},"vehicle_type_id":"4","last_reported":1738599036,"current_range_meters":37600,"station_id":"ce4bhop2rcd13ifvqh7g","pricing_plan_id":"cebpf4jnsgd1na2vs0mg"},{"bike_id":"f8245ac1-055c-4956-9505-c34c84a2fb02","system_id":"levelo_inurba_marseille","lat":43.2962,"lon":5.37151,"is_reserved":false,"is_disabled":false,"rental_uris":{"android":"levelo://app?vid=f8245ac1-055c-4956-9505-c34c84a2fb02","ios":"levelo://app?vid=f8245ac1-055c-4956-9505-c34c84a2fb02"},"vehicle_type_id":"4","last_reported":1738599036,"current_range_meters":33600,"station_id":"ce4bgnh2rcd13ifvqc0g","pricing_plan_id":"cebpf4jnsgd1na2vs0mg"},{"bike_id":"b36b92d0-39a0-4ef6-a76b-22fb5ff57844","system_id":"levelo_inurba_marseille","lat":43.27569,"lon":5.38437,"is_reserved":false,"is_disabled":false,"rental_uris":{"android":"levelo://app?vid=b36b92d0-39a0-4ef6-a76b-22fb5ff57844","ios":"levelo://app?vid=b36b92d0-39a0-4ef6-a76b-22fb5ff57844"},"vehicle_type_id":"4","last_reported":1738599036,"current_range_meters":32800,"station_id":"ce4bhh92rcd13ifvqfi0","pricing_plan_id":"cebpf4jnsgd1na2vs0mg"},{"bike_id":"b91ffbc4-acdc-4860-898c-1b8a478577d5","system_id":"levelo_inurba_marseille","lat":43.2905,"lon":5.3591,"is_reserved":false,"is_disabled":false,"rental_uris":{"android":"levelo://app?vid=b91ffbc4-acdc-4860-898c-1b8a478577d5","ios":"levelo://app?vid=b91ffbc4-acdc-4860-898c-1b8a478577d5"},"vehicle_type_id":"4","last_reported":1738599036,"current_range_meters":6400,"station_id":"ce4bha92rcd13ifvqeg0","pricing_plan_id":"cebpf4jnsgd1na2vs0mg"},{"bike_id":"cc085f5e-bb33-48f5-987b-a9e7f872c232","system_id":"levelo_inurba_marseille","lat":43.2987,"lon":5.38898,"is_reserved":false,"is_disabled":false,"rental_uris":{"android":"levelo://app?vid=cc085f5e-bb33-48f5-987b-a9e7f872c232","ios":"levelo://app?vid=cc085f5e-bb33-48f5-987b-a9e7f872c232"},"vehicle_type_id":"4","last_reported":1738599036,"current_range_meters":17200,"station_id":"ce4bh392rcd13ifvqdl0","pricing_plan_id":"cebpf4jnsgd1na2vs0mg"},{"bike_id":"7b39ed00-86df-4303-bda1-bfc0fee1e7e2","system_id":"levelo_inurba_marseille","lat":43.32451,"lon":5.45554,"is_reserved":false,"is_disabled":false,"rental_uris":{"android":"levelo://app?vid=7b39ed00-86df-4303-bda1-bfc0fee1e7e2","ios":"levelo://app?vid=7b39ed00-86df-4303-bda1-bfc0fee1e7e2"},"vehicle_type_id":"4","last_reported":1738599036,"current_range_meters":27600,"station_id":"","pricing_plan_id":"cebpf4jnsgd1na2vs0mg"},{"bike_id":"9807923f-ce8f-4aaf-a7c8-3fb77360323b","system_id":"levelo_inurba_marseille","lat":43.292701,"lon":5.368416,"is_reserved":false,"is_disabled":false,"rental_uris":{"android":"levelo://app?vid=9807923f-ce8f-4aaf-a7c8-3fb77360323b","ios":"levelo://app?vid=9807923f-ce8f-4aaf-a7c8-3fb77360323b"},"vehicle_type_id":"4","last_reported":1738599036,"current_range_meters":16400,"station_id":"ce4bhbp2rcd13ifvqesg","pricing_plan_id":"cebpf4jnsgd1na2vs0mg"},{"bike_id":"27965b13-db93-44ae-be4a-77a8d97c3b7e","system_id":"levelo_inurba_marseille","lat":43.26947,"lon":5.40232,"is_reserved":false,"is_disabled":false,"rental_uris":{"android":"levelo://app?vid=27965b13-db93-44ae-be4a-77a8d97c3b7e","ios":"levelo://app?vid=27965b13-db93-44ae-be4a-77a8d97c3b7e"},"vehicle_type_id":"4","last_reported":1738599036,"current_range_meters":38800,"station_id":"cjm6bp8fraef2m0cb0m0","pricing_plan_id":"cebpf4jnsgd1na2vs0mg"},{"bike_id":"bcd659f7-e6d4-4c28-b3f4-bf71fa0d3aee","system_id":"levelo_inurba_marseille","lat":43.31161,"lon":5.38711,"is_reserved":false,"is_disabled":false,"rental_uris":{"android":"levelo://app?vid=bcd659f7-e6d4-4c28-b3f4-bf71fa0d3aee","ios":"levelo://app?vid=bcd659f7-e6d4-4c28-b3f4-bf71fa0d3aee"},"vehicle_type_id":"4","last_reported":1738599036,"current_range_meters":39200,"station_id":"ce4bgv12rcd13ifvqcp0","pricing_plan_id":"cebpf4jnsgd1na2vs0mg"},{"bike_id":"d215c4a2-3af2-4e5d-8704-66bbf4080aad","system_id":"levelo_inurba_marseille","lat":43.25502,"lon":5.37653,"is_reserved":false,"is_disabled":false,"rental_uris":{"android":"levelo://app?vid=d215c4a2-3af2-4e5d-8704-66bbf4080aad","ios":"levelo://app?vid=d215c4a2-3af2-4e5d-8704-66bbf4080aad"},"vehicle_type_id":"4","last_reported":1738599036,"current_range_meters":33600,"station_id":"ce4bhh12rcd13ifvqff0","pricing_plan_id":"cebpf4jnsgd1na2vs0mg"},{"bike_id":"2a279012-04d4-4afc-a851-baec8fcc2312","system_id":"levelo_inurba_marseille","lat":43.28932,"lon":5.36642,"is_reserved":false,"is_disabled":false,"rental_uris":{"android":"levelo://app?vid=2a279012-04d4-4afc-a851-baec8fcc2312","ios":"levelo://app?vid=2a279012-04d4-4afc-a851-baec8fcc2312"},"vehicle_type_id":"4","last_reported":1738599036,"current_range_meters":20000,"station_id":"ce4bhap2rcd13ifvqek0","pricing_plan_id":"cebpf4jnsgd1na2vs0mg"},{"bike_id":"075acc95-5110-4937-bef5-b779d0f9cb04","system_id":"levelo_inurba_marseille","lat":43.27679,"lon":5.38917,"is_reserved":false,"is_disabled":false,"rental_uris":{"android":"levelo://app?vid=075acc95-5110-4937-bef5-b779d0f9cb04","ios":"levelo://app?vid=075acc95-5110-4937-bef5-b779d0f9cb04"},"vehicle_type_id":"4","last_reported":1738599036,"current_range_meters":22000,"station_id":"ce4bhi12rcd13ifvqfo0","pricing_plan_id":"cebpf4jnsgd1na2vs0mg"},{"bike_id":"c7efea0b-41ab-47c4-93f0-43a53000a63b","system_id":"levelo_inurba_marseille","lat":43.23073,"lon":5.35496,"is_reserved":false,"is_disabled":false,"rental_uris":{"android":"levelo://app?vid=c7efea0b-41ab-47c4-93f0-43a53000a63b","ios":"levelo://app?vid=c7efea0b-41ab-47c4-93f0-43a53000a63b"},"vehicle_type_id":"4","last_reported":1738599036,"current_range_meters":38000,"station_id":"cpo3342slgdg3j2ifvpg","pricing_plan_id":"cebpf4jnsgd1na2vs0mg"},{"bike_id":"bf591b3b-7079-42f6-a6f9-3b0920520981","system_id":"levelo_inurba_marseille","lat":43.28926,"lon":5.38382,"is_reserved":false,"is_disabled":false,"rental_uris":{"android":"levelo://app?vid=bf591b3b-7079-42f6-a6f9-3b0920520981","ios":"levelo://app?vid=bf591b3b-7079-42f6-a6f9-3b0920520981"},"vehicle_type_id":"4","last_reported":1738599036,"current_range_meters":19600,"station_id":"ce4bh612rcd13ifvqe6g","pricing_plan_id":"cebpf4jnsgd1na2vs0mg"},{"bike_id":"324c2be5-1d25-4100-9086-8cdc99db60dc","system_id":"levelo_inurba_marseille","lat":43.258977,"lon":5.408543,"is_reserved":false,"is_disabled":true,"rental_uris":{"android":"levelo://app?vid=324c2be5-1d25-4100-9086-8cdc99db60dc","ios":"levelo://app?vid=324c2be5-1d25-4100-9086-8cdc99db60dc"},"vehicle_type_id":"4","last_reported":1738599036,"current_range_meters":800,"station_id":"ce4bhm92rcd13ifvqglg","pricing_plan_id":"cebpf4jnsgd1na2vs0mg"},{"bike_id":"1827f861-2491-418f-8ab1-b9c7b413bb8d","system_id":"levelo_inurba_marseille","lat":43.27718,"lon":5.38869,"is_reserved":false,"is_disabled":false,"rental_uris":{"android":"levelo://app?vid=1827f861-2491-418f-8ab1-b9c7b413bb8d","ios":"levelo://app?vid=1827f861-2491-418f-8ab1-b9c7b413bb8d"},"vehicle_type_id":"4","last_reported":1738599036,"current_range_meters":38800,"station_id":"ce4bhi12rcd13ifvqfo0","pricing_plan_id":"cebpf4jnsgd1na2vs0mg"},{"bike_id":"57a8390d-f1aa-4fb6-92b1-3332dc33e560","system_id":"levelo_inurba_marseille","lat":43.26961,"lon":5.38635,"is_reserved":false,"is_disabled":false,"rental_uris":{"android":"levelo://app?vid=57a8390d-f1aa-4fb6-92b1-3332dc33e560","ios":"levelo://app?vid=57a8390d-f1aa-4fb6-92b1-3332dc33e560"},"vehicle_type_id":"4","last_reported":1738599036,"current_range_meters":15200,"station_id":"ce4bhh92rcd13ifvqfh0","pricing_plan_id":"cebpf4jnsgd1na2vs0mg"},{"bike_id":"439c2536-2abe-4087-b8ca-646055d51509","system_id":"levelo_inurba_marseille","lat":43.27072,"lon":5.4024,"is_reserved":false,"is_disabled":false,"rental_uris":{"android":"levelo://app?vid=439c2536-2abe-4087-b8ca-646055d51509","ios":"levelo://app?vid=439c2536-2abe-4087-b8ca-646055d51509"},"vehicle_type_id":"4","last_reported":1738599036,"current_range_meters":25600,"station_id":"ce4bhk92rcd13ifvqgc0","pricing_plan_id":"cebpf4jnsgd1na2vs0mg"},{"bike_id":"c7fb52df-3a28-4ba5-9a3a-d08ba36b5091","system_id":"levelo_inurba_marseille","lat":43.2953,"lon":5.39033,"is_reserved":false,"is_disabled":false,"rental_uris":{"android":"levelo://app?vid=c7fb52df-3a28-4ba5-9a3a-d08ba36b5091","ios":"levelo://app?vid=c7fb52df-3a28-4ba5-9a3a-d08ba36b5091"},"vehicle_type_id":"4","last_reported":1738599036,"current_range_meters":16800,"station_id":"ce4bh3p2rcd13ifvqdp0","pricing_plan_id":"cebpf4jnsgd1na2vs0mg"},{"bike_id":"6a1faf97-d70f-4d4b-9839-7384547f05f7","system_id":"levelo_inurba_marseille","lat":43.27306,"lon":5.39074,"is_reserved":false,"is_disabled":false,"rental_uris":{"android":"levelo://app?vid=6a1faf97-d70f-4d4b-9839-7384547f05f7","ios":"levelo://app?vid=6a1faf97-d70f-4d4b-9839-7384547f05f7"},"vehicle_type_id":"4","last_reported":1738599036,"current_range_meters":38800,"station_id":"ce4bhgp2rcd13ifvqfe0","pricing_plan_id":"cebpf4jnsgd1na2vs0mg"},{"bike_id":"f401b5cd-ff4a-427b-873b-200db4b23c22","system_id":"levelo_inurba_marseille","lat":43.28966,"lon":5.35607,"is_reserved":false,"is_disabled":false,"rental_uris":{"android":"levelo://app?vid=f401b5cd-ff4a-427b-873b-200db4b23c22","ios":"levelo://app?vid=f401b5cd-ff4a-427b-873b-200db4b23c22"},"vehicle_type_id":"4","last_reported":1738599036,"current_range_meters":31200,"station_id":"ce4bhb92rcd13ifvqen0","pricing_plan_id":"cebpf4jnsgd1na2vs0mg"},{"bike_id":"7f2913ca-a6c1-4852-933f-cbccf5dd14c5","system_id":"levelo_inurba_marseille","lat":43.29797,"lon":5.37113,"is_reserved":false,"is_disabled":false,"rental_uris":{"android":"levelo://app?vid=7f2913ca-a6c1-4852-933f-cbccf5dd14c5","ios":"levelo://app?vid=7f2913ca-a6c1-4852-933f-cbccf5dd14c5"},"vehicle_type_id":"4","last_reported":1738599036,"current_range_meters":20400,"station_id":"ce4bgop2rcd13ifvqc1g","pricing_plan_id":"cebpf4jnsgd1na2vs0mg"},{"bike_id":"e5239f3f-82cc-4029-b568-6a868bc77d31","system_id":"levelo_inurba_marseille","lat":43.32534,"lon":5.41436,"is_reserved":false,"is_disabled":true,"rental_uris":{"android":"levelo://app?vid=e5239f3f-82cc-4029-b568-6a868bc77d31","ios":"levelo://app?vid=e5239f3f-82cc-4029-b568-6a868bc77d31"},"vehicle_type_id":"4","last_reported":1738599036,"current_range_meters":800,"station_id":"ce4bhq12rcd13ifvqhhg","pricing_plan_id":"cebpf4jnsgd1na2vs0mg"},{"bike_id":"731ea432-365a-4220-a341-808542e3e8f8","system_id":"levelo_inurba_marseille","lat":43.27061,"lon":5.40256,"is_reserved":false,"is_disabled":false,"rental_uris":{"android":"levelo://app?vid=731ea432-365a-4220-a341-808542e3e8f8","ios":"levelo://app?vid=731ea432-365a-4220-a341-808542e3e8f8"},"vehicle_type_id":"4","last_reported":1738599036,"current_range_meters":34000,"station_id":"ce4bhk92rcd13ifvqgc0","pricing_plan_id":"cebpf4jnsgd1na2vs0mg"},{"bike_id":"ce6562d8-c617-43a3-a1b9-91ef458d490e","system_id":"levelo_inurba_marseille","lat":43.26809,"lon":5.40263,"is_reserved":false,"is_disabled":false,"rental_uris":{"android":"levelo://app?vid=ce6562d8-c617-43a3-a1b9-91ef458d490e","ios":"levelo://app?vid=ce6562d8-c617-43a3-a1b9-91ef458d490e"},"vehicle_type_id":"4","last_reported":1738599036,"current_range_meters":39200,"station_id":"ce501612rcd8frsf0b60","pricing_plan_id":"cebpf4jnsgd1na2vs0mg"},{"bike_id":"307e1253-0804-4da9-b3b5-7eaff95a0ccd","system_id":"levelo_inurba_marseille","lat":43.26496,"lon":5.39539,"is_reserved":false,"is_disabled":false,"rental_uris":{"android":"levelo://app?vid=307e1253-0804-4da9-b3b5-7eaff95a0ccd","ios":"levelo://app?vid=307e1253-0804-4da9-b3b5-7eaff95a0ccd"},"vehicle_type_id":"4","last_reported":1738599036,"current_range_meters":26800,"station_id":"ce4bhi12rcd13ifvqfq0","pricing_plan_id":"cebpf4jnsgd1na2vs0mg"},{"bike_id":"932158f8-ac77-401e-bf22-bf4d8206db30","system_id":"levelo_inurba_marseille","lat":43.27821,"lon":5.40711,"is_reserved":false,"is_disabled":false,"rental_uris":{"android":"levelo://app?vid=932158f8-ac77-401e-bf22-bf4d8206db30","ios":"levelo://app?vid=932158f8-ac77-401e-bf22-bf4d8206db30"},"vehicle_type_id":"4","last_reported":1738599036,"current_range_meters":38000,"station_id":"ce4bhnh2rcd13ifvqgtg","pricing_plan_id":"cebpf4jnsgd1na2vs0mg"},{"bike_id":"5774c46f-e2a3-49a6-b936-3bf1b62a1665","system_id":"levelo_inurba_marseille","lat":43.32121,"lon":5.36768,"is_reserved":false,"is_disabled":false,"rental_uris":{"android":"levelo://app?vid=5774c46f-e2a3-49a6-b936-3bf1b62a1665","ios":"levelo://app?vid=5774c46f-e2a3-49a6-b936-3bf1b62a1665"},"vehicle_type_id":"4","last_reported":1738599036,"current_range_meters":18000,"station_id":"ce4bhrh2rcd13ifvqhug","pricing_plan_id":"cebpf4jnsgd1na2vs0mg"},{"bike_id":"6061a8f4-6e81-41b8-9335-b72f7b65ae20","system_id":"levelo_inurba_marseille","lat":43.24641,"lon":5.38891,"is_reserved":false,"is_disabled":false,"rental_uris":{"android":"levelo://app?vid=6061a8f4-6e81-41b8-9335-b72f7b65ae20","ios":"levelo://app?vid=6061a8f4-6e81-41b8-9335-b72f7b65ae20"},"vehicle_type_id":"4","last_reported":1738599036,"current_range_meters":36800,"station_id":"ce4bhg12rcd13ifvqf60","pricing_plan_id":"cebpf4jnsgd1na2vs0mg"},{"bike_id":"3a1b4575-79bd-4cd8-9e3a-0b234dae4b8b","system_id":"levelo_inurba_marseille","lat":43.27375,"lon":5.36257,"is_reserved":false,"is_disabled":false,"rental_uris":{"android":"levelo://app?vid=3a1b4575-79bd-4cd8-9e3a-0b234dae4b8b","ios":"levelo://app?vid=3a1b4575-79bd-4cd8-9e3a-0b234dae4b8b"},"vehicle_type_id":"4","last_reported":1738599036,"current_range_meters":20800,"station_id":"ce4bhbh2rcd13ifvqeo0","pricing_plan_id":"cebpf4jnsgd1na2vs0mg"},{"bike_id":"22c1ccea-64c9-4dfe-8739-1ea0a386562b","system_id":"levelo_inurba_marseille","lat":43.30596,"lon":5.39364,"is_reserved":false,"is_disabled":true,"rental_uris":{"android":"levelo://app?vid=22c1ccea-64c9-4dfe-8739-1ea0a386562b","ios":"levelo://app?vid=22c1ccea-64c9-4dfe-8739-1ea0a386562b"},"vehicle_type_id":"4","last_reported":1738599036,"current_range_meters":16800,"station_id":"ce4bh0p2rcd13ifvqd80","pricing_plan_id":"cebpf4jnsgd1na2vs0mg"},{"bike_id":"2dc68269-6bf2-42bf-9a1e-0a428aa5b7f9","system_id":"levelo_inurba_marseille","lat":43.29196,"lon":5.35801,"is_reserved":false,"is_disabled":false,"rental_uris":{"android":"levelo://app?vid=2dc68269-6bf2-42bf-9a1e-0a428aa5b7f9","ios":"levelo://app?vid=2dc68269-6bf2-42bf-9a1e-0a428aa5b7f9"},"vehicle_type_id":"4","last_reported":1738599036,"current_range_meters":18000,"station_id":"ce4bhb12rcd13ifvqel0","pricing_plan_id":"cebpf4jnsgd1na2vs0mg"},{"bike_id":"9efcd408-8eac-4007-8d53-3090353aab77","system_id":"levelo_inurba_marseille","lat":43.24396,"lon":5.3706,"is_reserved":false,"is_disabled":false,"rental_uris":{"android":"levelo://app?vid=9efcd408-8eac-4007-8d53-3090353aab77","ios":"levelo://app?vid=9efcd408-8eac-4007-8d53-3090353aab77"},"vehicle_type_id":"4","last_reported":1738599036,"current_range_meters":37600,"station_id":"ce4bhhh2rcd13ifvqfk0","pricing_plan_id":"cebpf4jnsgd1na2vs0mg"},{"bike_id":"6a92b2ac-9bcc-4050-afd7-40445ea2384b","system_id":"levelo_inurba_marseille","lat":43.33032,"lon":5.39036,"is_reserved":false,"is_disabled":false,"rental_uris":{"android":"levelo://app?vid=6a92b2ac-9bcc-4050-afd7-40445ea2384b","ios":"levelo://app?vid=6a92b2ac-9bcc-4050-afd7-40445ea2384b"},"vehicle_type_id":"4","last_reported":1738599036,"current_range_meters":28800,"station_id":"ce4bhr92rcd13ifvqhrg","pricing_plan_id":"cebpf4jnsgd1na2vs0mg"},{"bike_id":"adc38dc3-6d6a-4e21-866c-c99f433616fb","system_id":"levelo_inurba_marseille","lat":43.27623,"lon":5.36099,"is_reserved":false,"is_disabled":false,"rental_uris":{"android":"levelo://app?vid=adc38dc3-6d6a-4e21-866c-c99f433616fb","ios":"levelo://app?vid=adc38dc3-6d6a-4e21-866c-c99f433616fb"},"vehicle_type_id":"4","last_reported":1738599036,"current_range_meters":37600,"station_id":"ce4bgj92rcd13ifvqbe0","pricing_plan_id":"cebpf4jnsgd1na2vs0mg"},{"bike_id":"b29625a2-d86c-461e-818d-f5f264a3e0ae","system_id":"levelo_inurba_marseille","lat":43.30887,"lon":5.39623,"is_reserved":false,"is_disabled":false,"rental_uris":{"android":"levelo://app?vid=b29625a2-d86c-461e-818d-f5f264a3e0ae","ios":"levelo://app?vid=b29625a2-d86c-461e-818d-f5f264a3e0ae"},"vehicle_type_id":"4","last_reported":1738599036,"current_range_meters":39200,"station_id":"ce4bh012rcd13ifvqcv0","pricing_plan_id":"cebpf4jnsgd1na2vs0mg"},{"bike_id":"86a1dcf5-830e-478b-b8a1-7c70a20e480c","system_id":"levelo_inurba_marseille","lat":43.2322,"lon":5.35535,"is_reserved":false,"is_disabled":false,"rental_uris":{"android":"levelo://app?vid=86a1dcf5-830e-478b-b8a1-7c70a20e480c","ios":"levelo://app?vid=86a1dcf5-830e-478b-b8a1-7c70a20e480c"},"vehicle_type_id":"4","last_reported":1738599036,"current_range_meters":39200,"station_id":"ce4bhu92rcd13ifvqi70","pricing_plan_id":"cebpf4jnsgd1na2vs0mg"},{"bike_id":"e16731d8-4005-4483-9477-6f1a65b4185e","system_id":"levelo_inurba_marseille","lat":43.31484,"lon":5.3731,"is_reserved":false,"is_disabled":false,"rental_uris":{"android":"levelo://app?vid=e16731d8-4005-4483-9477-6f1a65b4185e","ios":"levelo://app?vid=e16731d8-4005-4483-9477-6f1a65b4185e"},"vehicle_type_id":"4","last_reported":1738599036,"current_range_meters":14000,"station_id":"ce4bgt12rcd13ifvqcd0","pricing_plan_id":"cebpf4jnsgd1na2vs0mg"},{"bike_id":"2537067e-a1a9-4aba-a25e-dbdd2c3acc02","system_id":"levelo_inurba_marseille","lat":43.32098,"lon":5.44523,"is_reserved":false,"is_disabled":true,"rental_uris":{"android":"levelo://app?vid=2537067e-a1a9-4aba-a25e-dbdd2c3acc02","ios":"levelo://app?vid=2537067e-a1a9-4aba-a25e-dbdd2c3acc02"},"vehicle_type_id":"4","last_reported":1738599036,"current_range_meters":1200,"station_id":"","pricing_plan_id":"cebpf4jnsgd1na2vs0mg"},{"bike_id":"3a4c60fe-95a4-4b93-abc6-4dd384eec241","system_id":"levelo_inurba_marseille","lat":43.23158,"lon":5.43701,"is_reserved":false,"is_disabled":false,"rental_uris":{"android":"levelo://app?vid=3a4c60fe-95a4-4b93-abc6-4dd384eec241","ios":"levelo://app?vid=3a4c60fe-95a4-4b93-abc6-4dd384eec241"},"vehicle_type_id":"4","last_reported":1738599036,"current_range_meters":18800,"station_id":"ce4bhmp2rcd13ifvqgog","pricing_plan_id":"cebpf4jnsgd1na2vs0mg"},{"bike_id":"751dfda9-78e7-44d5-96f7-7ac97d6e4e89","system_id":"levelo_inurba_marseille","lat":43.27205,"lon":5.39168,"is_reserved":false,"is_disabled":false,"rental_uris":{"android":"levelo://app?vid=751dfda9-78e7-44d5-96f7-7ac97d6e4e89","ios":"levelo://app?vid=751dfda9-78e7-44d5-96f7-7ac97d6e4e89"},"vehicle_type_id":"4","last_reported":1738599036,"current_range_meters":33200,"station_id":"ce4bhhp2rcd13ifvqfm0","pricing_plan_id":"cebpf4jnsgd1na2vs0mg"},{"bike_id":"b0829d45-0881-4cd4-adef-7befcf02a401","system_id":"levelo_inurba_marseille","lat":43.28166,"lon":5.42641,"is_reserved":false,"is_disabled":false,"rental_uris":{"android":"levelo://app?vid=b0829d45-0881-4cd4-adef-7befcf02a401","ios":"levelo://app?vid=b0829d45-0881-4cd4-adef-7befcf02a401"},"vehicle_type_id":"4","last_reported":1738599036,"current_range_meters":37600,"station_id":"ce4bhnh2rcd13ifvqgug","pricing_plan_id":"cebpf4jnsgd1na2vs0mg"},{"bike_id":"5c42e792-8944-4dfe-a1b6-39c0f5d5981c","system_id":"levelo_inurba_marseille","lat":43.26223,"lon":5.40438,"is_reserved":false,"is_disabled":false,"rental_uris":{"android":"levelo://app?vid=5c42e792-8944-4dfe-a1b6-39c0f5d5981c","ios":"levelo://app?vid=5c42e792-8944-4dfe-a1b6-39c0f5d5981c"},"vehicle_type_id":"4","last_reported":1738599036,"current_range_meters":24800,"station_id":"ce4bhmh2rcd13ifvqgmg","pricing_plan_id":"cebpf4jnsgd1na2vs0mg"},