{"last_updated":1769073789,"ttl":60,"version":"2.2","data":{"bikes":[{"bike_id":"f73788f7-dec5-4308-a431-6e346b811946","system_id":"levelo_inurba_marseille","lat":43.30203,"lon":5.38027,"is_reserved":false,"is_disabled":false,"rental_uris":{"android":"levelo://app?vid=f73788f7-dec5-4308-a431-6e346b811946","ios":"levelo://app?vid=f73788f7-dec5-4308-a431-6e346b811946"},"vehicle_type_id":"4","last_reported":1769073790,"current_range_meters":2800,"station_id":"","pricing_plan_id":"cebpf4jnsgd1na2vs0mg"},{"bike_id":"5bdad711-817a-42cc-84b1-10d4beae812a","system_id":"levelo_inurba_marseille","lat":43.22558,"lon":5.41645,"is_reserved":false,"is_disabled":false,"rental_uris":{"android":"levelo://app?vid=5bdad711-817a-42cc-84b1-10d4beae812a","ios":"levelo://app?vid=5bdad711-817a-42cc-84b1-10d4beae812a"},"vehicle_type_id":"4","last_reported":1769073790,"current_range_meters":2800,"station_id":"st_d2o4gvlbi1j2169b742g","pricing_plan_id":"cebpf4jnsgd1na2vs0mg"},{"bike_id":"4d9fb050-4361-4bab-ba3c-960b4264587c","system_id":"levelo_inurba_marseille","lat":43.32506,"lon":5.36202,"is_reserved":false,"is_disabled":false,"rental_uris":{"android":"levelo://app?vid=4d9fb050-4361-4bab-ba3c-960b4264587c","ios":"levelo://app?vid=4d9fb050-4361-4bab-ba3c-960b4264587c"},"vehicle_type_id":"4","last_reported":1769073790,"current_range_meters":2800,"station_id":"","pricing_plan_id":"cebpf4jnsgd1na2vs0mg"},{"bike_id":"19e8b27e-132e-46a2-acc6-21e8f573234b","system_id":"levelo_inurba_marseille","lat":43.25717,"lon":5.411159,"is_reserved":false,"is_disabled":false,"rental_uris":{"android":"levelo://app?vid=19e8b27e-132e-46a2-acc6-21e8f573234b","ios":"levelo://app?vid=19e8b27e-132e-46a2-acc6-21e8f573234b"},"vehicle_type_id":"4","last_reported":1769073790,"current_range_meters":2800,"station_id":"ce4bhkp2rcd13ifvqgd0","pricing_plan_id":"cebpf4jnsgd1na2vs0mg"},{"bike_id":"46cffd1a-5f6c-4e10-84f0-6a57bee4df90","system_id":"levelo_inurba_marseille","lat":43.29543,"lon":5.3751,"is_reserved":false,"is_disabled":false,"rental_uris":{"android":"levelo://app?vid=46cffd1a-5f6c-4e10-84f0-6a57bee4df90","ios":"levelo://app?vid=46cffd1a-5f6c-4e10-84f0-6a57bee4df90"},"vehicle_type_id":"4","last_reported":1769073790,"current_range_meters":2800,"station_id":"ce4bgkp2rcd13ifvqbmg","pricing_plan_id":"cebpf4jnsgd1na2vs0mg"},{"bike_id":"8071b732-6495-4355-8bd2-d391f59dfffd","system_id":"levelo_inurba_marseille","lat":43.24381,"lon":5.37062,"is_reserved":false,"is_disabled":false,"rental_uris":{"android":"levelo://app?vid=8071b732-6495-4355-8bd2-d391f59dfffd","ios":"levelo://app?vid=8071b732-6495-4355-8bd2-d391f59dfffd"},"vehicle_type_id":"4","last_reported":1769073790,"current_range_meters":2800,"station_id":"ce4bhhh2rcd13ifvqfk0","pricing_plan_id":"cebpf4jnsgd1na2vs0mg"},{"bike_id":"b89a9141-29ab-4762-aaa2-9040ea7f768e","system_id":"levelo_inurba_marseille","lat":43.24995,"lon":5.38934,"is_reserved":false,"is_disabled":false,"rental_uris":{"android":"levelo://app?vid=b89a9141-29ab-4762-aaa2-9040ea7f768e","ios":"levelo://app?vid=b89a9141-29ab-4762-aaa2-9040ea7f768e"},"vehicle_type_id":"4","last_reported":1769073790,"current_range_meters":2800,"station_id":"ce4bhgp2rcd13ifvqfd0","pricing_plan_id":"cebpf4jnsgd1na2vs0mg"},{"bike_id":"35e70889-7f98-4486-aef5-2251117a1687","system_id":"levelo_inurba_marseille","lat":43.27206,"lon":5.39194,"is_reserved":false,"is_disabled":false,"rental_uris":{"android":"levelo://app?vid=35e70889-7f98-4486-aef5-2251117a1687","ios":"levelo://app?vid=35e70889-7f98-4486-aef5-2251117a1687"},"vehicle_type_id":"4","last_reported":1769073790,"current_range_meters":2800,"station_id":"ce4bhhp2rcd13ifvqfm0","pricing_plan_id":"cebpf4jnsgd1na2vs0mg"},{"bike_id":"362c135d-7b02-4c6a-8049-9faca3a8c7c9","system_id":"levelo_inurba_marseille","lat":43.24075,"lon":5.37758,"is_reserved":false,"is_disabled":false,"rental_uris":{"android":"levelo://app?vid=362c135d-7b02-4c6a-8049-9faca3a8c7c9","ios":"levelo://app?vid=362c135d-7b02-4c6a-8049-9faca3a8c7c9"},"vehicle_type_id":"4","last_reported":1769073790,"current_range_meters":2800,"station_id":"ce4bhnp2rcd13ifvqgvg","pricing_plan_id":"cebpf4jnsgd1na2vs0mg"},{"bike_id":"09708090-eb01-48c4-a317-0b7bbbd48bc6","system_id":"levelo_inurba_marseille","lat":43.27669,"lon":5.36159,"is_reserved":false,"is_disabled":false,"rental_uris":{"android":"levelo://app?vid=09708090-eb01-48c4-a317-0b7bbbd48bc6","ios":"levelo://app?vid=09708090-eb01-48c4-a317-0b7bbbd48bc6"},"vehicle_type_id":"4","last_reported":1769073790,"current_range_meters":2800,"station_id":"","pricing_plan_id":"cebpf4jnsgd1na2vs0mg"},{"bike_id":"b1441a0e-73f3-4961-90cb-0ae023ade61a","system_id":"levelo_inurba_marseille","lat":43.24077,"lon":5.37758,"is_reserved":false,"is_disabled":false,"rental_uris":{"android":"levelo://app?vid=b1441a0e-73f3-4961-90cb-0ae023ade61a","ios":"levelo://app?vid=b1441a0e-73f3-4961-90cb-0ae023ade61a"},"vehicle_type_id":"4","last_reported":1769073790,"current_range_meters":2800,"station_id":"ce4bhnp2rcd13ifvqgvg","pricing_plan_id":"cebpf4jnsgd1na2vs0mg"},{"bike_id":"11d53824-d0f2-43c4-b0ef-ddd716020813","system_id":"levelo_inurba_marseille","lat":43.26807,"lon":5.39403,"is_reserved":false,"is_disabled":false,"rental_uris":{"android":"levelo://app?vid=11d53824-d0f2-43c4-b0ef-ddd716020813","ios":"levelo://app?vid=11d53824-d0f2-43c4-b0ef-ddd716020813"},"vehicle_type_id":"4","last_reported":1769073790,"current_range_meters":2800,"station_id":"ce4bhh12rcd13ifvqfg0","pricing_plan_id":"cebpf4jnsgd1na2vs0mg"},{"bike_id":"aaac608a-0e4d-4a83-94bd-7a1924af0522","system_id":"levelo_inurba_marseille","lat":43.274875,"lon":5.424549,"is_reserved":false,"is_disabled":false,"rental_uris":{"android":"levelo://app?vid=aaac608a-0e4d-4a83-94bd-7a1924af0522","ios":"levelo://app?vid=aaac608a-0e4d-4a83-94bd-7a1924af0522"},"vehicle_type_id":"4","last_reported":1769073790,"current_range_meters":2800,"station_id":"ce4bhn92rcd13ifvqgrg","pricing_plan_id":"cebpf4jnsgd1na2vs0mg"},{"bike_id":"cd656310-4221-426f-b1a2-42610d0b025b","system_id":"levelo_inurba_marseille","lat":43.23777,"lon":5.36627,"is_reserved":false,"is_disabled":false,"rental_uris":{"android":"levelo://app?vid=cd656310-4221-426f-b1a2-42610d0b025b","ios":"levelo://app?vid=cd656310-4221-426f-b1a2-42610d0b025b"},"vehicle_type_id":"4","last_reported":1769073790,"current_range_meters":3200,"station_id":"st_d3nk18o9ro0c73en2l3g","pricing_plan_id":"cebpf4jnsgd1na2vs0mg"},{"bike_id":"c04e4d62-6c27-4f6c-abd3-a24ebb249ccf","system_id":"levelo_inurba_marseille","lat":43.27493,"lon":5.42448,"is_reserved":false,"is_disabled":false,"rental_uris":{"android":"levelo://app?vid=c04e4d62-6c27-4f6c-abd3-a24ebb249ccf","ios":"levelo://app?vid=c04e4d62-6c27-4f6c-abd3-a24ebb249ccf"},"vehicle_type_id":"4","last_reported":1769073790,"current_range_meters":3200,"station_id":"ce4bhn92rcd13ifvqgrg","pricing_plan_id":"cebpf4jnsgd1na2vs0mg"},{"bike_id":"524d578e-a05d-4e3b-a710-025f60cee79e","system_id":"levelo_inurba_marseille","lat":43.307776,"lon":5.376487,"is_reserved":false,"is_disabled":false,"rental_uris":{"android":"levelo://app?vid=524d578e-a05d-4e3b-a710-025f60cee79e","ios":"levelo://app?vid=524d578e-a05d-4e3b-a710-025f60cee79e"},"vehicle_type_id":"4","last_reported":1769073790,"current_range_meters":3200,"station_id":"ce4bgv92rcd13ifvqcq0","pricing_plan_id":"cebpf4jnsgd1na2vs0mg"},{"bike_id":"69a3e079-db98-4c4a-8d8e-3ea75b645ae7","system_id":"levelo_inurba_marseille","lat":43.25122,"lon":5.40321,"is_reserved":false,"is_disabled":false,"rental_uris":{"android":"levelo://app?vid=69a3e079-db98-4c4a-8d8e-3ea75b645ae7","ios":"levelo://app?vid=69a3e079-db98-4c4a-8d8e-3ea75b645ae7"},"vehicle_type_id":"4","last_reported":1769073790,"current_range_meters":3200,"station_id":"ce4bhlh2rcd13ifvqgig","pricing_plan_id":"cebpf4jnsgd1na2vs0mg"},{"bike_id":"f879d4ed-4ebf-4e9e-891e-ab51810595d5","system_id":"levelo_inurba_marseille","lat":43.3254,"lon":5.41427,"is_reserved":false,"is_disabled":false,"rental_uris":{"android":"levelo://app?vid=f879d4ed-4ebf-4e9e-891e-ab51810595d5","ios":"levelo://app?vid=f879d4ed-4ebf-4e9e-891e-ab51810595d5"},"vehicle_type_id":"4","last_reported":1769073790,"current_range_meters":3200,"station_id":"ce4bhq12rcd13ifvqhhg","pricing_plan_id":"cebpf4jnsgd1na2vs0mg"},{"bike_id":"4e266928-91a4-475e-9119-7fc25f43b254","system_id":"levelo_inurba_marseille","lat":43.30919,"lon":5.36854,"is_reserved":false,"is_disabled":false,"rental_uris":{"android":"levelo://app?vid=4e266928-91a4-475e-9119-7fc25f43b254","ios":"levelo://app?vid=4e266928-91a4-475e-9119-7fc25f43b254"},"vehicle_type_id":"4","last_reported":1769073790,"current_range_meters":3200,"station_id":"ce4bgn92rcd13ifvqbvg","pricing_plan_id":"cebpf4jnsgd1na2vs0mg"},{"bike_id":"c058b21a-c4a6-4ded-bc5b-9ebe98a1d909","system_id":"levelo_inurba_marseille","lat":43.295904,"lon":5.380993,"is_reserved":false,"is_disabled":false,"rental_uris":{"android":"levelo://app?vid=c058b21a-c4a6-4ded-bc5b-9ebe98a1d909","ios":"levelo://app?vid=c058b21a-c4a6-4ded-bc5b-9ebe98a1d909"},"vehicle_type_id":"4","last_reported":1769073790,"current_range_meters":3200,"station_id":"ce4bgl12rcd13ifvqbo0","pricing_plan_id":"cebpf4jnsgd1na2vs0mg"},{"bike_id":"31c21be6-18ca-494d-8d01-2f205767068d","system_id":"levelo_inurba_marseille","lat":43.31921,"lon":5.37338,"is_reserved":false,"is_disabled":false,"rental_uris":{"android":"levelo://app?vid=31c21be6-18ca-494d-8d01-2f205767068d","ios":"levelo://app?vid=31c21be6-18ca-494d-8d01-2f205767068d"},"vehicle_type_id":"4","last_reported":1769073790,"current_range_meters":3200,"station_id":"","pricing_plan_id":"cebpf4jnsgd1na2vs0mg"},{"bike_id":"e6df6fb7-994b-4037-99d6-76175fe9a7d0","system_id":"levelo_inurba_marseille","lat":43.231837,"lon":5.399941,"is_reserved":false,"is_disabled":false,"rental_uris":{"android":"levelo://app?vid=e6df6fb7-994b-4037-99d6-76175fe9a7d0","ios":"levelo://app?vid=e6df6fb7-994b-4037-99d6-76175fe9a7d0"},"vehicle_type_id":"4","last_reported":1769073790,"current_range_meters":3200,"station_id":"ce4bhn12rcd13ifvqgqg","pricing_plan_id":"cebpf4jnsgd1na2vs0mg"},{"bike_id":"87a60ae1-0c1b-4a5c-ab94-43b362e8ec42","system_id":"levelo_inurba_marseille","lat":43.295917,"lon":5.376526,"is_reserved":false,"is_disabled":false,"rental_uris":{"android":"levelo://app?vid=87a60ae1-0c1b-4a5c-ab94-43b362e8ec42","ios":"levelo://app?vid=87a60ae1-0c1b-4a5c-ab94-43b362e8ec42"},"vehicle_type_id":"4","last_reported":1769073790,"current_range_meters":3200,"station_id":"ce4bgi12rcd13ifvqb70","pricing_plan_id":"cebpf4jnsgd1na2vs0mg"},{"bike_id":"331e6e1a-1c1c-4408-b8db-ca9192f5c573","system_id":"levelo_inurba_marseille","lat":43.30914,"lon":5.36843,"is_reserved":false,"is_disabled":false,"rental_uris":{"android":"levelo://app?vid=331e6e1a-1c1c-4408-b8db-ca9192f5c573","ios":"levelo://app?vid=331e6e1a-1c1c-4408-b8db-ca9192f5c573"},"vehicle_type_id":"4","last_reported":1769073790,"current_range_meters":3200,"station_id":"ce4bgn92rcd13ifvqbvg","pricing_plan_id":"cebpf4jnsgd1na2vs0mg"},{"bike_id":"cb6814fc-ea38-4a95-8242-56aa61d84e9e","system_id":"levelo_inurba_marseille","lat":43.26698,"lon":5.38251,"is_reserved":false,"is_disabled":false,"rental_uris":{"android":"levelo://app?vid=cb6814fc-ea38-4a95-8242-56aa61d84e9e","ios":"levelo://app?vid=cb6814fc-ea38-4a95-8242-56aa61d84e9e"},"vehicle_type_id":"4","last_reported":1769073790,"current_range_meters":3200,"station_id":"ce4bhg92rcd13ifvqf90","pricing_plan_id":"cebpf4jnsgd1na2vs0mg"},{"bike_id":"4c50fafa-34d1-40d1-afd4-1321c9262efd","system_id":"levelo_inurba_marseille","lat":43.32538,"lon":5.41424,"is_reserved":false,"is_disabled":false,"rental_uris":{"android":"levelo://app?vid=4c50fafa-34d1-40d1-afd4-1321c9262efd","ios":"levelo://app?vid=4c50fafa-34d1-40d1-afd4-1321c9262efd"},"vehicle_type_id":"4","last_reported":1769073790,"current_range_meters":3200,"station_id":"ce4bhq12rcd13ifvqhhg","pricing_plan_id":"cebpf4jnsgd1na2vs0mg"},{"bike_id":"dfb6b791-badd-4621-9306-ea3c833e2455","system_id":"levelo_inurba_marseille","lat":43.32771,"lon":5.40682,"is_reserved":false,"is_disabled":false,"rental_uris":{"android":"levelo://app?vid=dfb6b791-badd-4621-9306-ea3c833e2455","ios":"levelo://app?vid=dfb6b791-badd-4621-9306-ea3c833e2455"},"vehicle_type_id":"4","last_reported":1769073790,"current_range_meters":3200,"station_id":"","pricing_plan_id":"cebpf4jnsgd1na2vs0mg"},{"bike_id":"f09c06aa-a05d-4b00-b228-d8bee2b62b4f","system_id":"levelo_inurba_marseille","lat":43.32335,"lon":5.3671,"is_reserved":false,"is_disabled":false,"rental_uris":{"android":"levelo://app?vid=f09c06aa-a05d-4b00-b228-d8bee2b62b4f","ios":"levelo://app?vid=f09c06aa-a05d-4b00-b228-d8bee2b62b4f"},"vehicle_type_id":"4","last_reported":1769073790,"current_range_meters":3600,"station_id":"ce4bhsh2rcd13ifvqi2g","pricing_plan_id":"cebpf4jnsgd1na2vs0mg"},{"bike_id":"99d65f09-c0e6-4f0f-b72f-6e110c0f1bd4","system_id":"levelo_inurba_marseille","lat":43.29019,"lon":5.37586,"is_reserved":false,"is_disabled":false,"rental_uris":{"android":"levelo://app?vid=99d65f09-c0e6-4f0f-b72f-6e110c0f1bd4","ios":"levelo://app?vid=99d65f09-c0e6-4f0f-b72f-6e110c0f1bd4"},"vehicle_type_id":"4","last_reported":1769073790,"current_range_meters":3600,"station_id":"ce4bh692rcd13ifvqe90","pricing_plan_id":"cebpf4jnsgd1na2vs0mg"},{"bike_id":"5f477738-733e-4c98-961a-33429c5938fd","system_id":"levelo_inurba_marseille","lat":43.260586,"lon":5.393984,"is_reserved":false,"is_disabled":false,"rental_uris":{"android":"levelo://app?vid=5f477738-733e-4c98-961a-33429c5938fd","ios":"levelo://app?vid=5f477738-733e-4c98-961a-33429c5938fd"},"vehicle_type_id":"4","last_reported":1769073790,"current_range_meters":3600,"station_id":"ce4bhh92rcd13ifvqfj0","pricing_plan_id":"cebpf4jnsgd1na2vs0mg"},{"bike_id":"9fe9b7fa-bf5e-456b-b148-d56a572e2392","system_id":"levelo_inurba_marseille","lat":43.22565,"lon":5.4163,"is_reserved":false,"is_disabled":false,"rental_uris":{"android":"levelo://app?vid=9fe9b7fa-bf5e-456b-b148-d56a572e2392","ios":"levelo://app?vid=9fe9b7fa-bf5e-456b-b148-d56a572e2392"},"vehicle_type_id":"4","last_reported":1769073790,"current_range_meters":3600,"station_id":"st_d2o4gvlbi1j2169b742g","pricing_plan_id":"cebpf4jnsgd1na2vs0mg"},{"bike_id":"054e163b-1e47-4a0a-a038-a7939885860e","system_id":"levelo_inurba_marseille","lat":43.323457,"lon":5.367326,"is_reserved":false,"is_disabled":false,"rental_uris":{"android":"levelo://app?vid=054e163b-1e47-4a0a-a038-a7939885860e","ios":"levelo://app?vid=054e163b-1e47-4a0a-a038-a7939885860e"},"vehicle_type_id":"4","last_reported":1769073790,"current_range_meters":3600,"station_id":"ce4bhsh2rcd13ifvqi2g","pricing_plan_id":"cebpf4jnsgd1na2vs0mg"},{"bike_id":"d0beaf5f-1f3b-4f97-a0ef-f95a1b765e55","system_id":"levelo_inurba_marseille","lat":43.30148,"lon":5.38088,"is_reserved":false,"is_disabled":false,"rental_uris":{"android":"levelo://app?vid=d0beaf5f-1f3b-4f97-a0ef-f95a1b765e55","ios":"levelo://app?vid=d0beaf5f-1f3b-4f97-a0ef-f95a1b765e55"},"vehicle_type_id":"4","last_reported":1769073790,"current_range_meters":3600,"station_id":"ce4bgjp2rcd13ifvqbh0","pricing_plan_id":"cebpf4jnsgd1na2vs0mg"},{"bike_id":"6ed4374b-eb52-4400-8b6e-dd19e3ab477e","system_id":"levelo_inurba_marseille","lat":43.28611,"lon":5.35114,"is_reserved":false,"is_disabled":false,"rental_uris":{"android":"levelo://app?vid=6ed4374b-eb52-4400-8b6e-dd19e3ab477e","ios":"levelo://app?vid=6ed4374b-eb52-4400-8b6e-dd19e3ab477e"},"vehicle_type_id":"4","last_reported":1769073790,"current_range_meters":3600,"station_id":"ce4bhch2rcd13ifvqeug","pricing_plan_id":"cebpf4jnsgd1na2vs0mg"},{"bike_id":"a4e0bc82-a3ca-4377-bace-544218639f46","system_id":"levelo_inurba_marseille","lat":43.30185,"lon":5.36607,"is_reserved":false,"is_disabled":false,"rental_uris":{"android":"levelo://app?vid=a4e0bc82-a3ca-4377-bace-544218639f46","ios":"levelo://app?vid=a4e0bc82-a3ca-4377-bace-544218639f46"},"vehicle_type_id":"4","last_reported":1769073790,"current_range_meters":3600,"station_id":"ce4bgrh2rcd13ifvqc8g","pricing_plan_id":"cebpf4jnsgd1na2vs0mg"},{"bike_id":"e3006b68-2895-43e3-a6a3-f525aa75c699","system_id":"levelo_inurba_marseille","lat":43.24077,"lon":5.37748,"is_reserved":false,"is_disabled":false,"rental_uris":{"android":"levelo://app?vid=e3006b68-2895-43e3-a6a3-f525aa75c699","ios":"levelo://app?vid=e3006b68-2895-43e3-a6a3-f525aa75c699"},"vehicle_type_id":"4","last_reported":1769073790,"current_range_meters":3600,"station_id":"ce4bhnp2rcd13ifvqgvg","pricing_plan_id":"cebpf4jnsgd1na2vs0mg"},{"bike_id":"87376c51-7b52-4611-acd2-49441baafe3f","system_id":"levelo_inurba_marseille","lat":43.24608,"lon":5.40215,"is_reserved":false,"is_disabled":false,"rental_uris":{"android":"levelo://app?vid=87376c51-7b52-4611-acd2-49441baafe3f","ios":"levelo://app?vid=87376c51-7b52-4611-acd2-49441baafe3f"},"vehicle_type_id":"4","last_reported":1769073790,"current_range_meters":3600,"station_id":"","pricing_plan_id":"cebpf4jnsgd1na2vs0mg"},{"bike_id":"4affa84c-6c89-471a-9741-e9d86b945acd","system_id":"levelo_inurba_marseille","lat":43.230642,"lon":5.354864,"is_reserved":false,"is_disabled":false,"rental_uris":{"android":"levelo://app?vid=4affa84c-6c89-471a-9741-e9d86b945acd","ios":"levelo://app?vid=4affa84c-6c89-471a-9741-e9d86b945acd"},"vehicle_type_id":"4","last_reported":1769073790,"current_range_meters":3600,"station_id":"cpo3342slgdg3j2ifvpg","pricing_plan_id":"cebpf4jnsgd1na2vs0mg"},{"bike_id":"cf1cdb90-2109-42b9-8ee2-b0a8db40d40b","system_id":"levelo_inurba_marseille","lat":43.27211,"lon":5.39178,"is_reserved":false,"is_disabled":false,"rental_uris":{"android":"levelo://app?vid=cf1cdb90-2109-42b9-8ee2-b0a8db40d40b","ios":"levelo://app?vid=cf1cdb90-2109-42b9-8ee2-b0a8db40d40b"},"vehicle_type_id":"4","last_reported":1769073790,"current_range_meters":3600,"station_id":"ce4bhhp2rcd13ifvqfm0","pricing_plan_id":"cebpf4jnsgd1na2vs0mg"},{"bike_id":"9127661e-5255-495a-a28f-191e92450be1","system_id":"levelo_inurba_marseille","lat":43.27994,"lon":5.40024,"is_reserved":false,"is_disabled":false,"rental_uris":{"android":"levelo://app?vid=9127661e-5255-495a-a28f-191e92450be1","ios":"levelo://app?vid=9127661e-5255-495a-a28f-191e92450be1"},"vehicle_type_id":"4","last_reported":1769073790,"current_range_meters":3600,"station_id":"ce4bho92rcd13ifvqh4g","pricing_plan_id":"cebpf4jnsgd1na2vs0mg"},{"bike_id":"0d073dc4-e542-4a37-9edb-04c8262d5066","system_id":"levelo_inurba_marseille","lat":43.28525,"lon":5.44126,"is_reserved":false,"is_disabled":false,"rental_uris":{"android":"levelo://app?vid=0d073dc4-e542-4a37-9edb-04c8262d5066","ios":"levelo://app?vid=0d073dc4-e542-4a37-9edb-04c8262d5066"},"vehicle_type_id":"4","last_reported":1769073790,"current_range_meters":4000,"station_id":"st_d3j3df2ikq2c7380ej80","pricing_plan_id":"cebpf4jnsgd1na2vs0mg"},{"bike_id":"1377486e-e7f0-40cc-92e7-cac029ac7635","system_id":"levelo_inurba_marseille","lat":43.304325,"lon":5.392981,"is_reserved":false,"is_disabled":false,"rental_uris":{"android":"levelo://app?vid=1377486e-e7f0-40cc-92e7-cac029ac7635","ios":"levelo://app?vid=1377486e-e7f0-40cc-92e7-cac029ac7635"},"vehicle_type_id":"4","last_reported":1769073790,"current_range_meters":4000,"station_id":"ce4bgup2rcd13ifvqco0","pricing_plan_id":"cebpf4jnsgd1na2vs0mg"},{"bike_id":"ffabd398-f54b-45bd-9851-1b3115defcf6","system_id":"levelo_inurba_marseille","lat":43.24184,"lon":5.3973,"is_reserved":false,"is_disabled":false,"rental_uris":{"android":"levelo://app?vid=ffabd398-f54b-45bd-9851-1b3115defcf6","ios":"levelo://app?vid=ffabd398-f54b-45bd-9851-1b3115defcf6"},"vehicle_type_id":"4","last_reported":1769073790,"current_range_meters":4000,"station_id":"ce4bhn12rcd13ifvqgpg","pricing_plan_id":"cebpf4jnsgd1na2vs0mg"},{"bike_id":"ddac16df-da7b-4c1e-8c96-25bd2dbc1226","system_id":"levelo_inurba_marseille","lat":43.32361,"lon":5.36717,"is_reserved":false,"is_disabled":false,"rental_uris":{"android":"levelo://app?vid=ddac16df-da7b-4c1e-8c96-25bd2dbc1226","ios":"levelo://app?vid=ddac16df-da7b-4c1e-8c96-25bd2dbc1226"},"vehicle_type_id":"4","last_reported":1769073790,"current_range_meters":4000,"station_id":"ce4bhsh2rcd13ifvqi2g","pricing_plan_id":"cebpf4jnsgd1na2vs0mg"},{"bike_id":"e26301b9-2ba6-4110-823c-43c3e31eef15","system_id":"levelo_inurba_marseille","lat":43.30641,"lon":5.39302,"is_reserved":false,"is_disabled":false,"rental_uris":{"android":"levelo://app?vid=e26301b9-2ba6-4110-823c-43c3e31eef15","ios":"levelo://app?vid=e26301b9-2ba6-4110-823c-43c3e31eef15"},"vehicle_type_id":"4","last_reported":1769073790,"current_range_meters":4000,"station_id":"","pricing_plan_id":"cebpf4jnsgd1na2vs0mg"},{"bike_id":"57560f65-e4ea-4eda-9d46-c69dedf142ff","system_id":"levelo_inurba_marseille","lat":43.26368,"lon":5.4107,"is_reserved":false,"is_disabled":false,"rental_uris":{"android":"levelo://app?vid=57560f65-e4ea-4eda-9d46-c69dedf142ff","ios":"levelo://app?vid=57560f65-e4ea-4eda-9d46-c69dedf142ff"},"vehicle_type_id":"4","last_reported":1769073790,"current_range_meters":4000,"station_id":"st_d4e5ca6na9uc73bfl5fg","pricing_plan_id":"cebpf4jnsgd1na2vs0mg"},{"bike_id":"64089e70-95ae-4ee4-8be8-a9da03038877","system_id":"levelo_inurba_marseille","lat":43.31338,"lon":5.36765,"is_reserved":false,"is_disabled":false,"rental_uris":{"android":"levelo://app?vid=64089e70-95ae-4ee4-8be8-a9da03038877","ios":"levelo://app?vid=64089e70-95ae-4ee4-8be8-a9da03038877"},"vehicle_type_id":"4","last_reported":1769073790,"current_range_meters":4000,"station_id":"ce4bgr92rcd13ifvqc6g","pricing_plan_id":"cebpf4jnsgd1na2vs0mg"},{"bike_id":"13c816e9-5043-41d0-a44f-0b67121a9c07","system_id":"levelo_inurba_marseille","lat":43.27934,"lon":5.39192,"is_reserved":false,"is_disabled":false,"rental_uris":{"android":"levelo://app?vid=13c816e9-5043-41d0-a44f-0b67121a9c07","ios":"levelo://app?vid=13c816e9-5043-41d0-a44f-0b67121a9c07"},"vehicle_type_id":"4","last_reported":1769073790,"current_range_meters":4000,"station_id":"ce4bhjp2rcd13ifvqga0","pricing_plan_id":"cebpf4jnsgd1na2vs0mg"},{"bike_id":"c3c9d165-9f18-496b-a420-1a5a46ea337c","system_id":"levelo_inurba_marseille","lat":43.30592,"lon":5.36603,"is_reserved":false,"is_disabled":false,"rental_uris":{"android":"levelo://app?vid=c3c9d165-9f18-496b-a420-1a5a46ea337c","ios":"levelo://app?vid=c3c9d165-9f18-496b-a420-1a5a46ea337c"},"vehicle_type_id":"4","last_reported":1769073790,"current_range_meters":4000,"station_id":"ce4bgs12rcd13ifvqcag","pricing_plan_id":"cebpf4jnsgd1na2vs0mg"},{"bike_id":"72e1655d-aec3-4349-93c1-06571442ed3a","system_id":"levelo_inurba_marseille","lat":43.2468,"lon":5.38135,"is_reserved":false,"is_disabled":false,"rental_uris":{"android":"levelo://app?vid=72e1655d-aec3-4349-93c1-06571442ed3a","ios":"levelo://app?vid=72e1655d-aec3-4349-93c1-06571442ed3a"},"vehicle_type_id":"4","last_reported":1769073790,"current_range_meters":4000,"station_id":"ce4bhih2rcd13ifvqfr0","pricing_plan_id":"cebpf4jnsgd1na2vs0mg"},{"bike_id":"4c7ae057-d306-4108-a109-f703240d1f82","system_id":"levelo_inurba_marseille","lat":43.25971,"lon":5.40914,"is_reserved":false,"is_disabled":false,"rental_uris":{"android":"levelo://app?vid=4c7ae057-d306-4108-a109-f703240d1f82","ios":"levelo://app?vid=4c7ae057-d306-4108-a109-f703240d1f82"},"vehicle_type_id":"4","last_reported":1769073790,"current_range_meters":4000,"station_id":"ce4bhm92rcd13ifvqglg","pricing_plan_id":"cebpf4jnsgd1na2vs0mg"},{"bike_id":"58f4ef4d-4d9f-40ca-a8c2-4f7761b62a7e","system_id":"levelo_inurba_marseille","lat":43.30143,"lon":5.38076,"is_reserved":false,"is_disabled":false,"rental_uris":{"android":"levelo://app?vid=58f4ef4d-4d9f-40ca-a8c2-4f7761b62a7e","ios":"levelo://app?vid=58f4ef4d-4d9f-40ca-a8c2-4f7761b62a7e"},"vehicle_type_id":"4","last_reported":1769073790,"current_range_meters":4000,"station_id":"ce4bgjp2rcd13ifvqbh0","pricing_plan_id":"cebpf4jnsgd1na2vs0mg"},{"bike_id":"f04ebc18-084c-4685-8b98-746d4d8de23c","system_id":"levelo_inurba_marseille","lat":43.29285,"lon":5.36845,"is_reserved":false,"is_disabled":false,"rental_uris":{"android":"levelo://app?vid=f04ebc18-084c-4685-8b98-746d4d8de23c","ios":"levelo://app?vid=f04ebc18-084c-4685-8b98-746d4d8de23c"},"vehicle_type_id":"4","last_reported":1769073790,"current_range_meters":4000,"station_id":"ce4bhbp2rcd13ifvqesg","pricing_plan_id":"cebpf4jnsgd1na2vs0mg"},{"bike_id":"12bd883b-612b-4744-aa30-09be7d3e24e5","system_id":"levelo_inurba_marseille","lat":43.29048,"lon":5.39946,"is_reserved":false,"is_disabled":false,"rental_uris":{"android":"levelo://app?vid=12bd883b-612b-4744-aa30-09be7d3e24e5","ios":"levelo://app?vid=12bd883b-612b-4744-aa30-09be7d3e24e5"},"vehicle_type_id":"4","last_reported":1769073790,"current_range_meters":4400,"station_id":"ce4bh392rcd13ifvqdm0","pricing_plan_id":"cebpf4jnsgd1na2vs0mg"},{"bike_id":"8f37b858-03c9-4dc4-9353-016aa6a18d48","system_id":"levelo_inurba_marseille","lat":43.29036,"lon":5.37186,"is_reserved":false,"is_disabled":false,"rental_uris":{"android":"levelo://app?vid=8f37b858-03c9-4dc4-9353-016aa6a18d48","ios":"levelo://app?vid=8f37b858-03c9-4dc4-9353-016aa6a18d48"},"vehicle_type_id":"4","last_reported":1769073790,"current_range_meters":4400,"station_id":"","pricing_plan_id":"cebpf4jnsgd1na2vs0mg"},{"bike_id":"a7cbb222-9748-427f-9d3b-e297f36a9457","system_id":"levelo_inurba_marseille","lat":43.3013,"lon":5.37426,"is_reserved":false,"is_disabled":false,"rental_uris":{"android":"levelo://app?vid=a7cbb222-9748-427f-9d3b-e297f36a9457","ios":"levelo://app?vid=a7cbb222-9748-427f-9d3b-e297f36a9457"},"vehicle_type_id":"4","last_reported":1769073790,"current_range_meters":4400,"station_id":"ce4bgs92rcd13ifvqcc0","pricing_plan_id":"cebpf4jnsgd1na2vs0mg"},{"bike_id":"d544c567-3643-4260-aeec-23652ea27476","system_id":"levelo_inurba_marseille","lat":43.27369,"lon":5.36264,"is_reserved":false,"is_disabled":false,"rental_uris":{"android":"levelo://app?vid=d544c567-3643-4260-aeec-23652ea27476","ios":"levelo://app?vid=d544c567-3643-4260-aeec-23652ea27476"},"vehicle_type_id":"4","last_reported":1769073790,"current_range_meters":4400,"station_id":"ce4bhbh2rcd13ifvqeo0","pricing_plan_id":"cebpf4jnsgd1na2vs0mg"},{"bike_id":"ce33f6ad-f3bd-4953-bd7c-6e1238f24a4f","system_id":"levelo_inurba_marseille","lat":43.24659,"lon":5.38172,"is_reserved":false,"is_disabled":false,"rental_uris":{"android":"levelo://app?vid=ce33f6ad-f3bd-4953-bd7c-6e1238f24a4f","ios":"levelo://app?vid=ce33f6ad-f3bd-4953-bd7c-6e1238f24a4f"},"vehicle_type_id":"4","last_reported":1769073790,"current_range_meters":4400,"station_id":"ce4bhih2rcd13ifvqfr0","pricing_plan_id":"cebpf4jnsgd1na2vs0mg"},{"bike_id":"d0375bf7-1afd-4aa6-8017-82ae9de0814c","system_id":"levelo_inurba_marseille","lat":43.30899,"lon":5.36844,"is_reserved":false,"is_disabled":false,"rental_uris":{"android":"levelo://app?vid=d0375bf7-1afd-4aa6-8017-82ae9de0814c","ios":"levelo://app?vid=d0375bf7-1afd-4aa6-8017-82ae9de0814c"},"vehicle_type_id":"4","last_reported":1769073790,"current_range_meters":4400,"station_id":"ce4bgn92rcd13ifvqbvg","pricing_plan_id":"cebpf4jnsgd1na2vs0mg"},{"bike_id":"c28a8b53-2ac9-4ea0-ab81-6292a2b417b8","system_id":"levelo_inurba_marseille","lat":43.33588,"lon":5.41025,"is_reserved":false,"is_disabled":false,"rental_uris":{"android":"levelo://app?vid=c28a8b53-2ac9-4ea0-ab81-6292a2b417b8","ios":"levelo://app?vid=c28a8b53-2ac9-4ea0-ab81-6292a2b417b8"},"vehicle_type_id":"4","last_reported":1769073790,"current_range_meters":4400,"station_id":"ce4bhqh2rcd13ifvqhmg","pricing_plan_id":"cebpf4jnsgd1na2vs0mg"},{"bike_id":"55ab414d-d796-490b-9c28-eb2439477840","system_id":"levelo_inurba_marseille","lat":43.24076,"lon":5.37753,"is_reserved":false,"is_disabled":false,"rental_uris":{"android":"levelo://app?vid=55ab414d-d796-490b-9c28-eb2439477840","ios":"levelo://app?vid=55ab414d-d796-490b-9c28-eb2439477840"},"vehicle_type_id":"4","last_reported":1769073790,"current_range_meters":4400,"station_id":"ce4bhnp2rcd13ifvqgvg","pricing_plan_id":"cebpf4jnsgd1na2vs0mg"},{"bike_id":"19f100e7-b629-4937-9dfc-fd2ffdddb939","system_id":"levelo_inurba_marseille","lat":43.24072,"lon":5.37762,"is_reserved":false,"is_disabled":false,"rental_uris":{"android":"levelo://app?vid=19f100e7-b629-4937-9dfc-fd2ffdddb939","ios":"levelo://app?vid=19f100e7-b629-4937-9dfc-fd2ffdddb939"},"vehicle_type_id":"4","last_reported":1769073790,"current_range_meters":4400,"station_id":"ce4bhnp2rcd13ifvqgvg","pricing_plan_id":"cebpf4jnsgd1na2vs0mg"},{"bike_id":"efe98a95-3a21-49ba-9a6d-8fbeddac23c8","system_id":"levelo_inurba_marseille","lat":43.27992,"lon":5.41666,"is_reserved":false,"is_disabled":false,"rental_uris":{"android":"levelo://app?vid=efe98a95-3a21-49ba-9a6d-8fbeddac23c8","ios":"levelo://app?vid=efe98a95-3a21-49ba-9a6d-8fbeddac23c8"},"vehicle_type_id":"4","last_reported":1769073790,"current_range_meters":4800,"station_id":"ce4bho12rcd13ifvqh1g","pricing_plan_id":"cebpf4jnsgd1na2vs0mg"},{"bike_id":"94e447ef-188e-4e98-a497-4fbe709caccf","system_id":"levelo_inurba_marseille","lat":43.23959,"lon":5.36665,"is_reserved":false,"is_disabled":false,"rental_uris":{"android":"levelo://app?vid=94e447ef-188e-4e98-a497-4fbe709caccf","ios":"levelo://app?vid=94e447ef-188e-4e98-a497-4fbe709caccf"},"vehicle_type_id":"4","last_reported":1769073790,"current_range_meters":4800,"station_id":"ce4bhi12rcd13ifvqfp0","pricing_plan_id":"cebpf4jnsgd1na2vs0mg"},{"bike_id":"19c9b524-76f1-4e5d-8be9-000b11a19079","system_id":"levelo_inurba_marseille","lat":43.25013,"lon":5.38897,"is_reserved":false,"is_disabled":false,"rental_uris":{"android":"levelo://app?vid=19c9b524-76f1-4e5d-8be9-000b11a19079","ios":"levelo://app?vid=19c9b524-76f1-4e5d-8be9-000b11a19079"},"vehicle_type_id":"4","last_reported":1769073790,"current_range_meters":4800,"station_id":"ce4bhgp2rcd13ifvqfd0","pricing_plan_id":"cebpf4jnsgd1na2vs0mg"},{"bike_id":"89ed926f-3e4d-41cb-9b6e-de7e79cd7586","system_id":"levelo_inurba_marseille","lat":43.29046,"lon":5.39965,"is_reserved":false,"is_disabled":false,"rental_uris":{"android":"levelo://app?vid=89ed926f-3e4d-41cb-9b6e-de7e79cd7586","ios":"levelo://app?vid=89ed926f-3e4d-41cb-9b6e-de7e79cd7586"},"vehicle_type_id":"4","last_reported":1769073790,"current_range_meters":4800,"station_id":"ce4bh392rcd13ifvqdm0","pricing_plan_id":"cebpf4jnsgd1na2vs0mg"},{"bike_id":"3d1df5d0-1e11-4ffe-917d-f300cfefdbd2","system_id":"levelo_inurba_marseille","lat":43.274225,"lon":5.394233,"is_reserved":false,"is_disabled":false,"rental_uris":{"android":"levelo://app?vid=3d1df5d0-1e11-4ffe-917d-f300cfefdbd2","ios":"levelo://app?vid=3d1df5d0-1e11-4ffe-917d-f300cfefdbd2"},"vehicle_type_id":"4","last_reported":1769073790,"current_range_meters":4800,"station_id":"ce4bhdp2rcd13ifvqf20","pricing_plan_id":"cebpf4jnsgd1na2vs0mg"},{"bike_id":"0b64e895-792b-4498-9172-5f40249c5668","system_id":"levelo_inurba_marseille","lat":43.26072,"lon":5.39385,"is_reserved":false,"is_disabled":false,"rental_uris":{"android":"levelo://app?vid=0b64e895-792b-4498-9172-5f40249c5668","ios":"levelo://app?vid=0b64e895-792b-4498-9172-5f40249c5668"},"vehicle_type_id":"4","last_reported":1769073790,"current_range_meters":4800,"station_id":"ce4bhh92rcd13ifvqfj0","pricing_plan_id":"cebpf4jnsgd1na2vs0mg"},{"bike_id":"361831e2-5b25-41f1-8e1a-dd7302811c21","system_id":"levelo_inurba_marseille","lat":43.26488,"lon":5.39544,"is_reserved":false,"is_disabled":false,"rental_uris":{"android":"levelo://app?vid=361831e2-5b25-41f1-8e1a-dd7302811c21","ios":"levelo://app?vid=361831e2-5b25-41f1-8e1a-dd7302811c21"},"vehicle_type_id":"4","last_reported":1769073790,"current_range_meters":4800,"station_id":"ce4bhi12rcd13ifvqfq0","pricing_plan_id":"cebpf4jnsgd1na2vs0mg"},{"bike_id":"bf9df301-dc0d-41cc-96a1-27301e9f819b","system_id":"levelo_inurba_marseille","lat":43.28477,"lon":5.4839,"is_reserved":false,"is_disabled":false,"rental_uris":{"android":"levelo://app?vid=bf9df301-dc0d-41cc-96a1-27301e9f819b","ios":"levelo://app?vid=bf9df301-dc0d-41cc-96a1-27301e9f819b"},"vehicle_type_id":"4","last_reported":1769073790,"current_range_meters":4800,"station_id":"st_d3svhcjqgbts73a3dn0g","pricing_plan_id":"cebpf4jnsgd1na2vs0mg"},{"bike_id":"c410668a-fb9f-4d89-8357-51bcc7148eda","system_id":"levelo_inurba_marseille","lat":43.24174,"lon":5.39722,"is_reserved":false,"is_disabled":false,"rental_uris":{"android":"levelo://app?vid=c410668a-fb9f-4d89-8357-51bcc7148eda","ios":"levelo://app?vid=c410668a-fb9f-4d89-8357-51bcc7148eda"},"vehicle_type_id":"4","last_reported":1769073790,"current_range_meters":4800,"station_id":"ce4bhn12rcd13ifvqgpg","pricing_plan_id":"cebpf4jnsgd1na2vs0mg"},{"bike_id":"114efe6a-2d53-45ca-a29e-a00045b57fdc","system_id":"levelo_inurba_marseille","lat":43.309433,"lon":5.390395,"is_reserved":false,"is_disabled":false,"rental_uris":{"android":"levelo://app?vid=114efe6a-2d53-45ca-a29e-a00045b57fdc","ios":"levelo://app?vid=114efe6a-2d53-45ca-a29e-a00045b57fdc"},"vehicle_type_id":"4","last_reported":1769073790,"current_range_meters":4800,"station_id":"ce4bgup2rcd13ifvqco0","pricing_plan_id":"cebpf4jnsgd1na2vs0mg"},{"bike_id":"07f874f3-5f43-4e3e-8a0f-4f8944820a48","system_id":"levelo_inurba_marseille","lat":43.25553,"lon":5.38251,"is_reserved":false,"is_disabled":false,"rental_uris":{"android":"levelo://app?vid=07f874f3-5f43-4e3e-8a0f-4f8944820a48","ios":"levelo://app?vid=07f874f3-5f43-4e3e-8a0f-4f8944820a48"},"vehicle_type_id":"4","last_reported":1769073790,"current_range_meters":4800,"station_id":"ce4bhih2rcd13ifvqfs0","pricing_plan_id":"cebpf4jnsgd1na2vs0mg"},{"bike_id":"fbb380e3-b7d8-4f62-a8fc-48257763e51b","system_id":"levelo_inurba_marseille","lat":43.2315,"lon":5.43722,"is_reserved":false,"is_disabled":false,"rental_uris":{"android":"levelo://app?vid=fbb380e3-b7d8-4f62-a8fc-48257763e51b","ios":"levelo://app?vid=fbb380e3-b7d8-4f62-a8fc-48257763e51b"},"vehicle_type_id":"4","last_reported":1769073790,"current_range_meters":4800,"station_id":"ce4bhmp2rcd13ifvqgog","pricing_plan_id":"cebpf4jnsgd1na2vs0mg"},{"bike_id":"f8d42a35-9a08-458a-a2c6-86fbfc52f1f4","system_id":"levelo_inurba_marseille","lat":43.29611,"lon":5.37717,"is_reserved":false,"is_disabled":false,"rental_uris":{"android":"levelo://app?vid=f8d42a35-9a08-458a-a2c6-86fbfc52f1f4","ios":"levelo://app?vid=f8d42a35-9a08-458a-a2c6-86fbfc52f1f4"},"vehicle_type_id":"4","last_reported":1769073790,"current_range_meters":4800,"station_id":"ce4bgi92rcd13ifvqb90","pricing_plan_id":"cebpf4jnsgd1na2vs0mg"},{"bike_id":"5af690d8-2c2d-4a1c-8145-2b3161fd06e5","system_id":"levelo_inurba_marseille","lat":43.26682,"lon":5.38268,"is_reserved":false,"is_disabled":false,"rental_uris":{"android":"levelo://app?vid=5af690d8-2c2d-4a1c-8145-2b3161fd06e5","ios":"levelo://app?vid=5af690d8-2c2d-4a1c-8145-2b3161fd06e5"},"vehicle_type_id":"4","last_reported":1769073790,"current_range_meters":5600,"station_id":"ce4bhg92rcd13ifvqf90","pricing_plan_id":"cebpf4jnsgd1na2vs0mg"},{"bike_id":"5550a5b9-adf4-46c0-959f-1b39fcd94aad","system_id":"levelo_inurba_marseille","lat":43.29708,"lon":5.37303,"is_reserved":false,"is_disabled":false,"rental_uris":{"android":"levelo://app?vid=5550a5b9-adf4-46c0-959f-1b39fcd94aad","ios":"levelo://app?vid=5550a5b9-adf4-46c0-959f-1b39fcd94aad"},"vehicle_type_id":"4","last_reported":1769073790,"current_range_meters":5600,"station_id":"ce4bgk12rcd13ifvqbj0","pricing_plan_id":"cebpf4jnsgd1na2vs0mg"},{"bike_id":"68226070-db87-4f3a-bcca-d8c5e4b321f8","system_id":"levelo_inurba_marseille","lat":43.30889,"lon":5.36863,"is_reserved":false,"is_disabled":false,"rental_uris":{"android":"levelo://app?vid=68226070-db87-4f3a-bcca-d8c5e4b321f8","ios":"levelo://app?vid=68226070-db87-4f3a-bcca-d8c5e4b321f8"},"vehicle_type_id":"4","last_reported":1769073790,"current_range_meters":5600,"station_id":"ce4bgn92rcd13ifvqbvg","pricing_plan_id":"cebpf4jnsgd1na2vs0mg"},{"bike_id":"db3f14e4-220b-415c-9e28-2fe041e49f9a","system_id":"levelo_inurba_marseille","lat":43.260618,"lon":5.393793,"is_reserved":false,"is_disabled":false,"rental_uris":{"android":"levelo://app?vid=db3f14e4-220b-415c-9e28-2fe041e49f9a","ios":"levelo://app?vid=db3f14e4-220b-415c-9e28-2fe041e49f9a"},"vehicle_type_id":"4","last_reported":1769073790,"current_range_meters":5600,"station_id":"ce4bhh92rcd13ifvqfj0","pricing_plan_id":"cebpf4jnsgd1na2vs0mg"},{"bike_id":"da8438d2-d55b-446d-b0da-d1a39631aed7","system_id":"levelo_inurba_marseille","lat":43.29985,"lon":5.37168,"is_reserved":false,"is_disabled":false,"rental_uris":{"android":"levelo://app?vid=da8438d2-d55b-446d-b0da-d1a39631aed7","ios":"levelo://app?vid=da8438d2-d55b-446d-b0da-d1a39631aed7"},"vehicle_type_id":"4","last_reported":1769073790,"current_range_meters":5600,"station_id":"ce4bgr92rcd13ifvqc7g","pricing_plan_id":"cebpf4jnsgd1na2vs0mg"},{"bike_id":"6130885e-2c8c-4f8c-a5b7-823493024bd1","system_id":"levelo_inurba_marseille","lat":43.25578,"lon":5.38226,"is_reserved":false,"is_disabled":false,"rental_uris":{"android":"levelo://app?vid=6130885e-2c8c-4f8c-a5b7-823493024bd1","ios":"levelo://app?vid=6130885e-2c8c-4f8c-a5b7-823493024bd1"},"vehicle_type_id":"4","last_reported":1769073790,"current_range_meters":5600,"station_id":"ce4bhih2rcd13ifvqfs0","pricing_plan_id":"cebpf4jnsgd1na2vs0mg"},{"bike_id":"fe2a828f-710f-491e-b529-f22ca09a8365","system_id":"levelo_inurba_marseille","lat":43.3074,"lon":5.40955,"is_reserved":false,"is_disabled":false,"rental_uris":{"android":"levelo://app?vid=fe2a828f-710f-491e-b529-f22ca09a8365","ios":"levelo://app?vid=fe2a828f-710f-491e-b529-f22ca09a8365"},"vehicle_type_id":"4","last_reported":1769073790,"current_range_meters":5600,"station_id":"","pricing_plan_id":"cebpf4jnsgd1na2vs0mg"},{"bike_id":"f3a01c85-86e9-4a7c-837b-602faf4bbfde","system_id":"levelo_inurba_marseille","lat":43.28016,"lon":5.38938,"is_reserved":false,"is_disabled":false,"rental_uris":{"android":"levelo://app?vid=f3a01c85-86e9-4a7c-837b-602faf4bbfde","ios":"levelo://app?vid=f3a01c85-86e9-4a7c-837b-602faf4bbfde"},"vehicle_type_id":"4","last_reported":1769073790,"current_range_meters":5600,"station_id":"","pricing_plan_id":"cebpf4jnsgd1na2vs0mg"},{"bike_id":"55fa735a-cae7-4225-a980-b98e8f81ca14","system_id":"levelo_inurba_marseille","lat":43.29593,"lon":5.36736,"is_reserved":false,"is_disabled":false,"rental_uris":{"android":"levelo://app?vid=55fa735a-cae7-4225-a980-b98e8f81ca14","ios":"levelo://app?vid=55fa735a-cae7-4225-a980-b98e8f81ca14"},"vehicle_type_id":"4","last_reported":1769073790,"current_range_meters":5600,"station_id":"ce4bgph2rcd13ifvqc2g","pricing_plan_id":"cebpf4jnsgd1na2vs0mg"},{"bike_id":"dde7b0e0-bbd1-44de-82f6-999f8e69694c","system_id":"levelo_inurba_marseille","lat":43.25503,"lon":5.37659,"is_reserved":false,"is_disabled":false,"rental_uris":{"android":"levelo://app?vid=dde7b0e0-bbd1-44de-82f6-999f8e69694c","ios":"levelo://app?vid=dde7b0e0-bbd1-44de-82f6-999f8e69694c"},"vehicle_type_id":"4","last_reported":1769073790,"current_range_meters":5600,"station_id":"ce4bhh12rcd13ifvqff0","pricing_plan_id":"cebpf4jnsgd1na2vs0mg"},{"bike_id":"a9df3bbb-0971-4360-a33a-b9fe3fbf9cca","system_id":"levelo_inurba_marseille","lat":43.3013,"lon":5.37422,"is_reserved":false,"is_disabled":false,"rental_uris":{"android":"levelo://app?vid=a9df3bbb-0971-4360-a33a-b9fe3fbf9cca","ios":"levelo://app?vid=a9df3bbb-0971-4360-a33a-b9fe3fbf9cca"},"vehicle_type_id":"4","last_reported":1769073790,"current_range_meters":5600,"station_id":"ce4bgs92rcd13ifvqcc0","pricing_plan_id":"cebpf4jnsgd1na2vs0mg"},{"bike_id":"3d3c635d-bdc1-420a-92f6-f7730f8a3248","system_id":"levelo_inurba_marseille","lat":43.30906,"lon":5.36849,"is_reserved":false,"is_disabled":false,"rental_uris":{"android":"levelo://app?vid=3d3c635d-bdc1-420a-92f6-f7730f8a3248","ios":"levelo://app?vid=3d3c635d-bdc1-420a-92f6-f7730f8a3248"},"vehicle_type_id":"4","last_reported":1769073790,"current_range_meters":5600,"station_id":"ce4bgn92rcd13ifvqbvg","pricing_plan_id":"cebpf4jnsgd1na2vs0mg"},{"bike_id":"488d3d36-c3f0-4390-80be-f0194a76248a","system_id":"levelo_inurba_marseille","lat":43.255791,"lon":5.404378,"is_reserved":false,"is_disabled":false,"rental_uris":{"android":"levelo://app?vid=488d3d36-c3f0-4390-80be-f0194a76248a","ios":"levelo://app?vid=488d3d36-c3f0-4390-80be-f0194a76248a"},"vehicle_type_id":"4","last_reported":1769073790,"current_range_meters":5600,"station_id":"","pricing_plan_id":"cebpf4jnsgd1na2vs0mg"},{"bike_id":"a349bc81-3d2e-4b4d-9780-800c838d8f48","system_id":"levelo_inurba_marseille","lat":43.29303,"lon":5.37457,"is_reserved":false,"is_disabled":false,"rental_uris":{"android":"levelo://app?vid=a349bc81-3d2e-4b4d-9780-800c838d8f48","ios":"levelo://app?vid=a349bc81-3d2e-4b4d-9780-800c838d8f48"},"vehicle_type_id":"4","last_reported":1769073790,"current_range_meters":5600,"station_id":"ce4bgi12rcd13ifvqb70","pricing_plan_id":"cebpf4jnsgd1na2vs0mg"},{"bike_id":"00eebd42-68c8-4b7b-b6d8-ebd2f3e0ad5f","system_id":"levelo_inurba_marseille","lat":43.29531,"lon":5.37507,"is_reserved":false,"is_disabled":false,"rental_uris":{"android":"levelo://app?vid=00eebd42-68c8-4b7b-b6d8-ebd2f3e0ad5f","ios":"levelo://app?vid=00eebd42-68c8-4b7b-b6d8-ebd2f3e0ad5f"},"vehicle_type_id":"4","last_reported":1769073790,"current_range_meters":5600,"station_id":"ce4bgkp2rcd13ifvqbmg","pricing_plan_id":"cebpf4jnsgd1na2vs0mg"},{"bike_id":"a2424baa-0e5e-4ed2-9ae6-78591e46955c","system_id":"levelo_inurba_marseille","lat":43.28486,"lon":5.48431,"is_reserved":false,"is_disabled":false,"rental_uris":{"android":"levelo://app?vid=a2424baa-0e5e-4ed2-9ae6-78591e46955c","ios":"levelo://app?vid=a2424baa-0e5e-4ed2-9ae6-78591e46955c"},"vehicle_type_id":"4","last_reported":1769073790,"current_range_meters":5600,"station_id":"st_d3svhcjqgbts73a3dn0g","pricing_plan_id":"cebpf4jnsgd1na2vs0mg"},{"bike_id":"91c6b80f-ebf8-40dd-9043-2f1efcca7d75","system_id":"levelo_inurba_marseille","lat":43.294,"lon":5.3855,"is_reserved":false,"is_disabled":true,"rental_uris":{"android":"levelo://app?vid=91c6b80f-ebf8-40dd-9043-2f1efcca7d75","ios":"levelo://app?vid=91c6b80f-ebf8-40dd-9043-2f1efcca7d75"},"vehicle_type_id":"4","last_reported":1769073790,"current_range_meters":5600,"station_id":"","pricing_plan_id":"cebpf4jnsgd1na2vs0mg"},{"bike_id":"2ff152df-2638-45a4-87e0-67ff6133f732","system_id":"levelo_inurba_marseille","lat":43.29095,"lon":5.38151,"is_reserved":false,"is_disabled":false,"rental_uris":{"android":"levelo://app?vid=2ff152df-2638-45a4-87e0-67ff6133f732","ios":"levelo://app?vid=2ff152df-2638-45a4-87e0-67ff6133f732"},"vehicle_type_id":"4","last_reported":1769073790,"current_range_meters":6000,"station_id":"ce4bh512rcd13ifvqe2g","pricing_plan_id":"cebpf4jnsgd1na2vs0mg"},{"bike_id":"8712e606-18cf-418a-8957-f55fb43a67ce","system_id":"levelo_inurba_marseille","lat":43.29078,"lon":5.37155,"is_reserved":false,"is_disabled":false,"rental_uris":{"android":"levelo://app?vid=8712e606-18cf-418a-8957-f55fb43a67ce","ios":"levelo://app?vid=8712e606-18cf-418a-8957-f55fb43a67ce"},"vehicle_type_id":"4","last_reported":1769073790,"current_range_meters":6000,"station_id":"ce4bh5p2rcd13ifvqe4g","pricing_plan_id":"cebpf4jnsgd1na2vs0mg"},{"bike_id":"e2c75bb6-a8f5-4d10-8f8c-b5c9ff3756c1","system_id":"levelo_inurba_marseille","lat":43.30555,"lon":5.36519,"is_reserved":false,"is_disabled":false,"rental_uris":{"android":"levelo://app?vid=e2c75bb6-a8f5-4d10-8f8c-b5c9ff3756c1","ios":"levelo://app?vid=e2c75bb6-a8f5-4d10-8f8c-b5c9ff3756c1"},"vehicle_type_id":"4","last_reported":1769073790,"current_range_meters":6000,"station_id":"ce4bgs12rcd13ifvqcag","pricing_plan_id":"cebpf4jnsgd1na2vs0mg"},{"bike_id":"6bfbb2b6-3853-4567-b94a-4e6d4c529633","system_id":"levelo_inurba_marseille","lat":43.28523,"lon":5.4412,"is_reserved":false,"is_disabled":false,"rental_uris":{"android":"levelo://app?vid=6bfbb2b6-3853-4567-b94a-4e6d4c529633","ios":"levelo://app?vid=6bfbb2b6-3853-4567-b94a-4e6d4c529633"},"vehicle_type_id":"4","last_reported":1769073790,"current_range_meters":6000,"station_id":"st_d3j3df2ikq2c7380ej80","pricing_plan_id":"cebpf4jnsgd1na2vs0mg"},{"bike_id":"ac335fb1-92f8-45b3-a8fb-b3dfcfaf3ba8","system_id":"levelo_inurba_marseille","lat":43.29274,"lon":5.40126,"is_reserved":false,"is_disabled":false,"rental_uris":{"android":"levelo://app?vid=ac335fb1-92f8-45b3-a8fb-b3dfcfaf3ba8","ios":"levelo://app?vid=ac335fb1-92f8-45b3-a8fb-b3dfcfaf3ba8"},"vehicle_type_id":"4","last_reported":1769073790,"current_range_meters":6000,"station_id":"ce4bh312rcd13ifvqdk0","pricing_plan_id":"cebpf4jnsgd1na2vs0mg"},{"bike_id":"d891b86b-9c4a-46fd-b64a-73de9353aaf0","system_id":"levelo_inurba_marseille","lat":43.30959,"lon":5.39035,"is_reserved":false,"is_disabled":false,"rental_uris":{"android":"levelo://app?vid=d891b86b-9c4a-46fd-b64a-73de9353aaf0","ios":"levelo://app?vid=d891b86b-9c4a-46fd-b64a-73de9353aaf0"},"vehicle_type_id":"4","last_reported":1769073790,"current_range_meters":6000,"station_id":"ce4bgup2rcd13ifvqco0","pricing_plan_id":"cebpf4jnsgd1na2vs0mg"},{"bike_id":"ebc59118-e1a4-482d-84d0-eafb34b0b9ea","system_id":"levelo_inurba_marseille","lat":43.23779,"lon":5.36636,"is_reserved":false,"is_disabled":false,"rental_uris":{"android":"levelo://app?vid=ebc59118-e1a4-482d-84d0-eafb34b0b9ea","ios":"levelo://app?vid=ebc59118-e1a4-482d-84d0-eafb34b0b9ea"},"vehicle_type_id":"4","last_reported":1769073790,"current_range_meters":6000,"station_id":"st_d3nk18o9ro0c73en2l3g","pricing_plan_id":"cebpf4jnsgd1na2vs0mg"},{"bike_id":"fca00d5f-2997-436f-ba8d-58032d11c09e","system_id":"levelo_inurba_marseille","lat":43.27939,"lon":5.38728,"is_reserved":false,"is_disabled":true,"rental_uris":{"android":"levelo://app?vid=fca00d5f-2997-436f-ba8d-58032d11c09e","ios":"levelo://app?vid=fca00d5f-2997-436f-ba8d-58032d11c09e"},"vehicle_type_id":"4","last_reported":1769073790,"current_range_meters":6000,"station_id":"ce4bhg12rcd13ifvqf80","pricing_plan_id":"cebpf4jnsgd1na2vs0mg"},{"bike_id":"206441f8-aeae-4f5a-aba6-5de70a26d57c","system_id":"levelo_inurba_marseille","lat":43.265455,"lon":5.372873,"is_reserved":false,"is_disabled":false,"rental_uris":{"android":"levelo://app?vid=206441f8-aeae-4f5a-aba6-5de70a26d57c","ios":"levelo://app?vid=206441f8-aeae-4f5a-aba6-5de70a26d57c"},"vehicle_type_id":"4","last_reported":1769073790,"current_range_meters":6000,"station_id":"ce4bhg12rcd13ifvqf70","pricing_plan_id":"cebpf4jnsgd1na2vs0mg"},{"bike_id":"abb88afc-d82b-4ba7-ab70-224a7abe4dfa","system_id":"levelo_inurba_marseille","lat":43.32492,"lon":5.38264,"is_reserved":false,"is_disabled":false,"rental_uris":{"android":"levelo://app?vid=abb88afc-d82b-4ba7-ab70-224a7abe4dfa","ios":"levelo://app?vid=abb88afc-d82b-4ba7-ab70-224a7abe4dfa"},"vehicle_type_id":"4","last_reported":1769073790,"current_range_meters":6000,"station_id":"st_d4asgbiv49dc73anf9m0","pricing_plan_id":"cebpf4jnsgd1na2vs0mg"},{"bike_id":"607c435d-5fb0-4f63-b221-a58bdcfdc9c2","system_id":"levelo_inurba_marseille","lat":43.24989,"lon":5.38961,"is_reserved":false,"is_disabled":false,"rental_uris":{"android":"levelo://app?vid=607c435d-5fb0-4f63-b221-a58bdcfdc9c2","ios":"levelo://app?vid=607c435d-5fb0-4f63-b221-a58bdcfdc9c2"},"vehicle_type_id":"4","last_reported":1769073790,"current_range_meters":6000,"station_id":"ce4bhgp2rcd13ifvqfd0","pricing_plan_id":"cebpf4jnsgd1na2vs0mg"},{"bike_id":"94d782ce-d646-4a15-909c-4c48f4840c8d","system_id":"levelo_inurba_marseille","lat":43.25808,"lon":5.39424,"is_reserved":false,"is_disabled":false,"rental_uris":{"android":"levelo://app?vid=94d782ce-d646-4a15-909c-4c48f4840c8d","ios":"levelo://app?vid=94d782ce-d646-4a15-909c-4c48f4840c8d"},"vehicle_type_id":"4","last_reported":1769073790,"current_range_meters":6000,"station_id":"ce4bhip2rcd13ifvqft0","pricing_plan_id":"cebpf4jnsgd1na2vs0mg"},{"bike_id":"20deef10-ed33-4ec9-9903-ad6ab49b17b3","system_id":"levelo_inurba_marseille","lat":43.24449,"lon":5.42574,"is_reserved":false,"is_disabled":false,"rental_uris":{"android":"levelo://app?vid=20deef10-ed33-4ec9-9903-ad6ab49b17b3","ios":"levelo://app?vid=20deef10-ed33-4ec9-9903-ad6ab49b17b3"},"vehicle_type_id":"4","last_reported":1769073790,"current_range_meters":6000,"station_id":"st_d4a3vfp97mjs738cd8kg","pricing_plan_id":"cebpf4jnsgd1na2vs0mg"},{"bike_id":"30471bf1-4e97-480f-9e18-3f7a93804303","system_id":"levelo_inurba_marseille","lat":43.24068,"lon":5.37782,"is_reserved":false,"is_disabled":false,"rental_uris":{"android":"levelo://app?vid=30471bf1-4e97-480f-9e18-3f7a93804303","ios":"levelo://app?vid=30471bf1-4e97-480f-9e18-3f7a93804303"},"vehicle_type_id":"4","last_reported":1769073790,"current_range_meters":6000,"station_id":"ce4bhnp2rcd13ifvqgvg","pricing_plan_id":"cebpf4jnsgd1na2vs0mg"},{"bike_id":"aa2389c6-95b9-4b5c-bc06-f3cfa4609a7d","system_id":"levelo_inurba_marseille","lat":43.24664,"lon":5.38163,"is_reserved":false,"is_disabled":false,"rental_uris":{"android":"levelo://app?vid=aa2389c6-95b9-4b5c-bc06-f3cfa4609a7d","ios":"levelo://app?vid=aa2389c6-95b9-4b5c-bc06-f3cfa4609a7d"},"vehicle_type_id":"4","last_reported":1769073790,"current_range_meters":6000,"station_id":"ce4bhih2rcd13ifvqfr0","pricing_plan_id":"cebpf4jnsgd1na2vs0mg"},{"bike_id":"af0a3e3f-9d3a-4dab-b0c6-596d0f48c390","system_id":"levelo_inurba_marseille","lat":43.314987,"lon":5.373168,"is_reserved":false,"is_disabled":false,"rental_uris":{"android":"levelo://app?vid=af0a3e3f-9d3a-4dab-b0c6-596d0f48c390","ios":"levelo://app?vid=af0a3e3f-9d3a-4dab-b0c6-596d0f48c390"},"vehicle_type_id":"4","last_reported":1769073790,"current_range_meters":6400,"station_id":"","pricing_plan_id":"cebpf4jnsgd1na2vs0mg"},{"bike_id":"c5ce8352-3569-43f4-b61c-9c49854b9ea4","system_id":"levelo_inurba_marseille","lat":43.26538,"lon":5.37307,"is_reserved":false,"is_disabled":false,"rental_uris":{"android":"levelo://app?vid=c5ce8352-3569-43f4-b61c-9c49854b9ea4","ios":"levelo://app?vid=c5ce8352-3569-43f4-b61c-9c49854b9ea4"},"vehicle_type_id":"4","last_reported":1769073790,"current_range_meters":6400,"station_id":"ce4bhg12rcd13ifvqf70","pricing_plan_id":"cebpf4jnsgd1na2vs0mg"},{"bike_id":"6a8c0ad7-2105-49c1-9fae-1e4f8ed69690","system_id":"levelo_inurba_marseille","lat":43.28472,"lon":5.38418,"is_reserved":false,"is_disabled":false,"rental_uris":{"android":"levelo://app?vid=6a8c0ad7-2105-49c1-9fae-1e4f8ed69690","ios":"levelo://app?vid=6a8c0ad7-2105-49c1-9fae-1e4f8ed69690"},"vehicle_type_id":"4","last_reported":1769073790,"current_range_meters":6400,"station_id":"ce4bh512rcd13ifvqe3g","pricing_plan_id":"cebpf4jnsgd1na2vs0mg"},{"bike_id":"58247ed4-6963-471c-a864-f74679aa23cc","system_id":"levelo_inurba_marseille","lat":43.27678,"lon":5.38865,"is_reserved":false,"is_disabled":false,"rental_uris":{"android":"levelo://app?vid=58247ed4-6963-471c-a864-f74679aa23cc","ios":"levelo://app?vid=58247ed4-6963-471c-a864-f74679aa23cc"},"vehicle_type_id":"4","last_reported":1769073790,"current_range_meters":6400,"station_id":"ce4bhi12rcd13ifvqfo0","pricing_plan_id":"cebpf4jnsgd1na2vs0mg"},{"bike_id":"d8f34b5e-d831-4a3d-8643-93f2f2dfecae","system_id":"levelo_inurba_marseille","lat":43.24164,"lon":5.36407,"is_reserved":false,"is_disabled":true,"rental_uris":{"android":"levelo://app?vid=d8f34b5e-d831-4a3d-8643-93f2f2dfecae","ios":"levelo://app?vid=d8f34b5e-d831-4a3d-8643-93f2f2dfecae"},"vehicle_type_id":"4","last_reported":1769073790,"current_range_meters":6400,"station_id":"cpo36qri1sfpv3e86is0","pricing_plan_id":"cebpf4jnsgd1na2vs0mg"},{"bike_id":"aec5c08c-9f05-47e9-bb02-2d63b83fc483","system_id":"levelo_inurba_marseille","lat":43.26752,"lon":5.39246,"is_reserved":false,"is_disabled":false,"rental_uris":{"android":"levelo://app?vid=aec5c08c-9f05-47e9-bb02-2d63b83fc483","ios":"levelo://app?vid=aec5c08c-9f05-47e9-bb02-2d63b83fc483"},"vehicle_type_id":"4","last_reported":1769073790,"current_range_meters":6400,"station_id":"","pricing_plan_id":"cebpf4jnsgd1na2vs0mg"},{"bike_id":"1663b26f-83bd-42e7-acef-c5242755b042","system_id":"levelo_inurba_marseille","lat":43.27066,"lon":5.40273,"is_reserved":false,"is_disabled":false,"rental_uris":{"android":"levelo://app?vid=1663b26f-83bd-42e7-acef-c5242755b042","ios":"levelo://app?vid=1663b26f-83bd-42e7-acef-c5242755b042"},"vehicle_type_id":"4","last_reported":1769073790,"current_range_meters":6400,"station_id":"ce4bhk92rcd13ifvqgc0","pricing_plan_id":"cebpf4jnsgd1na2vs0mg"},{"bike_id":"b46047f3-1457-4788-97b8-07fb9714beba","system_id":"levelo_inurba_marseille","lat":43.32456,"lon":5.36575,"is_reserved":false,"is_disabled":false,"rental_uris":{"android":"levelo://app?vid=b46047f3-1457-4788-97b8-07fb9714beba","ios":"levelo://app?vid=b46047f3-1457-4788-97b8-07fb9714beba"},"vehicle_type_id":"4","last_reported":1769073790,"current_range_meters":6400,"station_id":"ce4bhs12rcd13ifvqhvg","pricing_plan_id":"cebpf4jnsgd1na2vs0mg"},{"bike_id":"30f7428d-5c9b-46c4-9d00-dbf16f0f1b3b","system_id":"levelo_inurba_marseille","lat":43.24078,"lon":5.37753,"is_reserved":false,"is_disabled":false,"rental_uris":{"android":"levelo://app?vid=30f7428d-5c9b-46c4-9d00-dbf16f0f1b3b","ios":"levelo://app?vid=30f7428d-5c9b-46c4-9d00-dbf16f0f1b3b"},"vehicle_type_id":"4","last_reported":1769073790,"current_range_meters":6400,"station_id":"ce4bhnp2rcd13ifvqgvg","pricing_plan_id":"cebpf4jnsgd1na2vs0mg"},{"bike_id":"a7dca984-2a89-4f7d-a4b2-c4b75083a65d","system_id":"levelo_inurba_marseille","lat":43.24638,"lon":5.38887,"is_reserved":false,"is_disabled":false,"rental_uris":{"android":"levelo://app?vid=a7dca984-2a89-4f7d-a4b2-c4b75083a65d","ios":"levelo://app?vid=a7dca984-2a89-4f7d-a4b2-c4b75083a65d"},"vehicle_type_id":"4","last_reported":1769073790,"current_range_meters":6400,"station_id":"ce4bh392rcd13ifvqdl0","pricing_plan_id":"cebpf4jnsgd1na2vs0mg"},{"bike_id":"737cdf6e-8c2e-4b43-8e7d-478c69e4c6a4","system_id":"levelo_inurba_marseille","lat":43.330652,"lon":5.390161,"is_reserved":false,"is_disabled":false,"rental_uris":{"android":"levelo://app?vid=737cdf6e-8c2e-4b43-8e7d-478c69e4c6a4","ios":"levelo://app?vid=737cdf6e-8c2e-4b43-8e7d-478c69e4c6a4"},"vehicle_type_id":"4","last_reported":1769073790,"current_range_meters":6400,"station_id":"","pricing_plan_id":"cebpf4jnsgd1na2vs0mg"},{"bike_id":"a9d2cbb9-b682-43b1-9072-2e382fcdc0f1","system_id":"levelo_inurba_marseille","lat":43.244704,"lon":5.425449,"is_reserved":false,"is_disabled":false,"rental_uris":{"android":"levelo://app?vid=a9d2cbb9-b682-43b1-9072-2e382fcdc0f1","ios":"levelo://app?vid=a9d2cbb9-b682-43b1-9072-2e382fcdc0f1"},"vehicle_type_id":"4","last_reported":1769073790,"current_range_meters":6800,"station_id":"st_d4a3vfp97mjs738cd8kg","pricing_plan_id":"cebpf4jnsgd1na2vs0mg"},{"bike_id":"fc5d102e-6a36-4a5b-99d5-23cf30eec9b5","system_id":"levelo_inurba_marseille","lat":43.23189,"lon":5.3555,"is_reserved":false,"is_disabled":false,"rental_uris":{"android":"levelo://app?vid=fc5d102e-6a36-4a5b-99d5-23cf30eec9b5","ios":"levelo://app?vid=fc5d102e-6a36-4a5b-99d5-23cf30eec9b5"},"vehicle_type_id":"4","last_reported":1769073790,"current_range_meters":6800,"station_id":"ce4bhu92rcd13ifvqi70","pricing_plan_id":"cebpf4jnsgd1na2vs0mg"},{"bike_id":"37a6ba89-0d66-46be-ad14-7de2d3d5b58b","system_id":"levelo_inurba_marseille","lat":43.27058,"lon":5.40259,"is_reserved":false,"is_disabled":false,"rental_uris":{"android":"levelo://app?vid=37a6ba89-0d66-46be-ad14-7de2d3d5b58b","ios":"levelo://app?vid=37a6ba89-0d66-46be-ad14-7de2d3d5b58b"},"vehicle_type_id":"4","last_reported":1769073790,"current_range_meters":6800,"station_id":"ce4bhk92rcd13ifvqgc0","pricing_plan_id":"cebpf4jnsgd1na2vs0mg"},{"bike_id":"96211231-e125-49f0-8cc9-82b3d3d6626e","system_id":"levelo_inurba_marseille","lat":43.25934,"lon":5.40902,"is_reserved":false,"is_disabled":false,"rental_uris":{"android":"levelo://app?vid=96211231-e125-49f0-8cc9-82b3d3d6626e","ios":"levelo://app?vid=96211231-e125-49f0-8cc9-82b3d3d6626e"},"vehicle_type_id":"4","last_reported":1769073790,"current_range_meters":6800,"station_id":"ce4bhm92rcd13ifvqglg","pricing_plan_id":"cebpf4jnsgd1na2vs0mg"},{"bike_id":"bd3222b3-dffe-4214-a25c-da1b23e1c71b","system_id":"levelo_inurba_marseille","lat":43.32351,"lon":5.36759,"is_reserved":false,"is_disabled":false,"rental_uris":{"android":"levelo://app?vid=bd3222b3-dffe-4214-a25c-da1b23e1c71b","ios":"levelo://app?vid=bd3222b3-dffe-4214-a25c-da1b23e1c71b"},"vehicle_type_id":"4","last_reported":1769073790,"current_range_meters":6800,"station_id":"ce4bhsh2rcd13ifvqi2g","pricing_plan_id":"cebpf4jnsgd1na2vs0mg"},{"bike_id":"f6eb85c1-f53f-4dc1-8797-0471cff4e32e","system_id":"levelo_inurba_marseille","lat":43.28531,"lon":5.39105,"is_reserved":false,"is_disabled":false,"rental_uris":{"android":"levelo://app?vid=f6eb85c1-f53f-4dc1-8797-0471cff4e32e","ios":"levelo://app?vid=f6eb85c1-f53f-4dc1-8797-0471cff4e32e"},"vehicle_type_id":"4","last_reported":1769073790,"current_range_meters":6800,"station_id":"","pricing_plan_id":"cebpf4jnsgd1na2vs0mg"},{"bike_id":"ba2e7536-daf9-41db-b757-eb25b3fc32e1","system_id":"levelo_inurba_marseille","lat":43.26775,"lon":5.39462,"is_reserved":false,"is_disabled":false,"rental_uris":{"android":"levelo://app?vid=ba2e7536-daf9-41db-b757-eb25b3fc32e1","ios":"levelo://app?vid=ba2e7536-daf9-41db-b757-eb25b3fc32e1"},"vehicle_type_id":"4","last_reported":1769073790,"current_range_meters":6800,"station_id":"ce4bhh12rcd13ifvqfg0","pricing_plan_id":"cebpf4jnsgd1na2vs0mg"},{"bike_id":"811e4109-4554-441e-908e-4c588b5c7adf","system_id":"levelo_inurba_marseille","lat":43.29724,"lon":5.36903,"is_reserved":false,"is_disabled":false,"rental_uris":{"android":"levelo://app?vid=811e4109-4554-441e-908e-4c588b5c7adf","ios":"levelo://app?vid=811e4109-4554-441e-908e-4c588b5c7adf"},"vehicle_type_id":"4","last_reported":1769073790,"current_range_meters":6800,"station_id":"","pricing_plan_id":"cebpf4jnsgd1na2vs0mg"},{"bike_id":"23a4afae-de50-43f1-9f93-9e3fdc29e476","system_id":"levelo_inurba_marseille","lat":43.31364,"lon":5.38509,"is_reserved":false,"is_disabled":false,"rental_uris":{"android":"levelo://app?vid=23a4afae-de50-43f1-9f93-9e3fdc29e476","ios":"levelo://app?vid=23a4afae-de50-43f1-9f93-9e3fdc29e476"},"vehicle_type_id":"4","last_reported":1769073790,"current_range_meters":6800,"station_id":"ce4bgt92rcd13ifvqcf0","pricing_plan_id":"cebpf4jnsgd1na2vs0mg"},{"bike_id":"33299776-2c9b-4959-8c33-6a412a8deb29","system_id":"levelo_inurba_marseille","lat":43.23153,"lon":5.43715,"is_reserved":false,"is_disabled":false,"rental_uris":{"android":"levelo://app?vid=33299776-2c9b-4959-8c33-6a412a8deb29","ios":"levelo://app?vid=33299776-2c9b-4959-8c33-6a412a8deb29"},"vehicle_type_id":"4","last_reported":1769073790,"current_range_meters":6800,"station_id":"ce4bhmp2rcd13ifvqgog","pricing_plan_id":"cebpf4jnsgd1na2vs0mg"},{"bike_id":"34f1985a-bd26-4e1f-8660-e000031e3ca5","system_id":"levelo_inurba_marseille","lat":43.23018,"lon":5.35528,"is_reserved":false,"is_disabled":false,"rental_uris":{"android":"levelo://app?vid=34f1985a-bd26-4e1f-8660-e000031e3ca5","ios":"levelo://app?vid=34f1985a-bd26-4e1f-8660-e000031e3ca5"},"vehicle_type_id":"4","last_reported":1769073790,"current_range_meters":6800,"station_id":"cpo3342slgdg3j2ifvpg","pricing_plan_id":"cebpf4jnsgd1na2vs0mg"},{"bike_id":"63550df3-d87e-4087-bfb2-31599e2ca646","system_id":"levelo_inurba_marseille","lat":43.25815,"lon":5.39431,"is_reserved":false,"is_disabled":false,"rental_uris":{"android":"levelo://app?vid=63550df3-d87e-4087-bfb2-31599e2ca646","ios":"levelo://app?vid=63550df3-d87e-4087-bfb2-31599e2ca646"},"vehicle_type_id":"4","last_reported":1769073790,"current_range_meters":6800,"station_id":"ce4bhip2rcd13ifvqft0","pricing_plan_id":"cebpf4jnsgd1na2vs0mg"},{"bike_id":"352e25c3-d500-445b-a100-fb81faaa4fa9","system_id":"levelo_inurba_marseille","lat":43.28398,"lon":5.37525,"is_reserved":false,"is_disabled":false,"rental_uris":{"android":"levelo://app?vid=352e25c3-d500-445b-a100-fb81faaa4fa9","ios":"levelo://app?vid=352e25c3-d500-445b-a100-fb81faaa4fa9"},"vehicle_type_id":"4","last_reported":1769073790,"current_range_meters":6800,"station_id":"ce4bh412rcd13ifvqds0","pricing_plan_id":"cebpf4jnsgd1na2vs0mg"},{"bike_id":"972359c4-05bb-4f8e-af7d-43910963583c","system_id":"levelo_inurba_marseille","lat":43.29003,"lon":5.35607,"is_reserved":false,"is_disabled":false,"rental_uris":{"android":"levelo://app?vid=972359c4-05bb-4f8e-af7d-43910963583c","ios":"levelo://app?vid=972359c4-05bb-4f8e-af7d-43910963583c"},"vehicle_type_id":"4","last_reported":1769073790,"current_range_meters":6800,"station_id":"ce4bhb92rcd13ifvqen0","pricing_plan_id":"cebpf4jnsgd1na2vs0mg"},{"bike_id":"b05d35a6-a4b1-4f68-ab22-eac501a6370f","system_id":"levelo_inurba_marseille","lat":43.323605,"lon":5.367677,"is_reserved":false,"is_disabled":false,"rental_uris":{"android":"levelo://app?vid=b05d35a6-a4b1-4f68-ab22-eac501a6370f","ios":"levelo://app?vid=b05d35a6-a4b1-4f68-ab22-eac501a6370f"},"vehicle_type_id":"4","last_reported":1769073790,"current_range_meters":6800,"station_id":"ce4bhsh2rcd13ifvqi2g","pricing_plan_id":"cebpf4jnsgd1na2vs0mg"},{"bike_id":"471742b2-16c3-4feb-bdfc-82a83db2a585","system_id":"levelo_inurba_marseille","lat":43.30539,"lon":5.3656,"is_reserved":false,"is_disabled":false,"rental_uris":{"android":"levelo://app?vid=471742b2-16c3-4feb-bdfc-82a83db2a585","ios":"levelo://app?vid=471742b2-16c3-4feb-bdfc-82a83db2a585"},"vehicle_type_id":"4","last_reported":1769073790,"current_range_meters":6800,"station_id":"ce4bgs12rcd13ifvqcag","pricing_plan_id":"cebpf4jnsgd1na2vs0mg"},{"bike_id":"1a3a0437-b48a-4c95-9ddc-47cf70ba0ca8","system_id":"levelo_inurba_marseille","lat":43.30959,"lon":5.39032,"is_reserved":false,"is_disabled":false,"rental_uris":{"android":"levelo://app?vid=1a3a0437-b48a-4c95-9ddc-47cf70ba0ca8","ios":"levelo://app?vid=1a3a0437-b48a-4c95-9ddc-47cf70ba0ca8"},"vehicle_type_id":"4","last_reported":1769073790,"current_range_meters":6800,"station_id":"ce4bgup2rcd13ifvqco0","pricing_plan_id":"cebpf4jnsgd1na2vs0mg"},{"bike_id":"e3fe8bab-9b08-44ae-bcfb-5f41b4700269","system_id":"levelo_inurba_marseille","lat":43.24654,"lon":5.38162,"is_reserved":false,"is_disabled":false,"rental_uris":{"android":"levelo://app?vid=e3fe8bab-9b08-44ae-bcfb-5f41b4700269","ios":"levelo://app?vid=e3fe8bab-9b08-44ae-bcfb-5f41b4700269"},"vehicle_type_id":"4","last_reported":1769073790,"current_range_meters":6800,"station_id":"ce4bhih2rcd13ifvqfr0","pricing_plan_id":"cebpf4jnsgd1na2vs0mg"},{"bike_id":"53bcc5bd-2ed3-431d-8ce9-6a3cc9f0faca","system_id":"levelo_inurba_marseille","lat":43.24802,"lon":5.37452,"is_reserved":false,"is_disabled":false,"rental_uris":{"android":"levelo://app?vid=53bcc5bd-2ed3-431d-8ce9-6a3cc9f0faca","ios":"levelo://app?vid=53bcc5bd-2ed3-431d-8ce9-6a3cc9f0faca"},"vehicle_type_id":"4","last_reported":1769073790,"current_range_meters":6800,"station_id":"ce4bhgh2rcd13ifvqfb0","pricing_plan_id":"cebpf4jnsgd1na2vs0mg"},{"bike_id":"232afcd8-1d69-488e-b4c2-da7c066e27b7","system_id":"levelo_inurba_marseille","lat":43.28,"lon":5.40011,"is_reserved":false,"is_disabled":false,"rental_uris":{"android":"levelo://app?vid=232afcd8-1d69-488e-b4c2-da7c066e27b7","ios":"levelo://app?vid=232afcd8-1d69-488e-b4c2-da7c066e27b7"},"vehicle_type_id":"4","last_reported":1769073790,"current_range_meters":6800,"station_id":"ce4bho92rcd13ifvqh4g","pricing_plan_id":"cebpf4jnsgd1na2vs0mg"},{"bike_id":"62931247-4aff-4f68-9011-cb1aa7863151","system_id":"levelo_inurba_marseille","lat":43.25564,"lon":5.38249,"is_reserved":false,"is_disabled":false,"rental_uris":{"android":"levelo://app?vid=62931247-4aff-4f68-9011-cb1aa7863151","ios":"levelo://app?vid=62931247-4aff-4f68-9011-cb1aa7863151"},"vehicle_type_id":"4","last_reported":1769073790,"current_range_meters":6800,"station_id":"ce4bhih2rcd13ifvqfs0","pricing_plan_id":"cebpf4jnsgd1na2vs0mg"},{"bike_id":"5b8789d8-8a74-46cb-9a03-3650cf54c996","system_id":"levelo_inurba_marseille","lat":43.24679,"lon":5.43135,"is_reserved":false,"is_disabled":false,"rental_uris":{"android":"levelo://app?vid=5b8789d8-8a74-46cb-9a03-3650cf54c996","ios":"levelo://app?vid=5b8789d8-8a74-46cb-9a03-3650cf54c996"},"vehicle_type_id":"4","last_reported":1769073790,"current_range_meters":6800,"station_id":"st_d2m6c4gdas8pm72e190g","pricing_plan_id":"cebpf4jnsgd1na2vs0mg"},{"bike_id":"af3e4ec7-913b-43cf-991c-29cf9d90a50c","system_id":"levelo_inurba_marseille","lat":43.31048,"lon":5.37156,"is_reserved":false,"is_disabled":false,"rental_uris":{"android":"levelo://app?vid=af3e4ec7-913b-43cf-991c-29cf9d90a50c","ios":"levelo://app?vid=af3e4ec7-913b-43cf-991c-29cf9d90a50c"},"vehicle_type_id":"4","last_reported":1769073790,"current_range_meters":6800,"station_id":"st_d4kl2rp97mjs73e7tdfg","pricing_plan_id":"cebpf4jnsgd1na2vs0mg"},{"bike_id":"7cdafa4b-9668-4d06-b7c8-067188a44316","system_id":"levelo_inurba_marseille","lat":43.2466,"lon":5.38151,"is_reserved":false,"is_disabled":false,"rental_uris":{"android":"levelo://app?vid=7cdafa4b-9668-4d06-b7c8-067188a44316","ios":"levelo://app?vid=7cdafa4b-9668-4d06-b7c8-067188a44316"},"vehicle_type_id":"4","last_reported":1769073790,"current_range_meters":6800,"station_id":"ce4bhih2rcd13ifvqfr0","pricing_plan_id":"cebpf4jnsgd1na2vs0mg"},{"bike_id":"756842e0-b53e-46c2-a183-413f67f1a28f","system_id":"levelo_inurba_marseille","lat":43.30441,"lon":5.37926,"is_reserved":false,"is_disabled":false,"rental_uris":{"android":"levelo://app?vid=756842e0-b53e-46c2-a183-413f67f1a28f","ios":"levelo://app?vid=756842e0-b53e-46c2-a183-413f67f1a28f"},"vehicle_type_id":"4","last_reported":1769073790,"current_range_meters":7200,"station_id":"ce4bgup2rcd13ifvqcn0","pricing_plan_id":"cebpf4jnsgd1na2vs0mg"},{"bike_id":"5d7c7859-ff96-4e9c-be77-fd7bfbaff711","system_id":"levelo_inurba_marseille","lat":43.28972,"lon":5.37854,"is_reserved":false,"is_disabled":false,"rental_uris":{"android":"levelo://app?vid=5d7c7859-ff96-4e9c-be77-fd7bfbaff711","ios":"levelo://app?vid=5d7c7859-ff96-4e9c-be77-fd7bfbaff711"},"vehicle_type_id":"4","last_reported":1769073790,"current_range_meters":7200,"station_id":"ce4bh9p2rcd13ifvqed0","pricing_plan_id":"cebpf4jnsgd1na2vs0mg"},{"bike_id":"64e59352-db7b-4a96-b493-c56df4d992e8","system_id":"levelo_inurba_marseille","lat":43.29258,"lon":5.37637,"is_reserved":false,"is_disabled":false,"rental_uris":{"android":"levelo://app?vid=64e59352-db7b-4a96-b493-c56df4d992e8","ios":"levelo://app?vid=64e59352-db7b-4a96-b493-c56df4d992e8"},"vehicle_type_id":"4","last_reported":1769073790,"current_range_meters":7200,"station_id":"ce4bgi12rcd13ifvqb80","pricing_plan_id":"cebpf4jnsgd1na2vs0mg"},{"bike_id":"70ec0511-e52a-49ea-be05-4a133e84b443","system_id":"levelo_inurba_marseille","lat":43.31079,"lon":5.38335,"is_reserved":false,"is_disabled":false,"rental_uris":{"android":"levelo://app?vid=70ec0511-e52a-49ea-be05-4a133e84b443","ios":"levelo://app?vid=70ec0511-e52a-49ea-be05-4a133e84b443"},"vehicle_type_id":"4","last_reported":1769073790,"current_range_meters":7200,"station_id":"ce4bgv92rcd13ifvqcr0","pricing_plan_id":"cebpf4jnsgd1na2vs0mg"},{"bike_id":"01c732cc-5cd6-4f68-aa5b-bba65270e62e","system_id":"levelo_inurba_marseille","lat":43.30952,"lon":5.39037,"is_reserved":false,"is_disabled":false,"rental_uris":{"android":"levelo://app?vid=01c732cc-5cd6-4f68-aa5b-bba65270e62e","ios":"levelo://app?vid=01c732cc-5cd6-4f68-aa5b-bba65270e62e"},"vehicle_type_id":"4","last_reported":1769073790,"current_range_meters":7200,"station_id":"ce4bgup2rcd13ifvqco0","pricing_plan_id":"cebpf4jnsgd1na2vs0mg"},{"bike_id":"d8344329-153b-4a08-9de8-fc84530e10b9","system_id":"levelo_inurba_marseille","lat":43.23781,"lon":5.36647,"is_reserved":false,"is_disabled":false,"rental_uris":{"android":"levelo://app?vid=d8344329-153b-4a08-9de8-fc84530e10b9","ios":"levelo://app?vid=d8344329-153b-4a08-9de8-fc84530e10b9"},"vehicle_type_id":"4","last_reported":1769073790,"current_range_meters":7200,"station_id":"st_d3nk18o9ro0c73en2l3g","pricing_plan_id":"cebpf4jnsgd1na2vs0mg"},{"bike_id":"f98220fc-889d-44fd-83c4-b74d36c9d0de","system_id":"levelo_inurba_marseille","lat":43.30099,"lon":5.43131,"is_reserved":false,"is_disabled":false,"rental_uris":{"android":"levelo://app?vid=f98220fc-889d-44fd-83c4-b74d36c9d0de","ios":"levelo://app?vid=f98220fc-889d-44fd-83c4-b74d36c9d0de"},"vehicle_type_id":"4","last_reported":1769073790,"current_range_meters":7200,"station_id":"st_d3js3co5814s73ftftug","pricing_plan_id":"cebpf4jnsgd1na2vs0mg"},{"bike_id":"9442084c-3381-47e8-b2dc-95ca76f97342","system_id":"levelo_inurba_marseille","lat":43.25013,"lon":5.38929,"is_reserved":false,"is_disabled":false,"rental_uris":{"android":"levelo://app?vid=9442084c-3381-47e8-b2dc-95ca76f97342","ios":"levelo://app?vid=9442084c-3381-47e8-b2dc-95ca76f97342"},"vehicle_type_id":"4","last_reported":1769073790,"current_range_meters":7200,"station_id":"ce4bhgp2rcd13ifvqfd0","pricing_plan_id":"cebpf4jnsgd1na2vs0mg"},{"bike_id":"6fedd87d-43f4-49d4-8c29-92430be6252f","system_id":"levelo_inurba_marseille","lat":43.2811,"lon":5.36643,"is_reserved":false,"is_disabled":false,"rental_uris":{"android":"levelo://app?vid=6fedd87d-43f4-49d4-8c29-92430be6252f","ios":"levelo://app?vid=6fedd87d-43f4-49d4-8c29-92430be6252f"},"vehicle_type_id":"4","last_reported":1769073790,"current_range_meters":7200,"station_id":"","pricing_plan_id":"cebpf4jnsgd1na2vs0mg"},{"bike_id":"66b52710-c980-4dbe-934a-c3e8ffc0f9e1","system_id":"levelo_inurba_marseille","lat":43.33159,"lon":5.37685,"is_reserved":false,"is_disabled":false,"rental_uris":{"android":"levelo://app?vid=66b52710-c980-4dbe-934a-c3e8ffc0f9e1","ios":"levelo://app?vid=66b52710-c980-4dbe-934a-c3e8ffc0f9e1"},"vehicle_type_id":"4","last_reported":1769073790,"current_range_meters":7200,"station_id":"st_d46cu089ee8s73dldbu0","pricing_plan_id":"cebpf4jnsgd1na2vs0mg"},{"bike_id":"22bc6d8e-7e0c-4234-afe0-c88e2589ac70","system_id":"levelo_inurba_marseille","lat":43.27083,"lon":5.39914,"is_reserved":false,"is_disabled":false,"rental_uris":{"android":"levelo://app?vid=22bc6d8e-7e0c-4234-afe0-c88e2589ac70","ios":"levelo://app?vid=22bc6d8e-7e0c-4234-afe0-c88e2589ac70"},"vehicle_type_id":"4","last_reported":1769073790,"current_range_meters":7200,"station_id":"","pricing_plan_id":"cebpf4jnsgd1na2vs0mg"},{"bike_id":"cab66220-3a5f-4db2-a4cc-4d6a96578d3b","system_id":"levelo_inurba_marseille","lat":43.30144,"lon":5.38107,"is_reserved":false,"is_disabled":false,"rental_uris":{"android":"levelo://app?vid=cab66220-3a5f-4db2-a4cc-4d6a96578d3b","ios":"levelo://app?vid=cab66220-3a5f-4db2-a4cc-4d6a96578d3b"},"vehicle_type_id":"4","last_reported":1769073790,"current_range_meters":7200,"station_id":"ce4bgjp2rcd13ifvqbh0","pricing_plan_id":"cebpf4jnsgd1na2vs0mg"},{"bike_id":"d68cd528-87dc-4a28-8471-721b0cea6df0","system_id":"levelo_inurba_marseille","lat":43.28139,"lon":5.39252,"is_reserved":false,"is_disabled":false,"rental_uris":{"android":"levelo://app?vid=d68cd528-87dc-4a28-8471-721b0cea6df0","ios":"levelo://app?vid=d68cd528-87dc-4a28-8471-721b0cea6df0"},"vehicle_type_id":"4","last_reported":1769073790,"current_range_meters":7200,"station_id":"","pricing_plan_id":"cebpf4jnsgd1na2vs0mg"},{"bike_id":"14a8ee4e-79d5-40ba-9f2d-be4d84ed1852","system_id":"levelo_inurba_marseille","lat":43.23151,"lon":5.43724,"is_reserved":false,"is_disabled":false,"rental_uris":{"android":"levelo://app?vid=14a8ee4e-79d5-40ba-9f2d-be4d84ed1852","ios":"levelo://app?vid=14a8ee4e-79d5-40ba-9f2d-be4d84ed1852"},"vehicle_type_id":"4","last_reported":1769073790,"current_range_meters":7200,"station_id":"ce4bhmp2rcd13ifvqgog","pricing_plan_id":"cebpf4jnsgd1na2vs0mg"},{"bike_id":"596c41c7-2beb-4c3c-8922-aa97d708cd66","system_id":"levelo_inurba_marseille","lat":43.32341,"lon":5.36745,"is_reserved":false,"is_disabled":false,"rental_uris":{"android":"levelo://app?vid=596c41c7-2beb-4c3c-8922-aa97d708cd66","ios":"levelo://app?vid=596c41c7-2beb-4c3c-8922-aa97d708cd66"},"vehicle_type_id":"4","last_reported":1769073790,"current_range_meters":7200,"station_id":"ce4bhsh2rcd13ifvqi2g","pricing_plan_id":"cebpf4jnsgd1na2vs0mg"},{"bike_id":"3206456b-45fe-4b57-ad6e-10515c2f78b7","system_id":"levelo_inurba_marseille","lat":43.24459,"lon":5.42567,"is_reserved":false,"is_disabled":false,"rental_uris":{"android":"levelo://app?vid=3206456b-45fe-4b57-ad6e-10515c2f78b7","ios":"levelo://app?vid=3206456b-45fe-4b57-ad6e-10515c2f78b7"},"vehicle_type_id":"4","last_reported":1769073790,"current_range_meters":7200,"station_id":"st_d4a3vfp97mjs738cd8kg","pricing_plan_id":"cebpf4jnsgd1na2vs0mg"},{"bike_id":"53f2879f-b266-431f-832c-1df1cfd5ed6b","system_id":"levelo_inurba_marseille","lat":43.30556,"lon":5.36537,"is_reserved":false,"is_disabled":false,"rental_uris":{"android":"levelo://app?vid=53f2879f-b266-431f-832c-1df1cfd5ed6b","ios":"levelo://app?vid=53f2879f-b266-431f-832c-1df1cfd5ed6b"},"vehicle_type_id":"4","last_reported":1769073790,"current_range_meters":7200,"station_id":"ce4bgs12rcd13ifvqcag","pricing_plan_id":"cebpf4jnsgd1na2vs0mg"},{"bike_id":"6174d709-613f-41f4-8b11-eb9958081e44","system_id":"levelo_inurba_marseille","lat":43.30275,"lon":5.37706,"is_reserved":false,"is_disabled":false,"rental_uris":{"android":"levelo://app?vid=6174d709-613f-41f4-8b11-eb9958081e44","ios":"levelo://app?vid=6174d709-613f-41f4-8b11-eb9958081e44"},"vehicle_type_id":"4","last_reported":1769073790,"current_range_meters":7200,"station_id":"ce4bguh2rcd13ifvqcj0","pricing_plan_id":"cebpf4jnsgd1na2vs0mg"},{"bike_id":"854dd992-d916-4ea6-a9c3-dc655df53744","system_id":"levelo_inurba_marseille","lat":43.23179,"lon":5.35549,"is_reserved":false,"is_disabled":false,"rental_uris":{"android":"levelo://app?vid=854dd992-d916-4ea6-a9c3-dc655df53744","ios":"levelo://app?vid=854dd992-d916-4ea6-a9c3-dc655df53744"},"vehicle_type_id":"4","last_reported":1769073790,"current_range_meters":7200,"station_id":"ce4bhu92rcd13ifvqi70","pricing_plan_id":"cebpf4jnsgd1na2vs0mg"},{"bike_id":"2804df29-35ab-4f63-a109-7d4225e69f19","system_id":"levelo_inurba_marseille","lat":43.24065,"lon":5.3777,"is_reserved":false,"is_disabled":false,"rental_uris":{"android":"levelo://app?vid=2804df29-35ab-4f63-a109-7d4225e69f19","ios":"levelo://app?vid=2804df29-35ab-4f63-a109-7d4225e69f19"},"vehicle_type_id":"4","last_reported":1769073790,"current_range_meters":8000,"station_id":"ce4bhnp2rcd13ifvqgvg","pricing_plan_id":"cebpf4jnsgd1na2vs0mg"},{"bike_id":"9f3cc405-111a-4da2-8e1e-ee66c58efaef","system_id":"levelo_inurba_marseille","lat":43.30937,"lon":5.39045,"is_reserved":false,"is_disabled":false,"rental_uris":{"android":"levelo://app?vid=9f3cc405-111a-4da2-8e1e-ee66c58efaef","ios":"levelo://app?vid=9f3cc405-111a-4da2-8e1e-ee66c58efaef"},"vehicle_type_id":"4","last_reported":1769073790,"current_range_meters":8000,"station_id":"ce4bgup2rcd13ifvqco0","pricing_plan_id":"cebpf4jnsgd1na2vs0mg"},{"bike_id":"ef98f7f5-20f4-4ce3-b656-6b2383d969b9","system_id":"levelo_inurba_marseille","lat":43.28927,"lon":5.39629,"is_reserved":false,"is_disabled":false,"rental_uris":{"android":"levelo://app?vid=ef98f7f5-20f4-4ce3-b656-6b2383d969b9","ios":"levelo://app?vid=ef98f7f5-20f4-4ce3-b656-6b2383d969b9"},"vehicle_type_id":"4","last_reported":1769073790,"current_range_meters":8000,"station_id":"ce4bh3h2rcd13ifvqdn0","pricing_plan_id":"cebpf4jnsgd1na2vs0mg"},{"bike_id":"f937a57b-876e-4112-8def-d43cc1095f9c","system_id":"levelo_inurba_marseille","lat":43.25935,"lon":5.40915,"is_reserved":false,"is_disabled":false,"rental_uris":{"android":"levelo://app?vid=f937a57b-876e-4112-8def-d43cc1095f9c","ios":"levelo://app?vid=f937a57b-876e-4112-8def-d43cc1095f9c"},"vehicle_type_id":"4","last_reported":1769073790,"current_range_meters":8000,"station_id":"ce4bhm92rcd13ifvqglg","pricing_plan_id":"cebpf4jnsgd1na2vs0mg"},{"bike_id":"0e7da989-bf09-4900-8747-fc51c0a98600","system_id":"levelo_inurba_marseille","lat":43.30863,"lon":5.37191,"is_reserved":false,"is_disabled":false,"rental_uris":{"android":"levelo://app?vid=0e7da989-bf09-4900-8747-fc51c0a98600","ios":"levelo://app?vid=0e7da989-bf09-4900-8747-fc51c0a98600"},"vehicle_type_id":"4","last_reported":1769073790,"current_range_meters":8000,"station_id":"ce4bguh2rcd13ifvqckg","pricing_plan_id":"cebpf4jnsgd1na2vs0mg"},{"bike_id":"4b5aa404-a223-4202-a9b4-4364010f0fb4","system_id":"levelo_inurba_marseille","lat":43.33763,"lon":5.37473,"is_reserved":false,"is_disabled":false,"rental_uris":{"android":"levelo://app?vid=4b5aa404-a223-4202-a9b4-4364010f0fb4","ios":"levelo://app?vid=4b5aa404-a223-4202-a9b4-4364010f0fb4"},"vehicle_type_id":"4","last_reported":1769073790,"current_range_meters":8000,"station_id":"","pricing_plan_id":"cebpf4jnsgd1na2vs0mg"},{"bike_id":"38500cf7-d381-439e-970e-63b5ac41074b","system_id":"levelo_inurba_marseille","lat":43.24541,"lon":5.39521,"is_reserved":false,"is_disabled":false,"rental_uris":{"android":"levelo://app?vid=38500cf7-d381-439e-970e-63b5ac41074b","ios":"levelo://app?vid=38500cf7-d381-439e-970e-63b5ac41074b"},"vehicle_type_id":"4","last_reported":1769073790,"current_range_meters":8000,"station_id":"ce4bhlp2rcd13ifvqgjg","pricing_plan_id":"cebpf4jnsgd1na2vs0mg"},{"bike_id":"8faea1bc-2bab-43f5-883d-baf4d0b180cc","system_id":"levelo_inurba_marseille","lat":43.31107,"lon":5.37756,"is_reserved":false,"is_disabled":false,"rental_uris":{"android":"levelo://app?vid=8faea1bc-2bab-43f5-883d-baf4d0b180cc","ios":"levelo://app?vid=8faea1bc-2bab-43f5-883d-baf4d0b180cc"},"vehicle_type_id":"4","last_reported":1769073790,"current_range_meters":8000,"station_id":"ce4bgt92rcd13ifvqcg0","pricing_plan_id":"cebpf4jnsgd1na2vs0mg"},{"bike_id":"9d86a94f-f259-4bff-8fc3-bc1bf1b477e4","system_id":"levelo_inurba_marseille","lat":43.25846,"lon":5.41842,"is_reserved":false,"is_disabled":false,"rental_uris":{"android":"levelo://app?vid=9d86a94f-f259-4bff-8fc3-bc1bf1b477e4","ios":"levelo://app?vid=9d86a94f-f259-4bff-8fc3-bc1bf1b477e4"},"vehicle_type_id":"4","last_reported":1769073790,"current_range_meters":8000,"station_id":"","pricing_plan_id":"cebpf4jnsgd1na2vs0mg"},{"bike_id":"546ef6cf-e8ca-4bce-93fd-0ea356be5f62","system_id":"levelo_inurba_marseille","lat":43.27197,"lon":5.39197,"is_reserved":false,"is_disabled":false,"rental_uris":{"android":"levelo://app?vid=546ef6cf-e8ca-4bce-93fd-0ea356be5f62","ios":"levelo://app?vid=546ef6cf-e8ca-4bce-93fd-0ea356be5f62"},"vehicle_type_id":"4","last_reported":1769073790,"current_range_meters":8000,"station_id":"ce4bhhp2rcd13ifvqfm0","pricing_plan_id":"cebpf4jnsgd1na2vs0mg"},{"bike_id":"3998b630-1550-4129-b95e-2d12a38501a1","system_id":"levelo_inurba_marseille","lat":43.25568,"lon":5.38253,"is_reserved":false,"is_disabled":false,"rental_uris":{"android":"levelo://app?vid=3998b630-1550-4129-b95e-2d12a38501a1","ios":"levelo://app?vid=3998b630-1550-4129-b95e-2d12a38501a1"},"vehicle_type_id":"4","last_reported":1769073790,"current_range_meters":8000,"station_id":"ce4bhih2rcd13ifvqfs0","pricing_plan_id":"cebpf4jnsgd1na2vs0mg"},{"bike_id":"68ffced6-4091-4bb6-a329-12f39214727f","system_id":"levelo_inurba_marseille","lat":43.3029,"lon":5.37933,"is_reserved":false,"is_disabled":false,"rental_uris":{"android":"levelo://app?vid=68ffced6-4091-4bb6-a329-12f39214727f","ios":"levelo://app?vid=68ffced6-4091-4bb6-a329-12f39214727f"},"vehicle_type_id":"4","last_reported":1769073790,"current_range_meters":8000,"station_id":"","pricing_plan_id":"cebpf4jnsgd1na2vs0mg"},{"bike_id":"f39628e7-f451-4af8-80af-ee31b074b0b2","system_id":"levelo_inurba_marseille","lat":43.285395,"lon":5.440943,"is_reserved":false,"is_disabled":false,"rental_uris":{"android":"levelo://app?vid=f39628e7-f451-4af8-80af-ee31b074b0b2","ios":"levelo://app?vid=f39628e7-f451-4af8-80af-ee31b074b0b2"},"vehicle_type_id":"4","last_reported":1769073790,"current_range_meters":8000,"station_id":"st_d3j3df2ikq2c7380ej80","pricing_plan_id":"cebpf4jnsgd1na2vs0mg"},{"bike_id":"f9143ecb-aade-4bb9-990c-9859476787e9","system_id":"levelo_inurba_marseille","lat":43.237758,"lon":5.366342,"is_reserved":false,"is_disabled":false,"rental_uris":{"android":"levelo://app?vid=f9143ecb-aade-4bb9-990c-9859476787e9","ios":"levelo://app?vid=f9143ecb-aade-4bb9-990c-9859476787e9"},"vehicle_type_id":"4","last_reported":1769073790,"current_range_meters":8000,"station_id":"st_d3nk18o9ro0c73en2l3g","pricing_plan_id":"cebpf4jnsgd1na2vs0mg"},{"bike_id":"2e99c23e-daff-4ea9-962e-a0b3d884603f","system_id":"levelo_inurba_marseille","lat":43.29961,"lon":5.38502,"is_reserved":false,"is_disabled":false,"rental_uris":{"android":"levelo://app?vid=2e99c23e-daff-4ea9-962e-a0b3d884603f","ios":"levelo://app?vid=2e99c23e-daff-4ea9-962e-a0b3d884603f"},"vehicle_type_id":"4","last_reported":1769073790,"current_range_meters":8000,"station_id":"ce4bgj92rcd13ifvqbd0","pricing_plan_id":"cebpf4jnsgd1na2vs0mg"},{"bike_id":"0415c496-20d0-4139-a2d3-2d5d5dc1bfee","system_id":"levelo_inurba_marseille","lat":43.271999,"lon":5.391892,"is_reserved":false,"is_disabled":true,"rental_uris":{"android":"levelo://app?vid=0415c496-20d0-4139-a2d3-2d5d5dc1bfee","ios":"levelo://app?vid=0415c496-20d0-4139-a2d3-2d5d5dc1bfee"},"vehicle_type_id":"4","last_reported":1769073790,"current_range_meters":8000,"station_id":"ce4bhg92rcd13ifvqf90","pricing_plan_id":"cebpf4jnsgd1na2vs0mg"},{"bike_id":"c9dee47c-00b4-4792-bb20-0e804a11ccd5","system_id":"levelo_inurba_marseille","lat":43.30131,"lon":5.38088,"is_reserved":false,"is_disabled":false,"rental_uris":{"android":"levelo://app?vid=c9dee47c-00b4-4792-bb20-0e804a11ccd5","ios":"levelo://app?vid=c9dee47c-00b4-4792-bb20-0e804a11ccd5"},"vehicle_type_id":"4","last_reported":1769073790,"current_range_meters":8000,"station_id":"ce4bgjp2rcd13ifvqbh0","pricing_plan_id":"cebpf4jnsgd1na2vs0mg"},{"bike_id":"6e714a71-c5a6-4d28-a347-ad98996c5474","system_id":"levelo_inurba_marseille","lat":43.25569,"lon":5.38248,"is_reserved":false,"is_disabled":true,"rental_uris":{"android":"levelo://app?vid=6e714a71-c5a6-4d28-a347-ad98996c5474","ios":"levelo://app?vid=6e714a71-c5a6-4d28-a347-ad98996c5474"},"vehicle_type_id":"4","last_reported":1769073790,"current_range_meters":8000,"station_id":"ce4bhih2rcd13ifvqfs0","pricing_plan_id":"cebpf4jnsgd1na2vs0mg"},{"bike_id":"a7fb3316-2e45-4c8a-9c59-45c39f8905da","system_id":"levelo_inurba_marseille","lat":43.30455,"lon":5.37912,"is_reserved":false,"is_disabled":false,"rental_uris":{"android":"levelo://app?vid=a7fb3316-2e45-4c8a-9c59-45c39f8905da","ios":"levelo://app?vid=a7fb3316-2e45-4c8a-9c59-45c39f8905da"},"vehicle_type_id":"4","last_reported":1769073790,"current_range_meters":8000,"station_id":"ce4bgup2rcd13ifvqcn0","pricing_plan_id":"cebpf4jnsgd1na2vs0mg"},{"bike_id":"5630e9f9-70f3-4757-a8dd-7793cc2c1fe2","system_id":"levelo_inurba_marseille","lat":43.25575,"lon":5.3823,"is_reserved":false,"is_disabled":false,"rental_uris":{"android":"levelo://app?vid=5630e9f9-70f3-4757-a8dd-7793cc2c1fe2","ios":"levelo://app?vid=5630e9f9-70f3-4757-a8dd-7793cc2c1fe2"},"vehicle_type_id":"4","last_reported":1769073790,"current_range_meters":8000,"station_id":"ce4bhih2rcd13ifvqfs0","pricing_plan_id":"cebpf4jnsgd1na2vs0mg"},{"bike_id":"dde60dbb-b900-4b06-9e06-a1eb5a638331","system_id":"levelo_inurba_marseille","lat":43.27203,"lon":5.39193,"is_reserved":false,"is_disabled":false,"rental_uris":{"android":"levelo://app?vid=dde60dbb-b900-4b06-9e06-a1eb5a638331","ios":"levelo://app?vid=dde60dbb-b900-4b06-9e06-a1eb5a638331"},"vehicle_type_id":"4","last_reported":1769073790,"current_range_meters":8000,"station_id":"ce4bhhp2rcd13ifvqfm0","pricing_plan_id":"cebpf4jnsgd1na2vs0mg"},{"bike_id":"6cde08db-2d60-4fc0-a7d5-505f4f93c6d4","system_id":"levelo_inurba_marseille","lat":43.33546,"lon":5.37478,"is_reserved":false,"is_disabled":false,"rental_uris":{"android":"levelo://app?vid=6cde08db-2d60-4fc0-a7d5-505f4f93c6d4","ios":"levelo://app?vid=6cde08db-2d60-4fc0-a7d5-505f4f93c6d4"},"vehicle_type_id":"4","last_reported":1769073790,"current_range_meters":8000,"station_id":"","pricing_plan_id":"cebpf4jnsgd1na2vs0mg"},{"bike_id":"ebe96ec5-523d-45fa-ab5f-5846c56fbfbe","system_id":"levelo_inurba_marseille","lat":43.2416,"lon":5.39729,"is_reserved":false,"is_disabled":false,"rental_uris":{"android":"levelo://app?vid=ebe96ec5-523d-45fa-ab5f-5846c56fbfbe","ios":"levelo://app?vid=ebe96ec5-523d-45fa-ab5f-5846c56fbfbe"},"vehicle_type_id":"4","last_reported":1769073790,"current_range_meters":8000,"station_id":"ce4bhn12rcd13ifvqgpg","pricing_plan_id":"cebpf4jnsgd1na2vs0mg"},{"bike_id":"d23c003e-9bf5-4696-aa44-f72b72dd1e2e","system_id":"levelo_inurba_marseille","lat":43.29039,"lon":5.39977,"is_reserved":false,"is_disabled":false,"rental_uris":{"android":"levelo://app?vid=d23c003e-9bf5-4696-aa44-f72b72dd1e2e","ios":"levelo://app?vid=d23c003e-9bf5-4696-aa44-f72b72dd1e2e"},"vehicle_type_id":"4","last_reported":1769073790,"current_range_meters":8000,"station_id":"ce4bh392rcd13ifvqdm0","pricing_plan_id":"cebpf4jnsgd1na2vs0mg"},{"bike_id":"ff0abe3a-541a-4b03-b925-2d332a8f803b","system_id":"levelo_inurba_marseille","lat":43.27207,"lon":5.39184,"is_reserved":false,"is_disabled":false,"rental_uris":{"android":"levelo://app?vid=ff0abe3a-541a-4b03-b925-2d332a8f803b","ios":"levelo://app?vid=ff0abe3a-541a-4b03-b925-2d332a8f803b"},"vehicle_type_id":"4","last_reported":1769073790,"current_range_meters":8000,"station_id":"ce4bhhp2rcd13ifvqfm0","pricing_plan_id":"cebpf4jnsgd1na2vs0mg"},{"bike_id":"9602bfb2-a38b-4065-8c80-dc0f09d03485","system_id":"levelo_inurba_marseille","lat":43.23154,"lon":5.35623,"is_reserved":false,"is_disabled":false,"rental_uris":{"android":"levelo://app?vid=9602bfb2-a38b-4065-8c80-dc0f09d03485","ios":"levelo://app?vid=9602bfb2-a38b-4065-8c80-dc0f09d03485"},"vehicle_type_id":"4","last_reported":1769073790,"current_range_meters":8000,"station_id":"","pricing_plan_id":"cebpf4jnsgd1na2vs0mg"},{"bike_id":"13ca385c-a413-4986-a4a0-d03067293031","system_id":"levelo_inurba_marseille","lat":43.232029,"lon":5.355649,"is_reserved":false,"is_disabled":false,"rental_uris":{"android":"levelo://app?vid=13ca385c-a413-4986-a4a0-d03067293031","ios":"levelo://app?vid=13ca385c-a413-4986-a4a0-d03067293031"},"vehicle_type_id":"4","last_reported":1769073790,"current_range_meters":8400,"station_id":"ce4bhu92rcd13ifvqi70","pricing_plan_id":"cebpf4jnsgd1na2vs0mg"},{"bike_id":"53563e6b-7433-47cd-b7e5-a8b0077cc14f","system_id":"levelo_inurba_marseille","lat":43.24061,"lon":5.37772,"is_reserved":false,"is_disabled":false,"rental_uris":{"android":"levelo://app?vid=53563e6b-7433-47cd-b7e5-a8b0077cc14f","ios":"levelo://app?vid=53563e6b-7433-47cd-b7e5-a8b0077cc14f"},"vehicle_type_id":"4","last_reported":1769073790,"current_range_meters":8400,"station_id":"ce4bhnp2rcd13ifvqgvg","pricing_plan_id":"cebpf4jnsgd1na2vs0mg"},{"bike_id":"ae72a7f7-0a78-43a1-a80c-a2893de3e9bb","system_id":"levelo_inurba_marseille","lat":43.24806,"lon":5.37453,"is_reserved":false,"is_disabled":false,"rental_uris":{"android":"levelo://app?vid=ae72a7f7-0a78-43a1-a80c-a2893de3e9bb","ios":"levelo://app?vid=ae72a7f7-0a78-43a1-a80c-a2893de3e9bb"},"vehicle_type_id":"4","last_reported":1769073790,"current_range_meters":8400,"station_id":"ce4bhgh2rcd13ifvqfb0","pricing_plan_id":"cebpf4jnsgd1na2vs0mg"},{"bike_id":"ae227eb2-1fdf-4e8d-a590-394b7c8c9569","system_id":"levelo_inurba_marseille","lat":43.2905,"lon":5.40076,"is_reserved":false,"is_disabled":false,"rental_uris":{"android":"levelo://app?vid=ae227eb2-1fdf-4e8d-a590-394b7c8c9569","ios":"levelo://app?vid=ae227eb2-1fdf-4e8d-a590-394b7c8c9569"},"vehicle_type_id":"4","last_reported":1769073790,"current_range_meters":8400,"station_id":"ce4bh392rcd13ifvqdm0","pricing_plan_id":"cebpf4jnsgd1na2vs0mg"},{"bike_id":"5d14e776-1d07-4b7f-b396-c836b99253da","system_id":"levelo_inurba_marseille","lat":43.2606,"lon":5.393973,"is_reserved":false,"is_disabled":false,"rental_uris":{"android":"levelo://app?vid=5d14e776-1d07-4b7f-b396-c836b99253da","ios":"levelo://app?vid=5d14e776-1d07-4b7f-b396-c836b99253da"},"vehicle_type_id":"4","last_reported":1769073790,"current_range_meters":8400,"station_id":"","pricing_plan_id":"cebpf4jnsgd1na2vs0mg"},{"bike_id":"f3930ccb-7366-4820-9b16-8e40e47cf10f","system_id":"levelo_inurba_marseille","lat":43.2455,"lon":5.39529,"is_reserved":false,"is_disabled":false,"rental_uris":{"android":"levelo://app?vid=f3930ccb-7366-4820-9b16-8e40e47cf10f","ios":"levelo://app?vid=f3930ccb-7366-4820-9b16-8e40e47cf10f"},"vehicle_type_id":"4","last_reported":1769073790,"current_range_meters":8400,"station_id":"ce4bhlp2rcd13ifvqgjg","pricing_plan_id":"cebpf4jnsgd1na2vs0mg"},{"bike_id":"2bea03e9-5485-4b68-b596-82541de966b5","system_id":"levelo_inurba_marseille","lat":43.30903,"lon":5.3687,"is_reserved":false,"is_disabled":false,"rental_uris":{"android":"levelo://app?vid=2bea03e9-5485-4b68-b596-82541de966b5","ios":"levelo://app?vid=2bea03e9-5485-4b68-b596-82541de966b5"},"vehicle_type_id":"4","last_reported":1769073790,"current_range_meters":8400,"station_id":"ce4bgn92rcd13ifvqbvg","pricing_plan_id":"cebpf4jnsgd1na2vs0mg"},{"bike_id":"ef0873b0-6b38-46bb-9d0f-786d453393ec","system_id":"levelo_inurba_marseille","lat":43.29012,"lon":5.38141,"is_reserved":false,"is_disabled":false,"rental_uris":{"android":"levelo://app?vid=ef0873b0-6b38-46bb-9d0f-786d453393ec","ios":"levelo://app?vid=ef0873b0-6b38-46bb-9d0f-786d453393ec"},"vehicle_type_id":"4","last_reported":1769073790,"current_range_meters":8400,"station_id":"ce4bh4p2rcd13ifvqe1g","pricing_plan_id":"cebpf4jnsgd1na2vs0mg"},{"bike_id":"3b364841-63d1-4d4f-bb34-83c89b251a49","system_id":"levelo_inurba_marseille","lat":43.308905,"lon":5.372013,"is_reserved":false,"is_disabled":false,"rental_uris":{"android":"levelo://app?vid=3b364841-63d1-4d4f-bb34-83c89b251a49","ios":"levelo://app?vid=3b364841-63d1-4d4f-bb34-83c89b251a49"},"vehicle_type_id":"4","last_reported":1769073790,"current_range_meters":8400,"station_id":"ce4bguh2rcd13ifvqckg","pricing_plan_id":"cebpf4jnsgd1na2vs0mg"},{"bike_id":"a4580f65-348a-4dd7-abc2-61e41d60b157","system_id":"levelo_inurba_marseille","lat":43.27499,"lon":5.42453,"is_reserved":false,"is_disabled":false,"rental_uris":{"android":"levelo://app?vid=a4580f65-348a-4dd7-abc2-61e41d60b157","ios":"levelo://app?vid=a4580f65-348a-4dd7-abc2-61e41d60b157"},"vehicle_type_id":"4","last_reported":1769073790,"current_range_meters":8400,"station_id":"ce4bhn92rcd13ifvqgrg","pricing_plan_id":"cebpf4jnsgd1na2vs0mg"},{"bike_id":"537e70d3-fdc0-45b9-a04a-47d149ee5ca5","system_id":"levelo_inurba_marseille","lat":43.2572,"lon":5.4111,"is_reserved":false,"is_disabled":false,"rental_uris":{"android":"levelo://app?vid=537e70d3-fdc0-45b9-a04a-47d149ee5ca5","ios":"levelo://app?vid=537e70d3-fdc0-45b9-a04a-47d149ee5ca5"},"vehicle_type_id":"4","last_reported":1769073790,"current_range_meters":8400,"station_id":"ce4bhkp2rcd13ifvqgd0","pricing_plan_id":"cebpf4jnsgd1na2vs0mg"},{"bike_id":"4568df28-8966-47d1-8aff-4132d45a8570","system_id":"levelo_inurba_marseille","lat":43.29567,"lon":5.37514,"is_reserved":false,"is_disabled":false,"rental_uris":{"android":"levelo://app?vid=4568df28-8966-47d1-8aff-4132d45a8570","ios":"levelo://app?vid=4568df28-8966-47d1-8aff-4132d45a8570"},"vehicle_type_id":"4","last_reported":1769073790,"current_range_meters":8400,"station_id":"ce4bgh92rcd13ifvqb50","pricing_plan_id":"cebpf4jnsgd1na2vs0mg"},{"bike_id":"861bb7de-0e5d-4b2e-aab7-e5d1b3a5eab9","system_id":"levelo_inurba_marseille","lat":43.2315,"lon":5.4372,"is_reserved":false,"is_disabled":false,"rental_uris":{"android":"levelo://app?vid=861bb7de-0e5d-4b2e-aab7-e5d1b3a5eab9","ios":"levelo://app?vid=861bb7de-0e5d-4b2e-aab7-e5d1b3a5eab9"},"vehicle_type_id":"4","last_reported":1769073790,"current_range_meters":8400,"station_id":"ce4bhmp2rcd13ifvqgog","pricing_plan_id":"cebpf4jnsgd1na2vs0mg"},{"bike_id":"96963a0d-1a7f-4335-a7c5-ff6e5f999404","system_id":"levelo_inurba_marseille","lat":43.28724,"lon":5.37936,"is_reserved":false,"is_disabled":false,"rental_uris":{"android":"levelo://app?vid=96963a0d-1a7f-4335-a7c5-ff6e5f999404","ios":"levelo://app?vid=96963a0d-1a7f-4335-a7c5-ff6e5f999404"},"vehicle_type_id":"4","last_reported":1769073790,"current_range_meters":8400,"station_id":"ce4bh9p2rcd13ifvqec0","pricing_plan_id":"cebpf4jnsgd1na2vs0mg"},{"bike_id":"ab9499b3-abff-4421-b1a9-c82468c64280","system_id":"levelo_inurba_marseille","lat":43.269487,"lon":5.386344,"is_reserved":false,"is_disabled":false,"rental_uris":{"android":"levelo://app?vid=ab9499b3-abff-4421-b1a9-c82468c64280","ios":"levelo://app?vid=ab9499b3-abff-4421-b1a9-c82468c64280"},"vehicle_type_id":"4","last_reported":1769073790,"current_range_meters":8400,"station_id":"ce4bhh92rcd13ifvqfh0","pricing_plan_id":"cebpf4jnsgd1na2vs0mg"},{"bike_id":"25898245-1fb1-4a00-908b-4cee04508425","system_id":"levelo_inurba_marseille","lat":43.30963,"lon":5.3906,"is_reserved":false,"is_disabled":false,"rental_uris":{"android":"levelo://app?vid=25898245-1fb1-4a00-908b-4cee04508425","ios":"levelo://app?vid=25898245-1fb1-4a00-908b-4cee04508425"},"vehicle_type_id":"4","last_reported":1769073790,"current_range_meters":8800,"station_id":"ce4bgup2rcd13ifvqco0","pricing_plan_id":"cebpf4jnsgd1na2vs0mg"},{"bike_id":"cbd6d55e-5809-4853-9878-dbbf6af6a148","system_id":"levelo_inurba_marseille","lat":43.28866,"lon":5.4253,"is_reserved":false,"is_disabled":false,"rental_uris":{"android":"levelo://app?vid=cbd6d55e-5809-4853-9878-dbbf6af6a148","ios":"levelo://app?vid=cbd6d55e-5809-4853-9878-dbbf6af6a148"},"vehicle_type_id":"4","last_reported":1769073790,"current_range_meters":8800,"station_id":"st_d3b462108ojc7389ooeg","pricing_plan_id":"cebpf4jnsgd1na2vs0mg"},{"bike_id":"6055bb6e-3d5f-4359-bcc3-e96115ee8c1f","system_id":"levelo_inurba_marseille","lat":43.25577,"lon":5.38248,"is_reserved":false,"is_disabled":false,"rental_uris":{"android":"levelo://app?vid=6055bb6e-3d5f-4359-bcc3-e96115ee8c1f","ios":"levelo://app?vid=6055bb6e-3d5f-4359-bcc3-e96115ee8c1f"},"vehicle_type_id":"4","last_reported":1769073790,"current_range_meters":8800,"station_id":"ce4bhih2rcd13ifvqfs0","pricing_plan_id":"cebpf4jnsgd1na2vs0mg"},{"bike_id":"12d65139-8fbd-418b-8523-1b0952363e37","system_id":"levelo_inurba_marseille","lat":43.24633,"lon":5.38951,"is_reserved":false,"is_disabled":false,"rental_uris":{"android":"levelo://app?vid=12d65139-8fbd-418b-8523-1b0952363e37","ios":"levelo://app?vid=12d65139-8fbd-418b-8523-1b0952363e37"},"vehicle_type_id":"4","last_reported":1769073790,"current_range_meters":8800,"station_id":"ce4bhg12rcd13ifvqf60","pricing_plan_id":"cebpf4jnsgd1na2vs0mg"},{"bike_id":"a1cf0267-a9c6-4cb7-b49a-598a4cc67209","system_id":"levelo_inurba_marseille","lat":43.23183,"lon":5.35542,"is_reserved":false,"is_disabled":false,"rental_uris":{"android":"levelo://app?vid=a1cf0267-a9c6-4cb7-b49a-598a4cc67209","ios":"levelo://app?vid=a1cf0267-a9c6-4cb7-b49a-598a4cc67209"},"vehicle_type_id":"4","last_reported":1769073790,"current_range_meters":8800,"station_id":"ce4bhu92rcd13ifvqi70","pricing_plan_id":"cebpf4jnsgd1na2vs0mg"},{"bike_id":"cc9f4717-497d-46b4-8770-89f5df0571cd","system_id":"levelo_inurba_marseille","lat":43.243928,"lon":5.37091,"is_reserved":false,"is_disabled":false,"rental_uris":{"android":"levelo://app?vid=cc9f4717-497d-46b4-8770-89f5df0571cd","ios":"levelo://app?vid=cc9f4717-497d-46b4-8770-89f5df0571cd"},"vehicle_type_id":"4","last_reported":1769073790,"current_range_meters":8800,"station_id":"ce4bhhh2rcd13ifvqfk0","pricing_plan_id":"cebpf4jnsgd1na2vs0mg"},{"bike_id":"983dfa04-9e71-401d-b498-feaefa1c2d24","system_id":"levelo_inurba_marseille","lat":43.2699,"lon":5.3921,"is_reserved":false,"is_disabled":false,"rental_uris":{"android":"levelo://app?vid=983dfa04-9e71-401d-b498-feaefa1c2d24","ios":"levelo://app?vid=983dfa04-9e71-401d-b498-feaefa1c2d24"},"vehicle_type_id":"4","last_reported":1769073790,"current_range_meters":8800,"station_id":"","pricing_plan_id":"cebpf4jnsgd1na2vs0mg"},{"bike_id":"983434e7-b7db-4a47-ba3e-cd485de0f943","system_id":"levelo_inurba_marseille","lat":43.30152,"lon":5.38095,"is_reserved":false,"is_disabled":false,"rental_uris":{"android":"levelo://app?vid=983434e7-b7db-4a47-ba3e-cd485de0f943","ios":"levelo://app?vid=983434e7-b7db-4a47-ba3e-cd485de0f943"},"vehicle_type_id":"4","last_reported":1769073790,"current_range_meters":8800,"station_id":"ce4bgjp2rcd13ifvqbh0","pricing_plan_id":"cebpf4jnsgd1na2vs0mg"},{"bike_id":"c462c4a3-3f5e-4fd1-8a2f-56615210c468","system_id":"levelo_inurba_marseille","lat":43.258132,"lon":5.385782,"is_reserved":false,"is_disabled":false,"rental_uris":{"android":"levelo://app?vid=c462c4a3-3f5e-4fd1-8a2f-56615210c468","ios":"levelo://app?vid=c462c4a3-3f5e-4fd1-8a2f-56615210c468"},"vehicle_type_id":"4","last_reported":1769073790,"current_range_meters":8800,"station_id":"","pricing_plan_id":"cebpf4jnsgd1na2vs0mg"},{"bike_id":"2403f0bf-de39-4f6c-b1d8-f725bb90dee3","system_id":"levelo_inurba_marseille","lat":43.241652,"lon":5.363936,"is_reserved":false,"is_disabled":false,"rental_uris":{"android":"levelo://app?vid=2403f0bf-de39-4f6c-b1d8-f725bb90dee3","ios":"levelo://app?vid=2403f0bf-de39-4f6c-b1d8-f725bb90dee3"},"vehicle_type_id":"4","last_reported":1769073790,"current_range_meters":8800,"station_id":"cpo36qri1sfpv3e86is0","pricing_plan_id":"cebpf4jnsgd1na2vs0mg"},{"bike_id":"249a4cf7-06f6-4fea-96cc-c9c6b750c37f","system_id":"levelo_inurba_marseille","lat":43.24165,"lon":5.36408,"is_reserved":false,"is_disabled":false,"rental_uris":{"android":"levelo://app?vid=249a4cf7-06f6-4fea-96cc-c9c6b750c37f","ios":"levelo://app?vid=249a4cf7-06f6-4fea-96cc-c9c6b750c37f"},"vehicle_type_id":"4","last_reported":1769073790,"current_range_meters":8800,"station_id":"cpo36qri1sfpv3e86is0","pricing_plan_id":"cebpf4jnsgd1na2vs0mg"},{"bike_id":"48a13fb2-aa96-4e6e-9601-12ca0a4fdb46","system_id":"levelo_inurba_marseille","lat":43.246548,"lon":5.388957,"is_reserved":false,"is_disabled":false,"rental_uris":{"android":"levelo://app?vid=48a13fb2-aa96-4e6e-9601-12ca0a4fdb46","ios":"levelo://app?vid=48a13fb2-aa96-4e6e-9601-12ca0a4fdb46"},"vehicle_type_id":"4","last_reported":1769073790,"current_range_meters":8800,"station_id":"ce4bhg12rcd13ifvqf60","pricing_plan_id":"cebpf4jnsgd1na2vs0mg"},{"bike_id":"dafaf639-8c17-4478-ae89-45f3a4e0f420","system_id":"levelo_inurba_marseille","lat":43.32096,"lon":5.36792,"is_reserved":false,"is_disabled":false,"rental_uris":{"android":"levelo://app?vid=dafaf639-8c17-4478-ae89-45f3a4e0f420","ios":"levelo://app?vid=dafaf639-8c17-4478-ae89-45f3a4e0f420"},"vehicle_type_id":"4","last_reported":1769073790,"current_range_meters":8800,"station_id":"ce4bhrh2rcd13ifvqhug","pricing_plan_id":"cebpf4jnsgd1na2vs0mg"},{"bike_id":"b578061a-78fe-4c42-abdc-5d111991070c","system_id":"levelo_inurba_marseille","lat":43.24545,"lon":5.39523,"is_reserved":false,"is_disabled":false,"rental_uris":{"android":"levelo://app?vid=b578061a-78fe-4c42-abdc-5d111991070c","ios":"levelo://app?vid=b578061a-78fe-4c42-abdc-5d111991070c"},"vehicle_type_id":"4","last_reported":1769073790,"current_range_meters":8800,"station_id":"ce4bhlp2rcd13ifvqgjg","pricing_plan_id":"cebpf4jnsgd1na2vs0mg"},{"bike_id":"fa026bbf-9c12-43b8-a820-2f2ab3922f54","system_id":"levelo_inurba_marseille","lat":43.30907,"lon":5.36863,"is_reserved":false,"is_disabled":false,"rental_uris":{"android":"levelo://app?vid=fa026bbf-9c12-43b8-a820-2f2ab3922f54","ios":"levelo://app?vid=fa026bbf-9c12-43b8-a820-2f2ab3922f54"},"vehicle_type_id":"4","last_reported":1769073790,"current_range_meters":8800,"station_id":"ce4bgn92rcd13ifvqbvg","pricing_plan_id":"cebpf4jnsgd1na2vs0mg"},{"bike_id":"b31a5bb2-76ea-4456-9166-4a1bc56acef2","system_id":"levelo_inurba_marseille","lat":43.303342,"lon":5.390475,"is_reserved":false,"is_disabled":false,"rental_uris":{"android":"levelo://app?vid=b31a5bb2-76ea-4456-9166-4a1bc56acef2","ios":"levelo://app?vid=b31a5bb2-76ea-4456-9166-4a1bc56acef2"},"vehicle_type_id":"4","last_reported":1769073790,"current_range_meters":8800,"station_id":"","pricing_plan_id":"cebpf4jnsgd1na2vs0mg"},{"bike_id":"267fb2bb-66f3-4c1f-a624-aae9270030c5","system_id":"levelo_inurba_marseille","lat":43.22925,"lon":5.35386,"is_reserved":false,"is_disabled":false,"rental_uris":{"android":"levelo://app?vid=267fb2bb-66f3-4c1f-a624-aae9270030c5","ios":"levelo://app?vid=267fb2bb-66f3-4c1f-a624-aae9270030c5"},"vehicle_type_id":"4","last_reported":1769073790,"current_range_meters":8800,"station_id":"cpo3532slgdg3j2ikp40","pricing_plan_id":"cebpf4jnsgd1na2vs0mg"},{"bike_id":"2fa28398-73c6-40b0-abd2-13b571db7bc0","system_id":"levelo_inurba_marseille","lat":43.26209,"lon":5.37925,"is_reserved":false,"is_disabled":false,"rental_uris":{"android":"levelo://app?vid=2fa28398-73c6-40b0-abd2-13b571db7bc0","ios":"levelo://app?vid=2fa28398-73c6-40b0-abd2-13b571db7bc0"},"vehicle_type_id":"4","last_reported":1769073790,"current_range_meters":8800,"station_id":"ce4bhjp2rcd13ifvqg90","pricing_plan_id":"cebpf4jnsgd1na2vs0mg"},