{"last_updated":1686931699,"ttl":30,"version":"2.2","data":{"bikes":[{"bike_id":"00e8f7f3-d95e-4922-acc8-5f683dc49904","system_id":"levelo_inurba_marseille","lat":43.312239,"lon":5.368562,"is_reserved":false,"is_disabled":false,"rental_uris":{"android":"levelo://app?vid=00e8f7f3-d95e-4922-acc8-5f683dc49904","ios":"levelo://app?vid=00e8f7f3-d95e-4922-acc8-5f683dc49904"},"vehicle_type_id":"4","last_reported":1686931700,"current_range_meters":0,"station_id":"ce4bgl92rcd13ifvqbq0","pricing_plan_id":"free"},{"bike_id":"d103f754-77ec-4608-b2da-3051f51aafa8","system_id":"levelo_inurba_marseille","lat":43.309076,"lon":5.368465,"is_reserved":false,"is_disabled":false,"rental_uris":{"android":"levelo://app?vid=d103f754-77ec-4608-b2da-3051f51aafa8","ios":"levelo://app?vid=d103f754-77ec-4608-b2da-3051f51aafa8"},"vehicle_type_id":"4","last_reported":1686931700,"current_range_meters":2400,"station_id":"ce4bgn92rcd13ifvqbvg","pricing_plan_id":"free"},{"bike_id":"a82e949b-7c41-4e55-b816-f3d6105e0154","system_id":"levelo_inurba_marseille","lat":43.2318,"lon":5.39991,"is_reserved":false,"is_disabled":false,"rental_uris":{"android":"levelo://app?vid=a82e949b-7c41-4e55-b816-f3d6105e0154","ios":"levelo://app?vid=a82e949b-7c41-4e55-b816-f3d6105e0154"},"vehicle_type_id":"4","last_reported":1686931700,"current_range_meters":800,"station_id":"ce4bhn12rcd13ifvqgqg","pricing_plan_id":"free"},{"bike_id":"88a14199-680b-48e3-b3a1-24361c1a5767","system_id":"levelo_inurba_marseille","lat":43.314811,"lon":5.373104,"is_reserved":false,"is_disabled":false,"rental_uris":{"android":"levelo://app?vid=88a14199-680b-48e3-b3a1-24361c1a5767","ios":"levelo://app?vid=88a14199-680b-48e3-b3a1-24361c1a5767"},"vehicle_type_id":"4","last_reported":1686931700,"current_range_meters":18800,"station_id":"ce4bgt12rcd13ifvqcd0","pricing_plan_id":"free"},{"bike_id":"c86491d4-32c7-495a-b20c-36700988e06c","system_id":"levelo_inurba_marseille","lat":43.31132,"lon":5.37817,"is_reserved":false,"is_disabled":false,"rental_uris":{"android":"levelo://app?vid=c86491d4-32c7-495a-b20c-36700988e06c","ios":"levelo://app?vid=c86491d4-32c7-495a-b20c-36700988e06c"},"vehicle_type_id":"4","last_reported":1686931700,"current_range_meters":4800,"station_id":"","pricing_plan_id":"free"},{"bike_id":"3d5f511e-1fc9-4b72-ae77-6251a9edff4e","system_id":"levelo_inurba_marseille","lat":43.317075,"lon":5.377367,"is_reserved":false,"is_disabled":false,"rental_uris":{"android":"levelo://app?vid=3d5f511e-1fc9-4b72-ae77-6251a9edff4e","ios":"levelo://app?vid=3d5f511e-1fc9-4b72-ae77-6251a9edff4e"},"vehicle_type_id":"4","last_reported":1686931700,"current_range_meters":31200,"station_id":"ce4bgth2rcd13ifvqch0","pricing_plan_id":"free"},{"bike_id":"156d0da5-aaf7-4bd0-bb9e-79dc41a2d471","system_id":"levelo_inurba_marseille","lat":43.317075,"lon":5.377367,"is_reserved":false,"is_disabled":false,"rental_uris":{"android":"levelo://app?vid=156d0da5-aaf7-4bd0-bb9e-79dc41a2d471","ios":"levelo://app?vid=156d0da5-aaf7-4bd0-bb9e-79dc41a2d471"},"vehicle_type_id":"4","last_reported":1686931700,"current_range_meters":14000,"station_id":"ce4bgth2rcd13ifvqch0","pricing_plan_id":"free"},{"bike_id":"2424216c-0462-4ad0-b127-d0366c91b61c","system_id":"levelo_inurba_marseille","lat":43.31713,"lon":5.37757,"is_reserved":false,"is_disabled":false,"rental_uris":{"android":"levelo://app?vid=2424216c-0462-4ad0-b127-d0366c91b61c","ios":"levelo://app?vid=2424216c-0462-4ad0-b127-d0366c91b61c"},"vehicle_type_id":"4","last_reported":1686931700,"current_range_meters":30000,"station_id":"ce4bgth2rcd13ifvqch0","pricing_plan_id":"free"},{"bike_id":"77cb414d-fe31-45ac-9113-3258e5dd92e3","system_id":"levelo_inurba_marseille","lat":43.301939,"lon":5.366286,"is_reserved":false,"is_disabled":false,"rental_uris":{"android":"levelo://app?vid=77cb414d-fe31-45ac-9113-3258e5dd92e3","ios":"levelo://app?vid=77cb414d-fe31-45ac-9113-3258e5dd92e3"},"vehicle_type_id":"4","last_reported":1686931700,"current_range_meters":0,"station_id":"ce4bgrh2rcd13ifvqc8g","pricing_plan_id":"free"},{"bike_id":"ed9aedb1-0a83-41c1-87d0-1200b04a5b15","system_id":"levelo_inurba_marseille","lat":43.301939,"lon":5.366286,"is_reserved":false,"is_disabled":false,"rental_uris":{"android":"levelo://app?vid=ed9aedb1-0a83-41c1-87d0-1200b04a5b15","ios":"levelo://app?vid=ed9aedb1-0a83-41c1-87d0-1200b04a5b15"},"vehicle_type_id":"4","last_reported":1686931700,"current_range_meters":16000,"station_id":"ce4bgrh2rcd13ifvqc8g","pricing_plan_id":"free"},{"bike_id":"ae33307b-fcd5-479b-9ae1-9002ed226c6e","system_id":"levelo_inurba_marseille","lat":43.308012,"lon":5.381511,"is_reserved":false,"is_disabled":false,"rental_uris":{"android":"levelo://app?vid=ae33307b-fcd5-479b-9ae1-9002ed226c6e","ios":"levelo://app?vid=ae33307b-fcd5-479b-9ae1-9002ed226c6e"},"vehicle_type_id":"4","last_reported":1686931700,"current_range_meters":14400,"station_id":"ce4bgt12rcd13ifvqce0","pricing_plan_id":"free"},{"bike_id":"3183a673-be87-4555-9b83-f8a19f59b115","system_id":"levelo_inurba_marseille","lat":43.296129,"lon":5.370777,"is_reserved":false,"is_disabled":false,"rental_uris":{"android":"levelo://app?vid=3183a673-be87-4555-9b83-f8a19f59b115","ios":"levelo://app?vid=3183a673-be87-4555-9b83-f8a19f59b115"},"vehicle_type_id":"4","last_reported":1686931700,"current_range_meters":5600,"station_id":"ce4bgnh2rcd13ifvqc0g","pricing_plan_id":"free"},{"bike_id":"fc4a69da-5dee-4c68-8631-20ee11bc487b","system_id":"levelo_inurba_marseille","lat":43.304606,"lon":5.379026,"is_reserved":false,"is_disabled":false,"rental_uris":{"android":"levelo://app?vid=fc4a69da-5dee-4c68-8631-20ee11bc487b","ios":"levelo://app?vid=fc4a69da-5dee-4c68-8631-20ee11bc487b"},"vehicle_type_id":"4","last_reported":1686931700,"current_range_meters":30400,"station_id":"ce4bgup2rcd13ifvqcn0","pricing_plan_id":"free"},{"bike_id":"32827146-2d6b-4fb1-b00e-6b2f535ca544","system_id":"levelo_inurba_marseille","lat":43.30498,"lon":5.3794,"is_reserved":false,"is_disabled":false,"rental_uris":{"android":"levelo://app?vid=32827146-2d6b-4fb1-b00e-6b2f535ca544","ios":"levelo://app?vid=32827146-2d6b-4fb1-b00e-6b2f535ca544"},"vehicle_type_id":"4","last_reported":1686931700,"current_range_meters":31200,"station_id":"","pricing_plan_id":"free"},{"bike_id":"43fc693e-f2a9-4aec-8fd9-d094bb02cb70","system_id":"levelo_inurba_marseille","lat":43.304606,"lon":5.379026,"is_reserved":false,"is_disabled":false,"rental_uris":{"android":"levelo://app?vid=43fc693e-f2a9-4aec-8fd9-d094bb02cb70","ios":"levelo://app?vid=43fc693e-f2a9-4aec-8fd9-d094bb02cb70"},"vehicle_type_id":"4","last_reported":1686931700,"current_range_meters":24800,"station_id":"ce4bgup2rcd13ifvqcn0","pricing_plan_id":"free"},{"bike_id":"19ebe6fa-83b0-4d5b-a2b8-0eeb66a711c2","system_id":"levelo_inurba_marseille","lat":43.30144,"lon":5.37424,"is_reserved":false,"is_disabled":false,"rental_uris":{"android":"levelo://app?vid=19ebe6fa-83b0-4d5b-a2b8-0eeb66a711c2","ios":"levelo://app?vid=19ebe6fa-83b0-4d5b-a2b8-0eeb66a711c2"},"vehicle_type_id":"4","last_reported":1686931700,"current_range_meters":22400,"station_id":"ce4bgs92rcd13ifvqcc0","pricing_plan_id":"free"},{"bike_id":"f44ce66e-50c6-4e5e-9e98-f1a03601b87e","system_id":"levelo_inurba_marseille","lat":43.299222,"lon":5.365554,"is_reserved":false,"is_disabled":false,"rental_uris":{"android":"levelo://app?vid=f44ce66e-50c6-4e5e-9e98-f1a03601b87e","ios":"levelo://app?vid=f44ce66e-50c6-4e5e-9e98-f1a03601b87e"},"vehicle_type_id":"4","last_reported":1686931700,"current_range_meters":12000,"station_id":"ce4bgm92rcd13ifvqbr0","pricing_plan_id":"free"},{"bike_id":"330412da-b9eb-49fa-9ba0-9288ee9ddd31","system_id":"levelo_inurba_marseille","lat":43.30048,"lon":5.37514,"is_reserved":false,"is_disabled":false,"rental_uris":{"android":"levelo://app?vid=330412da-b9eb-49fa-9ba0-9288ee9ddd31","ios":"levelo://app?vid=330412da-b9eb-49fa-9ba0-9288ee9ddd31"},"vehicle_type_id":"4","last_reported":1686931700,"current_range_meters":22800,"station_id":"","pricing_plan_id":"free"},{"bike_id":"44394163-b155-4827-9bee-a03d1cd9a1a9","system_id":"levelo_inurba_marseille","lat":43.298433,"lon":5.362774,"is_reserved":false,"is_disabled":false,"rental_uris":{"android":"levelo://app?vid=44394163-b155-4827-9bee-a03d1cd9a1a9","ios":"levelo://app?vid=44394163-b155-4827-9bee-a03d1cd9a1a9"},"vehicle_type_id":"4","last_reported":1686931700,"current_range_meters":25200,"station_id":"ce4bgpp2rcd13ifvqc3g","pricing_plan_id":"free"},{"bike_id":"e7cd6154-6493-451c-8d72-e6fadf86e7de","system_id":"levelo_inurba_marseille","lat":43.305364,"lon":5.384119,"is_reserved":false,"is_disabled":false,"rental_uris":{"android":"levelo://app?vid=e7cd6154-6493-451c-8d72-e6fadf86e7de","ios":"levelo://app?vid=e7cd6154-6493-451c-8d72-e6fadf86e7de"},"vehicle_type_id":"4","last_reported":1686931700,"current_range_meters":0,"station_id":"ce4bgg92rcd13ifvqb30","pricing_plan_id":"free"},{"bike_id":"e2bb8a06-8dbf-4066-94db-319d0c74f1f1","system_id":"levelo_inurba_marseille","lat":43.30539,"lon":5.38432,"is_reserved":false,"is_disabled":false,"rental_uris":{"android":"levelo://app?vid=e2bb8a06-8dbf-4066-94db-319d0c74f1f1","ios":"levelo://app?vid=e2bb8a06-8dbf-4066-94db-319d0c74f1f1"},"vehicle_type_id":"4","last_reported":1686931700,"current_range_meters":4000,"station_id":"ce4bgg92rcd13ifvqb30","pricing_plan_id":"free"},{"bike_id":"176f4894-d7fc-460e-aa5d-7c8c1e206dc3","system_id":"levelo_inurba_marseille","lat":43.297163,"lon":5.365866,"is_reserved":false,"is_disabled":false,"rental_uris":{"android":"levelo://app?vid=176f4894-d7fc-460e-aa5d-7c8c1e206dc3","ios":"levelo://app?vid=176f4894-d7fc-460e-aa5d-7c8c1e206dc3"},"vehicle_type_id":"4","last_reported":1686931700,"current_range_meters":20000,"station_id":"ce4bgn12rcd13ifvqbt0","pricing_plan_id":"free"},{"bike_id":"88d0330c-5bb0-4a19-9b65-d4683b42e015","system_id":"levelo_inurba_marseille","lat":43.29683,"lon":5.36046,"is_reserved":false,"is_disabled":false,"rental_uris":{"android":"levelo://app?vid=88d0330c-5bb0-4a19-9b65-d4683b42e015","ios":"levelo://app?vid=88d0330c-5bb0-4a19-9b65-d4683b42e015"},"vehicle_type_id":"4","last_reported":1686931700,"current_range_meters":10000,"station_id":"ce4bgpp2rcd13ifvqc3g","pricing_plan_id":"free"},{"bike_id":"0a29f01d-1196-434e-87d6-fccf1a2d5d3d","system_id":"levelo_inurba_marseille","lat":43.29625,"lon":5.371623,"is_reserved":false,"is_disabled":false,"rental_uris":{"android":"levelo://app?vid=0a29f01d-1196-434e-87d6-fccf1a2d5d3d","ios":"levelo://app?vid=0a29f01d-1196-434e-87d6-fccf1a2d5d3d"},"vehicle_type_id":"4","last_reported":1686931700,"current_range_meters":17600,"station_id":"","pricing_plan_id":"free"},{"bike_id":"7c5f35b1-15fa-445d-a156-8c6d08e6680f","system_id":"levelo_inurba_marseille","lat":43.296254,"lon":5.371686,"is_reserved":false,"is_disabled":false,"rental_uris":{"android":"levelo://app?vid=7c5f35b1-15fa-445d-a156-8c6d08e6680f","ios":"levelo://app?vid=7c5f35b1-15fa-445d-a156-8c6d08e6680f"},"vehicle_type_id":"4","last_reported":1686931700,"current_range_meters":15200,"station_id":"","pricing_plan_id":"free"},{"bike_id":"f752cc76-d680-47b2-9735-fe45c3c3424a","system_id":"levelo_inurba_marseille","lat":43.29623,"lon":5.37154,"is_reserved":false,"is_disabled":false,"rental_uris":{"android":"levelo://app?vid=f752cc76-d680-47b2-9735-fe45c3c3424a","ios":"levelo://app?vid=f752cc76-d680-47b2-9735-fe45c3c3424a"},"vehicle_type_id":"4","last_reported":1686931700,"current_range_meters":17200,"station_id":"","pricing_plan_id":"free"},{"bike_id":"00fda777-d499-4ecc-8f2c-4a9f8db102f4","system_id":"levelo_inurba_marseille","lat":43.296131,"lon":5.370791,"is_reserved":false,"is_disabled":false,"rental_uris":{"android":"levelo://app?vid=00fda777-d499-4ecc-8f2c-4a9f8db102f4","ios":"levelo://app?vid=00fda777-d499-4ecc-8f2c-4a9f8db102f4"},"vehicle_type_id":"4","last_reported":1686931700,"current_range_meters":29200,"station_id":"ce4bgnh2rcd13ifvqc0g","pricing_plan_id":"free"},{"bike_id":"d0910b8d-4194-40fe-9df9-75f5bb1aa04a","system_id":"levelo_inurba_marseille","lat":43.295829,"lon":5.367408,"is_reserved":false,"is_disabled":false,"rental_uris":{"android":"levelo://app?vid=d0910b8d-4194-40fe-9df9-75f5bb1aa04a","ios":"levelo://app?vid=d0910b8d-4194-40fe-9df9-75f5bb1aa04a"},"vehicle_type_id":"4","last_reported":1686931700,"current_range_meters":23200,"station_id":"","pricing_plan_id":"free"},{"bike_id":"f759cef3-18ce-49ef-ae59-50f6f4c6ddf2","system_id":"levelo_inurba_marseille","lat":43.295818,"lon":5.367413,"is_reserved":false,"is_disabled":false,"rental_uris":{"android":"levelo://app?vid=f759cef3-18ce-49ef-ae59-50f6f4c6ddf2","ios":"levelo://app?vid=f759cef3-18ce-49ef-ae59-50f6f4c6ddf2"},"vehicle_type_id":"4","last_reported":1686931700,"current_range_meters":18800,"station_id":"","pricing_plan_id":"free"},{"bike_id":"3396ae56-caa9-4725-a046-7dea913fbee1","system_id":"levelo_inurba_marseille","lat":43.295806,"lon":5.367377,"is_reserved":false,"is_disabled":false,"rental_uris":{"android":"levelo://app?vid=3396ae56-caa9-4725-a046-7dea913fbee1","ios":"levelo://app?vid=3396ae56-caa9-4725-a046-7dea913fbee1"},"vehicle_type_id":"4","last_reported":1686931700,"current_range_meters":18000,"station_id":"","pricing_plan_id":"free"},{"bike_id":"3c07f9c3-6279-478f-8b50-9bb5e7201184","system_id":"levelo_inurba_marseille","lat":43.295791,"lon":5.367257,"is_reserved":false,"is_disabled":false,"rental_uris":{"android":"levelo://app?vid=3c07f9c3-6279-478f-8b50-9bb5e7201184","ios":"levelo://app?vid=3c07f9c3-6279-478f-8b50-9bb5e7201184"},"vehicle_type_id":"4","last_reported":1686931700,"current_range_meters":3600,"station_id":"ce4bgph2rcd13ifvqc2g","pricing_plan_id":"free"},{"bike_id":"24f41ca5-b432-4feb-a0c8-a15026b97306","system_id":"levelo_inurba_marseille","lat":43.296131,"lon":5.370773,"is_reserved":false,"is_disabled":false,"rental_uris":{"android":"levelo://app?vid=24f41ca5-b432-4feb-a0c8-a15026b97306","ios":"levelo://app?vid=24f41ca5-b432-4feb-a0c8-a15026b97306"},"vehicle_type_id":"4","last_reported":1686931700,"current_range_meters":19200,"station_id":"ce4bgnh2rcd13ifvqc0g","pricing_plan_id":"free"},{"bike_id":"910c6352-7441-4546-b6c2-9ef8b6c84208","system_id":"levelo_inurba_marseille","lat":43.2991,"lon":5.38135,"is_reserved":false,"is_disabled":false,"rental_uris":{"android":"levelo://app?vid=910c6352-7441-4546-b6c2-9ef8b6c84208","ios":"levelo://app?vid=910c6352-7441-4546-b6c2-9ef8b6c84208"},"vehicle_type_id":"4","last_reported":1686931700,"current_range_meters":19200,"station_id":"ce4bgj12rcd13ifvqbc0","pricing_plan_id":"free"},{"bike_id":"850edfc1-536f-4501-b852-0856e3c5a73d","system_id":"levelo_inurba_marseille","lat":43.29907,"lon":5.38133,"is_reserved":false,"is_disabled":false,"rental_uris":{"android":"levelo://app?vid=850edfc1-536f-4501-b852-0856e3c5a73d","ios":"levelo://app?vid=850edfc1-536f-4501-b852-0856e3c5a73d"},"vehicle_type_id":"4","last_reported":1686931700,"current_range_meters":400,"station_id":"ce4bgj12rcd13ifvqbc0","pricing_plan_id":"free"},{"bike_id":"eb173bb8-9e83-4911-945a-2322c5b557be","system_id":"levelo_inurba_marseille","lat":43.299028,"lon":5.381509,"is_reserved":false,"is_disabled":false,"rental_uris":{"android":"levelo://app?vid=eb173bb8-9e83-4911-945a-2322c5b557be","ios":"levelo://app?vid=eb173bb8-9e83-4911-945a-2322c5b557be"},"vehicle_type_id":"4","last_reported":1686931700,"current_range_meters":1200,"station_id":"ce4bgj12rcd13ifvqbc0","pricing_plan_id":"free"},{"bike_id":"763c308d-a92b-4239-bf30-f9c55ab80627","system_id":"levelo_inurba_marseille","lat":43.298037,"lon":5.381066,"is_reserved":false,"is_disabled":false,"rental_uris":{"android":"levelo://app?vid=763c308d-a92b-4239-bf30-f9c55ab80627","ios":"levelo://app?vid=763c308d-a92b-4239-bf30-f9c55ab80627"},"vehicle_type_id":"4","last_reported":1686931700,"current_range_meters":0,"station_id":"ce4bgip2rcd13ifvqbb0","pricing_plan_id":"free"},{"bike_id":"1672dede-3083-44b5-8f2f-37265adae44f","system_id":"levelo_inurba_marseille","lat":43.304278,"lon":5.388868,"is_reserved":false,"is_disabled":false,"rental_uris":{"android":"levelo://app?vid=1672dede-3083-44b5-8f2f-37265adae44f","ios":"levelo://app?vid=1672dede-3083-44b5-8f2f-37265adae44f"},"vehicle_type_id":"4","last_reported":1686931700,"current_range_meters":12000,"station_id":"ce4bgk12rcd13ifvqbi0","pricing_plan_id":"free"},{"bike_id":"250c8a96-8498-4211-b8f3-1b00a8d1fbaf","system_id":"levelo_inurba_marseille","lat":43.296477,"lon":5.37768,"is_reserved":false,"is_disabled":false,"rental_uris":{"android":"levelo://app?vid=250c8a96-8498-4211-b8f3-1b00a8d1fbaf","ios":"levelo://app?vid=250c8a96-8498-4211-b8f3-1b00a8d1fbaf"},"vehicle_type_id":"4","last_reported":1686931700,"current_range_meters":20000,"station_id":"","pricing_plan_id":"free"},{"bike_id":"fd47c622-e50a-4a78-a16b-f5f2b42a9703","system_id":"levelo_inurba_marseille","lat":43.304278,"lon":5.388868,"is_reserved":false,"is_disabled":false,"rental_uris":{"android":"levelo://app?vid=fd47c622-e50a-4a78-a16b-f5f2b42a9703","ios":"levelo://app?vid=fd47c622-e50a-4a78-a16b-f5f2b42a9703"},"vehicle_type_id":"4","last_reported":1686931700,"current_range_meters":0,"station_id":"ce4bgk12rcd13ifvqbi0","pricing_plan_id":"free"},{"bike_id":"4d7a843b-c23d-4006-a7d5-9aa344f90ebc","system_id":"levelo_inurba_marseille","lat":43.295748,"lon":5.37522,"is_reserved":false,"is_disabled":false,"rental_uris":{"android":"levelo://app?vid=4d7a843b-c23d-4006-a7d5-9aa344f90ebc","ios":"levelo://app?vid=4d7a843b-c23d-4006-a7d5-9aa344f90ebc"},"vehicle_type_id":"4","last_reported":1686931700,"current_range_meters":9200,"station_id":"ce4bgh92rcd13ifvqb50","pricing_plan_id":"free"},{"bike_id":"7eb378c2-5d7d-4c41-b334-8a8c71170cfc","system_id":"levelo_inurba_marseille","lat":43.29533,"lon":5.37503,"is_reserved":false,"is_disabled":false,"rental_uris":{"android":"levelo://app?vid=7eb378c2-5d7d-4c41-b334-8a8c71170cfc","ios":"levelo://app?vid=7eb378c2-5d7d-4c41-b334-8a8c71170cfc"},"vehicle_type_id":"4","last_reported":1686931700,"current_range_meters":800,"station_id":"ce4bgkp2rcd13ifvqbmg","pricing_plan_id":"free"},{"bike_id":"e2914515-c974-49e0-8157-0501420ed4df","system_id":"levelo_inurba_marseille","lat":43.299717,"lon":5.384845,"is_reserved":false,"is_disabled":false,"rental_uris":{"android":"levelo://app?vid=e2914515-c974-49e0-8157-0501420ed4df","ios":"levelo://app?vid=e2914515-c974-49e0-8157-0501420ed4df"},"vehicle_type_id":"4","last_reported":1686931700,"current_range_meters":17600,"station_id":"ce4bgj92rcd13ifvqbd0","pricing_plan_id":"free"},{"bike_id":"5f28388a-ce1a-4816-8639-182ce601167a","system_id":"levelo_inurba_marseille","lat":43.299717,"lon":5.384845,"is_reserved":false,"is_disabled":false,"rental_uris":{"android":"levelo://app?vid=5f28388a-ce1a-4816-8639-182ce601167a","ios":"levelo://app?vid=5f28388a-ce1a-4816-8639-182ce601167a"},"vehicle_type_id":"4","last_reported":1686931700,"current_range_meters":0,"station_id":"ce4bgj92rcd13ifvqbd0","pricing_plan_id":"free"},{"bike_id":"2c9ad911-25e0-4222-8751-d809dfadd582","system_id":"levelo_inurba_marseille","lat":43.32369,"lon":5.38864,"is_reserved":false,"is_disabled":false,"rental_uris":{"android":"levelo://app?vid=2c9ad911-25e0-4222-8751-d809dfadd582","ios":"levelo://app?vid=2c9ad911-25e0-4222-8751-d809dfadd582"},"vehicle_type_id":"4","last_reported":1686931700,"current_range_meters":30000,"station_id":"ce4bhqp2rcd13ifvqhog","pricing_plan_id":"free"},{"bike_id":"8ff43016-effc-4157-b871-584c11706f73","system_id":"levelo_inurba_marseille","lat":43.32361,"lon":5.38874,"is_reserved":false,"is_disabled":false,"rental_uris":{"android":"levelo://app?vid=8ff43016-effc-4157-b871-584c11706f73","ios":"levelo://app?vid=8ff43016-effc-4157-b871-584c11706f73"},"vehicle_type_id":"4","last_reported":1686931700,"current_range_meters":28400,"station_id":"ce4bhqp2rcd13ifvqhog","pricing_plan_id":"free"},{"bike_id":"78215555-c896-40a2-aa66-c1d318a07622","system_id":"levelo_inurba_marseille","lat":43.32366,"lon":5.38874,"is_reserved":false,"is_disabled":false,"rental_uris":{"android":"levelo://app?vid=78215555-c896-40a2-aa66-c1d318a07622","ios":"levelo://app?vid=78215555-c896-40a2-aa66-c1d318a07622"},"vehicle_type_id":"4","last_reported":1686931700,"current_range_meters":10000,"station_id":"ce4bhqp2rcd13ifvqhog","pricing_plan_id":"free"},{"bike_id":"87ddf12b-ef95-4eb1-8185-c7ac6c25f28f","system_id":"levelo_inurba_marseille","lat":43.32367,"lon":5.388836,"is_reserved":false,"is_disabled":false,"rental_uris":{"android":"levelo://app?vid=87ddf12b-ef95-4eb1-8185-c7ac6c25f28f","ios":"levelo://app?vid=87ddf12b-ef95-4eb1-8185-c7ac6c25f28f"},"vehicle_type_id":"4","last_reported":1686931700,"current_range_meters":18800,"station_id":"ce4bhqp2rcd13ifvqhog","pricing_plan_id":"free"},{"bike_id":"f4bbfba1-8058-48dc-9389-136ff635074a","system_id":"levelo_inurba_marseille","lat":43.32367,"lon":5.38883,"is_reserved":false,"is_disabled":false,"rental_uris":{"android":"levelo://app?vid=f4bbfba1-8058-48dc-9389-136ff635074a","ios":"levelo://app?vid=f4bbfba1-8058-48dc-9389-136ff635074a"},"vehicle_type_id":"4","last_reported":1686931700,"current_range_meters":18000,"station_id":"ce4bhqp2rcd13ifvqhog","pricing_plan_id":"free"},{"bike_id":"9b5fb2fe-b8ac-48d6-9061-48e6d542e385","system_id":"levelo_inurba_marseille","lat":43.32367,"lon":5.388836,"is_reserved":false,"is_disabled":false,"rental_uris":{"android":"levelo://app?vid=9b5fb2fe-b8ac-48d6-9061-48e6d542e385","ios":"levelo://app?vid=9b5fb2fe-b8ac-48d6-9061-48e6d542e385"},"vehicle_type_id":"4","last_reported":1686931700,"current_range_meters":6000,"station_id":"ce4bhqp2rcd13ifvqhog","pricing_plan_id":"free"},{"bike_id":"ea4b5735-98c1-4be5-8f8f-ade7dd5478fe","system_id":"levelo_inurba_marseille","lat":43.32367,"lon":5.388836,"is_reserved":false,"is_disabled":false,"rental_uris":{"android":"levelo://app?vid=ea4b5735-98c1-4be5-8f8f-ade7dd5478fe","ios":"levelo://app?vid=ea4b5735-98c1-4be5-8f8f-ade7dd5478fe"},"vehicle_type_id":"4","last_reported":1686931700,"current_range_meters":7200,"station_id":"ce4bhqp2rcd13ifvqhog","pricing_plan_id":"free"},{"bike_id":"588aaf8f-2cae-43ff-845a-ed76568c9a5e","system_id":"levelo_inurba_marseille","lat":43.29601,"lon":5.381084,"is_reserved":false,"is_disabled":false,"rental_uris":{"android":"levelo://app?vid=588aaf8f-2cae-43ff-845a-ed76568c9a5e","ios":"levelo://app?vid=588aaf8f-2cae-43ff-845a-ed76568c9a5e"},"vehicle_type_id":"4","last_reported":1686931700,"current_range_meters":0,"station_id":"ce4bgl12rcd13ifvqbo0","pricing_plan_id":"free"},{"bike_id":"03685313-94f7-4d09-b8f8-62e56a09dc68","system_id":"levelo_inurba_marseille","lat":43.29601,"lon":5.381084,"is_reserved":false,"is_disabled":false,"rental_uris":{"android":"levelo://app?vid=03685313-94f7-4d09-b8f8-62e56a09dc68","ios":"levelo://app?vid=03685313-94f7-4d09-b8f8-62e56a09dc68"},"vehicle_type_id":"4","last_reported":1686931700,"current_range_meters":29200,"station_id":"ce4bgl12rcd13ifvqbo0","pricing_plan_id":"free"},{"bike_id":"d5f7659c-e0fb-48e6-880d-7a82540adccb","system_id":"levelo_inurba_marseille","lat":43.29601,"lon":5.381084,"is_reserved":false,"is_disabled":false,"rental_uris":{"android":"levelo://app?vid=d5f7659c-e0fb-48e6-880d-7a82540adccb","ios":"levelo://app?vid=d5f7659c-e0fb-48e6-880d-7a82540adccb"},"vehicle_type_id":"4","last_reported":1686931700,"current_range_meters":30000,"station_id":"ce4bgl12rcd13ifvqbo0","pricing_plan_id":"free"},{"bike_id":"1bacc339-24f8-4751-9988-51afd78d2766","system_id":"levelo_inurba_marseille","lat":43.305994,"lon":5.393687,"is_reserved":false,"is_disabled":false,"rental_uris":{"android":"levelo://app?vid=1bacc339-24f8-4751-9988-51afd78d2766","ios":"levelo://app?vid=1bacc339-24f8-4751-9988-51afd78d2766"},"vehicle_type_id":"4","last_reported":1686931700,"current_range_meters":0,"station_id":"ce4bh0p2rcd13ifvqd80","pricing_plan_id":"free"},{"bike_id":"8bc53152-5fcc-464b-aef2-bc53716552c1","system_id":"levelo_inurba_marseille","lat":43.302992,"lon":5.392136,"is_reserved":false,"is_disabled":false,"rental_uris":{"android":"levelo://app?vid=8bc53152-5fcc-464b-aef2-bc53716552c1","ios":"levelo://app?vid=8bc53152-5fcc-464b-aef2-bc53716552c1"},"vehicle_type_id":"4","last_reported":1686931700,"current_range_meters":1200,"station_id":"ce4bgkh2rcd13ifvqbk0","pricing_plan_id":"free"},{"bike_id":"6fbef9f1-0f02-47b7-b96a-a87292a430e0","system_id":"levelo_inurba_marseille","lat":43.29377,"lon":5.37879,"is_reserved":false,"is_disabled":false,"rental_uris":{"android":"levelo://app?vid=6fbef9f1-0f02-47b7-b96a-a87292a430e0","ios":"levelo://app?vid=6fbef9f1-0f02-47b7-b96a-a87292a430e0"},"vehicle_type_id":"4","last_reported":1686931700,"current_range_meters":14400,"station_id":"","pricing_plan_id":"free"},{"bike_id":"8b008e9c-20e6-4e43-bfbb-aa5c0f7bfc4b","system_id":"levelo_inurba_marseille","lat":43.29252,"lon":5.35967,"is_reserved":false,"is_disabled":false,"rental_uris":{"android":"levelo://app?vid=8b008e9c-20e6-4e43-bfbb-aa5c0f7bfc4b","ios":"levelo://app?vid=8b008e9c-20e6-4e43-bfbb-aa5c0f7bfc4b"},"vehicle_type_id":"4","last_reported":1686931700,"current_range_meters":13200,"station_id":"","pricing_plan_id":"free"},{"bike_id":"915e4637-bfbb-41f4-8753-1cb5a78d77fe","system_id":"levelo_inurba_marseille","lat":43.30085,"lon":5.390856,"is_reserved":false,"is_disabled":false,"rental_uris":{"android":"levelo://app?vid=915e4637-bfbb-41f4-8753-1cb5a78d77fe","ios":"levelo://app?vid=915e4637-bfbb-41f4-8753-1cb5a78d77fe"},"vehicle_type_id":"4","last_reported":1686931700,"current_range_meters":0,"station_id":"ce4bh192rcd13ifvqdb0","pricing_plan_id":"free"},{"bike_id":"383dbfbf-a4f2-4c3e-bd32-5a36be3dcb02","system_id":"levelo_inurba_marseille","lat":43.30285,"lon":5.39375,"is_reserved":false,"is_disabled":false,"rental_uris":{"android":"levelo://app?vid=383dbfbf-a4f2-4c3e-bd32-5a36be3dcb02","ios":"levelo://app?vid=383dbfbf-a4f2-4c3e-bd32-5a36be3dcb02"},"vehicle_type_id":"4","last_reported":1686931700,"current_range_meters":13600,"station_id":"","pricing_plan_id":"free"},{"bike_id":"43f1f30a-4a99-4f47-b651-ef5335613ea8","system_id":"levelo_inurba_marseille","lat":43.309038,"lon":5.396546,"is_reserved":false,"is_disabled":false,"rental_uris":{"android":"levelo://app?vid=43f1f30a-4a99-4f47-b651-ef5335613ea8","ios":"levelo://app?vid=43f1f30a-4a99-4f47-b651-ef5335613ea8"},"vehicle_type_id":"4","last_reported":1686931700,"current_range_meters":17200,"station_id":"ce4bh012rcd13ifvqcv0","pricing_plan_id":"free"},{"bike_id":"1701f5fa-0900-4db1-aad1-412434eec248","system_id":"levelo_inurba_marseille","lat":43.29533,"lon":5.38549,"is_reserved":false,"is_disabled":false,"rental_uris":{"android":"levelo://app?vid=1701f5fa-0900-4db1-aad1-412434eec248","ios":"levelo://app?vid=1701f5fa-0900-4db1-aad1-412434eec248"},"vehicle_type_id":"4","last_reported":1686931700,"current_range_meters":9200,"station_id":"","pricing_plan_id":"free"},{"bike_id":"38eb09af-7166-42b9-865e-84246929498f","system_id":"levelo_inurba_marseille","lat":43.294153,"lon":5.386305,"is_reserved":false,"is_disabled":false,"rental_uris":{"android":"levelo://app?vid=38eb09af-7166-42b9-865e-84246929498f","ios":"levelo://app?vid=38eb09af-7166-42b9-865e-84246929498f"},"vehicle_type_id":"4","last_reported":1686931700,"current_range_meters":31200,"station_id":"ce4bh2h2rcd13ifvqdh0","pricing_plan_id":"free"},{"bike_id":"49ef9749-870c-4d85-8894-e7ae9ca27be8","system_id":"levelo_inurba_marseille","lat":43.289184,"lon":5.366408,"is_reserved":false,"is_disabled":false,"rental_uris":{"android":"levelo://app?vid=49ef9749-870c-4d85-8894-e7ae9ca27be8","ios":"levelo://app?vid=49ef9749-870c-4d85-8894-e7ae9ca27be8"},"vehicle_type_id":"4","last_reported":1686931700,"current_range_meters":13200,"station_id":"ce4bhap2rcd13ifvqek0","pricing_plan_id":"free"},{"bike_id":"be2b9ef8-f3d8-44d9-bffc-bdb77ffadaea","system_id":"levelo_inurba_marseille","lat":43.289184,"lon":5.366408,"is_reserved":false,"is_disabled":false,"rental_uris":{"android":"levelo://app?vid=be2b9ef8-f3d8-44d9-bffc-bdb77ffadaea","ios":"levelo://app?vid=be2b9ef8-f3d8-44d9-bffc-bdb77ffadaea"},"vehicle_type_id":"4","last_reported":1686931700,"current_range_meters":19600,"station_id":"ce4bhap2rcd13ifvqek0","pricing_plan_id":"free"},{"bike_id":"38f91b13-4ddc-4cb0-827a-7afdca8baa71","system_id":"levelo_inurba_marseille","lat":43.289184,"lon":5.366408,"is_reserved":false,"is_disabled":false,"rental_uris":{"android":"levelo://app?vid=38f91b13-4ddc-4cb0-827a-7afdca8baa71","ios":"levelo://app?vid=38f91b13-4ddc-4cb0-827a-7afdca8baa71"},"vehicle_type_id":"4","last_reported":1686931700,"current_range_meters":0,"station_id":"ce4bhap2rcd13ifvqek0","pricing_plan_id":"free"},{"bike_id":"91ba51eb-94b4-4130-bf39-91bc017a6b76","system_id":"levelo_inurba_marseille","lat":43.289468,"lon":5.363719,"is_reserved":false,"is_disabled":false,"rental_uris":{"android":"levelo://app?vid=91ba51eb-94b4-4130-bf39-91bc017a6b76","ios":"levelo://app?vid=91ba51eb-94b4-4130-bf39-91bc017a6b76"},"vehicle_type_id":"4","last_reported":1686931700,"current_range_meters":3200,"station_id":"ce4bhc92rcd13ifvqetg","pricing_plan_id":"free"},{"bike_id":"f0dce057-4441-49bb-87d4-534994496cdc","system_id":"levelo_inurba_marseille","lat":43.289468,"lon":5.363719,"is_reserved":false,"is_disabled":false,"rental_uris":{"android":"levelo://app?vid=f0dce057-4441-49bb-87d4-534994496cdc","ios":"levelo://app?vid=f0dce057-4441-49bb-87d4-534994496cdc"},"vehicle_type_id":"4","last_reported":1686931700,"current_range_meters":2800,"station_id":"ce4bhc92rcd13ifvqetg","pricing_plan_id":"free"},{"bike_id":"14ba1331-da19-46e7-be08-3db541ec7014","system_id":"levelo_inurba_marseille","lat":43.30489,"lon":5.39747,"is_reserved":false,"is_disabled":false,"rental_uris":{"android":"levelo://app?vid=14ba1331-da19-46e7-be08-3db541ec7014","ios":"levelo://app?vid=14ba1331-da19-46e7-be08-3db541ec7014"},"vehicle_type_id":"4","last_reported":1686931700,"current_range_meters":7600,"station_id":"","pricing_plan_id":"free"},{"bike_id":"2f305d7e-101b-4ee4-a2ba-1e8e7752008d","system_id":"levelo_inurba_marseille","lat":43.284219,"lon":5.3497,"is_reserved":false,"is_disabled":false,"rental_uris":{"android":"levelo://app?vid=2f305d7e-101b-4ee4-a2ba-1e8e7752008d","ios":"levelo://app?vid=2f305d7e-101b-4ee4-a2ba-1e8e7752008d"},"vehicle_type_id":"4","last_reported":1686931700,"current_range_meters":6400,"station_id":"ce4bhbh2rcd13ifvqepg","pricing_plan_id":"free"},{"bike_id":"5cb3e260-ba7c-4906-9287-050621ce09c7","system_id":"levelo_inurba_marseille","lat":43.292642,"lon":5.384254,"is_reserved":false,"is_disabled":false,"rental_uris":{"android":"levelo://app?vid=5cb3e260-ba7c-4906-9287-050621ce09c7","ios":"levelo://app?vid=5cb3e260-ba7c-4906-9287-050621ce09c7"},"vehicle_type_id":"4","last_reported":1686931700,"current_range_meters":28800,"station_id":"ce4bh692rcd13ifvqea0","pricing_plan_id":"free"},{"bike_id":"d06c7645-b6e0-4932-bc47-7ff19638bb4a","system_id":"levelo_inurba_marseille","lat":43.290103,"lon":5.356114,"is_reserved":false,"is_disabled":false,"rental_uris":{"android":"levelo://app?vid=d06c7645-b6e0-4932-bc47-7ff19638bb4a","ios":"levelo://app?vid=d06c7645-b6e0-4932-bc47-7ff19638bb4a"},"vehicle_type_id":"4","last_reported":1686931700,"current_range_meters":0,"station_id":"ce4bhb92rcd13ifvqen0","pricing_plan_id":"free"},{"bike_id":"fe200b5e-73d5-4b5d-a1cc-31dd72bb41e0","system_id":"levelo_inurba_marseille","lat":43.290103,"lon":5.356114,"is_reserved":false,"is_disabled":false,"rental_uris":{"android":"levelo://app?vid=fe200b5e-73d5-4b5d-a1cc-31dd72bb41e0","ios":"levelo://app?vid=fe200b5e-73d5-4b5d-a1cc-31dd72bb41e0"},"vehicle_type_id":"4","last_reported":1686931700,"current_range_meters":16800,"station_id":"ce4bhb92rcd13ifvqen0","pricing_plan_id":"free"},{"bike_id":"6005b511-a7c7-4a43-a056-8aace3b757a5","system_id":"levelo_inurba_marseille","lat":43.290104,"lon":5.356111,"is_reserved":false,"is_disabled":false,"rental_uris":{"android":"levelo://app?vid=6005b511-a7c7-4a43-a056-8aace3b757a5","ios":"levelo://app?vid=6005b511-a7c7-4a43-a056-8aace3b757a5"},"vehicle_type_id":"4","last_reported":1686931700,"current_range_meters":25200,"station_id":"ce4bhb92rcd13ifvqen0","pricing_plan_id":"free"},{"bike_id":"74b74e21-3b46-4994-b71b-d08f239fcf69","system_id":"levelo_inurba_marseille","lat":43.290104,"lon":5.356111,"is_reserved":false,"is_disabled":false,"rental_uris":{"android":"levelo://app?vid=74b74e21-3b46-4994-b71b-d08f239fcf69","ios":"levelo://app?vid=74b74e21-3b46-4994-b71b-d08f239fcf69"},"vehicle_type_id":"4","last_reported":1686931700,"current_range_meters":4800,"station_id":"ce4bhb92rcd13ifvqen0","pricing_plan_id":"free"},{"bike_id":"80364655-89a1-435e-9c92-3648f92b0682","system_id":"levelo_inurba_marseille","lat":43.29005,"lon":5.356233,"is_reserved":false,"is_disabled":false,"rental_uris":{"android":"levelo://app?vid=80364655-89a1-435e-9c92-3648f92b0682","ios":"levelo://app?vid=80364655-89a1-435e-9c92-3648f92b0682"},"vehicle_type_id":"4","last_reported":1686931700,"current_range_meters":29600,"station_id":"ce4bhb92rcd13ifvqen0","pricing_plan_id":"free"},{"bike_id":"85d5d023-d051-425f-8c39-d0b8c64f8fbd","system_id":"levelo_inurba_marseille","lat":43.33047,"lon":5.38921,"is_reserved":false,"is_disabled":false,"rental_uris":{"android":"levelo://app?vid=85d5d023-d051-425f-8c39-d0b8c64f8fbd","ios":"levelo://app?vid=85d5d023-d051-425f-8c39-d0b8c64f8fbd"},"vehicle_type_id":"4","last_reported":1686931700,"current_range_meters":29200,"station_id":"ce4bhr92rcd13ifvqhrg","pricing_plan_id":"free"},{"bike_id":"edd27ecf-5e8a-44a0-82e6-021137b2b9de","system_id":"levelo_inurba_marseille","lat":43.29003,"lon":5.35604,"is_reserved":false,"is_disabled":false,"rental_uris":{"android":"levelo://app?vid=edd27ecf-5e8a-44a0-82e6-021137b2b9de","ios":"levelo://app?vid=edd27ecf-5e8a-44a0-82e6-021137b2b9de"},"vehicle_type_id":"4","last_reported":1686931700,"current_range_meters":6000,"station_id":"","pricing_plan_id":"free"},{"bike_id":"3fe452b9-bf81-4766-8a95-fc10c41e4ba7","system_id":"levelo_inurba_marseille","lat":43.290995,"lon":5.381361,"is_reserved":false,"is_disabled":false,"rental_uris":{"android":"levelo://app?vid=3fe452b9-bf81-4766-8a95-fc10c41e4ba7","ios":"levelo://app?vid=3fe452b9-bf81-4766-8a95-fc10c41e4ba7"},"vehicle_type_id":"4","last_reported":1686931700,"current_range_meters":14000,"station_id":"ce4bh512rcd13ifvqe2g","pricing_plan_id":"free"},{"bike_id":"2ba70851-2b5d-4cdd-b464-52446e9d99a2","system_id":"levelo_inurba_marseille","lat":43.28975,"lon":5.37832,"is_reserved":false,"is_disabled":false,"rental_uris":{"android":"levelo://app?vid=2ba70851-2b5d-4cdd-b464-52446e9d99a2","ios":"levelo://app?vid=2ba70851-2b5d-4cdd-b464-52446e9d99a2"},"vehicle_type_id":"4","last_reported":1686931700,"current_range_meters":20400,"station_id":"ce4bh9p2rcd13ifvqed0","pricing_plan_id":"free"},{"bike_id":"642f0456-5829-4582-a585-b302dd56a4e6","system_id":"levelo_inurba_marseille","lat":43.31161,"lon":5.40104,"is_reserved":false,"is_disabled":false,"rental_uris":{"android":"levelo://app?vid=642f0456-5829-4582-a585-b302dd56a4e6","ios":"levelo://app?vid=642f0456-5829-4582-a585-b302dd56a4e6"},"vehicle_type_id":"4","last_reported":1686931700,"current_range_meters":4400,"station_id":"ce4bgjh2rcd13ifvqbf0","pricing_plan_id":"free"},{"bike_id":"72294f85-a324-4975-80eb-3dbcda8d5682","system_id":"levelo_inurba_marseille","lat":43.28856,"lon":5.358371,"is_reserved":false,"is_disabled":false,"rental_uris":{"android":"levelo://app?vid=72294f85-a324-4975-80eb-3dbcda8d5682","ios":"levelo://app?vid=72294f85-a324-4975-80eb-3dbcda8d5682"},"vehicle_type_id":"4","last_reported":1686931700,"current_range_meters":0,"station_id":"ce4bhb12rcd13ifvqem0","pricing_plan_id":"free"},{"bike_id":"c0fb8083-e02d-4dec-b1b9-fa095e6c5b75","system_id":"levelo_inurba_marseille","lat":43.337396,"lon":5.374526,"is_reserved":false,"is_disabled":false,"rental_uris":{"android":"levelo://app?vid=c0fb8083-e02d-4dec-b1b9-fa095e6c5b75","ios":"levelo://app?vid=c0fb8083-e02d-4dec-b1b9-fa095e6c5b75"},"vehicle_type_id":"4","last_reported":1686931700,"current_range_meters":800,"station_id":"ce4bhp92rcd13ifvqhag","pricing_plan_id":"free"},{"bike_id":"f7789ea2-4e6b-4c31-9c18-85a7e4a0fd0d","system_id":"levelo_inurba_marseille","lat":43.309371,"lon":5.401449,"is_reserved":false,"is_disabled":false,"rental_uris":{"android":"levelo://app?vid=f7789ea2-4e6b-4c31-9c18-85a7e4a0fd0d","ios":"levelo://app?vid=f7789ea2-4e6b-4c31-9c18-85a7e4a0fd0d"},"vehicle_type_id":"4","last_reported":1686931700,"current_range_meters":0,"station_id":"ce4bgvp2rcd13ifvqct0","pricing_plan_id":"free"},{"bike_id":"48c192dd-0421-402a-86d3-35f465d8a661","system_id":"levelo_inurba_marseille","lat":43.309371,"lon":5.401449,"is_reserved":false,"is_disabled":false,"rental_uris":{"android":"levelo://app?vid=48c192dd-0421-402a-86d3-35f465d8a661","ios":"levelo://app?vid=48c192dd-0421-402a-86d3-35f465d8a661"},"vehicle_type_id":"4","last_reported":1686931700,"current_range_meters":0,"station_id":"ce4bgvp2rcd13ifvqct0","pricing_plan_id":"free"},{"bike_id":"12897504-7178-4c6b-9a72-83e9d920b105","system_id":"levelo_inurba_marseille","lat":43.28746,"lon":5.37081,"is_reserved":false,"is_disabled":false,"rental_uris":{"android":"levelo://app?vid=12897504-7178-4c6b-9a72-83e9d920b105","ios":"levelo://app?vid=12897504-7178-4c6b-9a72-83e9d920b105"},"vehicle_type_id":"4","last_reported":1686931700,"current_range_meters":10400,"station_id":"","pricing_plan_id":"free"},{"bike_id":"7e277038-ea1b-4ff1-9b12-14fa4c52e089","system_id":"levelo_inurba_marseille","lat":43.286591,"lon":5.363346,"is_reserved":false,"is_disabled":false,"rental_uris":{"android":"levelo://app?vid=7e277038-ea1b-4ff1-9b12-14fa4c52e089","ios":"levelo://app?vid=7e277038-ea1b-4ff1-9b12-14fa4c52e089"},"vehicle_type_id":"4","last_reported":1686931700,"current_range_meters":10000,"station_id":"ce4bhah2rcd13ifvqej0","pricing_plan_id":"free"},{"bike_id":"a4069d0d-3c55-4ba9-92fa-39088a7368d4","system_id":"levelo_inurba_marseille","lat":43.29035,"lon":5.38643,"is_reserved":false,"is_disabled":false,"rental_uris":{"android":"levelo://app?vid=a4069d0d-3c55-4ba9-92fa-39088a7368d4","ios":"levelo://app?vid=a4069d0d-3c55-4ba9-92fa-39088a7368d4"},"vehicle_type_id":"4","last_reported":1686931700,"current_range_meters":0,"station_id":"ce4bh4p2rcd13ifvqe0g","pricing_plan_id":"free"},{"bike_id":"b654700b-ade3-4ec5-a477-7036714e3fc2","system_id":"levelo_inurba_marseille","lat":43.287184,"lon":5.37937,"is_reserved":false,"is_disabled":false,"rental_uris":{"android":"levelo://app?vid=b654700b-ade3-4ec5-a477-7036714e3fc2","ios":"levelo://app?vid=b654700b-ade3-4ec5-a477-7036714e3fc2"},"vehicle_type_id":"4","last_reported":1686931700,"current_range_meters":16800,"station_id":"ce4bh9p2rcd13ifvqec0","pricing_plan_id":"free"},{"bike_id":"b88327f3-914a-4b73-be73-5287e0801dad","system_id":"levelo_inurba_marseille","lat":43.295194,"lon":5.39397,"is_reserved":false,"is_disabled":false,"rental_uris":{"android":"levelo://app?vid=b88327f3-914a-4b73-be73-5287e0801dad","ios":"levelo://app?vid=b88327f3-914a-4b73-be73-5287e0801dad"},"vehicle_type_id":"4","last_reported":1686931700,"current_range_meters":2800,"station_id":"ce4bh292rcd13ifvqdf0","pricing_plan_id":"free"},{"bike_id":"35a85d6e-9b91-40ae-b9ca-50e37da25a95","system_id":"levelo_inurba_marseille","lat":43.291994,"lon":5.392907,"is_reserved":false,"is_disabled":false,"rental_uris":{"android":"levelo://app?vid=35a85d6e-9b91-40ae-b9ca-50e37da25a95","ios":"levelo://app?vid=35a85d6e-9b91-40ae-b9ca-50e37da25a95"},"vehicle_type_id":"4","last_reported":1686931700,"current_range_meters":30800,"station_id":"ce4bh192rcd13ifvqdd0","pricing_plan_id":"free"},{"bike_id":"47fdefe2-f29a-4120-ad9f-593e98100b1f","system_id":"levelo_inurba_marseille","lat":43.284534,"lon":5.358662,"is_reserved":false,"is_disabled":false,"rental_uris":{"android":"levelo://app?vid=47fdefe2-f29a-4120-ad9f-593e98100b1f","ios":"levelo://app?vid=47fdefe2-f29a-4120-ad9f-593e98100b1f"},"vehicle_type_id":"4","last_reported":1686931700,"current_range_meters":6400,"station_id":"ce4bhah2rcd13ifvqei0","pricing_plan_id":"free"},{"bike_id":"0595372b-8ace-44ac-9794-3340e365e01b","system_id":"levelo_inurba_marseille","lat":43.28618,"lon":5.35101,"is_reserved":false,"is_disabled":false,"rental_uris":{"android":"levelo://app?vid=0595372b-8ace-44ac-9794-3340e365e01b","ios":"levelo://app?vid=0595372b-8ace-44ac-9794-3340e365e01b"},"vehicle_type_id":"4","last_reported":1686931700,"current_range_meters":15200,"station_id":"ce4bhch2rcd13ifvqeug","pricing_plan_id":"free"},{"bike_id":"31479406-8450-41ef-9eea-d9a3ebff1f89","system_id":"levelo_inurba_marseille","lat":43.28612,"lon":5.35108,"is_reserved":false,"is_disabled":false,"rental_uris":{"android":"levelo://app?vid=31479406-8450-41ef-9eea-d9a3ebff1f89","ios":"levelo://app?vid=31479406-8450-41ef-9eea-d9a3ebff1f89"},"vehicle_type_id":"4","last_reported":1686931700,"current_range_meters":2800,"station_id":"ce4bhch2rcd13ifvqeug","pricing_plan_id":"free"},{"bike_id":"6efc7fcb-afe9-465f-a185-a3e5274f12e4","system_id":"levelo_inurba_marseille","lat":43.28614,"lon":5.35099,"is_reserved":false,"is_disabled":false,"rental_uris":{"android":"levelo://app?vid=6efc7fcb-afe9-465f-a185-a3e5274f12e4","ios":"levelo://app?vid=6efc7fcb-afe9-465f-a185-a3e5274f12e4"},"vehicle_type_id":"4","last_reported":1686931700,"current_range_meters":8800,"station_id":"ce4bhch2rcd13ifvqeug","pricing_plan_id":"free"},{"bike_id":"247d4ef3-93e3-422d-ad74-4f95a46d2601","system_id":"levelo_inurba_marseille","lat":43.28609,"lon":5.35102,"is_reserved":false,"is_disabled":false,"rental_uris":{"android":"levelo://app?vid=247d4ef3-93e3-422d-ad74-4f95a46d2601","ios":"levelo://app?vid=247d4ef3-93e3-422d-ad74-4f95a46d2601"},"vehicle_type_id":"4","last_reported":1686931700,"current_range_meters":4000,"station_id":"ce4bhch2rcd13ifvqeug","pricing_plan_id":"free"},{"bike_id":"bc4a8f7e-6946-4073-bb51-08983c7a9915","system_id":"levelo_inurba_marseille","lat":43.283998,"lon":5.375062,"is_reserved":false,"is_disabled":false,"rental_uris":{"android":"levelo://app?vid=bc4a8f7e-6946-4073-bb51-08983c7a9915","ios":"levelo://app?vid=bc4a8f7e-6946-4073-bb51-08983c7a9915"},"vehicle_type_id":"4","last_reported":1686931700,"current_range_meters":0,"station_id":"ce4bh412rcd13ifvqds0","pricing_plan_id":"free"},{"bike_id":"45859285-cb36-4834-8e69-95d738aa8366","system_id":"levelo_inurba_marseille","lat":43.286595,"lon":5.386795,"is_reserved":false,"is_disabled":false,"rental_uris":{"android":"levelo://app?vid=45859285-cb36-4834-8e69-95d738aa8366","ios":"levelo://app?vid=45859285-cb36-4834-8e69-95d738aa8366"},"vehicle_type_id":"4","last_reported":1686931700,"current_range_meters":0,"station_id":"ce4bh492rcd13ifvqdug","pricing_plan_id":"free"},{"bike_id":"2efb2af6-209a-4bba-b14c-8dfa0efcdcda","system_id":"levelo_inurba_marseille","lat":43.286595,"lon":5.386795,"is_reserved":false,"is_disabled":false,"rental_uris":{"android":"levelo://app?vid=2efb2af6-209a-4bba-b14c-8dfa0efcdcda","ios":"levelo://app?vid=2efb2af6-209a-4bba-b14c-8dfa0efcdcda"},"vehicle_type_id":"4","last_reported":1686931700,"current_range_meters":4000,"station_id":"ce4bh492rcd13ifvqdug","pricing_plan_id":"free"},{"bike_id":"012b5b2d-2f42-46d4-b72e-5d0a42afeb32","system_id":"levelo_inurba_marseille","lat":43.287909,"lon":5.390554,"is_reserved":false,"is_disabled":false,"rental_uris":{"android":"levelo://app?vid=012b5b2d-2f42-46d4-b72e-5d0a42afeb32","ios":"levelo://app?vid=012b5b2d-2f42-46d4-b72e-5d0a42afeb32"},"vehicle_type_id":"4","last_reported":1686931700,"current_range_meters":19600,"station_id":"","pricing_plan_id":"free"},{"bike_id":"16e5fedd-6e86-436a-a0a2-72c7cd60a6ea","system_id":"levelo_inurba_marseille","lat":43.323464,"lon":5.406297,"is_reserved":false,"is_disabled":false,"rental_uris":{"android":"levelo://app?vid=16e5fedd-6e86-436a-a0a2-72c7cd60a6ea","ios":"levelo://app?vid=16e5fedd-6e86-436a-a0a2-72c7cd60a6ea"},"vehicle_type_id":"4","last_reported":1686931700,"current_range_meters":31200,"station_id":"ce4bhq92rcd13ifvqhjg","pricing_plan_id":"free"},{"bike_id":"00b4d942-d645-4a17-a320-9c02b5ecca68","system_id":"levelo_inurba_marseille","lat":43.288497,"lon":5.393089,"is_reserved":false,"is_disabled":false,"rental_uris":{"android":"levelo://app?vid=00b4d942-d645-4a17-a320-9c02b5ecca68","ios":"levelo://app?vid=00b4d942-d645-4a17-a320-9c02b5ecca68"},"vehicle_type_id":"4","last_reported":1686931700,"current_range_meters":29200,"station_id":"ce4bh2p2rcd13ifvqdi0","pricing_plan_id":"free"},{"bike_id":"e2c3a0aa-7f22-492a-a04d-15e355466059","system_id":"levelo_inurba_marseille","lat":43.32879,"lon":5.40534,"is_reserved":false,"is_disabled":false,"rental_uris":{"android":"levelo://app?vid=e2c3a0aa-7f22-492a-a04d-15e355466059","ios":"levelo://app?vid=e2c3a0aa-7f22-492a-a04d-15e355466059"},"vehicle_type_id":"4","last_reported":1686931700,"current_range_meters":12400,"station_id":"","pricing_plan_id":"free"},{"bike_id":"3b232c60-05d7-4217-916c-f474115aa424","system_id":"levelo_inurba_marseille","lat":43.283502,"lon":5.386471,"is_reserved":false,"is_disabled":false,"rental_uris":{"android":"levelo://app?vid=3b232c60-05d7-4217-916c-f474115aa424","ios":"levelo://app?vid=3b232c60-05d7-4217-916c-f474115aa424"},"vehicle_type_id":"4","last_reported":1686931700,"current_range_meters":0,"station_id":"ce4bh492rcd13ifvqdvg","pricing_plan_id":"free"},{"bike_id":"65ee18ae-1279-4701-b410-8223f773dd45","system_id":"levelo_inurba_marseille","lat":43.30928,"lon":5.41105,"is_reserved":false,"is_disabled":false,"rental_uris":{"android":"levelo://app?vid=65ee18ae-1279-4701-b410-8223f773dd45","ios":"levelo://app?vid=65ee18ae-1279-4701-b410-8223f773dd45"},"vehicle_type_id":"4","last_reported":1686931700,"current_range_meters":27600,"station_id":"","pricing_plan_id":"free"},{"bike_id":"98934767-4a68-4223-8c8b-8c6d903e2fff","system_id":"levelo_inurba_marseille","lat":43.282754,"lon":5.350519,"is_reserved":false,"is_disabled":false,"rental_uris":{"android":"levelo://app?vid=98934767-4a68-4223-8c8b-8c6d903e2fff","ios":"levelo://app?vid=98934767-4a68-4223-8c8b-8c6d903e2fff"},"vehicle_type_id":"4","last_reported":1686931700,"current_range_meters":800,"station_id":"ce4bhbp2rcd13ifvqerg","pricing_plan_id":"free"},{"bike_id":"7a4880cc-6d3e-4bf0-8331-7bfdd624ba24","system_id":"levelo_inurba_marseille","lat":43.282744,"lon":5.350533,"is_reserved":false,"is_disabled":false,"rental_uris":{"android":"levelo://app?vid=7a4880cc-6d3e-4bf0-8331-7bfdd624ba24","ios":"levelo://app?vid=7a4880cc-6d3e-4bf0-8331-7bfdd624ba24"},"vehicle_type_id":"4","last_reported":1686931700,"current_range_meters":14400,"station_id":"ce4bhbp2rcd13ifvqerg","pricing_plan_id":"free"},{"bike_id":"c3b57e05-92fe-45cb-99b9-7762e26d10f6","system_id":"levelo_inurba_marseille","lat":43.282754,"lon":5.350519,"is_reserved":false,"is_disabled":false,"rental_uris":{"android":"levelo://app?vid=c3b57e05-92fe-45cb-99b9-7762e26d10f6","ios":"levelo://app?vid=c3b57e05-92fe-45cb-99b9-7762e26d10f6"},"vehicle_type_id":"4","last_reported":1686931700,"current_range_meters":3200,"station_id":"ce4bhbp2rcd13ifvqerg","pricing_plan_id":"free"},{"bike_id":"70c8e6c9-7564-4329-b357-ae1608e773de","system_id":"levelo_inurba_marseille","lat":43.282744,"lon":5.350533,"is_reserved":false,"is_disabled":false,"rental_uris":{"android":"levelo://app?vid=70c8e6c9-7564-4329-b357-ae1608e773de","ios":"levelo://app?vid=70c8e6c9-7564-4329-b357-ae1608e773de"},"vehicle_type_id":"4","last_reported":1686931700,"current_range_meters":5200,"station_id":"ce4bhbp2rcd13ifvqerg","pricing_plan_id":"free"},{"bike_id":"4c7bdc20-2d02-466e-b681-3d901fca200d","system_id":"levelo_inurba_marseille","lat":43.282754,"lon":5.350519,"is_reserved":false,"is_disabled":false,"rental_uris":{"android":"levelo://app?vid=4c7bdc20-2d02-466e-b681-3d901fca200d","ios":"levelo://app?vid=4c7bdc20-2d02-466e-b681-3d901fca200d"},"vehicle_type_id":"4","last_reported":1686931700,"current_range_meters":2000,"station_id":"ce4bhbp2rcd13ifvqerg","pricing_plan_id":"free"},{"bike_id":"2dc5d4d5-05b9-4dd3-924c-a2cfaadf3cb3","system_id":"levelo_inurba_marseille","lat":43.282744,"lon":5.350533,"is_reserved":false,"is_disabled":false,"rental_uris":{"android":"levelo://app?vid=2dc5d4d5-05b9-4dd3-924c-a2cfaadf3cb3","ios":"levelo://app?vid=2dc5d4d5-05b9-4dd3-924c-a2cfaadf3cb3"},"vehicle_type_id":"4","last_reported":1686931700,"current_range_meters":8000,"station_id":"ce4bhbp2rcd13ifvqerg","pricing_plan_id":"free"},{"bike_id":"7cac9b92-5128-46d3-bd80-efc6f1ed6c5d","system_id":"levelo_inurba_marseille","lat":43.282744,"lon":5.350533,"is_reserved":false,"is_disabled":false,"rental_uris":{"android":"levelo://app?vid=7cac9b92-5128-46d3-bd80-efc6f1ed6c5d","ios":"levelo://app?vid=7cac9b92-5128-46d3-bd80-efc6f1ed6c5d"},"vehicle_type_id":"4","last_reported":1686931700,"current_range_meters":0,"station_id":"ce4bhbp2rcd13ifvqerg","pricing_plan_id":"free"},{"bike_id":"f1d54afc-9f0b-4605-80fa-b525f379dd66","system_id":"levelo_inurba_marseille","lat":43.283502,"lon":5.386471,"is_reserved":false,"is_disabled":false,"rental_uris":{"android":"levelo://app?vid=f1d54afc-9f0b-4605-80fa-b525f379dd66","ios":"levelo://app?vid=f1d54afc-9f0b-4605-80fa-b525f379dd66"},"vehicle_type_id":"4","last_reported":1686931700,"current_range_meters":15600,"station_id":"ce4bh492rcd13ifvqdvg","pricing_plan_id":"free"},{"bike_id":"02c62f89-bfed-4134-88b2-bf93b453f0e3","system_id":"levelo_inurba_marseille","lat":43.284462,"lon":5.392121,"is_reserved":false,"is_disabled":false,"rental_uris":{"android":"levelo://app?vid=02c62f89-bfed-4134-88b2-bf93b453f0e3","ios":"levelo://app?vid=02c62f89-bfed-4134-88b2-bf93b453f0e3"},"vehicle_type_id":"4","last_reported":1686931700,"current_range_meters":5200,"station_id":"ce4bhoh2rcd13ifvqh5g","pricing_plan_id":"free"},{"bike_id":"63ac74cc-0937-4f8d-b034-559349763d95","system_id":"levelo_inurba_marseille","lat":43.326605,"lon":5.409903,"is_reserved":false,"is_disabled":false,"rental_uris":{"android":"levelo://app?vid=63ac74cc-0937-4f8d-b034-559349763d95","ios":"levelo://app?vid=63ac74cc-0937-4f8d-b034-559349763d95"},"vehicle_type_id":"4","last_reported":1686931700,"current_range_meters":8000,"station_id":"ce4bhpp2rcd13ifvqhgg","pricing_plan_id":"free"},{"bike_id":"74a59d6c-d6c7-460f-bba7-ce13812ac794","system_id":"levelo_inurba_marseille","lat":43.32664,"lon":5.40991,"is_reserved":false,"is_disabled":false,"rental_uris":{"android":"levelo://app?vid=74a59d6c-d6c7-460f-bba7-ce13812ac794","ios":"levelo://app?vid=74a59d6c-d6c7-460f-bba7-ce13812ac794"},"vehicle_type_id":"4","last_reported":1686931700,"current_range_meters":20400,"station_id":"ce4bhpp2rcd13ifvqhgg","pricing_plan_id":"free"},{"bike_id":"319acd4f-9666-4ac2-ae0b-2a10aac97fcd","system_id":"levelo_inurba_marseille","lat":43.326605,"lon":5.409903,"is_reserved":false,"is_disabled":false,"rental_uris":{"android":"levelo://app?vid=319acd4f-9666-4ac2-ae0b-2a10aac97fcd","ios":"levelo://app?vid=319acd4f-9666-4ac2-ae0b-2a10aac97fcd"},"vehicle_type_id":"4","last_reported":1686931700,"current_range_meters":21600,"station_id":"ce4bhpp2rcd13ifvqhgg","pricing_plan_id":"free"},{"bike_id":"68689d4c-f8b6-4682-b231-8e152533c36b","system_id":"levelo_inurba_marseille","lat":43.326605,"lon":5.409903,"is_reserved":false,"is_disabled":false,"rental_uris":{"android":"levelo://app?vid=68689d4c-f8b6-4682-b231-8e152533c36b","ios":"levelo://app?vid=68689d4c-f8b6-4682-b231-8e152533c36b"},"vehicle_type_id":"4","last_reported":1686931700,"current_range_meters":24800,"station_id":"ce4bhpp2rcd13ifvqhgg","pricing_plan_id":"free"},{"bike_id":"72b3e885-554d-42a3-908b-28858d9d1153","system_id":"levelo_inurba_marseille","lat":43.304188,"lon":5.412904,"is_reserved":false,"is_disabled":false,"rental_uris":{"android":"levelo://app?vid=72b3e885-554d-42a3-908b-28858d9d1153","ios":"levelo://app?vid=72b3e885-554d-42a3-908b-28858d9d1153"},"vehicle_type_id":"4","last_reported":1686931700,"current_range_meters":22400,"station_id":"ce4bhop2rcd13ifvqh8g","pricing_plan_id":"free"},{"bike_id":"5d38972f-84b3-4ee3-b2a4-73184c9a7661","system_id":"levelo_inurba_marseille","lat":43.279,"lon":5.38002,"is_reserved":false,"is_disabled":false,"rental_uris":{"android":"levelo://app?vid=5d38972f-84b3-4ee3-b2a4-73184c9a7661","ios":"levelo://app?vid=5d38972f-84b3-4ee3-b2a4-73184c9a7661"},"vehicle_type_id":"4","last_reported":1686931700,"current_range_meters":25600,"station_id":"","pricing_plan_id":"free"},{"bike_id":"524bb7a9-71a5-4fdf-937d-ab0afcced769","system_id":"levelo_inurba_marseille","lat":43.32046,"lon":5.41542,"is_reserved":false,"is_disabled":false,"rental_uris":{"android":"levelo://app?vid=524bb7a9-71a5-4fdf-937d-ab0afcced769","ios":"levelo://app?vid=524bb7a9-71a5-4fdf-937d-ab0afcced769"},"vehicle_type_id":"4","last_reported":1686931700,"current_range_meters":0,"station_id":"ce4bhq92rcd13ifvqhkg","pricing_plan_id":"free"},{"bike_id":"7be9f628-a1dd-4275-9865-30860a3d0b49","system_id":"levelo_inurba_marseille","lat":43.32062,"lon":5.41557,"is_reserved":false,"is_disabled":false,"rental_uris":{"android":"levelo://app?vid=7be9f628-a1dd-4275-9865-30860a3d0b49","ios":"levelo://app?vid=7be9f628-a1dd-4275-9865-30860a3d0b49"},"vehicle_type_id":"4","last_reported":1686931700,"current_range_meters":23600,"station_id":"ce4bhq92rcd13ifvqhkg","pricing_plan_id":"free"},{"bike_id":"bdb10544-50c6-4926-a349-3375ec12c0a3","system_id":"levelo_inurba_marseille","lat":43.2797,"lon":5.38752,"is_reserved":false,"is_disabled":false,"rental_uris":{"android":"levelo://app?vid=bdb10544-50c6-4926-a349-3375ec12c0a3","ios":"levelo://app?vid=bdb10544-50c6-4926-a349-3375ec12c0a3"},"vehicle_type_id":"4","last_reported":1686931700,"current_range_meters":13200,"station_id":"ce4bhg12rcd13ifvqf80","pricing_plan_id":"free"},{"bike_id":"eed86923-83b0-4ad2-99c5-c986f6f13c14","system_id":"levelo_inurba_marseille","lat":43.325233,"lon":5.414318,"is_reserved":false,"is_disabled":false,"rental_uris":{"android":"levelo://app?vid=eed86923-83b0-4ad2-99c5-c986f6f13c14","ios":"levelo://app?vid=eed86923-83b0-4ad2-99c5-c986f6f13c14"},"vehicle_type_id":"4","last_reported":1686931700,"current_range_meters":30800,"station_id":"ce4bhq12rcd13ifvqhhg","pricing_plan_id":"free"},{"bike_id":"173c4784-34b6-4401-bbb3-8a9c88ed9786","system_id":"levelo_inurba_marseille","lat":43.29257,"lon":5.40907,"is_reserved":false,"is_disabled":false,"rental_uris":{"android":"levelo://app?vid=173c4784-34b6-4401-bbb3-8a9c88ed9786","ios":"levelo://app?vid=173c4784-34b6-4401-bbb3-8a9c88ed9786"},"vehicle_type_id":"4","last_reported":1686931700,"current_range_meters":800,"station_id":"ce4bh192rcd13ifvqdc0","pricing_plan_id":"free"},{"bike_id":"6f60e0cf-d4cb-497a-8aaf-113347c06d20","system_id":"levelo_inurba_marseille","lat":43.276179,"lon":5.361009,"is_reserved":false,"is_disabled":false,"rental_uris":{"android":"levelo://app?vid=6f60e0cf-d4cb-497a-8aaf-113347c06d20","ios":"levelo://app?vid=6f60e0cf-d4cb-497a-8aaf-113347c06d20"},"vehicle_type_id":"4","last_reported":1686931700,"current_range_meters":24800,"station_id":"ce4bgj92rcd13ifvqbe0","pricing_plan_id":"free"},{"bike_id":"f95aabbe-1ea4-4e96-9c9e-af78eecb618f","system_id":"levelo_inurba_marseille","lat":43.27618,"lon":5.361009,"is_reserved":false,"is_disabled":false,"rental_uris":{"android":"levelo://app?vid=f95aabbe-1ea4-4e96-9c9e-af78eecb618f","ios":"levelo://app?vid=f95aabbe-1ea4-4e96-9c9e-af78eecb618f"},"vehicle_type_id":"4","last_reported":1686931700,"current_range_meters":13200,"station_id":"ce4bgj92rcd13ifvqbe0","pricing_plan_id":"free"},{"bike_id":"db1f9fd2-7be9-42ca-b3f9-a3b9d5bc68fd","system_id":"levelo_inurba_marseille","lat":43.27618,"lon":5.361009,"is_reserved":false,"is_disabled":false,"rental_uris":{"android":"levelo://app?vid=db1f9fd2-7be9-42ca-b3f9-a3b9d5bc68fd","ios":"levelo://app?vid=db1f9fd2-7be9-42ca-b3f9-a3b9d5bc68fd"},"vehicle_type_id":"4","last_reported":1686931700,"current_range_meters":18000,"station_id":"ce4bgj92rcd13ifvqbe0","pricing_plan_id":"free"},{"bike_id":"27e3d8de-2128-4872-abc7-3f2b117c8823","system_id":"levelo_inurba_marseille","lat":43.325233,"lon":5.414318,"is_reserved":false,"is_disabled":false,"rental_uris":{"android":"levelo://app?vid=27e3d8de-2128-4872-abc7-3f2b117c8823","ios":"levelo://app?vid=27e3d8de-2128-4872-abc7-3f2b117c8823"},"vehicle_type_id":"4","last_reported":1686931700,"current_range_meters":23600,"station_id":"ce4bhq12rcd13ifvqhhg","pricing_plan_id":"free"},{"bike_id":"dcc9ca36-85ea-4441-8402-1828d7cfe66a","system_id":"levelo_inurba_marseille","lat":43.325233,"lon":5.414318,"is_reserved":false,"is_disabled":false,"rental_uris":{"android":"levelo://app?vid=dcc9ca36-85ea-4441-8402-1828d7cfe66a","ios":"levelo://app?vid=dcc9ca36-85ea-4441-8402-1828d7cfe66a"},"vehicle_type_id":"4","last_reported":1686931700,"current_range_meters":28800,"station_id":"ce4bhq12rcd13ifvqhhg","pricing_plan_id":"free"},{"bike_id":"8536a898-7e69-4037-9f53-21da4bd360ab","system_id":"levelo_inurba_marseille","lat":43.32537,"lon":5.4145,"is_reserved":false,"is_disabled":false,"rental_uris":{"android":"levelo://app?vid=8536a898-7e69-4037-9f53-21da4bd360ab","ios":"levelo://app?vid=8536a898-7e69-4037-9f53-21da4bd360ab"},"vehicle_type_id":"4","last_reported":1686931700,"current_range_meters":22800,"station_id":"ce4bhq12rcd13ifvqhhg","pricing_plan_id":"free"},{"bike_id":"98a7910e-4386-477a-ae94-ad5d040bd1f9","system_id":"levelo_inurba_marseille","lat":43.276179,"lon":5.361009,"is_reserved":false,"is_disabled":false,"rental_uris":{"android":"levelo://app?vid=98a7910e-4386-477a-ae94-ad5d040bd1f9","ios":"levelo://app?vid=98a7910e-4386-477a-ae94-ad5d040bd1f9"},"vehicle_type_id":"4","last_reported":1686931700,"current_range_meters":20800,"station_id":"ce4bgj92rcd13ifvqbe0","pricing_plan_id":"free"},{"bike_id":"4123155c-5d4a-42ab-a23e-5b0de2331798","system_id":"levelo_inurba_marseille","lat":43.3254,"lon":5.4145,"is_reserved":false,"is_disabled":false,"rental_uris":{"android":"levelo://app?vid=4123155c-5d4a-42ab-a23e-5b0de2331798","ios":"levelo://app?vid=4123155c-5d4a-42ab-a23e-5b0de2331798"},"vehicle_type_id":"4","last_reported":1686931700,"current_range_meters":31200,"station_id":"ce4bhq12rcd13ifvqhhg","pricing_plan_id":"free"},{"bike_id":"8f714ab9-6f41-47b2-9284-97205b88934f","system_id":"levelo_inurba_marseille","lat":43.325233,"lon":5.414318,"is_reserved":false,"is_disabled":false,"rental_uris":{"android":"levelo://app?vid=8f714ab9-6f41-47b2-9284-97205b88934f","ios":"levelo://app?vid=8f714ab9-6f41-47b2-9284-97205b88934f"},"vehicle_type_id":"4","last_reported":1686931700,"current_range_meters":30000,"station_id":"ce4bhq12rcd13ifvqhhg","pricing_plan_id":"free"},{"bike_id":"5022f31c-3431-48c0-899d-4f3fa33c4729","system_id":"levelo_inurba_marseille","lat":43.325233,"lon":5.414318,"is_reserved":false,"is_disabled":false,"rental_uris":{"android":"levelo://app?vid=5022f31c-3431-48c0-899d-4f3fa33c4729","ios":"levelo://app?vid=5022f31c-3431-48c0-899d-4f3fa33c4729"},"vehicle_type_id":"4","last_reported":1686931700,"current_range_meters":31200,"station_id":"ce4bhq12rcd13ifvqhhg","pricing_plan_id":"free"},{"bike_id":"6efdd409-87d3-47bc-bb39-3948ccbe7d05","system_id":"levelo_inurba_marseille","lat":43.32547,"lon":5.41451,"is_reserved":false,"is_disabled":false,"rental_uris":{"android":"levelo://app?vid=6efdd409-87d3-47bc-bb39-3948ccbe7d05","ios":"levelo://app?vid=6efdd409-87d3-47bc-bb39-3948ccbe7d05"},"vehicle_type_id":"4","last_reported":1686931700,"current_range_meters":31200,"station_id":"","pricing_plan_id":"free"},{"bike_id":"5f410def-d618-47b4-a2c5-bbd8d563a805","system_id":"levelo_inurba_marseille","lat":43.286595,"lon":5.386795,"is_reserved":false,"is_disabled":false,"rental_uris":{"android":"levelo://app?vid=5f410def-d618-47b4-a2c5-bbd8d563a805","ios":"levelo://app?vid=5f410def-d618-47b4-a2c5-bbd8d563a805"},"vehicle_type_id":"4","last_reported":1686931700,"current_range_meters":26000,"station_id":"ce4bh492rcd13ifvqdug","pricing_plan_id":"free"},{"bike_id":"4558c7bd-a517-40b2-a9b4-75519e69a274","system_id":"levelo_inurba_marseille","lat":43.280726,"lon":5.396582,"is_reserved":false,"is_disabled":false,"rental_uris":{"android":"levelo://app?vid=4558c7bd-a517-40b2-a9b4-75519e69a274","ios":"levelo://app?vid=4558c7bd-a517-40b2-a9b4-75519e69a274"},"vehicle_type_id":"4","last_reported":1686931700,"current_range_meters":15600,"station_id":"","pricing_plan_id":"free"},{"bike_id":"79edc044-cb10-4bfa-a797-a5595dd69ae0","system_id":"levelo_inurba_marseille","lat":43.27831,"lon":5.39198,"is_reserved":false,"is_disabled":false,"rental_uris":{"android":"levelo://app?vid=79edc044-cb10-4bfa-a797-a5595dd69ae0","ios":"levelo://app?vid=79edc044-cb10-4bfa-a797-a5595dd69ae0"},"vehicle_type_id":"4","last_reported":1686931700,"current_range_meters":8400,"station_id":"ce4bhjp2rcd13ifvqga0","pricing_plan_id":"free"},{"bike_id":"e5b4fd11-2494-4519-95c8-56924eb00e1a","system_id":"levelo_inurba_marseille","lat":43.27385,"lon":5.36244,"is_reserved":false,"is_disabled":false,"rental_uris":{"android":"levelo://app?vid=e5b4fd11-2494-4519-95c8-56924eb00e1a","ios":"levelo://app?vid=e5b4fd11-2494-4519-95c8-56924eb00e1a"},"vehicle_type_id":"4","last_reported":1686931700,"current_range_meters":6800,"station_id":"","pricing_plan_id":"free"},{"bike_id":"e54a67a2-3441-421d-9302-f9c52d2be558","system_id":"levelo_inurba_marseille","lat":43.27383,"lon":5.36257,"is_reserved":false,"is_disabled":false,"rental_uris":{"android":"levelo://app?vid=e54a67a2-3441-421d-9302-f9c52d2be558","ios":"levelo://app?vid=e54a67a2-3441-421d-9302-f9c52d2be558"},"vehicle_type_id":"4","last_reported":1686931700,"current_range_meters":1200,"station_id":"","pricing_plan_id":"free"},{"bike_id":"309b70e8-aa59-4d0c-9891-d91454f8aee7","system_id":"levelo_inurba_marseille","lat":43.27383,"lon":5.36252,"is_reserved":false,"is_disabled":false,"rental_uris":{"android":"levelo://app?vid=309b70e8-aa59-4d0c-9891-d91454f8aee7","ios":"levelo://app?vid=309b70e8-aa59-4d0c-9891-d91454f8aee7"},"vehicle_type_id":"4","last_reported":1686931700,"current_range_meters":31200,"station_id":"ce4bhbh2rcd13ifvqeo0","pricing_plan_id":"free"},{"bike_id":"01a3bf29-d4db-4d46-9df3-3f1ef659eeb8","system_id":"levelo_inurba_marseille","lat":43.273609,"lon":5.362708,"is_reserved":false,"is_disabled":false,"rental_uris":{"android":"levelo://app?vid=01a3bf29-d4db-4d46-9df3-3f1ef659eeb8","ios":"levelo://app?vid=01a3bf29-d4db-4d46-9df3-3f1ef659eeb8"},"vehicle_type_id":"4","last_reported":1686931700,"current_range_meters":0,"station_id":"ce4bhbh2rcd13ifvqeo0","pricing_plan_id":"free"},{"bike_id":"0bde4872-3012-4401-bd96-cd398152236a","system_id":"levelo_inurba_marseille","lat":43.2737,"lon":5.36258,"is_reserved":false,"is_disabled":false,"rental_uris":{"android":"levelo://app?vid=0bde4872-3012-4401-bd96-cd398152236a","ios":"levelo://app?vid=0bde4872-3012-4401-bd96-cd398152236a"},"vehicle_type_id":"4","last_reported":1686931700,"current_range_meters":6400,"station_id":"ce4bhbh2rcd13ifvqeo0","pricing_plan_id":"free"},{"bike_id":"92417b38-3e88-4ebb-a24b-1c5f73e2cf9d","system_id":"levelo_inurba_marseille","lat":43.33608,"lon":5.41037,"is_reserved":false,"is_disabled":false,"rental_uris":{"android":"levelo://app?vid=92417b38-3e88-4ebb-a24b-1c5f73e2cf9d","ios":"levelo://app?vid=92417b38-3e88-4ebb-a24b-1c5f73e2cf9d"},"vehicle_type_id":"4","last_reported":1686931700,"current_range_meters":16800,"station_id":"","pricing_plan_id":"free"},{"bike_id":"28e482ad-4d7c-4464-8a7d-68cb043a150b","system_id":"levelo_inurba_marseille","lat":43.275625,"lon":5.384392,"is_reserved":false,"is_disabled":false,"rental_uris":{"android":"levelo://app?vid=28e482ad-4d7c-4464-8a7d-68cb043a150b","ios":"levelo://app?vid=28e482ad-4d7c-4464-8a7d-68cb043a150b"},"vehicle_type_id":"4","last_reported":1686931700,"current_range_meters":12800,"station_id":"ce4bhh92rcd13ifvqfi0","pricing_plan_id":"free"},{"bike_id":"13592d1b-b3fe-4733-a2b7-94dff352cae7","system_id":"levelo_inurba_marseille","lat":43.276771,"lon":5.388799,"is_reserved":false,"is_disabled":false,"rental_uris":{"android":"levelo://app?vid=13592d1b-b3fe-4733-a2b7-94dff352cae7","ios":"levelo://app?vid=13592d1b-b3fe-4733-a2b7-94dff352cae7"},"vehicle_type_id":"4","last_reported":1686931700,"current_range_meters":800,"station_id":"ce4bhi12rcd13ifvqfo0","pricing_plan_id":"free"},{"bike_id":"2bf68ed4-d662-490c-901e-9818bd9d939e","system_id":"levelo_inurba_marseille","lat":43.317121,"lon":5.423936,"is_reserved":false,"is_disabled":false,"rental_uris":{"android":"levelo://app?vid=2bf68ed4-d662-490c-901e-9818bd9d939e","ios":"levelo://app?vid=2bf68ed4-d662-490c-901e-9818bd9d939e"},"vehicle_type_id":"4","last_reported":1686931700,"current_range_meters":3600,"station_id":"ce4bhp92rcd13ifvqhbg","pricing_plan_id":"free"},{"bike_id":"4a59fc21-c1f8-4a31-ada6-6c83017c5dd6","system_id":"levelo_inurba_marseille","lat":43.273125,"lon":5.390731,"is_reserved":false,"is_disabled":false,"rental_uris":{"android":"levelo://app?vid=4a59fc21-c1f8-4a31-ada6-6c83017c5dd6","ios":"levelo://app?vid=4a59fc21-c1f8-4a31-ada6-6c83017c5dd6"},"vehicle_type_id":"4","last_reported":1686931700,"current_range_meters":0,"station_id":"ce4bhgp2rcd13ifvqfe0","pricing_plan_id":"free"},{"bike_id":"f82c4e0b-ce86-4de4-962b-f266d6ba506e","system_id":"levelo_inurba_marseille","lat":43.273129,"lon":5.390725,"is_reserved":false,"is_disabled":false,"rental_uris":{"android":"levelo://app?vid=f82c4e0b-ce86-4de4-962b-f266d6ba506e","ios":"levelo://app?vid=f82c4e0b-ce86-4de4-962b-f266d6ba506e"},"vehicle_type_id":"4","last_reported":1686931700,"current_range_meters":26800,"station_id":"ce4bhgp2rcd13ifvqfe0","pricing_plan_id":"free"},{"bike_id":"282fbbe0-4d1f-426e-8909-69070402e48e","system_id":"levelo_inurba_marseille","lat":43.304096,"lon":5.425385,"is_reserved":false,"is_disabled":false,"rental_uris":{"android":"levelo://app?vid=282fbbe0-4d1f-426e-8909-69070402e48e","ios":"levelo://app?vid=282fbbe0-4d1f-426e-8909-69070402e48e"},"vehicle_type_id":"4","last_reported":1686931700,"current_range_meters":14000,"station_id":"ce4bhoh2rcd13ifvqh6g","pricing_plan_id":"free"},{"bike_id":"2073da98-cb11-4237-bc27-838b419f344e","system_id":"levelo_inurba_marseille","lat":43.304096,"lon":5.425385,"is_reserved":false,"is_disabled":false,"rental_uris":{"android":"levelo://app?vid=2073da98-cb11-4237-bc27-838b419f344e","ios":"levelo://app?vid=2073da98-cb11-4237-bc27-838b419f344e"},"vehicle_type_id":"4","last_reported":1686931700,"current_range_meters":28000,"station_id":"ce4bhoh2rcd13ifvqh6g","pricing_plan_id":"free"},{"bike_id":"d7dc7e1c-94fd-4dd6-9974-47e8be9b4d8e","system_id":"levelo_inurba_marseille","lat":43.304096,"lon":5.425385,"is_reserved":false,"is_disabled":false,"rental_uris":{"android":"levelo://app?vid=d7dc7e1c-94fd-4dd6-9974-47e8be9b4d8e","ios":"levelo://app?vid=d7dc7e1c-94fd-4dd6-9974-47e8be9b4d8e"},"vehicle_type_id":"4","last_reported":1686931700,"current_range_meters":31200,"station_id":"ce4bhoh2rcd13ifvqh6g","pricing_plan_id":"free"},{"bike_id":"253e4282-f0f0-4cd0-ae98-2bf77d702043","system_id":"levelo_inurba_marseille","lat":43.304096,"lon":5.425385,"is_reserved":false,"is_disabled":false,"rental_uris":{"android":"levelo://app?vid=253e4282-f0f0-4cd0-ae98-2bf77d702043","ios":"levelo://app?vid=253e4282-f0f0-4cd0-ae98-2bf77d702043"},"vehicle_type_id":"4","last_reported":1686931700,"current_range_meters":31200,"station_id":"ce4bhoh2rcd13ifvqh6g","pricing_plan_id":"free"},{"bike_id":"1effb507-4855-41c8-95b3-ddcb904c84d9","system_id":"levelo_inurba_marseille","lat":43.304096,"lon":5.425385,"is_reserved":false,"is_disabled":false,"rental_uris":{"android":"levelo://app?vid=1effb507-4855-41c8-95b3-ddcb904c84d9","ios":"levelo://app?vid=1effb507-4855-41c8-95b3-ddcb904c84d9"},"vehicle_type_id":"4","last_reported":1686931700,"current_range_meters":29600,"station_id":"ce4bhoh2rcd13ifvqh6g","pricing_plan_id":"free"},{"bike_id":"313e6faf-070e-4607-a2a7-288244bf4d55","system_id":"levelo_inurba_marseille","lat":43.304096,"lon":5.425385,"is_reserved":false,"is_disabled":false,"rental_uris":{"android":"levelo://app?vid=313e6faf-070e-4607-a2a7-288244bf4d55","ios":"levelo://app?vid=313e6faf-070e-4607-a2a7-288244bf4d55"},"vehicle_type_id":"4","last_reported":1686931700,"current_range_meters":22400,"station_id":"ce4bhoh2rcd13ifvqh6g","pricing_plan_id":"free"},{"bike_id":"b9a53e50-7078-434a-9c19-a1c5262e3988","system_id":"levelo_inurba_marseille","lat":43.29548,"lon":5.42278,"is_reserved":false,"is_disabled":false,"rental_uris":{"android":"levelo://app?vid=b9a53e50-7078-434a-9c19-a1c5262e3988","ios":"levelo://app?vid=b9a53e50-7078-434a-9c19-a1c5262e3988"},"vehicle_type_id":"4","last_reported":1686931700,"current_range_meters":14000,"station_id":"ce4bhph2rcd13ifvqhdg","pricing_plan_id":"free"},{"bike_id":"d187f757-c9e2-487e-bb8e-74cc2777147c","system_id":"levelo_inurba_marseille","lat":43.278128,"lon":5.407195,"is_reserved":false,"is_disabled":false,"rental_uris":{"android":"levelo://app?vid=d187f757-c9e2-487e-bb8e-74cc2777147c","ios":"levelo://app?vid=d187f757-c9e2-487e-bb8e-74cc2777147c"},"vehicle_type_id":"4","last_reported":1686931700,"current_range_meters":1600,"station_id":"ce4bhnh2rcd13ifvqgtg","pricing_plan_id":"free"},{"bike_id":"96adcf9d-c615-4629-8083-ce640b40a26f","system_id":"levelo_inurba_marseille","lat":43.278128,"lon":5.407195,"is_reserved":false,"is_disabled":false,"rental_uris":{"android":"levelo://app?vid=96adcf9d-c615-4629-8083-ce640b40a26f","ios":"levelo://app?vid=96adcf9d-c615-4629-8083-ce640b40a26f"},"vehicle_type_id":"4","last_reported":1686931700,"current_range_meters":30800,"station_id":"ce4bhnh2rcd13ifvqgtg","pricing_plan_id":"free"},{"bike_id":"58af3948-8719-4c83-8e72-920a7e0d410c","system_id":"levelo_inurba_marseille","lat":43.278128,"lon":5.407195,"is_reserved":false,"is_disabled":false,"rental_uris":{"android":"levelo://app?vid=58af3948-8719-4c83-8e72-920a7e0d410c","ios":"levelo://app?vid=58af3948-8719-4c83-8e72-920a7e0d410c"},"vehicle_type_id":"4","last_reported":1686931700,"current_range_meters":25200,"station_id":"ce4bhnh2rcd13ifvqgtg","pricing_plan_id":"free"},{"bike_id":"688d237e-9502-4976-b2ff-63094c188e19","system_id":"levelo_inurba_marseille","lat":43.26954,"lon":5.38621,"is_reserved":false,"is_disabled":false,"rental_uris":{"android":"levelo://app?vid=688d237e-9502-4976-b2ff-63094c188e19","ios":"levelo://app?vid=688d237e-9502-4976-b2ff-63094c188e19"},"vehicle_type_id":"4","last_reported":1686931700,"current_range_meters":0,"station_id":"ce4bhh92rcd13ifvqfh0","pricing_plan_id":"free"},{"bike_id":"d42d4d39-e56c-49c3-9f81-361412d2742a","system_id":"levelo_inurba_marseille","lat":43.269467,"lon":5.386439,"is_reserved":false,"is_disabled":false,"rental_uris":{"android":"levelo://app?vid=d42d4d39-e56c-49c3-9f81-361412d2742a","ios":"levelo://app?vid=d42d4d39-e56c-49c3-9f81-361412d2742a"},"vehicle_type_id":"4","last_reported":1686931700,"current_range_meters":20000,"station_id":"ce4bhh92rcd13ifvqfh0","pricing_plan_id":"free"},{"bike_id":"dd550211-fd26-43e1-936c-ba2af453d895","system_id":"levelo_inurba_marseille","lat":43.26956,"lon":5.38637,"is_reserved":false,"is_disabled":false,"rental_uris":{"android":"levelo://app?vid=dd550211-fd26-43e1-936c-ba2af453d895","ios":"levelo://app?vid=dd550211-fd26-43e1-936c-ba2af453d895"},"vehicle_type_id":"4","last_reported":1686931700,"current_range_meters":16800,"station_id":"ce4bhh92rcd13ifvqfh0","pricing_plan_id":"free"},{"bike_id":"9194cc3b-d4a6-450e-9f96-90ab3c73cec8","system_id":"levelo_inurba_marseille","lat":43.269467,"lon":5.386439,"is_reserved":false,"is_disabled":false,"rental_uris":{"android":"levelo://app?vid=9194cc3b-d4a6-450e-9f96-90ab3c73cec8","ios":"levelo://app?vid=9194cc3b-d4a6-450e-9f96-90ab3c73cec8"},"vehicle_type_id":"4","last_reported":1686931700,"current_range_meters":5200,"station_id":"ce4bhh92rcd13ifvqfh0","pricing_plan_id":"free"},{"bike_id":"22cf39ee-98b8-4bf0-a937-3bb9b9cd6f88","system_id":"levelo_inurba_marseille","lat":43.26948,"lon":5.38636,"is_reserved":false,"is_disabled":false,"rental_uris":{"android":"levelo://app?vid=22cf39ee-98b8-4bf0-a937-3bb9b9cd6f88","ios":"levelo://app?vid=22cf39ee-98b8-4bf0-a937-3bb9b9cd6f88"},"vehicle_type_id":"4","last_reported":1686931700,"current_range_meters":22800,"station_id":"ce4bhh92rcd13ifvqfh0","pricing_plan_id":"free"},{"bike_id":"100ac661-3229-4684-8870-99ec9158c525","system_id":"levelo_inurba_marseille","lat":43.26686,"lon":5.3826,"is_reserved":false,"is_disabled":false,"rental_uris":{"android":"levelo://app?vid=100ac661-3229-4684-8870-99ec9158c525","ios":"levelo://app?vid=100ac661-3229-4684-8870-99ec9158c525"},"vehicle_type_id":"4","last_reported":1686931700,"current_range_meters":0,"station_id":"ce4bhg92rcd13ifvqf90","pricing_plan_id":"free"},{"bike_id":"b40decaf-1e98-44bb-8fb0-bb4d0312653e","system_id":"levelo_inurba_marseille","lat":43.26684,"lon":5.38268,"is_reserved":false,"is_disabled":false,"rental_uris":{"android":"levelo://app?vid=b40decaf-1e98-44bb-8fb0-bb4d0312653e","ios":"levelo://app?vid=b40decaf-1e98-44bb-8fb0-bb4d0312653e"},"vehicle_type_id":"4","last_reported":1686931700,"current_range_meters":0,"station_id":"ce4bhg92rcd13ifvqf90","pricing_plan_id":"free"},{"bike_id":"6275aaca-a354-407f-be44-df40f2969d44","system_id":"levelo_inurba_marseille","lat":43.26681,"lon":5.382694,"is_reserved":false,"is_disabled":false,"rental_uris":{"android":"levelo://app?vid=6275aaca-a354-407f-be44-df40f2969d44","ios":"levelo://app?vid=6275aaca-a354-407f-be44-df40f2969d44"},"vehicle_type_id":"4","last_reported":1686931700,"current_range_meters":31200,"station_id":"ce4bhg92rcd13ifvqf90","pricing_plan_id":"free"},{"bike_id":"c5e44d6b-7575-45cf-bdd7-8a508031f25f","system_id":"levelo_inurba_marseille","lat":43.26681,"lon":5.382694,"is_reserved":false,"is_disabled":false,"rental_uris":{"android":"levelo://app?vid=c5e44d6b-7575-45cf-bdd7-8a508031f25f","ios":"levelo://app?vid=c5e44d6b-7575-45cf-bdd7-8a508031f25f"},"vehicle_type_id":"4","last_reported":1686931700,"current_range_meters":24800,"station_id":"ce4bhg92rcd13ifvqf90","pricing_plan_id":"free"},{"bike_id":"5b8337b9-efac-4154-808d-45ef6f86aa02","system_id":"levelo_inurba_marseille","lat":43.26679,"lon":5.38264,"is_reserved":false,"is_disabled":false,"rental_uris":{"android":"levelo://app?vid=5b8337b9-efac-4154-808d-45ef6f86aa02","ios":"levelo://app?vid=5b8337b9-efac-4154-808d-45ef6f86aa02"},"vehicle_type_id":"4","last_reported":1686931700,"current_range_meters":7200,"station_id":"ce4bhg92rcd13ifvqf90","pricing_plan_id":"free"},{"bike_id":"cfba2fbe-9ed5-423f-b411-8d6c38451715","system_id":"levelo_inurba_marseille","lat":43.2668,"lon":5.3827,"is_reserved":false,"is_disabled":false,"rental_uris":{"android":"levelo://app?vid=cfba2fbe-9ed5-423f-b411-8d6c38451715","ios":"levelo://app?vid=cfba2fbe-9ed5-423f-b411-8d6c38451715"},"vehicle_type_id":"4","last_reported":1686931700,"current_range_meters":31200,"station_id":"ce4bhg92rcd13ifvqf90","pricing_plan_id":"free"},{"bike_id":"a004c999-3929-4fa3-ae7b-bb0a9b4991bd","system_id":"levelo_inurba_marseille","lat":43.26678,"lon":5.38266,"is_reserved":false,"is_disabled":false,"rental_uris":{"android":"levelo://app?vid=a004c999-3929-4fa3-ae7b-bb0a9b4991bd","ios":"levelo://app?vid=a004c999-3929-4fa3-ae7b-bb0a9b4991bd"},"vehicle_type_id":"4","last_reported":1686931700,"current_range_meters":18400,"station_id":"ce4bhg92rcd13ifvqf90","pricing_plan_id":"free"},{"bike_id":"3987290e-fd4b-4f2b-81c0-57fca98f9cde","system_id":"levelo_inurba_marseille","lat":43.26786,"lon":5.39416,"is_reserved":false,"is_disabled":false,"rental_uris":{"android":"levelo://app?vid=3987290e-fd4b-4f2b-81c0-57fca98f9cde","ios":"levelo://app?vid=3987290e-fd4b-4f2b-81c0-57fca98f9cde"},"vehicle_type_id":"4","last_reported":1686931700,"current_range_meters":30000,"station_id":"ce4bhh12rcd13ifvqfg0","pricing_plan_id":"free"},{"bike_id":"613eade3-1444-4736-85f8-1e6b49d2795e","system_id":"levelo_inurba_marseille","lat":43.261782,"lon":5.374515,"is_reserved":false,"is_disabled":false,"rental_uris":{"android":"levelo://app?vid=613eade3-1444-4736-85f8-1e6b49d2795e","ios":"levelo://app?vid=613eade3-1444-4736-85f8-1e6b49d2795e"},"vehicle_type_id":"4","last_reported":1686931700,"current_range_meters":13600,"station_id":"ce4bhgp2rcd13ifvqfc0","pricing_plan_id":"free"},{"bike_id":"fcbfc72a-92bf-4633-9aa6-585209943733","system_id":"levelo_inurba_marseille","lat":43.261782,"lon":5.374515,"is_reserved":false,"is_disabled":false,"rental_uris":{"android":"levelo://app?vid=fcbfc72a-92bf-4633-9aa6-585209943733","ios":"levelo://app?vid=fcbfc72a-92bf-4633-9aa6-585209943733"},"vehicle_type_id":"4","last_reported":1686931700,"current_range_meters":4400,"station_id":"ce4bhgp2rcd13ifvqfc0","pricing_plan_id":"free"},{"bike_id":"b102bc94-d8cb-459f-a2af-812a1bf11581","system_id":"levelo_inurba_marseille","lat":43.261782,"lon":5.374515,"is_reserved":false,"is_disabled":false,"rental_uris":{"android":"levelo://app?vid=b102bc94-d8cb-459f-a2af-812a1bf11581","ios":"levelo://app?vid=b102bc94-d8cb-459f-a2af-812a1bf11581"},"vehicle_type_id":"4","last_reported":1686931700,"current_range_meters":1200,"station_id":"ce4bhgp2rcd13ifvqfc0","pricing_plan_id":"free"},{"bike_id":"c986f20f-5bf5-48cc-9726-647d8416715d","system_id":"levelo_inurba_marseille","lat":43.261782,"lon":5.374515,"is_reserved":false,"is_disabled":false,"rental_uris":{"android":"levelo://app?vid=c986f20f-5bf5-48cc-9726-647d8416715d","ios":"levelo://app?vid=c986f20f-5bf5-48cc-9726-647d8416715d"},"vehicle_type_id":"4","last_reported":1686931700,"current_range_meters":19200,"station_id":"ce4bhgp2rcd13ifvqfc0","pricing_plan_id":"free"},{"bike_id":"80ba01ef-5096-4594-87ab-1b631571c909","system_id":"levelo_inurba_marseille","lat":43.261782,"lon":5.374515,"is_reserved":false,"is_disabled":false,"rental_uris":{"android":"levelo://app?vid=80ba01ef-5096-4594-87ab-1b631571c909","ios":"levelo://app?vid=80ba01ef-5096-4594-87ab-1b631571c909"},"vehicle_type_id":"4","last_reported":1686931700,"current_range_meters":8000,"station_id":"ce4bhgp2rcd13ifvqfc0","pricing_plan_id":"free"},{"bike_id":"5c553f65-8b75-4854-ae3f-82aebdae4a87","system_id":"levelo_inurba_marseille","lat":43.261782,"lon":5.374515,"is_reserved":false,"is_disabled":false,"rental_uris":{"android":"levelo://app?vid=5c553f65-8b75-4854-ae3f-82aebdae4a87","ios":"levelo://app?vid=5c553f65-8b75-4854-ae3f-82aebdae4a87"},"vehicle_type_id":"4","last_reported":1686931700,"current_range_meters":2000,"station_id":"ce4bhgp2rcd13ifvqfc0","pricing_plan_id":"free"},{"bike_id":"547449f9-bddc-4e7c-a438-2786e1a966ad","system_id":"levelo_inurba_marseille","lat":43.261782,"lon":5.374515,"is_reserved":false,"is_disabled":false,"rental_uris":{"android":"levelo://app?vid=547449f9-bddc-4e7c-a438-2786e1a966ad","ios":"levelo://app?vid=547449f9-bddc-4e7c-a438-2786e1a966ad"},"vehicle_type_id":"4","last_reported":1686931700,"current_range_meters":0,"station_id":"ce4bhgp2rcd13ifvqfc0","pricing_plan_id":"free"},{"bike_id":"8160c2a8-cadb-4372-b210-8e02342a5471","system_id":"levelo_inurba_marseille","lat":43.261782,"lon":5.374515,"is_reserved":false,"is_disabled":false,"rental_uris":{"android":"levelo://app?vid=8160c2a8-cadb-4372-b210-8e02342a5471","ios":"levelo://app?vid=8160c2a8-cadb-4372-b210-8e02342a5471"},"vehicle_type_id":"4","last_reported":1686931700,"current_range_meters":0,"station_id":"ce4bhgp2rcd13ifvqfc0","pricing_plan_id":"free"},{"bike_id":"1c8733a1-ad21-4284-a65b-6f6b8dda187d","system_id":"levelo_inurba_marseille","lat":43.26185,"lon":5.37444,"is_reserved":false,"is_disabled":false,"rental_uris":{"android":"levelo://app?vid=1c8733a1-ad21-4284-a65b-6f6b8dda187d","ios":"levelo://app?vid=1c8733a1-ad21-4284-a65b-6f6b8dda187d"},"vehicle_type_id":"4","last_reported":1686931700,"current_range_meters":16800,"station_id":"ce4bhgp2rcd13ifvqfc0","pricing_plan_id":"free"},{"bike_id":"088a0517-8f39-47d1-b625-26421c957b0f","system_id":"levelo_inurba_marseille","lat":43.261782,"lon":5.374515,"is_reserved":false,"is_disabled":false,"rental_uris":{"android":"levelo://app?vid=088a0517-8f39-47d1-b625-26421c957b0f","ios":"levelo://app?vid=088a0517-8f39-47d1-b625-26421c957b0f"},"vehicle_type_id":"4","last_reported":1686931700,"current_range_meters":0,"station_id":"ce4bhgp2rcd13ifvqfc0","pricing_plan_id":"free"},{"bike_id":"c248168a-d092-434d-bb0b-0f4558aaafb5","system_id":"levelo_inurba_marseille","lat":43.261782,"lon":5.374515,"is_reserved":false,"is_disabled":false,"rental_uris":{"android":"levelo://app?vid=c248168a-d092-434d-bb0b-0f4558aaafb5","ios":"levelo://app?vid=c248168a-d092-434d-bb0b-0f4558aaafb5"},"vehicle_type_id":"4","last_reported":1686931700,"current_range_meters":31200,"station_id":"ce4bhgp2rcd13ifvqfc0","pricing_plan_id":"free"},{"bike_id":"a9ec83d2-a242-4b97-8e94-335591df70d7","system_id":"levelo_inurba_marseille","lat":43.26202,"lon":5.379299,"is_reserved":false,"is_disabled":false,"rental_uris":{"android":"levelo://app?vid=a9ec83d2-a242-4b97-8e94-335591df70d7","ios":"levelo://app?vid=a9ec83d2-a242-4b97-8e94-335591df70d7"},"vehicle_type_id":"4","last_reported":1686931700,"current_range_meters":16000,"station_id":"ce4bhjp2rcd13ifvqg90","pricing_plan_id":"free"},{"bike_id":"2a1b23f2-dabb-4511-ba16-c075d2484d5d","system_id":"levelo_inurba_marseille","lat":43.26202,"lon":5.379299,"is_reserved":false,"is_disabled":false,"rental_uris":{"android":"levelo://app?vid=2a1b23f2-dabb-4511-ba16-c075d2484d5d","ios":"levelo://app?vid=2a1b23f2-dabb-4511-ba16-c075d2484d5d"},"vehicle_type_id":"4","last_reported":1686931700,"current_range_meters":6000,"station_id":"ce4bhjp2rcd13ifvqg90","pricing_plan_id":"free"},{"bike_id":"1c50530b-b2e4-4b41-ae0c-282e246b3ee9","system_id":"levelo_inurba_marseille","lat":43.26209,"lon":5.37922,"is_reserved":false,"is_disabled":false,"rental_uris":{"android":"levelo://app?vid=1c50530b-b2e4-4b41-ae0c-282e246b3ee9","ios":"levelo://app?vid=1c50530b-b2e4-4b41-ae0c-282e246b3ee9"},"vehicle_type_id":"4","last_reported":1686931700,"current_range_meters":26800,"station_id":"ce4bhjp2rcd13ifvqg90","pricing_plan_id":"free"},{"bike_id":"cd6b46fc-36aa-450c-9866-15273c092f71","system_id":"levelo_inurba_marseille","lat":43.26202,"lon":5.379299,"is_reserved":false,"is_disabled":false,"rental_uris":{"android":"levelo://app?vid=cd6b46fc-36aa-450c-9866-15273c092f71","ios":"levelo://app?vid=cd6b46fc-36aa-450c-9866-15273c092f71"},"vehicle_type_id":"4","last_reported":1686931700,"current_range_meters":0,"station_id":"ce4bhjp2rcd13ifvqg90","pricing_plan_id":"free"},{"bike_id":"d11b2b8a-fc3f-4a6e-a031-fca57f2a6dbe","system_id":"levelo_inurba_marseille","lat":43.26202,"lon":5.379299,"is_reserved":false,"is_disabled":false,"rental_uris":{"android":"levelo://app?vid=d11b2b8a-fc3f-4a6e-a031-fca57f2a6dbe","ios":"levelo://app?vid=d11b2b8a-fc3f-4a6e-a031-fca57f2a6dbe"},"vehicle_type_id":"4","last_reported":1686931700,"current_range_meters":26800,"station_id":"ce4bhjp2rcd13ifvqg90","pricing_plan_id":"free"},{"bike_id":"b9765a6f-f3d2-4480-a13b-28e90420ca3e","system_id":"levelo_inurba_marseille","lat":43.26202,"lon":5.379299,"is_reserved":false,"is_disabled":false,"rental_uris":{"android":"levelo://app?vid=b9765a6f-f3d2-4480-a13b-28e90420ca3e","ios":"levelo://app?vid=b9765a6f-f3d2-4480-a13b-28e90420ca3e"},"vehicle_type_id":"4","last_reported":1686931700,"current_range_meters":6000,"station_id":"ce4bhjp2rcd13ifvqg90","pricing_plan_id":"free"},{"bike_id":"fcc791b7-d7d6-431e-9e36-c8438d7a6101","system_id":"levelo_inurba_marseille","lat":43.26202,"lon":5.379299,"is_reserved":false,"is_disabled":false,"rental_uris":{"android":"levelo://app?vid=fcc791b7-d7d6-431e-9e36-c8438d7a6101","ios":"levelo://app?vid=fcc791b7-d7d6-431e-9e36-c8438d7a6101"},"vehicle_type_id":"4","last_reported":1686931700,"current_range_meters":28400,"station_id":"ce4bhjp2rcd13ifvqg90","pricing_plan_id":"free"},{"bike_id":"6345dde2-8be5-4b14-b554-75b467131e9d","system_id":"levelo_inurba_marseille","lat":43.26202,"lon":5.379299,"is_reserved":false,"is_disabled":false,"rental_uris":{"android":"levelo://app?vid=6345dde2-8be5-4b14-b554-75b467131e9d","ios":"levelo://app?vid=6345dde2-8be5-4b14-b554-75b467131e9d"},"vehicle_type_id":"4","last_reported":1686931700,"current_range_meters":23200,"station_id":"ce4bhjp2rcd13ifvqg90","pricing_plan_id":"free"},{"bike_id":"4c950cca-0ada-4599-a8e9-8477f9580776","system_id":"levelo_inurba_marseille","lat":43.26205,"lon":5.37924,"is_reserved":false,"is_disabled":false,"rental_uris":{"android":"levelo://app?vid=4c950cca-0ada-4599-a8e9-8477f9580776","ios":"levelo://app?vid=4c950cca-0ada-4599-a8e9-8477f9580776"},"vehicle_type_id":"4","last_reported":1686931700,"current_range_meters":29200,"station_id":"ce4bhjp2rcd13ifvqg90","pricing_plan_id":"free"},{"bike_id":"68339086-9a1e-40e3-b666-8b288940409f","system_id":"levelo_inurba_marseille","lat":43.26202,"lon":5.379299,"is_reserved":false,"is_disabled":false,"rental_uris":{"android":"levelo://app?vid=68339086-9a1e-40e3-b666-8b288940409f","ios":"levelo://app?vid=68339086-9a1e-40e3-b666-8b288940409f"},"vehicle_type_id":"4","last_reported":1686931700,"current_range_meters":22400,"station_id":"ce4bhjp2rcd13ifvqg90","pricing_plan_id":"free"},{"bike_id":"4d5ce8e4-6e4f-462b-9d6d-0e5b00de345f","system_id":"levelo_inurba_marseille","lat":43.26205,"lon":5.37929,"is_reserved":false,"is_disabled":false,"rental_uris":{"android":"levelo://app?vid=4d5ce8e4-6e4f-462b-9d6d-0e5b00de345f","ios":"levelo://app?vid=4d5ce8e4-6e4f-462b-9d6d-0e5b00de345f"},"vehicle_type_id":"4","last_reported":1686931700,"current_range_meters":10000,"station_id":"ce4bhjp2rcd13ifvqg90","pricing_plan_id":"free"},{"bike_id":"e572aed1-71e6-49ea-a174-5691c7cd1da6","system_id":"levelo_inurba_marseille","lat":43.26202,"lon":5.379299,"is_reserved":false,"is_disabled":false,"rental_uris":{"android":"levelo://app?vid=e572aed1-71e6-49ea-a174-5691c7cd1da6","ios":"levelo://app?vid=e572aed1-71e6-49ea-a174-5691c7cd1da6"},"vehicle_type_id":"4","last_reported":1686931700,"current_range_meters":0,"station_id":"ce4bhjp2rcd13ifvqg90","pricing_plan_id":"free"},{"bike_id":"0e60e233-b07f-48cd-a83e-99e3950ea7ae","system_id":"levelo_inurba_marseille","lat":43.26202,"lon":5.379299,"is_reserved":false,"is_disabled":false,"rental_uris":{"android":"levelo://app?vid=0e60e233-b07f-48cd-a83e-99e3950ea7ae","ios":"levelo://app?vid=0e60e233-b07f-48cd-a83e-99e3950ea7ae"},"vehicle_type_id":"4","last_reported":1686931700,"current_range_meters":22000,"station_id":"ce4bhjp2rcd13ifvqg90","pricing_plan_id":"free"},{"bike_id":"1314fd1f-e069-4617-a027-826e7dc8f158","system_id":"levelo_inurba_marseille","lat":43.26202,"lon":5.379299,"is_reserved":false,"is_disabled":false,"rental_uris":{"android":"levelo://app?vid=1314fd1f-e069-4617-a027-826e7dc8f158","ios":"levelo://app?vid=1314fd1f-e069-4617-a027-826e7dc8f158"},"vehicle_type_id":"4","last_reported":1686931700,"current_range_meters":17600,"station_id":"ce4bhjp2rcd13ifvqg90","pricing_plan_id":"free"},{"bike_id":"40a30b95-5688-45be-ac3d-11a6e4cadaac","system_id":"levelo_inurba_marseille","lat":43.26202,"lon":5.379299,"is_reserved":false,"is_disabled":false,"rental_uris":{"android":"levelo://app?vid=40a30b95-5688-45be-ac3d-11a6e4cadaac","ios":"levelo://app?vid=40a30b95-5688-45be-ac3d-11a6e4cadaac"},"vehicle_type_id":"4","last_reported":1686931700,"current_range_meters":0,"station_id":"ce4bhjp2rcd13ifvqg90","pricing_plan_id":"free"},{"bike_id":"d968640c-41ff-48e7-b790-82f7b592cd6f","system_id":"levelo_inurba_marseille","lat":43.26202,"lon":5.379299,"is_reserved":false,"is_disabled":false,"rental_uris":{"android":"levelo://app?vid=d968640c-41ff-48e7-b790-82f7b592cd6f","ios":"levelo://app?vid=d968640c-41ff-48e7-b790-82f7b592cd6f"},"vehicle_type_id":"4","last_reported":1686931700,"current_range_meters":16000,"station_id":"ce4bhjp2rcd13ifvqg90","pricing_plan_id":"free"},{"bike_id":"a43604cf-6338-465e-b30a-55c742f1264b","system_id":"levelo_inurba_marseille","lat":43.26202,"lon":5.379299,"is_reserved":false,"is_disabled":false,"rental_uris":{"android":"levelo://app?vid=a43604cf-6338-465e-b30a-55c742f1264b","ios":"levelo://app?vid=a43604cf-6338-465e-b30a-55c742f1264b"},"vehicle_type_id":"4","last_reported":1686931700,"current_range_meters":22800,"station_id":"ce4bhjp2rcd13ifvqg90","pricing_plan_id":"free"},{"bike_id":"b41466c8-a47c-4177-8dea-71436883586c","system_id":"levelo_inurba_marseille","lat":43.271388,"lon":5.409269,"is_reserved":false,"is_disabled":false,"rental_uris":{"android":"levelo://app?vid=b41466c8-a47c-4177-8dea-71436883586c","ios":"levelo://app?vid=b41466c8-a47c-4177-8dea-71436883586c"},"vehicle_type_id":"4","last_reported":1686931700,"current_range_meters":20000,"station_id":"ce4bhl12rcd13ifvqgf0","pricing_plan_id":"free"},{"bike_id":"3e8a3620-a7b2-4e46-bd61-afe41253c17b","system_id":"levelo_inurba_marseille","lat":43.271368,"lon":5.40928,"is_reserved":false,"is_disabled":false,"rental_uris":{"android":"levelo://app?vid=3e8a3620-a7b2-4e46-bd61-afe41253c17b","ios":"levelo://app?vid=3e8a3620-a7b2-4e46-bd61-afe41253c17b"},"vehicle_type_id":"4","last_reported":1686931700,"current_range_meters":7200,"station_id":"ce4bhl12rcd13ifvqgf0","pricing_plan_id":"free"},{"bike_id":"42fb1db2-3dfe-4d78-bad9-d0f97b06f2d5","system_id":"levelo_inurba_marseille","lat":43.298768,"lon":5.43643,"is_reserved":false,"is_disabled":false,"rental_uris":{"android":"levelo://app?vid=42fb1db2-3dfe-4d78-bad9-d0f97b06f2d5","ios":"levelo://app?vid=42fb1db2-3dfe-4d78-bad9-d0f97b06f2d5"},"vehicle_type_id":"4","last_reported":1686931700,"current_range_meters":3200,"station_id":"ce4bhpp2rcd13ifvqhfg","pricing_plan_id":"free"},{"bike_id":"fc6f6dd1-5daa-490a-b3ad-4f064d9c1cfe","system_id":"levelo_inurba_marseille","lat":43.260225,"lon":5.375455,"is_reserved":false,"is_disabled":false,"rental_uris":{"android":"levelo://app?vid=fc6f6dd1-5daa-490a-b3ad-4f064d9c1cfe","ios":"levelo://app?vid=fc6f6dd1-5daa-490a-b3ad-4f064d9c1cfe"},"vehicle_type_id":"4","last_reported":1686931700,"current_range_meters":21200,"station_id":"ce4bhgh2rcd13ifvqfa0","pricing_plan_id":"free"},{"bike_id":"5e548f9c-38cb-44b7-a781-7c0ec4c97953","system_id":"levelo_inurba_marseille","lat":43.260225,"lon":5.375455,"is_reserved":false,"is_disabled":false,"rental_uris":{"android":"levelo://app?vid=5e548f9c-38cb-44b7-a781-7c0ec4c97953","ios":"levelo://app?vid=5e548f9c-38cb-44b7-a781-7c0ec4c97953"},"vehicle_type_id":"4","last_reported":1686931700,"current_range_meters":16800,"station_id":"ce4bhgh2rcd13ifvqfa0","pricing_plan_id":"free"},{"bike_id":"48fd9ed1-66eb-4144-bf27-60a2848eeffd","system_id":"levelo_inurba_marseille","lat":43.26029,"lon":5.37548,"is_reserved":false,"is_disabled":false,"rental_uris":{"android":"levelo://app?vid=48fd9ed1-66eb-4144-bf27-60a2848eeffd","ios":"levelo://app?vid=48fd9ed1-66eb-4144-bf27-60a2848eeffd"},"vehicle_type_id":"4","last_reported":1686931700,"current_range_meters":27600,"station_id":"ce4bhgh2rcd13ifvqfa0","pricing_plan_id":"free"},{"bike_id":"34812181-475b-431f-9c2f-ba182cc9f568","system_id":"levelo_inurba_marseille","lat":43.260219,"lon":5.37546,"is_reserved":false,"is_disabled":false,"rental_uris":{"android":"levelo://app?vid=34812181-475b-431f-9c2f-ba182cc9f568","ios":"levelo://app?vid=34812181-475b-431f-9c2f-ba182cc9f568"},"vehicle_type_id":"4","last_reported":1686931700,"current_range_meters":6000,"station_id":"ce4bhgh2rcd13ifvqfa0","pricing_plan_id":"free"},{"bike_id":"4df57491-8958-4e80-8bd4-9018284dee07","system_id":"levelo_inurba_marseille","lat":43.26028,"lon":5.37548,"is_reserved":false,"is_disabled":false,"rental_uris":{"android":"levelo://app?vid=4df57491-8958-4e80-8bd4-9018284dee07","ios":"levelo://app?vid=4df57491-8958-4e80-8bd4-9018284dee07"},"vehicle_type_id":"4","last_reported":1686931700,"current_range_meters":14400,"station_id":"ce4bhgh2rcd13ifvqfa0","pricing_plan_id":"free"},{"bike_id":"2ab2daef-411d-4edd-8cb6-ca3f99c26395","system_id":"levelo_inurba_marseille","lat":43.260219,"lon":5.37546,"is_reserved":false,"is_disabled":false,"rental_uris":{"android":"levelo://app?vid=2ab2daef-411d-4edd-8cb6-ca3f99c26395","ios":"levelo://app?vid=2ab2daef-411d-4edd-8cb6-ca3f99c26395"},"vehicle_type_id":"4","last_reported":1686931700,"current_range_meters":21200,"station_id":"ce4bhgh2rcd13ifvqfa0","pricing_plan_id":"free"},{"bike_id":"7e4e4f89-fab9-4e8a-9112-52798112a820","system_id":"levelo_inurba_marseille","lat":43.26027,"lon":5.37548,"is_reserved":false,"is_disabled":false,"rental_uris":{"android":"levelo://app?vid=7e4e4f89-fab9-4e8a-9112-52798112a820","ios":"levelo://app?vid=7e4e4f89-fab9-4e8a-9112-52798112a820"},"vehicle_type_id":"4","last_reported":1686931700,"current_range_meters":31200,"station_id":"ce4bhgh2rcd13ifvqfa0","pricing_plan_id":"free"},{"bike_id":"a54eab0a-876b-453c-bbe5-7b8fc8c8fa20","system_id":"levelo_inurba_marseille","lat":43.26027,"lon":5.37552,"is_reserved":false,"is_disabled":false,"rental_uris":{"android":"levelo://app?vid=a54eab0a-876b-453c-bbe5-7b8fc8c8fa20","ios":"levelo://app?vid=a54eab0a-876b-453c-bbe5-7b8fc8c8fa20"},"vehicle_type_id":"4","last_reported":1686931700,"current_range_meters":23600,"station_id":"ce4bhgh2rcd13ifvqfa0","pricing_plan_id":"free"},{"bike_id":"870bd0a6-67fd-4746-9dd7-d5d78c5a06b5","system_id":"levelo_inurba_marseille","lat":43.260909,"lon":5.397591,"is_reserved":false,"is_disabled":false,"rental_uris":{"android":"levelo://app?vid=870bd0a6-67fd-4746-9dd7-d5d78c5a06b5","ios":"levelo://app?vid=870bd0a6-67fd-4746-9dd7-d5d78c5a06b5"},"vehicle_type_id":"4","last_reported":1686931700,"current_range_meters":13200,"station_id":"ce4bhi12rcd13ifvqfq0","pricing_plan_id":"free"},{"bike_id":"9b0007d8-2cf9-4d15-b633-8168b575a7be","system_id":"levelo_inurba_marseille","lat":43.27495,"lon":5.42454,"is_reserved":false,"is_disabled":false,"rental_uris":{"android":"levelo://app?vid=9b0007d8-2cf9-4d15-b633-8168b575a7be","ios":"levelo://app?vid=9b0007d8-2cf9-4d15-b633-8168b575a7be"},"vehicle_type_id":"4","last_reported":1686931700,"current_range_meters":16000,"station_id":"ce4bhn92rcd13ifvqgrg","pricing_plan_id":"free"},{"bike_id":"706b3c94-363a-41e1-914c-3568a29d4c02","system_id":"levelo_inurba_marseille","lat":43.260909,"lon":5.397591,"is_reserved":false,"is_disabled":false,"rental_uris":{"android":"levelo://app?vid=706b3c94-363a-41e1-914c-3568a29d4c02","ios":"levelo://app?vid=706b3c94-363a-41e1-914c-3568a29d4c02"},"vehicle_type_id":"4","last_reported":1686931700,"current_range_meters":0,"station_id":"ce4bhi12rcd13ifvqfq0","pricing_plan_id":"free"},{"bike_id":"d87b3d35-9d68-4d8d-ae7b-b43df39136bf","system_id":"levelo_inurba_marseille","lat":43.27495,"lon":5.42457,"is_reserved":false,"is_disabled":false,"rental_uris":{"android":"levelo://app?vid=d87b3d35-9d68-4d8d-ae7b-b43df39136bf","ios":"levelo://app?vid=d87b3d35-9d68-4d8d-ae7b-b43df39136bf"},"vehicle_type_id":"4","last_reported":1686931700,"current_range_meters":25200,"station_id":"ce4bhn92rcd13ifvqgrg","pricing_plan_id":"free"},{"bike_id":"23f369bd-e515-4b78-acd1-21be7fff7af8","system_id":"levelo_inurba_marseille","lat":43.255756,"lon":5.382303,"is_reserved":false,"is_disabled":false,"rental_uris":{"android":"levelo://app?vid=23f369bd-e515-4b78-acd1-21be7fff7af8","ios":"levelo://app?vid=23f369bd-e515-4b78-acd1-21be7fff7af8"},"vehicle_type_id":"4","last_reported":1686931700,"current_range_meters":20000,"station_id":"ce4bhih2rcd13ifvqfs0","pricing_plan_id":"free"},{"bike_id":"6b429598-12f9-4054-b16b-c7f7be488ba7","system_id":"levelo_inurba_marseille","lat":43.255756,"lon":5.382303,"is_reserved":false,"is_disabled":false,"rental_uris":{"android":"levelo://app?vid=6b429598-12f9-4054-b16b-c7f7be488ba7","ios":"levelo://app?vid=6b429598-12f9-4054-b16b-c7f7be488ba7"},"vehicle_type_id":"4","last_reported":1686931700,"current_range_meters":18800,"station_id":"ce4bhih2rcd13ifvqfs0","pricing_plan_id":"free"},{"bike_id":"98fdbd67-9331-474f-998a-efc8c9d605e3","system_id":"levelo_inurba_marseille","lat":43.255756,"lon":5.382303,"is_reserved":false,"is_disabled":false,"rental_uris":{"android":"levelo://app?vid=98fdbd67-9331-474f-998a-efc8c9d605e3","ios":"levelo://app?vid=98fdbd67-9331-474f-998a-efc8c9d605e3"},"vehicle_type_id":"4","last_reported":1686931700,"current_range_meters":3600,"station_id":"ce4bhih2rcd13ifvqfs0","pricing_plan_id":"free"},{"bike_id":"e4db9544-a629-432c-a7fc-2f2907b6a959","system_id":"levelo_inurba_marseille","lat":43.255756,"lon":5.382303,"is_reserved":false,"is_disabled":false,"rental_uris":{"android":"levelo://app?vid=e4db9544-a629-432c-a7fc-2f2907b6a959","ios":"levelo://app?vid=e4db9544-a629-432c-a7fc-2f2907b6a959"},"vehicle_type_id":"4","last_reported":1686931700,"current_range_meters":19200,"station_id":"ce4bhih2rcd13ifvqfs0","pricing_plan_id":"free"},{"bike_id":"17cf7591-3bc5-47fd-920b-966908fbce89","system_id":"levelo_inurba_marseille","lat":43.255756,"lon":5.382303,"is_reserved":false,"is_disabled":false,"rental_uris":{"android":"levelo://app?vid=17cf7591-3bc5-47fd-920b-966908fbce89","ios":"levelo://app?vid=17cf7591-3bc5-47fd-920b-966908fbce89"},"vehicle_type_id":"4","last_reported":1686931700,"current_range_meters":14800,"station_id":"ce4bhih2rcd13ifvqfs0","pricing_plan_id":"free"},{"bike_id":"9934f78a-2893-440d-93ec-951df54e2a66","system_id":"levelo_inurba_marseille","lat":43.27071,"lon":5.42282,"is_reserved":false,"is_disabled":false,"rental_uris":{"android":"levelo://app?vid=9934f78a-2893-440d-93ec-951df54e2a66","ios":"levelo://app?vid=9934f78a-2893-440d-93ec-951df54e2a66"},"vehicle_type_id":"4","last_reported":1686931700,"current_range_meters":4400,"station_id":"ce4bhk92rcd13ifvqgb0","pricing_plan_id":"free"},{"bike_id":"7d0be1ca-d599-434c-b609-27ee982a7d61","system_id":"levelo_inurba_marseille","lat":43.25006,"lon":5.38908,"is_reserved":false,"is_disabled":false,"rental_uris":{"android":"levelo://app?vid=7d0be1ca-d599-434c-b609-27ee982a7d61","ios":"levelo://app?vid=7d0be1ca-d599-434c-b609-27ee982a7d61"},"vehicle_type_id":"4","last_reported":1686931700,"current_range_meters":25200,"station_id":"ce4bhgp2rcd13ifvqfd0","pricing_plan_id":"free"},{"bike_id":"fa9b0df1-68ef-4096-bc81-dbe274e1e37a","system_id":"levelo_inurba_marseille","lat":43.24813,"lon":5.37459,"is_reserved":false,"is_disabled":false,"rental_uris":{"android":"levelo://app?vid=fa9b0df1-68ef-4096-bc81-dbe274e1e37a","ios":"levelo://app?vid=fa9b0df1-68ef-4096-bc81-dbe274e1e37a"},"vehicle_type_id":"4","last_reported":1686931700,"current_range_meters":0,"station_id":"","pricing_plan_id":"free"},{"bike_id":"76e30f3f-f318-42fd-b9cb-b9d96d8e5219","system_id":"levelo_inurba_marseille","lat":43.24811,"lon":5.37456,"is_reserved":false,"is_disabled":false,"rental_uris":{"android":"levelo://app?vid=76e30f3f-f318-42fd-b9cb-b9d96d8e5219","ios":"levelo://app?vid=76e30f3f-f318-42fd-b9cb-b9d96d8e5219"},"vehicle_type_id":"4","last_reported":1686931700,"current_range_meters":6800,"station_id":"ce4bhgh2rcd13ifvqfb0","pricing_plan_id":"free"},{"bike_id":"d1e94a20-6a57-447b-8502-fbebb7af7354","system_id":"levelo_inurba_marseille","lat":43.2479,"lon":5.374457,"is_reserved":false,"is_disabled":false,"rental_uris":{"android":"levelo://app?vid=d1e94a20-6a57-447b-8502-fbebb7af7354","ios":"levelo://app?vid=d1e94a20-6a57-447b-8502-fbebb7af7354"},"vehicle_type_id":"4","last_reported":1686931700,"current_range_meters":14400,"station_id":"ce4bhgh2rcd13ifvqfb0","pricing_plan_id":"free"},{"bike_id":"17d850ef-abc6-43d6-b4dc-f791154299fa","system_id":"levelo_inurba_marseille","lat":43.2479,"lon":5.374457,"is_reserved":false,"is_disabled":false,"rental_uris":{"android":"levelo://app?vid=17d850ef-abc6-43d6-b4dc-f791154299fa","ios":"levelo://app?vid=17d850ef-abc6-43d6-b4dc-f791154299fa"},"vehicle_type_id":"4","last_reported":1686931700,"current_range_meters":13200,"station_id":"ce4bhgh2rcd13ifvqfb0","pricing_plan_id":"free"},{"bike_id":"2643cd46-bc48-442c-a1c3-2ef6773da627","system_id":"levelo_inurba_marseille","lat":43.2479,"lon":5.374457,"is_reserved":false,"is_disabled":false,"rental_uris":{"android":"levelo://app?vid=2643cd46-bc48-442c-a1c3-2ef6773da627","ios":"levelo://app?vid=2643cd46-bc48-442c-a1c3-2ef6773da627"},"vehicle_type_id":"4","last_reported":1686931700,"current_range_meters":7600,"station_id":"ce4bhgh2rcd13ifvqfb0","pricing_plan_id":"free"},{"bike_id":"2989ebd0-3b35-497f-bba3-9d13ed40cf22","system_id":"levelo_inurba_marseille","lat":43.250966,"lon":5.395186,"is_reserved":false,"is_disabled":false,"rental_uris":{"android":"levelo://app?vid=2989ebd0-3b35-497f-bba3-9d13ed40cf22","ios":"levelo://app?vid=2989ebd0-3b35-497f-bba3-9d13ed40cf22"},