{"last_updated":1747847371,"ttl":60,"version":"2.2","data":{"bikes":[{"bike_id":"c0b9fd4f-e181-46ce-b0bf-f5119973334f","system_id":"levelo_inurba_marseille","lat":43.33771,"lon":5.37424,"is_reserved":false,"is_disabled":true,"rental_uris":{"android":"levelo://app?vid=c0b9fd4f-e181-46ce-b0bf-f5119973334f","ios":"levelo://app?vid=c0b9fd4f-e181-46ce-b0bf-f5119973334f"},"vehicle_type_id":"4","last_reported":1747847371,"current_range_meters":0,"station_id":"","pricing_plan_id":"cebpf4jnsgd1na2vs0mg"},{"bike_id":"cd975d45-85f1-495d-bdef-37d11400ecd9","system_id":"levelo_inurba_marseille","lat":43.29571,"lon":5.37386,"is_reserved":false,"is_disabled":true,"rental_uris":{"android":"levelo://app?vid=cd975d45-85f1-495d-bdef-37d11400ecd9","ios":"levelo://app?vid=cd975d45-85f1-495d-bdef-37d11400ecd9"},"vehicle_type_id":"4","last_reported":1747847371,"current_range_meters":0,"station_id":"","pricing_plan_id":"cebpf4jnsgd1na2vs0mg"},{"bike_id":"1dec17c8-cbde-4354-8b6c-219f98c89710","system_id":"levelo_inurba_marseille","lat":43.291827,"lon":5.422652,"is_reserved":false,"is_disabled":true,"rental_uris":{"android":"levelo://app?vid=1dec17c8-cbde-4354-8b6c-219f98c89710","ios":"levelo://app?vid=1dec17c8-cbde-4354-8b6c-219f98c89710"},"vehicle_type_id":"4","last_reported":1747847371,"current_range_meters":0,"station_id":"","pricing_plan_id":"cebpf4jnsgd1na2vs0mg"},{"bike_id":"4d4b63f8-c892-4cd8-b099-d41c0ed58ced","system_id":"levelo_inurba_marseille","lat":43.30295,"lon":5.41909,"is_reserved":false,"is_disabled":true,"rental_uris":{"android":"levelo://app?vid=4d4b63f8-c892-4cd8-b099-d41c0ed58ced","ios":"levelo://app?vid=4d4b63f8-c892-4cd8-b099-d41c0ed58ced"},"vehicle_type_id":"4","last_reported":1747847371,"current_range_meters":0,"station_id":"","pricing_plan_id":"cebpf4jnsgd1na2vs0mg"},{"bike_id":"20bee342-4a3f-4f34-940d-bb6cf00d52ae","system_id":"levelo_inurba_marseille","lat":43.26655,"lon":5.38569,"is_reserved":false,"is_disabled":true,"rental_uris":{"android":"levelo://app?vid=20bee342-4a3f-4f34-940d-bb6cf00d52ae","ios":"levelo://app?vid=20bee342-4a3f-4f34-940d-bb6cf00d52ae"},"vehicle_type_id":"4","last_reported":1747847371,"current_range_meters":0,"station_id":"","pricing_plan_id":"cebpf4jnsgd1na2vs0mg"},{"bike_id":"e9dd3aa4-b5e7-4480-926d-d7f537719bfa","system_id":"levelo_inurba_marseille","lat":43.230331,"lon":5.401847,"is_reserved":false,"is_disabled":true,"rental_uris":{"android":"levelo://app?vid=e9dd3aa4-b5e7-4480-926d-d7f537719bfa","ios":"levelo://app?vid=e9dd3aa4-b5e7-4480-926d-d7f537719bfa"},"vehicle_type_id":"4","last_reported":1747847371,"current_range_meters":0,"station_id":"","pricing_plan_id":"cebpf4jnsgd1na2vs0mg"},{"bike_id":"14603e41-b2dd-4757-a53c-2e366aa4f983","system_id":"levelo_inurba_marseille","lat":43.269929,"lon":5.428171,"is_reserved":false,"is_disabled":true,"rental_uris":{"android":"levelo://app?vid=14603e41-b2dd-4757-a53c-2e366aa4f983","ios":"levelo://app?vid=14603e41-b2dd-4757-a53c-2e366aa4f983"},"vehicle_type_id":"4","last_reported":1747847371,"current_range_meters":0,"station_id":"","pricing_plan_id":"cebpf4jnsgd1na2vs0mg"},{"bike_id":"782229a1-2a7a-4224-ad95-c14537ae2833","system_id":"levelo_inurba_marseille","lat":43.295821,"lon":5.367648,"is_reserved":false,"is_disabled":true,"rental_uris":{"android":"levelo://app?vid=782229a1-2a7a-4224-ad95-c14537ae2833","ios":"levelo://app?vid=782229a1-2a7a-4224-ad95-c14537ae2833"},"vehicle_type_id":"4","last_reported":1747847371,"current_range_meters":0,"station_id":"ce4bgh92rcd13ifvqb50","pricing_plan_id":"cebpf4jnsgd1na2vs0mg"},{"bike_id":"67278619-2e73-4433-97ce-2abcbe2ec77a","system_id":"levelo_inurba_marseille","lat":43.29296,"lon":5.37466,"is_reserved":false,"is_disabled":true,"rental_uris":{"android":"levelo://app?vid=67278619-2e73-4433-97ce-2abcbe2ec77a","ios":"levelo://app?vid=67278619-2e73-4433-97ce-2abcbe2ec77a"},"vehicle_type_id":"4","last_reported":1747847371,"current_range_meters":0,"station_id":"ce4bgi12rcd13ifvqb70","pricing_plan_id":"cebpf4jnsgd1na2vs0mg"},{"bike_id":"fc99f80e-1061-4893-8c6a-1a7211f0ed22","system_id":"levelo_inurba_marseille","lat":43.3136,"lon":5.38489,"is_reserved":false,"is_disabled":true,"rental_uris":{"android":"levelo://app?vid=fc99f80e-1061-4893-8c6a-1a7211f0ed22","ios":"levelo://app?vid=fc99f80e-1061-4893-8c6a-1a7211f0ed22"},"vehicle_type_id":"4","last_reported":1747847371,"current_range_meters":0,"station_id":"ce4bgt92rcd13ifvqcf0","pricing_plan_id":"cebpf4jnsgd1na2vs0mg"},{"bike_id":"019434ea-7645-4280-a8c2-90de7c0920c0","system_id":"levelo_inurba_marseille","lat":43.311202,"lon":5.377848,"is_reserved":false,"is_disabled":true,"rental_uris":{"android":"levelo://app?vid=019434ea-7645-4280-a8c2-90de7c0920c0","ios":"levelo://app?vid=019434ea-7645-4280-a8c2-90de7c0920c0"},"vehicle_type_id":"4","last_reported":1747847371,"current_range_meters":0,"station_id":"ce4bgt92rcd13ifvqcg0","pricing_plan_id":"cebpf4jnsgd1na2vs0mg"},{"bike_id":"617fcf24-326b-400f-b256-f4ddb7b7163a","system_id":"levelo_inurba_marseille","lat":43.31108,"lon":5.37779,"is_reserved":false,"is_disabled":true,"rental_uris":{"android":"levelo://app?vid=617fcf24-326b-400f-b256-f4ddb7b7163a","ios":"levelo://app?vid=617fcf24-326b-400f-b256-f4ddb7b7163a"},"vehicle_type_id":"4","last_reported":1747847371,"current_range_meters":0,"station_id":"ce4bgt92rcd13ifvqcg0","pricing_plan_id":"cebpf4jnsgd1na2vs0mg"},{"bike_id":"057e53fd-f1f4-4f7c-99f2-7b055bbfe376","system_id":"levelo_inurba_marseille","lat":43.29627,"lon":5.40594,"is_reserved":false,"is_disabled":true,"rental_uris":{"android":"levelo://app?vid=057e53fd-f1f4-4f7c-99f2-7b055bbfe376","ios":"levelo://app?vid=057e53fd-f1f4-4f7c-99f2-7b055bbfe376"},"vehicle_type_id":"4","last_reported":1747847371,"current_range_meters":0,"station_id":"ce4bh0h2rcd13ifvqd60","pricing_plan_id":"cebpf4jnsgd1na2vs0mg"},{"bike_id":"6eb9bd86-a5bd-4b98-b9b5-3b7b7be878ee","system_id":"levelo_inurba_marseille","lat":43.29867,"lon":5.38912,"is_reserved":false,"is_disabled":true,"rental_uris":{"android":"levelo://app?vid=6eb9bd86-a5bd-4b98-b9b5-3b7b7be878ee","ios":"levelo://app?vid=6eb9bd86-a5bd-4b98-b9b5-3b7b7be878ee"},"vehicle_type_id":"4","last_reported":1747847371,"current_range_meters":0,"station_id":"ce4bh392rcd13ifvqdl0","pricing_plan_id":"cebpf4jnsgd1na2vs0mg"},{"bike_id":"a99c0585-bed1-4f0b-9f55-376a42b2d7a5","system_id":"levelo_inurba_marseille","lat":43.28717,"lon":5.37374,"is_reserved":false,"is_disabled":true,"rental_uris":{"android":"levelo://app?vid=a99c0585-bed1-4f0b-9f55-376a42b2d7a5","ios":"levelo://app?vid=a99c0585-bed1-4f0b-9f55-376a42b2d7a5"},"vehicle_type_id":"4","last_reported":1747847371,"current_range_meters":0,"station_id":"ce4bh3p2rcd13ifvqdq0","pricing_plan_id":"cebpf4jnsgd1na2vs0mg"},{"bike_id":"d9927bf4-e4e5-4010-9382-75c41a3213ff","system_id":"levelo_inurba_marseille","lat":43.28401,"lon":5.37527,"is_reserved":false,"is_disabled":false,"rental_uris":{"android":"levelo://app?vid=d9927bf4-e4e5-4010-9382-75c41a3213ff","ios":"levelo://app?vid=d9927bf4-e4e5-4010-9382-75c41a3213ff"},"vehicle_type_id":"4","last_reported":1747847371,"current_range_meters":0,"station_id":"ce4bh412rcd13ifvqds0","pricing_plan_id":"cebpf4jnsgd1na2vs0mg"},{"bike_id":"894dcd16-b457-4bb2-95bf-09fa9ed6f5ae","system_id":"levelo_inurba_marseille","lat":43.28039,"lon":5.36939,"is_reserved":false,"is_disabled":true,"rental_uris":{"android":"levelo://app?vid=894dcd16-b457-4bb2-95bf-09fa9ed6f5ae","ios":"levelo://app?vid=894dcd16-b457-4bb2-95bf-09fa9ed6f5ae"},"vehicle_type_id":"4","last_reported":1747847371,"current_range_meters":0,"station_id":"ce4bha12rcd13ifvqef0","pricing_plan_id":"cebpf4jnsgd1na2vs0mg"},{"bike_id":"83cfb909-fc59-4798-8e50-80fe9fa5905a","system_id":"levelo_inurba_marseille","lat":43.29003,"lon":5.35613,"is_reserved":false,"is_disabled":true,"rental_uris":{"android":"levelo://app?vid=83cfb909-fc59-4798-8e50-80fe9fa5905a","ios":"levelo://app?vid=83cfb909-fc59-4798-8e50-80fe9fa5905a"},"vehicle_type_id":"4","last_reported":1747847371,"current_range_meters":0,"station_id":"ce4bhb92rcd13ifvqen0","pricing_plan_id":"cebpf4jnsgd1na2vs0mg"},{"bike_id":"00c25c5e-c2a8-4815-aa60-11f4be7e8457","system_id":"levelo_inurba_marseille","lat":43.29,"lon":5.3561,"is_reserved":false,"is_disabled":true,"rental_uris":{"android":"levelo://app?vid=00c25c5e-c2a8-4815-aa60-11f4be7e8457","ios":"levelo://app?vid=00c25c5e-c2a8-4815-aa60-11f4be7e8457"},"vehicle_type_id":"4","last_reported":1747847371,"current_range_meters":0,"station_id":"ce4bhb92rcd13ifvqen0","pricing_plan_id":"cebpf4jnsgd1na2vs0mg"},{"bike_id":"1ffcdd8b-a20a-455a-b31e-644dd16fb53c","system_id":"levelo_inurba_marseille","lat":43.27374,"lon":5.36254,"is_reserved":false,"is_disabled":true,"rental_uris":{"android":"levelo://app?vid=1ffcdd8b-a20a-455a-b31e-644dd16fb53c","ios":"levelo://app?vid=1ffcdd8b-a20a-455a-b31e-644dd16fb53c"},"vehicle_type_id":"4","last_reported":1747847371,"current_range_meters":0,"station_id":"ce4bhbh2rcd13ifvqeo0","pricing_plan_id":"cebpf4jnsgd1na2vs0mg"},{"bike_id":"c8d72448-f539-44ea-bd32-f96ca4704a0a","system_id":"levelo_inurba_marseille","lat":43.28422,"lon":5.34977,"is_reserved":false,"is_disabled":true,"rental_uris":{"android":"levelo://app?vid=c8d72448-f539-44ea-bd32-f96ca4704a0a","ios":"levelo://app?vid=c8d72448-f539-44ea-bd32-f96ca4704a0a"},"vehicle_type_id":"4","last_reported":1747847371,"current_range_meters":0,"station_id":"ce4bhbh2rcd13ifvqepg","pricing_plan_id":"cebpf4jnsgd1na2vs0mg"},{"bike_id":"c14dc91f-5a7e-4468-bf0e-013df179ed43","system_id":"levelo_inurba_marseille","lat":43.26545,"lon":5.39056,"is_reserved":false,"is_disabled":true,"rental_uris":{"android":"levelo://app?vid=c14dc91f-5a7e-4468-bf0e-013df179ed43","ios":"levelo://app?vid=c14dc91f-5a7e-4468-bf0e-013df179ed43"},"vehicle_type_id":"4","last_reported":1747847371,"current_range_meters":0,"station_id":"ce4bhe12rcd13ifvqf30","pricing_plan_id":"cebpf4jnsgd1na2vs0mg"},{"bike_id":"8a09d34d-e397-4137-8f92-8b563f9e3c52","system_id":"levelo_inurba_marseille","lat":43.26567,"lon":5.39007,"is_reserved":false,"is_disabled":true,"rental_uris":{"android":"levelo://app?vid=8a09d34d-e397-4137-8f92-8b563f9e3c52","ios":"levelo://app?vid=8a09d34d-e397-4137-8f92-8b563f9e3c52"},"vehicle_type_id":"4","last_reported":1747847371,"current_range_meters":0,"station_id":"ce4bhe12rcd13ifvqf30","pricing_plan_id":"cebpf4jnsgd1na2vs0mg"},{"bike_id":"cfdbf9ea-fe43-4734-b465-744a84c08df5","system_id":"levelo_inurba_marseille","lat":43.27968,"lon":5.38745,"is_reserved":false,"is_disabled":true,"rental_uris":{"android":"levelo://app?vid=cfdbf9ea-fe43-4734-b465-744a84c08df5","ios":"levelo://app?vid=cfdbf9ea-fe43-4734-b465-744a84c08df5"},"vehicle_type_id":"4","last_reported":1747847371,"current_range_meters":0,"station_id":"ce4bhg12rcd13ifvqf80","pricing_plan_id":"cebpf4jnsgd1na2vs0mg"},{"bike_id":"9ec13adb-725c-4322-b921-ad6d9eb042ac","system_id":"levelo_inurba_marseille","lat":43.24811,"lon":5.37456,"is_reserved":false,"is_disabled":true,"rental_uris":{"android":"levelo://app?vid=9ec13adb-725c-4322-b921-ad6d9eb042ac","ios":"levelo://app?vid=9ec13adb-725c-4322-b921-ad6d9eb042ac"},"vehicle_type_id":"4","last_reported":1747847371,"current_range_meters":0,"station_id":"ce4bhgh2rcd13ifvqfb0","pricing_plan_id":"cebpf4jnsgd1na2vs0mg"},{"bike_id":"06a5807e-e296-42ca-8b94-8b108b0a1235","system_id":"levelo_inurba_marseille","lat":43.273154,"lon":5.390886,"is_reserved":false,"is_disabled":true,"rental_uris":{"android":"levelo://app?vid=06a5807e-e296-42ca-8b94-8b108b0a1235","ios":"levelo://app?vid=06a5807e-e296-42ca-8b94-8b108b0a1235"},"vehicle_type_id":"4","last_reported":1747847371,"current_range_meters":0,"station_id":"ce4bhgp2rcd13ifvqfe0","pricing_plan_id":"cebpf4jnsgd1na2vs0mg"},{"bike_id":"e5712ac3-4011-4b34-a1d8-8cd11f6b1cc7","system_id":"levelo_inurba_marseille","lat":43.23966,"lon":5.36632,"is_reserved":false,"is_disabled":true,"rental_uris":{"android":"levelo://app?vid=e5712ac3-4011-4b34-a1d8-8cd11f6b1cc7","ios":"levelo://app?vid=e5712ac3-4011-4b34-a1d8-8cd11f6b1cc7"},"vehicle_type_id":"4","last_reported":1747847371,"current_range_meters":0,"station_id":"ce4bhi12rcd13ifvqfp0","pricing_plan_id":"cebpf4jnsgd1na2vs0mg"},{"bike_id":"49c98955-755e-442a-b639-a9354911834f","system_id":"levelo_inurba_marseille","lat":43.23966,"lon":5.36634,"is_reserved":false,"is_disabled":true,"rental_uris":{"android":"levelo://app?vid=49c98955-755e-442a-b639-a9354911834f","ios":"levelo://app?vid=49c98955-755e-442a-b639-a9354911834f"},"vehicle_type_id":"4","last_reported":1747847371,"current_range_meters":0,"station_id":"ce4bhi12rcd13ifvqfp0","pricing_plan_id":"cebpf4jnsgd1na2vs0mg"},{"bike_id":"9a993657-2594-4237-92be-b74331df19eb","system_id":"levelo_inurba_marseille","lat":43.27072,"lon":5.40248,"is_reserved":false,"is_disabled":true,"rental_uris":{"android":"levelo://app?vid=9a993657-2594-4237-92be-b74331df19eb","ios":"levelo://app?vid=9a993657-2594-4237-92be-b74331df19eb"},"vehicle_type_id":"4","last_reported":1747847371,"current_range_meters":0,"station_id":"ce4bhk92rcd13ifvqgc0","pricing_plan_id":"cebpf4jnsgd1na2vs0mg"},{"bike_id":"2a258c1e-cd67-4b8f-b680-7e27137404e2","system_id":"levelo_inurba_marseille","lat":43.25105,"lon":5.40333,"is_reserved":false,"is_disabled":true,"rental_uris":{"android":"levelo://app?vid=2a258c1e-cd67-4b8f-b680-7e27137404e2","ios":"levelo://app?vid=2a258c1e-cd67-4b8f-b680-7e27137404e2"},"vehicle_type_id":"4","last_reported":1747847371,"current_range_meters":0,"station_id":"ce4bhlh2rcd13ifvqgig","pricing_plan_id":"cebpf4jnsgd1na2vs0mg"},{"bike_id":"b3bca652-dd03-465b-9009-5fb8f64d0899","system_id":"levelo_inurba_marseille","lat":43.25107,"lon":5.40322,"is_reserved":false,"is_disabled":true,"rental_uris":{"android":"levelo://app?vid=b3bca652-dd03-465b-9009-5fb8f64d0899","ios":"levelo://app?vid=b3bca652-dd03-465b-9009-5fb8f64d0899"},"vehicle_type_id":"4","last_reported":1747847371,"current_range_meters":0,"station_id":"ce4bhlh2rcd13ifvqgig","pricing_plan_id":"cebpf4jnsgd1na2vs0mg"},{"bike_id":"8b3dbcf3-afc0-44ce-a608-243e390c3a06","system_id":"levelo_inurba_marseille","lat":43.25115,"lon":5.40318,"is_reserved":false,"is_disabled":true,"rental_uris":{"android":"levelo://app?vid=8b3dbcf3-afc0-44ce-a608-243e390c3a06","ios":"levelo://app?vid=8b3dbcf3-afc0-44ce-a608-243e390c3a06"},"vehicle_type_id":"4","last_reported":1747847371,"current_range_meters":0,"station_id":"ce4bhlh2rcd13ifvqgig","pricing_plan_id":"cebpf4jnsgd1na2vs0mg"},{"bike_id":"b05b374c-31a3-4d55-aca5-09b140d8f728","system_id":"levelo_inurba_marseille","lat":43.25108,"lon":5.40339,"is_reserved":false,"is_disabled":true,"rental_uris":{"android":"levelo://app?vid=b05b374c-31a3-4d55-aca5-09b140d8f728","ios":"levelo://app?vid=b05b374c-31a3-4d55-aca5-09b140d8f728"},"vehicle_type_id":"4","last_reported":1747847371,"current_range_meters":0,"station_id":"ce4bhlh2rcd13ifvqgig","pricing_plan_id":"cebpf4jnsgd1na2vs0mg"},{"bike_id":"b1c16fdb-57c2-4dd3-883f-80c035cd3f46","system_id":"levelo_inurba_marseille","lat":43.2511,"lon":5.40326,"is_reserved":false,"is_disabled":true,"rental_uris":{"android":"levelo://app?vid=b1c16fdb-57c2-4dd3-883f-80c035cd3f46","ios":"levelo://app?vid=b1c16fdb-57c2-4dd3-883f-80c035cd3f46"},"vehicle_type_id":"4","last_reported":1747847371,"current_range_meters":0,"station_id":"ce4bhlh2rcd13ifvqgig","pricing_plan_id":"cebpf4jnsgd1na2vs0mg"},{"bike_id":"b02be44a-410a-4cca-8910-987c72b44ad7","system_id":"levelo_inurba_marseille","lat":43.25115,"lon":5.40318,"is_reserved":false,"is_disabled":true,"rental_uris":{"android":"levelo://app?vid=b02be44a-410a-4cca-8910-987c72b44ad7","ios":"levelo://app?vid=b02be44a-410a-4cca-8910-987c72b44ad7"},"vehicle_type_id":"4","last_reported":1747847371,"current_range_meters":0,"station_id":"ce4bhlh2rcd13ifvqgig","pricing_plan_id":"cebpf4jnsgd1na2vs0mg"},{"bike_id":"71a9fe80-598e-44e1-83a4-d9c144513111","system_id":"levelo_inurba_marseille","lat":43.23179,"lon":5.43699,"is_reserved":false,"is_disabled":true,"rental_uris":{"android":"levelo://app?vid=71a9fe80-598e-44e1-83a4-d9c144513111","ios":"levelo://app?vid=71a9fe80-598e-44e1-83a4-d9c144513111"},"vehicle_type_id":"4","last_reported":1747847371,"current_range_meters":0,"station_id":"ce4bhmp2rcd13ifvqgog","pricing_plan_id":"cebpf4jnsgd1na2vs0mg"},{"bike_id":"bae2bebb-e260-4cb8-aca1-a6d421ce93ba","system_id":"levelo_inurba_marseille","lat":43.23188,"lon":5.39989,"is_reserved":false,"is_disabled":true,"rental_uris":{"android":"levelo://app?vid=bae2bebb-e260-4cb8-aca1-a6d421ce93ba","ios":"levelo://app?vid=bae2bebb-e260-4cb8-aca1-a6d421ce93ba"},"vehicle_type_id":"4","last_reported":1747847371,"current_range_meters":0,"station_id":"ce4bhn12rcd13ifvqgqg","pricing_plan_id":"cebpf4jnsgd1na2vs0mg"},{"bike_id":"30252d66-d61a-4a23-9838-feb52a079f9f","system_id":"levelo_inurba_marseille","lat":43.2844,"lon":5.39178,"is_reserved":false,"is_disabled":true,"rental_uris":{"android":"levelo://app?vid=30252d66-d61a-4a23-9838-feb52a079f9f","ios":"levelo://app?vid=30252d66-d61a-4a23-9838-feb52a079f9f"},"vehicle_type_id":"4","last_reported":1747847371,"current_range_meters":0,"station_id":"ce4bhoh2rcd13ifvqh5g","pricing_plan_id":"cebpf4jnsgd1na2vs0mg"},{"bike_id":"8c362cf2-2d82-4928-8b0e-ded056d5048f","system_id":"levelo_inurba_marseille","lat":43.26806,"lon":5.40267,"is_reserved":false,"is_disabled":true,"rental_uris":{"android":"levelo://app?vid=8c362cf2-2d82-4928-8b0e-ded056d5048f","ios":"levelo://app?vid=8c362cf2-2d82-4928-8b0e-ded056d5048f"},"vehicle_type_id":"4","last_reported":1747847371,"current_range_meters":0,"station_id":"ce501612rcd8frsf0b60","pricing_plan_id":"cebpf4jnsgd1na2vs0mg"},{"bike_id":"6cdc5ac2-4b23-46ea-b359-4d981cdf1ca1","system_id":"levelo_inurba_marseille","lat":43.26805,"lon":5.40259,"is_reserved":false,"is_disabled":true,"rental_uris":{"android":"levelo://app?vid=6cdc5ac2-4b23-46ea-b359-4d981cdf1ca1","ios":"levelo://app?vid=6cdc5ac2-4b23-46ea-b359-4d981cdf1ca1"},"vehicle_type_id":"4","last_reported":1747847371,"current_range_meters":0,"station_id":"ce501612rcd8frsf0b60","pricing_plan_id":"cebpf4jnsgd1na2vs0mg"},{"bike_id":"9b29ccbc-4edb-4590-a9c5-e8eebc70898a","system_id":"levelo_inurba_marseille","lat":43.28268,"lon":5.35063,"is_reserved":false,"is_disabled":true,"rental_uris":{"android":"levelo://app?vid=9b29ccbc-4edb-4590-a9c5-e8eebc70898a","ios":"levelo://app?vid=9b29ccbc-4edb-4590-a9c5-e8eebc70898a"},"vehicle_type_id":"4","last_reported":1747847371,"current_range_meters":400,"station_id":"ce4bhbp2rcd13ifvqerg","pricing_plan_id":"cebpf4jnsgd1na2vs0mg"},{"bike_id":"0a36dd83-35b6-4e50-9855-c1192a9ec807","system_id":"levelo_inurba_marseille","lat":43.27054,"lon":5.42271,"is_reserved":false,"is_disabled":true,"rental_uris":{"android":"levelo://app?vid=0a36dd83-35b6-4e50-9855-c1192a9ec807","ios":"levelo://app?vid=0a36dd83-35b6-4e50-9855-c1192a9ec807"},"vehicle_type_id":"4","last_reported":1747847371,"current_range_meters":400,"station_id":"ce4bhk92rcd13ifvqgb0","pricing_plan_id":"cebpf4jnsgd1na2vs0mg"},{"bike_id":"eb9baf8a-320e-4eae-8a67-0e86281f94df","system_id":"levelo_inurba_marseille","lat":43.25859,"lon":5.39907,"is_reserved":false,"is_disabled":true,"rental_uris":{"android":"levelo://app?vid=eb9baf8a-320e-4eae-8a67-0e86281f94df","ios":"levelo://app?vid=eb9baf8a-320e-4eae-8a67-0e86281f94df"},"vehicle_type_id":"4","last_reported":1747847371,"current_range_meters":400,"station_id":"ce4bhl92rcd13ifvqghg","pricing_plan_id":"cebpf4jnsgd1na2vs0mg"},{"bike_id":"3491e2d1-10d6-4eaf-9467-4ee762672182","system_id":"levelo_inurba_marseille","lat":43.28075,"lon":5.3966,"is_reserved":false,"is_disabled":true,"rental_uris":{"android":"levelo://app?vid=3491e2d1-10d6-4eaf-9467-4ee762672182","ios":"levelo://app?vid=3491e2d1-10d6-4eaf-9467-4ee762672182"},"vehicle_type_id":"4","last_reported":1747847371,"current_range_meters":400,"station_id":"ce4bho12rcd13ifvqh2g","pricing_plan_id":"cebpf4jnsgd1na2vs0mg"},{"bike_id":"da40ba0d-fc7e-4372-8ee3-1061d23ba980","system_id":"levelo_inurba_marseille","lat":43.265518,"lon":5.372843,"is_reserved":false,"is_disabled":true,"rental_uris":{"android":"levelo://app?vid=da40ba0d-fc7e-4372-8ee3-1061d23ba980","ios":"levelo://app?vid=da40ba0d-fc7e-4372-8ee3-1061d23ba980"},"vehicle_type_id":"4","last_reported":1747847371,"current_range_meters":800,"station_id":"","pricing_plan_id":"cebpf4jnsgd1na2vs0mg"},{"bike_id":"9bf82f56-da9b-48db-b997-d01cdeb3af00","system_id":"levelo_inurba_marseille","lat":43.31744,"lon":5.37194,"is_reserved":false,"is_disabled":true,"rental_uris":{"android":"levelo://app?vid=9bf82f56-da9b-48db-b997-d01cdeb3af00","ios":"levelo://app?vid=9bf82f56-da9b-48db-b997-d01cdeb3af00"},"vehicle_type_id":"4","last_reported":1747847371,"current_range_meters":800,"station_id":"","pricing_plan_id":"cebpf4jnsgd1na2vs0mg"},{"bike_id":"50a808be-3795-443c-bc91-062a729cc8f8","system_id":"levelo_inurba_marseille","lat":43.29309,"lon":5.37176,"is_reserved":false,"is_disabled":true,"rental_uris":{"android":"levelo://app?vid=50a808be-3795-443c-bc91-062a729cc8f8","ios":"levelo://app?vid=50a808be-3795-443c-bc91-062a729cc8f8"},"vehicle_type_id":"4","last_reported":1747847371,"current_range_meters":800,"station_id":"ce4bgh92rcd13ifvqb40","pricing_plan_id":"cebpf4jnsgd1na2vs0mg"},{"bike_id":"11cf049d-d447-47fe-8ecc-e5aa8df2226a","system_id":"levelo_inurba_marseille","lat":43.28479,"lon":5.38414,"is_reserved":false,"is_disabled":true,"rental_uris":{"android":"levelo://app?vid=11cf049d-d447-47fe-8ecc-e5aa8df2226a","ios":"levelo://app?vid=11cf049d-d447-47fe-8ecc-e5aa8df2226a"},"vehicle_type_id":"4","last_reported":1747847371,"current_range_meters":800,"station_id":"ce4bh512rcd13ifvqe3g","pricing_plan_id":"cebpf4jnsgd1na2vs0mg"},{"bike_id":"6546ffa4-17da-4eb5-918f-f91a6974aa7c","system_id":"levelo_inurba_marseille","lat":43.27374,"lon":5.36248,"is_reserved":false,"is_disabled":true,"rental_uris":{"android":"levelo://app?vid=6546ffa4-17da-4eb5-918f-f91a6974aa7c","ios":"levelo://app?vid=6546ffa4-17da-4eb5-918f-f91a6974aa7c"},"vehicle_type_id":"4","last_reported":1747847371,"current_range_meters":800,"station_id":"ce4bhbh2rcd13ifvqeo0","pricing_plan_id":"cebpf4jnsgd1na2vs0mg"},{"bike_id":"5b3668cc-df1a-4bd7-9ac4-961bd0385acd","system_id":"levelo_inurba_marseille","lat":43.29274,"lon":5.40113,"is_reserved":false,"is_disabled":true,"rental_uris":{"android":"levelo://app?vid=5b3668cc-df1a-4bd7-9ac4-961bd0385acd","ios":"levelo://app?vid=5b3668cc-df1a-4bd7-9ac4-961bd0385acd"},"vehicle_type_id":"4","last_reported":1747847371,"current_range_meters":800,"station_id":"ce4bhh12rcd13ifvqfg0","pricing_plan_id":"cebpf4jnsgd1na2vs0mg"},{"bike_id":"e21e091e-591e-41b2-b017-e4b7f41c5e54","system_id":"levelo_inurba_marseille","lat":43.27564,"lon":5.38426,"is_reserved":false,"is_disabled":true,"rental_uris":{"android":"levelo://app?vid=e21e091e-591e-41b2-b017-e4b7f41c5e54","ios":"levelo://app?vid=e21e091e-591e-41b2-b017-e4b7f41c5e54"},"vehicle_type_id":"4","last_reported":1747847371,"current_range_meters":800,"station_id":"ce4bhh92rcd13ifvqfi0","pricing_plan_id":"cebpf4jnsgd1na2vs0mg"},{"bike_id":"19655edf-c0f3-4c51-9a4c-ebb7d8d44432","system_id":"levelo_inurba_marseille","lat":43.27562,"lon":5.3843,"is_reserved":false,"is_disabled":true,"rental_uris":{"android":"levelo://app?vid=19655edf-c0f3-4c51-9a4c-ebb7d8d44432","ios":"levelo://app?vid=19655edf-c0f3-4c51-9a4c-ebb7d8d44432"},"vehicle_type_id":"4","last_reported":1747847371,"current_range_meters":800,"station_id":"ce4bhh92rcd13ifvqfi0","pricing_plan_id":"cebpf4jnsgd1na2vs0mg"},{"bike_id":"5a751adb-5220-469d-8d4f-d1a8e49fa860","system_id":"levelo_inurba_marseille","lat":43.27073,"lon":5.42281,"is_reserved":false,"is_disabled":true,"rental_uris":{"android":"levelo://app?vid=5a751adb-5220-469d-8d4f-d1a8e49fa860","ios":"levelo://app?vid=5a751adb-5220-469d-8d4f-d1a8e49fa860"},"vehicle_type_id":"4","last_reported":1747847371,"current_range_meters":800,"station_id":"ce4bhk92rcd13ifvqgb0","pricing_plan_id":"cebpf4jnsgd1na2vs0mg"},{"bike_id":"49249dad-4349-4f80-95c4-c5e03d25d127","system_id":"levelo_inurba_marseille","lat":43.2318,"lon":5.39992,"is_reserved":false,"is_disabled":true,"rental_uris":{"android":"levelo://app?vid=49249dad-4349-4f80-95c4-c5e03d25d127","ios":"levelo://app?vid=49249dad-4349-4f80-95c4-c5e03d25d127"},"vehicle_type_id":"4","last_reported":1747847371,"current_range_meters":800,"station_id":"ce4bhn12rcd13ifvqgqg","pricing_plan_id":"cebpf4jnsgd1na2vs0mg"},{"bike_id":"de49be05-9377-4346-b77f-0afd1ba5e743","system_id":"levelo_inurba_marseille","lat":43.33021,"lon":5.39038,"is_reserved":false,"is_disabled":true,"rental_uris":{"android":"levelo://app?vid=de49be05-9377-4346-b77f-0afd1ba5e743","ios":"levelo://app?vid=de49be05-9377-4346-b77f-0afd1ba5e743"},"vehicle_type_id":"4","last_reported":1747847371,"current_range_meters":800,"station_id":"ce4bhr92rcd13ifvqhrg","pricing_plan_id":"cebpf4jnsgd1na2vs0mg"},{"bike_id":"ba59102a-6c47-4600-bcb9-76e5920c2815","system_id":"levelo_inurba_marseille","lat":43.31349,"lon":5.37195,"is_reserved":false,"is_disabled":true,"rental_uris":{"android":"levelo://app?vid=ba59102a-6c47-4600-bcb9-76e5920c2815","ios":"levelo://app?vid=ba59102a-6c47-4600-bcb9-76e5920c2815"},"vehicle_type_id":"4","last_reported":1747847371,"current_range_meters":1200,"station_id":"","pricing_plan_id":"cebpf4jnsgd1na2vs0mg"},{"bike_id":"92ed7440-42a1-448a-8251-c0906d174ed2","system_id":"levelo_inurba_marseille","lat":43.31715,"lon":5.40434,"is_reserved":false,"is_disabled":true,"rental_uris":{"android":"levelo://app?vid=92ed7440-42a1-448a-8251-c0906d174ed2","ios":"levelo://app?vid=92ed7440-42a1-448a-8251-c0906d174ed2"},"vehicle_type_id":"4","last_reported":1747847371,"current_range_meters":1200,"station_id":"ce4bh012rcd13ifvqd00","pricing_plan_id":"cebpf4jnsgd1na2vs0mg"},{"bike_id":"0338c51e-29f2-4166-b95a-16de582aea70","system_id":"levelo_inurba_marseille","lat":43.29414,"lon":5.38626,"is_reserved":false,"is_disabled":true,"rental_uris":{"android":"levelo://app?vid=0338c51e-29f2-4166-b95a-16de582aea70","ios":"levelo://app?vid=0338c51e-29f2-4166-b95a-16de582aea70"},"vehicle_type_id":"4","last_reported":1747847371,"current_range_meters":1200,"station_id":"ce4bh2h2rcd13ifvqdh0","pricing_plan_id":"cebpf4jnsgd1na2vs0mg"},{"bike_id":"73faefc2-818e-47f1-8fc8-aea7a557a8a5","system_id":"levelo_inurba_marseille","lat":43.29523,"lon":5.39032,"is_reserved":false,"is_disabled":true,"rental_uris":{"android":"levelo://app?vid=73faefc2-818e-47f1-8fc8-aea7a557a8a5","ios":"levelo://app?vid=73faefc2-818e-47f1-8fc8-aea7a557a8a5"},"vehicle_type_id":"4","last_reported":1747847371,"current_range_meters":1200,"station_id":"ce4bh3p2rcd13ifvqdp0","pricing_plan_id":"cebpf4jnsgd1na2vs0mg"},{"bike_id":"8ab67003-6efe-4349-9a78-ab426dc2d435","system_id":"levelo_inurba_marseille","lat":43.28408,"lon":5.37513,"is_reserved":false,"is_disabled":true,"rental_uris":{"android":"levelo://app?vid=8ab67003-6efe-4349-9a78-ab426dc2d435","ios":"levelo://app?vid=8ab67003-6efe-4349-9a78-ab426dc2d435"},"vehicle_type_id":"4","last_reported":1747847371,"current_range_meters":1200,"station_id":"ce4bh412rcd13ifvqds0","pricing_plan_id":"cebpf4jnsgd1na2vs0mg"},{"bike_id":"eb6afd35-5294-4db1-b91d-b699e855eb6f","system_id":"levelo_inurba_marseille","lat":43.2605,"lon":5.39406,"is_reserved":false,"is_disabled":true,"rental_uris":{"android":"levelo://app?vid=eb6afd35-5294-4db1-b91d-b699e855eb6f","ios":"levelo://app?vid=eb6afd35-5294-4db1-b91d-b699e855eb6f"},"vehicle_type_id":"4","last_reported":1747847371,"current_range_meters":1200,"station_id":"ce4bhh92rcd13ifvqfj0","pricing_plan_id":"cebpf4jnsgd1na2vs0mg"},{"bike_id":"f95325d8-1c17-4d15-bb1a-e31d599075cf","system_id":"levelo_inurba_marseille","lat":43.25576,"lon":5.38245,"is_reserved":false,"is_disabled":true,"rental_uris":{"android":"levelo://app?vid=f95325d8-1c17-4d15-bb1a-e31d599075cf","ios":"levelo://app?vid=f95325d8-1c17-4d15-bb1a-e31d599075cf"},"vehicle_type_id":"4","last_reported":1747847371,"current_range_meters":1200,"station_id":"ce4bhih2rcd13ifvqfs0","pricing_plan_id":"cebpf4jnsgd1na2vs0mg"},{"bike_id":"e85f2df2-fd96-4e3f-b7b1-bc55f80e5db7","system_id":"levelo_inurba_marseille","lat":43.25111,"lon":5.40318,"is_reserved":false,"is_disabled":true,"rental_uris":{"android":"levelo://app?vid=e85f2df2-fd96-4e3f-b7b1-bc55f80e5db7","ios":"levelo://app?vid=e85f2df2-fd96-4e3f-b7b1-bc55f80e5db7"},"vehicle_type_id":"4","last_reported":1747847371,"current_range_meters":1200,"station_id":"ce4bhlh2rcd13ifvqgig","pricing_plan_id":"cebpf4jnsgd1na2vs0mg"},{"bike_id":"8299d4aa-a427-43fc-935e-3918048caefb","system_id":"levelo_inurba_marseille","lat":43.2407,"lon":5.37764,"is_reserved":false,"is_disabled":true,"rental_uris":{"android":"levelo://app?vid=8299d4aa-a427-43fc-935e-3918048caefb","ios":"levelo://app?vid=8299d4aa-a427-43fc-935e-3918048caefb"},"vehicle_type_id":"4","last_reported":1747847371,"current_range_meters":1200,"station_id":"ce4bhnp2rcd13ifvqgvg","pricing_plan_id":"cebpf4jnsgd1na2vs0mg"},{"bike_id":"a9b75b50-7a7b-4b1f-859d-7e8ee191ad8a","system_id":"levelo_inurba_marseille","lat":43.32045,"lon":5.41555,"is_reserved":false,"is_disabled":true,"rental_uris":{"android":"levelo://app?vid=a9b75b50-7a7b-4b1f-859d-7e8ee191ad8a","ios":"levelo://app?vid=a9b75b50-7a7b-4b1f-859d-7e8ee191ad8a"},"vehicle_type_id":"4","last_reported":1747847371,"current_range_meters":1200,"station_id":"ce4bhq92rcd13ifvqhkg","pricing_plan_id":"cebpf4jnsgd1na2vs0mg"},{"bike_id":"2f40fce3-8609-4c7c-a548-2ba99568a7f6","system_id":"levelo_inurba_marseille","lat":43.27812,"lon":5.40713,"is_reserved":false,"is_disabled":true,"rental_uris":{"android":"levelo://app?vid=2f40fce3-8609-4c7c-a548-2ba99568a7f6","ios":"levelo://app?vid=2f40fce3-8609-4c7c-a548-2ba99568a7f6"},"vehicle_type_id":"4","last_reported":1747847371,"current_range_meters":1600,"station_id":"","pricing_plan_id":"cebpf4jnsgd1na2vs0mg"},{"bike_id":"4c70f225-687c-4442-acf8-5e8e185a7a65","system_id":"levelo_inurba_marseille","lat":43.29601,"lon":5.37724,"is_reserved":false,"is_disabled":true,"rental_uris":{"android":"levelo://app?vid=4c70f225-687c-4442-acf8-5e8e185a7a65","ios":"levelo://app?vid=4c70f225-687c-4442-acf8-5e8e185a7a65"},"vehicle_type_id":"4","last_reported":1747847371,"current_range_meters":1600,"station_id":"ce4bgi92rcd13ifvqb90","pricing_plan_id":"cebpf4jnsgd1na2vs0mg"},{"bike_id":"d684bf63-fe60-498d-b16b-99f3ccb99eb4","system_id":"levelo_inurba_marseille","lat":43.29527,"lon":5.38547,"is_reserved":false,"is_disabled":true,"rental_uris":{"android":"levelo://app?vid=d684bf63-fe60-498d-b16b-99f3ccb99eb4","ios":"levelo://app?vid=d684bf63-fe60-498d-b16b-99f3ccb99eb4"},"vehicle_type_id":"4","last_reported":1747847371,"current_range_meters":1600,"station_id":"ce4bgih2rcd13ifvqba0","pricing_plan_id":"cebpf4jnsgd1na2vs0mg"},{"bike_id":"03aebb7d-8010-4909-b9c3-92fec95387e3","system_id":"levelo_inurba_marseille","lat":43.30951,"lon":5.39036,"is_reserved":false,"is_disabled":true,"rental_uris":{"android":"levelo://app?vid=03aebb7d-8010-4909-b9c3-92fec95387e3","ios":"levelo://app?vid=03aebb7d-8010-4909-b9c3-92fec95387e3"},"vehicle_type_id":"4","last_reported":1747847371,"current_range_meters":1600,"station_id":"ce4bgup2rcd13ifvqco0","pricing_plan_id":"cebpf4jnsgd1na2vs0mg"},{"bike_id":"060fefd9-9e82-4b5e-ae31-2c03cecf1c11","system_id":"levelo_inurba_marseille","lat":43.30589,"lon":5.39356,"is_reserved":false,"is_disabled":true,"rental_uris":{"android":"levelo://app?vid=060fefd9-9e82-4b5e-ae31-2c03cecf1c11","ios":"levelo://app?vid=060fefd9-9e82-4b5e-ae31-2c03cecf1c11"},"vehicle_type_id":"4","last_reported":1747847371,"current_range_meters":1600,"station_id":"ce4bh0p2rcd13ifvqd80","pricing_plan_id":"cebpf4jnsgd1na2vs0mg"},{"bike_id":"adcde2d5-458c-448b-98a2-c92476e5b47f","system_id":"levelo_inurba_marseille","lat":43.28846,"lon":5.39318,"is_reserved":false,"is_disabled":true,"rental_uris":{"android":"levelo://app?vid=adcde2d5-458c-448b-98a2-c92476e5b47f","ios":"levelo://app?vid=adcde2d5-458c-448b-98a2-c92476e5b47f"},"vehicle_type_id":"4","last_reported":1747847371,"current_range_meters":1600,"station_id":"ce4bh2p2rcd13ifvqdi0","pricing_plan_id":"cebpf4jnsgd1na2vs0mg"},{"bike_id":"31e5206d-2598-4737-a417-a3202b79a5d0","system_id":"levelo_inurba_marseille","lat":43.29067,"lon":5.3995,"is_reserved":false,"is_disabled":true,"rental_uris":{"android":"levelo://app?vid=31e5206d-2598-4737-a417-a3202b79a5d0","ios":"levelo://app?vid=31e5206d-2598-4737-a417-a3202b79a5d0"},"vehicle_type_id":"4","last_reported":1747847371,"current_range_meters":1600,"station_id":"ce4bh392rcd13ifvqdm0","pricing_plan_id":"cebpf4jnsgd1na2vs0mg"},{"bike_id":"5010cd37-74e1-40af-a620-7d9196fa6f66","system_id":"levelo_inurba_marseille","lat":43.27378,"lon":5.36263,"is_reserved":false,"is_disabled":true,"rental_uris":{"android":"levelo://app?vid=5010cd37-74e1-40af-a620-7d9196fa6f66","ios":"levelo://app?vid=5010cd37-74e1-40af-a620-7d9196fa6f66"},"vehicle_type_id":"4","last_reported":1747847371,"current_range_meters":1600,"station_id":"ce4bhbh2rcd13ifvqeo0","pricing_plan_id":"cebpf4jnsgd1na2vs0mg"},{"bike_id":"02809ad2-0151-4c3d-a2b4-19604876548e","system_id":"levelo_inurba_marseille","lat":43.26563,"lon":5.37288,"is_reserved":false,"is_disabled":true,"rental_uris":{"android":"levelo://app?vid=02809ad2-0151-4c3d-a2b4-19604876548e","ios":"levelo://app?vid=02809ad2-0151-4c3d-a2b4-19604876548e"},"vehicle_type_id":"4","last_reported":1747847371,"current_range_meters":1600,"station_id":"ce4bhg12rcd13ifvqf70","pricing_plan_id":"cebpf4jnsgd1na2vs0mg"},{"bike_id":"3afea904-b151-438f-9426-32d3413aea49","system_id":"levelo_inurba_marseille","lat":43.25589,"lon":5.38232,"is_reserved":false,"is_disabled":true,"rental_uris":{"android":"levelo://app?vid=3afea904-b151-438f-9426-32d3413aea49","ios":"levelo://app?vid=3afea904-b151-438f-9426-32d3413aea49"},"vehicle_type_id":"4","last_reported":1747847371,"current_range_meters":1600,"station_id":"ce4bhih2rcd13ifvqfs0","pricing_plan_id":"cebpf4jnsgd1na2vs0mg"},{"bike_id":"9ad4500d-95cc-4c71-b0b7-df78605c376d","system_id":"levelo_inurba_marseille","lat":43.23183,"lon":5.39991,"is_reserved":false,"is_disabled":true,"rental_uris":{"android":"levelo://app?vid=9ad4500d-95cc-4c71-b0b7-df78605c376d","ios":"levelo://app?vid=9ad4500d-95cc-4c71-b0b7-df78605c376d"},"vehicle_type_id":"4","last_reported":1747847371,"current_range_meters":1600,"station_id":"ce4bhn12rcd13ifvqgqg","pricing_plan_id":"cebpf4jnsgd1na2vs0mg"},{"bike_id":"8f0f531d-6a65-4647-8a6f-baa3d982f42f","system_id":"levelo_inurba_marseille","lat":43.28131,"lon":5.42565,"is_reserved":false,"is_disabled":true,"rental_uris":{"android":"levelo://app?vid=8f0f531d-6a65-4647-8a6f-baa3d982f42f","ios":"levelo://app?vid=8f0f531d-6a65-4647-8a6f-baa3d982f42f"},"vehicle_type_id":"4","last_reported":1747847371,"current_range_meters":2000,"station_id":"","pricing_plan_id":"cebpf4jnsgd1na2vs0mg"},{"bike_id":"a5bcf3ab-5daa-4dec-898b-27b2e944e103","system_id":"levelo_inurba_marseille","lat":43.27297,"lon":5.41031,"is_reserved":false,"is_disabled":true,"rental_uris":{"android":"levelo://app?vid=a5bcf3ab-5daa-4dec-898b-27b2e944e103","ios":"levelo://app?vid=a5bcf3ab-5daa-4dec-898b-27b2e944e103"},"vehicle_type_id":"4","last_reported":1747847371,"current_range_meters":2000,"station_id":"","pricing_plan_id":"cebpf4jnsgd1na2vs0mg"},{"bike_id":"6193c22f-c1cf-4338-acb7-3dfd51ffed95","system_id":"levelo_inurba_marseille","lat":43.30143,"lon":5.38777,"is_reserved":false,"is_disabled":true,"rental_uris":{"android":"levelo://app?vid=6193c22f-c1cf-4338-acb7-3dfd51ffed95","ios":"levelo://app?vid=6193c22f-c1cf-4338-acb7-3dfd51ffed95"},"vehicle_type_id":"4","last_reported":1747847371,"current_range_meters":2000,"station_id":"ce4bghh2rcd13ifvqb60","pricing_plan_id":"cebpf4jnsgd1na2vs0mg"},{"bike_id":"edc47fde-e87e-420b-8ef8-7cc9a958a632","system_id":"levelo_inurba_marseille","lat":43.303,"lon":5.39214,"is_reserved":false,"is_disabled":false,"rental_uris":{"android":"levelo://app?vid=edc47fde-e87e-420b-8ef8-7cc9a958a632","ios":"levelo://app?vid=edc47fde-e87e-420b-8ef8-7cc9a958a632"},"vehicle_type_id":"4","last_reported":1747847371,"current_range_meters":2000,"station_id":"ce4bgkh2rcd13ifvqbk0","pricing_plan_id":"cebpf4jnsgd1na2vs0mg"},{"bike_id":"5c050d06-f5d2-4c67-8173-fa1fadbc92e0","system_id":"levelo_inurba_marseille","lat":43.30216,"lon":5.39474,"is_reserved":false,"is_disabled":true,"rental_uris":{"android":"levelo://app?vid=5c050d06-f5d2-4c67-8173-fa1fadbc92e0","ios":"levelo://app?vid=5c050d06-f5d2-4c67-8173-fa1fadbc92e0"},"vehicle_type_id":"4","last_reported":1747847371,"current_range_meters":2000,"station_id":"ce4bh0p2rcd13ifvqd70","pricing_plan_id":"cebpf4jnsgd1na2vs0mg"},{"bike_id":"ed094543-195d-4803-affa-704e57054b14","system_id":"levelo_inurba_marseille","lat":43.26955,"lon":5.38635,"is_reserved":false,"is_disabled":true,"rental_uris":{"android":"levelo://app?vid=ed094543-195d-4803-affa-704e57054b14","ios":"levelo://app?vid=ed094543-195d-4803-affa-704e57054b14"},"vehicle_type_id":"4","last_reported":1747847371,"current_range_meters":2000,"station_id":"ce4bhh92rcd13ifvqfh0","pricing_plan_id":"cebpf4jnsgd1na2vs0mg"},{"bike_id":"632f72cf-521e-4cef-9ce4-829f9448d2ef","system_id":"levelo_inurba_marseille","lat":43.26501,"lon":5.39534,"is_reserved":false,"is_disabled":true,"rental_uris":{"android":"levelo://app?vid=632f72cf-521e-4cef-9ce4-829f9448d2ef","ios":"levelo://app?vid=632f72cf-521e-4cef-9ce4-829f9448d2ef"},"vehicle_type_id":"4","last_reported":1747847371,"current_range_meters":2000,"station_id":"ce4bhi12rcd13ifvqfq0","pricing_plan_id":"cebpf4jnsgd1na2vs0mg"},{"bike_id":"99b96529-7048-42cb-8509-4187590672c9","system_id":"levelo_inurba_marseille","lat":43.27836,"lon":5.39204,"is_reserved":false,"is_disabled":true,"rental_uris":{"android":"levelo://app?vid=99b96529-7048-42cb-8509-4187590672c9","ios":"levelo://app?vid=99b96529-7048-42cb-8509-4187590672c9"},"vehicle_type_id":"4","last_reported":1747847371,"current_range_meters":2000,"station_id":"ce4bhjp2rcd13ifvqga0","pricing_plan_id":"cebpf4jnsgd1na2vs0mg"},{"bike_id":"01b136ea-4cc7-4444-8329-6b48cf83b778","system_id":"levelo_inurba_marseille","lat":43.27999,"lon":5.40018,"is_reserved":false,"is_disabled":true,"rental_uris":{"android":"levelo://app?vid=01b136ea-4cc7-4444-8329-6b48cf83b778","ios":"levelo://app?vid=01b136ea-4cc7-4444-8329-6b48cf83b778"},"vehicle_type_id":"4","last_reported":1747847371,"current_range_meters":2000,"station_id":"ce4bho92rcd13ifvqh4g","pricing_plan_id":"cebpf4jnsgd1na2vs0mg"},{"bike_id":"dfee3b73-4565-4666-b101-333bbf6f7bcb","system_id":"levelo_inurba_marseille","lat":43.29779,"lon":5.39336,"is_reserved":false,"is_disabled":false,"rental_uris":{"android":"levelo://app?vid=dfee3b73-4565-4666-b101-333bbf6f7bcb","ios":"levelo://app?vid=dfee3b73-4565-4666-b101-333bbf6f7bcb"},"vehicle_type_id":"4","last_reported":1747847371,"current_range_meters":2000,"station_id":"chh1huq6cuj3fo74tm60","pricing_plan_id":"cebpf4jnsgd1na2vs0mg"},{"bike_id":"73f0e32f-ac7b-4001-bfe0-8e82e931b8e0","system_id":"levelo_inurba_marseille","lat":43.29023,"lon":5.38653,"is_reserved":false,"is_disabled":false,"rental_uris":{"android":"levelo://app?vid=73f0e32f-ac7b-4001-bfe0-8e82e931b8e0","ios":"levelo://app?vid=73f0e32f-ac7b-4001-bfe0-8e82e931b8e0"},"vehicle_type_id":"4","last_reported":1747847371,"current_range_meters":2800,"station_id":"ce4bh4p2rcd13ifvqe0g","pricing_plan_id":"cebpf4jnsgd1na2vs0mg"},{"bike_id":"cbbc89f9-445f-468c-af65-8aa278a557a8","system_id":"levelo_inurba_marseille","lat":43.27209,"lon":5.3918,"is_reserved":false,"is_disabled":false,"rental_uris":{"android":"levelo://app?vid=cbbc89f9-445f-468c-af65-8aa278a557a8","ios":"levelo://app?vid=cbbc89f9-445f-468c-af65-8aa278a557a8"},"vehicle_type_id":"4","last_reported":1747847371,"current_range_meters":2800,"station_id":"ce4bhhp2rcd13ifvqfm0","pricing_plan_id":"cebpf4jnsgd1na2vs0mg"},{"bike_id":"54300e92-7f4c-45a8-aa93-04101e19b0c3","system_id":"levelo_inurba_marseille","lat":43.25589,"lon":5.3821,"is_reserved":false,"is_disabled":false,"rental_uris":{"android":"levelo://app?vid=54300e92-7f4c-45a8-aa93-04101e19b0c3","ios":"levelo://app?vid=54300e92-7f4c-45a8-aa93-04101e19b0c3"},"vehicle_type_id":"4","last_reported":1747847371,"current_range_meters":2800,"station_id":"ce4bhih2rcd13ifvqfs0","pricing_plan_id":"cebpf4jnsgd1na2vs0mg"},{"bike_id":"72058435-8745-49ac-8919-627e79eb4f22","system_id":"levelo_inurba_marseille","lat":43.25088,"lon":5.39524,"is_reserved":false,"is_disabled":false,"rental_uris":{"android":"levelo://app?vid=72058435-8745-49ac-8919-627e79eb4f22","ios":"levelo://app?vid=72058435-8745-49ac-8919-627e79eb4f22"},"vehicle_type_id":"4","last_reported":1747847371,"current_range_meters":2800,"station_id":"ce4bhm12rcd13ifvqgkg","pricing_plan_id":"cebpf4jnsgd1na2vs0mg"},{"bike_id":"932cb3cf-01e3-45fb-98c0-2a1409c74567","system_id":"levelo_inurba_marseille","lat":43.28,"lon":5.4001,"is_reserved":false,"is_disabled":false,"rental_uris":{"android":"levelo://app?vid=932cb3cf-01e3-45fb-98c0-2a1409c74567","ios":"levelo://app?vid=932cb3cf-01e3-45fb-98c0-2a1409c74567"},"vehicle_type_id":"4","last_reported":1747847371,"current_range_meters":2800,"station_id":"ce4bho92rcd13ifvqh4g","pricing_plan_id":"cebpf4jnsgd1na2vs0mg"},{"bike_id":"85eaca89-9437-48d0-9bca-a254337b88db","system_id":"levelo_inurba_marseille","lat":43.27462,"lon":5.409846,"is_reserved":false,"is_disabled":false,"rental_uris":{"android":"levelo://app?vid=85eaca89-9437-48d0-9bca-a254337b88db","ios":"levelo://app?vid=85eaca89-9437-48d0-9bca-a254337b88db"},"vehicle_type_id":"4","last_reported":1747847371,"current_range_meters":3200,"station_id":"","pricing_plan_id":"cebpf4jnsgd1na2vs0mg"},{"bike_id":"4e9e75af-0392-477d-a2fd-f1e022ffd3d1","system_id":"levelo_inurba_marseille","lat":43.31111,"lon":5.37764,"is_reserved":false,"is_disabled":false,"rental_uris":{"android":"levelo://app?vid=4e9e75af-0392-477d-a2fd-f1e022ffd3d1","ios":"levelo://app?vid=4e9e75af-0392-477d-a2fd-f1e022ffd3d1"},"vehicle_type_id":"4","last_reported":1747847371,"current_range_meters":3200,"station_id":"ce4bgt92rcd13ifvqcg0","pricing_plan_id":"cebpf4jnsgd1na2vs0mg"},{"bike_id":"69719e66-f99b-4390-8a7e-c934f61a7b2b","system_id":"levelo_inurba_marseille","lat":43.29882,"lon":5.38898,"is_reserved":false,"is_disabled":false,"rental_uris":{"android":"levelo://app?vid=69719e66-f99b-4390-8a7e-c934f61a7b2b","ios":"levelo://app?vid=69719e66-f99b-4390-8a7e-c934f61a7b2b"},"vehicle_type_id":"4","last_reported":1747847371,"current_range_meters":3200,"station_id":"ce4bh392rcd13ifvqdl0","pricing_plan_id":"cebpf4jnsgd1na2vs0mg"},{"bike_id":"a6500734-b257-4daf-896e-208759fe352a","system_id":"levelo_inurba_marseille","lat":43.25084,"lon":5.39525,"is_reserved":false,"is_disabled":false,"rental_uris":{"android":"levelo://app?vid=a6500734-b257-4daf-896e-208759fe352a","ios":"levelo://app?vid=a6500734-b257-4daf-896e-208759fe352a"},"vehicle_type_id":"4","last_reported":1747847371,"current_range_meters":3200,"station_id":"ce4bhm12rcd13ifvqgkg","pricing_plan_id":"cebpf4jnsgd1na2vs0mg"},{"bike_id":"720d8235-997c-469f-bd6d-5a23e0806604","system_id":"levelo_inurba_marseille","lat":43.21579,"lon":5.346921,"is_reserved":false,"is_disabled":false,"rental_uris":{"android":"levelo://app?vid=720d8235-997c-469f-bd6d-5a23e0806604","ios":"levelo://app?vid=720d8235-997c-469f-bd6d-5a23e0806604"},"vehicle_type_id":"4","last_reported":1747847371,"current_range_meters":3600,"station_id":"","pricing_plan_id":"cebpf4jnsgd1na2vs0mg"},{"bike_id":"fda25385-7e3d-47b7-9850-9827a08f38a6","system_id":"levelo_inurba_marseille","lat":43.29014,"lon":5.38147,"is_reserved":false,"is_disabled":false,"rental_uris":{"android":"levelo://app?vid=fda25385-7e3d-47b7-9850-9827a08f38a6","ios":"levelo://app?vid=fda25385-7e3d-47b7-9850-9827a08f38a6"},"vehicle_type_id":"4","last_reported":1747847371,"current_range_meters":3600,"station_id":"ce4bh4p2rcd13ifvqe1g","pricing_plan_id":"cebpf4jnsgd1na2vs0mg"},{"bike_id":"4e5ea1bd-d619-40ae-a518-c7d0a697e58e","system_id":"levelo_inurba_marseille","lat":43.29263,"lon":5.38433,"is_reserved":false,"is_disabled":false,"rental_uris":{"android":"levelo://app?vid=4e5ea1bd-d619-40ae-a518-c7d0a697e58e","ios":"levelo://app?vid=4e5ea1bd-d619-40ae-a518-c7d0a697e58e"},"vehicle_type_id":"4","last_reported":1747847371,"current_range_meters":3600,"station_id":"ce4bh692rcd13ifvqea0","pricing_plan_id":"cebpf4jnsgd1na2vs0mg"},{"bike_id":"ac3466c0-0465-490a-a67f-941612ee2cd8","system_id":"levelo_inurba_marseille","lat":43.28943,"lon":5.3664,"is_reserved":false,"is_disabled":false,"rental_uris":{"android":"levelo://app?vid=ac3466c0-0465-490a-a67f-941612ee2cd8","ios":"levelo://app?vid=ac3466c0-0465-490a-a67f-941612ee2cd8"},"vehicle_type_id":"4","last_reported":1747847371,"current_range_meters":3600,"station_id":"ce4bhap2rcd13ifvqek0","pricing_plan_id":"cebpf4jnsgd1na2vs0mg"},{"bike_id":"88a10630-e3e8-45f1-a08d-7330b73c2c1d","system_id":"levelo_inurba_marseille","lat":43.2756,"lon":5.38431,"is_reserved":false,"is_disabled":false,"rental_uris":{"android":"levelo://app?vid=88a10630-e3e8-45f1-a08d-7330b73c2c1d","ios":"levelo://app?vid=88a10630-e3e8-45f1-a08d-7330b73c2c1d"},"vehicle_type_id":"4","last_reported":1747847371,"current_range_meters":3600,"station_id":"ce4bhh92rcd13ifvqfi0","pricing_plan_id":"cebpf4jnsgd1na2vs0mg"},{"bike_id":"e30ab709-3a99-4ab0-8126-fe301bf8248f","system_id":"levelo_inurba_marseille","lat":43.26063,"lon":5.39397,"is_reserved":false,"is_disabled":false,"rental_uris":{"android":"levelo://app?vid=e30ab709-3a99-4ab0-8126-fe301bf8248f","ios":"levelo://app?vid=e30ab709-3a99-4ab0-8126-fe301bf8248f"},"vehicle_type_id":"4","last_reported":1747847371,"current_range_meters":3600,"station_id":"ce4bhh92rcd13ifvqfj0","pricing_plan_id":"cebpf4jnsgd1na2vs0mg"},{"bike_id":"e5d61907-3299-4697-b044-0d36524dfec7","system_id":"levelo_inurba_marseille","lat":43.32298,"lon":5.38268,"is_reserved":false,"is_disabled":false,"rental_uris":{"android":"levelo://app?vid=e5d61907-3299-4697-b044-0d36524dfec7","ios":"levelo://app?vid=e5d61907-3299-4697-b044-0d36524dfec7"},"vehicle_type_id":"4","last_reported":1747847371,"current_range_meters":3600,"station_id":"ce4bhr12rcd13ifvqhqg","pricing_plan_id":"cebpf4jnsgd1na2vs0mg"},{"bike_id":"7be912f2-18c9-4e01-8838-3ef0fb757e49","system_id":"levelo_inurba_marseille","lat":43.28691,"lon":5.374,"is_reserved":false,"is_disabled":false,"rental_uris":{"android":"levelo://app?vid=7be912f2-18c9-4e01-8838-3ef0fb757e49","ios":"levelo://app?vid=7be912f2-18c9-4e01-8838-3ef0fb757e49"},"vehicle_type_id":"4","last_reported":1747847371,"current_range_meters":4000,"station_id":"ce4bh3p2rcd13ifvqdq0","pricing_plan_id":"cebpf4jnsgd1na2vs0mg"},{"bike_id":"590c4241-55b7-4f47-a11e-cd996b9c0065","system_id":"levelo_inurba_marseille","lat":43.29365,"lon":5.37833,"is_reserved":false,"is_disabled":false,"rental_uris":{"android":"levelo://app?vid=590c4241-55b7-4f47-a11e-cd996b9c0065","ios":"levelo://app?vid=590c4241-55b7-4f47-a11e-cd996b9c0065"},"vehicle_type_id":"4","last_reported":1747847371,"current_range_meters":4400,"station_id":"ce4bgjh2rcd13ifvqbf0","pricing_plan_id":"cebpf4jnsgd1na2vs0mg"},{"bike_id":"7e552e1f-fcae-43cd-b90a-db30b1cdfdb1","system_id":"levelo_inurba_marseille","lat":43.28417,"lon":5.34983,"is_reserved":false,"is_disabled":false,"rental_uris":{"android":"levelo://app?vid=7e552e1f-fcae-43cd-b90a-db30b1cdfdb1","ios":"levelo://app?vid=7e552e1f-fcae-43cd-b90a-db30b1cdfdb1"},"vehicle_type_id":"4","last_reported":1747847371,"current_range_meters":4400,"station_id":"ce4bhbh2rcd13ifvqepg","pricing_plan_id":"cebpf4jnsgd1na2vs0mg"},{"bike_id":"9149529b-be6c-49f8-b369-3545b4bdb25c","system_id":"levelo_inurba_marseille","lat":43.27616,"lon":5.361024,"is_reserved":false,"is_disabled":false,"rental_uris":{"android":"levelo://app?vid=9149529b-be6c-49f8-b369-3545b4bdb25c","ios":"levelo://app?vid=9149529b-be6c-49f8-b369-3545b4bdb25c"},"vehicle_type_id":"4","last_reported":1747847371,"current_range_meters":4800,"station_id":"ce4bgj92rcd13ifvqbe0","pricing_plan_id":"cebpf4jnsgd1na2vs0mg"},{"bike_id":"fdc1b76f-bfb9-43a6-aa98-495b2656b01a","system_id":"levelo_inurba_marseille","lat":43.29043,"lon":5.35925,"is_reserved":false,"is_disabled":false,"rental_uris":{"android":"levelo://app?vid=fdc1b76f-bfb9-43a6-aa98-495b2656b01a","ios":"levelo://app?vid=fdc1b76f-bfb9-43a6-aa98-495b2656b01a"},"vehicle_type_id":"4","last_reported":1747847371,"current_range_meters":4800,"station_id":"ce4bha92rcd13ifvqeg0","pricing_plan_id":"cebpf4jnsgd1na2vs0mg"},{"bike_id":"00b2e776-bb8e-4ce7-8320-5b4e994f1b8d","system_id":"levelo_inurba_marseille","lat":43.25941,"lon":5.409,"is_reserved":false,"is_disabled":false,"rental_uris":{"android":"levelo://app?vid=00b2e776-bb8e-4ce7-8320-5b4e994f1b8d","ios":"levelo://app?vid=00b2e776-bb8e-4ce7-8320-5b4e994f1b8d"},"vehicle_type_id":"4","last_reported":1747847371,"current_range_meters":4800,"station_id":"ce4bhm92rcd13ifvqglg","pricing_plan_id":"cebpf4jnsgd1na2vs0mg"},{"bike_id":"b06e1ca8-a7a3-4e47-ba85-815e199d0d97","system_id":"levelo_inurba_marseille","lat":43.26225,"lon":5.40405,"is_reserved":false,"is_disabled":false,"rental_uris":{"android":"levelo://app?vid=b06e1ca8-a7a3-4e47-ba85-815e199d0d97","ios":"levelo://app?vid=b06e1ca8-a7a3-4e47-ba85-815e199d0d97"},"vehicle_type_id":"4","last_reported":1747847371,"current_range_meters":4800,"station_id":"ce4bhmh2rcd13ifvqgmg","pricing_plan_id":"cebpf4jnsgd1na2vs0mg"},{"bike_id":"7ef0aeb4-1908-44ae-ac3a-839b08df87d3","system_id":"levelo_inurba_marseille","lat":43.22931,"lon":5.35378,"is_reserved":false,"is_disabled":false,"rental_uris":{"android":"levelo://app?vid=7ef0aeb4-1908-44ae-ac3a-839b08df87d3","ios":"levelo://app?vid=7ef0aeb4-1908-44ae-ac3a-839b08df87d3"},"vehicle_type_id":"4","last_reported":1747847371,"current_range_meters":4800,"station_id":"cpo3532slgdg3j2ikp40","pricing_plan_id":"cebpf4jnsgd1na2vs0mg"},{"bike_id":"bffbaf88-357a-4e87-a68c-a9a27a6e01e6","system_id":"levelo_inurba_marseille","lat":43.26248,"lon":5.42131,"is_reserved":false,"is_disabled":false,"rental_uris":{"android":"levelo://app?vid=bffbaf88-357a-4e87-a68c-a9a27a6e01e6","ios":"levelo://app?vid=bffbaf88-357a-4e87-a68c-a9a27a6e01e6"},"vehicle_type_id":"4","last_reported":1747847371,"current_range_meters":5600,"station_id":"","pricing_plan_id":"cebpf4jnsgd1na2vs0mg"},{"bike_id":"84d62431-e764-4f96-b959-3882453e67a4","system_id":"levelo_inurba_marseille","lat":43.30358,"lon":5.37304,"is_reserved":false,"is_disabled":false,"rental_uris":{"android":"levelo://app?vid=84d62431-e764-4f96-b959-3882453e67a4","ios":"levelo://app?vid=84d62431-e764-4f96-b959-3882453e67a4"},"vehicle_type_id":"4","last_reported":1747847371,"current_range_meters":5600,"station_id":"","pricing_plan_id":"cebpf4jnsgd1na2vs0mg"},{"bike_id":"832a8762-0e6c-4072-b69c-7bc95e323071","system_id":"levelo_inurba_marseille","lat":43.24811,"lon":5.37455,"is_reserved":false,"is_disabled":false,"rental_uris":{"android":"levelo://app?vid=832a8762-0e6c-4072-b69c-7bc95e323071","ios":"levelo://app?vid=832a8762-0e6c-4072-b69c-7bc95e323071"},"vehicle_type_id":"4","last_reported":1747847371,"current_range_meters":5600,"station_id":"ce4bhgh2rcd13ifvqfb0","pricing_plan_id":"cebpf4jnsgd1na2vs0mg"},{"bike_id":"f6c2ad25-ecf6-48fa-877a-1a2fc2f851e5","system_id":"levelo_inurba_marseille","lat":43.2319,"lon":5.39983,"is_reserved":false,"is_disabled":false,"rental_uris":{"android":"levelo://app?vid=f6c2ad25-ecf6-48fa-877a-1a2fc2f851e5","ios":"levelo://app?vid=f6c2ad25-ecf6-48fa-877a-1a2fc2f851e5"},"vehicle_type_id":"4","last_reported":1747847371,"current_range_meters":5600,"station_id":"ce4bhn12rcd13ifvqgqg","pricing_plan_id":"cebpf4jnsgd1na2vs0mg"},{"bike_id":"8821936a-ed67-4225-8458-b8d62cad46ab","system_id":"levelo_inurba_marseille","lat":43.23196,"lon":5.35552,"is_reserved":false,"is_disabled":false,"rental_uris":{"android":"levelo://app?vid=8821936a-ed67-4225-8458-b8d62cad46ab","ios":"levelo://app?vid=8821936a-ed67-4225-8458-b8d62cad46ab"},"vehicle_type_id":"4","last_reported":1747847371,"current_range_meters":5600,"station_id":"ce4bhu92rcd13ifvqi70","pricing_plan_id":"cebpf4jnsgd1na2vs0mg"},{"bike_id":"15dcdbbd-a41e-43eb-9ed6-26ec15ce7a50","system_id":"levelo_inurba_marseille","lat":43.21412,"lon":5.34108,"is_reserved":false,"is_disabled":false,"rental_uris":{"android":"levelo://app?vid=15dcdbbd-a41e-43eb-9ed6-26ec15ce7a50","ios":"levelo://app?vid=15dcdbbd-a41e-43eb-9ed6-26ec15ce7a50"},"vehicle_type_id":"4","last_reported":1747847371,"current_range_meters":6000,"station_id":"","pricing_plan_id":"cebpf4jnsgd1na2vs0mg"},{"bike_id":"9767de63-6fdd-4fa3-adb6-b0acd0f94384","system_id":"levelo_inurba_marseille","lat":43.2953,"lon":5.38545,"is_reserved":false,"is_disabled":false,"rental_uris":{"android":"levelo://app?vid=9767de63-6fdd-4fa3-adb6-b0acd0f94384","ios":"levelo://app?vid=9767de63-6fdd-4fa3-adb6-b0acd0f94384"},"vehicle_type_id":"4","last_reported":1747847371,"current_range_meters":6000,"station_id":"ce4bgih2rcd13ifvqba0","pricing_plan_id":"cebpf4jnsgd1na2vs0mg"},{"bike_id":"7580de8b-6504-4113-9c56-cfd052fe8030","system_id":"levelo_inurba_marseille","lat":43.31113,"lon":5.3777,"is_reserved":false,"is_disabled":false,"rental_uris":{"android":"levelo://app?vid=7580de8b-6504-4113-9c56-cfd052fe8030","ios":"levelo://app?vid=7580de8b-6504-4113-9c56-cfd052fe8030"},"vehicle_type_id":"4","last_reported":1747847371,"current_range_meters":6000,"station_id":"ce4bgt92rcd13ifvqcg0","pricing_plan_id":"cebpf4jnsgd1na2vs0mg"},{"bike_id":"92cbd572-4172-4894-8a29-4bc743423b10","system_id":"levelo_inurba_marseille","lat":43.273713,"lon":5.362653,"is_reserved":false,"is_disabled":false,"rental_uris":{"android":"levelo://app?vid=92cbd572-4172-4894-8a29-4bc743423b10","ios":"levelo://app?vid=92cbd572-4172-4894-8a29-4bc743423b10"},"vehicle_type_id":"4","last_reported":1747847371,"current_range_meters":6000,"station_id":"ce4bhbh2rcd13ifvqeo0","pricing_plan_id":"cebpf4jnsgd1na2vs0mg"},{"bike_id":"19725071-7101-49bc-8fd2-a657fe1b9e1d","system_id":"levelo_inurba_marseille","lat":43.27835,"lon":5.39211,"is_reserved":false,"is_disabled":false,"rental_uris":{"android":"levelo://app?vid=19725071-7101-49bc-8fd2-a657fe1b9e1d","ios":"levelo://app?vid=19725071-7101-49bc-8fd2-a657fe1b9e1d"},"vehicle_type_id":"4","last_reported":1747847371,"current_range_meters":6000,"station_id":"ce4bhjp2rcd13ifvqga0","pricing_plan_id":"cebpf4jnsgd1na2vs0mg"},{"bike_id":"b9caee59-2ad8-4b30-8971-fc5ace833a8f","system_id":"levelo_inurba_marseille","lat":43.281559,"lon":5.426441,"is_reserved":false,"is_disabled":false,"rental_uris":{"android":"levelo://app?vid=b9caee59-2ad8-4b30-8971-fc5ace833a8f","ios":"levelo://app?vid=b9caee59-2ad8-4b30-8971-fc5ace833a8f"},"vehicle_type_id":"4","last_reported":1747847371,"current_range_meters":6000,"station_id":"ce4bhnh2rcd13ifvqgug","pricing_plan_id":"cebpf4jnsgd1na2vs0mg"},{"bike_id":"8c3ca3ee-6426-4d91-b932-136ab1787ad3","system_id":"levelo_inurba_marseille","lat":43.31752,"lon":5.39017,"is_reserved":false,"is_disabled":false,"rental_uris":{"android":"levelo://app?vid=8c3ca3ee-6426-4d91-b932-136ab1787ad3","ios":"levelo://app?vid=8c3ca3ee-6426-4d91-b932-136ab1787ad3"},"vehicle_type_id":"4","last_reported":1747847371,"current_range_meters":6000,"station_id":"ce4bhqp2rcd13ifvqhng","pricing_plan_id":"cebpf4jnsgd1na2vs0mg"},{"bike_id":"7cef2e94-8696-4e85-b06e-89d40f1cbfe0","system_id":"levelo_inurba_marseille","lat":43.28853,"lon":5.35845,"is_reserved":false,"is_disabled":false,"rental_uris":{"android":"levelo://app?vid=7cef2e94-8696-4e85-b06e-89d40f1cbfe0","ios":"levelo://app?vid=7cef2e94-8696-4e85-b06e-89d40f1cbfe0"},"vehicle_type_id":"4","last_reported":1747847371,"current_range_meters":6400,"station_id":"ce4bhb12rcd13ifvqem0","pricing_plan_id":"cebpf4jnsgd1na2vs0mg"},{"bike_id":"0cbf4d5c-4642-445b-8c86-8c5dadb508ec","system_id":"levelo_inurba_marseille","lat":43.24813,"lon":5.37458,"is_reserved":false,"is_disabled":false,"rental_uris":{"android":"levelo://app?vid=0cbf4d5c-4642-445b-8c86-8c5dadb508ec","ios":"levelo://app?vid=0cbf4d5c-4642-445b-8c86-8c5dadb508ec"},"vehicle_type_id":"4","last_reported":1747847371,"current_range_meters":6400,"station_id":"ce4bhgh2rcd13ifvqfb0","pricing_plan_id":"cebpf4jnsgd1na2vs0mg"},{"bike_id":"c5ba5012-c922-4862-a04e-86092a76f09a","system_id":"levelo_inurba_marseille","lat":43.27071,"lon":5.4228,"is_reserved":false,"is_disabled":false,"rental_uris":{"android":"levelo://app?vid=c5ba5012-c922-4862-a04e-86092a76f09a","ios":"levelo://app?vid=c5ba5012-c922-4862-a04e-86092a76f09a"},"vehicle_type_id":"4","last_reported":1747847371,"current_range_meters":6400,"station_id":"ce4bhk92rcd13ifvqgb0","pricing_plan_id":"cebpf4jnsgd1na2vs0mg"},{"bike_id":"b28d5a42-d9b9-4408-a163-f7b8cf56f036","system_id":"levelo_inurba_marseille","lat":43.28082,"lon":5.39665,"is_reserved":false,"is_disabled":false,"rental_uris":{"android":"levelo://app?vid=b28d5a42-d9b9-4408-a163-f7b8cf56f036","ios":"levelo://app?vid=b28d5a42-d9b9-4408-a163-f7b8cf56f036"},"vehicle_type_id":"4","last_reported":1747847371,"current_range_meters":6400,"station_id":"ce4bho12rcd13ifvqh2g","pricing_plan_id":"cebpf4jnsgd1na2vs0mg"},{"bike_id":"059a1b1f-c2a6-4218-a093-f5e3410c3dd3","system_id":"levelo_inurba_marseille","lat":43.26927,"lon":5.40269,"is_reserved":false,"is_disabled":false,"rental_uris":{"android":"levelo://app?vid=059a1b1f-c2a6-4218-a093-f5e3410c3dd3","ios":"levelo://app?vid=059a1b1f-c2a6-4218-a093-f5e3410c3dd3"},"vehicle_type_id":"4","last_reported":1747847371,"current_range_meters":6400,"station_id":"cjm6bp8fraef2m0cb0m0","pricing_plan_id":"cebpf4jnsgd1na2vs0mg"},{"bike_id":"b29dcf5d-5f56-4e05-8dee-0ff094b863b0","system_id":"levelo_inurba_marseille","lat":43.2293,"lon":5.35372,"is_reserved":false,"is_disabled":false,"rental_uris":{"android":"levelo://app?vid=b29dcf5d-5f56-4e05-8dee-0ff094b863b0","ios":"levelo://app?vid=b29dcf5d-5f56-4e05-8dee-0ff094b863b0"},"vehicle_type_id":"4","last_reported":1747847371,"current_range_meters":6400,"station_id":"cpo3532slgdg3j2ikp40","pricing_plan_id":"cebpf4jnsgd1na2vs0mg"},{"bike_id":"33f410d9-c6dc-48ab-86af-9b94eea9067b","system_id":"levelo_inurba_marseille","lat":43.21752,"lon":5.346,"is_reserved":false,"is_disabled":false,"rental_uris":{"android":"levelo://app?vid=33f410d9-c6dc-48ab-86af-9b94eea9067b","ios":"levelo://app?vid=33f410d9-c6dc-48ab-86af-9b94eea9067b"},"vehicle_type_id":"4","last_reported":1747847371,"current_range_meters":6400,"station_id":"st_cvj6r9ubvosntc0bgbag","pricing_plan_id":"cebpf4jnsgd1na2vs0mg"},{"bike_id":"6bf1b2a1-4f49-4bd2-ad2d-888585ebe386","system_id":"levelo_inurba_marseille","lat":43.29498,"lon":5.37765,"is_reserved":false,"is_disabled":false,"rental_uris":{"android":"levelo://app?vid=6bf1b2a1-4f49-4bd2-ad2d-888585ebe386","ios":"levelo://app?vid=6bf1b2a1-4f49-4bd2-ad2d-888585ebe386"},"vehicle_type_id":"4","last_reported":1747847371,"current_range_meters":6800,"station_id":"","pricing_plan_id":"cebpf4jnsgd1na2vs0mg"},{"bike_id":"cae104ed-acaf-445a-bba6-148c741338d3","system_id":"levelo_inurba_marseille","lat":43.29598,"lon":5.38102,"is_reserved":false,"is_disabled":false,"rental_uris":{"android":"levelo://app?vid=cae104ed-acaf-445a-bba6-148c741338d3","ios":"levelo://app?vid=cae104ed-acaf-445a-bba6-148c741338d3"},"vehicle_type_id":"4","last_reported":1747847371,"current_range_meters":6800,"station_id":"ce4bgl12rcd13ifvqbo0","pricing_plan_id":"cebpf4jnsgd1na2vs0mg"},{"bike_id":"f9a0f36e-9126-4a92-bc76-d6f4c1dd9c17","system_id":"levelo_inurba_marseille","lat":43.29612,"lon":5.38109,"is_reserved":false,"is_disabled":false,"rental_uris":{"android":"levelo://app?vid=f9a0f36e-9126-4a92-bc76-d6f4c1dd9c17","ios":"levelo://app?vid=f9a0f36e-9126-4a92-bc76-d6f4c1dd9c17"},"vehicle_type_id":"4","last_reported":1747847371,"current_range_meters":6800,"station_id":"ce4bgl12rcd13ifvqbo0","pricing_plan_id":"cebpf4jnsgd1na2vs0mg"},{"bike_id":"449cd77a-b1d9-4e22-a279-f2e2fcb565b7","system_id":"levelo_inurba_marseille","lat":43.30933,"lon":5.40148,"is_reserved":false,"is_disabled":false,"rental_uris":{"android":"levelo://app?vid=449cd77a-b1d9-4e22-a279-f2e2fcb565b7","ios":"levelo://app?vid=449cd77a-b1d9-4e22-a279-f2e2fcb565b7"},"vehicle_type_id":"4","last_reported":1747847371,"current_range_meters":6800,"station_id":"ce4bgvp2rcd13ifvqct0","pricing_plan_id":"cebpf4jnsgd1na2vs0mg"},{"bike_id":"9f1e7424-e049-4a50-9904-33e29f1f6c13","system_id":"levelo_inurba_marseille","lat":43.30647,"lon":5.40101,"is_reserved":false,"is_disabled":false,"rental_uris":{"android":"levelo://app?vid=9f1e7424-e049-4a50-9904-33e29f1f6c13","ios":"levelo://app?vid=9f1e7424-e049-4a50-9904-33e29f1f6c13"},"vehicle_type_id":"4","last_reported":1747847371,"current_range_meters":6800,"station_id":"ce4bh112rcd13ifvqda0","pricing_plan_id":"cebpf4jnsgd1na2vs0mg"},{"bike_id":"73e71cf7-352b-4f9b-a9fa-22a70386cac0","system_id":"levelo_inurba_marseille","lat":43.29021,"lon":5.38645,"is_reserved":false,"is_disabled":false,"rental_uris":{"android":"levelo://app?vid=73e71cf7-352b-4f9b-a9fa-22a70386cac0","ios":"levelo://app?vid=73e71cf7-352b-4f9b-a9fa-22a70386cac0"},"vehicle_type_id":"4","last_reported":1747847371,"current_range_meters":6800,"station_id":"ce4bh4p2rcd13ifvqe0g","pricing_plan_id":"cebpf4jnsgd1na2vs0mg"},{"bike_id":"ba5609fc-5563-4f19-b8a0-50013fb02b00","system_id":"levelo_inurba_marseille","lat":43.2886,"lon":5.3584,"is_reserved":false,"is_disabled":false,"rental_uris":{"android":"levelo://app?vid=ba5609fc-5563-4f19-b8a0-50013fb02b00","ios":"levelo://app?vid=ba5609fc-5563-4f19-b8a0-50013fb02b00"},"vehicle_type_id":"4","last_reported":1747847371,"current_range_meters":6800,"station_id":"ce4bhb12rcd13ifvqem0","pricing_plan_id":"cebpf4jnsgd1na2vs0mg"},{"bike_id":"7dafb755-3fcc-4562-8166-85ddbc686381","system_id":"levelo_inurba_marseille","lat":43.28612,"lon":5.35104,"is_reserved":false,"is_disabled":false,"rental_uris":{"android":"levelo://app?vid=7dafb755-3fcc-4562-8166-85ddbc686381","ios":"levelo://app?vid=7dafb755-3fcc-4562-8166-85ddbc686381"},"vehicle_type_id":"4","last_reported":1747847371,"current_range_meters":6800,"station_id":"ce4bhch2rcd13ifvqeug","pricing_plan_id":"cebpf4jnsgd1na2vs0mg"},{"bike_id":"f350b7c9-bac9-4407-a30b-b945fd53d194","system_id":"levelo_inurba_marseille","lat":43.29592,"lon":5.3862,"is_reserved":false,"is_disabled":false,"rental_uris":{"android":"levelo://app?vid=f350b7c9-bac9-4407-a30b-b945fd53d194","ios":"levelo://app?vid=f350b7c9-bac9-4407-a30b-b945fd53d194"},"vehicle_type_id":"4","last_reported":1747847371,"current_range_meters":6800,"station_id":"chh1huq6cuj3fo74tm60","pricing_plan_id":"cebpf4jnsgd1na2vs0mg"},{"bike_id":"512f77c2-882a-42a0-8896-3fe8d3e5091e","system_id":"levelo_inurba_marseille","lat":43.311893,"lon":5.376883,"is_reserved":false,"is_disabled":false,"rental_uris":{"android":"levelo://app?vid=512f77c2-882a-42a0-8896-3fe8d3e5091e","ios":"levelo://app?vid=512f77c2-882a-42a0-8896-3fe8d3e5091e"},"vehicle_type_id":"4","last_reported":1747847371,"current_range_meters":7200,"station_id":"","pricing_plan_id":"cebpf4jnsgd1na2vs0mg"},{"bike_id":"b8b511c7-6f48-45be-97af-1e0036b54cc5","system_id":"levelo_inurba_marseille","lat":43.273485,"lon":5.4241,"is_reserved":false,"is_disabled":false,"rental_uris":{"android":"levelo://app?vid=b8b511c7-6f48-45be-97af-1e0036b54cc5","ios":"levelo://app?vid=b8b511c7-6f48-45be-97af-1e0036b54cc5"},"vehicle_type_id":"4","last_reported":1747847371,"current_range_meters":7200,"station_id":"","pricing_plan_id":"cebpf4jnsgd1na2vs0mg"},{"bike_id":"ab7e6298-a4c9-4042-a170-07a2c396b760","system_id":"levelo_inurba_marseille","lat":43.30765,"lon":5.37671,"is_reserved":false,"is_disabled":false,"rental_uris":{"android":"levelo://app?vid=ab7e6298-a4c9-4042-a170-07a2c396b760","ios":"levelo://app?vid=ab7e6298-a4c9-4042-a170-07a2c396b760"},"vehicle_type_id":"4","last_reported":1747847371,"current_range_meters":7200,"station_id":"ce4bgv92rcd13ifvqcq0","pricing_plan_id":"cebpf4jnsgd1na2vs0mg"},{"bike_id":"048bfe2f-dca9-46a3-9678-b19569ca9f56","system_id":"levelo_inurba_marseille","lat":43.29372,"lon":5.372499,"is_reserved":false,"is_disabled":false,"rental_uris":{"android":"levelo://app?vid=048bfe2f-dca9-46a3-9678-b19569ca9f56","ios":"levelo://app?vid=048bfe2f-dca9-46a3-9678-b19569ca9f56"},"vehicle_type_id":"4","last_reported":1747847371,"current_range_meters":7200,"station_id":"ce4bhb12rcd13ifvqel0","pricing_plan_id":"cebpf4jnsgd1na2vs0mg"},{"bike_id":"4b10d683-c99e-4979-88af-405b99c36ba9","system_id":"levelo_inurba_marseille","lat":43.2737,"lon":5.36264,"is_reserved":false,"is_disabled":false,"rental_uris":{"android":"levelo://app?vid=4b10d683-c99e-4979-88af-405b99c36ba9","ios":"levelo://app?vid=4b10d683-c99e-4979-88af-405b99c36ba9"},"vehicle_type_id":"4","last_reported":1747847371,"current_range_meters":7200,"station_id":"ce4bhbh2rcd13ifvqeo0","pricing_plan_id":"cebpf4jnsgd1na2vs0mg"},{"bike_id":"c59800b4-5f9d-43e0-a92c-80b011c40677","system_id":"levelo_inurba_marseille","lat":43.27171,"lon":5.40994,"is_reserved":false,"is_disabled":false,"rental_uris":{"android":"levelo://app?vid=c59800b4-5f9d-43e0-a92c-80b011c40677","ios":"levelo://app?vid=c59800b4-5f9d-43e0-a92c-80b011c40677"},"vehicle_type_id":"4","last_reported":1747847371,"current_range_meters":7200,"station_id":"ce4bhl12rcd13ifvqgf0","pricing_plan_id":"cebpf4jnsgd1na2vs0mg"},{"bike_id":"0387878c-bade-4bd4-bea2-8dba8f574fe2","system_id":"levelo_inurba_marseille","lat":43.25112,"lon":5.40291,"is_reserved":false,"is_disabled":false,"rental_uris":{"android":"levelo://app?vid=0387878c-bade-4bd4-bea2-8dba8f574fe2","ios":"levelo://app?vid=0387878c-bade-4bd4-bea2-8dba8f574fe2"},"vehicle_type_id":"4","last_reported":1747847371,"current_range_meters":7200,"station_id":"ce4bhlh2rcd13ifvqgig","pricing_plan_id":"cebpf4jnsgd1na2vs0mg"},{"bike_id":"0d2fd821-fd00-4e94-b9e9-d81a1d4f2ae6","system_id":"levelo_inurba_marseille","lat":43.251137,"lon":5.40316,"is_reserved":false,"is_disabled":false,"rental_uris":{"android":"levelo://app?vid=0d2fd821-fd00-4e94-b9e9-d81a1d4f2ae6","ios":"levelo://app?vid=0d2fd821-fd00-4e94-b9e9-d81a1d4f2ae6"},"vehicle_type_id":"4","last_reported":1747847371,"current_range_meters":7200,"station_id":"ce4bhlh2rcd13ifvqgig","pricing_plan_id":"cebpf4jnsgd1na2vs0mg"},{"bike_id":"e8162579-a5ad-485f-ad83-fec8a2ebe7e1","system_id":"levelo_inurba_marseille","lat":43.26826,"lon":5.39099,"is_reserved":false,"is_disabled":false,"rental_uris":{"android":"levelo://app?vid=e8162579-a5ad-485f-ad83-fec8a2ebe7e1","ios":"levelo://app?vid=e8162579-a5ad-485f-ad83-fec8a2ebe7e1"},"vehicle_type_id":"4","last_reported":1747847371,"current_range_meters":8000,"station_id":"","pricing_plan_id":"cebpf4jnsgd1na2vs0mg"},{"bike_id":"3552fbf2-b43a-446f-93f5-d695fc251b73","system_id":"levelo_inurba_marseille","lat":43.25241,"lon":5.37497,"is_reserved":false,"is_disabled":false,"rental_uris":{"android":"levelo://app?vid=3552fbf2-b43a-446f-93f5-d695fc251b73","ios":"levelo://app?vid=3552fbf2-b43a-446f-93f5-d695fc251b73"},"vehicle_type_id":"4","last_reported":1747847371,"current_range_meters":8000,"station_id":"","pricing_plan_id":"cebpf4jnsgd1na2vs0mg"},{"bike_id":"1128aa6d-578e-4537-a697-2cbf3a65e8f6","system_id":"levelo_inurba_marseille","lat":43.313624,"lon":5.384896,"is_reserved":false,"is_disabled":false,"rental_uris":{"android":"levelo://app?vid=1128aa6d-578e-4537-a697-2cbf3a65e8f6","ios":"levelo://app?vid=1128aa6d-578e-4537-a697-2cbf3a65e8f6"},"vehicle_type_id":"4","last_reported":1747847371,"current_range_meters":8000,"station_id":"ce4bgt92rcd13ifvqcf0","pricing_plan_id":"cebpf4jnsgd1na2vs0mg"},{"bike_id":"5e71d2ec-3d3c-4cde-8cd5-f6fb833ad04a","system_id":"levelo_inurba_marseille","lat":43.29161,"lon":5.37163,"is_reserved":false,"is_disabled":false,"rental_uris":{"android":"levelo://app?vid=5e71d2ec-3d3c-4cde-8cd5-f6fb833ad04a","ios":"levelo://app?vid=5e71d2ec-3d3c-4cde-8cd5-f6fb833ad04a"},"vehicle_type_id":"4","last_reported":1747847371,"current_range_meters":8000,"station_id":"ce4bha92rcd13ifvqeh0","pricing_plan_id":"cebpf4jnsgd1na2vs0mg"},{"bike_id":"f4543734-81ad-47b3-b688-99881394baa0","system_id":"levelo_inurba_marseille","lat":43.27832,"lon":5.3921,"is_reserved":false,"is_disabled":false,"rental_uris":{"android":"levelo://app?vid=f4543734-81ad-47b3-b688-99881394baa0","ios":"levelo://app?vid=f4543734-81ad-47b3-b688-99881394baa0"},"vehicle_type_id":"4","last_reported":1747847371,"current_range_meters":8000,"station_id":"ce4bhjp2rcd13ifvqga0","pricing_plan_id":"cebpf4jnsgd1na2vs0mg"},{"bike_id":"523c51a0-4f9e-4594-9a7b-b8d370f02cd8","system_id":"levelo_inurba_marseille","lat":43.24066,"lon":5.37765,"is_reserved":false,"is_disabled":false,"rental_uris":{"android":"levelo://app?vid=523c51a0-4f9e-4594-9a7b-b8d370f02cd8","ios":"levelo://app?vid=523c51a0-4f9e-4594-9a7b-b8d370f02cd8"},"vehicle_type_id":"4","last_reported":1747847371,"current_range_meters":8000,"station_id":"ce4bhnp2rcd13ifvqgvg","pricing_plan_id":"cebpf4jnsgd1na2vs0mg"},{"bike_id":"300868af-8985-4691-8a15-ff7731614940","system_id":"levelo_inurba_marseille","lat":43.29549,"lon":5.42294,"is_reserved":false,"is_disabled":false,"rental_uris":{"android":"levelo://app?vid=300868af-8985-4691-8a15-ff7731614940","ios":"levelo://app?vid=300868af-8985-4691-8a15-ff7731614940"},"vehicle_type_id":"4","last_reported":1747847371,"current_range_meters":8000,"station_id":"ce4bhph2rcd13ifvqhdg","pricing_plan_id":"cebpf4jnsgd1na2vs0mg"},{"bike_id":"008e905d-b27e-4d01-8c53-0d74e6b7e84a","system_id":"levelo_inurba_marseille","lat":43.26806,"lon":5.40268,"is_reserved":false,"is_disabled":false,"rental_uris":{"android":"levelo://app?vid=008e905d-b27e-4d01-8c53-0d74e6b7e84a","ios":"levelo://app?vid=008e905d-b27e-4d01-8c53-0d74e6b7e84a"},"vehicle_type_id":"4","last_reported":1747847371,"current_range_meters":8000,"station_id":"ce501612rcd8frsf0b60","pricing_plan_id":"cebpf4jnsgd1na2vs0mg"},{"bike_id":"b372620f-8132-4e7e-8d1a-e467489438c7","system_id":"levelo_inurba_marseille","lat":43.28614,"lon":5.40382,"is_reserved":false,"is_disabled":false,"rental_uris":{"android":"levelo://app?vid=b372620f-8132-4e7e-8d1a-e467489438c7","ios":"levelo://app?vid=b372620f-8132-4e7e-8d1a-e467489438c7"},"vehicle_type_id":"4","last_reported":1747847371,"current_range_meters":8400,"station_id":"","pricing_plan_id":"cebpf4jnsgd1na2vs0mg"},{"bike_id":"d36035fe-7932-40ff-b2aa-c0ffc33a2a57","system_id":"levelo_inurba_marseille","lat":43.30603,"lon":5.37228,"is_reserved":false,"is_disabled":false,"rental_uris":{"android":"levelo://app?vid=d36035fe-7932-40ff-b2aa-c0ffc33a2a57","ios":"levelo://app?vid=d36035fe-7932-40ff-b2aa-c0ffc33a2a57"},"vehicle_type_id":"4","last_reported":1747847371,"current_range_meters":8400,"station_id":"ce4bgqh2rcd13ifvqc4g","pricing_plan_id":"cebpf4jnsgd1na2vs0mg"},{"bike_id":"668e4092-c3cc-4e7a-9212-881289210f24","system_id":"levelo_inurba_marseille","lat":43.30427,"lon":5.39746,"is_reserved":false,"is_disabled":false,"rental_uris":{"android":"levelo://app?vid=668e4092-c3cc-4e7a-9212-881289210f24","ios":"levelo://app?vid=668e4092-c3cc-4e7a-9212-881289210f24"},"vehicle_type_id":"4","last_reported":1747847371,"current_range_meters":8400,"station_id":"ce4bh092rcd13ifvqd20","pricing_plan_id":"cebpf4jnsgd1na2vs0mg"},{"bike_id":"1d34e8e2-81ab-4348-95c0-e032dee79b32","system_id":"levelo_inurba_marseille","lat":43.24808,"lon":5.37458,"is_reserved":false,"is_disabled":false,"rental_uris":{"android":"levelo://app?vid=1d34e8e2-81ab-4348-95c0-e032dee79b32","ios":"levelo://app?vid=1d34e8e2-81ab-4348-95c0-e032dee79b32"},"vehicle_type_id":"4","last_reported":1747847371,"current_range_meters":8400,"station_id":"ce4bhgh2rcd13ifvqfb0","pricing_plan_id":"cebpf4jnsgd1na2vs0mg"},{"bike_id":"1ff4dd87-bf56-4ab1-8365-aad71fcb827c","system_id":"levelo_inurba_marseille","lat":43.316076,"lon":5.423906,"is_reserved":false,"is_disabled":false,"rental_uris":{"android":"levelo://app?vid=1ff4dd87-bf56-4ab1-8365-aad71fcb827c","ios":"levelo://app?vid=1ff4dd87-bf56-4ab1-8365-aad71fcb827c"},"vehicle_type_id":"4","last_reported":1747847371,"current_range_meters":8400,"station_id":"ce4bhp92rcd13ifvqhbg","pricing_plan_id":"cebpf4jnsgd1na2vs0mg"},{"bike_id":"103450c0-eff4-42bc-bcce-ed42d8883806","system_id":"levelo_inurba_marseille","lat":43.28693,"lon":5.415503,"is_reserved":false,"is_disabled":false,"rental_uris":{"android":"levelo://app?vid=103450c0-eff4-42bc-bcce-ed42d8883806","ios":"levelo://app?vid=103450c0-eff4-42bc-bcce-ed42d8883806"},"vehicle_type_id":"4","last_reported":1747847371,"current_range_meters":8800,"station_id":"","pricing_plan_id":"cebpf4jnsgd1na2vs0mg"},{"bike_id":"ba2ebe3f-0874-4c58-be28-75d6336c6f5f","system_id":"levelo_inurba_marseille","lat":43.24647,"lon":5.38893,"is_reserved":false,"is_disabled":false,"rental_uris":{"android":"levelo://app?vid=ba2ebe3f-0874-4c58-be28-75d6336c6f5f","ios":"levelo://app?vid=ba2ebe3f-0874-4c58-be28-75d6336c6f5f"},"vehicle_type_id":"4","last_reported":1747847371,"current_range_meters":8800,"station_id":"ce4bhg12rcd13ifvqf60","pricing_plan_id":"cebpf4jnsgd1na2vs0mg"},{"bike_id":"c4ef7375-59de-485f-bdce-f36d41039dd1","system_id":"levelo_inurba_marseille","lat":43.26788,"lon":5.39409,"is_reserved":false,"is_disabled":false,"rental_uris":{"android":"levelo://app?vid=c4ef7375-59de-485f-bdce-f36d41039dd1","ios":"levelo://app?vid=c4ef7375-59de-485f-bdce-f36d41039dd1"},"vehicle_type_id":"4","last_reported":1747847371,"current_range_meters":8800,"station_id":"ce4bhh12rcd13ifvqfg0","pricing_plan_id":"cebpf4jnsgd1na2vs0mg"},{"bike_id":"b1be7cb1-a065-4fb7-9869-81e9da33feba","system_id":"levelo_inurba_marseille","lat":43.28861,"lon":5.35847,"is_reserved":false,"is_disabled":false,"rental_uris":{"android":"levelo://app?vid=b1be7cb1-a065-4fb7-9869-81e9da33feba","ios":"levelo://app?vid=b1be7cb1-a065-4fb7-9869-81e9da33feba"},"vehicle_type_id":"4","last_reported":1747847371,"current_range_meters":9200,"station_id":"ce4bhb12rcd13ifvqem0","pricing_plan_id":"cebpf4jnsgd1na2vs0mg"},{"bike_id":"2323491b-fc22-484f-a35d-623d567edaf4","system_id":"levelo_inurba_marseille","lat":43.26055,"lon":5.39398,"is_reserved":false,"is_disabled":false,"rental_uris":{"android":"levelo://app?vid=2323491b-fc22-484f-a35d-623d567edaf4","ios":"levelo://app?vid=2323491b-fc22-484f-a35d-623d567edaf4"},"vehicle_type_id":"4","last_reported":1747847371,"current_range_meters":9200,"station_id":"ce4bhh92rcd13ifvqfj0","pricing_plan_id":"cebpf4jnsgd1na2vs0mg"},{"bike_id":"cd8f9621-5061-4604-b392-f9e4bc57301f","system_id":"levelo_inurba_marseille","lat":43.31758,"lon":5.39018,"is_reserved":false,"is_disabled":false,"rental_uris":{"android":"levelo://app?vid=cd8f9621-5061-4604-b392-f9e4bc57301f","ios":"levelo://app?vid=cd8f9621-5061-4604-b392-f9e4bc57301f"},"vehicle_type_id":"4","last_reported":1747847371,"current_range_meters":9200,"station_id":"ce4bhqp2rcd13ifvqhng","pricing_plan_id":"cebpf4jnsgd1na2vs0mg"},{"bike_id":"52810136-cd8c-4cda-980b-09386d5743c5","system_id":"levelo_inurba_marseille","lat":43.217538,"lon":5.346092,"is_reserved":false,"is_disabled":false,"rental_uris":{"android":"levelo://app?vid=52810136-cd8c-4cda-980b-09386d5743c5","ios":"levelo://app?vid=52810136-cd8c-4cda-980b-09386d5743c5"},"vehicle_type_id":"4","last_reported":1747847371,"current_range_meters":9200,"station_id":"st_cvj6r9ubvosntc0bgbag","pricing_plan_id":"cebpf4jnsgd1na2vs0mg"},{"bike_id":"6b1852ea-b283-4c85-9b51-17ee09cdca0d","system_id":"levelo_inurba_marseille","lat":43.31112,"lon":5.37773,"is_reserved":false,"is_disabled":false,"rental_uris":{"android":"levelo://app?vid=6b1852ea-b283-4c85-9b51-17ee09cdca0d","ios":"levelo://app?vid=6b1852ea-b283-4c85-9b51-17ee09cdca0d"},"vehicle_type_id":"4","last_reported":1747847371,"current_range_meters":9600,"station_id":"ce4bgt92rcd13ifvqcg0","pricing_plan_id":"cebpf4jnsgd1na2vs0mg"},{"bike_id":"ba724711-d3c5-4bfa-a414-60c8de64e413","system_id":"levelo_inurba_marseille","lat":43.25826,"lon":5.39431,"is_reserved":false,"is_disabled":false,"rental_uris":{"android":"levelo://app?vid=ba724711-d3c5-4bfa-a414-60c8de64e413","ios":"levelo://app?vid=ba724711-d3c5-4bfa-a414-60c8de64e413"},"vehicle_type_id":"4","last_reported":1747847371,"current_range_meters":9600,"station_id":"ce4bhip2rcd13ifvqft0","pricing_plan_id":"cebpf4jnsgd1na2vs0mg"},{"bike_id":"3437be60-4f53-4987-aa4c-dc6b1dd430cd","system_id":"levelo_inurba_marseille","lat":43.27185,"lon":5.40987,"is_reserved":false,"is_disabled":false,"rental_uris":{"android":"levelo://app?vid=3437be60-4f53-4987-aa4c-dc6b1dd430cd","ios":"levelo://app?vid=3437be60-4f53-4987-aa4c-dc6b1dd430cd"},"vehicle_type_id":"4","last_reported":1747847371,"current_range_meters":9600,"station_id":"ce4bhl12rcd13ifvqgf0","pricing_plan_id":"cebpf4jnsgd1na2vs0mg"},{"bike_id":"02dfb92d-8338-4d56-bd7f-23917ab07be9","system_id":"levelo_inurba_marseille","lat":43.31756,"lon":5.39009,"is_reserved":false,"is_disabled":false,"rental_uris":{"android":"levelo://app?vid=02dfb92d-8338-4d56-bd7f-23917ab07be9","ios":"levelo://app?vid=02dfb92d-8338-4d56-bd7f-23917ab07be9"},"vehicle_type_id":"4","last_reported":1747847371,"current_range_meters":9600,"station_id":"ce4bhqp2rcd13ifvqhng","pricing_plan_id":"cebpf4jnsgd1na2vs0mg"},{"bike_id":"3fe3d6c4-138a-47df-b6b4-e6f19e8f7d46","system_id":"levelo_inurba_marseille","lat":43.21402,"lon":5.34132,"is_reserved":false,"is_disabled":false,"rental_uris":{"android":"levelo://app?vid=3fe3d6c4-138a-47df-b6b4-e6f19e8f7d46","ios":"levelo://app?vid=3fe3d6c4-138a-47df-b6b4-e6f19e8f7d46"},"vehicle_type_id":"4","last_reported":1747847371,"current_range_meters":10000,"station_id":"","pricing_plan_id":"cebpf4jnsgd1na2vs0mg"},{"bike_id":"322ecbdc-195d-4bb3-beb5-1e26f22f0eda","system_id":"levelo_inurba_marseille","lat":43.29599,"lon":5.38099,"is_reserved":false,"is_disabled":false,"rental_uris":{"android":"levelo://app?vid=322ecbdc-195d-4bb3-beb5-1e26f22f0eda","ios":"levelo://app?vid=322ecbdc-195d-4bb3-beb5-1e26f22f0eda"},"vehicle_type_id":"4","last_reported":1747847371,"current_range_meters":10000,"station_id":"ce4bgl12rcd13ifvqbo0","pricing_plan_id":"cebpf4jnsgd1na2vs0mg"},{"bike_id":"d395c744-7775-44f4-9b03-ee09d2c8599f","system_id":"levelo_inurba_marseille","lat":43.30887,"lon":5.39658,"is_reserved":false,"is_disabled":false,"rental_uris":{"android":"levelo://app?vid=d395c744-7775-44f4-9b03-ee09d2c8599f","ios":"levelo://app?vid=d395c744-7775-44f4-9b03-ee09d2c8599f"},"vehicle_type_id":"4","last_reported":1747847371,"current_range_meters":10000,"station_id":"ce4bh012rcd13ifvqcv0","pricing_plan_id":"cebpf4jnsgd1na2vs0mg"},{"bike_id":"0275f11b-d69b-443f-a9f8-b5a192d7a60b","system_id":"levelo_inurba_marseille","lat":43.29877,"lon":5.38903,"is_reserved":false,"is_disabled":false,"rental_uris":{"android":"levelo://app?vid=0275f11b-d69b-443f-a9f8-b5a192d7a60b","ios":"levelo://app?vid=0275f11b-d69b-443f-a9f8-b5a192d7a60b"},"vehicle_type_id":"4","last_reported":1747847371,"current_range_meters":10000,"station_id":"ce4bh392rcd13ifvqdl0","pricing_plan_id":"cebpf4jnsgd1na2vs0mg"},{"bike_id":"0b462522-a158-47d3-8853-eb4e793a4acd","system_id":"levelo_inurba_marseille","lat":43.27554,"lon":5.38429,"is_reserved":false,"is_disabled":false,"rental_uris":{"android":"levelo://app?vid=0b462522-a158-47d3-8853-eb4e793a4acd","ios":"levelo://app?vid=0b462522-a158-47d3-8853-eb4e793a4acd"},"vehicle_type_id":"4","last_reported":1747847371,"current_range_meters":10000,"station_id":"ce4bhh92rcd13ifvqfi0","pricing_plan_id":"cebpf4jnsgd1na2vs0mg"},{"bike_id":"d681c205-d6f8-4933-b14c-f7fee7752e57","system_id":"levelo_inurba_marseille","lat":43.29314,"lon":5.37173,"is_reserved":false,"is_disabled":false,"rental_uris":{"android":"levelo://app?vid=d681c205-d6f8-4933-b14c-f7fee7752e57","ios":"levelo://app?vid=d681c205-d6f8-4933-b14c-f7fee7752e57"},"vehicle_type_id":"4","last_reported":1747847371,"current_range_meters":10800,"station_id":"ce4bgh92rcd13ifvqb40","pricing_plan_id":"cebpf4jnsgd1na2vs0mg"},{"bike_id":"256f2097-901b-45a8-a0b4-838829793905","system_id":"levelo_inurba_marseille","lat":43.29364,"lon":5.37845,"is_reserved":false,"is_disabled":false,"rental_uris":{"android":"levelo://app?vid=256f2097-901b-45a8-a0b4-838829793905","ios":"levelo://app?vid=256f2097-901b-45a8-a0b4-838829793905"},"vehicle_type_id":"4","last_reported":1747847371,"current_range_meters":10800,"station_id":"ce4bgjh2rcd13ifvqbf0","pricing_plan_id":"cebpf4jnsgd1na2vs0mg"},{"bike_id":"fd53dee8-9899-4d83-bad5-a5839687847d","system_id":"levelo_inurba_marseille","lat":43.26209,"lon":5.37442,"is_reserved":false,"is_disabled":false,"rental_uris":{"android":"levelo://app?vid=fd53dee8-9899-4d83-bad5-a5839687847d","ios":"levelo://app?vid=fd53dee8-9899-4d83-bad5-a5839687847d"},"vehicle_type_id":"4","last_reported":1747847371,"current_range_meters":10800,"station_id":"ce4bhgp2rcd13ifvqfc0","pricing_plan_id":"cebpf4jnsgd1na2vs0mg"},{"bike_id":"d9b90927-906e-4b3d-a531-414aaf9c5497","system_id":"levelo_inurba_marseille","lat":43.25723,"lon":5.41116,"is_reserved":false,"is_disabled":false,"rental_uris":{"android":"levelo://app?vid=d9b90927-906e-4b3d-a531-414aaf9c5497","ios":"levelo://app?vid=d9b90927-906e-4b3d-a531-414aaf9c5497"},"vehicle_type_id":"4","last_reported":1747847371,"current_range_meters":10800,"station_id":"ce4bhkp2rcd13ifvqgd0","pricing_plan_id":"cebpf4jnsgd1na2vs0mg"},{"bike_id":"6912307a-b4d5-42d8-b865-d9e0e18ad5d5","system_id":"levelo_inurba_marseille","lat":43.24543,"lon":5.39543,"is_reserved":false,"is_disabled":false,"rental_uris":{"android":"levelo://app?vid=6912307a-b4d5-42d8-b865-d9e0e18ad5d5","ios":"levelo://app?vid=6912307a-b4d5-42d8-b865-d9e0e18ad5d5"},"vehicle_type_id":"4","last_reported":1747847371,"current_range_meters":10800,"station_id":"ce4bhlp2rcd13ifvqgjg","pricing_plan_id":"cebpf4jnsgd1na2vs0mg"},{"bike_id":"66af826f-2201-4c6a-b28e-440b1e7d87e7","system_id":"levelo_inurba_marseille","lat":43.28082,"lon":5.396613,"is_reserved":false,"is_disabled":false,"rental_uris":{"android":"levelo://app?vid=66af826f-2201-4c6a-b28e-440b1e7d87e7","ios":"levelo://app?vid=66af826f-2201-4c6a-b28e-440b1e7d87e7"},"vehicle_type_id":"4","last_reported":1747847371,"current_range_meters":10800,"station_id":"ce4bho12rcd13ifvqh2g","pricing_plan_id":"cebpf4jnsgd1na2vs0mg"},{"bike_id":"2f34c329-54fe-438b-a307-b47c6ac8481c","system_id":"levelo_inurba_marseille","lat":43.298957,"lon":5.436597,"is_reserved":false,"is_disabled":false,"rental_uris":{"android":"levelo://app?vid=2f34c329-54fe-438b-a307-b47c6ac8481c","ios":"levelo://app?vid=2f34c329-54fe-438b-a307-b47c6ac8481c"},"vehicle_type_id":"4","last_reported":1747847371,"current_range_meters":10800,"station_id":"ce4bhpp2rcd13ifvqhfg","pricing_plan_id":"cebpf4jnsgd1na2vs0mg"},{"bike_id":"37a40661-a730-4b3b-b0b5-15accd50b9e8","system_id":"levelo_inurba_marseille","lat":43.31996,"lon":5.38157,"is_reserved":false,"is_disabled":false,"rental_uris":{"android":"levelo://app?vid=37a40661-a730-4b3b-b0b5-15accd50b9e8","ios":"levelo://app?vid=37a40661-a730-4b3b-b0b5-15accd50b9e8"},"vehicle_type_id":"4","last_reported":1747847371,"current_range_meters":10800,"station_id":"ce4bhr12rcd13ifvqhpg","pricing_plan_id":"cebpf4jnsgd1na2vs0mg"},{"bike_id":"0b13c182-d975-46fb-bfd7-6ef24f04088d","system_id":"levelo_inurba_marseille","lat":43.30456,"lon":5.37901,"is_reserved":false,"is_disabled":false,"rental_uris":{"android":"levelo://app?vid=0b13c182-d975-46fb-bfd7-6ef24f04088d","ios":"levelo://app?vid=0b13c182-d975-46fb-bfd7-6ef24f04088d"},"vehicle_type_id":"4","last_reported":1747847371,"current_range_meters":11200,"station_id":"ce4bgup2rcd13ifvqcn0","pricing_plan_id":"cebpf4jnsgd1na2vs0mg"},{"bike_id":"de573155-3743-4797-b6fc-c8d3410a4ac0","system_id":"levelo_inurba_marseille","lat":43.31996,"lon":5.381626,"is_reserved":false,"is_disabled":false,"rental_uris":{"android":"levelo://app?vid=de573155-3743-4797-b6fc-c8d3410a4ac0","ios":"levelo://app?vid=de573155-3743-4797-b6fc-c8d3410a4ac0"},"vehicle_type_id":"4","last_reported":1747847371,"current_range_meters":11200,"station_id":"ce4bhr12rcd13ifvqhpg","pricing_plan_id":"cebpf4jnsgd1na2vs0mg"},{"bike_id":"f58d7bc6-4b04-4abd-98b1-9c6b9895fb78","system_id":"levelo_inurba_marseille","lat":43.29366,"lon":5.37837,"is_reserved":false,"is_disabled":false,"rental_uris":{"android":"levelo://app?vid=f58d7bc6-4b04-4abd-98b1-9c6b9895fb78","ios":"levelo://app?vid=f58d7bc6-4b04-4abd-98b1-9c6b9895fb78"},"vehicle_type_id":"4","last_reported":1747847371,"current_range_meters":11600,"station_id":"ce4bgjh2rcd13ifvqbf0","pricing_plan_id":"cebpf4jnsgd1na2vs0mg"},{"bike_id":"363bfe30-2e38-4445-aae0-24e6b3060316","system_id":"levelo_inurba_marseille","lat":43.29021,"lon":5.38641,"is_reserved":false,"is_disabled":false,"rental_uris":{"android":"levelo://app?vid=363bfe30-2e38-4445-aae0-24e6b3060316","ios":"levelo://app?vid=363bfe30-2e38-4445-aae0-24e6b3060316"},"vehicle_type_id":"4","last_reported":1747847371,"current_range_meters":11600,"station_id":"ce4bh4p2rcd13ifvqe0g","pricing_plan_id":"cebpf4jnsgd1na2vs0mg"},{"bike_id":"7e8cfcc3-5745-4c70-923e-c377da749cde","system_id":"levelo_inurba_marseille","lat":43.24813,"lon":5.37457,"is_reserved":false,"is_disabled":false,"rental_uris":{"android":"levelo://app?vid=7e8cfcc3-5745-4c70-923e-c377da749cde","ios":"levelo://app?vid=7e8cfcc3-5745-4c70-923e-c377da749cde"},"vehicle_type_id":"4","last_reported":1747847371,"current_range_meters":11600,"station_id":"ce4bhgh2rcd13ifvqfb0","pricing_plan_id":"cebpf4jnsgd1na2vs0mg"},{"bike_id":"c54cc618-8735-4f77-a8d7-ee32d5387e0f","system_id":"levelo_inurba_marseille","lat":43.24178,"lon":5.39728,"is_reserved":false,"is_disabled":false,"rental_uris":{"android":"levelo://app?vid=c54cc618-8735-4f77-a8d7-ee32d5387e0f","ios":"levelo://app?vid=c54cc618-8735-4f77-a8d7-ee32d5387e0f"},"vehicle_type_id":"4","last_reported":1747847371,"current_range_meters":11600,"station_id":"ce4bhn12rcd13ifvqgpg","pricing_plan_id":"cebpf4jnsgd1na2vs0mg"},{"bike_id":"b7f5f060-48e0-4333-948d-5cf69b412ed7","system_id":"levelo_inurba_marseille","lat":43.30145,"lon":5.38776,"is_reserved":false,"is_disabled":false,"rental_uris":{"android":"levelo://app?vid=b7f5f060-48e0-4333-948d-5cf69b412ed7","ios":"levelo://app?vid=b7f5f060-48e0-4333-948d-5cf69b412ed7"},"vehicle_type_id":"4","last_reported":1747847371,"current_range_meters":12000,"station_id":"ce4bghh2rcd13ifvqb60","pricing_plan_id":"cebpf4jnsgd1na2vs0mg"},{"bike_id":"49130a2e-504d-4d9a-8e50-8d3b255303c4","system_id":"levelo_inurba_marseille","lat":43.31082,"lon":5.42436,"is_reserved":false,"is_disabled":false,"rental_uris":{"android":"levelo://app?vid=49130a2e-504d-4d9a-8e50-8d3b255303c4","ios":"levelo://app?vid=49130a2e-504d-4d9a-8e50-8d3b255303c4"},"vehicle_type_id":"4","last_reported":1747847371,"current_range_meters":12000,"station_id":"ce4bhp92rcd13ifvqhag","pricing_plan_id":"cebpf4jnsgd1na2vs0mg"},{"bike_id":"9f19d1ef-6c4b-4533-bba2-571aa8fa62f4","system_id":"levelo_inurba_marseille","lat":43.30589,"lon":5.37229,"is_reserved":false,"is_disabled":false,"rental_uris":{"android":"levelo://app?vid=9f19d1ef-6c4b-4533-bba2-571aa8fa62f4","ios":"levelo://app?vid=9f19d1ef-6c4b-4533-bba2-571aa8fa62f4"},"vehicle_type_id":"4","last_reported":1747847371,"current_range_meters":12400,"station_id":"ce4bgqh2rcd13ifvqc4g","pricing_plan_id":"cebpf4jnsgd1na2vs0mg"},{"bike_id":"a57c64bd-ce15-4a8d-99ba-50f4246b77f7","system_id":"levelo_inurba_marseille","lat":43.29189,"lon":5.39327,"is_reserved":false,"is_disabled":false,"rental_uris":{"android":"levelo://app?vid=a57c64bd-ce15-4a8d-99ba-50f4246b77f7","ios":"levelo://app?vid=a57c64bd-ce15-4a8d-99ba-50f4246b77f7"},"vehicle_type_id":"4","last_reported":1747847371,"current_range_meters":12400,"station_id":"ce4bh192rcd13ifvqdd0","pricing_plan_id":"cebpf4jnsgd1na2vs0mg"},{"bike_id":"d56e6bf8-c396-4ba1-b98b-e92a0d1c68d6","system_id":"levelo_inurba_marseille","lat":43.2809,"lon":5.37857,"is_reserved":false,"is_disabled":false,"rental_uris":{"android":"levelo://app?vid=d56e6bf8-c396-4ba1-b98b-e92a0d1c68d6","ios":"levelo://app?vid=d56e6bf8-c396-4ba1-b98b-e92a0d1c68d6"},"vehicle_type_id":"4","last_reported":1747847371,"current_range_meters":12400,"station_id":"ce4bha12rcd13ifvqee0","pricing_plan_id":"cebpf4jnsgd1na2vs0mg"},{"bike_id":"06394b25-1e67-4cc2-a1ed-9218a5235cea","system_id":"levelo_inurba_marseille","lat":43.27204,"lon":5.39178,"is_reserved":false,"is_disabled":false,"rental_uris":{"android":"levelo://app?vid=06394b25-1e67-4cc2-a1ed-9218a5235cea","ios":"levelo://app?vid=06394b25-1e67-4cc2-a1ed-9218a5235cea"},"vehicle_type_id":"4","last_reported":1747847371,"current_range_meters":12400,"station_id":"ce4bhhp2rcd13ifvqfm0","pricing_plan_id":"cebpf4jnsgd1na2vs0mg"},{"bike_id":"e479630c-9c73-44f8-b430-fc8c7c23cae8","system_id":"levelo_inurba_marseille","lat":43.2706,"lon":5.42277,"is_reserved":false,"is_disabled":false,"rental_uris":{"android":"levelo://app?vid=e479630c-9c73-44f8-b430-fc8c7c23cae8","ios":"levelo://app?vid=e479630c-9c73-44f8-b430-fc8c7c23cae8"},"vehicle_type_id":"4","last_reported":1747847371,"current_range_meters":12400,"station_id":"ce4bhk92rcd13ifvqgb0","pricing_plan_id":"cebpf4jnsgd1na2vs0mg"},{"bike_id":"e2cb30a3-06d3-4a8d-8bb5-0556ae31c6ff","system_id":"levelo_inurba_marseille","lat":43.24545,"lon":5.39535,"is_reserved":false,"is_disabled":false,"rental_uris":{"android":"levelo://app?vid=e2cb30a3-06d3-4a8d-8bb5-0556ae31c6ff","ios":"levelo://app?vid=e2cb30a3-06d3-4a8d-8bb5-0556ae31c6ff"},"vehicle_type_id":"4","last_reported":1747847371,"current_range_meters":12400,"station_id":"ce4bhlp2rcd13ifvqgjg","pricing_plan_id":"cebpf4jnsgd1na2vs0mg"},{"bike_id":"77ca8cbe-638a-42b1-bb77-9eb72bcfe6aa","system_id":"levelo_inurba_marseille","lat":43.23151,"lon":5.43705,"is_reserved":false,"is_disabled":false,"rental_uris":{"android":"levelo://app?vid=77ca8cbe-638a-42b1-bb77-9eb72bcfe6aa","ios":"levelo://app?vid=77ca8cbe-638a-42b1-bb77-9eb72bcfe6aa"},"vehicle_type_id":"4","last_reported":1747847371,"current_range_meters":12400,"station_id":"ce4bhmp2rcd13ifvqgog","pricing_plan_id":"cebpf4jnsgd1na2vs0mg"},{"bike_id":"0d8e2c56-75c8-4270-a9d0-42a872fde440","system_id":"levelo_inurba_marseille","lat":43.240784,"lon":5.377551,"is_reserved":false,"is_disabled":false,"rental_uris":{"android":"levelo://app?vid=0d8e2c56-75c8-4270-a9d0-42a872fde440","ios":"levelo://app?vid=0d8e2c56-75c8-4270-a9d0-42a872fde440"},"vehicle_type_id":"4","last_reported":1747847371,"current_range_meters":12400,"station_id":"ce4bhnp2rcd13ifvqgvg","pricing_plan_id":"cebpf4jnsgd1na2vs0mg"},{"bike_id":"e71f2f8e-ed49-4107-abce-7f484fbab4c2","system_id":"levelo_inurba_marseille","lat":43.28076,"lon":5.39657,"is_reserved":false,"is_disabled":false,"rental_uris":{"android":"levelo://app?vid=e71f2f8e-ed49-4107-abce-7f484fbab4c2","ios":"levelo://app?vid=e71f2f8e-ed49-4107-abce-7f484fbab4c2"},"vehicle_type_id":"4","last_reported":1747847371,"current_range_meters":12400,"station_id":"ce4bho12rcd13ifvqh2g","pricing_plan_id":"cebpf4jnsgd1na2vs0mg"},{"bike_id":"bfc88a38-df32-4360-8173-61ba3df19406","system_id":"levelo_inurba_marseille","lat":43.29553,"lon":5.42296,"is_reserved":false,"is_disabled":false,"rental_uris":{"android":"levelo://app?vid=bfc88a38-df32-4360-8173-61ba3df19406","ios":"levelo://app?vid=bfc88a38-df32-4360-8173-61ba3df19406"},"vehicle_type_id":"4","last_reported":1747847371,"current_range_meters":12400,"station_id":"ce4bhph2rcd13ifvqhdg","pricing_plan_id":"cebpf4jnsgd1na2vs0mg"},{"bike_id":"1adf56af-9b4b-4ff5-a02a-733d34e17388","system_id":"levelo_inurba_marseille","lat":43.30889,"lon":5.3966,"is_reserved":false,"is_disabled":false,"rental_uris":{"android":"levelo://app?vid=1adf56af-9b4b-4ff5-a02a-733d34e17388","ios":"levelo://app?vid=1adf56af-9b4b-4ff5-a02a-733d34e17388"},"vehicle_type_id":"4","last_reported":1747847371,"current_range_meters":12800,"station_id":"ce4bh012rcd13ifvqcv0","pricing_plan_id":"cebpf4jnsgd1na2vs0mg"},{"bike_id":"40884204-2b27-458f-80f6-be847b723657","system_id":"levelo_inurba_marseille","lat":43.3014,"lon":5.3987,"is_reserved":false,"is_disabled":false,"rental_uris":{"android":"levelo://app?vid=40884204-2b27-458f-80f6-be847b723657","ios":"levelo://app?vid=40884204-2b27-458f-80f6-be847b723657"},"vehicle_type_id":"4","last_reported":1747847371,"current_range_meters":12800,"station_id":"ce4bh0h2rcd13ifvqd40","pricing_plan_id":"cebpf4jnsgd1na2vs0mg"},{"bike_id":"7b0487e7-8d15-49c9-b24e-73b2e9817982","system_id":"levelo_inurba_marseille","lat":43.29003,"lon":5.3561,"is_reserved":false,"is_disabled":false,"rental_uris":{"android":"levelo://app?vid=7b0487e7-8d15-49c9-b24e-73b2e9817982","ios":"levelo://app?vid=7b0487e7-8d15-49c9-b24e-73b2e9817982"},"vehicle_type_id":"4","last_reported":1747847371,"current_range_meters":12800,"station_id":"ce4bhb92rcd13ifvqen0","pricing_plan_id":"cebpf4jnsgd1na2vs0mg"},{"bike_id":"f693b179-d4c4-4ee0-8a73-552a9c1888ff","system_id":"levelo_inurba_marseille","lat":43.26808,"lon":5.40269,"is_reserved":false,"is_disabled":false,"rental_uris":{"android":"levelo://app?vid=f693b179-d4c4-4ee0-8a73-552a9c1888ff","ios":"levelo://app?vid=f693b179-d4c4-4ee0-8a73-552a9c1888ff"},"vehicle_type_id":"4","last_reported":1747847371,"current_range_meters":12800,"station_id":"ce501612rcd8frsf0b60","pricing_plan_id":"cebpf4jnsgd1na2vs0mg"},{"bike_id":"f9fb40c0-1fcd-48cb-8e26-3f2dc0fb2451","system_id":"levelo_inurba_marseille","lat":43.33751,"lon":5.37509,"is_reserved":false,"is_disabled":false,"rental_uris":{"android":"levelo://app?vid=f9fb40c0-1fcd-48cb-8e26-3f2dc0fb2451","ios":"levelo://app?vid=f9fb40c0-1fcd-48cb-8e26-3f2dc0fb2451"},"vehicle_type_id":"4","last_reported":1747847371,"current_range_meters":13600,"station_id":"","pricing_plan_id":"cebpf4jnsgd1na2vs0mg"},{"bike_id":"beaee73b-4dc5-4652-a51e-a3f7901bf3cf","system_id":"levelo_inurba_marseille","lat":43.250732,"lon":5.403334,"is_reserved":false,"is_disabled":false,"rental_uris":{"android":"levelo://app?vid=beaee73b-4dc5-4652-a51e-a3f7901bf3cf","ios":"levelo://app?vid=beaee73b-4dc5-4652-a51e-a3f7901bf3cf"},"vehicle_type_id":"4","last_reported":1747847371,"current_range_meters":13600,"station_id":"","pricing_plan_id":"cebpf4jnsgd1na2vs0mg"},{"bike_id":"b03fad23-aec9-47a3-b810-891fa9aefd1a","system_id":"levelo_inurba_marseille","lat":43.290264,"lon":5.3865,"is_reserved":false,"is_disabled":false,"rental_uris":{"android":"levelo://app?vid=b03fad23-aec9-47a3-b810-891fa9aefd1a","ios":"levelo://app?vid=b03fad23-aec9-47a3-b810-891fa9aefd1a"},"vehicle_type_id":"4","last_reported":1747847371,"current_range_meters":13600,"station_id":"ce4bh4p2rcd13ifvqe0g","pricing_plan_id":"cebpf4jnsgd1na2vs0mg"},{"bike_id":"5d06fb9d-c8a9-4489-916d-e101688e8480","system_id":"levelo_inurba_marseille","lat":43.24803,"lon":5.37453,"is_reserved":false,"is_disabled":false,"rental_uris":{"android":"levelo://app?vid=5d06fb9d-c8a9-4489-916d-e101688e8480","ios":"levelo://app?vid=5d06fb9d-c8a9-4489-916d-e101688e8480"},"vehicle_type_id":"4","last_reported":1747847371,"current_range_meters":13600,"station_id":"ce4bhgh2rcd13ifvqfb0","pricing_plan_id":"cebpf4jnsgd1na2vs0mg"},{"bike_id":"261888c8-df10-4b43-bb99-ef6b280226ad","system_id":"levelo_inurba_marseille","lat":43.2558,"lon":5.38228,"is_reserved":false,"is_disabled":false,"rental_uris":{"android":"levelo://app?vid=261888c8-df10-4b43-bb99-ef6b280226ad","ios":"levelo://app?vid=261888c8-df10-4b43-bb99-ef6b280226ad"},"vehicle_type_id":"4","last_reported":1747847371,"current_range_meters":13600,"station_id":"ce4bhih2rcd13ifvqfs0","pricing_plan_id":"cebpf4jnsgd1na2vs0mg"},{"bike_id":"20d46360-b017-40c9-8a0d-bb0351687016","system_id":"levelo_inurba_marseille","lat":43.25593,"lon":5.38232,"is_reserved":false,"is_disabled":false,"rental_uris":{"android":"levelo://app?vid=20d46360-b017-40c9-8a0d-bb0351687016","ios":"levelo://app?vid=20d46360-b017-40c9-8a0d-bb0351687016"},"vehicle_type_id":"4","last_reported":1747847371,"current_range_meters":13600,"station_id":"ce4bhih2rcd13ifvqfs0","pricing_plan_id":"cebpf4jnsgd1na2vs0mg"},{"bike_id":"fbd4f2ee-d3c7-4a11-9f38-15a171954aaf","system_id":"levelo_inurba_marseille","lat":43.23968,"lon":5.3663,"is_reserved":false,"is_disabled":false,"rental_uris":{"android":"levelo://app?vid=fbd4f2ee-d3c7-4a11-9f38-15a171954aaf","ios":"levelo://app?vid=fbd4f2ee-d3c7-4a11-9f38-15a171954aaf"},"vehicle_type_id":"4","last_reported":1747847371,"current_range_meters":14000,"station_id":"ce4bhi12rcd13ifvqfp0","pricing_plan_id":"cebpf4jnsgd1na2vs0mg"},{"bike_id":"b5e8883a-6079-4e80-97ca-00d514d54975","system_id":"levelo_inurba_marseille","lat":43.25576,"lon":5.38228,"is_reserved":false,"is_disabled":false,"rental_uris":{"android":"levelo://app?vid=b5e8883a-6079-4e80-97ca-00d514d54975","ios":"levelo://app?vid=b5e8883a-6079-4e80-97ca-00d514d54975"},"vehicle_type_id":"4","last_reported":1747847371,"current_range_meters":14000,"station_id":"ce4bhih2rcd13ifvqfs0","pricing_plan_id":"cebpf4jnsgd1na2vs0mg"},{"bike_id":"795bd171-83c6-4161-9927-bb5630d28dc0","system_id":"levelo_inurba_marseille","lat":43.25117,"lon":5.40317,"is_reserved":false,"is_disabled":false,"rental_uris":{"android":"levelo://app?vid=795bd171-83c6-4161-9927-bb5630d28dc0","ios":"levelo://app?vid=795bd171-83c6-4161-9927-bb5630d28dc0"},"vehicle_type_id":"4","last_reported":1747847371,"current_range_meters":14000,"station_id":"ce4bhlh2rcd13ifvqgig","pricing_plan_id":"cebpf4jnsgd1na2vs0mg"},{"bike_id":"feaf7be4-fe23-45f7-8636-d4ccad002b89","system_id":"levelo_inurba_marseille","lat":43.24069,"lon":5.37766,"is_reserved":false,"is_disabled":false,"rental_uris":{"android":"levelo://app?vid=feaf7be4-fe23-45f7-8636-d4ccad002b89","ios":"levelo://app?vid=feaf7be4-fe23-45f7-8636-d4ccad002b89"},"vehicle_type_id":"4","last_reported":1747847371,"current_range_meters":14000,"station_id":"ce4bhnp2rcd13ifvqgvg","pricing_plan_id":"cebpf4jnsgd1na2vs0mg"},{"bike_id":"c20b3fba-ccf3-4150-abbc-993bc6403597","system_id":"levelo_inurba_marseille","lat":43.32365,"lon":5.38885,"is_reserved":false,"is_disabled":false,"rental_uris":{"android":"levelo://app?vid=c20b3fba-ccf3-4150-abbc-993bc6403597","ios":"levelo://app?vid=c20b3fba-ccf3-4150-abbc-993bc6403597"},"vehicle_type_id":"4","last_reported":1747847371,"current_range_meters":14000,"station_id":"ce4bhqp2rcd13ifvqhog","pricing_plan_id":"cebpf4jnsgd1na2vs0mg"},{"bike_id":"27653dcd-dec9-4f13-b172-8968c20c1725","system_id":"levelo_inurba_marseille","lat":43.23857,"lon":5.43078,"is_reserved":false,"is_disabled":false,"rental_uris":{"android":"levelo://app?vid=27653dcd-dec9-4f13-b172-8968c20c1725","ios":"levelo://app?vid=27653dcd-dec9-4f13-b172-8968c20c1725"},"vehicle_type_id":"4","last_reported":1747847371,"current_range_meters":14400,"station_id":"","pricing_plan_id":"cebpf4jnsgd1na2vs0mg"},{"bike_id":"f5fa9335-58cd-4665-b74e-44d45f0cce15","system_id":"levelo_inurba_marseille","lat":43.28998,"lon":5.35596,"is_reserved":false,"is_disabled":false,"rental_uris":{"android":"levelo://app?vid=f5fa9335-58cd-4665-b74e-44d45f0cce15","ios":"levelo://app?vid=f5fa9335-58cd-4665-b74e-44d45f0cce15"},"vehicle_type_id":"4","last_reported":1747847371,"current_range_meters":14400,"station_id":"ce4bhb92rcd13ifvqen0","pricing_plan_id":"cebpf4jnsgd1na2vs0mg"},{"bike_id":"f4e1a2d4-7d91-426d-8c0e-33a16c0fcdac","system_id":"levelo_inurba_marseille","lat":43.24807,"lon":5.37461,"is_reserved":false,"is_disabled":false,"rental_uris":{"android":"levelo://app?vid=f4e1a2d4-7d91-426d-8c0e-33a16c0fcdac","ios":"levelo://app?vid=f4e1a2d4-7d91-426d-8c0e-33a16c0fcdac"},"vehicle_type_id":"4","last_reported":1747847371,"current_range_meters":14400,"station_id":"ce4bhgh2rcd13ifvqfb0","pricing_plan_id":"cebpf4jnsgd1na2vs0mg"},{"bike_id":"b85bea74-31f6-4333-a3a2-12f08a8a66ee","system_id":"levelo_inurba_marseille","lat":43.23976,"lon":5.36624,"is_reserved":false,"is_disabled":false,"rental_uris":{"android":"levelo://app?vid=b85bea74-31f6-4333-a3a2-12f08a8a66ee","ios":"levelo://app?vid=b85bea74-31f6-4333-a3a2-12f08a8a66ee"},"vehicle_type_id":"4","last_reported":1747847371,"current_range_meters":14400,"station_id":"ce4bhi12rcd13ifvqfp0","pricing_plan_id":"cebpf4jnsgd1na2vs0mg"},{"bike_id":"dbbc0855-178a-4f6e-80ed-c3d6fad2b4b4","system_id":"levelo_inurba_marseille","lat":43.21748,"lon":5.34599,"is_reserved":false,"is_disabled":false,"rental_uris":{"android":"levelo://app?vid=dbbc0855-178a-4f6e-80ed-c3d6fad2b4b4","ios":"levelo://app?vid=dbbc0855-178a-4f6e-80ed-c3d6fad2b4b4"},