{"last_updated":1779371589,"ttl":60,"version":"2.2","data":{"bikes":[{"bike_id":"7d641315-6110-49cb-a9dd-d637ff032de1","system_id":"levelo_inurba_marseille","lat":43.337444,"lon":5.374475,"is_reserved":false,"is_disabled":false,"rental_uris":{"android":"levelo://app?vid=7d641315-6110-49cb-a9dd-d637ff032de1","ios":"levelo://app?vid=7d641315-6110-49cb-a9dd-d637ff032de1"},"vehicle_type_id":"4","last_reported":1779371590,"current_range_meters":0,"station_id":"","pricing_plan_id":"cebpf4jnsgd1na2vs0mg"},{"bike_id":"9e0bf567-0310-42f6-a844-c83a79a56b8b","system_id":"levelo_inurba_marseille","lat":43.28414,"lon":5.34984,"is_reserved":false,"is_disabled":false,"rental_uris":{"android":"levelo://app?vid=9e0bf567-0310-42f6-a844-c83a79a56b8b","ios":"levelo://app?vid=9e0bf567-0310-42f6-a844-c83a79a56b8b"},"vehicle_type_id":"4","last_reported":1779371590,"current_range_meters":2800,"station_id":"ce4bhbh2rcd13ifvqepg","pricing_plan_id":"cebpf4jnsgd1na2vs0mg"},{"bike_id":"ca96519d-ea00-4c15-9b11-c0e174ddd05c","system_id":"levelo_inurba_marseille","lat":43.3025,"lon":5.40062,"is_reserved":false,"is_disabled":false,"rental_uris":{"android":"levelo://app?vid=ca96519d-ea00-4c15-9b11-c0e174ddd05c","ios":"levelo://app?vid=ca96519d-ea00-4c15-9b11-c0e174ddd05c"},"vehicle_type_id":"4","last_reported":1779371590,"current_range_meters":2800,"station_id":"ce4bgvh2rcd13ifvqcs0","pricing_plan_id":"cebpf4jnsgd1na2vs0mg"},{"bike_id":"e4850232-cc78-4e9f-9019-c3172df3a0df","system_id":"levelo_inurba_marseille","lat":43.28803,"lon":5.38203,"is_reserved":false,"is_disabled":false,"rental_uris":{"android":"levelo://app?vid=e4850232-cc78-4e9f-9019-c3172df3a0df","ios":"levelo://app?vid=e4850232-cc78-4e9f-9019-c3172df3a0df"},"vehicle_type_id":"4","last_reported":1779371590,"current_range_meters":2800,"station_id":"","pricing_plan_id":"cebpf4jnsgd1na2vs0mg"},{"bike_id":"e5b3f779-d515-4add-b2ee-2f91b8a836b9","system_id":"levelo_inurba_marseille","lat":43.26218,"lon":5.40466,"is_reserved":false,"is_disabled":false,"rental_uris":{"android":"levelo://app?vid=e5b3f779-d515-4add-b2ee-2f91b8a836b9","ios":"levelo://app?vid=e5b3f779-d515-4add-b2ee-2f91b8a836b9"},"vehicle_type_id":"4","last_reported":1779371590,"current_range_meters":2800,"station_id":"ce4bhmh2rcd13ifvqgmg","pricing_plan_id":"cebpf4jnsgd1na2vs0mg"},{"bike_id":"9098e61d-9a28-42cd-ae67-b1623c7e5a2f","system_id":"levelo_inurba_marseille","lat":43.31072,"lon":5.42457,"is_reserved":false,"is_disabled":false,"rental_uris":{"android":"levelo://app?vid=9098e61d-9a28-42cd-ae67-b1623c7e5a2f","ios":"levelo://app?vid=9098e61d-9a28-42cd-ae67-b1623c7e5a2f"},"vehicle_type_id":"4","last_reported":1779371590,"current_range_meters":2800,"station_id":"ce4bhp92rcd13ifvqhag","pricing_plan_id":"cebpf4jnsgd1na2vs0mg"},{"bike_id":"ab3d0653-ceb0-447c-b6ee-1608aa7ac29d","system_id":"levelo_inurba_marseille","lat":43.29204,"lon":5.46026,"is_reserved":false,"is_disabled":false,"rental_uris":{"android":"levelo://app?vid=ab3d0653-ceb0-447c-b6ee-1608aa7ac29d","ios":"levelo://app?vid=ab3d0653-ceb0-447c-b6ee-1608aa7ac29d"},"vehicle_type_id":"4","last_reported":1779371590,"current_range_meters":2800,"station_id":"","pricing_plan_id":"cebpf4jnsgd1na2vs0mg"},{"bike_id":"1a1e423d-336e-4f08-8cdb-839ca792da64","system_id":"levelo_inurba_marseille","lat":43.2848,"lon":5.48411,"is_reserved":false,"is_disabled":false,"rental_uris":{"android":"levelo://app?vid=1a1e423d-336e-4f08-8cdb-839ca792da64","ios":"levelo://app?vid=1a1e423d-336e-4f08-8cdb-839ca792da64"},"vehicle_type_id":"4","last_reported":1779371590,"current_range_meters":3200,"station_id":"st_d3svhcjqgbts73a3dn0g","pricing_plan_id":"cebpf4jnsgd1na2vs0mg"},{"bike_id":"3affea3e-809f-4c8a-8fc6-f7b71998e959","system_id":"levelo_inurba_marseille","lat":43.26028,"lon":5.37553,"is_reserved":false,"is_disabled":false,"rental_uris":{"android":"levelo://app?vid=3affea3e-809f-4c8a-8fc6-f7b71998e959","ios":"levelo://app?vid=3affea3e-809f-4c8a-8fc6-f7b71998e959"},"vehicle_type_id":"4","last_reported":1779371590,"current_range_meters":3200,"station_id":"ce4bhgh2rcd13ifvqfa0","pricing_plan_id":"cebpf4jnsgd1na2vs0mg"},{"bike_id":"c202bc15-6fd2-4b5b-b9f8-fe2a7981a9a0","system_id":"levelo_inurba_marseille","lat":43.23327,"lon":5.35907,"is_reserved":false,"is_disabled":false,"rental_uris":{"android":"levelo://app?vid=c202bc15-6fd2-4b5b-b9f8-fe2a7981a9a0","ios":"levelo://app?vid=c202bc15-6fd2-4b5b-b9f8-fe2a7981a9a0"},"vehicle_type_id":"4","last_reported":1779371590,"current_range_meters":3200,"station_id":"","pricing_plan_id":"cebpf4jnsgd1na2vs0mg"},{"bike_id":"f8a0363b-1dda-4545-a43b-f1d90d0aace6","system_id":"levelo_inurba_marseille","lat":43.21226,"lon":5.35084,"is_reserved":false,"is_disabled":false,"rental_uris":{"android":"levelo://app?vid=f8a0363b-1dda-4545-a43b-f1d90d0aace6","ios":"levelo://app?vid=f8a0363b-1dda-4545-a43b-f1d90d0aace6"},"vehicle_type_id":"4","last_reported":1779371590,"current_range_meters":3200,"station_id":"","pricing_plan_id":"cebpf4jnsgd1na2vs0mg"},{"bike_id":"8b3ce701-a28c-4dce-8c83-40d4a12dfe1c","system_id":"levelo_inurba_marseille","lat":43.28419,"lon":5.34983,"is_reserved":false,"is_disabled":false,"rental_uris":{"android":"levelo://app?vid=8b3ce701-a28c-4dce-8c83-40d4a12dfe1c","ios":"levelo://app?vid=8b3ce701-a28c-4dce-8c83-40d4a12dfe1c"},"vehicle_type_id":"4","last_reported":1779371590,"current_range_meters":3200,"station_id":"ce4bhbh2rcd13ifvqepg","pricing_plan_id":"cebpf4jnsgd1na2vs0mg"},{"bike_id":"ed0a2e31-3f52-4952-819a-710fa6677d96","system_id":"levelo_inurba_marseille","lat":43.28694,"lon":5.46684,"is_reserved":false,"is_disabled":false,"rental_uris":{"android":"levelo://app?vid=ed0a2e31-3f52-4952-819a-710fa6677d96","ios":"levelo://app?vid=ed0a2e31-3f52-4952-819a-710fa6677d96"},"vehicle_type_id":"4","last_reported":1779371590,"current_range_meters":3200,"station_id":"st_d6tc3vkotcvc738tfjhg","pricing_plan_id":"cebpf4jnsgd1na2vs0mg"},{"bike_id":"07309a94-c66d-41fb-9063-9741e1c3530b","system_id":"levelo_inurba_marseille","lat":43.30881,"lon":5.3681,"is_reserved":false,"is_disabled":false,"rental_uris":{"android":"levelo://app?vid=07309a94-c66d-41fb-9063-9741e1c3530b","ios":"levelo://app?vid=07309a94-c66d-41fb-9063-9741e1c3530b"},"vehicle_type_id":"4","last_reported":1779371590,"current_range_meters":3200,"station_id":"ce4bgn92rcd13ifvqbvg","pricing_plan_id":"cebpf4jnsgd1na2vs0mg"},{"bike_id":"47c9cb97-371d-4e9f-9c20-83aba40029f7","system_id":"levelo_inurba_marseille","lat":43.225321,"lon":5.348338,"is_reserved":false,"is_disabled":false,"rental_uris":{"android":"levelo://app?vid=47c9cb97-371d-4e9f-9c20-83aba40029f7","ios":"levelo://app?vid=47c9cb97-371d-4e9f-9c20-83aba40029f7"},"vehicle_type_id":"4","last_reported":1779371590,"current_range_meters":3200,"station_id":"st_cvj5dfep6f1abm77gieg","pricing_plan_id":"cebpf4jnsgd1na2vs0mg"},{"bike_id":"9dc5cab6-2721-4de8-a96d-cb3b72979c4e","system_id":"levelo_inurba_marseille","lat":43.31698,"lon":5.40493,"is_reserved":false,"is_disabled":false,"rental_uris":{"android":"levelo://app?vid=9dc5cab6-2721-4de8-a96d-cb3b72979c4e","ios":"levelo://app?vid=9dc5cab6-2721-4de8-a96d-cb3b72979c4e"},"vehicle_type_id":"4","last_reported":1779371590,"current_range_meters":3200,"station_id":"ce4bh012rcd13ifvqd00","pricing_plan_id":"cebpf4jnsgd1na2vs0mg"},{"bike_id":"63972b21-0ebd-4348-801c-34b4439893b3","system_id":"levelo_inurba_marseille","lat":43.24379,"lon":5.37071,"is_reserved":false,"is_disabled":false,"rental_uris":{"android":"levelo://app?vid=63972b21-0ebd-4348-801c-34b4439893b3","ios":"levelo://app?vid=63972b21-0ebd-4348-801c-34b4439893b3"},"vehicle_type_id":"4","last_reported":1779371590,"current_range_meters":3200,"station_id":"ce4bhhh2rcd13ifvqfk0","pricing_plan_id":"cebpf4jnsgd1na2vs0mg"},{"bike_id":"cc85319f-10f9-4eae-9175-4e159988aa01","system_id":"levelo_inurba_marseille","lat":43.29195,"lon":5.35815,"is_reserved":false,"is_disabled":false,"rental_uris":{"android":"levelo://app?vid=cc85319f-10f9-4eae-9175-4e159988aa01","ios":"levelo://app?vid=cc85319f-10f9-4eae-9175-4e159988aa01"},"vehicle_type_id":"4","last_reported":1779371590,"current_range_meters":3200,"station_id":"ce4bhb12rcd13ifvqel0","pricing_plan_id":"cebpf4jnsgd1na2vs0mg"},{"bike_id":"53f22e93-2d9a-4f8d-a294-9fcbf0747afe","system_id":"levelo_inurba_marseille","lat":43.29607,"lon":5.38111,"is_reserved":false,"is_disabled":false,"rental_uris":{"android":"levelo://app?vid=53f22e93-2d9a-4f8d-a294-9fcbf0747afe","ios":"levelo://app?vid=53f22e93-2d9a-4f8d-a294-9fcbf0747afe"},"vehicle_type_id":"4","last_reported":1779371590,"current_range_meters":3200,"station_id":"ce4bgl12rcd13ifvqbo0","pricing_plan_id":"cebpf4jnsgd1na2vs0mg"},{"bike_id":"b3755ffd-d1e9-4d57-9a2f-75ad9c176bb4","system_id":"levelo_inurba_marseille","lat":43.28611,"lon":5.39875,"is_reserved":false,"is_disabled":false,"rental_uris":{"android":"levelo://app?vid=b3755ffd-d1e9-4d57-9a2f-75ad9c176bb4","ios":"levelo://app?vid=b3755ffd-d1e9-4d57-9a2f-75ad9c176bb4"},"vehicle_type_id":"4","last_reported":1779371590,"current_range_meters":3200,"station_id":"st_d4a7ka997mjs738ck50g","pricing_plan_id":"cebpf4jnsgd1na2vs0mg"},{"bike_id":"7152a028-215c-469b-9d4e-4ceb4b0a05b5","system_id":"levelo_inurba_marseille","lat":43.27309,"lon":5.39084,"is_reserved":false,"is_disabled":false,"rental_uris":{"android":"levelo://app?vid=7152a028-215c-469b-9d4e-4ceb4b0a05b5","ios":"levelo://app?vid=7152a028-215c-469b-9d4e-4ceb4b0a05b5"},"vehicle_type_id":"4","last_reported":1779371590,"current_range_meters":3200,"station_id":"ce4bhgp2rcd13ifvqfe0","pricing_plan_id":"cebpf4jnsgd1na2vs0mg"},{"bike_id":"1945c429-a6b3-4afe-8b4e-c989148ef8b4","system_id":"levelo_inurba_marseille","lat":43.28642,"lon":5.37786,"is_reserved":false,"is_disabled":false,"rental_uris":{"android":"levelo://app?vid=1945c429-a6b3-4afe-8b4e-c989148ef8b4","ios":"levelo://app?vid=1945c429-a6b3-4afe-8b4e-c989148ef8b4"},"vehicle_type_id":"4","last_reported":1779371590,"current_range_meters":3200,"station_id":"","pricing_plan_id":"cebpf4jnsgd1na2vs0mg"},{"bike_id":"33f03feb-5a9a-4aef-9050-eb913c6351c7","system_id":"levelo_inurba_marseille","lat":43.22928,"lon":5.35376,"is_reserved":false,"is_disabled":true,"rental_uris":{"android":"levelo://app?vid=33f03feb-5a9a-4aef-9050-eb913c6351c7","ios":"levelo://app?vid=33f03feb-5a9a-4aef-9050-eb913c6351c7"},"vehicle_type_id":"4","last_reported":1779371590,"current_range_meters":3600,"station_id":"cpo3532slgdg3j2ikp40","pricing_plan_id":"cebpf4jnsgd1na2vs0mg"},{"bike_id":"bb738e75-f142-46c3-a20c-9defbe4b8272","system_id":"levelo_inurba_marseille","lat":43.29073,"lon":5.37172,"is_reserved":false,"is_disabled":false,"rental_uris":{"android":"levelo://app?vid=bb738e75-f142-46c3-a20c-9defbe4b8272","ios":"levelo://app?vid=bb738e75-f142-46c3-a20c-9defbe4b8272"},"vehicle_type_id":"4","last_reported":1779371590,"current_range_meters":3600,"station_id":"ce4bh5p2rcd13ifvqe4g","pricing_plan_id":"cebpf4jnsgd1na2vs0mg"},{"bike_id":"dd5bca8d-4a0a-4bc1-8cec-b991e57c6089","system_id":"levelo_inurba_marseille","lat":43.24164,"lon":5.36405,"is_reserved":false,"is_disabled":false,"rental_uris":{"android":"levelo://app?vid=dd5bca8d-4a0a-4bc1-8cec-b991e57c6089","ios":"levelo://app?vid=dd5bca8d-4a0a-4bc1-8cec-b991e57c6089"},"vehicle_type_id":"4","last_reported":1779371590,"current_range_meters":3600,"station_id":"cpo36qri1sfpv3e86is0","pricing_plan_id":"cebpf4jnsgd1na2vs0mg"},{"bike_id":"4846a75f-65e5-4cb1-9ea9-594423e56c5a","system_id":"levelo_inurba_marseille","lat":43.30537,"lon":5.36561,"is_reserved":false,"is_disabled":false,"rental_uris":{"android":"levelo://app?vid=4846a75f-65e5-4cb1-9ea9-594423e56c5a","ios":"levelo://app?vid=4846a75f-65e5-4cb1-9ea9-594423e56c5a"},"vehicle_type_id":"4","last_reported":1779371590,"current_range_meters":3600,"station_id":"ce4bgs12rcd13ifvqcag","pricing_plan_id":"cebpf4jnsgd1na2vs0mg"},{"bike_id":"42637594-127d-45a3-aa4a-6a09e6fb853b","system_id":"levelo_inurba_marseille","lat":43.26026,"lon":5.37544,"is_reserved":false,"is_disabled":false,"rental_uris":{"android":"levelo://app?vid=42637594-127d-45a3-aa4a-6a09e6fb853b","ios":"levelo://app?vid=42637594-127d-45a3-aa4a-6a09e6fb853b"},"vehicle_type_id":"4","last_reported":1779371590,"current_range_meters":3600,"station_id":"ce4bhgh2rcd13ifvqfa0","pricing_plan_id":"cebpf4jnsgd1na2vs0mg"},{"bike_id":"edb29163-0c7b-49a9-9914-43671dd63147","system_id":"levelo_inurba_marseille","lat":43.27559,"lon":5.38427,"is_reserved":false,"is_disabled":false,"rental_uris":{"android":"levelo://app?vid=edb29163-0c7b-49a9-9914-43671dd63147","ios":"levelo://app?vid=edb29163-0c7b-49a9-9914-43671dd63147"},"vehicle_type_id":"4","last_reported":1779371590,"current_range_meters":3600,"station_id":"ce4bhh92rcd13ifvqfi0","pricing_plan_id":"cebpf4jnsgd1na2vs0mg"},{"bike_id":"ae3f6256-4787-47e8-871c-8ae96e451821","system_id":"levelo_inurba_marseille","lat":43.29717,"lon":5.377019,"is_reserved":false,"is_disabled":false,"rental_uris":{"android":"levelo://app?vid=ae3f6256-4787-47e8-871c-8ae96e451821","ios":"levelo://app?vid=ae3f6256-4787-47e8-871c-8ae96e451821"},"vehicle_type_id":"4","last_reported":1779371590,"current_range_meters":3600,"station_id":"ce4bgkh2rcd13ifvqbl0","pricing_plan_id":"cebpf4jnsgd1na2vs0mg"},{"bike_id":"165c4c6c-69a7-4bb4-a9e6-05b8e9aeb341","system_id":"levelo_inurba_marseille","lat":43.26213,"lon":5.37433,"is_reserved":false,"is_disabled":false,"rental_uris":{"android":"levelo://app?vid=165c4c6c-69a7-4bb4-a9e6-05b8e9aeb341","ios":"levelo://app?vid=165c4c6c-69a7-4bb4-a9e6-05b8e9aeb341"},"vehicle_type_id":"4","last_reported":1779371590,"current_range_meters":4000,"station_id":"ce4bhgp2rcd13ifvqfc0","pricing_plan_id":"cebpf4jnsgd1na2vs0mg"},{"bike_id":"b86de42e-fb9a-4ece-9264-c49ba92dd8db","system_id":"levelo_inurba_marseille","lat":43.29195,"lon":5.35792,"is_reserved":false,"is_disabled":false,"rental_uris":{"android":"levelo://app?vid=b86de42e-fb9a-4ece-9264-c49ba92dd8db","ios":"levelo://app?vid=b86de42e-fb9a-4ece-9264-c49ba92dd8db"},"vehicle_type_id":"4","last_reported":1779371590,"current_range_meters":4000,"station_id":"ce4bhb12rcd13ifvqel0","pricing_plan_id":"cebpf4jnsgd1na2vs0mg"},{"bike_id":"36aa6f0d-c8a5-421f-bb1a-43d21232f078","system_id":"levelo_inurba_marseille","lat":43.22549,"lon":5.41638,"is_reserved":false,"is_disabled":true,"rental_uris":{"android":"levelo://app?vid=36aa6f0d-c8a5-421f-bb1a-43d21232f078","ios":"levelo://app?vid=36aa6f0d-c8a5-421f-bb1a-43d21232f078"},"vehicle_type_id":"4","last_reported":1779371590,"current_range_meters":4000,"station_id":"st_d2o4gvlbi1j2169b742g","pricing_plan_id":"cebpf4jnsgd1na2vs0mg"},{"bike_id":"c5e693a5-5aee-4f2f-b3d3-ad6fe1a5da64","system_id":"levelo_inurba_marseille","lat":43.3246,"lon":5.36574,"is_reserved":false,"is_disabled":false,"rental_uris":{"android":"levelo://app?vid=c5e693a5-5aee-4f2f-b3d3-ad6fe1a5da64","ios":"levelo://app?vid=c5e693a5-5aee-4f2f-b3d3-ad6fe1a5da64"},"vehicle_type_id":"4","last_reported":1779371590,"current_range_meters":4000,"station_id":"ce4bhs12rcd13ifvqhvg","pricing_plan_id":"cebpf4jnsgd1na2vs0mg"},{"bike_id":"e38caa21-a14a-4197-88a1-db68aad57c56","system_id":"levelo_inurba_marseille","lat":43.28679,"lon":5.46663,"is_reserved":false,"is_disabled":false,"rental_uris":{"android":"levelo://app?vid=e38caa21-a14a-4197-88a1-db68aad57c56","ios":"levelo://app?vid=e38caa21-a14a-4197-88a1-db68aad57c56"},"vehicle_type_id":"4","last_reported":1779371590,"current_range_meters":4000,"station_id":"st_d6tc3vkotcvc738tfjhg","pricing_plan_id":"cebpf4jnsgd1na2vs0mg"},{"bike_id":"a3071a58-220a-49d7-933f-639eaa20dffd","system_id":"levelo_inurba_marseille","lat":43.28744,"lon":5.42675,"is_reserved":false,"is_disabled":false,"rental_uris":{"android":"levelo://app?vid=a3071a58-220a-49d7-933f-639eaa20dffd","ios":"levelo://app?vid=a3071a58-220a-49d7-933f-639eaa20dffd"},"vehicle_type_id":"4","last_reported":1779371590,"current_range_meters":4000,"station_id":"","pricing_plan_id":"cebpf4jnsgd1na2vs0mg"},{"bike_id":"846205ce-57c6-4202-b414-b8c33a18fe50","system_id":"levelo_inurba_marseille","lat":43.3247,"lon":5.36566,"is_reserved":false,"is_disabled":false,"rental_uris":{"android":"levelo://app?vid=846205ce-57c6-4202-b414-b8c33a18fe50","ios":"levelo://app?vid=846205ce-57c6-4202-b414-b8c33a18fe50"},"vehicle_type_id":"4","last_reported":1779371590,"current_range_meters":4000,"station_id":"ce4bhs12rcd13ifvqhvg","pricing_plan_id":"cebpf4jnsgd1na2vs0mg"},{"bike_id":"52402d1b-8148-4586-b183-c3b51622b48a","system_id":"levelo_inurba_marseille","lat":43.30212,"lon":5.39473,"is_reserved":false,"is_disabled":false,"rental_uris":{"android":"levelo://app?vid=52402d1b-8148-4586-b183-c3b51622b48a","ios":"levelo://app?vid=52402d1b-8148-4586-b183-c3b51622b48a"},"vehicle_type_id":"4","last_reported":1779371590,"current_range_meters":4000,"station_id":"ce4bh0p2rcd13ifvqd70","pricing_plan_id":"cebpf4jnsgd1na2vs0mg"},{"bike_id":"0a0cd5ef-19ec-46af-a38a-fe50172b1b56","system_id":"levelo_inurba_marseille","lat":43.29217,"lon":5.35824,"is_reserved":false,"is_disabled":false,"rental_uris":{"android":"levelo://app?vid=0a0cd5ef-19ec-46af-a38a-fe50172b1b56","ios":"levelo://app?vid=0a0cd5ef-19ec-46af-a38a-fe50172b1b56"},"vehicle_type_id":"4","last_reported":1779371590,"current_range_meters":4000,"station_id":"ce4bhb12rcd13ifvqel0","pricing_plan_id":"cebpf4jnsgd1na2vs0mg"},{"bike_id":"6e1fda61-472b-4009-9e4e-7459785c3d31","system_id":"levelo_inurba_marseille","lat":43.28716,"lon":5.37939,"is_reserved":false,"is_disabled":false,"rental_uris":{"android":"levelo://app?vid=6e1fda61-472b-4009-9e4e-7459785c3d31","ios":"levelo://app?vid=6e1fda61-472b-4009-9e4e-7459785c3d31"},"vehicle_type_id":"4","last_reported":1779371590,"current_range_meters":4000,"station_id":"ce4bh9p2rcd13ifvqec0","pricing_plan_id":"cebpf4jnsgd1na2vs0mg"},{"bike_id":"9d265091-a7d8-4293-8436-fdc26f2ca262","system_id":"levelo_inurba_marseille","lat":43.30122,"lon":5.39861,"is_reserved":false,"is_disabled":false,"rental_uris":{"android":"levelo://app?vid=9d265091-a7d8-4293-8436-fdc26f2ca262","ios":"levelo://app?vid=9d265091-a7d8-4293-8436-fdc26f2ca262"},"vehicle_type_id":"4","last_reported":1779371590,"current_range_meters":4000,"station_id":"ce4bh0h2rcd13ifvqd40","pricing_plan_id":"cebpf4jnsgd1na2vs0mg"},{"bike_id":"01395d60-850e-409e-be2c-f77bdb50e4e7","system_id":"levelo_inurba_marseille","lat":43.29995,"lon":5.37193,"is_reserved":false,"is_disabled":false,"rental_uris":{"android":"levelo://app?vid=01395d60-850e-409e-be2c-f77bdb50e4e7","ios":"levelo://app?vid=01395d60-850e-409e-be2c-f77bdb50e4e7"},"vehicle_type_id":"4","last_reported":1779371590,"current_range_meters":4000,"station_id":"ce4bgr92rcd13ifvqc7g","pricing_plan_id":"cebpf4jnsgd1na2vs0mg"},{"bike_id":"c19bfcf0-4681-43be-b550-fc45e402ccd5","system_id":"levelo_inurba_marseille","lat":43.30283,"lon":5.37302,"is_reserved":false,"is_disabled":false,"rental_uris":{"android":"levelo://app?vid=c19bfcf0-4681-43be-b550-fc45e402ccd5","ios":"levelo://app?vid=c19bfcf0-4681-43be-b550-fc45e402ccd5"},"vehicle_type_id":"4","last_reported":1779371590,"current_range_meters":4400,"station_id":"ce4bgs92rcd13ifvqcc0","pricing_plan_id":"cebpf4jnsgd1na2vs0mg"},{"bike_id":"7975b169-5677-4dff-9b59-bed9c727a531","system_id":"levelo_inurba_marseille","lat":43.31095,"lon":5.37789,"is_reserved":false,"is_disabled":true,"rental_uris":{"android":"levelo://app?vid=7975b169-5677-4dff-9b59-bed9c727a531","ios":"levelo://app?vid=7975b169-5677-4dff-9b59-bed9c727a531"},"vehicle_type_id":"4","last_reported":1779371590,"current_range_meters":4400,"station_id":"ce4bgt92rcd13ifvqcg0","pricing_plan_id":"cebpf4jnsgd1na2vs0mg"},{"bike_id":"55bc1ee6-e54f-4c4f-97f5-204f4a2419e5","system_id":"levelo_inurba_marseille","lat":43.29324,"lon":5.37179,"is_reserved":false,"is_disabled":false,"rental_uris":{"android":"levelo://app?vid=55bc1ee6-e54f-4c4f-97f5-204f4a2419e5","ios":"levelo://app?vid=55bc1ee6-e54f-4c4f-97f5-204f4a2419e5"},"vehicle_type_id":"4","last_reported":1779371590,"current_range_meters":4400,"station_id":"ce4bgh92rcd13ifvqb40","pricing_plan_id":"cebpf4jnsgd1na2vs0mg"},{"bike_id":"653698df-9134-41f1-8c69-9665a81fb78b","system_id":"levelo_inurba_marseille","lat":43.25517,"lon":5.37669,"is_reserved":false,"is_disabled":false,"rental_uris":{"android":"levelo://app?vid=653698df-9134-41f1-8c69-9665a81fb78b","ios":"levelo://app?vid=653698df-9134-41f1-8c69-9665a81fb78b"},"vehicle_type_id":"4","last_reported":1779371590,"current_range_meters":4400,"station_id":"ce4bhh12rcd13ifvqff0","pricing_plan_id":"cebpf4jnsgd1na2vs0mg"},{"bike_id":"4bfedaf7-408c-4968-8e2d-162fc39499c8","system_id":"levelo_inurba_marseille","lat":43.24796,"lon":5.37456,"is_reserved":false,"is_disabled":false,"rental_uris":{"android":"levelo://app?vid=4bfedaf7-408c-4968-8e2d-162fc39499c8","ios":"levelo://app?vid=4bfedaf7-408c-4968-8e2d-162fc39499c8"},"vehicle_type_id":"4","last_reported":1779371590,"current_range_meters":4400,"station_id":"ce4bhgh2rcd13ifvqfb0","pricing_plan_id":"cebpf4jnsgd1na2vs0mg"},{"bike_id":"d3bff9dc-f112-4ad3-a72f-55188c136a8e","system_id":"levelo_inurba_marseille","lat":43.28266,"lon":5.35074,"is_reserved":false,"is_disabled":false,"rental_uris":{"android":"levelo://app?vid=d3bff9dc-f112-4ad3-a72f-55188c136a8e","ios":"levelo://app?vid=d3bff9dc-f112-4ad3-a72f-55188c136a8e"},"vehicle_type_id":"4","last_reported":1779371590,"current_range_meters":4400,"station_id":"ce4bhbp2rcd13ifvqerg","pricing_plan_id":"cebpf4jnsgd1na2vs0mg"},{"bike_id":"cdb8fa1c-501c-41f2-b06a-392918b4ac66","system_id":"levelo_inurba_marseille","lat":43.30135,"lon":5.39874,"is_reserved":false,"is_disabled":false,"rental_uris":{"android":"levelo://app?vid=cdb8fa1c-501c-41f2-b06a-392918b4ac66","ios":"levelo://app?vid=cdb8fa1c-501c-41f2-b06a-392918b4ac66"},"vehicle_type_id":"4","last_reported":1779371590,"current_range_meters":4400,"station_id":"ce4bh0h2rcd13ifvqd40","pricing_plan_id":"cebpf4jnsgd1na2vs0mg"},{"bike_id":"29018089-b109-4f2b-a81b-3bce4945a942","system_id":"levelo_inurba_marseille","lat":43.32284,"lon":5.38288,"is_reserved":false,"is_disabled":false,"rental_uris":{"android":"levelo://app?vid=29018089-b109-4f2b-a81b-3bce4945a942","ios":"levelo://app?vid=29018089-b109-4f2b-a81b-3bce4945a942"},"vehicle_type_id":"4","last_reported":1779371590,"current_range_meters":4400,"station_id":"ce4bhr12rcd13ifvqhqg","pricing_plan_id":"cebpf4jnsgd1na2vs0mg"},{"bike_id":"4581f6a7-79e9-44cd-b96e-06f3561662b8","system_id":"levelo_inurba_marseille","lat":43.22537,"lon":5.34825,"is_reserved":false,"is_disabled":false,"rental_uris":{"android":"levelo://app?vid=4581f6a7-79e9-44cd-b96e-06f3561662b8","ios":"levelo://app?vid=4581f6a7-79e9-44cd-b96e-06f3561662b8"},"vehicle_type_id":"4","last_reported":1779371590,"current_range_meters":4400,"station_id":"st_cvj5dfep6f1abm77gieg","pricing_plan_id":"cebpf4jnsgd1na2vs0mg"},{"bike_id":"d1e79f02-14eb-4cde-bd38-1f48eefb3b51","system_id":"levelo_inurba_marseille","lat":43.29034,"lon":5.37568,"is_reserved":false,"is_disabled":false,"rental_uris":{"android":"levelo://app?vid=d1e79f02-14eb-4cde-bd38-1f48eefb3b51","ios":"levelo://app?vid=d1e79f02-14eb-4cde-bd38-1f48eefb3b51"},"vehicle_type_id":"4","last_reported":1779371590,"current_range_meters":4400,"station_id":"ce4bh692rcd13ifvqe90","pricing_plan_id":"cebpf4jnsgd1na2vs0mg"},{"bike_id":"b16d6a23-a64f-46c8-8569-a75281fb384f","system_id":"levelo_inurba_marseille","lat":43.29906,"lon":5.38144,"is_reserved":false,"is_disabled":false,"rental_uris":{"android":"levelo://app?vid=b16d6a23-a64f-46c8-8569-a75281fb384f","ios":"levelo://app?vid=b16d6a23-a64f-46c8-8569-a75281fb384f"},"vehicle_type_id":"4","last_reported":1779371590,"current_range_meters":4400,"station_id":"ce4bgj12rcd13ifvqbc0","pricing_plan_id":"cebpf4jnsgd1na2vs0mg"},{"bike_id":"75e2c68f-638a-4ae2-bede-4f34839c38af","system_id":"levelo_inurba_marseille","lat":43.32114,"lon":5.36839,"is_reserved":false,"is_disabled":false,"rental_uris":{"android":"levelo://app?vid=75e2c68f-638a-4ae2-bede-4f34839c38af","ios":"levelo://app?vid=75e2c68f-638a-4ae2-bede-4f34839c38af"},"vehicle_type_id":"4","last_reported":1779371590,"current_range_meters":4800,"station_id":"","pricing_plan_id":"cebpf4jnsgd1na2vs0mg"},{"bike_id":"3a3668e6-e593-4e6f-a500-647475f8ab60","system_id":"levelo_inurba_marseille","lat":43.288565,"lon":5.358596,"is_reserved":false,"is_disabled":false,"rental_uris":{"android":"levelo://app?vid=3a3668e6-e593-4e6f-a500-647475f8ab60","ios":"levelo://app?vid=3a3668e6-e593-4e6f-a500-647475f8ab60"},"vehicle_type_id":"4","last_reported":1779371590,"current_range_meters":4800,"station_id":"ce4bhb12rcd13ifvqem0","pricing_plan_id":"cebpf4jnsgd1na2vs0mg"},{"bike_id":"282c9669-7dad-469f-b087-8dbbc861bbc4","system_id":"levelo_inurba_marseille","lat":43.274223,"lon":5.394069,"is_reserved":false,"is_disabled":true,"rental_uris":{"android":"levelo://app?vid=282c9669-7dad-469f-b087-8dbbc861bbc4","ios":"levelo://app?vid=282c9669-7dad-469f-b087-8dbbc861bbc4"},"vehicle_type_id":"4","last_reported":1779371590,"current_range_meters":4800,"station_id":"ce4bhdp2rcd13ifvqf20","pricing_plan_id":"cebpf4jnsgd1na2vs0mg"},{"bike_id":"018bc1b8-394d-4284-aee9-f1a543d506c1","system_id":"levelo_inurba_marseille","lat":43.26557,"lon":5.37296,"is_reserved":false,"is_disabled":false,"rental_uris":{"android":"levelo://app?vid=018bc1b8-394d-4284-aee9-f1a543d506c1","ios":"levelo://app?vid=018bc1b8-394d-4284-aee9-f1a543d506c1"},"vehicle_type_id":"4","last_reported":1779371590,"current_range_meters":4800,"station_id":"ce4bhg12rcd13ifvqf70","pricing_plan_id":"cebpf4jnsgd1na2vs0mg"},{"bike_id":"381a1687-3b4c-4e43-ada7-0b296f458493","system_id":"levelo_inurba_marseille","lat":43.28745,"lon":5.46697,"is_reserved":false,"is_disabled":false,"rental_uris":{"android":"levelo://app?vid=381a1687-3b4c-4e43-ada7-0b296f458493","ios":"levelo://app?vid=381a1687-3b4c-4e43-ada7-0b296f458493"},"vehicle_type_id":"4","last_reported":1779371590,"current_range_meters":4800,"station_id":"","pricing_plan_id":"cebpf4jnsgd1na2vs0mg"},{"bike_id":"b60bb7de-d199-49fc-9adb-8636094cf866","system_id":"levelo_inurba_marseille","lat":43.285737,"lon":5.394997,"is_reserved":false,"is_disabled":false,"rental_uris":{"android":"levelo://app?vid=b60bb7de-d199-49fc-9adb-8636094cf866","ios":"levelo://app?vid=b60bb7de-d199-49fc-9adb-8636094cf866"},"vehicle_type_id":"4","last_reported":1779371590,"current_range_meters":4800,"station_id":"ce4bh292rcd13ifvqdg0","pricing_plan_id":"cebpf4jnsgd1na2vs0mg"},{"bike_id":"2f07cee4-f00b-40cc-8d51-00b8a29e58c5","system_id":"levelo_inurba_marseille","lat":43.279233,"lon":5.396011,"is_reserved":false,"is_disabled":false,"rental_uris":{"android":"levelo://app?vid=2f07cee4-f00b-40cc-8d51-00b8a29e58c5","ios":"levelo://app?vid=2f07cee4-f00b-40cc-8d51-00b8a29e58c5"},"vehicle_type_id":"4","last_reported":1779371590,"current_range_meters":4800,"station_id":"ce4bhl12rcd13ifvqgf0","pricing_plan_id":"cebpf4jnsgd1na2vs0mg"},{"bike_id":"924fb5a7-6478-4e31-9ad7-34a2292df595","system_id":"levelo_inurba_marseille","lat":43.28478,"lon":5.43753,"is_reserved":false,"is_disabled":false,"rental_uris":{"android":"levelo://app?vid=924fb5a7-6478-4e31-9ad7-34a2292df595","ios":"levelo://app?vid=924fb5a7-6478-4e31-9ad7-34a2292df595"},"vehicle_type_id":"4","last_reported":1779371590,"current_range_meters":4800,"station_id":"","pricing_plan_id":"cebpf4jnsgd1na2vs0mg"},{"bike_id":"50bb82dd-f475-4f5a-8a1d-2396906687a3","system_id":"levelo_inurba_marseille","lat":43.27317,"lon":5.39074,"is_reserved":false,"is_disabled":false,"rental_uris":{"android":"levelo://app?vid=50bb82dd-f475-4f5a-8a1d-2396906687a3","ios":"levelo://app?vid=50bb82dd-f475-4f5a-8a1d-2396906687a3"},"vehicle_type_id":"4","last_reported":1779371590,"current_range_meters":4800,"station_id":"ce4bhgp2rcd13ifvqfe0","pricing_plan_id":"cebpf4jnsgd1na2vs0mg"},{"bike_id":"9c7b01cb-3130-4dfa-9e9d-1b3fbc0bd680","system_id":"levelo_inurba_marseille","lat":43.24964,"lon":5.40504,"is_reserved":false,"is_disabled":false,"rental_uris":{"android":"levelo://app?vid=9c7b01cb-3130-4dfa-9e9d-1b3fbc0bd680","ios":"levelo://app?vid=9c7b01cb-3130-4dfa-9e9d-1b3fbc0bd680"},"vehicle_type_id":"4","last_reported":1779371590,"current_range_meters":4800,"station_id":"st_d2ngiaodas8pm72gd1h0","pricing_plan_id":"cebpf4jnsgd1na2vs0mg"},{"bike_id":"9f50dbee-8ab4-491b-854b-17831be25055","system_id":"levelo_inurba_marseille","lat":43.3121,"lon":5.36864,"is_reserved":false,"is_disabled":false,"rental_uris":{"android":"levelo://app?vid=9f50dbee-8ab4-491b-854b-17831be25055","ios":"levelo://app?vid=9f50dbee-8ab4-491b-854b-17831be25055"},"vehicle_type_id":"4","last_reported":1779371590,"current_range_meters":4800,"station_id":"ce4bgl92rcd13ifvqbq0","pricing_plan_id":"cebpf4jnsgd1na2vs0mg"},{"bike_id":"5b2a581a-ec1c-4cbe-ba39-04ebd8922ba0","system_id":"levelo_inurba_marseille","lat":43.28335,"lon":5.40261,"is_reserved":false,"is_disabled":false,"rental_uris":{"android":"levelo://app?vid=5b2a581a-ec1c-4cbe-ba39-04ebd8922ba0","ios":"levelo://app?vid=5b2a581a-ec1c-4cbe-ba39-04ebd8922ba0"},"vehicle_type_id":"4","last_reported":1779371590,"current_range_meters":4800,"station_id":"","pricing_plan_id":"cebpf4jnsgd1na2vs0mg"},{"bike_id":"8c39b6dd-b754-48e2-823c-6f28d51803e0","system_id":"levelo_inurba_marseille","lat":43.29276,"lon":5.39804,"is_reserved":false,"is_disabled":false,"rental_uris":{"android":"levelo://app?vid=8c39b6dd-b754-48e2-823c-6f28d51803e0","ios":"levelo://app?vid=8c39b6dd-b754-48e2-823c-6f28d51803e0"},"vehicle_type_id":"4","last_reported":1779371590,"current_range_meters":4800,"station_id":"","pricing_plan_id":"cebpf4jnsgd1na2vs0mg"},{"bike_id":"5a3c9c7c-5bd1-4618-aa77-9374665aa8a7","system_id":"levelo_inurba_marseille","lat":43.27204,"lon":5.39178,"is_reserved":false,"is_disabled":false,"rental_uris":{"android":"levelo://app?vid=5a3c9c7c-5bd1-4618-aa77-9374665aa8a7","ios":"levelo://app?vid=5a3c9c7c-5bd1-4618-aa77-9374665aa8a7"},"vehicle_type_id":"4","last_reported":1779371590,"current_range_meters":5600,"station_id":"ce4bhhp2rcd13ifvqfm0","pricing_plan_id":"cebpf4jnsgd1na2vs0mg"},{"bike_id":"f290376a-1210-44fa-ad73-d4a19d289169","system_id":"levelo_inurba_marseille","lat":43.30433,"lon":5.38908,"is_reserved":false,"is_disabled":true,"rental_uris":{"android":"levelo://app?vid=f290376a-1210-44fa-ad73-d4a19d289169","ios":"levelo://app?vid=f290376a-1210-44fa-ad73-d4a19d289169"},"vehicle_type_id":"4","last_reported":1779371590,"current_range_meters":5600,"station_id":"ce4bgk12rcd13ifvqbi0","pricing_plan_id":"cebpf4jnsgd1na2vs0mg"},{"bike_id":"53b94c13-a445-4a15-bcdb-70bae4d9adc4","system_id":"levelo_inurba_marseille","lat":43.30235,"lon":5.39479,"is_reserved":false,"is_disabled":false,"rental_uris":{"android":"levelo://app?vid=53b94c13-a445-4a15-bcdb-70bae4d9adc4","ios":"levelo://app?vid=53b94c13-a445-4a15-bcdb-70bae4d9adc4"},"vehicle_type_id":"4","last_reported":1779371590,"current_range_meters":5600,"station_id":"ce4bh0p2rcd13ifvqd70","pricing_plan_id":"cebpf4jnsgd1na2vs0mg"},{"bike_id":"cdea3a3f-ad21-4609-8ff7-db1e94c68a25","system_id":"levelo_inurba_marseille","lat":43.21754,"lon":5.34609,"is_reserved":false,"is_disabled":false,"rental_uris":{"android":"levelo://app?vid=cdea3a3f-ad21-4609-8ff7-db1e94c68a25","ios":"levelo://app?vid=cdea3a3f-ad21-4609-8ff7-db1e94c68a25"},"vehicle_type_id":"4","last_reported":1779371590,"current_range_meters":5600,"station_id":"st_cvj6r9ubvosntc0bgbag","pricing_plan_id":"cebpf4jnsgd1na2vs0mg"},{"bike_id":"86a0fb52-613b-4a6c-942d-1abbde400b19","system_id":"levelo_inurba_marseille","lat":43.28438,"lon":5.34974,"is_reserved":false,"is_disabled":true,"rental_uris":{"android":"levelo://app?vid=86a0fb52-613b-4a6c-942d-1abbde400b19","ios":"levelo://app?vid=86a0fb52-613b-4a6c-942d-1abbde400b19"},"vehicle_type_id":"4","last_reported":1779371590,"current_range_meters":5600,"station_id":"ce4bhbh2rcd13ifvqepg","pricing_plan_id":"cebpf4jnsgd1na2vs0mg"},{"bike_id":"3a8bf2dd-1d04-4ee7-9d7d-732a70692881","system_id":"levelo_inurba_marseille","lat":43.30898,"lon":5.36872,"is_reserved":false,"is_disabled":false,"rental_uris":{"android":"levelo://app?vid=3a8bf2dd-1d04-4ee7-9d7d-732a70692881","ios":"levelo://app?vid=3a8bf2dd-1d04-4ee7-9d7d-732a70692881"},"vehicle_type_id":"4","last_reported":1779371590,"current_range_meters":5600,"station_id":"ce4bgn92rcd13ifvqbvg","pricing_plan_id":"cebpf4jnsgd1na2vs0mg"},{"bike_id":"1e79d12b-04a1-4a11-9b2c-8ef6f8b8b2cf","system_id":"levelo_inurba_marseille","lat":43.30121,"lon":5.39867,"is_reserved":false,"is_disabled":true,"rental_uris":{"android":"levelo://app?vid=1e79d12b-04a1-4a11-9b2c-8ef6f8b8b2cf","ios":"levelo://app?vid=1e79d12b-04a1-4a11-9b2c-8ef6f8b8b2cf"},"vehicle_type_id":"4","last_reported":1779371590,"current_range_meters":5600,"station_id":"ce4bh0h2rcd13ifvqd40","pricing_plan_id":"cebpf4jnsgd1na2vs0mg"},{"bike_id":"7974117d-bdb4-47e4-95bd-6f320673d725","system_id":"levelo_inurba_marseille","lat":43.22534,"lon":5.34833,"is_reserved":false,"is_disabled":false,"rental_uris":{"android":"levelo://app?vid=7974117d-bdb4-47e4-95bd-6f320673d725","ios":"levelo://app?vid=7974117d-bdb4-47e4-95bd-6f320673d725"},"vehicle_type_id":"4","last_reported":1779371590,"current_range_meters":5600,"station_id":"st_cvj5dfep6f1abm77gieg","pricing_plan_id":"cebpf4jnsgd1na2vs0mg"},{"bike_id":"03ba7e76-f37d-4967-991d-c44e06da61e2","system_id":"levelo_inurba_marseille","lat":43.2807,"lon":5.39659,"is_reserved":false,"is_disabled":false,"rental_uris":{"android":"levelo://app?vid=03ba7e76-f37d-4967-991d-c44e06da61e2","ios":"levelo://app?vid=03ba7e76-f37d-4967-991d-c44e06da61e2"},"vehicle_type_id":"4","last_reported":1779371590,"current_range_meters":5600,"station_id":"ce4bho12rcd13ifvqh2g","pricing_plan_id":"cebpf4jnsgd1na2vs0mg"},{"bike_id":"bdb8ea9e-f317-4a97-aecb-97370038e137","system_id":"levelo_inurba_marseille","lat":43.31078,"lon":5.42428,"is_reserved":false,"is_disabled":false,"rental_uris":{"android":"levelo://app?vid=bdb8ea9e-f317-4a97-aecb-97370038e137","ios":"levelo://app?vid=bdb8ea9e-f317-4a97-aecb-97370038e137"},"vehicle_type_id":"4","last_reported":1779371590,"current_range_meters":5600,"station_id":"ce4bhp92rcd13ifvqhag","pricing_plan_id":"cebpf4jnsgd1na2vs0mg"},{"bike_id":"85aa7030-1d2d-4efc-851d-09155d499f3c","system_id":"levelo_inurba_marseille","lat":43.31971,"lon":5.40961,"is_reserved":false,"is_disabled":false,"rental_uris":{"android":"levelo://app?vid=85aa7030-1d2d-4efc-851d-09155d499f3c","ios":"levelo://app?vid=85aa7030-1d2d-4efc-851d-09155d499f3c"},"vehicle_type_id":"4","last_reported":1779371590,"current_range_meters":5600,"station_id":"","pricing_plan_id":"cebpf4jnsgd1na2vs0mg"},{"bike_id":"1757b586-6c96-4dde-9db6-7ce7d31e68a2","system_id":"levelo_inurba_marseille","lat":43.30951,"lon":5.36796,"is_reserved":false,"is_disabled":false,"rental_uris":{"android":"levelo://app?vid=1757b586-6c96-4dde-9db6-7ce7d31e68a2","ios":"levelo://app?vid=1757b586-6c96-4dde-9db6-7ce7d31e68a2"},"vehicle_type_id":"4","last_reported":1779371590,"current_range_meters":5600,"station_id":"","pricing_plan_id":"cebpf4jnsgd1na2vs0mg"},{"bike_id":"6d9544a2-c8c9-4a5e-b8ac-a0123b22f428","system_id":"levelo_inurba_marseille","lat":43.3042,"lon":5.41292,"is_reserved":false,"is_disabled":false,"rental_uris":{"android":"levelo://app?vid=6d9544a2-c8c9-4a5e-b8ac-a0123b22f428","ios":"levelo://app?vid=6d9544a2-c8c9-4a5e-b8ac-a0123b22f428"},"vehicle_type_id":"4","last_reported":1779371590,"current_range_meters":5600,"station_id":"ce4bhop2rcd13ifvqh8g","pricing_plan_id":"cebpf4jnsgd1na2vs0mg"},{"bike_id":"ddf8612e-de52-4d14-8474-b4b14bb1dd79","system_id":"levelo_inurba_marseille","lat":43.2738,"lon":5.36263,"is_reserved":false,"is_disabled":false,"rental_uris":{"android":"levelo://app?vid=ddf8612e-de52-4d14-8474-b4b14bb1dd79","ios":"levelo://app?vid=ddf8612e-de52-4d14-8474-b4b14bb1dd79"},"vehicle_type_id":"4","last_reported":1779371590,"current_range_meters":5600,"station_id":"ce4bhbh2rcd13ifvqeo0","pricing_plan_id":"cebpf4jnsgd1na2vs0mg"},{"bike_id":"c3ffcc5b-f6ff-444d-813e-ec51eef9009c","system_id":"levelo_inurba_marseille","lat":43.30135,"lon":5.37415,"is_reserved":false,"is_disabled":false,"rental_uris":{"android":"levelo://app?vid=c3ffcc5b-f6ff-444d-813e-ec51eef9009c","ios":"levelo://app?vid=c3ffcc5b-f6ff-444d-813e-ec51eef9009c"},"vehicle_type_id":"4","last_reported":1779371590,"current_range_meters":5600,"station_id":"ce4bgs92rcd13ifvqcc0","pricing_plan_id":"cebpf4jnsgd1na2vs0mg"},{"bike_id":"4a539b4d-76ab-4538-aab0-b937fb417564","system_id":"levelo_inurba_marseille","lat":43.30521,"lon":5.36743,"is_reserved":false,"is_disabled":false,"rental_uris":{"android":"levelo://app?vid=4a539b4d-76ab-4538-aab0-b937fb417564","ios":"levelo://app?vid=4a539b4d-76ab-4538-aab0-b937fb417564"},"vehicle_type_id":"4","last_reported":1779371590,"current_range_meters":6000,"station_id":"ce4bgrp2rcd13ifvqc9g","pricing_plan_id":"cebpf4jnsgd1na2vs0mg"},{"bike_id":"b3c58742-0569-4988-8f74-9982023b97a6","system_id":"levelo_inurba_marseille","lat":43.31903,"lon":5.36799,"is_reserved":false,"is_disabled":false,"rental_uris":{"android":"levelo://app?vid=b3c58742-0569-4988-8f74-9982023b97a6","ios":"levelo://app?vid=b3c58742-0569-4988-8f74-9982023b97a6"},"vehicle_type_id":"4","last_reported":1779371590,"current_range_meters":6000,"station_id":"st_d6o2h0d0559c73evc1b0","pricing_plan_id":"cebpf4jnsgd1na2vs0mg"},{"bike_id":"e339a416-b9b3-491e-bc54-e0a8ef4b0934","system_id":"levelo_inurba_marseille","lat":43.26222,"lon":5.40453,"is_reserved":false,"is_disabled":false,"rental_uris":{"android":"levelo://app?vid=e339a416-b9b3-491e-bc54-e0a8ef4b0934","ios":"levelo://app?vid=e339a416-b9b3-491e-bc54-e0a8ef4b0934"},"vehicle_type_id":"4","last_reported":1779371590,"current_range_meters":6000,"station_id":"ce4bhmh2rcd13ifvqgmg","pricing_plan_id":"cebpf4jnsgd1na2vs0mg"},{"bike_id":"c7b2d03c-c87d-440d-ab91-7475582589d4","system_id":"levelo_inurba_marseille","lat":43.27313,"lon":5.39107,"is_reserved":false,"is_disabled":false,"rental_uris":{"android":"levelo://app?vid=c7b2d03c-c87d-440d-ab91-7475582589d4","ios":"levelo://app?vid=c7b2d03c-c87d-440d-ab91-7475582589d4"},"vehicle_type_id":"4","last_reported":1779371590,"current_range_meters":6000,"station_id":"ce4bhgp2rcd13ifvqfe0","pricing_plan_id":"cebpf4jnsgd1na2vs0mg"},{"bike_id":"a5776fe6-de52-4d3a-9bff-2d8ddaaadc45","system_id":"levelo_inurba_marseille","lat":43.30533,"lon":5.36719,"is_reserved":false,"is_disabled":false,"rental_uris":{"android":"levelo://app?vid=a5776fe6-de52-4d3a-9bff-2d8ddaaadc45","ios":"levelo://app?vid=a5776fe6-de52-4d3a-9bff-2d8ddaaadc45"},"vehicle_type_id":"4","last_reported":1779371590,"current_range_meters":6000,"station_id":"ce4bgrp2rcd13ifvqc9g","pricing_plan_id":"cebpf4jnsgd1na2vs0mg"},{"bike_id":"15a8d13c-fc9e-4e13-9398-c1cbd662c288","system_id":"levelo_inurba_marseille","lat":43.29655,"lon":5.38561,"is_reserved":false,"is_disabled":false,"rental_uris":{"android":"levelo://app?vid=15a8d13c-fc9e-4e13-9398-c1cbd662c288","ios":"levelo://app?vid=15a8d13c-fc9e-4e13-9398-c1cbd662c288"},"vehicle_type_id":"4","last_reported":1779371590,"current_range_meters":6000,"station_id":"","pricing_plan_id":"cebpf4jnsgd1na2vs0mg"},{"bike_id":"54ebc614-4655-4582-83f2-3a009523bce0","system_id":"levelo_inurba_marseille","lat":43.25503,"lon":5.37647,"is_reserved":false,"is_disabled":false,"rental_uris":{"android":"levelo://app?vid=54ebc614-4655-4582-83f2-3a009523bce0","ios":"levelo://app?vid=54ebc614-4655-4582-83f2-3a009523bce0"},"vehicle_type_id":"4","last_reported":1779371590,"current_range_meters":6000,"station_id":"ce4bhh12rcd13ifvqff0","pricing_plan_id":"cebpf4jnsgd1na2vs0mg"},{"bike_id":"6390518e-da83-4215-a8dc-33b4b680ab62","system_id":"levelo_inurba_marseille","lat":43.28625,"lon":5.35087,"is_reserved":false,"is_disabled":false,"rental_uris":{"android":"levelo://app?vid=6390518e-da83-4215-a8dc-33b4b680ab62","ios":"levelo://app?vid=6390518e-da83-4215-a8dc-33b4b680ab62"},"vehicle_type_id":"4","last_reported":1779371590,"current_range_meters":6000,"station_id":"ce4bhch2rcd13ifvqeug","pricing_plan_id":"cebpf4jnsgd1na2vs0mg"},{"bike_id":"aad75fce-f297-4a66-8546-74ab6bfcd851","system_id":"levelo_inurba_marseille","lat":43.24167,"lon":5.36404,"is_reserved":false,"is_disabled":false,"rental_uris":{"android":"levelo://app?vid=aad75fce-f297-4a66-8546-74ab6bfcd851","ios":"levelo://app?vid=aad75fce-f297-4a66-8546-74ab6bfcd851"},"vehicle_type_id":"4","last_reported":1779371590,"current_range_meters":6000,"station_id":"cpo36qri1sfpv3e86is0","pricing_plan_id":"cebpf4jnsgd1na2vs0mg"},{"bike_id":"87200835-5efb-4b01-9c1f-27877605e41b","system_id":"levelo_inurba_marseille","lat":43.28157,"lon":5.42632,"is_reserved":false,"is_disabled":false,"rental_uris":{"android":"levelo://app?vid=87200835-5efb-4b01-9c1f-27877605e41b","ios":"levelo://app?vid=87200835-5efb-4b01-9c1f-27877605e41b"},"vehicle_type_id":"4","last_reported":1779371590,"current_range_meters":6000,"station_id":"ce4bhnh2rcd13ifvqgug","pricing_plan_id":"cebpf4jnsgd1na2vs0mg"},{"bike_id":"f3c0ba14-24e6-4ed2-b2e7-b7a2ed642d59","system_id":"levelo_inurba_marseille","lat":43.2656,"lon":5.39005,"is_reserved":false,"is_disabled":false,"rental_uris":{"android":"levelo://app?vid=f3c0ba14-24e6-4ed2-b2e7-b7a2ed642d59","ios":"levelo://app?vid=f3c0ba14-24e6-4ed2-b2e7-b7a2ed642d59"},"vehicle_type_id":"4","last_reported":1779371590,"current_range_meters":6000,"station_id":"ce4bhe12rcd13ifvqf30","pricing_plan_id":"cebpf4jnsgd1na2vs0mg"},{"bike_id":"0b9fb95c-cf6b-4ed5-8bf4-759fc5a571cc","system_id":"levelo_inurba_marseille","lat":43.26857,"lon":5.40671,"is_reserved":false,"is_disabled":false,"rental_uris":{"android":"levelo://app?vid=0b9fb95c-cf6b-4ed5-8bf4-759fc5a571cc","ios":"levelo://app?vid=0b9fb95c-cf6b-4ed5-8bf4-759fc5a571cc"},"vehicle_type_id":"4","last_reported":1779371590,"current_range_meters":6000,"station_id":"","pricing_plan_id":"cebpf4jnsgd1na2vs0mg"},{"bike_id":"925e7bd3-a475-409f-af3d-436991d53286","system_id":"levelo_inurba_marseille","lat":43.21746,"lon":5.34595,"is_reserved":false,"is_disabled":false,"rental_uris":{"android":"levelo://app?vid=925e7bd3-a475-409f-af3d-436991d53286","ios":"levelo://app?vid=925e7bd3-a475-409f-af3d-436991d53286"},"vehicle_type_id":"4","last_reported":1779371590,"current_range_meters":6400,"station_id":"st_cvj6r9ubvosntc0bgbag","pricing_plan_id":"cebpf4jnsgd1na2vs0mg"},{"bike_id":"94c49980-82e9-40c1-8742-79af726fe66b","system_id":"levelo_inurba_marseille","lat":43.29881,"lon":5.42101,"is_reserved":false,"is_disabled":false,"rental_uris":{"android":"levelo://app?vid=94c49980-82e9-40c1-8742-79af726fe66b","ios":"levelo://app?vid=94c49980-82e9-40c1-8742-79af726fe66b"},"vehicle_type_id":"4","last_reported":1779371590,"current_range_meters":6400,"station_id":"st_d6tc004otcvc738tfe70","pricing_plan_id":"cebpf4jnsgd1na2vs0mg"},{"bike_id":"1793b015-7617-4cb1-8e75-b4308220d0ce","system_id":"levelo_inurba_marseille","lat":43.305883,"lon":5.39357,"is_reserved":false,"is_disabled":false,"rental_uris":{"android":"levelo://app?vid=1793b015-7617-4cb1-8e75-b4308220d0ce","ios":"levelo://app?vid=1793b015-7617-4cb1-8e75-b4308220d0ce"},"vehicle_type_id":"4","last_reported":1779371590,"current_range_meters":6400,"station_id":"ce4bh0p2rcd13ifvqd80","pricing_plan_id":"cebpf4jnsgd1na2vs0mg"},{"bike_id":"5ba6423e-3255-44a1-bae8-4b7fbec233ab","system_id":"levelo_inurba_marseille","lat":43.26548,"lon":5.37317,"is_reserved":false,"is_disabled":false,"rental_uris":{"android":"levelo://app?vid=5ba6423e-3255-44a1-bae8-4b7fbec233ab","ios":"levelo://app?vid=5ba6423e-3255-44a1-bae8-4b7fbec233ab"},"vehicle_type_id":"4","last_reported":1779371590,"current_range_meters":6400,"station_id":"ce4bhg12rcd13ifvqf70","pricing_plan_id":"cebpf4jnsgd1na2vs0mg"},{"bike_id":"7cd65206-8657-4493-8ce0-894eb96e2536","system_id":"levelo_inurba_marseille","lat":43.28266,"lon":5.35087,"is_reserved":false,"is_disabled":false,"rental_uris":{"android":"levelo://app?vid=7cd65206-8657-4493-8ce0-894eb96e2536","ios":"levelo://app?vid=7cd65206-8657-4493-8ce0-894eb96e2536"},"vehicle_type_id":"4","last_reported":1779371590,"current_range_meters":6400,"station_id":"ce4bhbp2rcd13ifvqerg","pricing_plan_id":"cebpf4jnsgd1na2vs0mg"},{"bike_id":"d4286f35-115f-4a78-941f-d274767837d3","system_id":"levelo_inurba_marseille","lat":43.29063,"lon":5.37161,"is_reserved":false,"is_disabled":false,"rental_uris":{"android":"levelo://app?vid=d4286f35-115f-4a78-941f-d274767837d3","ios":"levelo://app?vid=d4286f35-115f-4a78-941f-d274767837d3"},"vehicle_type_id":"4","last_reported":1779371590,"current_range_meters":6400,"station_id":"ce4bh5p2rcd13ifvqe4g","pricing_plan_id":"cebpf4jnsgd1na2vs0mg"},{"bike_id":"10a6ad89-90b3-4175-8560-8712ab5583af","system_id":"levelo_inurba_marseille","lat":43.30135,"lon":5.37414,"is_reserved":false,"is_disabled":false,"rental_uris":{"android":"levelo://app?vid=10a6ad89-90b3-4175-8560-8712ab5583af","ios":"levelo://app?vid=10a6ad89-90b3-4175-8560-8712ab5583af"},"vehicle_type_id":"4","last_reported":1779371590,"current_range_meters":6400,"station_id":"ce4bgs92rcd13ifvqcc0","pricing_plan_id":"cebpf4jnsgd1na2vs0mg"},{"bike_id":"e7b2834d-0414-4c8b-95bb-dbeba87a5cba","system_id":"levelo_inurba_marseille","lat":43.32928,"lon":5.38936,"is_reserved":false,"is_disabled":false,"rental_uris":{"android":"levelo://app?vid=e7b2834d-0414-4c8b-95bb-dbeba87a5cba","ios":"levelo://app?vid=e7b2834d-0414-4c8b-95bb-dbeba87a5cba"},"vehicle_type_id":"4","last_reported":1779371590,"current_range_meters":6400,"station_id":"","pricing_plan_id":"cebpf4jnsgd1na2vs0mg"},{"bike_id":"5aee5052-f82b-48a3-9797-313893695311","system_id":"levelo_inurba_marseille","lat":43.28433,"lon":5.34976,"is_reserved":false,"is_disabled":false,"rental_uris":{"android":"levelo://app?vid=5aee5052-f82b-48a3-9797-313893695311","ios":"levelo://app?vid=5aee5052-f82b-48a3-9797-313893695311"},"vehicle_type_id":"4","last_reported":1779371590,"current_range_meters":6400,"station_id":"ce4bhbh2rcd13ifvqepg","pricing_plan_id":"cebpf4jnsgd1na2vs0mg"},{"bike_id":"d99887aa-5dde-421c-b419-4b79dff031d4","system_id":"levelo_inurba_marseille","lat":43.24164,"lon":5.36391,"is_reserved":false,"is_disabled":false,"rental_uris":{"android":"levelo://app?vid=d99887aa-5dde-421c-b419-4b79dff031d4","ios":"levelo://app?vid=d99887aa-5dde-421c-b419-4b79dff031d4"},"vehicle_type_id":"4","last_reported":1779371590,"current_range_meters":6400,"station_id":"cpo36qri1sfpv3e86is0","pricing_plan_id":"cebpf4jnsgd1na2vs0mg"},{"bike_id":"9589aa63-7b36-4f56-9fe5-b2444024e80e","system_id":"levelo_inurba_marseille","lat":43.24655,"lon":5.38158,"is_reserved":false,"is_disabled":false,"rental_uris":{"android":"levelo://app?vid=9589aa63-7b36-4f56-9fe5-b2444024e80e","ios":"levelo://app?vid=9589aa63-7b36-4f56-9fe5-b2444024e80e"},"vehicle_type_id":"4","last_reported":1779371590,"current_range_meters":6400,"station_id":"ce4bhih2rcd13ifvqfr0","pricing_plan_id":"cebpf4jnsgd1na2vs0mg"},{"bike_id":"8cca2d18-e577-4077-a316-2660019e2d41","system_id":"levelo_inurba_marseille","lat":43.29,"lon":5.35586,"is_reserved":false,"is_disabled":false,"rental_uris":{"android":"levelo://app?vid=8cca2d18-e577-4077-a316-2660019e2d41","ios":"levelo://app?vid=8cca2d18-e577-4077-a316-2660019e2d41"},"vehicle_type_id":"4","last_reported":1779371590,"current_range_meters":6400,"station_id":"ce4bhb92rcd13ifvqen0","pricing_plan_id":"cebpf4jnsgd1na2vs0mg"},{"bike_id":"f4039305-8ffd-457f-86e4-4835e894e52f","system_id":"levelo_inurba_marseille","lat":43.26377,"lon":5.4105,"is_reserved":false,"is_disabled":false,"rental_uris":{"android":"levelo://app?vid=f4039305-8ffd-457f-86e4-4835e894e52f","ios":"levelo://app?vid=f4039305-8ffd-457f-86e4-4835e894e52f"},"vehicle_type_id":"4","last_reported":1779371590,"current_range_meters":6400,"station_id":"st_d4e5ca6na9uc73bfl5fg","pricing_plan_id":"cebpf4jnsgd1na2vs0mg"},{"bike_id":"4e578647-1b6c-4b0a-99f7-fb80e608e88b","system_id":"levelo_inurba_marseille","lat":43.29615,"lon":5.37714,"is_reserved":false,"is_disabled":false,"rental_uris":{"android":"levelo://app?vid=4e578647-1b6c-4b0a-99f7-fb80e608e88b","ios":"levelo://app?vid=4e578647-1b6c-4b0a-99f7-fb80e608e88b"},"vehicle_type_id":"4","last_reported":1779371590,"current_range_meters":6400,"station_id":"ce4bgi92rcd13ifvqb90","pricing_plan_id":"cebpf4jnsgd1na2vs0mg"},{"bike_id":"3e8dce26-cedf-4996-a544-0f8322c856b2","system_id":"levelo_inurba_marseille","lat":43.24323,"lon":5.38431,"is_reserved":false,"is_disabled":false,"rental_uris":{"android":"levelo://app?vid=3e8dce26-cedf-4996-a544-0f8322c856b2","ios":"levelo://app?vid=3e8dce26-cedf-4996-a544-0f8322c856b2"},"vehicle_type_id":"4","last_reported":1779371590,"current_range_meters":6400,"station_id":"","pricing_plan_id":"cebpf4jnsgd1na2vs0mg"},{"bike_id":"2417956b-f325-4b75-806c-e42e7b7f598c","system_id":"levelo_inurba_marseille","lat":43.24965,"lon":5.41729,"is_reserved":false,"is_disabled":false,"rental_uris":{"android":"levelo://app?vid=2417956b-f325-4b75-806c-e42e7b7f598c","ios":"levelo://app?vid=2417956b-f325-4b75-806c-e42e7b7f598c"},"vehicle_type_id":"4","last_reported":1779371590,"current_range_meters":6400,"station_id":"","pricing_plan_id":"cebpf4jnsgd1na2vs0mg"},{"bike_id":"616259e1-99b9-477f-9be8-a931d2e539ff","system_id":"levelo_inurba_marseille","lat":43.231941,"lon":5.355529,"is_reserved":false,"is_disabled":false,"rental_uris":{"android":"levelo://app?vid=616259e1-99b9-477f-9be8-a931d2e539ff","ios":"levelo://app?vid=616259e1-99b9-477f-9be8-a931d2e539ff"},"vehicle_type_id":"4","last_reported":1779371590,"current_range_meters":6800,"station_id":"ce4bgi92rcd13ifvqb90","pricing_plan_id":"cebpf4jnsgd1na2vs0mg"},{"bike_id":"b9a89d43-d31f-495f-9676-eee89b0bf0a3","system_id":"levelo_inurba_marseille","lat":43.29763,"lon":5.37683,"is_reserved":false,"is_disabled":false,"rental_uris":{"android":"levelo://app?vid=b9a89d43-d31f-495f-9676-eee89b0bf0a3","ios":"levelo://app?vid=b9a89d43-d31f-495f-9676-eee89b0bf0a3"},"vehicle_type_id":"4","last_reported":1779371590,"current_range_meters":6800,"station_id":"","pricing_plan_id":"cebpf4jnsgd1na2vs0mg"},{"bike_id":"8a745c24-f2e2-43e1-8588-618d43689edc","system_id":"levelo_inurba_marseille","lat":43.25933,"lon":5.40905,"is_reserved":false,"is_disabled":false,"rental_uris":{"android":"levelo://app?vid=8a745c24-f2e2-43e1-8588-618d43689edc","ios":"levelo://app?vid=8a745c24-f2e2-43e1-8588-618d43689edc"},"vehicle_type_id":"4","last_reported":1779371590,"current_range_meters":6800,"station_id":"ce4bhm92rcd13ifvqglg","pricing_plan_id":"cebpf4jnsgd1na2vs0mg"},{"bike_id":"dde4b2ab-9ed1-44d1-9874-ddf59e498ef4","system_id":"levelo_inurba_marseille","lat":43.30897,"lon":5.4009,"is_reserved":false,"is_disabled":false,"rental_uris":{"android":"levelo://app?vid=dde4b2ab-9ed1-44d1-9874-ddf59e498ef4","ios":"levelo://app?vid=dde4b2ab-9ed1-44d1-9874-ddf59e498ef4"},"vehicle_type_id":"4","last_reported":1779371590,"current_range_meters":6800,"station_id":"ce4bgvp2rcd13ifvqct0","pricing_plan_id":"cebpf4jnsgd1na2vs0mg"},{"bike_id":"c136891d-6125-445a-8655-26b983743472","system_id":"levelo_inurba_marseille","lat":43.27209,"lon":5.39177,"is_reserved":false,"is_disabled":false,"rental_uris":{"android":"levelo://app?vid=c136891d-6125-445a-8655-26b983743472","ios":"levelo://app?vid=c136891d-6125-445a-8655-26b983743472"},"vehicle_type_id":"4","last_reported":1779371590,"current_range_meters":6800,"station_id":"ce4bhhp2rcd13ifvqfm0","pricing_plan_id":"cebpf4jnsgd1na2vs0mg"},{"bike_id":"4fdd8c15-1bcb-4fa5-b5bd-d33affd8bbad","system_id":"levelo_inurba_marseille","lat":43.30422,"lon":5.39755,"is_reserved":false,"is_disabled":false,"rental_uris":{"android":"levelo://app?vid=4fdd8c15-1bcb-4fa5-b5bd-d33affd8bbad","ios":"levelo://app?vid=4fdd8c15-1bcb-4fa5-b5bd-d33affd8bbad"},"vehicle_type_id":"4","last_reported":1779371590,"current_range_meters":6800,"station_id":"ce4bh092rcd13ifvqd20","pricing_plan_id":"cebpf4jnsgd1na2vs0mg"},{"bike_id":"8e7115e5-afd0-482b-bfd7-f75a7925e115","system_id":"levelo_inurba_marseille","lat":43.3026,"lon":5.41244,"is_reserved":false,"is_disabled":false,"rental_uris":{"android":"levelo://app?vid=8e7115e5-afd0-482b-bfd7-f75a7925e115","ios":"levelo://app?vid=8e7115e5-afd0-482b-bfd7-f75a7925e115"},"vehicle_type_id":"4","last_reported":1779371590,"current_range_meters":6800,"station_id":"","pricing_plan_id":"cebpf4jnsgd1na2vs0mg"},{"bike_id":"158c92b8-76a5-40fb-a9c9-fdefdb6b02ea","system_id":"levelo_inurba_marseille","lat":43.24644,"lon":5.389,"is_reserved":false,"is_disabled":false,"rental_uris":{"android":"levelo://app?vid=158c92b8-76a5-40fb-a9c9-fdefdb6b02ea","ios":"levelo://app?vid=158c92b8-76a5-40fb-a9c9-fdefdb6b02ea"},"vehicle_type_id":"4","last_reported":1779371590,"current_range_meters":6800,"station_id":"ce4bhg12rcd13ifvqf60","pricing_plan_id":"cebpf4jnsgd1na2vs0mg"},{"bike_id":"65f41086-23fc-487a-9ced-5f748d2e3f5e","system_id":"levelo_inurba_marseille","lat":43.26206,"lon":5.37443,"is_reserved":false,"is_disabled":false,"rental_uris":{"android":"levelo://app?vid=65f41086-23fc-487a-9ced-5f748d2e3f5e","ios":"levelo://app?vid=65f41086-23fc-487a-9ced-5f748d2e3f5e"},"vehicle_type_id":"4","last_reported":1779371590,"current_range_meters":6800,"station_id":"ce4bhgp2rcd13ifvqfc0","pricing_plan_id":"cebpf4jnsgd1na2vs0mg"},{"bike_id":"97bc8a21-bf9e-4085-93be-aff8964a1112","system_id":"levelo_inurba_marseille","lat":43.28294,"lon":5.35083,"is_reserved":false,"is_disabled":false,"rental_uris":{"android":"levelo://app?vid=97bc8a21-bf9e-4085-93be-aff8964a1112","ios":"levelo://app?vid=97bc8a21-bf9e-4085-93be-aff8964a1112"},"vehicle_type_id":"4","last_reported":1779371590,"current_range_meters":6800,"station_id":"ce4bhbp2rcd13ifvqerg","pricing_plan_id":"cebpf4jnsgd1na2vs0mg"},{"bike_id":"cac40514-c1da-4874-913f-33b1937cdac8","system_id":"levelo_inurba_marseille","lat":43.31079,"lon":5.42448,"is_reserved":false,"is_disabled":false,"rental_uris":{"android":"levelo://app?vid=cac40514-c1da-4874-913f-33b1937cdac8","ios":"levelo://app?vid=cac40514-c1da-4874-913f-33b1937cdac8"},"vehicle_type_id":"4","last_reported":1779371590,"current_range_meters":6800,"station_id":"ce4bhp92rcd13ifvqhag","pricing_plan_id":"cebpf4jnsgd1na2vs0mg"},{"bike_id":"86acb344-9066-47c1-bef7-dff26b637764","system_id":"levelo_inurba_marseille","lat":43.31706,"lon":5.40392,"is_reserved":false,"is_disabled":false,"rental_uris":{"android":"levelo://app?vid=86acb344-9066-47c1-bef7-dff26b637764","ios":"levelo://app?vid=86acb344-9066-47c1-bef7-dff26b637764"},"vehicle_type_id":"4","last_reported":1779371590,"current_range_meters":6800,"station_id":"","pricing_plan_id":"cebpf4jnsgd1na2vs0mg"},{"bike_id":"1ca95aee-a991-4a29-b8d4-54ec712d9fb3","system_id":"levelo_inurba_marseille","lat":43.28683,"lon":5.46672,"is_reserved":false,"is_disabled":false,"rental_uris":{"android":"levelo://app?vid=1ca95aee-a991-4a29-b8d4-54ec712d9fb3","ios":"levelo://app?vid=1ca95aee-a991-4a29-b8d4-54ec712d9fb3"},"vehicle_type_id":"4","last_reported":1779371590,"current_range_meters":6800,"station_id":"st_d6tc3vkotcvc738tfjhg","pricing_plan_id":"cebpf4jnsgd1na2vs0mg"},{"bike_id":"34737952-9ba9-4908-8d7f-00dc15e5bbab","system_id":"levelo_inurba_marseille","lat":43.32344,"lon":5.38495,"is_reserved":false,"is_disabled":false,"rental_uris":{"android":"levelo://app?vid=34737952-9ba9-4908-8d7f-00dc15e5bbab","ios":"levelo://app?vid=34737952-9ba9-4908-8d7f-00dc15e5bbab"},"vehicle_type_id":"4","last_reported":1779371590,"current_range_meters":6800,"station_id":"st_d45171o9ee8s73djdqug","pricing_plan_id":"cebpf4jnsgd1na2vs0mg"},{"bike_id":"a6d3b7ab-e61c-4091-aa4a-387b372bdd5d","system_id":"levelo_inurba_marseille","lat":43.30191,"lon":5.36613,"is_reserved":false,"is_disabled":false,"rental_uris":{"android":"levelo://app?vid=a6d3b7ab-e61c-4091-aa4a-387b372bdd5d","ios":"levelo://app?vid=a6d3b7ab-e61c-4091-aa4a-387b372bdd5d"},"vehicle_type_id":"4","last_reported":1779371590,"current_range_meters":6800,"station_id":"ce4bgrh2rcd13ifvqc8g","pricing_plan_id":"cebpf4jnsgd1na2vs0mg"},{"bike_id":"54414197-7a79-46ce-891d-758db7720b8c","system_id":"levelo_inurba_marseille","lat":43.27311,"lon":5.39103,"is_reserved":false,"is_disabled":true,"rental_uris":{"android":"levelo://app?vid=54414197-7a79-46ce-891d-758db7720b8c","ios":"levelo://app?vid=54414197-7a79-46ce-891d-758db7720b8c"},"vehicle_type_id":"4","last_reported":1779371590,"current_range_meters":6800,"station_id":"ce4bhgp2rcd13ifvqfe0","pricing_plan_id":"cebpf4jnsgd1na2vs0mg"},{"bike_id":"90b539a2-8fde-4e68-ba7c-54a52452202c","system_id":"levelo_inurba_marseille","lat":43.29049,"lon":5.37567,"is_reserved":false,"is_disabled":false,"rental_uris":{"android":"levelo://app?vid=90b539a2-8fde-4e68-ba7c-54a52452202c","ios":"levelo://app?vid=90b539a2-8fde-4e68-ba7c-54a52452202c"},"vehicle_type_id":"4","last_reported":1779371590,"current_range_meters":6800,"station_id":"ce4bh692rcd13ifvqe90","pricing_plan_id":"cebpf4jnsgd1na2vs0mg"},{"bike_id":"b482cc12-7c05-48d4-97b0-14c8a0eee35e","system_id":"levelo_inurba_marseille","lat":43.28625,"lon":5.35104,"is_reserved":false,"is_disabled":false,"rental_uris":{"android":"levelo://app?vid=b482cc12-7c05-48d4-97b0-14c8a0eee35e","ios":"levelo://app?vid=b482cc12-7c05-48d4-97b0-14c8a0eee35e"},"vehicle_type_id":"4","last_reported":1779371590,"current_range_meters":7200,"station_id":"ce4bhch2rcd13ifvqeug","pricing_plan_id":"cebpf4jnsgd1na2vs0mg"},{"bike_id":"375ee5aa-b3a4-4687-9cb5-9ce27e5d544e","system_id":"levelo_inurba_marseille","lat":43.31074,"lon":5.4244,"is_reserved":false,"is_disabled":false,"rental_uris":{"android":"levelo://app?vid=375ee5aa-b3a4-4687-9cb5-9ce27e5d544e","ios":"levelo://app?vid=375ee5aa-b3a4-4687-9cb5-9ce27e5d544e"},"vehicle_type_id":"4","last_reported":1779371590,"current_range_meters":7200,"station_id":"ce4bhp92rcd13ifvqhag","pricing_plan_id":"cebpf4jnsgd1na2vs0mg"},{"bike_id":"76232786-5701-4653-9fcf-baae20a92c79","system_id":"levelo_inurba_marseille","lat":43.28411,"lon":5.34991,"is_reserved":false,"is_disabled":false,"rental_uris":{"android":"levelo://app?vid=76232786-5701-4653-9fcf-baae20a92c79","ios":"levelo://app?vid=76232786-5701-4653-9fcf-baae20a92c79"},"vehicle_type_id":"4","last_reported":1779371590,"current_range_meters":7200,"station_id":"ce4bhbh2rcd13ifvqepg","pricing_plan_id":"cebpf4jnsgd1na2vs0mg"},{"bike_id":"5195998f-29c0-451a-9b35-063ca4547e00","system_id":"levelo_inurba_marseille","lat":43.24165,"lon":5.36426,"is_reserved":false,"is_disabled":false,"rental_uris":{"android":"levelo://app?vid=5195998f-29c0-451a-9b35-063ca4547e00","ios":"levelo://app?vid=5195998f-29c0-451a-9b35-063ca4547e00"},"vehicle_type_id":"4","last_reported":1779371590,"current_range_meters":7200,"station_id":"cpo36qri1sfpv3e86is0","pricing_plan_id":"cebpf4jnsgd1na2vs0mg"},{"bike_id":"70bd1697-29a9-464f-a79a-74a540437e6e","system_id":"levelo_inurba_marseille","lat":43.33754,"lon":5.37469,"is_reserved":false,"is_disabled":false,"rental_uris":{"android":"levelo://app?vid=70bd1697-29a9-464f-a79a-74a540437e6e","ios":"levelo://app?vid=70bd1697-29a9-464f-a79a-74a540437e6e"},"vehicle_type_id":"4","last_reported":1779371590,"current_range_meters":7200,"station_id":"","pricing_plan_id":"cebpf4jnsgd1na2vs0mg"},{"bike_id":"a5c258e7-1eb1-469c-9622-022ffb07dc60","system_id":"levelo_inurba_marseille","lat":43.28856,"lon":5.35856,"is_reserved":false,"is_disabled":false,"rental_uris":{"android":"levelo://app?vid=a5c258e7-1eb1-469c-9622-022ffb07dc60","ios":"levelo://app?vid=a5c258e7-1eb1-469c-9622-022ffb07dc60"},"vehicle_type_id":"4","last_reported":1779371590,"current_range_meters":7200,"station_id":"ce4bhb12rcd13ifvqem0","pricing_plan_id":"cebpf4jnsgd1na2vs0mg"},{"bike_id":"72c448e1-1b04-4276-9c93-0bc997384711","system_id":"levelo_inurba_marseille","lat":43.25515,"lon":5.37653,"is_reserved":false,"is_disabled":false,"rental_uris":{"android":"levelo://app?vid=72c448e1-1b04-4276-9c93-0bc997384711","ios":"levelo://app?vid=72c448e1-1b04-4276-9c93-0bc997384711"},"vehicle_type_id":"4","last_reported":1779371590,"current_range_meters":7200,"station_id":"ce4bhh12rcd13ifvqff0","pricing_plan_id":"cebpf4jnsgd1na2vs0mg"},{"bike_id":"0c89afcf-654a-497a-b601-5c5244c24554","system_id":"levelo_inurba_marseille","lat":43.21735,"lon":5.34613,"is_reserved":false,"is_disabled":false,"rental_uris":{"android":"levelo://app?vid=0c89afcf-654a-497a-b601-5c5244c24554","ios":"levelo://app?vid=0c89afcf-654a-497a-b601-5c5244c24554"},"vehicle_type_id":"4","last_reported":1779371590,"current_range_meters":7200,"station_id":"st_cvj6r9ubvosntc0bgbag","pricing_plan_id":"cebpf4jnsgd1na2vs0mg"},{"bike_id":"b54a0860-ff04-4417-9804-a7525879c950","system_id":"levelo_inurba_marseille","lat":43.29485,"lon":5.37534,"is_reserved":false,"is_disabled":false,"rental_uris":{"android":"levelo://app?vid=b54a0860-ff04-4417-9804-a7525879c950","ios":"levelo://app?vid=b54a0860-ff04-4417-9804-a7525879c950"},"vehicle_type_id":"4","last_reported":1779371590,"current_range_meters":7200,"station_id":"","pricing_plan_id":"cebpf4jnsgd1na2vs0mg"},{"bike_id":"12481d7b-ca53-44d2-a72d-3641cbe06950","system_id":"levelo_inurba_marseille","lat":43.29908,"lon":5.40925,"is_reserved":false,"is_disabled":false,"rental_uris":{"android":"levelo://app?vid=12481d7b-ca53-44d2-a72d-3641cbe06950","ios":"levelo://app?vid=12481d7b-ca53-44d2-a72d-3641cbe06950"},"vehicle_type_id":"4","last_reported":1779371590,"current_range_meters":7200,"station_id":"","pricing_plan_id":"cebpf4jnsgd1na2vs0mg"},{"bike_id":"735d209c-79ce-47e9-8dbf-d8312c59b688","system_id":"levelo_inurba_marseille","lat":43.28685,"lon":5.39995,"is_reserved":false,"is_disabled":false,"rental_uris":{"android":"levelo://app?vid=735d209c-79ce-47e9-8dbf-d8312c59b688","ios":"levelo://app?vid=735d209c-79ce-47e9-8dbf-d8312c59b688"},"vehicle_type_id":"4","last_reported":1779371590,"current_range_meters":7200,"station_id":"ce4bho92rcd13ifvqh3g","pricing_plan_id":"cebpf4jnsgd1na2vs0mg"},{"bike_id":"07ab9b23-cfc4-4a12-9e98-af0e096726dd","system_id":"levelo_inurba_marseille","lat":43.28419,"lon":5.3498,"is_reserved":false,"is_disabled":false,"rental_uris":{"android":"levelo://app?vid=07ab9b23-cfc4-4a12-9e98-af0e096726dd","ios":"levelo://app?vid=07ab9b23-cfc4-4a12-9e98-af0e096726dd"},"vehicle_type_id":"4","last_reported":1779371590,"current_range_meters":7200,"station_id":"ce4bhbh2rcd13ifvqepg","pricing_plan_id":"cebpf4jnsgd1na2vs0mg"},{"bike_id":"86a115ef-cf81-4e79-8396-9e4d595b93ed","system_id":"levelo_inurba_marseille","lat":43.26824,"lon":5.40288,"is_reserved":false,"is_disabled":false,"rental_uris":{"android":"levelo://app?vid=86a115ef-cf81-4e79-8396-9e4d595b93ed","ios":"levelo://app?vid=86a115ef-cf81-4e79-8396-9e4d595b93ed"},"vehicle_type_id":"4","last_reported":1779371590,"current_range_meters":7200,"station_id":"ce501612rcd8frsf0b60","pricing_plan_id":"cebpf4jnsgd1na2vs0mg"},{"bike_id":"c52f9b7c-a7b7-401a-8c4a-f47613ceec03","system_id":"levelo_inurba_marseille","lat":43.30641,"lon":5.40121,"is_reserved":false,"is_disabled":false,"rental_uris":{"android":"levelo://app?vid=c52f9b7c-a7b7-401a-8c4a-f47613ceec03","ios":"levelo://app?vid=c52f9b7c-a7b7-401a-8c4a-f47613ceec03"},"vehicle_type_id":"4","last_reported":1779371590,"current_range_meters":7200,"station_id":"ce4bh112rcd13ifvqda0","pricing_plan_id":"cebpf4jnsgd1na2vs0mg"},{"bike_id":"00b866ac-c4c4-47b9-b9d4-ae862bbe4860","system_id":"levelo_inurba_marseille","lat":43.30571,"lon":5.36715,"is_reserved":false,"is_disabled":false,"rental_uris":{"android":"levelo://app?vid=00b866ac-c4c4-47b9-b9d4-ae862bbe4860","ios":"levelo://app?vid=00b866ac-c4c4-47b9-b9d4-ae862bbe4860"},"vehicle_type_id":"4","last_reported":1779371590,"current_range_meters":7200,"station_id":"ce4bgrp2rcd13ifvqc9g","pricing_plan_id":"cebpf4jnsgd1na2vs0mg"},{"bike_id":"fde6787b-4f2b-47b0-a0b5-820834f79162","system_id":"levelo_inurba_marseille","lat":43.32005,"lon":5.40639,"is_reserved":false,"is_disabled":false,"rental_uris":{"android":"levelo://app?vid=fde6787b-4f2b-47b0-a0b5-820834f79162","ios":"levelo://app?vid=fde6787b-4f2b-47b0-a0b5-820834f79162"},"vehicle_type_id":"4","last_reported":1779371590,"current_range_meters":7200,"station_id":"","pricing_plan_id":"cebpf4jnsgd1na2vs0mg"},{"bike_id":"d876f250-8123-419d-a895-9645003d3c01","system_id":"levelo_inurba_marseille","lat":43.27245,"lon":5.41643,"is_reserved":false,"is_disabled":false,"rental_uris":{"android":"levelo://app?vid=d876f250-8123-419d-a895-9645003d3c01","ios":"levelo://app?vid=d876f250-8123-419d-a895-9645003d3c01"},"vehicle_type_id":"4","last_reported":1779371590,"current_range_meters":7200,"station_id":"","pricing_plan_id":"cebpf4jnsgd1na2vs0mg"},{"bike_id":"594a4bea-f477-40ba-b4de-71bd3f5395d2","system_id":"levelo_inurba_marseille","lat":43.28274,"lon":5.35086,"is_reserved":false,"is_disabled":false,"rental_uris":{"android":"levelo://app?vid=594a4bea-f477-40ba-b4de-71bd3f5395d2","ios":"levelo://app?vid=594a4bea-f477-40ba-b4de-71bd3f5395d2"},"vehicle_type_id":"4","last_reported":1779371590,"current_range_meters":7200,"station_id":"ce4bhbp2rcd13ifvqerg","pricing_plan_id":"cebpf4jnsgd1na2vs0mg"},{"bike_id":"e27feea1-9bc4-4f71-870f-9ba99b38e6d2","system_id":"levelo_inurba_marseille","lat":43.2917,"lon":5.37263,"is_reserved":false,"is_disabled":false,"rental_uris":{"android":"levelo://app?vid=e27feea1-9bc4-4f71-870f-9ba99b38e6d2","ios":"levelo://app?vid=e27feea1-9bc4-4f71-870f-9ba99b38e6d2"},"vehicle_type_id":"4","last_reported":1779371590,"current_range_meters":7200,"station_id":"","pricing_plan_id":"cebpf4jnsgd1na2vs0mg"},{"bike_id":"15bf1aa6-ed1e-4a12-b9f4-b8f8b1662368","system_id":"levelo_inurba_marseille","lat":43.27307,"lon":5.39082,"is_reserved":false,"is_disabled":false,"rental_uris":{"android":"levelo://app?vid=15bf1aa6-ed1e-4a12-b9f4-b8f8b1662368","ios":"levelo://app?vid=15bf1aa6-ed1e-4a12-b9f4-b8f8b1662368"},"vehicle_type_id":"4","last_reported":1779371590,"current_range_meters":7200,"station_id":"ce4bhgp2rcd13ifvqfe0","pricing_plan_id":"cebpf4jnsgd1na2vs0mg"},{"bike_id":"1f23276f-640a-45b0-96ab-5c9b5282ccf4","system_id":"levelo_inurba_marseille","lat":43.31261,"lon":5.38936,"is_reserved":false,"is_disabled":false,"rental_uris":{"android":"levelo://app?vid=1f23276f-640a-45b0-96ab-5c9b5282ccf4","ios":"levelo://app?vid=1f23276f-640a-45b0-96ab-5c9b5282ccf4"},"vehicle_type_id":"4","last_reported":1779371590,"current_range_meters":8000,"station_id":"","pricing_plan_id":"cebpf4jnsgd1na2vs0mg"},{"bike_id":"b108d68d-acb9-441e-8383-3553a3b94e36","system_id":"levelo_inurba_marseille","lat":43.24162,"lon":5.36418,"is_reserved":false,"is_disabled":false,"rental_uris":{"android":"levelo://app?vid=b108d68d-acb9-441e-8383-3553a3b94e36","ios":"levelo://app?vid=b108d68d-acb9-441e-8383-3553a3b94e36"},"vehicle_type_id":"4","last_reported":1779371590,"current_range_meters":8000,"station_id":"cpo36qri1sfpv3e86is0","pricing_plan_id":"cebpf4jnsgd1na2vs0mg"},{"bike_id":"c869259c-16e6-4722-bb8a-be08425e50f0","system_id":"levelo_inurba_marseille","lat":43.24378,"lon":5.37045,"is_reserved":false,"is_disabled":false,"rental_uris":{"android":"levelo://app?vid=c869259c-16e6-4722-bb8a-be08425e50f0","ios":"levelo://app?vid=c869259c-16e6-4722-bb8a-be08425e50f0"},"vehicle_type_id":"4","last_reported":1779371590,"current_range_meters":8000,"station_id":"ce4bhhh2rcd13ifvqfk0","pricing_plan_id":"cebpf4jnsgd1na2vs0mg"},{"bike_id":"868c7f6d-3724-4708-98f5-65cb966b2d4a","system_id":"levelo_inurba_marseille","lat":43.3354,"lon":5.37466,"is_reserved":false,"is_disabled":false,"rental_uris":{"android":"levelo://app?vid=868c7f6d-3724-4708-98f5-65cb966b2d4a","ios":"levelo://app?vid=868c7f6d-3724-4708-98f5-65cb966b2d4a"},"vehicle_type_id":"4","last_reported":1779371590,"current_range_meters":8000,"station_id":"st_d46tts09ee8s73dlu43g","pricing_plan_id":"cebpf4jnsgd1na2vs0mg"},{"bike_id":"2e139798-7b22-41a1-a4f2-2fb6a9e5ea46","system_id":"levelo_inurba_marseille","lat":43.24815,"lon":5.37453,"is_reserved":false,"is_disabled":false,"rental_uris":{"android":"levelo://app?vid=2e139798-7b22-41a1-a4f2-2fb6a9e5ea46","ios":"levelo://app?vid=2e139798-7b22-41a1-a4f2-2fb6a9e5ea46"},"vehicle_type_id":"4","last_reported":1779371590,"current_range_meters":8000,"station_id":"ce4bhgh2rcd13ifvqfb0","pricing_plan_id":"cebpf4jnsgd1na2vs0mg"},{"bike_id":"e7d55ff2-76c8-4b77-819b-53f9e3aa018a","system_id":"levelo_inurba_marseille","lat":43.23183,"lon":5.35533,"is_reserved":false,"is_disabled":false,"rental_uris":{"android":"levelo://app?vid=e7d55ff2-76c8-4b77-819b-53f9e3aa018a","ios":"levelo://app?vid=e7d55ff2-76c8-4b77-819b-53f9e3aa018a"},"vehicle_type_id":"4","last_reported":1779371590,"current_range_meters":8000,"station_id":"ce4bhu92rcd13ifvqi70","pricing_plan_id":"cebpf4jnsgd1na2vs0mg"},{"bike_id":"9970c880-e5af-403d-a7f3-95cc750897bf","system_id":"levelo_inurba_marseille","lat":43.28267,"lon":5.35055,"is_reserved":false,"is_disabled":false,"rental_uris":{"android":"levelo://app?vid=9970c880-e5af-403d-a7f3-95cc750897bf","ios":"levelo://app?vid=9970c880-e5af-403d-a7f3-95cc750897bf"},"vehicle_type_id":"4","last_reported":1779371590,"current_range_meters":8000,"station_id":"","pricing_plan_id":"cebpf4jnsgd1na2vs0mg"},{"bike_id":"0180baf8-a0ff-4899-a440-6e156c2788ab","system_id":"levelo_inurba_marseille","lat":43.27376,"lon":5.36257,"is_reserved":false,"is_disabled":false,"rental_uris":{"android":"levelo://app?vid=0180baf8-a0ff-4899-a440-6e156c2788ab","ios":"levelo://app?vid=0180baf8-a0ff-4899-a440-6e156c2788ab"},"vehicle_type_id":"4","last_reported":1779371590,"current_range_meters":8000,"station_id":"ce4bhbh2rcd13ifvqeo0","pricing_plan_id":"cebpf4jnsgd1na2vs0mg"},{"bike_id":"7ec93175-8d9c-4b31-b534-34e06405c4e0","system_id":"levelo_inurba_marseille","lat":43.29628,"lon":5.447,"is_reserved":false,"is_disabled":false,"rental_uris":{"android":"levelo://app?vid=7ec93175-8d9c-4b31-b534-34e06405c4e0","ios":"levelo://app?vid=7ec93175-8d9c-4b31-b534-34e06405c4e0"},"vehicle_type_id":"4","last_reported":1779371590,"current_range_meters":8000,"station_id":"","pricing_plan_id":"cebpf4jnsgd1na2vs0mg"},{"bike_id":"56879ce9-2cf1-4f25-a462-5e9ef709d393","system_id":"levelo_inurba_marseille","lat":43.27057,"lon":5.38306,"is_reserved":false,"is_disabled":false,"rental_uris":{"android":"levelo://app?vid=56879ce9-2cf1-4f25-a462-5e9ef709d393","ios":"levelo://app?vid=56879ce9-2cf1-4f25-a462-5e9ef709d393"},"vehicle_type_id":"4","last_reported":1779371590,"current_range_meters":8000,"station_id":"st_d3n2fo6cfp8s73cte1j0","pricing_plan_id":"cebpf4jnsgd1na2vs0mg"},{"bike_id":"d396f115-2966-4308-9eff-c630d227e4ec","system_id":"levelo_inurba_marseille","lat":43.25717,"lon":5.41109,"is_reserved":false,"is_disabled":false,"rental_uris":{"android":"levelo://app?vid=d396f115-2966-4308-9eff-c630d227e4ec","ios":"levelo://app?vid=d396f115-2966-4308-9eff-c630d227e4ec"},"vehicle_type_id":"4","last_reported":1779371590,"current_range_meters":8000,"station_id":"ce4bhkp2rcd13ifvqgd0","pricing_plan_id":"cebpf4jnsgd1na2vs0mg"},{"bike_id":"6346ff19-7321-47f7-a496-a828ee9230fd","system_id":"levelo_inurba_marseille","lat":43.21746,"lon":5.34604,"is_reserved":false,"is_disabled":false,"rental_uris":{"android":"levelo://app?vid=6346ff19-7321-47f7-a496-a828ee9230fd","ios":"levelo://app?vid=6346ff19-7321-47f7-a496-a828ee9230fd"},"vehicle_type_id":"4","last_reported":1779371590,"current_range_meters":8000,"station_id":"st_cvj6r9ubvosntc0bgbag","pricing_plan_id":"cebpf4jnsgd1na2vs0mg"},{"bike_id":"ad453929-4b4b-4487-a85b-6cf6b2e5312b","system_id":"levelo_inurba_marseille","lat":43.28268,"lon":5.35066,"is_reserved":false,"is_disabled":false,"rental_uris":{"android":"levelo://app?vid=ad453929-4b4b-4487-a85b-6cf6b2e5312b","ios":"levelo://app?vid=ad453929-4b4b-4487-a85b-6cf6b2e5312b"},"vehicle_type_id":"4","last_reported":1779371590,"current_range_meters":8000,"station_id":"","pricing_plan_id":"cebpf4jnsgd1na2vs0mg"},{"bike_id":"81cae916-5196-4c9e-bde0-f3d43cdd813f","system_id":"levelo_inurba_marseille","lat":43.3047,"lon":5.36691,"is_reserved":false,"is_disabled":false,"rental_uris":{"android":"levelo://app?vid=81cae916-5196-4c9e-bde0-f3d43cdd813f","ios":"levelo://app?vid=81cae916-5196-4c9e-bde0-f3d43cdd813f"},"vehicle_type_id":"4","last_reported":1779371590,"current_range_meters":8000,"station_id":"","pricing_plan_id":"cebpf4jnsgd1na2vs0mg"},{"bike_id":"6aaa5cfa-a16b-49a9-909c-e2982ee12c68","system_id":"levelo_inurba_marseille","lat":43.26226,"lon":5.40441,"is_reserved":false,"is_disabled":false,"rental_uris":{"android":"levelo://app?vid=6aaa5cfa-a16b-49a9-909c-e2982ee12c68","ios":"levelo://app?vid=6aaa5cfa-a16b-49a9-909c-e2982ee12c68"},"vehicle_type_id":"4","last_reported":1779371590,"current_range_meters":8000,"station_id":"ce4bhmh2rcd13ifvqgmg","pricing_plan_id":"cebpf4jnsgd1na2vs0mg"},{"bike_id":"00ba9ff0-76b8-4ac3-9b25-292fff695a82","system_id":"levelo_inurba_marseille","lat":43.30566,"lon":5.36562,"is_reserved":false,"is_disabled":false,"rental_uris":{"android":"levelo://app?vid=00ba9ff0-76b8-4ac3-9b25-292fff695a82","ios":"levelo://app?vid=00ba9ff0-76b8-4ac3-9b25-292fff695a82"},"vehicle_type_id":"4","last_reported":1779371590,"current_range_meters":8000,"station_id":"ce4bgs12rcd13ifvqcag","pricing_plan_id":"cebpf4jnsgd1na2vs0mg"},{"bike_id":"3164d9e8-c839-4029-b458-2d3d9b344e5f","system_id":"levelo_inurba_marseille","lat":43.275716,"lon":5.396434,"is_reserved":false,"is_disabled":false,"rental_uris":{"android":"levelo://app?vid=3164d9e8-c839-4029-b458-2d3d9b344e5f","ios":"levelo://app?vid=3164d9e8-c839-4029-b458-2d3d9b344e5f"},"vehicle_type_id":"4","last_reported":1779371590,"current_range_meters":8000,"station_id":"","pricing_plan_id":"cebpf4jnsgd1na2vs0mg"},{"bike_id":"763a8078-1478-4d46-87cc-b6ef63d3680f","system_id":"levelo_inurba_marseille","lat":43.28266,"lon":5.35075,"is_reserved":false,"is_disabled":false,"rental_uris":{"android":"levelo://app?vid=763a8078-1478-4d46-87cc-b6ef63d3680f","ios":"levelo://app?vid=763a8078-1478-4d46-87cc-b6ef63d3680f"},"vehicle_type_id":"4","last_reported":1779371590,"current_range_meters":8000,"station_id":"ce4bhbp2rcd13ifvqerg","pricing_plan_id":"cebpf4jnsgd1na2vs0mg"},{"bike_id":"18ede7d3-42d5-4d99-86ec-e5074c08ee00","system_id":"levelo_inurba_marseille","lat":43.284095,"lon":5.349744,"is_reserved":false,"is_disabled":false,"rental_uris":{"android":"levelo://app?vid=18ede7d3-42d5-4d99-86ec-e5074c08ee00","ios":"levelo://app?vid=18ede7d3-42d5-4d99-86ec-e5074c08ee00"},"vehicle_type_id":"4","last_reported":1779371590,"current_range_meters":8000,"station_id":"ce4bhbh2rcd13ifvqepg","pricing_plan_id":"cebpf4jnsgd1na2vs0mg"},{"bike_id":"70808d99-3c2b-4d2f-9ea5-9f4eb5a47ac4","system_id":"levelo_inurba_marseille","lat":43.27911,"lon":5.38276,"is_reserved":false,"is_disabled":false,"rental_uris":{"android":"levelo://app?vid=70808d99-3c2b-4d2f-9ea5-9f4eb5a47ac4","ios":"levelo://app?vid=70808d99-3c2b-4d2f-9ea5-9f4eb5a47ac4"},"vehicle_type_id":"4","last_reported":1779371590,"current_range_meters":8000,"station_id":"","pricing_plan_id":"cebpf4jnsgd1na2vs0mg"},{"bike_id":"4614af79-64cd-4658-ba3b-45f453c107a8","system_id":"levelo_inurba_marseille","lat":43.23789,"lon":5.36639,"is_reserved":false,"is_disabled":false,"rental_uris":{"android":"levelo://app?vid=4614af79-64cd-4658-ba3b-45f453c107a8","ios":"levelo://app?vid=4614af79-64cd-4658-ba3b-45f453c107a8"},"vehicle_type_id":"4","last_reported":1779371590,"current_range_meters":8000,"station_id":"st_d3nk18o9ro0c73en2l3g","pricing_plan_id":"cebpf4jnsgd1na2vs0mg"},{"bike_id":"cb9cde38-7ba7-496a-a804-93612d72dc85","system_id":"levelo_inurba_marseille","lat":43.26951,"lon":5.38628,"is_reserved":false,"is_disabled":false,"rental_uris":{"android":"levelo://app?vid=cb9cde38-7ba7-496a-a804-93612d72dc85","ios":"levelo://app?vid=cb9cde38-7ba7-496a-a804-93612d72dc85"},"vehicle_type_id":"4","last_reported":1779371590,"current_range_meters":8400,"station_id":"ce4bhh92rcd13ifvqfh0","pricing_plan_id":"cebpf4jnsgd1na2vs0mg"},{"bike_id":"ad6d8b73-6259-410d-979f-09e40ec16dc9","system_id":"levelo_inurba_marseille","lat":43.3082,"lon":5.37198,"is_reserved":false,"is_disabled":false,"rental_uris":{"android":"levelo://app?vid=ad6d8b73-6259-410d-979f-09e40ec16dc9","ios":"levelo://app?vid=ad6d8b73-6259-410d-979f-09e40ec16dc9"},"vehicle_type_id":"4","last_reported":1779371590,"current_range_meters":8400,"station_id":"","pricing_plan_id":"cebpf4jnsgd1na2vs0mg"},{"bike_id":"a64bc208-42f1-457a-9062-05c34e64454c","system_id":"levelo_inurba_marseille","lat":43.24178,"lon":5.39727,"is_reserved":false,"is_disabled":false,"rental_uris":{"android":"levelo://app?vid=a64bc208-42f1-457a-9062-05c34e64454c","ios":"levelo://app?vid=a64bc208-42f1-457a-9062-05c34e64454c"},"vehicle_type_id":"4","last_reported":1779371590,"current_range_meters":8400,"station_id":"ce4bhn12rcd13ifvqgpg","pricing_plan_id":"cebpf4jnsgd1na2vs0mg"},{"bike_id":"47786595-b402-43f0-81d5-a02a10a5cfd1","system_id":"levelo_inurba_marseille","lat":43.25826,"lon":5.39413,"is_reserved":false,"is_disabled":false,"rental_uris":{"android":"levelo://app?vid=47786595-b402-43f0-81d5-a02a10a5cfd1","ios":"levelo://app?vid=47786595-b402-43f0-81d5-a02a10a5cfd1"},"vehicle_type_id":"4","last_reported":1779371590,"current_range_meters":8400,"station_id":"ce4bhip2rcd13ifvqft0","pricing_plan_id":"cebpf4jnsgd1na2vs0mg"},{"bike_id":"f400ac63-3fcc-4f78-8797-3a09faf2e8cd","system_id":"levelo_inurba_marseille","lat":43.29022,"lon":5.37564,"is_reserved":false,"is_disabled":false,"rental_uris":{"android":"levelo://app?vid=f400ac63-3fcc-4f78-8797-3a09faf2e8cd","ios":"levelo://app?vid=f400ac63-3fcc-4f78-8797-3a09faf2e8cd"},"vehicle_type_id":"4","last_reported":1779371590,"current_range_meters":8400,"station_id":"ce4bh692rcd13ifvqe90","pricing_plan_id":"cebpf4jnsgd1na2vs0mg"},{"bike_id":"ac655944-381f-489a-9030-037327c0fde2","system_id":"levelo_inurba_marseille","lat":43.31708,"lon":5.37738,"is_reserved":false,"is_disabled":false,"rental_uris":{"android":"levelo://app?vid=ac655944-381f-489a-9030-037327c0fde2","ios":"levelo://app?vid=ac655944-381f-489a-9030-037327c0fde2"},"vehicle_type_id":"4","last_reported":1779371590,"current_range_meters":8400,"station_id":"ce4bgth2rcd13ifvqch0","pricing_plan_id":"cebpf4jnsgd1na2vs0mg"},{"bike_id":"678c2486-f208-445a-a253-9dfac60b0dc7","system_id":"levelo_inurba_marseille","lat":43.32435,"lon":5.36908,"is_reserved":false,"is_disabled":false,"rental_uris":{"android":"levelo://app?vid=678c2486-f208-445a-a253-9dfac60b0dc7","ios":"levelo://app?vid=678c2486-f208-445a-a253-9dfac60b0dc7"},"vehicle_type_id":"4","last_reported":1779371590,"current_range_meters":8400,"station_id":"","pricing_plan_id":"cebpf4jnsgd1na2vs0mg"},{"bike_id":"db52aa1d-4776-464a-b1b0-ca9c08e19ad6","system_id":"levelo_inurba_marseille","lat":43.23154,"lon":5.43725,"is_reserved":false,"is_disabled":false,"rental_uris":{"android":"levelo://app?vid=db52aa1d-4776-464a-b1b0-ca9c08e19ad6","ios":"levelo://app?vid=db52aa1d-4776-464a-b1b0-ca9c08e19ad6"},"vehicle_type_id":"4","last_reported":1779371590,"current_range_meters":8400,"station_id":"ce4bhmp2rcd13ifvqgog","pricing_plan_id":"cebpf4jnsgd1na2vs0mg"},{"bike_id":"c9825393-7b52-490d-aac3-82484a966463","system_id":"levelo_inurba_marseille","lat":43.27371,"lon":5.36251,"is_reserved":false,"is_disabled":false,"rental_uris":{"android":"levelo://app?vid=c9825393-7b52-490d-aac3-82484a966463","ios":"levelo://app?vid=c9825393-7b52-490d-aac3-82484a966463"},"vehicle_type_id":"4","last_reported":1779371590,"current_range_meters":8400,"station_id":"ce4bhbh2rcd13ifvqeo0","pricing_plan_id":"cebpf4jnsgd1na2vs0mg"},{"bike_id":"be12f725-ab4f-4421-ad3b-21a66c66efb4","system_id":"levelo_inurba_marseille","lat":43.30371,"lon":5.4249,"is_reserved":false,"is_disabled":false,"rental_uris":{"android":"levelo://app?vid=be12f725-ab4f-4421-ad3b-21a66c66efb4","ios":"levelo://app?vid=be12f725-ab4f-4421-ad3b-21a66c66efb4"},"vehicle_type_id":"4","last_reported":1779371590,"current_range_meters":8400,"station_id":"ce4bhoh2rcd13ifvqh6g","pricing_plan_id":"cebpf4jnsgd1na2vs0mg"},{"bike_id":"11564351-db80-4e0d-9b60-3f341fe50036","system_id":"levelo_inurba_marseille","lat":43.25112,"lon":5.40324,"is_reserved":false,"is_disabled":false,"rental_uris":{"android":"levelo://app?vid=11564351-db80-4e0d-9b60-3f341fe50036","ios":"levelo://app?vid=11564351-db80-4e0d-9b60-3f341fe50036"},"vehicle_type_id":"4","last_reported":1779371590,"current_range_meters":8400,"station_id":"ce4bhlh2rcd13ifvqgig","pricing_plan_id":"cebpf4jnsgd1na2vs0mg"},{"bike_id":"b1f8e745-20cc-4e84-acf0-d5220eea7662","system_id":"levelo_inurba_marseille","lat":43.28615,"lon":5.35096,"is_reserved":false,"is_disabled":false,"rental_uris":{"android":"levelo://app?vid=b1f8e745-20cc-4e84-acf0-d5220eea7662","ios":"levelo://app?vid=b1f8e745-20cc-4e84-acf0-d5220eea7662"},"vehicle_type_id":"4","last_reported":1779371590,"current_range_meters":8400,"station_id":"ce4bhch2rcd13ifvqeug","pricing_plan_id":"cebpf4jnsgd1na2vs0mg"},{"bike_id":"8ae01fbd-13ec-4abe-9b2c-1050445b111f","system_id":"levelo_inurba_marseille","lat":43.22536,"lon":5.34838,"is_reserved":false,"is_disabled":false,"rental_uris":{"android":"levelo://app?vid=8ae01fbd-13ec-4abe-9b2c-1050445b111f","ios":"levelo://app?vid=8ae01fbd-13ec-4abe-9b2c-1050445b111f"},"vehicle_type_id":"4","last_reported":1779371590,"current_range_meters":8400,"station_id":"st_cvj5dfep6f1abm77gieg","pricing_plan_id":"cebpf4jnsgd1na2vs0mg"},{"bike_id":"4c73ac5b-f848-44b9-9488-246344552796","system_id":"levelo_inurba_marseille","lat":43.28545,"lon":5.44082,"is_reserved":false,"is_disabled":false,"rental_uris":{"android":"levelo://app?vid=4c73ac5b-f848-44b9-9488-246344552796","ios":"levelo://app?vid=4c73ac5b-f848-44b9-9488-246344552796"},"vehicle_type_id":"4","last_reported":1779371590,"current_range_meters":8400,"station_id":"st_d3j3df2ikq2c7380ej80","pricing_plan_id":"cebpf4jnsgd1na2vs0mg"},{"bike_id":"fd8fd789-28e9-4218-9e5f-9f5a28a95f28","system_id":"levelo_inurba_marseille","lat":43.33151,"lon":5.37844,"is_reserved":false,"is_disabled":false,"rental_uris":{"android":"levelo://app?vid=fd8fd789-28e9-4218-9e5f-9f5a28a95f28","ios":"levelo://app?vid=fd8fd789-28e9-4218-9e5f-9f5a28a95f28"},"vehicle_type_id":"4","last_reported":1779371590,"current_range_meters":8400,"station_id":"","pricing_plan_id":"cebpf4jnsgd1na2vs0mg"},{"bike_id":"03539575-ee79-4bb5-b2ac-865ec9354a3a","system_id":"levelo_inurba_marseille","lat":43.32473,"lon":5.36534,"is_reserved":false,"is_disabled":false,"rental_uris":{"android":"levelo://app?vid=03539575-ee79-4bb5-b2ac-865ec9354a3a","ios":"levelo://app?vid=03539575-ee79-4bb5-b2ac-865ec9354a3a"},"vehicle_type_id":"4","last_reported":1779371590,"current_range_meters":8400,"station_id":"ce4bhs12rcd13ifvqhvg","pricing_plan_id":"cebpf4jnsgd1na2vs0mg"},{"bike_id":"6447d1f1-d1c7-4d9e-8db3-e49b12bbf104","system_id":"levelo_inurba_marseille","lat":43.24156,"lon":5.39714,"is_reserved":false,"is_disabled":false,"rental_uris":{"android":"levelo://app?vid=6447d1f1-d1c7-4d9e-8db3-e49b12bbf104","ios":"levelo://app?vid=6447d1f1-d1c7-4d9e-8db3-e49b12bbf104"},"vehicle_type_id":"4","last_reported":1779371590,"current_range_meters":8400,"station_id":"ce4bhn12rcd13ifvqgpg","pricing_plan_id":"cebpf4jnsgd1na2vs0mg"},{"bike_id":"a9940280-1380-4b59-bb57-b57ac30452b9","system_id":"levelo_inurba_marseille","lat":43.26219,"lon":5.38774,"is_reserved":false,"is_disabled":false,"rental_uris":{"android":"levelo://app?vid=a9940280-1380-4b59-bb57-b57ac30452b9","ios":"levelo://app?vid=a9940280-1380-4b59-bb57-b57ac30452b9"},"vehicle_type_id":"4","last_reported":1779371590,"current_range_meters":8400,"station_id":"","pricing_plan_id":"cebpf4jnsgd1na2vs0mg"},{"bike_id":"a5f599cd-7fde-42cb-a3f9-84e017c501d0","system_id":"levelo_inurba_marseille","lat":43.28992,"lon":5.35618,"is_reserved":false,"is_disabled":false,"rental_uris":{"android":"levelo://app?vid=a5f599cd-7fde-42cb-a3f9-84e017c501d0","ios":"levelo://app?vid=a5f599cd-7fde-42cb-a3f9-84e017c501d0"},"vehicle_type_id":"4","last_reported":1779371590,"current_range_meters":8400,"station_id":"ce4bhb92rcd13ifvqen0","pricing_plan_id":"cebpf4jnsgd1na2vs0mg"},{"bike_id":"7926970b-b546-4bd9-8ad0-0c1e21624b17","system_id":"levelo_inurba_marseille","lat":43.29614,"lon":5.38102,"is_reserved":false,"is_disabled":true,"rental_uris":{"android":"levelo://app?vid=7926970b-b546-4bd9-8ad0-0c1e21624b17","ios":"levelo://app?vid=7926970b-b546-4bd9-8ad0-0c1e21624b17"},"vehicle_type_id":"4","last_reported":1779371590,"current_range_meters":8400,"station_id":"ce4bgl12rcd13ifvqbo0","pricing_plan_id":"cebpf4jnsgd1na2vs0mg"},{"bike_id":"751e788d-d615-41fd-a16c-4f2abaf0d847","system_id":"levelo_inurba_marseille","lat":43.28409,"lon":5.35007,"is_reserved":false,"is_disabled":false,"rental_uris":{"android":"levelo://app?vid=751e788d-d615-41fd-a16c-4f2abaf0d847","ios":"levelo://app?vid=751e788d-d615-41fd-a16c-4f2abaf0d847"},"vehicle_type_id":"4","last_reported":1779371590,"current_range_meters":8400,"station_id":"ce4bhbh2rcd13ifvqepg","pricing_plan_id":"cebpf4jnsgd1na2vs0mg"},{"bike_id":"ce8ffc2f-e682-4f9d-9e49-61205f46759d","system_id":"levelo_inurba_marseille","lat":43.32349,"lon":5.38505,"is_reserved":false,"is_disabled":false,"rental_uris":{"android":"levelo://app?vid=ce8ffc2f-e682-4f9d-9e49-61205f46759d","ios":"levelo://app?vid=ce8ffc2f-e682-4f9d-9e49-61205f46759d"},"vehicle_type_id":"4","last_reported":1779371590,"current_range_meters":8400,"station_id":"st_d45171o9ee8s73djdqug","pricing_plan_id":"cebpf4jnsgd1na2vs0mg"},{"bike_id":"6774f205-2ee3-4625-997b-63c588f833ce","system_id":"levelo_inurba_marseille","lat":43.26026,"lon":5.37549,"is_reserved":false,"is_disabled":true,"rental_uris":{"android":"levelo://app?vid=6774f205-2ee3-4625-997b-63c588f833ce","ios":"levelo://app?vid=6774f205-2ee3-4625-997b-63c588f833ce"},"vehicle_type_id":"4","last_reported":1779371590,"current_range_meters":8400,"station_id":"ce4bhgh2rcd13ifvqfa0","pricing_plan_id":"cebpf4jnsgd1na2vs0mg"},{"bike_id":"e4f1f133-2456-42cd-b6a4-7ef8b050cd6c","system_id":"levelo_inurba_marseille","lat":43.27647,"lon":5.39747,"is_reserved":false,"is_disabled":false,"rental_uris":{"android":"levelo://app?vid=e4f1f133-2456-42cd-b6a4-7ef8b050cd6c","ios":"levelo://app?vid=e4f1f133-2456-42cd-b6a4-7ef8b050cd6c"},"vehicle_type_id":"4","last_reported":1779371590,"current_range_meters":8800,"station_id":"","pricing_plan_id":"cebpf4jnsgd1na2vs0mg"},{"bike_id":"5a297e80-d2f0-4fb4-9886-093528a3567a","system_id":"levelo_inurba_marseille","lat":43.314606,"lon":5.373779,"is_reserved":false,"is_disabled":true,"rental_uris":{"android":"levelo://app?vid=5a297e80-d2f0-4fb4-9886-093528a3567a","ios":"levelo://app?vid=5a297e80-d2f0-4fb4-9886-093528a3567a"},"vehicle_type_id":"4","last_reported":1779371590,"current_range_meters":8800,"station_id":"","pricing_plan_id":"cebpf4jnsgd1na2vs0mg"},{"bike_id":"e32e5dc8-1575-4b84-baaf-d9c97c43c250","system_id":"levelo_inurba_marseille","lat":43.29792,"lon":5.37927,"is_reserved":false,"is_disabled":false,"rental_uris":{"android":"levelo://app?vid=e32e5dc8-1575-4b84-baaf-d9c97c43c250","ios":"levelo://app?vid=e32e5dc8-1575-4b84-baaf-d9c97c43c250"},"vehicle_type_id":"4","last_reported":1779371590,"current_range_meters":8800,"station_id":"","pricing_plan_id":"cebpf4jnsgd1na2vs0mg"},{"bike_id":"65e93d25-13d9-4015-8a34-e3f9d63bc483","system_id":"levelo_inurba_marseille","lat":43.25859,"lon":5.39897,"is_reserved":false,"is_disabled":false,"rental_uris":{"android":"levelo://app?vid=65e93d25-13d9-4015-8a34-e3f9d63bc483","ios":"levelo://app?vid=65e93d25-13d9-4015-8a34-e3f9d63bc483"},"vehicle_type_id":"4","last_reported":1779371590,"current_range_meters":8800,"station_id":"ce4bhl92rcd13ifvqghg","pricing_plan_id":"cebpf4jnsgd1na2vs0mg"},{"bike_id":"129d1c1e-a4ec-4956-9f3f-d6961f012ff9","system_id":"levelo_inurba_marseille","lat":43.28852,"lon":5.36644,"is_reserved":false,"is_disabled":false,"rental_uris":{"android":"levelo://app?vid=129d1c1e-a4ec-4956-9f3f-d6961f012ff9","ios":"levelo://app?vid=129d1c1e-a4ec-4956-9f3f-d6961f012ff9"},"vehicle_type_id":"4","last_reported":1779371590,"current_range_meters":8800,"station_id":"","pricing_plan_id":"cebpf4jnsgd1na2vs0mg"},{"bike_id":"2867f625-8401-41e4-a87f-2a6c444dd23d","system_id":"levelo_inurba_marseille","lat":43.31452,"lon":5.37375,"is_reserved":false,"is_disabled":false,"rental_uris":{"android":"levelo://app?vid=2867f625-8401-41e4-a87f-2a6c444dd23d","ios":"levelo://app?vid=2867f625-8401-41e4-a87f-2a6c444dd23d"},"vehicle_type_id":"4","last_reported":1779371590,"current_range_meters":8800,"station_id":"","pricing_plan_id":"cebpf4jnsgd1na2vs0mg"},{"bike_id":"e2094112-34ef-481f-8558-4d377d6d4f5e","system_id":"levelo_inurba_marseille","lat":43.30958,"lon":5.39045,"is_reserved":false,"is_disabled":false,"rental_uris":{"android":"levelo://app?vid=e2094112-34ef-481f-8558-4d377d6d4f5e","ios":"levelo://app?vid=e2094112-34ef-481f-8558-4d377d6d4f5e"},"vehicle_type_id":"4","last_reported":1779371590,"current_range_meters":8800,"station_id":"ce4bgup2rcd13ifvqco0","pricing_plan_id":"cebpf4jnsgd1na2vs0mg"},{"bike_id":"3c8e4601-2639-4196-a3e1-f497274faeed","system_id":"levelo_inurba_marseille","lat":43.26075,"lon":5.39412,"is_reserved":false,"is_disabled":false,"rental_uris":{"android":"levelo://app?vid=3c8e4601-2639-4196-a3e1-f497274faeed","ios":"levelo://app?vid=3c8e4601-2639-4196-a3e1-f497274faeed"},"vehicle_type_id":"4","last_reported":1779371590,"current_range_meters":8800,"station_id":"ce4bhh92rcd13ifvqfj0","pricing_plan_id":"cebpf4jnsgd1na2vs0mg"},{"bike_id":"6ecace9b-c16d-43aa-9c1a-0ebc2e7bcfc4","system_id":"levelo_inurba_marseille","lat":43.32116,"lon":5.36813,"is_reserved":false,"is_disabled":false,"rental_uris":{"android":"levelo://app?vid=6ecace9b-c16d-43aa-9c1a-0ebc2e7bcfc4","ios":"levelo://app?vid=6ecace9b-c16d-43aa-9c1a-0ebc2e7bcfc4"},"vehicle_type_id":"4","last_reported":1779371590,"current_range_meters":8800,"station_id":"ce4bhrh2rcd13ifvqhug","pricing_plan_id":"cebpf4jnsgd1na2vs0mg"},{"bike_id":"20f6c490-37f4-461b-98c8-5b26a935732f","system_id":"levelo_inurba_marseille","lat":43.29754,"lon":5.37111,"is_reserved":false,"is_disabled":false,"rental_uris":{"android":"levelo://app?vid=20f6c490-37f4-461b-98c8-5b26a935732f","ios":"levelo://app?vid=20f6c490-37f4-461b-98c8-5b26a935732f"},"vehicle_type_id":"4","last_reported":1779371590,"current_range_meters":8800,"station_id":"ce4bgop2rcd13ifvqc1g","pricing_plan_id":"cebpf4jnsgd1na2vs0mg"},{"bike_id":"a2528b76-df16-42e0-92f4-e6ac8f93c42e","system_id":"levelo_inurba_marseille","lat":43.250898,"lon":5.395216,"is_reserved":false,"is_disabled":false,"rental_uris":{"android":"levelo://app?vid=a2528b76-df16-42e0-92f4-e6ac8f93c42e","ios":"levelo://app?vid=a2528b76-df16-42e0-92f4-e6ac8f93c42e"},"vehicle_type_id":"4","last_reported":1779371590,"current_range_meters":8800,"station_id":"ce4bhm12rcd13ifvqgkg","pricing_plan_id":"cebpf4jnsgd1na2vs0mg"},{"bike_id":"0733d3d3-e158-47c9-9d13-96cffab47922","system_id":"levelo_inurba_marseille","lat":43.31351,"lon":5.36699,"is_reserved":false,"is_disabled":false,"rental_uris":{"android":"levelo://app?vid=0733d3d3-e158-47c9-9d13-96cffab47922","ios":"levelo://app?vid=0733d3d3-e158-47c9-9d13-96cffab47922"},"vehicle_type_id":"4","last_reported":1779371590,"current_range_meters":8800,"station_id":"ce4bgr92rcd13ifvqc6g","pricing_plan_id":"cebpf4jnsgd1na2vs0mg"},{"bike_id":"9c4521f1-b414-4b4a-8769-c16b8f3c97e7","system_id":"levelo_inurba_marseille","lat":43.25337,"lon":5.42169,"is_reserved":false,"is_disabled":false,"rental_uris":{"android":"levelo://app?vid=9c4521f1-b414-4b4a-8769-c16b8f3c97e7","ios":"levelo://app?vid=9c4521f1-b414-4b4a-8769-c16b8f3c97e7"},"vehicle_type_id":"4","last_reported":1779371590,"current_range_meters":8800,"station_id":"st_d2m65c5bi1j21697t3ng","pricing_plan_id":"cebpf4jnsgd1na2vs0mg"},{"bike_id":"0f9d175c-4b69-49d0-bd8f-a92a28f7cb13","system_id":"levelo_inurba_marseille","lat":43.28627,"lon":5.35106,"is_reserved":false,"is_disabled":false,"rental_uris":{"android":"levelo://app?vid=0f9d175c-4b69-49d0-bd8f-a92a28f7cb13","ios":"levelo://app?vid=0f9d175c-4b69-49d0-bd8f-a92a28f7cb13"},"vehicle_type_id":"4","last_reported":1779371590,"current_range_meters":8800,"station_id":"ce4bhch2rcd13ifvqeug","pricing_plan_id":"cebpf4jnsgd1na2vs0mg"},{"bike_id":"ad987013-2e27-4e48-a0b3-3a33e5f8fb9e","system_id":"levelo_inurba_marseille","lat":43.28682,"lon":5.39976,"is_reserved":false,"is_disabled":false,"rental_uris":{"android":"levelo://app?vid=ad987013-2e27-4e48-a0b3-3a33e5f8fb9e","ios":"levelo://app?vid=ad987013-2e27-4e48-a0b3-3a33e5f8fb9e"},"vehicle_type_id":"4","last_reported":1779371590,"current_range_meters":8800,"station_id":"ce4bho92rcd13ifvqh3g","pricing_plan_id":"cebpf4jnsgd1na2vs0mg"},{"bike_id":"c26bd682-172e-4906-90ad-5dbc7d663d3c","system_id":"levelo_inurba_marseille","lat":43.2572,"lon":5.41102,"is_reserved":false,"is_disabled":false,"rental_uris":{"android":"levelo://app?vid=c26bd682-172e-4906-90ad-5dbc7d663d3c","ios":"levelo://app?vid=c26bd682-172e-4906-90ad-5dbc7d663d3c"},"vehicle_type_id":"4","last_reported":1779371590,"current_range_meters":8800,"station_id":"ce4bhkp2rcd13ifvqgd0","pricing_plan_id":"cebpf4jnsgd1na2vs0mg"},{"bike_id":"43d9d8ea-182a-4572-8879-3fb2883009c7","system_id":"levelo_inurba_marseille","lat":43.31661,"lon":5.39599,"is_reserved":false,"is_disabled":false,"rental_uris":{"android":"levelo://app?vid=43d9d8ea-182a-4572-8879-3fb2883009c7","ios":"levelo://app?vid=43d9d8ea-182a-4572-8879-3fb2883009c7"},"vehicle_type_id":"4","last_reported":1779371590,"current_range_meters":8800,"station_id":"","pricing_plan_id":"cebpf4jnsgd1na2vs0mg"},{"bike_id":"1c691845-eaa7-4ec5-bb7b-63163bf5081d","system_id":"levelo_inurba_marseille","lat":43.30201,"lon":5.36593,"is_reserved":false,"is_disabled":false,"rental_uris":{"android":"levelo://app?vid=1c691845-eaa7-4ec5-bb7b-63163bf5081d","ios":"levelo://app?vid=1c691845-eaa7-4ec5-bb7b-63163bf5081d"},"vehicle_type_id":"4","last_reported":1779371590,"current_range_meters":8800,"station_id":"ce4bgrh2rcd13ifvqc8g","pricing_plan_id":"cebpf4jnsgd1na2vs0mg"},{"bike_id":"c1ed57f6-f105-460c-8703-1c2eae17785a","system_id":"levelo_inurba_marseille","lat":43.22547,"lon":5.34887,"is_reserved":false,"is_disabled":false,"rental_uris":{"android":"levelo://app?vid=c1ed57f6-f105-460c-8703-1c2eae17785a","ios":"levelo://app?vid=c1ed57f6-f105-460c-8703-1c2eae17785a"},"vehicle_type_id":"4","last_reported":1779371590,"current_range_meters":8800,"station_id":"st_cvj5dfep6f1abm77gieg","pricing_plan_id":"cebpf4jnsgd1na2vs0mg"},{"bike_id":"489c427c-ff56-4c0e-b39f-19ac01a69697","system_id":"levelo_inurba_marseille","lat":43.31228,"lon":5.36647,"is_reserved":false,"is_disabled":false,"rental_uris":{"android":"levelo://app?vid=489c427c-ff56-4c0e-b39f-19ac01a69697","ios":"levelo://app?vid=489c427c-ff56-4c0e-b39f-19ac01a69697"},"vehicle_type_id":"4","last_reported":1779371590,"current_range_meters":8800,"station_id":"","pricing_plan_id":"cebpf4jnsgd1na2vs0mg"},{"bike_id":"e33e04d7-376c-4d6f-bbd6-aa4e975d8d67","system_id":"levelo_inurba_marseille","lat":43.27383,"lon":5.36276,"is_reserved":false,"is_disabled":false,"rental_uris":{"android":"levelo://app?vid=e33e04d7-376c-4d6f-bbd6-aa4e975d8d67","ios":"levelo://app?vid=e33e04d7-376c-4d6f-bbd6-aa4e975d8d67"},"vehicle_type_id":"4","last_reported":1779371590,"current_range_meters":8800,"station_id":"ce4bhbh2rcd13ifvqeo0","pricing_plan_id":"cebpf4jnsgd1na2vs0mg"},{"bike_id":"b0f823e3-d9a2-42ef-882d-b004f1f5b1f7","system_id":"levelo_inurba_marseille","lat":43.29023,"lon":5.3757,"is_reserved":false,"is_disabled":false,"rental_uris":{"android":"levelo://app?vid=b0f823e3-d9a2-42ef-882d-b004f1f5b1f7","ios":"levelo://app?vid=b0f823e3-d9a2-42ef-882d-b004f1f5b1f7"},"vehicle_type_id":"4","last_reported":1779371590,"current_range_meters":8800,"station_id":"ce4bh692rcd13ifvqe90","pricing_plan_id":"cebpf4jnsgd1na2vs0mg"},{"bike_id":"71e202be-7e83-4947-a35e-f4d6c0cc382f","system_id":"levelo_inurba_marseille","lat":43.290306,"lon":5.386364,"is_reserved":false,"is_disabled":false,"rental_uris":{"android":"levelo://app?vid=71e202be-7e83-4947-a35e-f4d6c0cc382f","ios":"levelo://app?vid=71e202be-7e83-4947-a35e-f4d6c0cc382f"},"vehicle_type_id":"4","last_reported":1779371590,"current_range_meters":8800,"station_id":"ce4bh4p2rcd13ifvqe0g","pricing_plan_id":"cebpf4jnsgd1na2vs0mg"},{"bike_id":"2545f3fc-095b-4a99-a5d4-3696cc7ad01e","system_id":"levelo_inurba_marseille","lat":43.30735,"lon":5.42437,"is_reserved":false,"is_disabled":false,"rental_uris":{"android":"levelo://app?vid=2545f3fc-095b-4a99-a5d4-3696cc7ad01e","ios":"levelo://app?vid=2545f3fc-095b-4a99-a5d4-3696cc7ad01e"},"vehicle_type_id":"4","last_reported":1779371590,"current_range_meters":8800,"station_id":"st_cvj6ca6bvosntc0bfgr0","pricing_plan_id":"cebpf4jnsgd1na2vs0mg"},{"bike_id":"315a2eba-2035-4156-9313-908336f3846b","system_id":"levelo_inurba_marseille","lat":43.31563,"lon":5.38493,"is_reserved":false,"is_disabled":false,"rental_uris":{"android":"levelo://app?vid=315a2eba-2035-4156-9313-908336f3846b","ios":"levelo://app?vid=315a2eba-2035-4156-9313-908336f3846b"},"vehicle_type_id":"4","last_reported":1779371590,"current_range_meters":9200,"station_id":"","pricing_plan_id":"cebpf4jnsgd1na2vs0mg"},{"bike_id":"3b0c7a46-d37d-4e38-af07-128bec8a308e","system_id":"levelo_inurba_marseille","lat":43.29847,"lon":5.36289,"is_reserved":false,"is_disabled":false,"rental_uris":{"android":"levelo://app?vid=3b0c7a46-d37d-4e38-af07-128bec8a308e","ios":"levelo://app?vid=3b0c7a46-d37d-4e38-af07-128bec8a308e"},"vehicle_type_id":"4","last_reported":1779371590,"current_range_meters":9200,"station_id":"ce4bgpp2rcd13ifvqc3g","pricing_plan_id":"cebpf4jnsgd1na2vs0mg"},{"bike_id":"b7b1190c-b5c6-4401-98fd-327abc9a6496","system_id":"levelo_inurba_marseille","lat":43.31762,"lon":5.39034,"is_reserved":false,"is_disabled":false,"rental_uris":{"android":"levelo://app?vid=b7b1190c-b5c6-4401-98fd-327abc9a6496","ios":"levelo://app?vid=b7b1190c-b5c6-4401-98fd-327abc9a6496"},"vehicle_type_id":"4","last_reported":1779371590,"current_range_meters":9200,"station_id":"ce4bhqp2rcd13ifvqhng","pricing_plan_id":"cebpf4jnsgd1na2vs0mg"},{"bike_id":"c44f220c-d819-40bc-a7d5-67b141b5d139","system_id":"levelo_inurba_marseille","lat":43.28936,"lon":5.3663,"is_reserved":false,"is_disabled":false,"rental_uris":{"android":"levelo://app?vid=c44f220c-d819-40bc-a7d5-67b141b5d139","ios":"levelo://app?vid=c44f220c-d819-40bc-a7d5-67b141b5d139"},"vehicle_type_id":"4","last_reported":1779371590,"current_range_meters":9200,"station_id":"ce4bhap2rcd13ifvqek0","pricing_plan_id":"cebpf4jnsgd1na2vs0mg"},{"bike_id":"12c19a21-cf5c-4d0b-9eb6-82aea54c49fb","system_id":"levelo_inurba_marseille","lat":43.29012,"lon":5.3755,"is_reserved":false,"is_disabled":false,"rental_uris":{"android":"levelo://app?vid=12c19a21-cf5c-4d0b-9eb6-82aea54c49fb","ios":"levelo://app?vid=12c19a21-cf5c-4d0b-9eb6-82aea54c49fb"},"vehicle_type_id":"4","last_reported":1779371590,"current_range_meters":9200,"station_id":"ce4bh692rcd13ifvqe90","pricing_plan_id":"cebpf4jnsgd1na2vs0mg"},{"bike_id":"8cd2c393-ba6b-4308-9f67-2fd9a2f72275","system_id":"levelo_inurba_marseille","lat":43.25499,"lon":5.37647,"is_reserved":false,"is_disabled":false,"rental_uris":{"android":"levelo://app?vid=8cd2c393-ba6b-4308-9f67-2fd9a2f72275","ios":"levelo://app?vid=8cd2c393-ba6b-4308-9f67-2fd9a2f72275"},"vehicle_type_id":"4","last_reported":1779371590,"current_range_meters":9200,"station_id":"ce4bhh12rcd13ifvqff0","pricing_plan_id":"cebpf4jnsgd1na2vs0mg"},{"bike_id":"6388140b-4453-42b8-a7c1-5ff89e7f00bf","system_id":"levelo_inurba_marseille","lat":43.30153,"lon":5.37424,"is_reserved":false,"is_disabled":false,"rental_uris":{"android":"levelo://app?vid=6388140b-4453-42b8-a7c1-5ff89e7f00bf","ios":"levelo://app?vid=6388140b-4453-42b8-a7c1-5ff89e7f00bf"},"vehicle_type_id":"4","last_reported":1779371590,"current_range_meters":9200,"station_id":"ce4bgs92rcd13ifvqcc0","pricing_plan_id":"cebpf4jnsgd1na2vs0mg"},{"bike_id":"985f0de4-50e3-4aac-9e41-065157699a0f","system_id":"levelo_inurba_marseille","lat":43.26544,"lon":5.373,"is_reserved":false,"is_disabled":false,"rental_uris":{"android":"levelo://app?vid=985f0de4-50e3-4aac-9e41-065157699a0f","ios":"levelo://app?vid=985f0de4-50e3-4aac-9e41-065157699a0f"},"vehicle_type_id":"4","last_reported":1779371590,"current_range_meters":9200,"station_id":"ce4bhg12rcd13ifvqf70","pricing_plan_id":"cebpf4jnsgd1na2vs0mg"},