{"last_updated":1730797749,"ttl":60,"version":"2.2","data":{"bikes":[{"bike_id":"27c3248b-c595-4ca3-8d16-fd1fce0083ca","system_id":"levelo_inurba_marseille","lat":43.34149,"lon":5.40901,"is_reserved":false,"is_disabled":false,"rental_uris":{"android":"levelo://app?vid=27c3248b-c595-4ca3-8d16-fd1fce0083ca","ios":"levelo://app?vid=27c3248b-c595-4ca3-8d16-fd1fce0083ca"},"vehicle_type_id":"4","last_reported":1730797749,"current_range_meters":23200,"station_id":"ce4bhqh2rcd13ifvqhlg","pricing_plan_id":"cebpf4jnsgd1na2vs0mg"},{"bike_id":"9d854039-66a7-40f6-9541-7807a849ef8a","system_id":"levelo_inurba_marseille","lat":43.30464,"lon":5.37911,"is_reserved":false,"is_disabled":false,"rental_uris":{"android":"levelo://app?vid=9d854039-66a7-40f6-9541-7807a849ef8a","ios":"levelo://app?vid=9d854039-66a7-40f6-9541-7807a849ef8a"},"vehicle_type_id":"4","last_reported":1730797749,"current_range_meters":13600,"station_id":"ce4bgup2rcd13ifvqcn0","pricing_plan_id":"cebpf4jnsgd1na2vs0mg"},{"bike_id":"8f7e570c-ad72-4943-bae0-97aa0c403247","system_id":"levelo_inurba_marseille","lat":43.30142,"lon":5.38064,"is_reserved":false,"is_disabled":false,"rental_uris":{"android":"levelo://app?vid=8f7e570c-ad72-4943-bae0-97aa0c403247","ios":"levelo://app?vid=8f7e570c-ad72-4943-bae0-97aa0c403247"},"vehicle_type_id":"4","last_reported":1730797749,"current_range_meters":8000,"station_id":"ce4bgjp2rcd13ifvqbh0","pricing_plan_id":"cebpf4jnsgd1na2vs0mg"},{"bike_id":"5b621a6c-c935-426d-baa9-321170e14cf7","system_id":"levelo_inurba_marseille","lat":43.30239,"lon":5.40082,"is_reserved":false,"is_disabled":false,"rental_uris":{"android":"levelo://app?vid=5b621a6c-c935-426d-baa9-321170e14cf7","ios":"levelo://app?vid=5b621a6c-c935-426d-baa9-321170e14cf7"},"vehicle_type_id":"4","last_reported":1730797749,"current_range_meters":36400,"station_id":"ce4bgvh2rcd13ifvqcs0","pricing_plan_id":"cebpf4jnsgd1na2vs0mg"},{"bike_id":"2b07b953-6ab5-4be9-9004-0da5a17b73f0","system_id":"levelo_inurba_marseille","lat":43.3014,"lon":5.39863,"is_reserved":false,"is_disabled":false,"rental_uris":{"android":"levelo://app?vid=2b07b953-6ab5-4be9-9004-0da5a17b73f0","ios":"levelo://app?vid=2b07b953-6ab5-4be9-9004-0da5a17b73f0"},"vehicle_type_id":"4","last_reported":1730797749,"current_range_meters":36000,"station_id":"ce4bh0h2rcd13ifvqd40","pricing_plan_id":"cebpf4jnsgd1na2vs0mg"},{"bike_id":"d1e93c7d-7299-4d20-8173-5ae0725facdf","system_id":"levelo_inurba_marseille","lat":43.29197,"lon":5.358,"is_reserved":false,"is_disabled":false,"rental_uris":{"android":"levelo://app?vid=d1e93c7d-7299-4d20-8173-5ae0725facdf","ios":"levelo://app?vid=d1e93c7d-7299-4d20-8173-5ae0725facdf"},"vehicle_type_id":"4","last_reported":1730797749,"current_range_meters":22400,"station_id":"ce4bhb12rcd13ifvqel0","pricing_plan_id":"cebpf4jnsgd1na2vs0mg"},{"bike_id":"c24fb9a5-b454-4ee1-a0d9-7727e66a5e9b","system_id":"levelo_inurba_marseille","lat":43.29088,"lon":5.38143,"is_reserved":false,"is_disabled":false,"rental_uris":{"android":"levelo://app?vid=c24fb9a5-b454-4ee1-a0d9-7727e66a5e9b","ios":"levelo://app?vid=c24fb9a5-b454-4ee1-a0d9-7727e66a5e9b"},"vehicle_type_id":"4","last_reported":1730797749,"current_range_meters":35600,"station_id":"ce4bh512rcd13ifvqe2g","pricing_plan_id":"cebpf4jnsgd1na2vs0mg"},{"bike_id":"ba46ce1e-3bab-42a9-b44d-1481ad83c66b","system_id":"levelo_inurba_marseille","lat":43.290365,"lon":5.3756,"is_reserved":false,"is_disabled":false,"rental_uris":{"android":"levelo://app?vid=ba46ce1e-3bab-42a9-b44d-1481ad83c66b","ios":"levelo://app?vid=ba46ce1e-3bab-42a9-b44d-1481ad83c66b"},"vehicle_type_id":"4","last_reported":1730797749,"current_range_meters":36000,"station_id":"ce4bh692rcd13ifvqe90","pricing_plan_id":"cebpf4jnsgd1na2vs0mg"},{"bike_id":"3675d184-4550-4970-9661-d3d7f50009e5","system_id":"levelo_inurba_marseille","lat":43.31344,"lon":5.3672,"is_reserved":false,"is_disabled":false,"rental_uris":{"android":"levelo://app?vid=3675d184-4550-4970-9661-d3d7f50009e5","ios":"levelo://app?vid=3675d184-4550-4970-9661-d3d7f50009e5"},"vehicle_type_id":"4","last_reported":1730797749,"current_range_meters":23200,"station_id":"ce4bgr92rcd13ifvqc6g","pricing_plan_id":"cebpf4jnsgd1na2vs0mg"},{"bike_id":"1b3934a4-2b78-49cb-930d-2ac074fa80af","system_id":"levelo_inurba_marseille","lat":43.29377,"lon":5.37841,"is_reserved":false,"is_disabled":false,"rental_uris":{"android":"levelo://app?vid=1b3934a4-2b78-49cb-930d-2ac074fa80af","ios":"levelo://app?vid=1b3934a4-2b78-49cb-930d-2ac074fa80af"},"vehicle_type_id":"4","last_reported":1730797749,"current_range_meters":17200,"station_id":"ce4bgjh2rcd13ifvqbf0","pricing_plan_id":"cebpf4jnsgd1na2vs0mg"},{"bike_id":"8efad21c-db8e-4ff4-b707-adeb03a5b779","system_id":"levelo_inurba_marseille","lat":43.29041,"lon":5.39973,"is_reserved":false,"is_disabled":false,"rental_uris":{"android":"levelo://app?vid=8efad21c-db8e-4ff4-b707-adeb03a5b779","ios":"levelo://app?vid=8efad21c-db8e-4ff4-b707-adeb03a5b779"},"vehicle_type_id":"4","last_reported":1730797749,"current_range_meters":36400,"station_id":"ce4bh392rcd13ifvqdm0","pricing_plan_id":"cebpf4jnsgd1na2vs0mg"},{"bike_id":"47188366-9ba1-4e2e-907e-c2a5c3fd8c31","system_id":"levelo_inurba_marseille","lat":43.31338,"lon":5.36732,"is_reserved":false,"is_disabled":false,"rental_uris":{"android":"levelo://app?vid=47188366-9ba1-4e2e-907e-c2a5c3fd8c31","ios":"levelo://app?vid=47188366-9ba1-4e2e-907e-c2a5c3fd8c31"},"vehicle_type_id":"4","last_reported":1730797749,"current_range_meters":6800,"station_id":"ce4bgr92rcd13ifvqc6g","pricing_plan_id":"cebpf4jnsgd1na2vs0mg"},{"bike_id":"81f6b4c0-466f-469e-9440-cacd811d84f3","system_id":"levelo_inurba_marseille","lat":43.2408,"lon":5.37752,"is_reserved":false,"is_disabled":false,"rental_uris":{"android":"levelo://app?vid=81f6b4c0-466f-469e-9440-cacd811d84f3","ios":"levelo://app?vid=81f6b4c0-466f-469e-9440-cacd811d84f3"},"vehicle_type_id":"4","last_reported":1730797749,"current_range_meters":23200,"station_id":"ce4bhnp2rcd13ifvqgvg","pricing_plan_id":"cebpf4jnsgd1na2vs0mg"},{"bike_id":"d3cb3f1d-3dc6-494f-a205-0002387ff9f3","system_id":"levelo_inurba_marseille","lat":43.288495,"lon":5.393115,"is_reserved":false,"is_disabled":false,"rental_uris":{"android":"levelo://app?vid=d3cb3f1d-3dc6-494f-a205-0002387ff9f3","ios":"levelo://app?vid=d3cb3f1d-3dc6-494f-a205-0002387ff9f3"},"vehicle_type_id":"4","last_reported":1730797749,"current_range_meters":32400,"station_id":"ce4bh2p2rcd13ifvqdi0","pricing_plan_id":"cebpf4jnsgd1na2vs0mg"},{"bike_id":"a0dd03a3-600e-4a64-a368-916fef5fa3f5","system_id":"levelo_inurba_marseille","lat":43.2594,"lon":5.40907,"is_reserved":false,"is_disabled":false,"rental_uris":{"android":"levelo://app?vid=a0dd03a3-600e-4a64-a368-916fef5fa3f5","ios":"levelo://app?vid=a0dd03a3-600e-4a64-a368-916fef5fa3f5"},"vehicle_type_id":"4","last_reported":1730797749,"current_range_meters":24400,"station_id":"ce4bhm92rcd13ifvqglg","pricing_plan_id":"cebpf4jnsgd1na2vs0mg"},{"bike_id":"7ccfdd34-04c2-4916-8e00-4176d4adea7d","system_id":"levelo_inurba_marseille","lat":43.28851,"lon":5.39327,"is_reserved":false,"is_disabled":false,"rental_uris":{"android":"levelo://app?vid=7ccfdd34-04c2-4916-8e00-4176d4adea7d","ios":"levelo://app?vid=7ccfdd34-04c2-4916-8e00-4176d4adea7d"},"vehicle_type_id":"4","last_reported":1730797749,"current_range_meters":6400,"station_id":"ce4bh2p2rcd13ifvqdi0","pricing_plan_id":"cebpf4jnsgd1na2vs0mg"},{"bike_id":"231b0243-b8d3-4117-a49b-aed51cf55538","system_id":"levelo_inurba_marseille","lat":43.28277,"lon":5.35063,"is_reserved":false,"is_disabled":false,"rental_uris":{"android":"levelo://app?vid=231b0243-b8d3-4117-a49b-aed51cf55538","ios":"levelo://app?vid=231b0243-b8d3-4117-a49b-aed51cf55538"},"vehicle_type_id":"4","last_reported":1730797749,"current_range_meters":28000,"station_id":"ce4bhbp2rcd13ifvqerg","pricing_plan_id":"cebpf4jnsgd1na2vs0mg"},{"bike_id":"739b2a9b-91fe-4d16-98d1-1f95412dcec1","system_id":"levelo_inurba_marseille","lat":43.24081,"lon":5.37758,"is_reserved":false,"is_disabled":false,"rental_uris":{"android":"levelo://app?vid=739b2a9b-91fe-4d16-98d1-1f95412dcec1","ios":"levelo://app?vid=739b2a9b-91fe-4d16-98d1-1f95412dcec1"},"vehicle_type_id":"4","last_reported":1730797749,"current_range_meters":11200,"station_id":"ce4bhnp2rcd13ifvqgvg","pricing_plan_id":"cebpf4jnsgd1na2vs0mg"},{"bike_id":"4147bbfb-4b14-4aca-b782-8ec6c0473609","system_id":"levelo_inurba_marseille","lat":43.236039,"lon":5.403478,"is_reserved":false,"is_disabled":false,"rental_uris":{"android":"levelo://app?vid=4147bbfb-4b14-4aca-b782-8ec6c0473609","ios":"levelo://app?vid=4147bbfb-4b14-4aca-b782-8ec6c0473609"},"vehicle_type_id":"4","last_reported":1730797749,"current_range_meters":8800,"station_id":"","pricing_plan_id":"cebpf4jnsgd1na2vs0mg"},{"bike_id":"fa66adb8-19da-4b56-aeb9-ccf1206b3e1e","system_id":"levelo_inurba_marseille","lat":43.3237,"lon":5.3676,"is_reserved":false,"is_disabled":false,"rental_uris":{"android":"levelo://app?vid=fa66adb8-19da-4b56-aeb9-ccf1206b3e1e","ios":"levelo://app?vid=fa66adb8-19da-4b56-aeb9-ccf1206b3e1e"},"vehicle_type_id":"4","last_reported":1730797749,"current_range_meters":35600,"station_id":"ce4bhsh2rcd13ifvqi2g","pricing_plan_id":"cebpf4jnsgd1na2vs0mg"},{"bike_id":"26524832-8824-4bc7-95ef-aedb1815c904","system_id":"levelo_inurba_marseille","lat":43.29847,"lon":5.36285,"is_reserved":false,"is_disabled":false,"rental_uris":{"android":"levelo://app?vid=26524832-8824-4bc7-95ef-aedb1815c904","ios":"levelo://app?vid=26524832-8824-4bc7-95ef-aedb1815c904"},"vehicle_type_id":"4","last_reported":1730797749,"current_range_meters":17200,"station_id":"ce4bgpp2rcd13ifvqc3g","pricing_plan_id":"cebpf4jnsgd1na2vs0mg"},{"bike_id":"b86a711c-4431-4ef4-a884-4457ab24af51","system_id":"levelo_inurba_marseille","lat":43.25577,"lon":5.38238,"is_reserved":false,"is_disabled":false,"rental_uris":{"android":"levelo://app?vid=b86a711c-4431-4ef4-a884-4457ab24af51","ios":"levelo://app?vid=b86a711c-4431-4ef4-a884-4457ab24af51"},"vehicle_type_id":"4","last_reported":1730797749,"current_range_meters":26800,"station_id":"ce4bhih2rcd13ifvqfs0","pricing_plan_id":"cebpf4jnsgd1na2vs0mg"},{"bike_id":"66179393-5228-4b44-9c95-8cd9f7e21adb","system_id":"levelo_inurba_marseille","lat":43.27491,"lon":5.42453,"is_reserved":false,"is_disabled":false,"rental_uris":{"android":"levelo://app?vid=66179393-5228-4b44-9c95-8cd9f7e21adb","ios":"levelo://app?vid=66179393-5228-4b44-9c95-8cd9f7e21adb"},"vehicle_type_id":"4","last_reported":1730797749,"current_range_meters":36400,"station_id":"ce4bhn92rcd13ifvqgrg","pricing_plan_id":"cebpf4jnsgd1na2vs0mg"},{"bike_id":"d3316a79-5388-4d1e-90a0-dc05613f7da2","system_id":"levelo_inurba_marseille","lat":43.31351,"lon":5.36728,"is_reserved":false,"is_disabled":false,"rental_uris":{"android":"levelo://app?vid=d3316a79-5388-4d1e-90a0-dc05613f7da2","ios":"levelo://app?vid=d3316a79-5388-4d1e-90a0-dc05613f7da2"},"vehicle_type_id":"4","last_reported":1730797749,"current_range_meters":31200,"station_id":"ce4bgr92rcd13ifvqc6g","pricing_plan_id":"cebpf4jnsgd1na2vs0mg"},{"bike_id":"5ad3f732-7e23-4ad9-b57d-10c8736d4e8f","system_id":"levelo_inurba_marseille","lat":43.32484,"lon":5.36574,"is_reserved":false,"is_disabled":false,"rental_uris":{"android":"levelo://app?vid=5ad3f732-7e23-4ad9-b57d-10c8736d4e8f","ios":"levelo://app?vid=5ad3f732-7e23-4ad9-b57d-10c8736d4e8f"},"vehicle_type_id":"4","last_reported":1730797749,"current_range_meters":20800,"station_id":"ce4bhs12rcd13ifvqhvg","pricing_plan_id":"cebpf4jnsgd1na2vs0mg"},{"bike_id":"7f908536-6e04-49cc-8765-d5522ea0f263","system_id":"levelo_inurba_marseille","lat":43.33612,"lon":5.41035,"is_reserved":false,"is_disabled":false,"rental_uris":{"android":"levelo://app?vid=7f908536-6e04-49cc-8765-d5522ea0f263","ios":"levelo://app?vid=7f908536-6e04-49cc-8765-d5522ea0f263"},"vehicle_type_id":"4","last_reported":1730797749,"current_range_meters":7200,"station_id":"ce4bhqh2rcd13ifvqhmg","pricing_plan_id":"cebpf4jnsgd1na2vs0mg"},{"bike_id":"35d46972-faca-4525-a2d2-3f928f24f16c","system_id":"levelo_inurba_marseille","lat":43.24174,"lon":5.36394,"is_reserved":false,"is_disabled":false,"rental_uris":{"android":"levelo://app?vid=35d46972-faca-4525-a2d2-3f928f24f16c","ios":"levelo://app?vid=35d46972-faca-4525-a2d2-3f928f24f16c"},"vehicle_type_id":"4","last_reported":1730797749,"current_range_meters":37600,"station_id":"cpo36qri1sfpv3e86is0","pricing_plan_id":"cebpf4jnsgd1na2vs0mg"},{"bike_id":"d318c6e1-c410-412e-a114-e709a85263a0","system_id":"levelo_inurba_marseille","lat":43.25588,"lon":5.38222,"is_reserved":false,"is_disabled":false,"rental_uris":{"android":"levelo://app?vid=d318c6e1-c410-412e-a114-e709a85263a0","ios":"levelo://app?vid=d318c6e1-c410-412e-a114-e709a85263a0"},"vehicle_type_id":"4","last_reported":1730797749,"current_range_meters":32400,"station_id":"ce4bhih2rcd13ifvqfs0","pricing_plan_id":"cebpf4jnsgd1na2vs0mg"},{"bike_id":"2378f453-72a7-4eb2-ab3b-946285d406fd","system_id":"levelo_inurba_marseille","lat":43.29229,"lon":5.37719,"is_reserved":false,"is_disabled":false,"rental_uris":{"android":"levelo://app?vid=2378f453-72a7-4eb2-ab3b-946285d406fd","ios":"levelo://app?vid=2378f453-72a7-4eb2-ab3b-946285d406fd"},"vehicle_type_id":"4","last_reported":1730797749,"current_range_meters":3600,"station_id":"","pricing_plan_id":"cebpf4jnsgd1na2vs0mg"},{"bike_id":"3da4622c-c31c-40d3-8aab-c802043c4fb2","system_id":"levelo_inurba_marseille","lat":43.240821,"lon":5.377378,"is_reserved":false,"is_disabled":false,"rental_uris":{"android":"levelo://app?vid=3da4622c-c31c-40d3-8aab-c802043c4fb2","ios":"levelo://app?vid=3da4622c-c31c-40d3-8aab-c802043c4fb2"},"vehicle_type_id":"4","last_reported":1730797749,"current_range_meters":38800,"station_id":"ce4bhnp2rcd13ifvqgvg","pricing_plan_id":"cebpf4jnsgd1na2vs0mg"},{"bike_id":"182e91a9-0e4e-4788-9b82-32e72e41d2da","system_id":"levelo_inurba_marseille","lat":43.30277,"lon":5.37698,"is_reserved":false,"is_disabled":false,"rental_uris":{"android":"levelo://app?vid=182e91a9-0e4e-4788-9b82-32e72e41d2da","ios":"levelo://app?vid=182e91a9-0e4e-4788-9b82-32e72e41d2da"},"vehicle_type_id":"4","last_reported":1730797749,"current_range_meters":40000,"station_id":"ce4bguh2rcd13ifvqcj0","pricing_plan_id":"cebpf4jnsgd1na2vs0mg"},{"bike_id":"dfb7c549-18f7-49f3-aee1-4cc8391bae6c","system_id":"levelo_inurba_marseille","lat":43.3169,"lon":5.40464,"is_reserved":false,"is_disabled":false,"rental_uris":{"android":"levelo://app?vid=dfb7c549-18f7-49f3-aee1-4cc8391bae6c","ios":"levelo://app?vid=dfb7c549-18f7-49f3-aee1-4cc8391bae6c"},"vehicle_type_id":"4","last_reported":1730797749,"current_range_meters":16800,"station_id":"ce4bh012rcd13ifvqd00","pricing_plan_id":"cebpf4jnsgd1na2vs0mg"},{"bike_id":"842346f7-da91-4c44-a6d1-e84d0afabf42","system_id":"levelo_inurba_marseille","lat":43.29709,"lon":5.376889,"is_reserved":false,"is_disabled":false,"rental_uris":{"android":"levelo://app?vid=842346f7-da91-4c44-a6d1-e84d0afabf42","ios":"levelo://app?vid=842346f7-da91-4c44-a6d1-e84d0afabf42"},"vehicle_type_id":"4","last_reported":1730797749,"current_range_meters":20400,"station_id":"ce4bgkh2rcd13ifvqbl0","pricing_plan_id":"cebpf4jnsgd1na2vs0mg"},{"bike_id":"03a9398a-0e56-40ad-9683-08e761acd13e","system_id":"levelo_inurba_marseille","lat":43.29373,"lon":5.37845,"is_reserved":false,"is_disabled":false,"rental_uris":{"android":"levelo://app?vid=03a9398a-0e56-40ad-9683-08e761acd13e","ios":"levelo://app?vid=03a9398a-0e56-40ad-9683-08e761acd13e"},"vehicle_type_id":"4","last_reported":1730797749,"current_range_meters":17600,"station_id":"ce4bgjh2rcd13ifvqbf0","pricing_plan_id":"cebpf4jnsgd1na2vs0mg"},{"bike_id":"8f9b1417-60dc-4e25-94ce-f05731a86005","system_id":"levelo_inurba_marseille","lat":43.30282,"lon":5.3771,"is_reserved":false,"is_disabled":false,"rental_uris":{"android":"levelo://app?vid=8f9b1417-60dc-4e25-94ce-f05731a86005","ios":"levelo://app?vid=8f9b1417-60dc-4e25-94ce-f05731a86005"},"vehicle_type_id":"4","last_reported":1730797749,"current_range_meters":30000,"station_id":"ce4bguh2rcd13ifvqcj0","pricing_plan_id":"cebpf4jnsgd1na2vs0mg"},{"bike_id":"ee2b2394-b3c1-485d-ac2f-90f36124a8fc","system_id":"levelo_inurba_marseille","lat":43.26307,"lon":5.378398,"is_reserved":false,"is_disabled":false,"rental_uris":{"android":"levelo://app?vid=ee2b2394-b3c1-485d-ac2f-90f36124a8fc","ios":"levelo://app?vid=ee2b2394-b3c1-485d-ac2f-90f36124a8fc"},"vehicle_type_id":"4","last_reported":1730797749,"current_range_meters":17600,"station_id":"ce4bhjp2rcd13ifvqg90","pricing_plan_id":"cebpf4jnsgd1na2vs0mg"},{"bike_id":"1ed8cd58-b59f-420d-9864-026ef8a58772","system_id":"levelo_inurba_marseille","lat":43.24077,"lon":5.37754,"is_reserved":false,"is_disabled":false,"rental_uris":{"android":"levelo://app?vid=1ed8cd58-b59f-420d-9864-026ef8a58772","ios":"levelo://app?vid=1ed8cd58-b59f-420d-9864-026ef8a58772"},"vehicle_type_id":"4","last_reported":1730797749,"current_range_meters":2800,"station_id":"ce4bhnp2rcd13ifvqgvg","pricing_plan_id":"cebpf4jnsgd1na2vs0mg"},{"bike_id":"551ac0ac-232d-4450-b3d3-1dea3064e4dc","system_id":"levelo_inurba_marseille","lat":43.26948,"lon":5.38626,"is_reserved":false,"is_disabled":false,"rental_uris":{"android":"levelo://app?vid=551ac0ac-232d-4450-b3d3-1dea3064e4dc","ios":"levelo://app?vid=551ac0ac-232d-4450-b3d3-1dea3064e4dc"},"vehicle_type_id":"4","last_reported":1730797749,"current_range_meters":26800,"station_id":"ce4bhh92rcd13ifvqfh0","pricing_plan_id":"cebpf4jnsgd1na2vs0mg"},{"bike_id":"ddfa70a9-9d32-48ef-99b7-f4cb9b41791d","system_id":"levelo_inurba_marseille","lat":43.2407,"lon":5.3776,"is_reserved":false,"is_disabled":false,"rental_uris":{"android":"levelo://app?vid=ddfa70a9-9d32-48ef-99b7-f4cb9b41791d","ios":"levelo://app?vid=ddfa70a9-9d32-48ef-99b7-f4cb9b41791d"},"vehicle_type_id":"4","last_reported":1730797749,"current_range_meters":10000,"station_id":"ce4bhnp2rcd13ifvqgvg","pricing_plan_id":"cebpf4jnsgd1na2vs0mg"},{"bike_id":"43d4bba5-6f0b-4298-a1d8-2aeaed3322ca","system_id":"levelo_inurba_marseille","lat":43.30462,"lon":5.37903,"is_reserved":false,"is_disabled":false,"rental_uris":{"android":"levelo://app?vid=43d4bba5-6f0b-4298-a1d8-2aeaed3322ca","ios":"levelo://app?vid=43d4bba5-6f0b-4298-a1d8-2aeaed3322ca"},"vehicle_type_id":"4","last_reported":1730797749,"current_range_meters":39200,"station_id":"ce4bgup2rcd13ifvqcn0","pricing_plan_id":"cebpf4jnsgd1na2vs0mg"},{"bike_id":"51b0cc7e-772d-41e9-97a0-b689f0d0604e","system_id":"levelo_inurba_marseille","lat":43.31352,"lon":5.36719,"is_reserved":false,"is_disabled":false,"rental_uris":{"android":"levelo://app?vid=51b0cc7e-772d-41e9-97a0-b689f0d0604e","ios":"levelo://app?vid=51b0cc7e-772d-41e9-97a0-b689f0d0604e"},"vehicle_type_id":"4","last_reported":1730797749,"current_range_meters":38800,"station_id":"ce4bgr92rcd13ifvqc6g","pricing_plan_id":"cebpf4jnsgd1na2vs0mg"},{"bike_id":"04c30238-4724-4d8b-b6ae-850ca30f3601","system_id":"levelo_inurba_marseille","lat":43.28469,"lon":5.35894,"is_reserved":false,"is_disabled":false,"rental_uris":{"android":"levelo://app?vid=04c30238-4724-4d8b-b6ae-850ca30f3601","ios":"levelo://app?vid=04c30238-4724-4d8b-b6ae-850ca30f3601"},"vehicle_type_id":"4","last_reported":1730797749,"current_range_meters":29600,"station_id":"ce4bhah2rcd13ifvqei0","pricing_plan_id":"cebpf4jnsgd1na2vs0mg"},{"bike_id":"b4681e4e-5f30-478f-ba1d-da580c8af293","system_id":"levelo_inurba_marseille","lat":43.24073,"lon":5.37759,"is_reserved":false,"is_disabled":false,"rental_uris":{"android":"levelo://app?vid=b4681e4e-5f30-478f-ba1d-da580c8af293","ios":"levelo://app?vid=b4681e4e-5f30-478f-ba1d-da580c8af293"},"vehicle_type_id":"4","last_reported":1730797749,"current_range_meters":34800,"station_id":"ce4bhnp2rcd13ifvqgvg","pricing_plan_id":"cebpf4jnsgd1na2vs0mg"},{"bike_id":"7ca7c163-00bc-4abf-b7da-eae7c52c45ae","system_id":"levelo_inurba_marseille","lat":43.30607,"lon":5.37218,"is_reserved":false,"is_disabled":false,"rental_uris":{"android":"levelo://app?vid=7ca7c163-00bc-4abf-b7da-eae7c52c45ae","ios":"levelo://app?vid=7ca7c163-00bc-4abf-b7da-eae7c52c45ae"},"vehicle_type_id":"4","last_reported":1730797749,"current_range_meters":37600,"station_id":"ce4bgqh2rcd13ifvqc4g","pricing_plan_id":"cebpf4jnsgd1na2vs0mg"},{"bike_id":"7dcbf618-7b81-4a8b-bf18-63d8efcda169","system_id":"levelo_inurba_marseille","lat":43.30954,"lon":5.39028,"is_reserved":false,"is_disabled":false,"rental_uris":{"android":"levelo://app?vid=7dcbf618-7b81-4a8b-bf18-63d8efcda169","ios":"levelo://app?vid=7dcbf618-7b81-4a8b-bf18-63d8efcda169"},"vehicle_type_id":"4","last_reported":1730797749,"current_range_meters":33200,"station_id":"ce4bgup2rcd13ifvqco0","pricing_plan_id":"cebpf4jnsgd1na2vs0mg"},{"bike_id":"06709a5b-2e0b-43f2-948e-c99d6f7d728d","system_id":"levelo_inurba_marseille","lat":43.25588,"lon":5.38225,"is_reserved":false,"is_disabled":false,"rental_uris":{"android":"levelo://app?vid=06709a5b-2e0b-43f2-948e-c99d6f7d728d","ios":"levelo://app?vid=06709a5b-2e0b-43f2-948e-c99d6f7d728d"},"vehicle_type_id":"4","last_reported":1730797749,"current_range_meters":24800,"station_id":"ce4bhih2rcd13ifvqfs0","pricing_plan_id":"cebpf4jnsgd1na2vs0mg"},{"bike_id":"99d78f6e-5bfc-4e99-baa1-b9137a41c134","system_id":"levelo_inurba_marseille","lat":43.28151,"lon":5.42645,"is_reserved":false,"is_disabled":false,"rental_uris":{"android":"levelo://app?vid=99d78f6e-5bfc-4e99-baa1-b9137a41c134","ios":"levelo://app?vid=99d78f6e-5bfc-4e99-baa1-b9137a41c134"},"vehicle_type_id":"4","last_reported":1730797749,"current_range_meters":37600,"station_id":"ce4bhnh2rcd13ifvqgug","pricing_plan_id":"cebpf4jnsgd1na2vs0mg"},{"bike_id":"0fb9819f-f5ed-4bc1-9006-4b1ad7d9b36e","system_id":"levelo_inurba_marseille","lat":43.32482,"lon":5.36571,"is_reserved":false,"is_disabled":false,"rental_uris":{"android":"levelo://app?vid=0fb9819f-f5ed-4bc1-9006-4b1ad7d9b36e","ios":"levelo://app?vid=0fb9819f-f5ed-4bc1-9006-4b1ad7d9b36e"},"vehicle_type_id":"4","last_reported":1730797749,"current_range_meters":14400,"station_id":"ce4bhs12rcd13ifvqhvg","pricing_plan_id":"cebpf4jnsgd1na2vs0mg"},{"bike_id":"878e1338-9921-44c7-b3fa-0c4d6e128386","system_id":"levelo_inurba_marseille","lat":43.30913,"lon":5.36848,"is_reserved":false,"is_disabled":false,"rental_uris":{"android":"levelo://app?vid=878e1338-9921-44c7-b3fa-0c4d6e128386","ios":"levelo://app?vid=878e1338-9921-44c7-b3fa-0c4d6e128386"},"vehicle_type_id":"4","last_reported":1730797749,"current_range_meters":22400,"station_id":"ce4bgn92rcd13ifvqbvg","pricing_plan_id":"cebpf4jnsgd1na2vs0mg"},{"bike_id":"8e27b20d-f4e3-43fc-818c-0ed56742fb8c","system_id":"levelo_inurba_marseille","lat":43.33755,"lon":5.37446,"is_reserved":false,"is_disabled":false,"rental_uris":{"android":"levelo://app?vid=8e27b20d-f4e3-43fc-818c-0ed56742fb8c","ios":"levelo://app?vid=8e27b20d-f4e3-43fc-818c-0ed56742fb8c"},"vehicle_type_id":"4","last_reported":1730797749,"current_range_meters":36800,"station_id":"","pricing_plan_id":"cebpf4jnsgd1na2vs0mg"},{"bike_id":"c5c22aec-2d85-4437-b8e8-52528a4d9d6a","system_id":"levelo_inurba_marseille","lat":43.29917,"lon":5.37469,"is_reserved":false,"is_disabled":false,"rental_uris":{"android":"levelo://app?vid=c5c22aec-2d85-4437-b8e8-52528a4d9d6a","ios":"levelo://app?vid=c5c22aec-2d85-4437-b8e8-52528a4d9d6a"},"vehicle_type_id":"4","last_reported":1730797749,"current_range_meters":40000,"station_id":"ce4bgjh2rcd13ifvqbg0","pricing_plan_id":"cebpf4jnsgd1na2vs0mg"},{"bike_id":"037eaf0f-9112-47d3-aa8d-7a0ef0d58625","system_id":"levelo_inurba_marseille","lat":43.24167,"lon":5.36395,"is_reserved":false,"is_disabled":false,"rental_uris":{"android":"levelo://app?vid=037eaf0f-9112-47d3-aa8d-7a0ef0d58625","ios":"levelo://app?vid=037eaf0f-9112-47d3-aa8d-7a0ef0d58625"},"vehicle_type_id":"4","last_reported":1730797749,"current_range_meters":38400,"station_id":"cpo36qri1sfpv3e86is0","pricing_plan_id":"cebpf4jnsgd1na2vs0mg"},{"bike_id":"b48a84e3-2aca-4b6b-aecb-1f9a1933b1b4","system_id":"levelo_inurba_marseille","lat":43.30888,"lon":5.37194,"is_reserved":false,"is_disabled":false,"rental_uris":{"android":"levelo://app?vid=b48a84e3-2aca-4b6b-aecb-1f9a1933b1b4","ios":"levelo://app?vid=b48a84e3-2aca-4b6b-aecb-1f9a1933b1b4"},"vehicle_type_id":"4","last_reported":1730797749,"current_range_meters":23200,"station_id":"ce4bguh2rcd13ifvqckg","pricing_plan_id":"cebpf4jnsgd1na2vs0mg"},{"bike_id":"36ba5c9e-9c9d-4911-8268-f11a4daebd56","system_id":"levelo_inurba_marseille","lat":43.27059,"lon":5.40258,"is_reserved":false,"is_disabled":false,"rental_uris":{"android":"levelo://app?vid=36ba5c9e-9c9d-4911-8268-f11a4daebd56","ios":"levelo://app?vid=36ba5c9e-9c9d-4911-8268-f11a4daebd56"},"vehicle_type_id":"4","last_reported":1730797749,"current_range_meters":38800,"station_id":"ce4bhk92rcd13ifvqgc0","pricing_plan_id":"cebpf4jnsgd1na2vs0mg"},{"bike_id":"98b0350c-71d2-4d3f-bcc7-d7d1b37428aa","system_id":"levelo_inurba_marseille","lat":43.30459,"lon":5.37899,"is_reserved":false,"is_disabled":false,"rental_uris":{"android":"levelo://app?vid=98b0350c-71d2-4d3f-bcc7-d7d1b37428aa","ios":"levelo://app?vid=98b0350c-71d2-4d3f-bcc7-d7d1b37428aa"},"vehicle_type_id":"4","last_reported":1730797749,"current_range_meters":38400,"station_id":"ce4bgup2rcd13ifvqcn0","pricing_plan_id":"cebpf4jnsgd1na2vs0mg"},{"bike_id":"d21c28b2-c174-4e9f-ad7f-35fb94eae1cd","system_id":"levelo_inurba_marseille","lat":43.30537,"lon":5.36702,"is_reserved":false,"is_disabled":false,"rental_uris":{"android":"levelo://app?vid=d21c28b2-c174-4e9f-ad7f-35fb94eae1cd","ios":"levelo://app?vid=d21c28b2-c174-4e9f-ad7f-35fb94eae1cd"},"vehicle_type_id":"4","last_reported":1730797749,"current_range_meters":39200,"station_id":"ce4bgrp2rcd13ifvqc9g","pricing_plan_id":"cebpf4jnsgd1na2vs0mg"},{"bike_id":"808063db-7290-45cf-a512-4559e44653ed","system_id":"levelo_inurba_marseille","lat":43.26682,"lon":5.38261,"is_reserved":false,"is_disabled":false,"rental_uris":{"android":"levelo://app?vid=808063db-7290-45cf-a512-4559e44653ed","ios":"levelo://app?vid=808063db-7290-45cf-a512-4559e44653ed"},"vehicle_type_id":"4","last_reported":1730797749,"current_range_meters":38800,"station_id":"ce4bhg92rcd13ifvqf90","pricing_plan_id":"cebpf4jnsgd1na2vs0mg"},{"bike_id":"acdea68a-7783-4908-bf21-09a59a510c29","system_id":"levelo_inurba_marseille","lat":43.31344,"lon":5.3673,"is_reserved":false,"is_disabled":false,"rental_uris":{"android":"levelo://app?vid=acdea68a-7783-4908-bf21-09a59a510c29","ios":"levelo://app?vid=acdea68a-7783-4908-bf21-09a59a510c29"},"vehicle_type_id":"4","last_reported":1730797749,"current_range_meters":25600,"station_id":"ce4bgr92rcd13ifvqc6g","pricing_plan_id":"cebpf4jnsgd1na2vs0mg"},{"bike_id":"b994a93e-049f-4e93-afc0-dd2e31b2f630","system_id":"levelo_inurba_marseille","lat":43.26553,"lon":5.37285,"is_reserved":false,"is_disabled":false,"rental_uris":{"android":"levelo://app?vid=b994a93e-049f-4e93-afc0-dd2e31b2f630","ios":"levelo://app?vid=b994a93e-049f-4e93-afc0-dd2e31b2f630"},"vehicle_type_id":"4","last_reported":1730797749,"current_range_meters":14800,"station_id":"ce4bhg12rcd13ifvqf70","pricing_plan_id":"cebpf4jnsgd1na2vs0mg"},{"bike_id":"a9eba138-536c-4a61-803a-c0067d3bb559","system_id":"levelo_inurba_marseille","lat":43.3095,"lon":5.39031,"is_reserved":false,"is_disabled":false,"rental_uris":{"android":"levelo://app?vid=a9eba138-536c-4a61-803a-c0067d3bb559","ios":"levelo://app?vid=a9eba138-536c-4a61-803a-c0067d3bb559"},"vehicle_type_id":"4","last_reported":1730797749,"current_range_meters":32400,"station_id":"ce4bgup2rcd13ifvqco0","pricing_plan_id":"cebpf4jnsgd1na2vs0mg"},{"bike_id":"bed9cae1-49b3-4e1c-959e-906ab6f120d6","system_id":"levelo_inurba_marseille","lat":43.30432,"lon":5.38887,"is_reserved":false,"is_disabled":false,"rental_uris":{"android":"levelo://app?vid=bed9cae1-49b3-4e1c-959e-906ab6f120d6","ios":"levelo://app?vid=bed9cae1-49b3-4e1c-959e-906ab6f120d6"},"vehicle_type_id":"4","last_reported":1730797749,"current_range_meters":38800,"station_id":"ce4bgk12rcd13ifvqbi0","pricing_plan_id":"cebpf4jnsgd1na2vs0mg"},{"bike_id":"8d5faf28-e526-4d5b-93d3-399bd2cb1046","system_id":"levelo_inurba_marseille","lat":43.31753,"lon":5.39013,"is_reserved":false,"is_disabled":false,"rental_uris":{"android":"levelo://app?vid=8d5faf28-e526-4d5b-93d3-399bd2cb1046","ios":"levelo://app?vid=8d5faf28-e526-4d5b-93d3-399bd2cb1046"},"vehicle_type_id":"4","last_reported":1730797749,"current_range_meters":9600,"station_id":"ce4bhqp2rcd13ifvqhng","pricing_plan_id":"cebpf4jnsgd1na2vs0mg"},{"bike_id":"340a7787-a7bb-487e-b987-8609f75ecfd6","system_id":"levelo_inurba_marseille","lat":43.30961,"lon":5.39032,"is_reserved":false,"is_disabled":false,"rental_uris":{"android":"levelo://app?vid=340a7787-a7bb-487e-b987-8609f75ecfd6","ios":"levelo://app?vid=340a7787-a7bb-487e-b987-8609f75ecfd6"},"vehicle_type_id":"4","last_reported":1730797749,"current_range_meters":9200,"station_id":"ce4bgup2rcd13ifvqco0","pricing_plan_id":"cebpf4jnsgd1na2vs0mg"},{"bike_id":"4efe1719-2091-49a9-b407-f0f4961cf2b0","system_id":"levelo_inurba_marseille","lat":43.27487,"lon":5.42458,"is_reserved":false,"is_disabled":false,"rental_uris":{"android":"levelo://app?vid=4efe1719-2091-49a9-b407-f0f4961cf2b0","ios":"levelo://app?vid=4efe1719-2091-49a9-b407-f0f4961cf2b0"},"vehicle_type_id":"4","last_reported":1730797749,"current_range_meters":25200,"station_id":"ce4bhn92rcd13ifvqgrg","pricing_plan_id":"cebpf4jnsgd1na2vs0mg"},{"bike_id":"b5285c74-98e8-4f0a-94af-92f68936c3b4","system_id":"levelo_inurba_marseille","lat":43.29584,"lon":5.36743,"is_reserved":false,"is_disabled":false,"rental_uris":{"android":"levelo://app?vid=b5285c74-98e8-4f0a-94af-92f68936c3b4","ios":"levelo://app?vid=b5285c74-98e8-4f0a-94af-92f68936c3b4"},"vehicle_type_id":"4","last_reported":1730797749,"current_range_meters":28400,"station_id":"ce4bgph2rcd13ifvqc2g","pricing_plan_id":"cebpf4jnsgd1na2vs0mg"},{"bike_id":"17089379-7bd8-4e4a-9fb6-4bf532874469","system_id":"levelo_inurba_marseille","lat":43.295654,"lon":5.378173,"is_reserved":false,"is_disabled":false,"rental_uris":{"android":"levelo://app?vid=17089379-7bd8-4e4a-9fb6-4bf532874469","ios":"levelo://app?vid=17089379-7bd8-4e4a-9fb6-4bf532874469"},"vehicle_type_id":"4","last_reported":1730797749,"current_range_meters":12400,"station_id":"ce4bgi92rcd13ifvqb90","pricing_plan_id":"cebpf4jnsgd1na2vs0mg"},{"bike_id":"5803e50c-ff32-4ed0-b16a-630fb5ae9991","system_id":"levelo_inurba_marseille","lat":43.29093,"lon":5.38151,"is_reserved":false,"is_disabled":false,"rental_uris":{"android":"levelo://app?vid=5803e50c-ff32-4ed0-b16a-630fb5ae9991","ios":"levelo://app?vid=5803e50c-ff32-4ed0-b16a-630fb5ae9991"},"vehicle_type_id":"4","last_reported":1730797749,"current_range_meters":35600,"station_id":"ce4bh512rcd13ifvqe2g","pricing_plan_id":"cebpf4jnsgd1na2vs0mg"},{"bike_id":"9144c157-634d-4240-9c41-6d80b65ff913","system_id":"levelo_inurba_marseille","lat":43.30546,"lon":5.36534,"is_reserved":false,"is_disabled":false,"rental_uris":{"android":"levelo://app?vid=9144c157-634d-4240-9c41-6d80b65ff913","ios":"levelo://app?vid=9144c157-634d-4240-9c41-6d80b65ff913"},"vehicle_type_id":"4","last_reported":1730797749,"current_range_meters":30800,"station_id":"ce4bgs12rcd13ifvqcag","pricing_plan_id":"cebpf4jnsgd1na2vs0mg"},{"bike_id":"de9bc7da-0805-4f2e-a638-6f594e31fc19","system_id":"levelo_inurba_marseille","lat":43.23152,"lon":5.43703,"is_reserved":false,"is_disabled":false,"rental_uris":{"android":"levelo://app?vid=de9bc7da-0805-4f2e-a638-6f594e31fc19","ios":"levelo://app?vid=de9bc7da-0805-4f2e-a638-6f594e31fc19"},"vehicle_type_id":"4","last_reported":1730797749,"current_range_meters":21600,"station_id":"ce4bhmp2rcd13ifvqgog","pricing_plan_id":"cebpf4jnsgd1na2vs0mg"},{"bike_id":"5fb98fcb-8467-43bc-8f32-700a3dc876c9","system_id":"levelo_inurba_marseille","lat":43.23153,"lon":5.43715,"is_reserved":false,"is_disabled":false,"rental_uris":{"android":"levelo://app?vid=5fb98fcb-8467-43bc-8f32-700a3dc876c9","ios":"levelo://app?vid=5fb98fcb-8467-43bc-8f32-700a3dc876c9"},"vehicle_type_id":"4","last_reported":1730797749,"current_range_meters":24000,"station_id":"ce4bhmp2rcd13ifvqgog","pricing_plan_id":"cebpf4jnsgd1na2vs0mg"},{"bike_id":"f2c092a2-0134-4ce9-b755-7ee8d58ab87c","system_id":"levelo_inurba_marseille","lat":43.27108,"lon":5.38181,"is_reserved":false,"is_disabled":false,"rental_uris":{"android":"levelo://app?vid=f2c092a2-0134-4ce9-b755-7ee8d58ab87c","ios":"levelo://app?vid=f2c092a2-0134-4ce9-b755-7ee8d58ab87c"},"vehicle_type_id":"4","last_reported":1730797749,"current_range_meters":22800,"station_id":"","pricing_plan_id":"cebpf4jnsgd1na2vs0mg"},{"bike_id":"f38b74f1-091f-4a53-be86-f11ff6a2b03b","system_id":"levelo_inurba_marseille","lat":43.24073,"lon":5.37747,"is_reserved":false,"is_disabled":false,"rental_uris":{"android":"levelo://app?vid=f38b74f1-091f-4a53-be86-f11ff6a2b03b","ios":"levelo://app?vid=f38b74f1-091f-4a53-be86-f11ff6a2b03b"},"vehicle_type_id":"4","last_reported":1730797749,"current_range_meters":36000,"station_id":"ce4bhnp2rcd13ifvqgvg","pricing_plan_id":"cebpf4jnsgd1na2vs0mg"},{"bike_id":"576c5343-e842-4ace-8ef5-4494705c6e20","system_id":"levelo_inurba_marseille","lat":43.27508,"lon":5.42438,"is_reserved":false,"is_disabled":false,"rental_uris":{"android":"levelo://app?vid=576c5343-e842-4ace-8ef5-4494705c6e20","ios":"levelo://app?vid=576c5343-e842-4ace-8ef5-4494705c6e20"},"vehicle_type_id":"4","last_reported":1730797749,"current_range_meters":24400,"station_id":"ce4bhn92rcd13ifvqgrg","pricing_plan_id":"cebpf4jnsgd1na2vs0mg"},{"bike_id":"3cc9dd69-9c0d-41f6-8f9d-006e9497ebe4","system_id":"levelo_inurba_marseille","lat":43.33749,"lon":5.37438,"is_reserved":false,"is_disabled":false,"rental_uris":{"android":"levelo://app?vid=3cc9dd69-9c0d-41f6-8f9d-006e9497ebe4","ios":"levelo://app?vid=3cc9dd69-9c0d-41f6-8f9d-006e9497ebe4"},"vehicle_type_id":"4","last_reported":1730797749,"current_range_meters":38800,"station_id":"","pricing_plan_id":"cebpf4jnsgd1na2vs0mg"},{"bike_id":"b498b98d-e880-4ac2-b168-2cbbc804a79b","system_id":"levelo_inurba_marseille","lat":43.26683,"lon":5.38268,"is_reserved":false,"is_disabled":false,"rental_uris":{"android":"levelo://app?vid=b498b98d-e880-4ac2-b168-2cbbc804a79b","ios":"levelo://app?vid=b498b98d-e880-4ac2-b168-2cbbc804a79b"},"vehicle_type_id":"4","last_reported":1730797749,"current_range_meters":28800,"station_id":"ce4bhg92rcd13ifvqf90","pricing_plan_id":"cebpf4jnsgd1na2vs0mg"},{"bike_id":"5eeefd11-649c-499f-9856-2a20cd33e6cb","system_id":"levelo_inurba_marseille","lat":43.30547,"lon":5.36702,"is_reserved":false,"is_disabled":false,"rental_uris":{"android":"levelo://app?vid=5eeefd11-649c-499f-9856-2a20cd33e6cb","ios":"levelo://app?vid=5eeefd11-649c-499f-9856-2a20cd33e6cb"},"vehicle_type_id":"4","last_reported":1730797749,"current_range_meters":11600,"station_id":"ce4bgrp2rcd13ifvqc9g","pricing_plan_id":"cebpf4jnsgd1na2vs0mg"},{"bike_id":"2e01336c-e619-4649-8e1c-31d6863b91fd","system_id":"levelo_inurba_marseille","lat":43.24069,"lon":5.37756,"is_reserved":false,"is_disabled":false,"rental_uris":{"android":"levelo://app?vid=2e01336c-e619-4649-8e1c-31d6863b91fd","ios":"levelo://app?vid=2e01336c-e619-4649-8e1c-31d6863b91fd"},"vehicle_type_id":"4","last_reported":1730797749,"current_range_meters":10000,"station_id":"ce4bhnp2rcd13ifvqgvg","pricing_plan_id":"cebpf4jnsgd1na2vs0mg"},{"bike_id":"83213470-c234-4867-a048-a0b982c3c4a4","system_id":"levelo_inurba_marseille","lat":43.26061,"lon":5.39393,"is_reserved":false,"is_disabled":false,"rental_uris":{"android":"levelo://app?vid=83213470-c234-4867-a048-a0b982c3c4a4","ios":"levelo://app?vid=83213470-c234-4867-a048-a0b982c3c4a4"},"vehicle_type_id":"4","last_reported":1730797749,"current_range_meters":22800,"station_id":"ce4bhh92rcd13ifvqfj0","pricing_plan_id":"cebpf4jnsgd1na2vs0mg"},{"bike_id":"4f89cd28-e8bb-461f-a3db-aaf6ada6710d","system_id":"levelo_inurba_marseille","lat":43.26954,"lon":5.38633,"is_reserved":false,"is_disabled":false,"rental_uris":{"android":"levelo://app?vid=4f89cd28-e8bb-461f-a3db-aaf6ada6710d","ios":"levelo://app?vid=4f89cd28-e8bb-461f-a3db-aaf6ada6710d"},"vehicle_type_id":"4","last_reported":1730797749,"current_range_meters":28800,"station_id":"ce4bhh92rcd13ifvqfh0","pricing_plan_id":"cebpf4jnsgd1na2vs0mg"},{"bike_id":"684b55ab-0295-4cdc-9f9f-632b20f8277f","system_id":"levelo_inurba_marseille","lat":43.30133,"lon":5.3986,"is_reserved":false,"is_disabled":false,"rental_uris":{"android":"levelo://app?vid=684b55ab-0295-4cdc-9f9f-632b20f8277f","ios":"levelo://app?vid=684b55ab-0295-4cdc-9f9f-632b20f8277f"},"vehicle_type_id":"4","last_reported":1730797749,"current_range_meters":22800,"station_id":"ce4bh0h2rcd13ifvqd40","pricing_plan_id":"cebpf4jnsgd1na2vs0mg"},{"bike_id":"b9b12d63-3609-4a50-a2a5-e2c8dc25af4c","system_id":"levelo_inurba_marseille","lat":43.30909,"lon":5.36845,"is_reserved":false,"is_disabled":false,"rental_uris":{"android":"levelo://app?vid=b9b12d63-3609-4a50-a2a5-e2c8dc25af4c","ios":"levelo://app?vid=b9b12d63-3609-4a50-a2a5-e2c8dc25af4c"},"vehicle_type_id":"4","last_reported":1730797749,"current_range_meters":14000,"station_id":"ce4bgn92rcd13ifvqbvg","pricing_plan_id":"cebpf4jnsgd1na2vs0mg"},{"bike_id":"173a7b01-a959-4a48-9815-e3c2b11ec7b9","system_id":"levelo_inurba_marseille","lat":43.29197,"lon":5.35801,"is_reserved":false,"is_disabled":false,"rental_uris":{"android":"levelo://app?vid=173a7b01-a959-4a48-9815-e3c2b11ec7b9","ios":"levelo://app?vid=173a7b01-a959-4a48-9815-e3c2b11ec7b9"},"vehicle_type_id":"4","last_reported":1730797749,"current_range_meters":17200,"station_id":"ce4bhb12rcd13ifvqel0","pricing_plan_id":"cebpf4jnsgd1na2vs0mg"},{"bike_id":"18ce672e-f7b2-453e-8c80-e0b41ff871de","system_id":"levelo_inurba_marseille","lat":43.29709,"lon":5.37685,"is_reserved":false,"is_disabled":false,"rental_uris":{"android":"levelo://app?vid=18ce672e-f7b2-453e-8c80-e0b41ff871de","ios":"levelo://app?vid=18ce672e-f7b2-453e-8c80-e0b41ff871de"},"vehicle_type_id":"4","last_reported":1730797749,"current_range_meters":24400,"station_id":"ce4bgkh2rcd13ifvqbl0","pricing_plan_id":"cebpf4jnsgd1na2vs0mg"},{"bike_id":"d112ef64-8345-40dc-a437-a0aa8c5bd57d","system_id":"levelo_inurba_marseille","lat":43.30541,"lon":5.36696,"is_reserved":false,"is_disabled":false,"rental_uris":{"android":"levelo://app?vid=d112ef64-8345-40dc-a437-a0aa8c5bd57d","ios":"levelo://app?vid=d112ef64-8345-40dc-a437-a0aa8c5bd57d"},"vehicle_type_id":"4","last_reported":1730797749,"current_range_meters":40000,"station_id":"ce4bgrp2rcd13ifvqc9g","pricing_plan_id":"cebpf4jnsgd1na2vs0mg"},{"bike_id":"11077b42-689c-4dd0-bba0-e371d30c5902","system_id":"levelo_inurba_marseille","lat":43.242432,"lon":5.379672,"is_reserved":false,"is_disabled":false,"rental_uris":{"android":"levelo://app?vid=11077b42-689c-4dd0-bba0-e371d30c5902","ios":"levelo://app?vid=11077b42-689c-4dd0-bba0-e371d30c5902"},"vehicle_type_id":"4","last_reported":1730797749,"current_range_meters":15200,"station_id":"","pricing_plan_id":"cebpf4jnsgd1na2vs0mg"},{"bike_id":"5931a260-1033-4cf1-9cac-35ff1b447cb6","system_id":"levelo_inurba_marseille","lat":43.24178,"lon":5.39732,"is_reserved":false,"is_disabled":false,"rental_uris":{"android":"levelo://app?vid=5931a260-1033-4cf1-9cac-35ff1b447cb6","ios":"levelo://app?vid=5931a260-1033-4cf1-9cac-35ff1b447cb6"},"vehicle_type_id":"4","last_reported":1730797749,"current_range_meters":20800,"station_id":"ce4bhn12rcd13ifvqgpg","pricing_plan_id":"cebpf4jnsgd1na2vs0mg"},{"bike_id":"c7991380-0669-4bc8-a975-8ccd31dccdf7","system_id":"levelo_inurba_marseille","lat":43.29273,"lon":5.36844,"is_reserved":false,"is_disabled":false,"rental_uris":{"android":"levelo://app?vid=c7991380-0669-4bc8-a975-8ccd31dccdf7","ios":"levelo://app?vid=c7991380-0669-4bc8-a975-8ccd31dccdf7"},"vehicle_type_id":"4","last_reported":1730797749,"current_range_meters":7200,"station_id":"ce4bhbp2rcd13ifvqesg","pricing_plan_id":"cebpf4jnsgd1na2vs0mg"},{"bike_id":"a0912906-4b14-4e13-9640-a668a5630058","system_id":"levelo_inurba_marseille","lat":43.29031,"lon":5.39963,"is_reserved":false,"is_disabled":false,"rental_uris":{"android":"levelo://app?vid=a0912906-4b14-4e13-9640-a668a5630058","ios":"levelo://app?vid=a0912906-4b14-4e13-9640-a668a5630058"},"vehicle_type_id":"4","last_reported":1730797749,"current_range_meters":39200,"station_id":"ce4bh392rcd13ifvqdm0","pricing_plan_id":"cebpf4jnsgd1na2vs0mg"},{"bike_id":"adf94568-f560-4501-938c-780d1b506fa8","system_id":"levelo_inurba_marseille","lat":43.31115,"lon":5.37139,"is_reserved":false,"is_disabled":false,"rental_uris":{"android":"levelo://app?vid=adf94568-f560-4501-938c-780d1b506fa8","ios":"levelo://app?vid=adf94568-f560-4501-938c-780d1b506fa8"},"vehicle_type_id":"4","last_reported":1730797749,"current_range_meters":35200,"station_id":"ce4bgr92rcd13ifvqc6g","pricing_plan_id":"cebpf4jnsgd1na2vs0mg"},{"bike_id":"bcbf6437-ff2a-4f73-91a4-f12f45022ecb","system_id":"levelo_inurba_marseille","lat":43.29626,"lon":5.3771,"is_reserved":false,"is_disabled":false,"rental_uris":{"android":"levelo://app?vid=bcbf6437-ff2a-4f73-91a4-f12f45022ecb","ios":"levelo://app?vid=bcbf6437-ff2a-4f73-91a4-f12f45022ecb"},"vehicle_type_id":"4","last_reported":1730797749,"current_range_meters":14400,"station_id":"ce4bgi92rcd13ifvqb90","pricing_plan_id":"cebpf4jnsgd1na2vs0mg"},{"bike_id":"d3a2d74b-227b-43e0-a669-db2d440f7cc1","system_id":"levelo_inurba_marseille","lat":43.30541,"lon":5.36537,"is_reserved":false,"is_disabled":false,"rental_uris":{"android":"levelo://app?vid=d3a2d74b-227b-43e0-a669-db2d440f7cc1","ios":"levelo://app?vid=d3a2d74b-227b-43e0-a669-db2d440f7cc1"},"vehicle_type_id":"4","last_reported":1730797749,"current_range_meters":10800,"station_id":"ce4bgs12rcd13ifvqcag","pricing_plan_id":"cebpf4jnsgd1na2vs0mg"},{"bike_id":"1188b6aa-11b7-4349-89c8-b72ebc2cdf8c","system_id":"levelo_inurba_marseille","lat":43.32553,"lon":5.41439,"is_reserved":false,"is_disabled":false,"rental_uris":{"android":"levelo://app?vid=1188b6aa-11b7-4349-89c8-b72ebc2cdf8c","ios":"levelo://app?vid=1188b6aa-11b7-4349-89c8-b72ebc2cdf8c"},"vehicle_type_id":"4","last_reported":1730797749,"current_range_meters":36400,"station_id":"ce4bhq12rcd13ifvqhhg","pricing_plan_id":"cebpf4jnsgd1na2vs0mg"},{"bike_id":"a2e40f3a-3095-4e13-b735-28e6c447bc0e","system_id":"levelo_inurba_marseille","lat":43.31231,"lon":5.36851,"is_reserved":false,"is_disabled":false,"rental_uris":{"android":"levelo://app?vid=a2e40f3a-3095-4e13-b735-28e6c447bc0e","ios":"levelo://app?vid=a2e40f3a-3095-4e13-b735-28e6c447bc0e"},"vehicle_type_id":"4","last_reported":1730797749,"current_range_meters":32800,"station_id":"ce4bgl92rcd13ifvqbq0","pricing_plan_id":"cebpf4jnsgd1na2vs0mg"},{"bike_id":"847c65e6-6a93-4381-be99-4a8a98e578bf","system_id":"levelo_inurba_marseille","lat":43.293,"lon":5.37455,"is_reserved":false,"is_disabled":false,"rental_uris":{"android":"levelo://app?vid=847c65e6-6a93-4381-be99-4a8a98e578bf","ios":"levelo://app?vid=847c65e6-6a93-4381-be99-4a8a98e578bf"},"vehicle_type_id":"4","last_reported":1730797749,"current_range_meters":24400,"station_id":"ce4bgi12rcd13ifvqb70","pricing_plan_id":"cebpf4jnsgd1na2vs0mg"},{"bike_id":"15038621-f50b-4d83-b76d-65a0390ac4ac","system_id":"levelo_inurba_marseille","lat":43.27489,"lon":5.42454,"is_reserved":false,"is_disabled":false,"rental_uris":{"android":"levelo://app?vid=15038621-f50b-4d83-b76d-65a0390ac4ac","ios":"levelo://app?vid=15038621-f50b-4d83-b76d-65a0390ac4ac"},"vehicle_type_id":"4","last_reported":1730797749,"current_range_meters":28400,"station_id":"ce4bhn92rcd13ifvqgrg","pricing_plan_id":"cebpf4jnsgd1na2vs0mg"},{"bike_id":"0d25758e-80b0-4508-acf5-238abc25a9b1","system_id":"levelo_inurba_marseille","lat":43.30909,"lon":5.36844,"is_reserved":false,"is_disabled":false,"rental_uris":{"android":"levelo://app?vid=0d25758e-80b0-4508-acf5-238abc25a9b1","ios":"levelo://app?vid=0d25758e-80b0-4508-acf5-238abc25a9b1"},"vehicle_type_id":"4","last_reported":1730797749,"current_range_meters":30400,"station_id":"ce4bgn92rcd13ifvqbvg","pricing_plan_id":"cebpf4jnsgd1na2vs0mg"},{"bike_id":"89ed3898-5787-41f0-8b05-9f68f5efd265","system_id":"levelo_inurba_marseille","lat":43.30163,"lon":5.38084,"is_reserved":false,"is_disabled":false,"rental_uris":{"android":"levelo://app?vid=89ed3898-5787-41f0-8b05-9f68f5efd265","ios":"levelo://app?vid=89ed3898-5787-41f0-8b05-9f68f5efd265"},"vehicle_type_id":"4","last_reported":1730797749,"current_range_meters":30000,"station_id":"ce4bgjp2rcd13ifvqbh0","pricing_plan_id":"cebpf4jnsgd1na2vs0mg"},{"bike_id":"2dd40e8a-347a-4069-9f04-901c41b0a3c7","system_id":"levelo_inurba_marseille","lat":43.32105,"lon":5.36767,"is_reserved":false,"is_disabled":false,"rental_uris":{"android":"levelo://app?vid=2dd40e8a-347a-4069-9f04-901c41b0a3c7","ios":"levelo://app?vid=2dd40e8a-347a-4069-9f04-901c41b0a3c7"},"vehicle_type_id":"4","last_reported":1730797749,"current_range_meters":36800,"station_id":"ce4bhrh2rcd13ifvqhug","pricing_plan_id":"cebpf4jnsgd1na2vs0mg"},{"bike_id":"dfda8b1c-5739-4d46-bcee-9938ea212ccb","system_id":"levelo_inurba_marseille","lat":43.28108,"lon":5.4067,"is_reserved":false,"is_disabled":false,"rental_uris":{"android":"levelo://app?vid=dfda8b1c-5739-4d46-bcee-9938ea212ccb","ios":"levelo://app?vid=dfda8b1c-5739-4d46-bcee-9938ea212ccb"},"vehicle_type_id":"4","last_reported":1730797749,"current_range_meters":25200,"station_id":"","pricing_plan_id":"cebpf4jnsgd1na2vs0mg"},{"bike_id":"67dab935-1b71-438c-83ee-d4f8ffbef4c9","system_id":"levelo_inurba_marseille","lat":43.32478,"lon":5.36557,"is_reserved":false,"is_disabled":false,"rental_uris":{"android":"levelo://app?vid=67dab935-1b71-438c-83ee-d4f8ffbef4c9","ios":"levelo://app?vid=67dab935-1b71-438c-83ee-d4f8ffbef4c9"},"vehicle_type_id":"4","last_reported":1730797749,"current_range_meters":24400,"station_id":"ce4bhs12rcd13ifvqhvg","pricing_plan_id":"cebpf4jnsgd1na2vs0mg"},{"bike_id":"aafef72a-734b-4b0d-8b0f-c07b72926a7a","system_id":"levelo_inurba_marseille","lat":43.30539,"lon":5.36543,"is_reserved":false,"is_disabled":false,"rental_uris":{"android":"levelo://app?vid=aafef72a-734b-4b0d-8b0f-c07b72926a7a","ios":"levelo://app?vid=aafef72a-734b-4b0d-8b0f-c07b72926a7a"},"vehicle_type_id":"4","last_reported":1730797749,"current_range_meters":6400,"station_id":"ce4bgs12rcd13ifvqcag","pricing_plan_id":"cebpf4jnsgd1na2vs0mg"},{"bike_id":"c8a2d708-abe4-4e54-aedc-a081f8a474e1","system_id":"levelo_inurba_marseille","lat":43.24081,"lon":5.37754,"is_reserved":false,"is_disabled":false,"rental_uris":{"android":"levelo://app?vid=c8a2d708-abe4-4e54-aedc-a081f8a474e1","ios":"levelo://app?vid=c8a2d708-abe4-4e54-aedc-a081f8a474e1"},"vehicle_type_id":"4","last_reported":1730797749,"current_range_meters":28000,"station_id":"ce4bhnp2rcd13ifvqgvg","pricing_plan_id":"cebpf4jnsgd1na2vs0mg"},{"bike_id":"937ce82d-a7d4-4dbe-af7d-b5b30ccf2148","system_id":"levelo_inurba_marseille","lat":43.31358,"lon":5.3672,"is_reserved":false,"is_disabled":false,"rental_uris":{"android":"levelo://app?vid=937ce82d-a7d4-4dbe-af7d-b5b30ccf2148","ios":"levelo://app?vid=937ce82d-a7d4-4dbe-af7d-b5b30ccf2148"},"vehicle_type_id":"4","last_reported":1730797749,"current_range_meters":36000,"station_id":"ce4bgr92rcd13ifvqc6g","pricing_plan_id":"cebpf4jnsgd1na2vs0mg"},{"bike_id":"476b1032-3456-4e75-9225-7aec38b7121d","system_id":"levelo_inurba_marseille","lat":43.27813,"lon":5.40713,"is_reserved":false,"is_disabled":false,"rental_uris":{"android":"levelo://app?vid=476b1032-3456-4e75-9225-7aec38b7121d","ios":"levelo://app?vid=476b1032-3456-4e75-9225-7aec38b7121d"},"vehicle_type_id":"4","last_reported":1730797749,"current_range_meters":23200,"station_id":"ce4bhnh2rcd13ifvqgtg","pricing_plan_id":"cebpf4jnsgd1na2vs0mg"},{"bike_id":"0e82a3eb-e3e3-4ca6-b551-765f1b1e97e5","system_id":"levelo_inurba_marseille","lat":43.30549,"lon":5.36543,"is_reserved":false,"is_disabled":false,"rental_uris":{"android":"levelo://app?vid=0e82a3eb-e3e3-4ca6-b551-765f1b1e97e5","ios":"levelo://app?vid=0e82a3eb-e3e3-4ca6-b551-765f1b1e97e5"},"vehicle_type_id":"4","last_reported":1730797749,"current_range_meters":39200,"station_id":"ce4bgs12rcd13ifvqcag","pricing_plan_id":"cebpf4jnsgd1na2vs0mg"},{"bike_id":"98ecf52e-74c6-45bc-a5b2-06c6ca5d158c","system_id":"levelo_inurba_marseille","lat":43.30917,"lon":5.36849,"is_reserved":false,"is_disabled":false,"rental_uris":{"android":"levelo://app?vid=98ecf52e-74c6-45bc-a5b2-06c6ca5d158c","ios":"levelo://app?vid=98ecf52e-74c6-45bc-a5b2-06c6ca5d158c"},"vehicle_type_id":"4","last_reported":1730797749,"current_range_meters":40000,"station_id":"ce4bgn92rcd13ifvqbvg","pricing_plan_id":"cebpf4jnsgd1na2vs0mg"},{"bike_id":"0d6389f7-bab8-4ebf-ad74-7e0fecb405b9","system_id":"levelo_inurba_marseille","lat":43.31336,"lon":5.36714,"is_reserved":false,"is_disabled":false,"rental_uris":{"android":"levelo://app?vid=0d6389f7-bab8-4ebf-ad74-7e0fecb405b9","ios":"levelo://app?vid=0d6389f7-bab8-4ebf-ad74-7e0fecb405b9"},"vehicle_type_id":"4","last_reported":1730797749,"current_range_meters":35200,"station_id":"ce4bgr92rcd13ifvqc6g","pricing_plan_id":"cebpf4jnsgd1na2vs0mg"},{"bike_id":"8a3e233f-ea57-4e43-ad00-a941cd32038d","system_id":"levelo_inurba_marseille","lat":43.2768,"lon":5.38878,"is_reserved":false,"is_disabled":false,"rental_uris":{"android":"levelo://app?vid=8a3e233f-ea57-4e43-ad00-a941cd32038d","ios":"levelo://app?vid=8a3e233f-ea57-4e43-ad00-a941cd32038d"},"vehicle_type_id":"4","last_reported":1730797749,"current_range_meters":39200,"station_id":"ce4bhi12rcd13ifvqfo0","pricing_plan_id":"cebpf4jnsgd1na2vs0mg"},{"bike_id":"d847b03c-3815-468a-94e1-497c27685e7d","system_id":"levelo_inurba_marseille","lat":43.31368,"lon":5.3848,"is_reserved":false,"is_disabled":false,"rental_uris":{"android":"levelo://app?vid=d847b03c-3815-468a-94e1-497c27685e7d","ios":"levelo://app?vid=d847b03c-3815-468a-94e1-497c27685e7d"},"vehicle_type_id":"4","last_reported":1730797749,"current_range_meters":27200,"station_id":"ce4bgt92rcd13ifvqcf0","pricing_plan_id":"cebpf4jnsgd1na2vs0mg"},{"bike_id":"4fdca569-3341-4f0b-b1aa-476aecaec33d","system_id":"levelo_inurba_marseille","lat":43.31064,"lon":5.3835,"is_reserved":false,"is_disabled":false,"rental_uris":{"android":"levelo://app?vid=4fdca569-3341-4f0b-b1aa-476aecaec33d","ios":"levelo://app?vid=4fdca569-3341-4f0b-b1aa-476aecaec33d"},"vehicle_type_id":"4","last_reported":1730797749,"current_range_meters":18000,"station_id":"ce4bgv92rcd13ifvqcr0","pricing_plan_id":"cebpf4jnsgd1na2vs0mg"},{"bike_id":"3f6235e3-c348-4ffb-a29a-c267a655e367","system_id":"levelo_inurba_marseille","lat":43.28663,"lon":5.386651,"is_reserved":false,"is_disabled":false,"rental_uris":{"android":"levelo://app?vid=3f6235e3-c348-4ffb-a29a-c267a655e367","ios":"levelo://app?vid=3f6235e3-c348-4ffb-a29a-c267a655e367"},"vehicle_type_id":"4","last_reported":1730797749,"current_range_meters":37600,"station_id":"ce4bh492rcd13ifvqdug","pricing_plan_id":"cebpf4jnsgd1na2vs0mg"},{"bike_id":"3a298cef-0fe7-4fc7-9648-df2467794224","system_id":"levelo_inurba_marseille","lat":43.29033,"lon":5.39971,"is_reserved":false,"is_disabled":false,"rental_uris":{"android":"levelo://app?vid=3a298cef-0fe7-4fc7-9648-df2467794224","ios":"levelo://app?vid=3a298cef-0fe7-4fc7-9648-df2467794224"},"vehicle_type_id":"4","last_reported":1730797749,"current_range_meters":38400,"station_id":"ce4bh392rcd13ifvqdm0","pricing_plan_id":"cebpf4jnsgd1na2vs0mg"},{"bike_id":"8e276551-85a6-4d6f-96cf-66bbded28bbf","system_id":"levelo_inurba_marseille","lat":43.30916,"lon":5.36848,"is_reserved":false,"is_disabled":false,"rental_uris":{"android":"levelo://app?vid=8e276551-85a6-4d6f-96cf-66bbded28bbf","ios":"levelo://app?vid=8e276551-85a6-4d6f-96cf-66bbded28bbf"},"vehicle_type_id":"4","last_reported":1730797749,"current_range_meters":21600,"station_id":"ce4bgn92rcd13ifvqbvg","pricing_plan_id":"cebpf4jnsgd1na2vs0mg"},{"bike_id":"fe319810-8d53-4a22-a087-96a644f89f95","system_id":"levelo_inurba_marseille","lat":43.29846,"lon":5.36264,"is_reserved":false,"is_disabled":false,"rental_uris":{"android":"levelo://app?vid=fe319810-8d53-4a22-a087-96a644f89f95","ios":"levelo://app?vid=fe319810-8d53-4a22-a087-96a644f89f95"},"vehicle_type_id":"4","last_reported":1730797749,"current_range_meters":32400,"station_id":"ce4bgpp2rcd13ifvqc3g","pricing_plan_id":"cebpf4jnsgd1na2vs0mg"},{"bike_id":"ba8f5d9a-4861-4465-b828-23e2245ef053","system_id":"levelo_inurba_marseille","lat":43.23185,"lon":5.39975,"is_reserved":false,"is_disabled":false,"rental_uris":{"android":"levelo://app?vid=ba8f5d9a-4861-4465-b828-23e2245ef053","ios":"levelo://app?vid=ba8f5d9a-4861-4465-b828-23e2245ef053"},"vehicle_type_id":"4","last_reported":1730797749,"current_range_meters":39200,"station_id":"ce4bhn12rcd13ifvqgqg","pricing_plan_id":"cebpf4jnsgd1na2vs0mg"},{"bike_id":"aa4651e0-5c67-4882-91d7-705fd184d1aa","system_id":"levelo_inurba_marseille","lat":43.30547,"lon":5.38432,"is_reserved":false,"is_disabled":false,"rental_uris":{"android":"levelo://app?vid=aa4651e0-5c67-4882-91d7-705fd184d1aa","ios":"levelo://app?vid=aa4651e0-5c67-4882-91d7-705fd184d1aa"},"vehicle_type_id":"4","last_reported":1730797749,"current_range_meters":38400,"station_id":"ce4bgg92rcd13ifvqb30","pricing_plan_id":"cebpf4jnsgd1na2vs0mg"},{"bike_id":"5b8f46d2-0726-4a5f-a9c0-70430fa0502c","system_id":"levelo_inurba_marseille","lat":43.25833,"lon":5.3943,"is_reserved":false,"is_disabled":false,"rental_uris":{"android":"levelo://app?vid=5b8f46d2-0726-4a5f-a9c0-70430fa0502c","ios":"levelo://app?vid=5b8f46d2-0726-4a5f-a9c0-70430fa0502c"},"vehicle_type_id":"4","last_reported":1730797749,"current_range_meters":25600,"station_id":"ce4bhip2rcd13ifvqft0","pricing_plan_id":"cebpf4jnsgd1na2vs0mg"},{"bike_id":"e9c24325-948c-40a0-9716-20b40a7d3bc5","system_id":"levelo_inurba_marseille","lat":43.26682,"lon":5.38274,"is_reserved":false,"is_disabled":false,"rental_uris":{"android":"levelo://app?vid=e9c24325-948c-40a0-9716-20b40a7d3bc5","ios":"levelo://app?vid=e9c24325-948c-40a0-9716-20b40a7d3bc5"},"vehicle_type_id":"4","last_reported":1730797749,"current_range_meters":37600,"station_id":"ce4bhg92rcd13ifvqf90","pricing_plan_id":"cebpf4jnsgd1na2vs0mg"},{"bike_id":"f7e18aa8-495d-47a8-bde5-631f2f3e3fd4","system_id":"levelo_inurba_marseille","lat":43.28703,"lon":5.39979,"is_reserved":false,"is_disabled":false,"rental_uris":{"android":"levelo://app?vid=f7e18aa8-495d-47a8-bde5-631f2f3e3fd4","ios":"levelo://app?vid=f7e18aa8-495d-47a8-bde5-631f2f3e3fd4"},"vehicle_type_id":"4","last_reported":1730797749,"current_range_meters":17600,"station_id":"ce4bho92rcd13ifvqh3g","pricing_plan_id":"cebpf4jnsgd1na2vs0mg"},{"bike_id":"15de2ca6-28c5-4f21-a946-3c35db8b327d","system_id":"levelo_inurba_marseille","lat":43.24078,"lon":5.37761,"is_reserved":false,"is_disabled":false,"rental_uris":{"android":"levelo://app?vid=15de2ca6-28c5-4f21-a946-3c35db8b327d","ios":"levelo://app?vid=15de2ca6-28c5-4f21-a946-3c35db8b327d"},"vehicle_type_id":"4","last_reported":1730797749,"current_range_meters":32800,"station_id":"ce4bhnp2rcd13ifvqgvg","pricing_plan_id":"cebpf4jnsgd1na2vs0mg"},{"bike_id":"89613f0f-5b27-46f7-8ae5-dc5ac8fe7e35","system_id":"levelo_inurba_marseille","lat":43.25937,"lon":5.409,"is_reserved":false,"is_disabled":false,"rental_uris":{"android":"levelo://app?vid=89613f0f-5b27-46f7-8ae5-dc5ac8fe7e35","ios":"levelo://app?vid=89613f0f-5b27-46f7-8ae5-dc5ac8fe7e35"},"vehicle_type_id":"4","last_reported":1730797749,"current_range_meters":21600,"station_id":"ce4bhm92rcd13ifvqglg","pricing_plan_id":"cebpf4jnsgd1na2vs0mg"},{"bike_id":"6b2fa076-d222-4e71-8c2a-84defb40332b","system_id":"levelo_inurba_marseille","lat":43.31735,"lon":5.40465,"is_reserved":false,"is_disabled":false,"rental_uris":{"android":"levelo://app?vid=6b2fa076-d222-4e71-8c2a-84defb40332b","ios":"levelo://app?vid=6b2fa076-d222-4e71-8c2a-84defb40332b"},"vehicle_type_id":"4","last_reported":1730797749,"current_range_meters":38400,"station_id":"ce4bh012rcd13ifvqd00","pricing_plan_id":"cebpf4jnsgd1na2vs0mg"},{"bike_id":"16ae9290-db9a-4317-b34b-8b26fa9930fd","system_id":"levelo_inurba_marseille","lat":43.23153,"lon":5.43695,"is_reserved":false,"is_disabled":false,"rental_uris":{"android":"levelo://app?vid=16ae9290-db9a-4317-b34b-8b26fa9930fd","ios":"levelo://app?vid=16ae9290-db9a-4317-b34b-8b26fa9930fd"},"vehicle_type_id":"4","last_reported":1730797749,"current_range_meters":28000,"station_id":"ce4bhmp2rcd13ifvqgog","pricing_plan_id":"cebpf4jnsgd1na2vs0mg"},{"bike_id":"aa2395f8-9d30-4a27-9bdc-78c2fe515d0c","system_id":"levelo_inurba_marseille","lat":43.31082,"lon":5.42428,"is_reserved":false,"is_disabled":false,"rental_uris":{"android":"levelo://app?vid=aa2395f8-9d30-4a27-9bdc-78c2fe515d0c","ios":"levelo://app?vid=aa2395f8-9d30-4a27-9bdc-78c2fe515d0c"},"vehicle_type_id":"4","last_reported":1730797749,"current_range_meters":25200,"station_id":"ce4bhp92rcd13ifvqhag","pricing_plan_id":"cebpf4jnsgd1na2vs0mg"},{"bike_id":"77f75c58-df77-4d1f-b372-5b5eed455101","system_id":"levelo_inurba_marseille","lat":43.30537,"lon":5.36529,"is_reserved":false,"is_disabled":false,"rental_uris":{"android":"levelo://app?vid=77f75c58-df77-4d1f-b372-5b5eed455101","ios":"levelo://app?vid=77f75c58-df77-4d1f-b372-5b5eed455101"},"vehicle_type_id":"4","last_reported":1730797749,"current_range_meters":29600,"station_id":"ce4bgs12rcd13ifvqcag","pricing_plan_id":"cebpf4jnsgd1na2vs0mg"},{"bike_id":"23ddf6b7-63f6-41f7-a867-e52589caa855","system_id":"levelo_inurba_marseille","lat":43.32482,"lon":5.36573,"is_reserved":false,"is_disabled":false,"rental_uris":{"android":"levelo://app?vid=23ddf6b7-63f6-41f7-a867-e52589caa855","ios":"levelo://app?vid=23ddf6b7-63f6-41f7-a867-e52589caa855"},"vehicle_type_id":"4","last_reported":1730797749,"current_range_meters":25600,"station_id":"ce4bhs12rcd13ifvqhvg","pricing_plan_id":"cebpf4jnsgd1na2vs0mg"},{"bike_id":"d7eba0bc-553a-47d4-8bc6-a467f428147a","system_id":"levelo_inurba_marseille","lat":43.3135,"lon":5.36715,"is_reserved":false,"is_disabled":false,"rental_uris":{"android":"levelo://app?vid=d7eba0bc-553a-47d4-8bc6-a467f428147a","ios":"levelo://app?vid=d7eba0bc-553a-47d4-8bc6-a467f428147a"},"vehicle_type_id":"4","last_reported":1730797749,"current_range_meters":30400,"station_id":"ce4bgr92rcd13ifvqc6g","pricing_plan_id":"cebpf4jnsgd1na2vs0mg"},{"bike_id":"0f2bf27f-b43b-4438-ad2d-f8af54985c1f","system_id":"levelo_inurba_marseille","lat":43.27966,"lon":5.38748,"is_reserved":false,"is_disabled":false,"rental_uris":{"android":"levelo://app?vid=0f2bf27f-b43b-4438-ad2d-f8af54985c1f","ios":"levelo://app?vid=0f2bf27f-b43b-4438-ad2d-f8af54985c1f"},"vehicle_type_id":"4","last_reported":1730797749,"current_range_meters":36400,"station_id":"ce4bhg12rcd13ifvqf80","pricing_plan_id":"cebpf4jnsgd1na2vs0mg"},{"bike_id":"fc0994af-e8f2-4567-83ee-e8ca0eb4f61f","system_id":"levelo_inurba_marseille","lat":43.31128,"lon":5.37764,"is_reserved":false,"is_disabled":false,"rental_uris":{"android":"levelo://app?vid=fc0994af-e8f2-4567-83ee-e8ca0eb4f61f","ios":"levelo://app?vid=fc0994af-e8f2-4567-83ee-e8ca0eb4f61f"},"vehicle_type_id":"4","last_reported":1730797749,"current_range_meters":19200,"station_id":"ce4bgt92rcd13ifvqcg0","pricing_plan_id":"cebpf4jnsgd1na2vs0mg"},{"bike_id":"55c88d0d-09c6-4e51-a411-aca3fe05d038","system_id":"levelo_inurba_marseille","lat":43.25584,"lon":5.38228,"is_reserved":false,"is_disabled":false,"rental_uris":{"android":"levelo://app?vid=55c88d0d-09c6-4e51-a411-aca3fe05d038","ios":"levelo://app?vid=55c88d0d-09c6-4e51-a411-aca3fe05d038"},"vehicle_type_id":"4","last_reported":1730797749,"current_range_meters":34800,"station_id":"ce4bhih2rcd13ifvqfs0","pricing_plan_id":"cebpf4jnsgd1na2vs0mg"},{"bike_id":"71721fe2-35d7-41f2-9225-983e1943836f","system_id":"levelo_inurba_marseille","lat":43.33758,"lon":5.37455,"is_reserved":false,"is_disabled":false,"rental_uris":{"android":"levelo://app?vid=71721fe2-35d7-41f2-9225-983e1943836f","ios":"levelo://app?vid=71721fe2-35d7-41f2-9225-983e1943836f"},"vehicle_type_id":"4","last_reported":1730797749,"current_range_meters":38000,"station_id":"","pricing_plan_id":"cebpf4jnsgd1na2vs0mg"},{"bike_id":"bb254295-6b2f-47fa-b542-f768ed4879ee","system_id":"levelo_inurba_marseille","lat":43.23153,"lon":5.43712,"is_reserved":false,"is_disabled":false,"rental_uris":{"android":"levelo://app?vid=bb254295-6b2f-47fa-b542-f768ed4879ee","ios":"levelo://app?vid=bb254295-6b2f-47fa-b542-f768ed4879ee"},"vehicle_type_id":"4","last_reported":1730797749,"current_range_meters":18000,"station_id":"ce4bhmp2rcd13ifvqgog","pricing_plan_id":"cebpf4jnsgd1na2vs0mg"},{"bike_id":"e05a988b-49b8-47f0-b4c8-d541c1e5ecbc","system_id":"levelo_inurba_marseille","lat":43.25722,"lon":5.41114,"is_reserved":false,"is_disabled":false,"rental_uris":{"android":"levelo://app?vid=e05a988b-49b8-47f0-b4c8-d541c1e5ecbc","ios":"levelo://app?vid=e05a988b-49b8-47f0-b4c8-d541c1e5ecbc"},"vehicle_type_id":"4","last_reported":1730797749,"current_range_meters":38800,"station_id":"ce4bhkp2rcd13ifvqgd0","pricing_plan_id":"cebpf4jnsgd1na2vs0mg"},{"bike_id":"3f0ac8b6-a688-4ae8-b86c-0f4e3445eb81","system_id":"levelo_inurba_marseille","lat":43.27074,"lon":5.42274,"is_reserved":false,"is_disabled":false,"rental_uris":{"android":"levelo://app?vid=3f0ac8b6-a688-4ae8-b86c-0f4e3445eb81","ios":"levelo://app?vid=3f0ac8b6-a688-4ae8-b86c-0f4e3445eb81"},"vehicle_type_id":"4","last_reported":1730797749,"current_range_meters":38800,"station_id":"ce4bhk92rcd13ifvqgb0","pricing_plan_id":"cebpf4jnsgd1na2vs0mg"},{"bike_id":"697dd118-268c-406e-bad8-371dfe74ed47","system_id":"levelo_inurba_marseille","lat":43.31767,"lon":5.39007,"is_reserved":false,"is_disabled":false,"rental_uris":{"android":"levelo://app?vid=697dd118-268c-406e-bad8-371dfe74ed47","ios":"levelo://app?vid=697dd118-268c-406e-bad8-371dfe74ed47"},"vehicle_type_id":"4","last_reported":1730797749,"current_range_meters":34800,"station_id":"ce4bhqp2rcd13ifvqhng","pricing_plan_id":"cebpf4jnsgd1na2vs0mg"},{"bike_id":"f88d0f54-db67-4952-89b8-c170a3352e34","system_id":"levelo_inurba_marseille","lat":43.2991,"lon":5.37472,"is_reserved":false,"is_disabled":false,"rental_uris":{"android":"levelo://app?vid=f88d0f54-db67-4952-89b8-c170a3352e34","ios":"levelo://app?vid=f88d0f54-db67-4952-89b8-c170a3352e34"},"vehicle_type_id":"4","last_reported":1730797749,"current_range_meters":39200,"station_id":"ce4bgjh2rcd13ifvqbg0","pricing_plan_id":"cebpf4jnsgd1na2vs0mg"},{"bike_id":"3a4daf16-adfd-4e7e-964d-e1ce255aeee3","system_id":"levelo_inurba_marseille","lat":43.32542,"lon":5.41444,"is_reserved":false,"is_disabled":false,"rental_uris":{"android":"levelo://app?vid=3a4daf16-adfd-4e7e-964d-e1ce255aeee3","ios":"levelo://app?vid=3a4daf16-adfd-4e7e-964d-e1ce255aeee3"},"vehicle_type_id":"4","last_reported":1730797749,"current_range_meters":12000,"station_id":"ce4bhq12rcd13ifvqhhg","pricing_plan_id":"cebpf4jnsgd1na2vs0mg"},{"bike_id":"a3bbb043-6bb9-4f1e-adc9-58cb8bda5cf9","system_id":"levelo_inurba_marseille","lat":43.24087,"lon":5.37751,"is_reserved":false,"is_disabled":false,"rental_uris":{"android":"levelo://app?vid=a3bbb043-6bb9-4f1e-adc9-58cb8bda5cf9","ios":"levelo://app?vid=a3bbb043-6bb9-4f1e-adc9-58cb8bda5cf9"},"vehicle_type_id":"4","last_reported":1730797749,"current_range_meters":28000,"station_id":"ce4bhnp2rcd13ifvqgvg","pricing_plan_id":"cebpf4jnsgd1na2vs0mg"},{"bike_id":"2f3fb672-e693-4cd7-8835-965da134d65f","system_id":"levelo_inurba_marseille","lat":43.27672,"lon":5.38897,"is_reserved":false,"is_disabled":false,"rental_uris":{"android":"levelo://app?vid=2f3fb672-e693-4cd7-8835-965da134d65f","ios":"levelo://app?vid=2f3fb672-e693-4cd7-8835-965da134d65f"},"vehicle_type_id":"4","last_reported":1730797749,"current_range_meters":36800,"station_id":"ce4bhi12rcd13ifvqfo0","pricing_plan_id":"cebpf4jnsgd1na2vs0mg"},{"bike_id":"57e7ea0d-136c-4ce7-8242-21c4b2cac819","system_id":"levelo_inurba_marseille","lat":43.30917,"lon":5.36846,"is_reserved":false,"is_disabled":false,"rental_uris":{"android":"levelo://app?vid=57e7ea0d-136c-4ce7-8242-21c4b2cac819","ios":"levelo://app?vid=57e7ea0d-136c-4ce7-8242-21c4b2cac819"},"vehicle_type_id":"4","last_reported":1730797749,"current_range_meters":32400,"station_id":"ce4bgn92rcd13ifvqbvg","pricing_plan_id":"cebpf4jnsgd1na2vs0mg"},{"bike_id":"154acfee-d67d-4e4b-8812-97f42357517d","system_id":"levelo_inurba_marseille","lat":43.27807,"lon":5.40708,"is_reserved":false,"is_disabled":false,"rental_uris":{"android":"levelo://app?vid=154acfee-d67d-4e4b-8812-97f42357517d","ios":"levelo://app?vid=154acfee-d67d-4e4b-8812-97f42357517d"},"vehicle_type_id":"4","last_reported":1730797749,"current_range_meters":20800,"station_id":"ce4bhnh2rcd13ifvqgtg","pricing_plan_id":"cebpf4jnsgd1na2vs0mg"},{"bike_id":"c1d0c445-164d-43eb-b9ec-414fbdb8aee2","system_id":"levelo_inurba_marseille","lat":43.29378,"lon":5.37846,"is_reserved":false,"is_disabled":false,"rental_uris":{"android":"levelo://app?vid=c1d0c445-164d-43eb-b9ec-414fbdb8aee2","ios":"levelo://app?vid=c1d0c445-164d-43eb-b9ec-414fbdb8aee2"},"vehicle_type_id":"4","last_reported":1730797749,"current_range_meters":40000,"station_id":"ce4bgjh2rcd13ifvqbf0","pricing_plan_id":"cebpf4jnsgd1na2vs0mg"},{"bike_id":"e20042a3-679d-432e-bbad-615f69049412","system_id":"levelo_inurba_marseille","lat":43.2315,"lon":5.43708,"is_reserved":false,"is_disabled":false,"rental_uris":{"android":"levelo://app?vid=e20042a3-679d-432e-bbad-615f69049412","ios":"levelo://app?vid=e20042a3-679d-432e-bbad-615f69049412"},"vehicle_type_id":"4","last_reported":1730797749,"current_range_meters":28000,"station_id":"ce4bhmp2rcd13ifvqgog","pricing_plan_id":"cebpf4jnsgd1na2vs0mg"},{"bike_id":"47a64d21-5ac6-4cb0-9d7a-360d0b956e6c","system_id":"levelo_inurba_marseille","lat":43.30276,"lon":5.37707,"is_reserved":false,"is_disabled":false,"rental_uris":{"android":"levelo://app?vid=47a64d21-5ac6-4cb0-9d7a-360d0b956e6c","ios":"levelo://app?vid=47a64d21-5ac6-4cb0-9d7a-360d0b956e6c"},"vehicle_type_id":"4","last_reported":1730797749,"current_range_meters":7200,"station_id":"ce4bguh2rcd13ifvqcj0","pricing_plan_id":"cebpf4jnsgd1na2vs0mg"},{"bike_id":"dd9da9fb-eda4-4e21-ab19-13742ef10045","system_id":"levelo_inurba_marseille","lat":43.2511,"lon":5.40321,"is_reserved":false,"is_disabled":false,"rental_uris":{"android":"levelo://app?vid=dd9da9fb-eda4-4e21-ab19-13742ef10045","ios":"levelo://app?vid=dd9da9fb-eda4-4e21-ab19-13742ef10045"},"vehicle_type_id":"4","last_reported":1730797749,"current_range_meters":17600,"station_id":"ce4bhlh2rcd13ifvqgig","pricing_plan_id":"cebpf4jnsgd1na2vs0mg"},{"bike_id":"454ffade-14f6-431c-8cd0-f7300bc4f138","system_id":"levelo_inurba_marseille","lat":43.297711,"lon":5.405572,"is_reserved":false,"is_disabled":false,"rental_uris":{"android":"levelo://app?vid=454ffade-14f6-431c-8cd0-f7300bc4f138","ios":"levelo://app?vid=454ffade-14f6-431c-8cd0-f7300bc4f138"},"vehicle_type_id":"4","last_reported":1730797749,"current_range_meters":22000,"station_id":"ce4bh112rcd13ifvqd90","pricing_plan_id":"cebpf4jnsgd1na2vs0mg"},{"bike_id":"f6fac252-bcfe-4359-8cd8-84ee90eebb7d","system_id":"levelo_inurba_marseille","lat":43.30536,"lon":5.3653,"is_reserved":false,"is_disabled":false,"rental_uris":{"android":"levelo://app?vid=f6fac252-bcfe-4359-8cd8-84ee90eebb7d","ios":"levelo://app?vid=f6fac252-bcfe-4359-8cd8-84ee90eebb7d"},"vehicle_type_id":"4","last_reported":1730797749,"current_range_meters":39200,"station_id":"ce4bgs12rcd13ifvqcag","pricing_plan_id":"cebpf4jnsgd1na2vs0mg"},{"bike_id":"b3aca119-8ee6-48e1-90b0-adfd3adcdd31","system_id":"levelo_inurba_marseille","lat":43.25583,"lon":5.38234,"is_reserved":false,"is_disabled":false,"rental_uris":{"android":"levelo://app?vid=b3aca119-8ee6-48e1-90b0-adfd3adcdd31","ios":"levelo://app?vid=b3aca119-8ee6-48e1-90b0-adfd3adcdd31"},"vehicle_type_id":"4","last_reported":1730797749,"current_range_meters":4800,"station_id":"ce4bhih2rcd13ifvqfs0","pricing_plan_id":"cebpf4jnsgd1na2vs0mg"},{"bike_id":"660f9ab5-0ee6-45bd-9ba0-20f4579b8e99","system_id":"levelo_inurba_marseille","lat":43.33603,"lon":5.41027,"is_reserved":false,"is_disabled":false,"rental_uris":{"android":"levelo://app?vid=660f9ab5-0ee6-45bd-9ba0-20f4579b8e99","ios":"levelo://app?vid=660f9ab5-0ee6-45bd-9ba0-20f4579b8e99"},"vehicle_type_id":"4","last_reported":1730797749,"current_range_meters":39200,"station_id":"ce4bhqh2rcd13ifvqhmg","pricing_plan_id":"cebpf4jnsgd1na2vs0mg"},{"bike_id":"7e26ac2f-5216-485c-b356-be60175e5129","system_id":"levelo_inurba_marseille","lat":43.29379,"lon":5.37837,"is_reserved":false,"is_disabled":false,"rental_uris":{"android":"levelo://app?vid=7e26ac2f-5216-485c-b356-be60175e5129","ios":"levelo://app?vid=7e26ac2f-5216-485c-b356-be60175e5129"},"vehicle_type_id":"4","last_reported":1730797749,"current_range_meters":19600,"station_id":"ce4bgjh2rcd13ifvqbf0","pricing_plan_id":"cebpf4jnsgd1na2vs0mg"},{"bike_id":"ae041007-e592-4090-bb3e-17b320956fec","system_id":"levelo_inurba_marseille","lat":43.24072,"lon":5.37762,"is_reserved":false,"is_disabled":false,"rental_uris":{"android":"levelo://app?vid=ae041007-e592-4090-bb3e-17b320956fec","ios":"levelo://app?vid=ae041007-e592-4090-bb3e-17b320956fec"},"vehicle_type_id":"4","last_reported":1730797749,"current_range_meters":25200,"station_id":"ce4bhnp2rcd13ifvqgvg","pricing_plan_id":"cebpf4jnsgd1na2vs0mg"},{"bike_id":"32920a41-7391-4fe0-8909-574511ef3b4d","system_id":"levelo_inurba_marseille","lat":43.30138,"lon":5.37423,"is_reserved":false,"is_disabled":false,"rental_uris":{"android":"levelo://app?vid=32920a41-7391-4fe0-8909-574511ef3b4d","ios":"levelo://app?vid=32920a41-7391-4fe0-8909-574511ef3b4d"},"vehicle_type_id":"4","last_reported":1730797749,"current_range_meters":32000,"station_id":"ce4bgs92rcd13ifvqcc0","pricing_plan_id":"cebpf4jnsgd1na2vs0mg"},{"bike_id":"fc7e1c38-5ceb-4fb3-9afa-990ebfb95007","system_id":"levelo_inurba_marseille","lat":43.23156,"lon":5.43709,"is_reserved":false,"is_disabled":false,"rental_uris":{"android":"levelo://app?vid=fc7e1c38-5ceb-4fb3-9afa-990ebfb95007","ios":"levelo://app?vid=fc7e1c38-5ceb-4fb3-9afa-990ebfb95007"},"vehicle_type_id":"4","last_reported":1730797749,"current_range_meters":15200,"station_id":"ce4bhmp2rcd13ifvqgog","pricing_plan_id":"cebpf4jnsgd1na2vs0mg"},{"bike_id":"c0680438-31be-48e3-89fd-e514224084b2","system_id":"levelo_inurba_marseille","lat":43.28942,"lon":5.36635,"is_reserved":false,"is_disabled":false,"rental_uris":{"android":"levelo://app?vid=c0680438-31be-48e3-89fd-e514224084b2","ios":"levelo://app?vid=c0680438-31be-48e3-89fd-e514224084b2"},"vehicle_type_id":"4","last_reported":1730797749,"current_range_meters":24000,"station_id":"ce4bhap2rcd13ifvqek0","pricing_plan_id":"cebpf4jnsgd1na2vs0mg"},{"bike_id":"ada3955f-a638-437f-a359-7553433b0343","system_id":"levelo_inurba_marseille","lat":43.26949,"lon":5.38631,"is_reserved":false,"is_disabled":false,"rental_uris":{"android":"levelo://app?vid=ada3955f-a638-437f-a359-7553433b0343","ios":"levelo://app?vid=ada3955f-a638-437f-a359-7553433b0343"},"vehicle_type_id":"4","last_reported":1730797749,"current_range_meters":11200,"station_id":"ce4bhh92rcd13ifvqfh0","pricing_plan_id":"cebpf4jnsgd1na2vs0mg"},{"bike_id":"8d300db8-fddf-4c19-b47b-a311848031fe","system_id":"levelo_inurba_marseille","lat":43.25937,"lon":5.409,"is_reserved":false,"is_disabled":false,"rental_uris":{"android":"levelo://app?vid=8d300db8-fddf-4c19-b47b-a311848031fe","ios":"levelo://app?vid=8d300db8-fddf-4c19-b47b-a311848031fe"},"vehicle_type_id":"4","last_reported":1730797749,"current_range_meters":16800,"station_id":"ce4bhm92rcd13ifvqglg","pricing_plan_id":"cebpf4jnsgd1na2vs0mg"},{"bike_id":"94767d64-6cce-4bdd-a274-3194a009e90b","system_id":"levelo_inurba_marseille","lat":43.30146,"lon":5.37424,"is_reserved":false,"is_disabled":false,"rental_uris":{"android":"levelo://app?vid=94767d64-6cce-4bdd-a274-3194a009e90b","ios":"levelo://app?vid=94767d64-6cce-4bdd-a274-3194a009e90b"},"vehicle_type_id":"4","last_reported":1730797749,"current_range_meters":32400,"station_id":"ce4bgs92rcd13ifvqcc0","pricing_plan_id":"cebpf4jnsgd1na2vs0mg"},{"bike_id":"4cfa7c95-7b12-4adc-937b-e1311d881e9c","system_id":"levelo_inurba_marseille","lat":43.24181,"lon":5.39727,"is_reserved":false,"is_disabled":false,"rental_uris":{"android":"levelo://app?vid=4cfa7c95-7b12-4adc-937b-e1311d881e9c","ios":"levelo://app?vid=4cfa7c95-7b12-4adc-937b-e1311d881e9c"},"vehicle_type_id":"4","last_reported":1730797749,"current_range_meters":10000,"station_id":"ce4bhn12rcd13ifvqgpg","pricing_plan_id":"cebpf4jnsgd1na2vs0mg"},{"bike_id":"823967de-5ba0-4689-8bf8-641b466fd8b1","system_id":"levelo_inurba_marseille","lat":43.23195,"lon":5.35556,"is_reserved":false,"is_disabled":false,"rental_uris":{"android":"levelo://app?vid=823967de-5ba0-4689-8bf8-641b466fd8b1","ios":"levelo://app?vid=823967de-5ba0-4689-8bf8-641b466fd8b1"},"vehicle_type_id":"4","last_reported":1730797749,"current_range_meters":39200,"station_id":"ce4bhu92rcd13ifvqi70","pricing_plan_id":"cebpf4jnsgd1na2vs0mg"},{"bike_id":"df2000e4-7ce1-46ba-980f-a90a63f2d7a2","system_id":"levelo_inurba_marseille","lat":43.29848,"lon":5.36283,"is_reserved":false,"is_disabled":false,"rental_uris":{"android":"levelo://app?vid=df2000e4-7ce1-46ba-980f-a90a63f2d7a2","ios":"levelo://app?vid=df2000e4-7ce1-46ba-980f-a90a63f2d7a2"},"vehicle_type_id":"4","last_reported":1730797749,"current_range_meters":38000,"station_id":"ce4bgpp2rcd13ifvqc3g","pricing_plan_id":"cebpf4jnsgd1na2vs0mg"},{"bike_id":"78f9e492-90d7-4f2e-b433-8a4d32d8b368","system_id":"levelo_inurba_marseille","lat":43.34148,"lon":5.40904,"is_reserved":false,"is_disabled":false,"rental_uris":{"android":"levelo://app?vid=78f9e492-90d7-4f2e-b433-8a4d32d8b368","ios":"levelo://app?vid=78f9e492-90d7-4f2e-b433-8a4d32d8b368"},"vehicle_type_id":"4","last_reported":1730797749,"current_range_meters":34000,"station_id":"ce4bhqh2rcd13ifvqhlg","pricing_plan_id":"cebpf4jnsgd1na2vs0mg"},{"bike_id":"bf40774a-e35c-4eca-812a-a942b10d41e9","system_id":"levelo_inurba_marseille","lat":43.2594,"lon":5.40909,"is_reserved":false,"is_disabled":false,"rental_uris":{"android":"levelo://app?vid=bf40774a-e35c-4eca-812a-a942b10d41e9","ios":"levelo://app?vid=bf40774a-e35c-4eca-812a-a942b10d41e9"},"vehicle_type_id":"4","last_reported":1730797749,"current_range_meters":28800,"station_id":"ce4bhm92rcd13ifvqglg","pricing_plan_id":"cebpf4jnsgd1na2vs0mg"},{"bike_id":"a277368d-791b-402a-832d-49a121abbb5e","system_id":"levelo_inurba_marseille","lat":43.3123,"lon":5.36857,"is_reserved":false,"is_disabled":false,"rental_uris":{"android":"levelo://app?vid=a277368d-791b-402a-832d-49a121abbb5e","ios":"levelo://app?vid=a277368d-791b-402a-832d-49a121abbb5e"},"vehicle_type_id":"4","last_reported":1730797749,"current_range_meters":19600,"station_id":"ce4bgl92rcd13ifvqbq0","pricing_plan_id":"cebpf4jnsgd1na2vs0mg"},{"bike_id":"894a641f-a8d5-4e99-9582-55ba67b5c3f3","system_id":"levelo_inurba_marseille","lat":43.30955,"lon":5.39033,"is_reserved":false,"is_disabled":false,"rental_uris":{"android":"levelo://app?vid=894a641f-a8d5-4e99-9582-55ba67b5c3f3","ios":"levelo://app?vid=894a641f-a8d5-4e99-9582-55ba67b5c3f3"},"vehicle_type_id":"4","last_reported":1730797749,"current_range_meters":12800,"station_id":"ce4bgup2rcd13ifvqco0","pricing_plan_id":"cebpf4jnsgd1na2vs0mg"},{"bike_id":"45609497-9b7a-4b69-b420-e16894885132","system_id":"levelo_inurba_marseille","lat":43.25937,"lon":5.40903,"is_reserved":false,"is_disabled":false,"rental_uris":{"android":"levelo://app?vid=45609497-9b7a-4b69-b420-e16894885132","ios":"levelo://app?vid=45609497-9b7a-4b69-b420-e16894885132"},"vehicle_type_id":"4","last_reported":1730797749,"current_range_meters":34800,"station_id":"ce4bhm92rcd13ifvqglg","pricing_plan_id":"cebpf4jnsgd1na2vs0mg"},{"bike_id":"38720abd-68e9-43b3-a2dd-7c40aa97c441","system_id":"levelo_inurba_marseille","lat":43.24384,"lon":5.37057,"is_reserved":false,"is_disabled":false,"rental_uris":{"android":"levelo://app?vid=38720abd-68e9-43b3-a2dd-7c40aa97c441","ios":"levelo://app?vid=38720abd-68e9-43b3-a2dd-7c40aa97c441"},"vehicle_type_id":"4","last_reported":1730797749,"current_range_meters":34800,"station_id":"ce4bhhh2rcd13ifvqfk0","pricing_plan_id":"cebpf4jnsgd1na2vs0mg"},{"bike_id":"fa2cff3d-2e73-4b13-82a9-91a52fe6d9e5","system_id":"levelo_inurba_marseille","lat":43.29282,"lon":5.36849,"is_reserved":false,"is_disabled":false,"rental_uris":{"android":"levelo://app?vid=fa2cff3d-2e73-4b13-82a9-91a52fe6d9e5","ios":"levelo://app?vid=fa2cff3d-2e73-4b13-82a9-91a52fe6d9e5"},"vehicle_type_id":"4","last_reported":1730797749,"current_range_meters":24000,"station_id":"ce4bhbp2rcd13ifvqesg","pricing_plan_id":"cebpf4jnsgd1na2vs0mg"},{"bike_id":"d3d5bf97-ee4e-462c-9692-ff991a12530c","system_id":"levelo_inurba_marseille","lat":43.33604,"lon":5.41021,"is_reserved":false,"is_disabled":false,"rental_uris":{"android":"levelo://app?vid=d3d5bf97-ee4e-462c-9692-ff991a12530c","ios":"levelo://app?vid=d3d5bf97-ee4e-462c-9692-ff991a12530c"},"vehicle_type_id":"4","last_reported":1730797749,"current_range_meters":36800,"station_id":"ce4bhqh2rcd13ifvqhmg","pricing_plan_id":"cebpf4jnsgd1na2vs0mg"},{"bike_id":"a6b470c9-d823-44bc-baa3-d9eb5e2efbd3","system_id":"levelo_inurba_marseille","lat":43.28151,"lon":5.42639,"is_reserved":false,"is_disabled":false,"rental_uris":{"android":"levelo://app?vid=a6b470c9-d823-44bc-baa3-d9eb5e2efbd3","ios":"levelo://app?vid=a6b470c9-d823-44bc-baa3-d9eb5e2efbd3"},"vehicle_type_id":"4","last_reported":1730797749,"current_range_meters":7200,"station_id":"ce4bhnh2rcd13ifvqgug","pricing_plan_id":"cebpf4jnsgd1na2vs0mg"},{"bike_id":"f4cdb0e1-9450-465b-b3d4-57ac794a165b","system_id":"levelo_inurba_marseille","lat":43.30605,"lon":5.37229,"is_reserved":false,"is_disabled":false,"rental_uris":{"android":"levelo://app?vid=f4cdb0e1-9450-465b-b3d4-57ac794a165b","ios":"levelo://app?vid=f4cdb0e1-9450-465b-b3d4-57ac794a165b"},"vehicle_type_id":"4","last_reported":1730797749,"current_range_meters":11600,"station_id":"ce4bgqh2rcd13ifvqc4g","pricing_plan_id":"cebpf4jnsgd1na2vs0mg"},{"bike_id":"029ff5ee-3e43-4656-bd0f-80559eb25bab","system_id":"levelo_inurba_marseille","lat":43.30459,"lon":5.37903,"is_reserved":false,"is_disabled":false,"rental_uris":{"android":"levelo://app?vid=029ff5ee-3e43-4656-bd0f-80559eb25bab","ios":"levelo://app?vid=029ff5ee-3e43-4656-bd0f-80559eb25bab"},"vehicle_type_id":"4","last_reported":1730797749,"current_range_meters":32400,"station_id":"ce4bgup2rcd13ifvqcn0","pricing_plan_id":"cebpf4jnsgd1na2vs0mg"},{"bike_id":"6570b412-93b8-4466-ad30-af5dce57660f","system_id":"levelo_inurba_marseille","lat":43.29713,"lon":5.37694,"is_reserved":false,"is_disabled":false,"rental_uris":{"android":"levelo://app?vid=6570b412-93b8-4466-ad30-af5dce57660f","ios":"levelo://app?vid=6570b412-93b8-4466-ad30-af5dce57660f"},"vehicle_type_id":"4","last_reported":1730797749,"current_range_meters":39200,"station_id":"ce4bgkh2rcd13ifvqbl0","pricing_plan_id":"cebpf4jnsgd1na2vs0mg"},{"bike_id":"7a58136c-3165-4313-8fac-2c364b399752","system_id":"levelo_inurba_marseille","lat":43.33735,"lon":5.39186,"is_reserved":false,"is_disabled":false,"rental_uris":{"android":"levelo://app?vid=7a58136c-3165-4313-8fac-2c364b399752","ios":"levelo://app?vid=7a58136c-3165-4313-8fac-2c364b399752"},"vehicle_type_id":"4","last_reported":1730797749,"current_range_meters":24400,"station_id":"ce4bhr92rcd13ifvqhsg","pricing_plan_id":"cebpf4jnsgd1na2vs0mg"},{"bike_id":"67530428-f3f0-463d-bf0b-247618325f6b","system_id":"levelo_inurba_marseille","lat":43.26957,"lon":5.38625,"is_reserved":false,"is_disabled":false,"rental_uris":{"android":"levelo://app?vid=67530428-f3f0-463d-bf0b-247618325f6b","ios":"levelo://app?vid=67530428-f3f0-463d-bf0b-247618325f6b"},"vehicle_type_id":"4","last_reported":1730797749,"current_range_meters":8800,"station_id":"ce4bhh92rcd13ifvqfh0","pricing_plan_id":"cebpf4jnsgd1na2vs0mg"},{"bike_id":"0fbc4a3d-1f69-4036-b805-2218f285e490","system_id":"levelo_inurba_marseille","lat":43.24083,"lon":5.37752,"is_reserved":false,"is_disabled":false,"rental_uris":{"android":"levelo://app?vid=0fbc4a3d-1f69-4036-b805-2218f285e490","ios":"levelo://app?vid=0fbc4a3d-1f69-4036-b805-2218f285e490"},"vehicle_type_id":"4","last_reported":1730797749,"current_range_meters":11600,"station_id":"ce4bhnp2rcd13ifvqgvg","pricing_plan_id":"cebpf4jnsgd1na2vs0mg"},{"bike_id":"c864c025-b3b0-4077-aaf8-410eaac1ccba","system_id":"levelo_inurba_marseille","lat":43.29853,"lon":5.36275,"is_reserved":false,"is_disabled":false,"rental_uris":{"android":"levelo://app?vid=c864c025-b3b0-4077-aaf8-410eaac1ccba","ios":"levelo://app?vid=c864c025-b3b0-4077-aaf8-410eaac1ccba"},"vehicle_type_id":"4","last_reported":1730797749,"current_range_meters":16400,"station_id":"ce4bgpp2rcd13ifvqc3g","pricing_plan_id":"cebpf4jnsgd1na2vs0mg"},{"bike_id":"386e8f4e-97a7-4f8b-bed6-4fe2299c5fdf","system_id":"levelo_inurba_marseille","lat":43.30472,"lon":5.37904,"is_reserved":false,"is_disabled":false,"rental_uris":{"android":"levelo://app?vid=386e8f4e-97a7-4f8b-bed6-4fe2299c5fdf","ios":"levelo://app?vid=386e8f4e-97a7-4f8b-bed6-4fe2299c5fdf"},"vehicle_type_id":"4","last_reported":1730797749,"current_range_meters":16400,"station_id":"ce4bgup2rcd13ifvqcn0","pricing_plan_id":"cebpf4jnsgd1na2vs0mg"},{"bike_id":"aebe48fe-69c9-4886-9d80-1db713c555e5","system_id":"levelo_inurba_marseille","lat":43.28943,"lon":5.39625,"is_reserved":false,"is_disabled":false,"rental_uris":{"android":"levelo://app?vid=aebe48fe-69c9-4886-9d80-1db713c555e5","ios":"levelo://app?vid=aebe48fe-69c9-4886-9d80-1db713c555e5"},"vehicle_type_id":"4","last_reported":1730797749,"current_range_meters":37600,"station_id":"ce4bh3h2rcd13ifvqdn0","pricing_plan_id":"cebpf4jnsgd1na2vs0mg"},{"bike_id":"afa253fc-f59c-4f00-81af-6764c184aecb","system_id":"levelo_inurba_marseille","lat":43.31683,"lon":5.40471,"is_reserved":false,"is_disabled":false,"rental_uris":{"android":"levelo://app?vid=afa253fc-f59c-4f00-81af-6764c184aecb","ios":"levelo://app?vid=afa253fc-f59c-4f00-81af-6764c184aecb"},"vehicle_type_id":"4","last_reported":1730797749,"current_range_meters":10800,"station_id":"ce4bh012rcd13ifvqd00","pricing_plan_id":"cebpf4jnsgd1na2vs0mg"},{"bike_id":"82c7f004-48ff-45ad-b026-5352d798d11d","system_id":"levelo_inurba_marseille","lat":43.30543,"lon":5.38428,"is_reserved":false,"is_disabled":false,"rental_uris":{"android":"levelo://app?vid=82c7f004-48ff-45ad-b026-5352d798d11d","ios":"levelo://app?vid=82c7f004-48ff-45ad-b026-5352d798d11d"},"vehicle_type_id":"4","last_reported":1730797749,"current_range_meters":32000,"station_id":"ce4bgg92rcd13ifvqb30","pricing_plan_id":"cebpf4jnsgd1na2vs0mg"},{"bike_id":"b592aa30-9f80-4f5b-a0ff-da2be38dcc1f","system_id":"levelo_inurba_marseille","lat":43.32108,"lon":5.36776,"is_reserved":false,"is_disabled":false,"rental_uris":{"android":"levelo://app?vid=b592aa30-9f80-4f5b-a0ff-da2be38dcc1f","ios":"levelo://app?vid=b592aa30-9f80-4f5b-a0ff-da2be38dcc1f"},"vehicle_type_id":"4","last_reported":1730797749,"current_range_meters":38800,"station_id":"ce4bhrh2rcd13ifvqhug","pricing_plan_id":"cebpf4jnsgd1na2vs0mg"},{"bike_id":"2d0d6434-d99a-4665-a52c-d6f7dad52a8f","system_id":"levelo_inurba_marseille","lat":43.30964,"lon":5.39037,"is_reserved":false,"is_disabled":false,"rental_uris":{"android":"levelo://app?vid=2d0d6434-d99a-4665-a52c-d6f7dad52a8f","ios":"levelo://app?vid=2d0d6434-d99a-4665-a52c-d6f7dad52a8f"},"vehicle_type_id":"4","last_reported":1730797749,"current_range_meters":29600,"station_id":"ce4bgup2rcd13ifvqco0","pricing_plan_id":"cebpf4jnsgd1na2vs0mg"},{"bike_id":"79dc6371-9f69-4ba8-abf4-03c6ad162c4f","system_id":"levelo_inurba_marseille","lat":43.3014,"lon":5.37428,"is_reserved":false,"is_disabled":false,"rental_uris":{"android":"levelo://app?vid=79dc6371-9f69-4ba8-abf4-03c6ad162c4f","ios":"levelo://app?vid=79dc6371-9f69-4ba8-abf4-03c6ad162c4f"},"vehicle_type_id":"4","last_reported":1730797749,"current_range_meters":32000,"station_id":"","pricing_plan_id":"cebpf4jnsgd1na2vs0mg"},{"bike_id":"eab47ed5-f83a-4939-80d1-ff052743bdd1","system_id":"levelo_inurba_marseille","lat":43.32117,"lon":5.36767,"is_reserved":false,"is_disabled":false,"rental_uris":{"android":"levelo://app?vid=eab47ed5-f83a-4939-80d1-ff052743bdd1","ios":"levelo://app?vid=eab47ed5-f83a-4939-80d1-ff052743bdd1"},"vehicle_type_id":"4","last_reported":1730797749,"current_range_meters":32000,"station_id":"ce4bhrh2rcd13ifvqhug","pricing_plan_id":"cebpf4jnsgd1na2vs0mg"},{"bike_id":"1651f37a-dd78-42c3-85bf-9d337044bfda","system_id":"levelo_inurba_marseille","lat":43.30298,"lon":5.37696,"is_reserved":false,"is_disabled":false,"rental_uris":{"android":"levelo://app?vid=1651f37a-dd78-42c3-85bf-9d337044bfda","ios":"levelo://app?vid=1651f37a-dd78-42c3-85bf-9d337044bfda"},"vehicle_type_id":"4","last_reported":1730797749,"current_range_meters":37600,"station_id":"ce4bguh2rcd13ifvqcj0","pricing_plan_id":"cebpf4jnsgd1na2vs0mg"},{"bike_id":"f88e7deb-3757-413b-8276-38cd9dd64b21","system_id":"levelo_inurba_marseille","lat":43.31332,"lon":5.36714,"is_reserved":false,"is_disabled":false,"rental_uris":{"android":"levelo://app?vid=f88e7deb-3757-413b-8276-38cd9dd64b21","ios":"levelo://app?vid=f88e7deb-3757-413b-8276-38cd9dd64b21"},"vehicle_type_id":"4","last_reported":1730797749,"current_range_meters":19600,"station_id":"ce4bgr92rcd13ifvqc6g","pricing_plan_id":"cebpf4jnsgd1na2vs0mg"},{"bike_id":"31db50c2-2307-4ebc-97b5-4be4446fd18c","system_id":"levelo_inurba_marseille","lat":43.26059,"lon":5.39394,"is_reserved":false,"is_disabled":false,"rental_uris":{"android":"levelo://app?vid=31db50c2-2307-4ebc-97b5-4be4446fd18c","ios":"levelo://app?vid=31db50c2-2307-4ebc-97b5-4be4446fd18c"},"vehicle_type_id":"4","last_reported":1730797749,"current_range_meters":40000,"station_id":"ce4bhh92rcd13ifvqfj0","pricing_plan_id":"cebpf4jnsgd1na2vs0mg"},{"bike_id":"0dd1d622-4760-44e9-a9ed-3bfd4e99bf22","system_id":"levelo_inurba_marseille","lat":43.30906,"lon":5.36852,"is_reserved":false,"is_disabled":false,"rental_uris":{"android":"levelo://app?vid=0dd1d622-4760-44e9-a9ed-3bfd4e99bf22","ios":"levelo://app?vid=0dd1d622-4760-44e9-a9ed-3bfd4e99bf22"},"vehicle_type_id":"4","last_reported":1730797749,"current_range_meters":32800,"station_id":"ce4bgn92rcd13ifvqbvg","pricing_plan_id":"cebpf4jnsgd1na2vs0mg"},{"bike_id":"d7798a4a-7e24-4f13-abf6-c911fb931448","system_id":"levelo_inurba_marseille","lat":43.3414,"lon":5.40907,"is_reserved":false,"is_disabled":false,"rental_uris":{"android":"levelo://app?vid=d7798a4a-7e24-4f13-abf6-c911fb931448","ios":"levelo://app?vid=d7798a4a-7e24-4f13-abf6-c911fb931448"},"vehicle_type_id":"4","last_reported":1730797749,"current_range_meters":30000,"station_id":"ce4bhqh2rcd13ifvqhlg","pricing_plan_id":"cebpf4jnsgd1na2vs0mg"},{"bike_id":"18ade1d4-02c5-44bb-9d1e-13cf0105e1ea","system_id":"levelo_inurba_marseille","lat":43.2848,"lon":5.38538,"is_reserved":false,"is_disabled":false,"rental_uris":{"android":"levelo://app?vid=18ade1d4-02c5-44bb-9d1e-13cf0105e1ea","ios":"levelo://app?vid=18ade1d4-02c5-44bb-9d1e-13cf0105e1ea"},"vehicle_type_id":"4","last_reported":1730797749,"current_range_meters":38800,"station_id":"ce4bh8p2rcd13ifvqeb0","pricing_plan_id":"cebpf4jnsgd1na2vs0mg"},{"bike_id":"73cff2ad-fd74-4f91-814a-f2910dab0d19","system_id":"levelo_inurba_marseille","lat":43.28853,"lon":5.3932,"is_reserved":false,"is_disabled":false,"rental_uris":{"android":"levelo://app?vid=73cff2ad-fd74-4f91-814a-f2910dab0d19","ios":"levelo://app?vid=73cff2ad-fd74-4f91-814a-f2910dab0d19"},"vehicle_type_id":"4","last_reported":1730797749,"current_range_meters":19600,"station_id":"ce4bh2p2rcd13ifvqdi0","pricing_plan_id":"cebpf4jnsgd1na2vs0mg"},{"bike_id":"ea43565c-4dbb-442a-ac20-b496c2733246","system_id":"levelo_inurba_marseille","lat":43.30148,"lon":5.37415,"is_reserved":false,"is_disabled":false,"rental_uris":{"android":"levelo://app?vid=ea43565c-4dbb-442a-ac20-b496c2733246","ios":"levelo://app?vid=ea43565c-4dbb-442a-ac20-b496c2733246"},"vehicle_type_id":"4","last_reported":1730797749,"current_range_meters":15200,"station_id":"ce4bgs92rcd13ifvqcc0","pricing_plan_id":"cebpf4jnsgd1na2vs0mg"},{"bike_id":"85d45bf7-37e4-4e88-952f-cd0c86ed3ea5","system_id":"levelo_inurba_marseille","lat":43.24174,"lon":5.39725,"is_reserved":false,"is_disabled":false,"rental_uris":{"android":"levelo://app?vid=85d45bf7-37e4-4e88-952f-cd0c86ed3ea5","ios":"levelo://app?vid=85d45bf7-37e4-4e88-952f-cd0c86ed3ea5"},"vehicle_type_id":"4","last_reported":1730797749,"current_range_meters":25200,"station_id":"ce4bhn12rcd13ifvqgpg","pricing_plan_id":"cebpf4jnsgd1na2vs0mg"},{"bike_id":"7682d053-f816-4a9b-a5d5-70490a2875fc","system_id":"levelo_inurba_marseille","lat":43.26949,"lon":5.38631,"is_reserved":false,"is_disabled":false,"rental_uris":{"android":"levelo://app?vid=7682d053-f816-4a9b-a5d5-70490a2875fc","ios":"levelo://app?vid=7682d053-f816-4a9b-a5d5-70490a2875fc"},"vehicle_type_id":"4","last_reported":1730797749,"current_range_meters":36800,"station_id":"ce4bhh92rcd13ifvqfh0","pricing_plan_id":"cebpf4jnsgd1na2vs0mg"},{"bike_id":"260fa75a-01a4-4465-ba93-2899bc76795b","system_id":"levelo_inurba_marseille","lat":43.27072,"lon":5.4228,"is_reserved":false,"is_disabled":false,"rental_uris":{"android":"levelo://app?vid=260fa75a-01a4-4465-ba93-2899bc76795b","ios":"levelo://app?vid=260fa75a-01a4-4465-ba93-2899bc76795b"},"vehicle_type_id":"4","last_reported":1730797749,"current_range_meters":17200,"station_id":"ce4bhk92rcd13ifvqgb0","pricing_plan_id":"cebpf4jnsgd1na2vs0mg"},{"bike_id":"3560c5ce-d02f-4630-8b3a-5ae2ad7fb9b3","system_id":"levelo_inurba_marseille","lat":43.24073,"lon":5.37761,"is_reserved":false,"is_disabled":false,"rental_uris":{"android":"levelo://app?vid=3560c5ce-d02f-4630-8b3a-5ae2ad7fb9b3","ios":"levelo://app?vid=3560c5ce-d02f-4630-8b3a-5ae2ad7fb9b3"},"vehicle_type_id":"4","last_reported":1730797749,"current_range_meters":25200,"station_id":"ce4bhnp2rcd13ifvqgvg","pricing_plan_id":"cebpf4jnsgd1na2vs0mg"},{"bike_id":"61ff0618-9c62-400c-8ec7-6e330465598d","system_id":"levelo_inurba_marseille","lat":43.30454,"lon":5.3792,"is_reserved":false,"is_disabled":false,"rental_uris":{"android":"levelo://app?vid=61ff0618-9c62-400c-8ec7-6e330465598d","ios":"levelo://app?vid=61ff0618-9c62-400c-8ec7-6e330465598d"},"vehicle_type_id":"4","last_reported":1730797749,"current_range_meters":8400,"station_id":"ce4bgup2rcd13ifvqcn0","pricing_plan_id":"cebpf4jnsgd1na2vs0mg"},{"bike_id":"2b7c7838-0b38-48ff-a34b-04cd5d917cba","system_id":"levelo_inurba_marseille","lat":43.29583,"lon":5.36738,"is_reserved":false,"is_disabled":false,"rental_uris":{"android":"levelo://app?vid=2b7c7838-0b38-48ff-a34b-04cd5d917cba","ios":"levelo://app?vid=2b7c7838-0b38-48ff-a34b-04cd5d917cba"},"vehicle_type_id":"4","last_reported":1730797749,"current_range_meters":21600,"station_id":"ce4bgph2rcd13ifvqc2g","pricing_plan_id":"cebpf4jnsgd1na2vs0mg"},{"bike_id":"f605cfa1-16bb-45b0-9f38-3b83d0d5059b","system_id":"levelo_inurba_marseille","lat":43.2749,"lon":5.42452,"is_reserved":false,"is_disabled":false,"rental_uris":{"android":"levelo://app?vid=f605cfa1-16bb-45b0-9f38-3b83d0d5059b","ios":"levelo://app?vid=f605cfa1-16bb-45b0-9f38-3b83d0d5059b"},"vehicle_type_id":"4","last_reported":1730797749,"current_range_meters":38000,"station_id":"ce4bhn92rcd13ifvqgrg","pricing_plan_id":"cebpf4jnsgd1na2vs0mg"},{"bike_id":"423d5629-60ea-46cc-8398-d31d7c9a3239","system_id":"levelo_inurba_marseille","lat":43.23961,"lon":5.36626,"is_reserved":false,"is_disabled":false,"rental_uris":{"android":"levelo://app?vid=423d5629-60ea-46cc-8398-d31d7c9a3239","ios":"levelo://app?vid=423d5629-60ea-46cc-8398-d31d7c9a3239"},"vehicle_type_id":"4","last_reported":1730797749,"current_range_meters":10000,"station_id":"ce4bhi12rcd13ifvqfp0","pricing_plan_id":"cebpf4jnsgd1na2vs0mg"},{"bike_id":"4a3efb1c-a771-486d-8427-024b2b5d0661","system_id":"levelo_inurba_marseille","lat":43.29076,"lon":5.37182,"is_reserved":false,"is_disabled":false,"rental_uris":{"android":"levelo://app?vid=4a3efb1c-a771-486d-8427-024b2b5d0661","ios":"levelo://app?vid=4a3efb1c-a771-486d-8427-024b2b5d0661"},"vehicle_type_id":"4","last_reported":1730797749,"current_range_meters":28800,"station_id":"ce4bh5p2rcd13ifvqe4g","pricing_plan_id":"cebpf4jnsgd1na2vs0mg"},{"bike_id":"db31db70-cc20-4b5f-acb8-538f14a09b27","system_id":"levelo_inurba_marseille","lat":43.23187,"lon":5.39983,"is_reserved":false,"is_disabled":false,"rental_uris":{"android":"levelo://app?vid=db31db70-cc20-4b5f-acb8-538f14a09b27","ios":"levelo://app?vid=db31db70-cc20-4b5f-acb8-538f14a09b27"},"vehicle_type_id":"4","last_reported":1730797749,"current_range_meters":36400,"station_id":"ce4bhn12rcd13ifvqgqg","pricing_plan_id":"cebpf4jnsgd1na2vs0mg"},{"bike_id":"9d5bc649-ffc6-4d50-a55b-829257b6fed3","system_id":"levelo_inurba_marseille","lat":43.24548,"lon":5.39522,"is_reserved":false,"is_disabled":false,"rental_uris":{"android":"levelo://app?vid=9d5bc649-ffc6-4d50-a55b-829257b6fed3","ios":"levelo://app?vid=9d5bc649-ffc6-4d50-a55b-829257b6fed3"},"vehicle_type_id":"4","last_reported":1730797749,"current_range_meters":26800,"station_id":"ce4bhlp2rcd13ifvqgjg","pricing_plan_id":"cebpf4jnsgd1na2vs0mg"},{"bike_id":"d2697835-c7b8-42fd-8573-0cc6ca54feb4","system_id":"levelo_inurba_marseille","lat":43.28949,"lon":5.36406,"is_reserved":false,"is_disabled":false,"rental_uris":{"android":"levelo://app?vid=d2697835-c7b8-42fd-8573-0cc6ca54feb4","ios":"levelo://app?vid=d2697835-c7b8-42fd-8573-0cc6ca54feb4"},"vehicle_type_id":"4","last_reported":1730797749,"current_range_meters":18000,"station_id":"ce4bhc92rcd13ifvqetg","pricing_plan_id":"cebpf4jnsgd1na2vs0mg"},{"bike_id":"d4f0984a-50a9-4a13-bcb7-a0220c9c9042","system_id":"levelo_inurba_marseille","lat":43.33612,"lon":5.41027,"is_reserved":false,"is_disabled":false,"rental_uris":{"android":"levelo://app?vid=d4f0984a-50a9-4a13-bcb7-a0220c9c9042","ios":"levelo://app?vid=d4f0984a-50a9-4a13-bcb7-a0220c9c9042"},"vehicle_type_id":"4","last_reported":1730797749,"current_range_meters":20800,"station_id":"ce4bhqh2rcd13ifvqhmg","pricing_plan_id":"cebpf4jnsgd1na2vs0mg"},{"bike_id":"d0c8dc68-c81e-4754-95ea-1197799c8609","system_id":"levelo_inurba_marseille","lat":43.33605,"lon":5.41025,"is_reserved":false,"is_disabled":false,"rental_uris":{"android":"levelo://app?vid=d0c8dc68-c81e-4754-95ea-1197799c8609","ios":"levelo://app?vid=d0c8dc68-c81e-4754-95ea-1197799c8609"},"vehicle_type_id":"4","last_reported":1730797749,"current_range_meters":4000,"station_id":"ce4bhqh2rcd13ifvqhmg","pricing_plan_id":"cebpf4jnsgd1na2vs0mg"},{"bike_id":"5d056037-4a63-411d-8f45-e73b20cb04ae","system_id":"levelo_inurba_marseille","lat":43.30154,"lon":5.38083,"is_reserved":false,"is_disabled":false,"rental_uris":{"android":"levelo://app?vid=5d056037-4a63-411d-8f45-e73b20cb04ae","ios":"levelo://app?vid=5d056037-4a63-411d-8f45-e73b20cb04ae"},"vehicle_type_id":"4","last_reported":1730797749,"current_range_meters":30400,"station_id":"ce4bgjp2rcd13ifvqbh0","pricing_plan_id":"cebpf4jnsgd1na2vs0mg"},{"bike_id":"cf6df2de-822d-4e4e-b602-cdb87f02952e","system_id":"levelo_inurba_marseille","lat":43.31341,"lon":5.36719,"is_reserved":false,"is_disabled":false,"rental_uris":{"android":"levelo://app?vid=cf6df2de-822d-4e4e-b602-cdb87f02952e","ios":"levelo://app?vid=cf6df2de-822d-4e4e-b602-cdb87f02952e"},"vehicle_type_id":"4","last_reported":1730797749,"current_range_meters":30400,"station_id":"ce4bgr92rcd13ifvqc6g","pricing_plan_id":"cebpf4jnsgd1na2vs0mg"},{"bike_id":"936de00c-7fbf-4ccc-b481-d56152b0c55c","system_id":"levelo_inurba_marseille","lat":43.29911,"lon":5.37465,"is_reserved":false,"is_disabled":false,"rental_uris":{"android":"levelo://app?vid=936de00c-7fbf-4ccc-b481-d56152b0c55c","ios":"levelo://app?vid=936de00c-7fbf-4ccc-b481-d56152b0c55c"},"vehicle_type_id":"4","last_reported":1730797749,"current_range_meters":36800,"station_id":"ce4bgjh2rcd13ifvqbg0","pricing_plan_id":"cebpf4jnsgd1na2vs0mg"},{"bike_id":"2bed1123-a12e-4775-9eb6-5219bf4f95d8","system_id":"levelo_inurba_marseille","lat":43.25862,"lon":5.39893,"is_reserved":false,"is_disabled":false,"rental_uris":{"android":"levelo://app?vid=2bed1123-a12e-4775-9eb6-5219bf4f95d8","ios":"levelo://app?vid=2bed1123-a12e-4775-9eb6-5219bf4f95d8"},"vehicle_type_id":"4","last_reported":1730797749,"current_range_meters":30000,"station_id":"ce4bhl92rcd13ifvqghg","pricing_plan_id":"cebpf4jnsgd1na2vs0mg"},{"bike_id":"04575049-e232-448b-97cc-f84df2aa6e6a","system_id":"levelo_inurba_marseille","lat":43.32485,"lon":5.36568,"is_reserved":false,"is_disabled":false,"rental_uris":{"android":"levelo://app?vid=04575049-e232-448b-97cc-f84df2aa6e6a","ios":"levelo://app?vid=04575049-e232-448b-97cc-f84df2aa6e6a"},"vehicle_type_id":"4","last_reported":1730797749,"current_range_meters":35200,"station_id":"ce4bhs12rcd13ifvqhvg","pricing_plan_id":"cebpf4jnsgd1na2vs0mg"},{"bike_id":"28df973b-2047-4bb2-9547-9f05e5b41f08","system_id":"levelo_inurba_marseille","lat":43.30539,"lon":5.36539,"is_reserved":false,"is_disabled":false,"rental_uris":{"android":"levelo://app?vid=28df973b-2047-4bb2-9547-9f05e5b41f08","ios":"levelo://app?vid=28df973b-2047-4bb2-9547-9f05e5b41f08"},"vehicle_type_id":"4","last_reported":1730797749,"current_range_meters":22000,"station_id":"ce4bgs12rcd13ifvqcag","pricing_plan_id":"cebpf4jnsgd1na2vs0mg"},{"bike_id":"27298d5a-4ba5-4b15-9982-08a15bf6fe26","system_id":"levelo_inurba_marseille","lat":43.30782,"lon":5.37637,"is_reserved":false,"is_disabled":false,"rental_uris":{"android":"levelo://app?vid=27298d5a-4ba5-4b15-9982-08a15bf6fe26","ios":"levelo://app?vid=27298d5a-4ba5-4b15-9982-08a15bf6fe26"},"vehicle_type_id":"4","last_reported":1730797749,"current_range_meters":32000,"station_id":"ce4bgv92rcd13ifvqcq0","pricing_plan_id":"cebpf4jnsgd1na2vs0mg"},{"bike_id":"9ec276ae-d80d-415a-bf60-0358ad54dffc","system_id":"levelo_inurba_marseille","lat":43.29898,"lon":5.43661,"is_reserved":false,"is_disabled":false,"rental_uris":{"android":"levelo://app?vid=9ec276ae-d80d-415a-bf60-0358ad54dffc","ios":"levelo://app?vid=9ec276ae-d80d-415a-bf60-0358ad54dffc"},"vehicle_type_id":"4","last_reported":1730797749,"current_range_meters":9200,"station_id":"ce4bhpp2rcd13ifvqhfg","pricing_plan_id":"cebpf4jnsgd1na2vs0mg"},{"bike_id":"fa296df4-ef42-4fd2-bd17-7c493f81871b","system_id":"levelo_inurba_marseille","lat":43.25936,"lon":5.40911,"is_reserved":false,"is_disabled":false,"rental_uris":{"android":"levelo://app?vid=fa296df4-ef42-4fd2-bd17-7c493f81871b","ios":"levelo://app?vid=fa296df4-ef42-4fd2-bd17-7c493f81871b"},"vehicle_type_id":"4","last_reported":1730797749,"current_range_meters":13600,"station_id":"ce4bhm92rcd13ifvqglg","pricing_plan_id":"cebpf4jnsgd1na2vs0mg"},{"bike_id":"b788ed21-976c-4ff2-bd1b-16f4238d94e1","system_id":"levelo_inurba_marseille","lat":43.26951,"lon":5.3863,"is_reserved":false,"is_disabled":false,"rental_uris":{"android":"levelo://app?vid=b788ed21-976c-4ff2-bd1b-16f4238d94e1","ios":"levelo://app?vid=b788ed21-976c-4ff2-bd1b-16f4238d94e1"},"vehicle_type_id":"4","last_reported":1730797749,"current_range_meters":39200,"station_id":"ce4bhh92rcd13ifvqfh0","pricing_plan_id":"cebpf4jnsgd1na2vs0mg"},{"bike_id":"92583e01-792e-4015-9e86-8b3550453e11","system_id":"levelo_inurba_marseille","lat":43.33766,"lon":5.37426,"is_reserved":false,"is_disabled":false,"rental_uris":{"android":"levelo://app?vid=92583e01-792e-4015-9e86-8b3550453e11","ios":"levelo://app?vid=92583e01-792e-4015-9e86-8b3550453e11"},"vehicle_type_id":"4","last_reported":1730797749,"current_range_meters":17600,"station_id":"","pricing_plan_id":"cebpf4jnsgd1na2vs0mg"},{"bike_id":"e689f2fb-2f92-4cd7-ab5a-6ae37bc0480b","system_id":"levelo_inurba_marseille","lat":43.30459,"lon":5.37899,"is_reserved":false,"is_disabled":false,"rental_uris":{"android":"levelo://app?vid=e689f2fb-2f92-4cd7-ab5a-6ae37bc0480b","ios":"levelo://app?vid=e689f2fb-2f92-4cd7-ab5a-6ae37bc0480b"},"vehicle_type_id":"4","last_reported":1730797749,"current_range_meters":10800,"station_id":"ce4bgup2rcd13ifvqcn0","pricing_plan_id":"cebpf4jnsgd1na2vs0mg"},{"bike_id":"9430e299-e1b4-46c8-868f-5fd72c528b73","system_id":"levelo_inurba_marseille","lat":43.24076,"lon":5.37756,"is_reserved":false,"is_disabled":false,"rental_uris":{"android":"levelo://app?vid=9430e299-e1b4-46c8-868f-5fd72c528b73","ios":"levelo://app?vid=9430e299-e1b4-46c8-868f-5fd72c528b73"},"vehicle_type_id":"4","last_reported":1730797749,"current_range_meters":26000,"station_id":"ce4bhnp2rcd13ifvqgvg","pricing_plan_id":"cebpf4jnsgd1na2vs0mg"},