{"last_updated":1744377588,"ttl":60,"version":"2.2","data":{"bikes":[{"bike_id":"f6870e62-1bd6-4a88-a72d-3e90bff45c8c","system_id":"levelo_inurba_marseille","lat":43.22502,"lon":5.3478,"is_reserved":false,"is_disabled":false,"rental_uris":{"android":"levelo://app?vid=f6870e62-1bd6-4a88-a72d-3e90bff45c8c","ios":"levelo://app?vid=f6870e62-1bd6-4a88-a72d-3e90bff45c8c"},"vehicle_type_id":"4","last_reported":1744377588,"current_range_meters":2800,"station_id":"st_cvj5dfep6f1abm77gieg","pricing_plan_id":"cebpf4jnsgd1na2vs0mg"},{"bike_id":"de34a317-3edb-46f7-89da-36d9dd53b8a2","system_id":"levelo_inurba_marseille","lat":43.29003,"lon":5.35618,"is_reserved":false,"is_disabled":false,"rental_uris":{"android":"levelo://app?vid=de34a317-3edb-46f7-89da-36d9dd53b8a2","ios":"levelo://app?vid=de34a317-3edb-46f7-89da-36d9dd53b8a2"},"vehicle_type_id":"4","last_reported":1744377588,"current_range_meters":2800,"station_id":"ce4bhb92rcd13ifvqen0","pricing_plan_id":"cebpf4jnsgd1na2vs0mg"},{"bike_id":"969c26a4-9487-4ada-9165-7049d2b7a563","system_id":"levelo_inurba_marseille","lat":43.28351,"lon":5.38108,"is_reserved":false,"is_disabled":false,"rental_uris":{"android":"levelo://app?vid=969c26a4-9487-4ada-9165-7049d2b7a563","ios":"levelo://app?vid=969c26a4-9487-4ada-9165-7049d2b7a563"},"vehicle_type_id":"4","last_reported":1744377588,"current_range_meters":2800,"station_id":"ce4bh412rcd13ifvqdr0","pricing_plan_id":"cebpf4jnsgd1na2vs0mg"},{"bike_id":"31154945-feb0-454b-8d70-4ed4275b4f62","system_id":"levelo_inurba_marseille","lat":43.23191,"lon":5.3556,"is_reserved":false,"is_disabled":false,"rental_uris":{"android":"levelo://app?vid=31154945-feb0-454b-8d70-4ed4275b4f62","ios":"levelo://app?vid=31154945-feb0-454b-8d70-4ed4275b4f62"},"vehicle_type_id":"4","last_reported":1744377588,"current_range_meters":3200,"station_id":"ce4bhu92rcd13ifvqi70","pricing_plan_id":"cebpf4jnsgd1na2vs0mg"},{"bike_id":"5b497f3e-9a15-48dc-8a52-2ef94ad2d519","system_id":"levelo_inurba_marseille","lat":43.33745,"lon":5.3748,"is_reserved":false,"is_disabled":false,"rental_uris":{"android":"levelo://app?vid=5b497f3e-9a15-48dc-8a52-2ef94ad2d519","ios":"levelo://app?vid=5b497f3e-9a15-48dc-8a52-2ef94ad2d519"},"vehicle_type_id":"4","last_reported":1744377588,"current_range_meters":3200,"station_id":"ce4bguh2rcd13ifvqcj0","pricing_plan_id":"cebpf4jnsgd1na2vs0mg"},{"bike_id":"ea84a354-bfd3-42e0-a671-66fbcb61d873","system_id":"levelo_inurba_marseille","lat":43.27377,"lon":5.36251,"is_reserved":false,"is_disabled":false,"rental_uris":{"android":"levelo://app?vid=ea84a354-bfd3-42e0-a671-66fbcb61d873","ios":"levelo://app?vid=ea84a354-bfd3-42e0-a671-66fbcb61d873"},"vehicle_type_id":"4","last_reported":1744377588,"current_range_meters":3200,"station_id":"ce4bhbh2rcd13ifvqeo0","pricing_plan_id":"cebpf4jnsgd1na2vs0mg"},{"bike_id":"c91c7d86-e9f5-4df1-bf5b-08a6721f835d","system_id":"levelo_inurba_marseille","lat":43.23152,"lon":5.43698,"is_reserved":false,"is_disabled":false,"rental_uris":{"android":"levelo://app?vid=c91c7d86-e9f5-4df1-bf5b-08a6721f835d","ios":"levelo://app?vid=c91c7d86-e9f5-4df1-bf5b-08a6721f835d"},"vehicle_type_id":"4","last_reported":1744377588,"current_range_meters":3200,"station_id":"ce4bhmp2rcd13ifvqgog","pricing_plan_id":"cebpf4jnsgd1na2vs0mg"},{"bike_id":"dcc63f70-f24a-4395-8caa-31407617f0ad","system_id":"levelo_inurba_marseille","lat":43.26554,"lon":5.37281,"is_reserved":false,"is_disabled":false,"rental_uris":{"android":"levelo://app?vid=dcc63f70-f24a-4395-8caa-31407617f0ad","ios":"levelo://app?vid=dcc63f70-f24a-4395-8caa-31407617f0ad"},"vehicle_type_id":"4","last_reported":1744377588,"current_range_meters":3600,"station_id":"ce4bhg12rcd13ifvqf70","pricing_plan_id":"cebpf4jnsgd1na2vs0mg"},{"bike_id":"687208cc-9779-475f-86f8-65b3ef02b4fc","system_id":"levelo_inurba_marseille","lat":43.23153,"lon":5.43711,"is_reserved":false,"is_disabled":false,"rental_uris":{"android":"levelo://app?vid=687208cc-9779-475f-86f8-65b3ef02b4fc","ios":"levelo://app?vid=687208cc-9779-475f-86f8-65b3ef02b4fc"},"vehicle_type_id":"4","last_reported":1744377588,"current_range_meters":3600,"station_id":"ce4bhmp2rcd13ifvqgog","pricing_plan_id":"cebpf4jnsgd1na2vs0mg"},{"bike_id":"6fa53e1a-613b-49e1-be67-632e2f65e6fb","system_id":"levelo_inurba_marseille","lat":43.28285,"lon":5.35083,"is_reserved":false,"is_disabled":true,"rental_uris":{"android":"levelo://app?vid=6fa53e1a-613b-49e1-be67-632e2f65e6fb","ios":"levelo://app?vid=6fa53e1a-613b-49e1-be67-632e2f65e6fb"},"vehicle_type_id":"4","last_reported":1744377588,"current_range_meters":3600,"station_id":"ce4bhbp2rcd13ifvqerg","pricing_plan_id":"cebpf4jnsgd1na2vs0mg"},{"bike_id":"052efa1d-60f1-4586-869e-dc4f762b4fa8","system_id":"levelo_inurba_marseille","lat":43.27364,"lon":5.36252,"is_reserved":false,"is_disabled":false,"rental_uris":{"android":"levelo://app?vid=052efa1d-60f1-4586-869e-dc4f762b4fa8","ios":"levelo://app?vid=052efa1d-60f1-4586-869e-dc4f762b4fa8"},"vehicle_type_id":"4","last_reported":1744377588,"current_range_meters":3600,"station_id":"ce4bhbh2rcd13ifvqeo0","pricing_plan_id":"cebpf4jnsgd1na2vs0mg"},{"bike_id":"bfba29f8-3a5d-408c-b04a-6c85c9dac7f4","system_id":"levelo_inurba_marseille","lat":43.27373,"lon":5.36248,"is_reserved":false,"is_disabled":false,"rental_uris":{"android":"levelo://app?vid=bfba29f8-3a5d-408c-b04a-6c85c9dac7f4","ios":"levelo://app?vid=bfba29f8-3a5d-408c-b04a-6c85c9dac7f4"},"vehicle_type_id":"4","last_reported":1744377588,"current_range_meters":4000,"station_id":"ce4bhbh2rcd13ifvqeo0","pricing_plan_id":"cebpf4jnsgd1na2vs0mg"},{"bike_id":"c243072f-6bd2-4d94-ba83-04162cf2a05c","system_id":"levelo_inurba_marseille","lat":43.27149,"lon":5.40171,"is_reserved":false,"is_disabled":false,"rental_uris":{"android":"levelo://app?vid=c243072f-6bd2-4d94-ba83-04162cf2a05c","ios":"levelo://app?vid=c243072f-6bd2-4d94-ba83-04162cf2a05c"},"vehicle_type_id":"4","last_reported":1744377588,"current_range_meters":4000,"station_id":"","pricing_plan_id":"cebpf4jnsgd1na2vs0mg"},{"bike_id":"4a18cc89-d183-41c6-b1f7-a2b1d5d5cbff","system_id":"levelo_inurba_marseille","lat":43.26563,"lon":5.37292,"is_reserved":false,"is_disabled":false,"rental_uris":{"android":"levelo://app?vid=4a18cc89-d183-41c6-b1f7-a2b1d5d5cbff","ios":"levelo://app?vid=4a18cc89-d183-41c6-b1f7-a2b1d5d5cbff"},"vehicle_type_id":"4","last_reported":1744377588,"current_range_meters":4400,"station_id":"ce4bhg12rcd13ifvqf70","pricing_plan_id":"cebpf4jnsgd1na2vs0mg"},{"bike_id":"83c132b1-a954-4d5a-a32d-9f99af4faa3c","system_id":"levelo_inurba_marseille","lat":43.309177,"lon":5.415267,"is_reserved":false,"is_disabled":false,"rental_uris":{"android":"levelo://app?vid=83c132b1-a954-4d5a-a32d-9f99af4faa3c","ios":"levelo://app?vid=83c132b1-a954-4d5a-a32d-9f99af4faa3c"},"vehicle_type_id":"4","last_reported":1744377588,"current_range_meters":4400,"station_id":"","pricing_plan_id":"cebpf4jnsgd1na2vs0mg"},{"bike_id":"50b2e1a8-dc0b-4d6a-89d1-ab820c7f555a","system_id":"levelo_inurba_marseille","lat":43.27376,"lon":5.36255,"is_reserved":false,"is_disabled":false,"rental_uris":{"android":"levelo://app?vid=50b2e1a8-dc0b-4d6a-89d1-ab820c7f555a","ios":"levelo://app?vid=50b2e1a8-dc0b-4d6a-89d1-ab820c7f555a"},"vehicle_type_id":"4","last_reported":1744377588,"current_range_meters":4400,"station_id":"ce4bhbh2rcd13ifvqeo0","pricing_plan_id":"cebpf4jnsgd1na2vs0mg"},{"bike_id":"97a28dcf-8a55-4e97-a3e8-93b73dbc9c1e","system_id":"levelo_inurba_marseille","lat":43.28414,"lon":5.34979,"is_reserved":false,"is_disabled":false,"rental_uris":{"android":"levelo://app?vid=97a28dcf-8a55-4e97-a3e8-93b73dbc9c1e","ios":"levelo://app?vid=97a28dcf-8a55-4e97-a3e8-93b73dbc9c1e"},"vehicle_type_id":"4","last_reported":1744377588,"current_range_meters":4400,"station_id":"ce4bhbh2rcd13ifvqepg","pricing_plan_id":"cebpf4jnsgd1na2vs0mg"},{"bike_id":"ddfc50d8-2693-4583-beb3-f50c3544841c","system_id":"levelo_inurba_marseille","lat":43.28033,"lon":5.36942,"is_reserved":false,"is_disabled":false,"rental_uris":{"android":"levelo://app?vid=ddfc50d8-2693-4583-beb3-f50c3544841c","ios":"levelo://app?vid=ddfc50d8-2693-4583-beb3-f50c3544841c"},"vehicle_type_id":"4","last_reported":1744377588,"current_range_meters":4800,"station_id":"ce4bha12rcd13ifvqef0","pricing_plan_id":"cebpf4jnsgd1na2vs0mg"},{"bike_id":"4e5dcc2d-2125-4b4f-8bf9-a73f1699e4e6","system_id":"levelo_inurba_marseille","lat":43.23156,"lon":5.437129,"is_reserved":false,"is_disabled":false,"rental_uris":{"android":"levelo://app?vid=4e5dcc2d-2125-4b4f-8bf9-a73f1699e4e6","ios":"levelo://app?vid=4e5dcc2d-2125-4b4f-8bf9-a73f1699e4e6"},"vehicle_type_id":"4","last_reported":1744377588,"current_range_meters":4400,"station_id":"ce4bhmp2rcd13ifvqgog","pricing_plan_id":"cebpf4jnsgd1na2vs0mg"},{"bike_id":"c4a8118e-5658-4aad-9635-23a842fa71b9","system_id":"levelo_inurba_marseille","lat":43.21192,"lon":5.35073,"is_reserved":false,"is_disabled":false,"rental_uris":{"android":"levelo://app?vid=c4a8118e-5658-4aad-9635-23a842fa71b9","ios":"levelo://app?vid=c4a8118e-5658-4aad-9635-23a842fa71b9"},"vehicle_type_id":"4","last_reported":1744377588,"current_range_meters":4800,"station_id":"st_cvj6sg6p6f1abm77japg","pricing_plan_id":"cebpf4jnsgd1na2vs0mg"},{"bike_id":"ae1726bc-5064-426c-9748-6072c70db2d7","system_id":"levelo_inurba_marseille","lat":43.285376,"lon":5.395022,"is_reserved":false,"is_disabled":false,"rental_uris":{"android":"levelo://app?vid=ae1726bc-5064-426c-9748-6072c70db2d7","ios":"levelo://app?vid=ae1726bc-5064-426c-9748-6072c70db2d7"},"vehicle_type_id":"4","last_reported":1744377588,"current_range_meters":4000,"station_id":"ce4bh292rcd13ifvqdg0","pricing_plan_id":"cebpf4jnsgd1na2vs0mg"},{"bike_id":"26e6a2cf-aea0-42b7-afea-07985f12e439","system_id":"levelo_inurba_marseille","lat":43.2919,"lon":5.35804,"is_reserved":false,"is_disabled":false,"rental_uris":{"android":"levelo://app?vid=26e6a2cf-aea0-42b7-afea-07985f12e439","ios":"levelo://app?vid=26e6a2cf-aea0-42b7-afea-07985f12e439"},"vehicle_type_id":"4","last_reported":1744377588,"current_range_meters":5600,"station_id":"ce4bhb12rcd13ifvqel0","pricing_plan_id":"cebpf4jnsgd1na2vs0mg"},{"bike_id":"e4dd2cd5-ee4e-442a-ae66-ce9576e0565b","system_id":"levelo_inurba_marseille","lat":43.28341,"lon":5.38105,"is_reserved":false,"is_disabled":false,"rental_uris":{"android":"levelo://app?vid=e4dd2cd5-ee4e-442a-ae66-ce9576e0565b","ios":"levelo://app?vid=e4dd2cd5-ee4e-442a-ae66-ce9576e0565b"},"vehicle_type_id":"4","last_reported":1744377588,"current_range_meters":5600,"station_id":"ce4bh412rcd13ifvqdr0","pricing_plan_id":"cebpf4jnsgd1na2vs0mg"},{"bike_id":"8e10c6cd-18e2-4470-aa99-bad9e980445c","system_id":"levelo_inurba_marseille","lat":43.337444,"lon":5.374475,"is_reserved":false,"is_disabled":false,"rental_uris":{"android":"levelo://app?vid=8e10c6cd-18e2-4470-aa99-bad9e980445c","ios":"levelo://app?vid=8e10c6cd-18e2-4470-aa99-bad9e980445c"},"vehicle_type_id":"4","last_reported":1744377588,"current_range_meters":5600,"station_id":"","pricing_plan_id":"cebpf4jnsgd1na2vs0mg"},{"bike_id":"36128d06-0769-44ff-a83c-07db9375d40d","system_id":"levelo_inurba_marseille","lat":43.30959,"lon":5.39045,"is_reserved":false,"is_disabled":false,"rental_uris":{"android":"levelo://app?vid=36128d06-0769-44ff-a83c-07db9375d40d","ios":"levelo://app?vid=36128d06-0769-44ff-a83c-07db9375d40d"},"vehicle_type_id":"4","last_reported":1744377588,"current_range_meters":6000,"station_id":"ce4bgup2rcd13ifvqco0","pricing_plan_id":"cebpf4jnsgd1na2vs0mg"},{"bike_id":"41f2f1c5-a00a-48a8-b51a-f3e951ef5e54","system_id":"levelo_inurba_marseille","lat":43.23147,"lon":5.437265,"is_reserved":false,"is_disabled":false,"rental_uris":{"android":"levelo://app?vid=41f2f1c5-a00a-48a8-b51a-f3e951ef5e54","ios":"levelo://app?vid=41f2f1c5-a00a-48a8-b51a-f3e951ef5e54"},"vehicle_type_id":"4","last_reported":1744377588,"current_range_meters":6000,"station_id":"ce4bhmp2rcd13ifvqgog","pricing_plan_id":"cebpf4jnsgd1na2vs0mg"},{"bike_id":"9c6a225d-f567-47a0-9c65-9d898b580e79","system_id":"levelo_inurba_marseille","lat":43.23152,"lon":5.437273,"is_reserved":false,"is_disabled":false,"rental_uris":{"android":"levelo://app?vid=9c6a225d-f567-47a0-9c65-9d898b580e79","ios":"levelo://app?vid=9c6a225d-f567-47a0-9c65-9d898b580e79"},"vehicle_type_id":"4","last_reported":1744377588,"current_range_meters":6000,"station_id":"ce4bhmp2rcd13ifvqgog","pricing_plan_id":"cebpf4jnsgd1na2vs0mg"},{"bike_id":"04104c82-6c91-4ee3-9c6c-55df6c48d8da","system_id":"levelo_inurba_marseille","lat":43.28266,"lon":5.35063,"is_reserved":false,"is_disabled":false,"rental_uris":{"android":"levelo://app?vid=04104c82-6c91-4ee3-9c6c-55df6c48d8da","ios":"levelo://app?vid=04104c82-6c91-4ee3-9c6c-55df6c48d8da"},"vehicle_type_id":"4","last_reported":1744377588,"current_range_meters":6000,"station_id":"ce4bhbp2rcd13ifvqerg","pricing_plan_id":"cebpf4jnsgd1na2vs0mg"},{"bike_id":"160bf57d-7384-4eae-aa94-d3adada6acce","system_id":"levelo_inurba_marseille","lat":43.28416,"lon":5.34979,"is_reserved":false,"is_disabled":false,"rental_uris":{"android":"levelo://app?vid=160bf57d-7384-4eae-aa94-d3adada6acce","ios":"levelo://app?vid=160bf57d-7384-4eae-aa94-d3adada6acce"},"vehicle_type_id":"4","last_reported":1744377588,"current_range_meters":6000,"station_id":"ce4bhbh2rcd13ifvqepg","pricing_plan_id":"cebpf4jnsgd1na2vs0mg"},{"bike_id":"bdae112c-94ab-4d0b-b0cc-691e4a37008d","system_id":"levelo_inurba_marseille","lat":43.24548,"lon":5.39525,"is_reserved":false,"is_disabled":false,"rental_uris":{"android":"levelo://app?vid=bdae112c-94ab-4d0b-b0cc-691e4a37008d","ios":"levelo://app?vid=bdae112c-94ab-4d0b-b0cc-691e4a37008d"},"vehicle_type_id":"4","last_reported":1744377588,"current_range_meters":6400,"station_id":"ce4bhlp2rcd13ifvqgjg","pricing_plan_id":"cebpf4jnsgd1na2vs0mg"},{"bike_id":"4a3e0919-27c2-445a-a961-2bd3243a227d","system_id":"levelo_inurba_marseille","lat":43.31637,"lon":5.37322,"is_reserved":false,"is_disabled":false,"rental_uris":{"android":"levelo://app?vid=4a3e0919-27c2-445a-a961-2bd3243a227d","ios":"levelo://app?vid=4a3e0919-27c2-445a-a961-2bd3243a227d"},"vehicle_type_id":"4","last_reported":1744377588,"current_range_meters":6400,"station_id":"","pricing_plan_id":"cebpf4jnsgd1na2vs0mg"},{"bike_id":"f861e5b9-bec9-4b3d-920e-26a66f9aec16","system_id":"levelo_inurba_marseille","lat":43.31756,"lon":5.39015,"is_reserved":false,"is_disabled":false,"rental_uris":{"android":"levelo://app?vid=f861e5b9-bec9-4b3d-920e-26a66f9aec16","ios":"levelo://app?vid=f861e5b9-bec9-4b3d-920e-26a66f9aec16"},"vehicle_type_id":"4","last_reported":1744377588,"current_range_meters":6400,"station_id":"ce4bhqp2rcd13ifvqhng","pricing_plan_id":"cebpf4jnsgd1na2vs0mg"},{"bike_id":"4ae466e6-fa70-4d95-b6da-9f35dafaba7d","system_id":"levelo_inurba_marseille","lat":43.24182,"lon":5.39726,"is_reserved":false,"is_disabled":false,"rental_uris":{"android":"levelo://app?vid=4ae466e6-fa70-4d95-b6da-9f35dafaba7d","ios":"levelo://app?vid=4ae466e6-fa70-4d95-b6da-9f35dafaba7d"},"vehicle_type_id":"4","last_reported":1744377588,"current_range_meters":6400,"station_id":"ce4bhn12rcd13ifvqgpg","pricing_plan_id":"cebpf4jnsgd1na2vs0mg"},{"bike_id":"8e8277f0-2311-4fc1-b44b-f4b00a83dc15","system_id":"levelo_inurba_marseille","lat":43.27816,"lon":5.40684,"is_reserved":false,"is_disabled":false,"rental_uris":{"android":"levelo://app?vid=8e8277f0-2311-4fc1-b44b-f4b00a83dc15","ios":"levelo://app?vid=8e8277f0-2311-4fc1-b44b-f4b00a83dc15"},"vehicle_type_id":"4","last_reported":1744377588,"current_range_meters":6400,"station_id":"ce4bhnh2rcd13ifvqgtg","pricing_plan_id":"cebpf4jnsgd1na2vs0mg"},{"bike_id":"421d4afb-5327-4e33-b87d-e5037b91821d","system_id":"levelo_inurba_marseille","lat":43.29191,"lon":5.35793,"is_reserved":false,"is_disabled":false,"rental_uris":{"android":"levelo://app?vid=421d4afb-5327-4e33-b87d-e5037b91821d","ios":"levelo://app?vid=421d4afb-5327-4e33-b87d-e5037b91821d"},"vehicle_type_id":"4","last_reported":1744377588,"current_range_meters":6400,"station_id":"ce4bhb12rcd13ifvqel0","pricing_plan_id":"cebpf4jnsgd1na2vs0mg"},{"bike_id":"e53eea57-279f-4ad1-bb2c-1a085b8d755e","system_id":"levelo_inurba_marseille","lat":43.273879,"lon":5.3626,"is_reserved":false,"is_disabled":false,"rental_uris":{"android":"levelo://app?vid=e53eea57-279f-4ad1-bb2c-1a085b8d755e","ios":"levelo://app?vid=e53eea57-279f-4ad1-bb2c-1a085b8d755e"},"vehicle_type_id":"4","last_reported":1744377588,"current_range_meters":6800,"station_id":"","pricing_plan_id":"cebpf4jnsgd1na2vs0mg"},{"bike_id":"7d69c5fd-8ff6-44ae-ad50-f3d472df0c79","system_id":"levelo_inurba_marseille","lat":43.29372,"lon":5.37853,"is_reserved":false,"is_disabled":false,"rental_uris":{"android":"levelo://app?vid=7d69c5fd-8ff6-44ae-ad50-f3d472df0c79","ios":"levelo://app?vid=7d69c5fd-8ff6-44ae-ad50-f3d472df0c79"},"vehicle_type_id":"4","last_reported":1744377588,"current_range_meters":6000,"station_id":"ce4bgjh2rcd13ifvqbf0","pricing_plan_id":"cebpf4jnsgd1na2vs0mg"},{"bike_id":"7a8d1200-0e36-40dc-b52f-ae61bf003e21","system_id":"levelo_inurba_marseille","lat":43.25725,"lon":5.41105,"is_reserved":false,"is_disabled":false,"rental_uris":{"android":"levelo://app?vid=7a8d1200-0e36-40dc-b52f-ae61bf003e21","ios":"levelo://app?vid=7a8d1200-0e36-40dc-b52f-ae61bf003e21"},"vehicle_type_id":"4","last_reported":1744377588,"current_range_meters":6800,"station_id":"ce4bhkp2rcd13ifvqgd0","pricing_plan_id":"cebpf4jnsgd1na2vs0mg"},{"bike_id":"a85dcbb3-530b-4a5e-813f-adf55b22e283","system_id":"levelo_inurba_marseille","lat":43.30425,"lon":5.397333,"is_reserved":false,"is_disabled":false,"rental_uris":{"android":"levelo://app?vid=a85dcbb3-530b-4a5e-813f-adf55b22e283","ios":"levelo://app?vid=a85dcbb3-530b-4a5e-813f-adf55b22e283"},"vehicle_type_id":"4","last_reported":1744377588,"current_range_meters":6400,"station_id":"ce4bh092rcd13ifvqd20","pricing_plan_id":"cebpf4jnsgd1na2vs0mg"},{"bike_id":"893ccd6e-2ced-4823-ae9b-a5b23d9f8df0","system_id":"levelo_inurba_marseille","lat":43.23154,"lon":5.437,"is_reserved":false,"is_disabled":false,"rental_uris":{"android":"levelo://app?vid=893ccd6e-2ced-4823-ae9b-a5b23d9f8df0","ios":"levelo://app?vid=893ccd6e-2ced-4823-ae9b-a5b23d9f8df0"},"vehicle_type_id":"4","last_reported":1744377588,"current_range_meters":8000,"station_id":"ce4bhmp2rcd13ifvqgog","pricing_plan_id":"cebpf4jnsgd1na2vs0mg"},{"bike_id":"d0203ab0-0d80-44bf-8f33-b6a56c7d7b3e","system_id":"levelo_inurba_marseille","lat":43.28265,"lon":5.35062,"is_reserved":false,"is_disabled":false,"rental_uris":{"android":"levelo://app?vid=d0203ab0-0d80-44bf-8f33-b6a56c7d7b3e","ios":"levelo://app?vid=d0203ab0-0d80-44bf-8f33-b6a56c7d7b3e"},"vehicle_type_id":"4","last_reported":1744377588,"current_range_meters":8000,"station_id":"ce4bhbp2rcd13ifvqerg","pricing_plan_id":"cebpf4jnsgd1na2vs0mg"},{"bike_id":"a7347375-5ae1-4438-8ac6-a146ba63bb1b","system_id":"levelo_inurba_marseille","lat":43.22928,"lon":5.35374,"is_reserved":false,"is_disabled":false,"rental_uris":{"android":"levelo://app?vid=a7347375-5ae1-4438-8ac6-a146ba63bb1b","ios":"levelo://app?vid=a7347375-5ae1-4438-8ac6-a146ba63bb1b"},"vehicle_type_id":"4","last_reported":1744377588,"current_range_meters":8000,"station_id":"cpo3532slgdg3j2ikp40","pricing_plan_id":"cebpf4jnsgd1na2vs0mg"},{"bike_id":"7b521754-de2d-4893-845b-69ac7841b48a","system_id":"levelo_inurba_marseille","lat":43.23133,"lon":5.43715,"is_reserved":false,"is_disabled":false,"rental_uris":{"android":"levelo://app?vid=7b521754-de2d-4893-845b-69ac7841b48a","ios":"levelo://app?vid=7b521754-de2d-4893-845b-69ac7841b48a"},"vehicle_type_id":"4","last_reported":1744377588,"current_range_meters":8400,"station_id":"ce4bhmp2rcd13ifvqgog","pricing_plan_id":"cebpf4jnsgd1na2vs0mg"},{"bike_id":"f94f664d-0ae1-48ef-ad09-db7166c14978","system_id":"levelo_inurba_marseille","lat":43.23967,"lon":5.3663,"is_reserved":false,"is_disabled":false,"rental_uris":{"android":"levelo://app?vid=f94f664d-0ae1-48ef-ad09-db7166c14978","ios":"levelo://app?vid=f94f664d-0ae1-48ef-ad09-db7166c14978"},"vehicle_type_id":"4","last_reported":1744377588,"current_range_meters":8400,"station_id":"ce4bhi12rcd13ifvqfp0","pricing_plan_id":"cebpf4jnsgd1na2vs0mg"},{"bike_id":"f4683a5e-1b34-42ce-a414-e1d485531863","system_id":"levelo_inurba_marseille","lat":43.23136,"lon":5.43714,"is_reserved":false,"is_disabled":false,"rental_uris":{"android":"levelo://app?vid=f4683a5e-1b34-42ce-a414-e1d485531863","ios":"levelo://app?vid=f4683a5e-1b34-42ce-a414-e1d485531863"},"vehicle_type_id":"4","last_reported":1744377588,"current_range_meters":8400,"station_id":"ce4bhmp2rcd13ifvqgog","pricing_plan_id":"cebpf4jnsgd1na2vs0mg"},{"bike_id":"3bc7c9ae-f927-4f6a-a09a-6cfc7f761bcb","system_id":"levelo_inurba_marseille","lat":43.27805,"lon":5.40709,"is_reserved":false,"is_disabled":false,"rental_uris":{"android":"levelo://app?vid=3bc7c9ae-f927-4f6a-a09a-6cfc7f761bcb","ios":"levelo://app?vid=3bc7c9ae-f927-4f6a-a09a-6cfc7f761bcb"},"vehicle_type_id":"4","last_reported":1744377588,"current_range_meters":8400,"station_id":"ce4bhnh2rcd13ifvqgtg","pricing_plan_id":"cebpf4jnsgd1na2vs0mg"},{"bike_id":"a0f5f809-3fc1-4779-8fc6-0da6820a5aba","system_id":"levelo_inurba_marseille","lat":43.24678,"lon":5.38137,"is_reserved":false,"is_disabled":false,"rental_uris":{"android":"levelo://app?vid=a0f5f809-3fc1-4779-8fc6-0da6820a5aba","ios":"levelo://app?vid=a0f5f809-3fc1-4779-8fc6-0da6820a5aba"},"vehicle_type_id":"4","last_reported":1744377588,"current_range_meters":8800,"station_id":"ce4bhih2rcd13ifvqfr0","pricing_plan_id":"cebpf4jnsgd1na2vs0mg"},{"bike_id":"30e7be75-b0d9-4a9d-a98a-5c23f42adae2","system_id":"levelo_inurba_marseille","lat":43.23141,"lon":5.43694,"is_reserved":false,"is_disabled":false,"rental_uris":{"android":"levelo://app?vid=30e7be75-b0d9-4a9d-a98a-5c23f42adae2","ios":"levelo://app?vid=30e7be75-b0d9-4a9d-a98a-5c23f42adae2"},"vehicle_type_id":"4","last_reported":1744377588,"current_range_meters":8800,"station_id":"ce4bhmp2rcd13ifvqgog","pricing_plan_id":"cebpf4jnsgd1na2vs0mg"},{"bike_id":"ccfc5e70-f49c-4408-a8d6-e0872066e458","system_id":"levelo_inurba_marseille","lat":43.276229,"lon":5.361103,"is_reserved":false,"is_disabled":false,"rental_uris":{"android":"levelo://app?vid=ccfc5e70-f49c-4408-a8d6-e0872066e458","ios":"levelo://app?vid=ccfc5e70-f49c-4408-a8d6-e0872066e458"},"vehicle_type_id":"4","last_reported":1744377588,"current_range_meters":9200,"station_id":"ce4bgj92rcd13ifvqbe0","pricing_plan_id":"cebpf4jnsgd1na2vs0mg"},{"bike_id":"eb4c813d-f8bd-41d6-abd8-b2b1dab6da62","system_id":"levelo_inurba_marseille","lat":43.2842,"lon":5.34988,"is_reserved":false,"is_disabled":false,"rental_uris":{"android":"levelo://app?vid=eb4c813d-f8bd-41d6-abd8-b2b1dab6da62","ios":"levelo://app?vid=eb4c813d-f8bd-41d6-abd8-b2b1dab6da62"},"vehicle_type_id":"4","last_reported":1744377588,"current_range_meters":9200,"station_id":"ce4bhbh2rcd13ifvqepg","pricing_plan_id":"cebpf4jnsgd1na2vs0mg"},{"bike_id":"e08e9658-8419-49d2-99c6-52c64a0256c7","system_id":"levelo_inurba_marseille","lat":43.25002,"lon":5.38922,"is_reserved":false,"is_disabled":false,"rental_uris":{"android":"levelo://app?vid=e08e9658-8419-49d2-99c6-52c64a0256c7","ios":"levelo://app?vid=e08e9658-8419-49d2-99c6-52c64a0256c7"},"vehicle_type_id":"4","last_reported":1744377588,"current_range_meters":9200,"station_id":"ce4bhgp2rcd13ifvqfd0","pricing_plan_id":"cebpf4jnsgd1na2vs0mg"},{"bike_id":"8600d699-29dd-40d4-b39c-00301a3c93d7","system_id":"levelo_inurba_marseille","lat":43.309428,"lon":5.401397,"is_reserved":false,"is_disabled":false,"rental_uris":{"android":"levelo://app?vid=8600d699-29dd-40d4-b39c-00301a3c93d7","ios":"levelo://app?vid=8600d699-29dd-40d4-b39c-00301a3c93d7"},"vehicle_type_id":"4","last_reported":1744377588,"current_range_meters":9200,"station_id":"","pricing_plan_id":"cebpf4jnsgd1na2vs0mg"},{"bike_id":"3d2b8ff4-325c-49bf-b719-fc7495a3fb03","system_id":"levelo_inurba_marseille","lat":43.231502,"lon":5.437265,"is_reserved":false,"is_disabled":false,"rental_uris":{"android":"levelo://app?vid=3d2b8ff4-325c-49bf-b719-fc7495a3fb03","ios":"levelo://app?vid=3d2b8ff4-325c-49bf-b719-fc7495a3fb03"},"vehicle_type_id":"4","last_reported":1744377588,"current_range_meters":9200,"station_id":"ce4bhmp2rcd13ifvqgog","pricing_plan_id":"cebpf4jnsgd1na2vs0mg"},{"bike_id":"1b5726c3-259c-4107-812b-7f4278221e66","system_id":"levelo_inurba_marseille","lat":43.26558,"lon":5.39,"is_reserved":false,"is_disabled":false,"rental_uris":{"android":"levelo://app?vid=1b5726c3-259c-4107-812b-7f4278221e66","ios":"levelo://app?vid=1b5726c3-259c-4107-812b-7f4278221e66"},"vehicle_type_id":"4","last_reported":1744377588,"current_range_meters":9600,"station_id":"ce4bhe12rcd13ifvqf30","pricing_plan_id":"cebpf4jnsgd1na2vs0mg"},{"bike_id":"00056412-f7d0-40d2-8c70-ddd96f23efc7","system_id":"levelo_inurba_marseille","lat":43.28418,"lon":5.34973,"is_reserved":false,"is_disabled":false,"rental_uris":{"android":"levelo://app?vid=00056412-f7d0-40d2-8c70-ddd96f23efc7","ios":"levelo://app?vid=00056412-f7d0-40d2-8c70-ddd96f23efc7"},"vehicle_type_id":"4","last_reported":1744377588,"current_range_meters":9600,"station_id":"ce4bhbh2rcd13ifvqepg","pricing_plan_id":"cebpf4jnsgd1na2vs0mg"},{"bike_id":"eab6cbfa-cb8e-47d7-b0d6-226ab7facec7","system_id":"levelo_inurba_marseille","lat":43.31713,"lon":5.4241,"is_reserved":false,"is_disabled":true,"rental_uris":{"android":"levelo://app?vid=eab6cbfa-cb8e-47d7-b0d6-226ab7facec7","ios":"levelo://app?vid=eab6cbfa-cb8e-47d7-b0d6-226ab7facec7"},"vehicle_type_id":"4","last_reported":1744377588,"current_range_meters":9600,"station_id":"ce4bhp92rcd13ifvqhbg","pricing_plan_id":"cebpf4jnsgd1na2vs0mg"},{"bike_id":"d641fdae-5a71-44fb-ae6d-2336a4399969","system_id":"levelo_inurba_marseille","lat":43.309482,"lon":5.40143,"is_reserved":false,"is_disabled":false,"rental_uris":{"android":"levelo://app?vid=d641fdae-5a71-44fb-ae6d-2336a4399969","ios":"levelo://app?vid=d641fdae-5a71-44fb-ae6d-2336a4399969"},"vehicle_type_id":"4","last_reported":1744377588,"current_range_meters":10000,"station_id":"ce4bgvp2rcd13ifvqct0","pricing_plan_id":"cebpf4jnsgd1na2vs0mg"},{"bike_id":"0d4e735c-5f9f-480e-80ab-a493afb6eda1","system_id":"levelo_inurba_marseille","lat":43.25112,"lon":5.4032,"is_reserved":false,"is_disabled":false,"rental_uris":{"android":"levelo://app?vid=0d4e735c-5f9f-480e-80ab-a493afb6eda1","ios":"levelo://app?vid=0d4e735c-5f9f-480e-80ab-a493afb6eda1"},"vehicle_type_id":"4","last_reported":1744377588,"current_range_meters":9600,"station_id":"ce4bhlh2rcd13ifvqgig","pricing_plan_id":"cebpf4jnsgd1na2vs0mg"},{"bike_id":"e4584e81-d0ff-45d4-a366-ed824c8de9b6","system_id":"levelo_inurba_marseille","lat":43.23152,"lon":5.43718,"is_reserved":false,"is_disabled":false,"rental_uris":{"android":"levelo://app?vid=e4584e81-d0ff-45d4-a366-ed824c8de9b6","ios":"levelo://app?vid=e4584e81-d0ff-45d4-a366-ed824c8de9b6"},"vehicle_type_id":"4","last_reported":1744377588,"current_range_meters":10000,"station_id":"ce4bhmp2rcd13ifvqgog","pricing_plan_id":"cebpf4jnsgd1na2vs0mg"},{"bike_id":"4b62ceb0-3657-48c1-8c0f-5ef42bdc9c04","system_id":"levelo_inurba_marseille","lat":43.23063,"lon":5.35501,"is_reserved":false,"is_disabled":false,"rental_uris":{"android":"levelo://app?vid=4b62ceb0-3657-48c1-8c0f-5ef42bdc9c04","ios":"levelo://app?vid=4b62ceb0-3657-48c1-8c0f-5ef42bdc9c04"},"vehicle_type_id":"4","last_reported":1744377588,"current_range_meters":10000,"station_id":"cpo3342slgdg3j2ifvpg","pricing_plan_id":"cebpf4jnsgd1na2vs0mg"},{"bike_id":"6096d8e4-4720-4fb3-9e2d-c4f2bdfc9da1","system_id":"levelo_inurba_marseille","lat":43.29052,"lon":5.35914,"is_reserved":false,"is_disabled":false,"rental_uris":{"android":"levelo://app?vid=6096d8e4-4720-4fb3-9e2d-c4f2bdfc9da1","ios":"levelo://app?vid=6096d8e4-4720-4fb3-9e2d-c4f2bdfc9da1"},"vehicle_type_id":"4","last_reported":1744377588,"current_range_meters":10000,"station_id":"ce4bha92rcd13ifvqeg0","pricing_plan_id":"cebpf4jnsgd1na2vs0mg"},{"bike_id":"0fb423c3-7ce5-456b-bfc1-c4c8f0e9c3fc","system_id":"levelo_inurba_marseille","lat":43.29194,"lon":5.35799,"is_reserved":false,"is_disabled":false,"rental_uris":{"android":"levelo://app?vid=0fb423c3-7ce5-456b-bfc1-c4c8f0e9c3fc","ios":"levelo://app?vid=0fb423c3-7ce5-456b-bfc1-c4c8f0e9c3fc"},"vehicle_type_id":"4","last_reported":1744377588,"current_range_meters":10000,"station_id":"ce4bhb12rcd13ifvqel0","pricing_plan_id":"cebpf4jnsgd1na2vs0mg"},{"bike_id":"0922821c-4e1d-4817-9469-860e55f8f0d1","system_id":"levelo_inurba_marseille","lat":43.337444,"lon":5.374475,"is_reserved":false,"is_disabled":false,"rental_uris":{"android":"levelo://app?vid=0922821c-4e1d-4817-9469-860e55f8f0d1","ios":"levelo://app?vid=0922821c-4e1d-4817-9469-860e55f8f0d1"},"vehicle_type_id":"4","last_reported":1744377588,"current_range_meters":10000,"station_id":"","pricing_plan_id":"cebpf4jnsgd1na2vs0mg"},{"bike_id":"168f80ff-fdd3-4713-893e-9ecc4c0ffecf","system_id":"levelo_inurba_marseille","lat":43.22932,"lon":5.3539,"is_reserved":false,"is_disabled":false,"rental_uris":{"android":"levelo://app?vid=168f80ff-fdd3-4713-893e-9ecc4c0ffecf","ios":"levelo://app?vid=168f80ff-fdd3-4713-893e-9ecc4c0ffecf"},"vehicle_type_id":"4","last_reported":1744377588,"current_range_meters":10800,"station_id":"cpo3532slgdg3j2ikp40","pricing_plan_id":"cebpf4jnsgd1na2vs0mg"},{"bike_id":"ae922ace-6a9c-48fb-bcbf-cfa52f89e736","system_id":"levelo_inurba_marseille","lat":43.27808,"lon":5.40729,"is_reserved":false,"is_disabled":false,"rental_uris":{"android":"levelo://app?vid=ae922ace-6a9c-48fb-bcbf-cfa52f89e736","ios":"levelo://app?vid=ae922ace-6a9c-48fb-bcbf-cfa52f89e736"},"vehicle_type_id":"4","last_reported":1744377588,"current_range_meters":10800,"station_id":"ce4bhnh2rcd13ifvqgtg","pricing_plan_id":"cebpf4jnsgd1na2vs0mg"},{"bike_id":"cd1ab07c-b884-4d02-8f13-1a06a8fee647","system_id":"levelo_inurba_marseille","lat":43.27975,"lon":5.38744,"is_reserved":false,"is_disabled":false,"rental_uris":{"android":"levelo://app?vid=cd1ab07c-b884-4d02-8f13-1a06a8fee647","ios":"levelo://app?vid=cd1ab07c-b884-4d02-8f13-1a06a8fee647"},"vehicle_type_id":"4","last_reported":1744377588,"current_range_meters":10800,"station_id":"ce4bhg12rcd13ifvqf80","pricing_plan_id":"cebpf4jnsgd1na2vs0mg"},{"bike_id":"51a356e6-19ea-4bd4-b785-00950cb6513a","system_id":"levelo_inurba_marseille","lat":43.29233,"lon":5.36063,"is_reserved":false,"is_disabled":false,"rental_uris":{"android":"levelo://app?vid=51a356e6-19ea-4bd4-b785-00950cb6513a","ios":"levelo://app?vid=51a356e6-19ea-4bd4-b785-00950cb6513a"},"vehicle_type_id":"4","last_reported":1744377588,"current_range_meters":10800,"station_id":"ce4bhbh2rcd13ifvqeqg","pricing_plan_id":"cebpf4jnsgd1na2vs0mg"},{"bike_id":"de8dd048-197d-408b-9924-c9eccfbf5330","system_id":"levelo_inurba_marseille","lat":43.21745,"lon":5.34609,"is_reserved":false,"is_disabled":true,"rental_uris":{"android":"levelo://app?vid=de8dd048-197d-408b-9924-c9eccfbf5330","ios":"levelo://app?vid=de8dd048-197d-408b-9924-c9eccfbf5330"},"vehicle_type_id":"4","last_reported":1744377588,"current_range_meters":10800,"station_id":"","pricing_plan_id":"cebpf4jnsgd1na2vs0mg"},{"bike_id":"c6a48ef8-c8cc-46be-a60d-8ad29ee6a1bf","system_id":"levelo_inurba_marseille","lat":43.23157,"lon":5.43702,"is_reserved":false,"is_disabled":false,"rental_uris":{"android":"levelo://app?vid=c6a48ef8-c8cc-46be-a60d-8ad29ee6a1bf","ios":"levelo://app?vid=c6a48ef8-c8cc-46be-a60d-8ad29ee6a1bf"},"vehicle_type_id":"4","last_reported":1744377588,"current_range_meters":10800,"station_id":"ce4bhmp2rcd13ifvqgog","pricing_plan_id":"cebpf4jnsgd1na2vs0mg"},{"bike_id":"00adb7ab-e6a6-43e9-aa6c-a10ff5330d72","system_id":"levelo_inurba_marseille","lat":43.25124,"lon":5.40314,"is_reserved":false,"is_disabled":false,"rental_uris":{"android":"levelo://app?vid=00adb7ab-e6a6-43e9-aa6c-a10ff5330d72","ios":"levelo://app?vid=00adb7ab-e6a6-43e9-aa6c-a10ff5330d72"},"vehicle_type_id":"4","last_reported":1744377588,"current_range_meters":10800,"station_id":"ce4bhlh2rcd13ifvqgig","pricing_plan_id":"cebpf4jnsgd1na2vs0mg"},{"bike_id":"8902cad6-f8c7-4987-bdd9-f06ec3dc99f7","system_id":"levelo_inurba_marseille","lat":43.29578,"lon":5.39965,"is_reserved":false,"is_disabled":false,"rental_uris":{"android":"levelo://app?vid=8902cad6-f8c7-4987-bdd9-f06ec3dc99f7","ios":"levelo://app?vid=8902cad6-f8c7-4987-bdd9-f06ec3dc99f7"},"vehicle_type_id":"4","last_reported":1744377588,"current_range_meters":11200,"station_id":"ce4bh312rcd13ifvqdj0","pricing_plan_id":"cebpf4jnsgd1na2vs0mg"},{"bike_id":"fb704913-be76-429a-9a70-55ed5c6cc2a7","system_id":"levelo_inurba_marseille","lat":43.30524,"lon":5.36721,"is_reserved":false,"is_disabled":false,"rental_uris":{"android":"levelo://app?vid=fb704913-be76-429a-9a70-55ed5c6cc2a7","ios":"levelo://app?vid=fb704913-be76-429a-9a70-55ed5c6cc2a7"},"vehicle_type_id":"4","last_reported":1744377588,"current_range_meters":10000,"station_id":"ce4bgrp2rcd13ifvqc9g","pricing_plan_id":"cebpf4jnsgd1na2vs0mg"},{"bike_id":"4f3acd91-ce8e-4583-bef1-d80af5069254","system_id":"levelo_inurba_marseille","lat":43.24177,"lon":5.3973,"is_reserved":false,"is_disabled":false,"rental_uris":{"android":"levelo://app?vid=4f3acd91-ce8e-4583-bef1-d80af5069254","ios":"levelo://app?vid=4f3acd91-ce8e-4583-bef1-d80af5069254"},"vehicle_type_id":"4","last_reported":1744377588,"current_range_meters":11200,"station_id":"ce4bhn12rcd13ifvqgpg","pricing_plan_id":"cebpf4jnsgd1na2vs0mg"},{"bike_id":"226c54c2-3853-4661-b4b5-352c84e469ac","system_id":"levelo_inurba_marseille","lat":43.23149,"lon":5.43721,"is_reserved":false,"is_disabled":false,"rental_uris":{"android":"levelo://app?vid=226c54c2-3853-4661-b4b5-352c84e469ac","ios":"levelo://app?vid=226c54c2-3853-4661-b4b5-352c84e469ac"},"vehicle_type_id":"4","last_reported":1744377588,"current_range_meters":10800,"station_id":"ce4bhmp2rcd13ifvqgog","pricing_plan_id":"cebpf4jnsgd1na2vs0mg"},{"bike_id":"a1602530-e283-4ef9-bab3-26a90affb116","system_id":"levelo_inurba_marseille","lat":43.27374,"lon":5.3625,"is_reserved":false,"is_disabled":false,"rental_uris":{"android":"levelo://app?vid=a1602530-e283-4ef9-bab3-26a90affb116","ios":"levelo://app?vid=a1602530-e283-4ef9-bab3-26a90affb116"},"vehicle_type_id":"4","last_reported":1744377588,"current_range_meters":11200,"station_id":"ce4bhbh2rcd13ifvqeo0","pricing_plan_id":"cebpf4jnsgd1na2vs0mg"},{"bike_id":"8b67da9c-8fe8-44e7-9056-2ab9468f07f1","system_id":"levelo_inurba_marseille","lat":43.29004,"lon":5.35609,"is_reserved":false,"is_disabled":false,"rental_uris":{"android":"levelo://app?vid=8b67da9c-8fe8-44e7-9056-2ab9468f07f1","ios":"levelo://app?vid=8b67da9c-8fe8-44e7-9056-2ab9468f07f1"},"vehicle_type_id":"4","last_reported":1744377588,"current_range_meters":11200,"station_id":"ce4bhb92rcd13ifvqen0","pricing_plan_id":"cebpf4jnsgd1na2vs0mg"},{"bike_id":"5d62edbf-aab8-4b7a-86ca-1c44a7b1e8d1","system_id":"levelo_inurba_marseille","lat":43.29631,"lon":5.40604,"is_reserved":false,"is_disabled":false,"rental_uris":{"android":"levelo://app?vid=5d62edbf-aab8-4b7a-86ca-1c44a7b1e8d1","ios":"levelo://app?vid=5d62edbf-aab8-4b7a-86ca-1c44a7b1e8d1"},"vehicle_type_id":"4","last_reported":1744377588,"current_range_meters":11600,"station_id":"ce4bh0h2rcd13ifvqd60","pricing_plan_id":"cebpf4jnsgd1na2vs0mg"},{"bike_id":"94455896-0f19-4fae-bd72-9879f01fcd6e","system_id":"levelo_inurba_marseille","lat":43.29554,"lon":5.42285,"is_reserved":false,"is_disabled":true,"rental_uris":{"android":"levelo://app?vid=94455896-0f19-4fae-bd72-9879f01fcd6e","ios":"levelo://app?vid=94455896-0f19-4fae-bd72-9879f01fcd6e"},"vehicle_type_id":"4","last_reported":1744377588,"current_range_meters":11600,"station_id":"ce4bhph2rcd13ifvqhdg","pricing_plan_id":"cebpf4jnsgd1na2vs0mg"},{"bike_id":"c6551f4a-3fdc-4200-965d-c5cd963a393b","system_id":"levelo_inurba_marseille","lat":43.28665,"lon":5.38689,"is_reserved":false,"is_disabled":false,"rental_uris":{"android":"levelo://app?vid=c6551f4a-3fdc-4200-965d-c5cd963a393b","ios":"levelo://app?vid=c6551f4a-3fdc-4200-965d-c5cd963a393b"},"vehicle_type_id":"4","last_reported":1744377588,"current_range_meters":11600,"station_id":"ce4bh492rcd13ifvqdug","pricing_plan_id":"cebpf4jnsgd1na2vs0mg"},{"bike_id":"ac5e9870-d16b-4ac8-ae6b-4c27df7d5dec","system_id":"levelo_inurba_marseille","lat":43.28862,"lon":5.35847,"is_reserved":false,"is_disabled":false,"rental_uris":{"android":"levelo://app?vid=ac5e9870-d16b-4ac8-ae6b-4c27df7d5dec","ios":"levelo://app?vid=ac5e9870-d16b-4ac8-ae6b-4c27df7d5dec"},"vehicle_type_id":"4","last_reported":1744377588,"current_range_meters":11600,"station_id":"ce4bhb12rcd13ifvqem0","pricing_plan_id":"cebpf4jnsgd1na2vs0mg"},{"bike_id":"cb791c69-b5e0-4c80-bb79-714fa894d38b","system_id":"levelo_inurba_marseille","lat":43.289291,"lon":5.383852,"is_reserved":false,"is_disabled":false,"rental_uris":{"android":"levelo://app?vid=cb791c69-b5e0-4c80-bb79-714fa894d38b","ios":"levelo://app?vid=cb791c69-b5e0-4c80-bb79-714fa894d38b"},"vehicle_type_id":"4","last_reported":1744377588,"current_range_meters":9600,"station_id":"ce4bh512rcd13ifvqe2g","pricing_plan_id":"cebpf4jnsgd1na2vs0mg"},{"bike_id":"6ae42d22-449e-430c-b887-6a8836aa2696","system_id":"levelo_inurba_marseille","lat":43.30535,"lon":5.36533,"is_reserved":false,"is_disabled":false,"rental_uris":{"android":"levelo://app?vid=6ae42d22-449e-430c-b887-6a8836aa2696","ios":"levelo://app?vid=6ae42d22-449e-430c-b887-6a8836aa2696"},"vehicle_type_id":"4","last_reported":1744377588,"current_range_meters":12000,"station_id":"ce4bgs12rcd13ifvqcag","pricing_plan_id":"cebpf4jnsgd1na2vs0mg"},{"bike_id":"4651fc10-fe57-460e-89c6-9ba891098581","system_id":"levelo_inurba_marseille","lat":43.24167,"lon":5.36396,"is_reserved":false,"is_disabled":false,"rental_uris":{"android":"levelo://app?vid=4651fc10-fe57-460e-89c6-9ba891098581","ios":"levelo://app?vid=4651fc10-fe57-460e-89c6-9ba891098581"},"vehicle_type_id":"4","last_reported":1744377588,"current_range_meters":12000,"station_id":"cpo36qri1sfpv3e86is0","pricing_plan_id":"cebpf4jnsgd1na2vs0mg"},{"bike_id":"78a7a2f4-b28b-4caa-8ef3-5d3bd2acefce","system_id":"levelo_inurba_marseille","lat":43.2827,"lon":5.35076,"is_reserved":false,"is_disabled":false,"rental_uris":{"android":"levelo://app?vid=78a7a2f4-b28b-4caa-8ef3-5d3bd2acefce","ios":"levelo://app?vid=78a7a2f4-b28b-4caa-8ef3-5d3bd2acefce"},"vehicle_type_id":"4","last_reported":1744377588,"current_range_meters":12000,"station_id":"ce4bhbp2rcd13ifvqerg","pricing_plan_id":"cebpf4jnsgd1na2vs0mg"},{"bike_id":"1df01e73-52bd-4dc2-abc2-415d8dcc1072","system_id":"levelo_inurba_marseille","lat":43.23154,"lon":5.43705,"is_reserved":false,"is_disabled":false,"rental_uris":{"android":"levelo://app?vid=1df01e73-52bd-4dc2-abc2-415d8dcc1072","ios":"levelo://app?vid=1df01e73-52bd-4dc2-abc2-415d8dcc1072"},"vehicle_type_id":"4","last_reported":1744377588,"current_range_meters":12000,"station_id":"ce4bhmp2rcd13ifvqgog","pricing_plan_id":"cebpf4jnsgd1na2vs0mg"},{"bike_id":"bb77690f-ea2f-464a-9174-bbbffd2034f3","system_id":"levelo_inurba_marseille","lat":43.26781,"lon":5.39417,"is_reserved":false,"is_disabled":false,"rental_uris":{"android":"levelo://app?vid=bb77690f-ea2f-464a-9174-bbbffd2034f3","ios":"levelo://app?vid=bb77690f-ea2f-464a-9174-bbbffd2034f3"},"vehicle_type_id":"4","last_reported":1744377588,"current_range_meters":12000,"station_id":"ce4bhh12rcd13ifvqfg0","pricing_plan_id":"cebpf4jnsgd1na2vs0mg"},{"bike_id":"78396918-69dd-4668-9552-5d934ad11393","system_id":"levelo_inurba_marseille","lat":43.29038,"lon":5.39961,"is_reserved":false,"is_disabled":false,"rental_uris":{"android":"levelo://app?vid=78396918-69dd-4668-9552-5d934ad11393","ios":"levelo://app?vid=78396918-69dd-4668-9552-5d934ad11393"},"vehicle_type_id":"4","last_reported":1744377588,"current_range_meters":12400,"station_id":"ce4bh392rcd13ifvqdm0","pricing_plan_id":"cebpf4jnsgd1na2vs0mg"},{"bike_id":"33551090-e6d0-4b4b-819a-3dbf58b9aa84","system_id":"levelo_inurba_marseille","lat":43.28624,"lon":5.35116,"is_reserved":false,"is_disabled":false,"rental_uris":{"android":"levelo://app?vid=33551090-e6d0-4b4b-819a-3dbf58b9aa84","ios":"levelo://app?vid=33551090-e6d0-4b4b-819a-3dbf58b9aa84"},"vehicle_type_id":"4","last_reported":1744377588,"current_range_meters":12400,"station_id":"ce4bhch2rcd13ifvqeug","pricing_plan_id":"cebpf4jnsgd1na2vs0mg"},{"bike_id":"feb04d1c-c2bd-4d38-91ca-a0075a753750","system_id":"levelo_inurba_marseille","lat":43.28411,"lon":5.34985,"is_reserved":false,"is_disabled":false,"rental_uris":{"android":"levelo://app?vid=feb04d1c-c2bd-4d38-91ca-a0075a753750","ios":"levelo://app?vid=feb04d1c-c2bd-4d38-91ca-a0075a753750"},"vehicle_type_id":"4","last_reported":1744377588,"current_range_meters":12400,"station_id":"ce4bhbh2rcd13ifvqepg","pricing_plan_id":"cebpf4jnsgd1na2vs0mg"},{"bike_id":"d643b762-9f9a-4330-a855-ea3cf63e7e0a","system_id":"levelo_inurba_marseille","lat":43.30646,"lon":5.401,"is_reserved":false,"is_disabled":false,"rental_uris":{"android":"levelo://app?vid=d643b762-9f9a-4330-a855-ea3cf63e7e0a","ios":"levelo://app?vid=d643b762-9f9a-4330-a855-ea3cf63e7e0a"},"vehicle_type_id":"4","last_reported":1744377588,"current_range_meters":12400,"station_id":"ce4bh112rcd13ifvqda0","pricing_plan_id":"cebpf4jnsgd1na2vs0mg"},{"bike_id":"3bb2ec29-9af2-4cab-bf8c-5194c4599429","system_id":"levelo_inurba_marseille","lat":43.30647,"lon":5.40089,"is_reserved":false,"is_disabled":false,"rental_uris":{"android":"levelo://app?vid=3bb2ec29-9af2-4cab-bf8c-5194c4599429","ios":"levelo://app?vid=3bb2ec29-9af2-4cab-bf8c-5194c4599429"},"vehicle_type_id":"4","last_reported":1744377588,"current_range_meters":12400,"station_id":"ce4bh112rcd13ifvqda0","pricing_plan_id":"cebpf4jnsgd1na2vs0mg"},{"bike_id":"6e6e685c-a1ad-4d83-b80b-7f86ac4f4ff4","system_id":"levelo_inurba_marseille","lat":43.26554,"lon":5.37285,"is_reserved":false,"is_disabled":false,"rental_uris":{"android":"levelo://app?vid=6e6e685c-a1ad-4d83-b80b-7f86ac4f4ff4","ios":"levelo://app?vid=6e6e685c-a1ad-4d83-b80b-7f86ac4f4ff4"},"vehicle_type_id":"4","last_reported":1744377588,"current_range_meters":12400,"station_id":"ce4bhg12rcd13ifvqf70","pricing_plan_id":"cebpf4jnsgd1na2vs0mg"},{"bike_id":"1b2a2f65-3246-46da-a318-10a826df64f2","system_id":"levelo_inurba_marseille","lat":43.330267,"lon":5.390307,"is_reserved":false,"is_disabled":false,"rental_uris":{"android":"levelo://app?vid=1b2a2f65-3246-46da-a318-10a826df64f2","ios":"levelo://app?vid=1b2a2f65-3246-46da-a318-10a826df64f2"},"vehicle_type_id":"4","last_reported":1744377588,"current_range_meters":12400,"station_id":"ce4bhr92rcd13ifvqhrg","pricing_plan_id":"cebpf4jnsgd1na2vs0mg"},{"bike_id":"f2d51714-6acc-45b0-ad90-03def090f265","system_id":"levelo_inurba_marseille","lat":43.28422,"lon":5.34988,"is_reserved":false,"is_disabled":false,"rental_uris":{"android":"levelo://app?vid=f2d51714-6acc-45b0-ad90-03def090f265","ios":"levelo://app?vid=f2d51714-6acc-45b0-ad90-03def090f265"},"vehicle_type_id":"4","last_reported":1744377588,"current_range_meters":12400,"station_id":"ce4bhbh2rcd13ifvqepg","pricing_plan_id":"cebpf4jnsgd1na2vs0mg"},{"bike_id":"463b41fd-37bb-48c0-a6e4-12f737a3d7cf","system_id":"levelo_inurba_marseille","lat":43.26956,"lon":5.40269,"is_reserved":false,"is_disabled":true,"rental_uris":{"android":"levelo://app?vid=463b41fd-37bb-48c0-a6e4-12f737a3d7cf","ios":"levelo://app?vid=463b41fd-37bb-48c0-a6e4-12f737a3d7cf"},"vehicle_type_id":"4","last_reported":1744377588,"current_range_meters":12800,"station_id":"cjm6bp8fraef2m0cb0m0","pricing_plan_id":"cebpf4jnsgd1na2vs0mg"},{"bike_id":"ff0b55ea-e91a-4463-b559-3674a7113dfe","system_id":"levelo_inurba_marseille","lat":43.244538,"lon":5.372212,"is_reserved":false,"is_disabled":false,"rental_uris":{"android":"levelo://app?vid=ff0b55ea-e91a-4463-b559-3674a7113dfe","ios":"levelo://app?vid=ff0b55ea-e91a-4463-b559-3674a7113dfe"},"vehicle_type_id":"4","last_reported":1744377588,"current_range_meters":12800,"station_id":"ce4bhu92rcd13ifvqi70","pricing_plan_id":"cebpf4jnsgd1na2vs0mg"},{"bike_id":"e07422d5-e591-4062-9e92-d7c6b7a4fe49","system_id":"levelo_inurba_marseille","lat":43.28034,"lon":5.36948,"is_reserved":false,"is_disabled":false,"rental_uris":{"android":"levelo://app?vid=e07422d5-e591-4062-9e92-d7c6b7a4fe49","ios":"levelo://app?vid=e07422d5-e591-4062-9e92-d7c6b7a4fe49"},"vehicle_type_id":"4","last_reported":1744377588,"current_range_meters":12400,"station_id":"ce4bha12rcd13ifvqef0","pricing_plan_id":"cebpf4jnsgd1na2vs0mg"},{"bike_id":"2d2e31a1-75bd-4ef3-8efc-056c6e4199ac","system_id":"levelo_inurba_marseille","lat":43.286158,"lon":5.351023,"is_reserved":false,"is_disabled":false,"rental_uris":{"android":"levelo://app?vid=2d2e31a1-75bd-4ef3-8efc-056c6e4199ac","ios":"levelo://app?vid=2d2e31a1-75bd-4ef3-8efc-056c6e4199ac"},"vehicle_type_id":"4","last_reported":1744377588,"current_range_meters":13600,"station_id":"ce4bhch2rcd13ifvqeug","pricing_plan_id":"cebpf4jnsgd1na2vs0mg"},{"bike_id":"8def42d5-7601-461e-b69f-dd41878701ec","system_id":"levelo_inurba_marseille","lat":43.30466,"lon":5.37906,"is_reserved":false,"is_disabled":false,"rental_uris":{"android":"levelo://app?vid=8def42d5-7601-461e-b69f-dd41878701ec","ios":"levelo://app?vid=8def42d5-7601-461e-b69f-dd41878701ec"},"vehicle_type_id":"4","last_reported":1744377588,"current_range_meters":13600,"station_id":"ce4bgup2rcd13ifvqcn0","pricing_plan_id":"cebpf4jnsgd1na2vs0mg"},{"bike_id":"ef810e30-41bb-4846-b6c4-93d6d4cc9ce2","system_id":"levelo_inurba_marseille","lat":43.29007,"lon":5.35608,"is_reserved":false,"is_disabled":false,"rental_uris":{"android":"levelo://app?vid=ef810e30-41bb-4846-b6c4-93d6d4cc9ce2","ios":"levelo://app?vid=ef810e30-41bb-4846-b6c4-93d6d4cc9ce2"},"vehicle_type_id":"4","last_reported":1744377588,"current_range_meters":13600,"station_id":"ce4bhb92rcd13ifvqen0","pricing_plan_id":"cebpf4jnsgd1na2vs0mg"},{"bike_id":"824c694f-a1b0-45dd-a3a0-e504c87578e8","system_id":"levelo_inurba_marseille","lat":43.29036,"lon":5.39967,"is_reserved":false,"is_disabled":false,"rental_uris":{"android":"levelo://app?vid=824c694f-a1b0-45dd-a3a0-e504c87578e8","ios":"levelo://app?vid=824c694f-a1b0-45dd-a3a0-e504c87578e8"},"vehicle_type_id":"4","last_reported":1744377588,"current_range_meters":13600,"station_id":"ce4bh392rcd13ifvqdm0","pricing_plan_id":"cebpf4jnsgd1na2vs0mg"},{"bike_id":"12f552fb-128b-4f39-a171-4a4db7cfeac8","system_id":"levelo_inurba_marseille","lat":43.28421,"lon":5.34987,"is_reserved":false,"is_disabled":false,"rental_uris":{"android":"levelo://app?vid=12f552fb-128b-4f39-a171-4a4db7cfeac8","ios":"levelo://app?vid=12f552fb-128b-4f39-a171-4a4db7cfeac8"},"vehicle_type_id":"4","last_reported":1744377588,"current_range_meters":14000,"station_id":"ce4bhbh2rcd13ifvqepg","pricing_plan_id":"cebpf4jnsgd1na2vs0mg"},{"bike_id":"d21733e5-1564-4c3d-8657-463d1eaf61b3","system_id":"levelo_inurba_marseille","lat":43.28421,"lon":5.34988,"is_reserved":false,"is_disabled":false,"rental_uris":{"android":"levelo://app?vid=d21733e5-1564-4c3d-8657-463d1eaf61b3","ios":"levelo://app?vid=d21733e5-1564-4c3d-8657-463d1eaf61b3"},"vehicle_type_id":"4","last_reported":1744377588,"current_range_meters":14000,"station_id":"ce4bhbh2rcd13ifvqepg","pricing_plan_id":"cebpf4jnsgd1na2vs0mg"},{"bike_id":"6eb8c57a-4190-4f8d-86a1-123baf9063f7","system_id":"levelo_inurba_marseille","lat":43.30514,"lon":5.36481,"is_reserved":false,"is_disabled":false,"rental_uris":{"android":"levelo://app?vid=6eb8c57a-4190-4f8d-86a1-123baf9063f7","ios":"levelo://app?vid=6eb8c57a-4190-4f8d-86a1-123baf9063f7"},"vehicle_type_id":"4","last_reported":1744377588,"current_range_meters":14000,"station_id":"ce4bgs12rcd13ifvqcag","pricing_plan_id":"cebpf4jnsgd1na2vs0mg"},{"bike_id":"f1849247-1a3b-4eef-b251-a7a4f51ab6d4","system_id":"levelo_inurba_marseille","lat":43.22932,"lon":5.35379,"is_reserved":false,"is_disabled":false,"rental_uris":{"android":"levelo://app?vid=f1849247-1a3b-4eef-b251-a7a4f51ab6d4","ios":"levelo://app?vid=f1849247-1a3b-4eef-b251-a7a4f51ab6d4"},"vehicle_type_id":"4","last_reported":1744377588,"current_range_meters":14000,"station_id":"cpo3532slgdg3j2ikp40","pricing_plan_id":"cebpf4jnsgd1na2vs0mg"},{"bike_id":"b62519d7-7117-4af2-8166-db06333a922f","system_id":"levelo_inurba_marseille","lat":43.23148,"lon":5.43711,"is_reserved":false,"is_disabled":false,"rental_uris":{"android":"levelo://app?vid=b62519d7-7117-4af2-8166-db06333a922f","ios":"levelo://app?vid=b62519d7-7117-4af2-8166-db06333a922f"},"vehicle_type_id":"4","last_reported":1744377588,"current_range_meters":14000,"station_id":"ce4bhmp2rcd13ifvqgog","pricing_plan_id":"cebpf4jnsgd1na2vs0mg"},{"bike_id":"4bcdcc82-d58d-4172-b626-a8c82408681c","system_id":"levelo_inurba_marseille","lat":43.31135,"lon":5.36848,"is_reserved":false,"is_disabled":true,"rental_uris":{"android":"levelo://app?vid=4bcdcc82-d58d-4172-b626-a8c82408681c","ios":"levelo://app?vid=4bcdcc82-d58d-4172-b626-a8c82408681c"},"vehicle_type_id":"4","last_reported":1744377588,"current_range_meters":14000,"station_id":"ce4bgl92rcd13ifvqbq0","pricing_plan_id":"cebpf4jnsgd1na2vs0mg"},{"bike_id":"7d11d2e1-ed6f-48bc-a0ce-09e52be85249","system_id":"levelo_inurba_marseille","lat":43.30589,"lon":5.39349,"is_reserved":false,"is_disabled":false,"rental_uris":{"android":"levelo://app?vid=7d11d2e1-ed6f-48bc-a0ce-09e52be85249","ios":"levelo://app?vid=7d11d2e1-ed6f-48bc-a0ce-09e52be85249"},"vehicle_type_id":"4","last_reported":1744377588,"current_range_meters":14000,"station_id":"ce4bh0p2rcd13ifvqd80","pricing_plan_id":"cebpf4jnsgd1na2vs0mg"},{"bike_id":"7ecb8ede-57ca-44aa-8298-85b1b4a01d10","system_id":"levelo_inurba_marseille","lat":43.25113,"lon":5.40325,"is_reserved":false,"is_disabled":false,"rental_uris":{"android":"levelo://app?vid=7ecb8ede-57ca-44aa-8298-85b1b4a01d10","ios":"levelo://app?vid=7ecb8ede-57ca-44aa-8298-85b1b4a01d10"},"vehicle_type_id":"4","last_reported":1744377588,"current_range_meters":14400,"station_id":"ce4bhlh2rcd13ifvqgig","pricing_plan_id":"cebpf4jnsgd1na2vs0mg"},{"bike_id":"1e7c6735-1d3b-462c-aa0e-7ca1b1aa5d0b","system_id":"levelo_inurba_marseille","lat":43.23194,"lon":5.35555,"is_reserved":false,"is_disabled":false,"rental_uris":{"android":"levelo://app?vid=1e7c6735-1d3b-462c-aa0e-7ca1b1aa5d0b","ios":"levelo://app?vid=1e7c6735-1d3b-462c-aa0e-7ca1b1aa5d0b"},"vehicle_type_id":"4","last_reported":1744377588,"current_range_meters":14000,"station_id":"ce4bhu92rcd13ifvqi70","pricing_plan_id":"cebpf4jnsgd1na2vs0mg"},{"bike_id":"2ba24ca1-f9ca-431f-9eba-b0e65972a4cc","system_id":"levelo_inurba_marseille","lat":43.26952,"lon":5.38918,"is_reserved":false,"is_disabled":false,"rental_uris":{"android":"levelo://app?vid=2ba24ca1-f9ca-431f-9eba-b0e65972a4cc","ios":"levelo://app?vid=2ba24ca1-f9ca-431f-9eba-b0e65972a4cc"},"vehicle_type_id":"4","last_reported":1744377588,"current_range_meters":14400,"station_id":"ce4bhhh2rcd13ifvqfl0","pricing_plan_id":"cebpf4jnsgd1na2vs0mg"},{"bike_id":"ac532118-00fc-42c0-8852-dd3477f92d70","system_id":"levelo_inurba_marseille","lat":43.29873,"lon":5.39748,"is_reserved":false,"is_disabled":false,"rental_uris":{"android":"levelo://app?vid=ac532118-00fc-42c0-8852-dd3477f92d70","ios":"levelo://app?vid=ac532118-00fc-42c0-8852-dd3477f92d70"},"vehicle_type_id":"4","last_reported":1744377588,"current_range_meters":14400,"station_id":"ce4bh0h2rcd13ifvqd50","pricing_plan_id":"cebpf4jnsgd1na2vs0mg"},{"bike_id":"808fc13f-a2e2-45d2-9881-a39ea0d5721d","system_id":"levelo_inurba_marseille","lat":43.27199,"lon":5.36262,"is_reserved":false,"is_disabled":false,"rental_uris":{"android":"levelo://app?vid=808fc13f-a2e2-45d2-9881-a39ea0d5721d","ios":"levelo://app?vid=808fc13f-a2e2-45d2-9881-a39ea0d5721d"},"vehicle_type_id":"4","last_reported":1744377588,"current_range_meters":14400,"station_id":"","pricing_plan_id":"cebpf4jnsgd1na2vs0mg"},{"bike_id":"164027ca-f480-4915-884b-83d17c324753","system_id":"levelo_inurba_marseille","lat":43.30308,"lon":5.36881,"is_reserved":false,"is_disabled":false,"rental_uris":{"android":"levelo://app?vid=164027ca-f480-4915-884b-83d17c324753","ios":"levelo://app?vid=164027ca-f480-4915-884b-83d17c324753"},"vehicle_type_id":"4","last_reported":1744377588,"current_range_meters":14400,"station_id":"ce4bgqh2rcd13ifvqc5g","pricing_plan_id":"cebpf4jnsgd1na2vs0mg"},{"bike_id":"0a12228f-61f9-48c1-9f2f-bd8159dce7a6","system_id":"levelo_inurba_marseille","lat":43.26205,"lon":5.37462,"is_reserved":false,"is_disabled":true,"rental_uris":{"android":"levelo://app?vid=0a12228f-61f9-48c1-9f2f-bd8159dce7a6","ios":"levelo://app?vid=0a12228f-61f9-48c1-9f2f-bd8159dce7a6"},"vehicle_type_id":"4","last_reported":1744377588,"current_range_meters":14400,"station_id":"ce4bhgp2rcd13ifvqfc0","pricing_plan_id":"cebpf4jnsgd1na2vs0mg"},{"bike_id":"17e08284-d806-4d99-aee8-fc07921dc7b1","system_id":"levelo_inurba_marseille","lat":43.2781,"lon":5.40716,"is_reserved":false,"is_disabled":false,"rental_uris":{"android":"levelo://app?vid=17e08284-d806-4d99-aee8-fc07921dc7b1","ios":"levelo://app?vid=17e08284-d806-4d99-aee8-fc07921dc7b1"},"vehicle_type_id":"4","last_reported":1744377588,"current_range_meters":14400,"station_id":"ce4bhnh2rcd13ifvqgtg","pricing_plan_id":"cebpf4jnsgd1na2vs0mg"},{"bike_id":"0ddf776c-d331-4742-a390-e261c54b7ae1","system_id":"levelo_inurba_marseille","lat":43.21195,"lon":5.35068,"is_reserved":false,"is_disabled":false,"rental_uris":{"android":"levelo://app?vid=0ddf776c-d331-4742-a390-e261c54b7ae1","ios":"levelo://app?vid=0ddf776c-d331-4742-a390-e261c54b7ae1"},"vehicle_type_id":"4","last_reported":1744377588,"current_range_meters":14400,"station_id":"st_cvj6sg6p6f1abm77japg","pricing_plan_id":"cebpf4jnsgd1na2vs0mg"},{"bike_id":"e2c2cd96-a093-4501-bbf8-b9db50d44375","system_id":"levelo_inurba_marseille","lat":43.2827,"lon":5.35063,"is_reserved":false,"is_disabled":false,"rental_uris":{"android":"levelo://app?vid=e2c2cd96-a093-4501-bbf8-b9db50d44375","ios":"levelo://app?vid=e2c2cd96-a093-4501-bbf8-b9db50d44375"},"vehicle_type_id":"4","last_reported":1744377588,"current_range_meters":15200,"station_id":"ce4bhbp2rcd13ifvqerg","pricing_plan_id":"cebpf4jnsgd1na2vs0mg"},{"bike_id":"b3d15aa1-72a7-4586-9239-713f2a344c92","system_id":"levelo_inurba_marseille","lat":43.25006,"lon":5.38935,"is_reserved":false,"is_disabled":false,"rental_uris":{"android":"levelo://app?vid=b3d15aa1-72a7-4586-9239-713f2a344c92","ios":"levelo://app?vid=b3d15aa1-72a7-4586-9239-713f2a344c92"},"vehicle_type_id":"4","last_reported":1744377588,"current_range_meters":15200,"station_id":"ce4bhgp2rcd13ifvqfd0","pricing_plan_id":"cebpf4jnsgd1na2vs0mg"},{"bike_id":"ef291804-1477-432e-b153-82ea15725418","system_id":"levelo_inurba_marseille","lat":43.33742,"lon":5.37454,"is_reserved":false,"is_disabled":false,"rental_uris":{"android":"levelo://app?vid=ef291804-1477-432e-b153-82ea15725418","ios":"levelo://app?vid=ef291804-1477-432e-b153-82ea15725418"},"vehicle_type_id":"4","last_reported":1744377588,"current_range_meters":15200,"station_id":"","pricing_plan_id":"cebpf4jnsgd1na2vs0mg"},{"bike_id":"4c893399-b4ed-40ed-a49f-713da320f269","system_id":"levelo_inurba_marseille","lat":43.29861,"lon":5.37841,"is_reserved":false,"is_disabled":false,"rental_uris":{"android":"levelo://app?vid=4c893399-b4ed-40ed-a49f-713da320f269","ios":"levelo://app?vid=4c893399-b4ed-40ed-a49f-713da320f269"},"vehicle_type_id":"4","last_reported":1744377588,"current_range_meters":15200,"station_id":"","pricing_plan_id":"cebpf4jnsgd1na2vs0mg"},{"bike_id":"b8772055-d26c-4dd4-aadf-2e04bdd922d5","system_id":"levelo_inurba_marseille","lat":43.27673,"lon":5.38875,"is_reserved":false,"is_disabled":false,"rental_uris":{"android":"levelo://app?vid=b8772055-d26c-4dd4-aadf-2e04bdd922d5","ios":"levelo://app?vid=b8772055-d26c-4dd4-aadf-2e04bdd922d5"},"vehicle_type_id":"4","last_reported":1744377588,"current_range_meters":15200,"station_id":"ce4bhi12rcd13ifvqfo0","pricing_plan_id":"cebpf4jnsgd1na2vs0mg"},{"bike_id":"8f364d93-dbca-4091-94b6-18d3a6920020","system_id":"levelo_inurba_marseille","lat":43.21195,"lon":5.35077,"is_reserved":false,"is_disabled":false,"rental_uris":{"android":"levelo://app?vid=8f364d93-dbca-4091-94b6-18d3a6920020","ios":"levelo://app?vid=8f364d93-dbca-4091-94b6-18d3a6920020"},"vehicle_type_id":"4","last_reported":1744377588,"current_range_meters":15200,"station_id":"st_cvj6sg6p6f1abm77japg","pricing_plan_id":"cebpf4jnsgd1na2vs0mg"},{"bike_id":"8c58f2fa-99e1-41f8-bf90-9c1648b679b1","system_id":"levelo_inurba_marseille","lat":43.27316,"lon":5.41424,"is_reserved":false,"is_disabled":false,"rental_uris":{"android":"levelo://app?vid=8c58f2fa-99e1-41f8-bf90-9c1648b679b1","ios":"levelo://app?vid=8c58f2fa-99e1-41f8-bf90-9c1648b679b1"},"vehicle_type_id":"4","last_reported":1744377588,"current_range_meters":15200,"station_id":"","pricing_plan_id":"cebpf4jnsgd1na2vs0mg"},{"bike_id":"3944c744-3da6-413b-869f-897e308475dd","system_id":"levelo_inurba_marseille","lat":43.32368,"lon":5.38887,"is_reserved":false,"is_disabled":false,"rental_uris":{"android":"levelo://app?vid=3944c744-3da6-413b-869f-897e308475dd","ios":"levelo://app?vid=3944c744-3da6-413b-869f-897e308475dd"},"vehicle_type_id":"4","last_reported":1744377588,"current_range_meters":15200,"station_id":"ce4bhqp2rcd13ifvqhog","pricing_plan_id":"cebpf4jnsgd1na2vs0mg"},{"bike_id":"8bc0d1e5-3e69-44a7-a5a1-f9eaf5f974ff","system_id":"levelo_inurba_marseille","lat":43.29885,"lon":5.39734,"is_reserved":false,"is_disabled":false,"rental_uris":{"android":"levelo://app?vid=8bc0d1e5-3e69-44a7-a5a1-f9eaf5f974ff","ios":"levelo://app?vid=8bc0d1e5-3e69-44a7-a5a1-f9eaf5f974ff"},"vehicle_type_id":"4","last_reported":1744377588,"current_range_meters":16000,"station_id":"ce4bh0h2rcd13ifvqd50","pricing_plan_id":"cebpf4jnsgd1na2vs0mg"},{"bike_id":"095bd3a8-8326-4dd4-8cf9-6637e95dcd02","system_id":"levelo_inurba_marseille","lat":43.27843,"lon":5.39206,"is_reserved":false,"is_disabled":false,"rental_uris":{"android":"levelo://app?vid=095bd3a8-8326-4dd4-8cf9-6637e95dcd02","ios":"levelo://app?vid=095bd3a8-8326-4dd4-8cf9-6637e95dcd02"},"vehicle_type_id":"4","last_reported":1744377588,"current_range_meters":16000,"station_id":"ce4bhjp2rcd13ifvqga0","pricing_plan_id":"cebpf4jnsgd1na2vs0mg"},{"bike_id":"b4beab1d-d391-4cdc-afff-ea16674c5b28","system_id":"levelo_inurba_marseille","lat":43.28419,"lon":5.34981,"is_reserved":false,"is_disabled":false,"rental_uris":{"android":"levelo://app?vid=b4beab1d-d391-4cdc-afff-ea16674c5b28","ios":"levelo://app?vid=b4beab1d-d391-4cdc-afff-ea16674c5b28"},"vehicle_type_id":"4","last_reported":1744377588,"current_range_meters":16000,"station_id":"ce4bhbh2rcd13ifvqepg","pricing_plan_id":"cebpf4jnsgd1na2vs0mg"},{"bike_id":"21127257-eff7-474d-8ad8-e3337a0a4ddf","system_id":"levelo_inurba_marseille","lat":43.29787,"lon":5.36125,"is_reserved":false,"is_disabled":false,"rental_uris":{"android":"levelo://app?vid=21127257-eff7-474d-8ad8-e3337a0a4ddf","ios":"levelo://app?vid=21127257-eff7-474d-8ad8-e3337a0a4ddf"},"vehicle_type_id":"4","last_reported":1744377588,"current_range_meters":16000,"station_id":"","pricing_plan_id":"cebpf4jnsgd1na2vs0mg"},{"bike_id":"5e5d5919-e11c-45c7-98c5-dab1eab23575","system_id":"levelo_inurba_marseille","lat":43.2417,"lon":5.39718,"is_reserved":false,"is_disabled":false,"rental_uris":{"android":"levelo://app?vid=5e5d5919-e11c-45c7-98c5-dab1eab23575","ios":"levelo://app?vid=5e5d5919-e11c-45c7-98c5-dab1eab23575"},"vehicle_type_id":"4","last_reported":1744377588,"current_range_meters":16000,"station_id":"ce4bhn12rcd13ifvqgpg","pricing_plan_id":"cebpf4jnsgd1na2vs0mg"},{"bike_id":"ae0ff523-1d2b-4c8c-a6e3-e54a575ae618","system_id":"levelo_inurba_marseille","lat":43.24395,"lon":5.37057,"is_reserved":false,"is_disabled":false,"rental_uris":{"android":"levelo://app?vid=ae0ff523-1d2b-4c8c-a6e3-e54a575ae618","ios":"levelo://app?vid=ae0ff523-1d2b-4c8c-a6e3-e54a575ae618"},"vehicle_type_id":"4","last_reported":1744377588,"current_range_meters":16000,"station_id":"ce4bhhh2rcd13ifvqfk0","pricing_plan_id":"cebpf4jnsgd1na2vs0mg"},{"bike_id":"b97c689e-6c7a-46c9-9917-a730354070cf","system_id":"levelo_inurba_marseille","lat":43.2909,"lon":5.38122,"is_reserved":false,"is_disabled":false,"rental_uris":{"android":"levelo://app?vid=b97c689e-6c7a-46c9-9917-a730354070cf","ios":"levelo://app?vid=b97c689e-6c7a-46c9-9917-a730354070cf"},"vehicle_type_id":"4","last_reported":1744377588,"current_range_meters":16000,"station_id":"ce4bh512rcd13ifvqe2g","pricing_plan_id":"cebpf4jnsgd1na2vs0mg"},{"bike_id":"8b472f0a-6559-49dd-8c2b-b6489fd6da8d","system_id":"levelo_inurba_marseille","lat":43.23966,"lon":5.36635,"is_reserved":false,"is_disabled":false,"rental_uris":{"android":"levelo://app?vid=8b472f0a-6559-49dd-8c2b-b6489fd6da8d","ios":"levelo://app?vid=8b472f0a-6559-49dd-8c2b-b6489fd6da8d"},"vehicle_type_id":"4","last_reported":1744377588,"current_range_meters":16000,"station_id":"ce4bhi12rcd13ifvqfp0","pricing_plan_id":"cebpf4jnsgd1na2vs0mg"},{"bike_id":"a408342e-ce9a-4c4e-aa2d-f41986a985a9","system_id":"levelo_inurba_marseille","lat":43.27073,"lon":5.4227,"is_reserved":false,"is_disabled":false,"rental_uris":{"android":"levelo://app?vid=a408342e-ce9a-4c4e-aa2d-f41986a985a9","ios":"levelo://app?vid=a408342e-ce9a-4c4e-aa2d-f41986a985a9"},"vehicle_type_id":"4","last_reported":1744377588,"current_range_meters":16000,"station_id":"ce4bhk92rcd13ifvqgb0","pricing_plan_id":"cebpf4jnsgd1na2vs0mg"},{"bike_id":"b23c94b8-d5d3-4e0b-8152-41fe9d7297e8","system_id":"levelo_inurba_marseille","lat":43.32347,"lon":5.36752,"is_reserved":false,"is_disabled":false,"rental_uris":{"android":"levelo://app?vid=b23c94b8-d5d3-4e0b-8152-41fe9d7297e8","ios":"levelo://app?vid=b23c94b8-d5d3-4e0b-8152-41fe9d7297e8"},"vehicle_type_id":"4","last_reported":1744377588,"current_range_meters":16400,"station_id":"ce4bhsh2rcd13ifvqi2g","pricing_plan_id":"cebpf4jnsgd1na2vs0mg"},{"bike_id":"54a7d26a-c5f8-4008-b945-bcc5a036c746","system_id":"levelo_inurba_marseille","lat":43.233126,"lon":5.361554,"is_reserved":false,"is_disabled":false,"rental_uris":{"android":"levelo://app?vid=54a7d26a-c5f8-4008-b945-bcc5a036c746","ios":"levelo://app?vid=54a7d26a-c5f8-4008-b945-bcc5a036c746"},"vehicle_type_id":"4","last_reported":1744377588,"current_range_meters":16400,"station_id":"","pricing_plan_id":"cebpf4jnsgd1na2vs0mg"},{"bike_id":"fa8902b7-0379-47ee-9107-d73c429587fa","system_id":"levelo_inurba_marseille","lat":43.26792,"lon":5.39433,"is_reserved":false,"is_disabled":false,"rental_uris":{"android":"levelo://app?vid=fa8902b7-0379-47ee-9107-d73c429587fa","ios":"levelo://app?vid=fa8902b7-0379-47ee-9107-d73c429587fa"},"vehicle_type_id":"4","last_reported":1744377588,"current_range_meters":16400,"station_id":"ce4bhh12rcd13ifvqfg0","pricing_plan_id":"cebpf4jnsgd1na2vs0mg"},{"bike_id":"f26ffa8d-758f-4629-9be3-d356055ad08d","system_id":"levelo_inurba_marseille","lat":43.286689,"lon":5.386725,"is_reserved":false,"is_disabled":false,"rental_uris":{"android":"levelo://app?vid=f26ffa8d-758f-4629-9be3-d356055ad08d","ios":"levelo://app?vid=f26ffa8d-758f-4629-9be3-d356055ad08d"},"vehicle_type_id":"4","last_reported":1744377588,"current_range_meters":16400,"station_id":"ce4bh492rcd13ifvqdug","pricing_plan_id":"cebpf4jnsgd1na2vs0mg"},{"bike_id":"b2ce936b-391b-47f6-a1f9-02af9a4ea3b0","system_id":"levelo_inurba_marseille","lat":43.31334,"lon":5.36735,"is_reserved":false,"is_disabled":false,"rental_uris":{"android":"levelo://app?vid=b2ce936b-391b-47f6-a1f9-02af9a4ea3b0","ios":"levelo://app?vid=b2ce936b-391b-47f6-a1f9-02af9a4ea3b0"},"vehicle_type_id":"4","last_reported":1744377588,"current_range_meters":16400,"station_id":"ce4bgr92rcd13ifvqc6g","pricing_plan_id":"cebpf4jnsgd1na2vs0mg"},{"bike_id":"7c873a50-0a5c-4ba6-bd01-c190f37d1a81","system_id":"levelo_inurba_marseille","lat":43.28417,"lon":5.34973,"is_reserved":false,"is_disabled":false,"rental_uris":{"android":"levelo://app?vid=7c873a50-0a5c-4ba6-bd01-c190f37d1a81","ios":"levelo://app?vid=7c873a50-0a5c-4ba6-bd01-c190f37d1a81"},"vehicle_type_id":"4","last_reported":1744377588,"current_range_meters":16400,"station_id":"ce4bhbh2rcd13ifvqepg","pricing_plan_id":"cebpf4jnsgd1na2vs0mg"},{"bike_id":"2473096a-dfc1-4573-87fc-a0162a53cb4c","system_id":"levelo_inurba_marseille","lat":43.28625,"lon":5.35102,"is_reserved":false,"is_disabled":false,"rental_uris":{"android":"levelo://app?vid=2473096a-dfc1-4573-87fc-a0162a53cb4c","ios":"levelo://app?vid=2473096a-dfc1-4573-87fc-a0162a53cb4c"},"vehicle_type_id":"4","last_reported":1744377588,"current_range_meters":16400,"station_id":"ce4bhch2rcd13ifvqeug","pricing_plan_id":"cebpf4jnsgd1na2vs0mg"},{"bike_id":"94285f83-3b5d-462b-97b6-1d5eba6c8ae0","system_id":"levelo_inurba_marseille","lat":43.304618,"lon":5.379086,"is_reserved":false,"is_disabled":false,"rental_uris":{"android":"levelo://app?vid=94285f83-3b5d-462b-97b6-1d5eba6c8ae0","ios":"levelo://app?vid=94285f83-3b5d-462b-97b6-1d5eba6c8ae0"},"vehicle_type_id":"4","last_reported":1744377588,"current_range_meters":16400,"station_id":"ce4bgup2rcd13ifvqcn0","pricing_plan_id":"cebpf4jnsgd1na2vs0mg"},{"bike_id":"e94d6d23-77cf-41d0-8d5d-c8ec82056422","system_id":"levelo_inurba_marseille","lat":43.28854,"lon":5.358537,"is_reserved":false,"is_disabled":false,"rental_uris":{"android":"levelo://app?vid=e94d6d23-77cf-41d0-8d5d-c8ec82056422","ios":"levelo://app?vid=e94d6d23-77cf-41d0-8d5d-c8ec82056422"},"vehicle_type_id":"4","last_reported":1744377588,"current_range_meters":16400,"station_id":"ce4bhb12rcd13ifvqem0","pricing_plan_id":"cebpf4jnsgd1na2vs0mg"},{"bike_id":"9a42562a-9aa0-456b-a04f-6d1eb00eb553","system_id":"levelo_inurba_marseille","lat":43.265602,"lon":5.37283,"is_reserved":false,"is_disabled":false,"rental_uris":{"android":"levelo://app?vid=9a42562a-9aa0-456b-a04f-6d1eb00eb553","ios":"levelo://app?vid=9a42562a-9aa0-456b-a04f-6d1eb00eb553"},"vehicle_type_id":"4","last_reported":1744377588,"current_range_meters":16400,"station_id":"ce4bhg12rcd13ifvqf70","pricing_plan_id":"cebpf4jnsgd1na2vs0mg"},{"bike_id":"e5631e8e-8b17-441d-a79e-dd0e3ef8fbe3","system_id":"levelo_inurba_marseille","lat":43.28265,"lon":5.35061,"is_reserved":false,"is_disabled":false,"rental_uris":{"android":"levelo://app?vid=e5631e8e-8b17-441d-a79e-dd0e3ef8fbe3","ios":"levelo://app?vid=e5631e8e-8b17-441d-a79e-dd0e3ef8fbe3"},"vehicle_type_id":"4","last_reported":1744377588,"current_range_meters":16800,"station_id":"ce4bhbp2rcd13ifvqerg","pricing_plan_id":"cebpf4jnsgd1na2vs0mg"},{"bike_id":"a3d8839e-854b-40e1-a8d8-e82858177545","system_id":"levelo_inurba_marseille","lat":43.29043,"lon":5.39959,"is_reserved":false,"is_disabled":false,"rental_uris":{"android":"levelo://app?vid=a3d8839e-854b-40e1-a8d8-e82858177545","ios":"levelo://app?vid=a3d8839e-854b-40e1-a8d8-e82858177545"},"vehicle_type_id":"4","last_reported":1744377588,"current_range_meters":16800,"station_id":"ce4bh392rcd13ifvqdm0","pricing_plan_id":"cebpf4jnsgd1na2vs0mg"},{"bike_id":"5010b60c-d2d0-40e7-8ffc-e460a2d5368a","system_id":"levelo_inurba_marseille","lat":43.306429,"lon":5.372195,"is_reserved":false,"is_disabled":false,"rental_uris":{"android":"levelo://app?vid=5010b60c-d2d0-40e7-8ffc-e460a2d5368a","ios":"levelo://app?vid=5010b60c-d2d0-40e7-8ffc-e460a2d5368a"},"vehicle_type_id":"4","last_reported":1744377588,"current_range_meters":17200,"station_id":"ce4bgqh2rcd13ifvqc4g","pricing_plan_id":"cebpf4jnsgd1na2vs0mg"},{"bike_id":"be990f1a-62ea-4190-b01a-99b32e05474d","system_id":"levelo_inurba_marseille","lat":43.286504,"lon":5.385393,"is_reserved":false,"is_disabled":false,"rental_uris":{"android":"levelo://app?vid=be990f1a-62ea-4190-b01a-99b32e05474d","ios":"levelo://app?vid=be990f1a-62ea-4190-b01a-99b32e05474d"},"vehicle_type_id":"4","last_reported":1744377588,"current_range_meters":16800,"station_id":"ce4bh492rcd13ifvqdug","pricing_plan_id":"cebpf4jnsgd1na2vs0mg"},{"bike_id":"2582a506-3e26-4cd1-bf77-7861bd915ad6","system_id":"levelo_inurba_marseille","lat":43.3043,"lon":5.38885,"is_reserved":false,"is_disabled":false,"rental_uris":{"android":"levelo://app?vid=2582a506-3e26-4cd1-bf77-7861bd915ad6","ios":"levelo://app?vid=2582a506-3e26-4cd1-bf77-7861bd915ad6"},"vehicle_type_id":"4","last_reported":1744377588,"current_range_meters":16800,"station_id":"ce4bgk12rcd13ifvqbi0","pricing_plan_id":"cebpf4jnsgd1na2vs0mg"},{"bike_id":"874610fc-3b64-4457-99ae-ce0a442087ea","system_id":"levelo_inurba_marseille","lat":43.24176,"lon":5.39729,"is_reserved":false,"is_disabled":false,"rental_uris":{"android":"levelo://app?vid=874610fc-3b64-4457-99ae-ce0a442087ea","ios":"levelo://app?vid=874610fc-3b64-4457-99ae-ce0a442087ea"},"vehicle_type_id":"4","last_reported":1744377588,"current_range_meters":16800,"station_id":"ce4bhn12rcd13ifvqgpg","pricing_plan_id":"cebpf4jnsgd1na2vs0mg"},{"bike_id":"e2060b37-02fe-42ef-9cf8-f521581d8c16","system_id":"levelo_inurba_marseille","lat":43.2988,"lon":5.39727,"is_reserved":false,"is_disabled":false,"rental_uris":{"android":"levelo://app?vid=e2060b37-02fe-42ef-9cf8-f521581d8c16","ios":"levelo://app?vid=e2060b37-02fe-42ef-9cf8-f521581d8c16"},"vehicle_type_id":"4","last_reported":1744377588,"current_range_meters":16800,"station_id":"ce4bh0h2rcd13ifvqd50","pricing_plan_id":"cebpf4jnsgd1na2vs0mg"},{"bike_id":"c40401d5-b7fe-4755-b4f5-3f76908a80c3","system_id":"levelo_inurba_marseille","lat":43.28617,"lon":5.35107,"is_reserved":false,"is_disabled":false,"rental_uris":{"android":"levelo://app?vid=c40401d5-b7fe-4755-b4f5-3f76908a80c3","ios":"levelo://app?vid=c40401d5-b7fe-4755-b4f5-3f76908a80c3"},"vehicle_type_id":"4","last_reported":1744377588,"current_range_meters":16800,"station_id":"ce4bhch2rcd13ifvqeug","pricing_plan_id":"cebpf4jnsgd1na2vs0mg"},{"bike_id":"41fa2fe3-ffb5-4b77-8229-5e58bd811bac","system_id":"levelo_inurba_marseille","lat":43.24147,"lon":5.3971,"is_reserved":false,"is_disabled":false,"rental_uris":{"android":"levelo://app?vid=41fa2fe3-ffb5-4b77-8229-5e58bd811bac","ios":"levelo://app?vid=41fa2fe3-ffb5-4b77-8229-5e58bd811bac"},"vehicle_type_id":"4","last_reported":1744377588,"current_range_meters":16800,"station_id":"ce4bhn12rcd13ifvqgpg","pricing_plan_id":"cebpf4jnsgd1na2vs0mg"},{"bike_id":"8392d736-3287-4288-b3c9-391567fc892c","system_id":"levelo_inurba_marseille","lat":43.2407,"lon":5.37765,"is_reserved":false,"is_disabled":false,"rental_uris":{"android":"levelo://app?vid=8392d736-3287-4288-b3c9-391567fc892c","ios":"levelo://app?vid=8392d736-3287-4288-b3c9-391567fc892c"},"vehicle_type_id":"4","last_reported":1744377588,"current_range_meters":16800,"station_id":"ce4bhnp2rcd13ifvqgvg","pricing_plan_id":"cebpf4jnsgd1na2vs0mg"},{"bike_id":"5c7ee8f3-1480-449a-af08-4a7877477d99","system_id":"levelo_inurba_marseille","lat":43.28272,"lon":5.35062,"is_reserved":false,"is_disabled":false,"rental_uris":{"android":"levelo://app?vid=5c7ee8f3-1480-449a-af08-4a7877477d99","ios":"levelo://app?vid=5c7ee8f3-1480-449a-af08-4a7877477d99"},"vehicle_type_id":"4","last_reported":1744377588,"current_range_meters":16800,"station_id":"ce4bhbp2rcd13ifvqerg","pricing_plan_id":"cebpf4jnsgd1na2vs0mg"},{"bike_id":"5b77a833-8185-45c2-9fe3-07eb40df54ca","system_id":"levelo_inurba_marseille","lat":43.33995,"lon":5.38057,"is_reserved":false,"is_disabled":false,"rental_uris":{"android":"levelo://app?vid=5b77a833-8185-45c2-9fe3-07eb40df54ca","ios":"levelo://app?vid=5b77a833-8185-45c2-9fe3-07eb40df54ca"},"vehicle_type_id":"4","last_reported":1744377588,"current_range_meters":16800,"station_id":"","pricing_plan_id":"cebpf4jnsgd1na2vs0mg"},{"bike_id":"3e0a5d41-b2e9-439a-96dd-b82fc590e817","system_id":"levelo_inurba_marseille","lat":43.26786,"lon":5.39412,"is_reserved":false,"is_disabled":false,"rental_uris":{"android":"levelo://app?vid=3e0a5d41-b2e9-439a-96dd-b82fc590e817","ios":"levelo://app?vid=3e0a5d41-b2e9-439a-96dd-b82fc590e817"},"vehicle_type_id":"4","last_reported":1744377588,"current_range_meters":16800,"station_id":"ce4bhh12rcd13ifvqfg0","pricing_plan_id":"cebpf4jnsgd1na2vs0mg"},{"bike_id":"0acb9ac4-1bd6-4c0e-8950-1545e9b5632c","system_id":"levelo_inurba_marseille","lat":43.307483,"lon":5.368187,"is_reserved":false,"is_disabled":false,"rental_uris":{"android":"levelo://app?vid=0acb9ac4-1bd6-4c0e-8950-1545e9b5632c","ios":"levelo://app?vid=0acb9ac4-1bd6-4c0e-8950-1545e9b5632c"},"vehicle_type_id":"4","last_reported":1744377588,"current_range_meters":17200,"station_id":"ce4bgrp2rcd13ifvqc9g","pricing_plan_id":"cebpf4jnsgd1na2vs0mg"},{"bike_id":"175bfd51-3998-4586-885c-68d53ca4e10d","system_id":"levelo_inurba_marseille","lat":43.23152,"lon":5.43706,"is_reserved":false,"is_disabled":false,"rental_uris":{"android":"levelo://app?vid=175bfd51-3998-4586-885c-68d53ca4e10d","ios":"levelo://app?vid=175bfd51-3998-4586-885c-68d53ca4e10d"},"vehicle_type_id":"4","last_reported":1744377588,"current_range_meters":17200,"station_id":"ce4bhmp2rcd13ifvqgog","pricing_plan_id":"cebpf4jnsgd1na2vs0mg"},{"bike_id":"d93bdb3e-af5a-4430-bc8b-0ff82341365e","system_id":"levelo_inurba_marseille","lat":43.2417,"lon":5.39705,"is_reserved":false,"is_disabled":false,"rental_uris":{"android":"levelo://app?vid=d93bdb3e-af5a-4430-bc8b-0ff82341365e","ios":"levelo://app?vid=d93bdb3e-af5a-4430-bc8b-0ff82341365e"},"vehicle_type_id":"4","last_reported":1744377588,"current_range_meters":17200,"station_id":"ce4bhn12rcd13ifvqgpg","pricing_plan_id":"cebpf4jnsgd1na2vs0mg"},{"bike_id":"656d6c03-b27e-41a9-8ffd-df29b1b9e97a","system_id":"levelo_inurba_marseille","lat":43.29622,"lon":5.37707,"is_reserved":false,"is_disabled":false,"rental_uris":{"android":"levelo://app?vid=656d6c03-b27e-41a9-8ffd-df29b1b9e97a","ios":"levelo://app?vid=656d6c03-b27e-41a9-8ffd-df29b1b9e97a"},"vehicle_type_id":"4","last_reported":1744377588,"current_range_meters":17200,"station_id":"ce4bgi92rcd13ifvqb90","pricing_plan_id":"cebpf4jnsgd1na2vs0mg"},{"bike_id":"7487f594-dbb8-44c3-aa32-f3036b7ab8fb","system_id":"levelo_inurba_marseille","lat":43.23199,"lon":5.35552,"is_reserved":false,"is_disabled":false,"rental_uris":{"android":"levelo://app?vid=7487f594-dbb8-44c3-aa32-f3036b7ab8fb","ios":"levelo://app?vid=7487f594-dbb8-44c3-aa32-f3036b7ab8fb"},"vehicle_type_id":"4","last_reported":1744377588,"current_range_meters":17200,"station_id":"ce4bhu92rcd13ifvqi70","pricing_plan_id":"cebpf4jnsgd1na2vs0mg"},{"bike_id":"ad5cafba-c13d-4675-a4f1-74bf347f9948","system_id":"levelo_inurba_marseille","lat":43.28269,"lon":5.35057,"is_reserved":false,"is_disabled":false,"rental_uris":{"android":"levelo://app?vid=ad5cafba-c13d-4675-a4f1-74bf347f9948","ios":"levelo://app?vid=ad5cafba-c13d-4675-a4f1-74bf347f9948"},"vehicle_type_id":"4","last_reported":1744377588,"current_range_meters":17200,"station_id":"ce4bhbp2rcd13ifvqerg","pricing_plan_id":"cebpf4jnsgd1na2vs0mg"},{"bike_id":"0e7bf4ae-5aed-4055-a1f8-96debbb9847e","system_id":"levelo_inurba_marseille","lat":43.24153,"lon":5.36426,"is_reserved":false,"is_disabled":false,"rental_uris":{"android":"levelo://app?vid=0e7bf4ae-5aed-4055-a1f8-96debbb9847e","ios":"levelo://app?vid=0e7bf4ae-5aed-4055-a1f8-96debbb9847e"},"vehicle_type_id":"4","last_reported":1744377588,"current_range_meters":17200,"station_id":"cpo36qri1sfpv3e86is0","pricing_plan_id":"cebpf4jnsgd1na2vs0mg"},{"bike_id":"ed71e514-b678-4ca3-888c-11c458c31019","system_id":"levelo_inurba_marseille","lat":43.30139,"lon":5.38781,"is_reserved":false,"is_disabled":false,"rental_uris":{"android":"levelo://app?vid=ed71e514-b678-4ca3-888c-11c458c31019","ios":"levelo://app?vid=ed71e514-b678-4ca3-888c-11c458c31019"},"vehicle_type_id":"4","last_reported":1744377588,"current_range_meters":19600,"station_id":"ce4bghh2rcd13ifvqb60","pricing_plan_id":"cebpf4jnsgd1na2vs0mg"},{"bike_id":"adab0148-372e-4fab-980e-7006f1bac408","system_id":"levelo_inurba_marseille","lat":43.27384,"lon":5.36253,"is_reserved":false,"is_disabled":false,"rental_uris":{"android":"levelo://app?vid=adab0148-372e-4fab-980e-7006f1bac408","ios":"levelo://app?vid=adab0148-372e-4fab-980e-7006f1bac408"},"vehicle_type_id":"4","last_reported":1744377588,"current_range_meters":17600,"station_id":"ce4bhbh2rcd13ifvqeo0","pricing_plan_id":"cebpf4jnsgd1na2vs0mg"},{"bike_id":"df634031-ee6b-4d2e-b067-b65939d15b18","system_id":"levelo_inurba_marseille","lat":43.30143,"lon":5.38063,"is_reserved":false,"is_disabled":false,"rental_uris":{"android":"levelo://app?vid=df634031-ee6b-4d2e-b067-b65939d15b18","ios":"levelo://app?vid=df634031-ee6b-4d2e-b067-b65939d15b18"},"vehicle_type_id":"4","last_reported":1744377588,"current_range_meters":17600,"station_id":"ce4bgjp2rcd13ifvqbh0","pricing_plan_id":"cebpf4jnsgd1na2vs0mg"},{"bike_id":"ea747d2a-66d8-4c91-9ba9-e534c94b4922","system_id":"levelo_inurba_marseille","lat":43.2294,"lon":5.35377,"is_reserved":false,"is_disabled":false,"rental_uris":{"android":"levelo://app?vid=ea747d2a-66d8-4c91-9ba9-e534c94b4922","ios":"levelo://app?vid=ea747d2a-66d8-4c91-9ba9-e534c94b4922"},"vehicle_type_id":"4","last_reported":1744377588,"current_range_meters":17600,"station_id":"cpo3532slgdg3j2ikp40","pricing_plan_id":"cebpf4jnsgd1na2vs0mg"},{"bike_id":"5ba68d68-988d-4e0d-82b5-6e5c047bd70c","system_id":"levelo_inurba_marseille","lat":43.22937,"lon":5.35363,"is_reserved":false,"is_disabled":false,"rental_uris":{"android":"levelo://app?vid=5ba68d68-988d-4e0d-82b5-6e5c047bd70c","ios":"levelo://app?vid=5ba68d68-988d-4e0d-82b5-6e5c047bd70c"},"vehicle_type_id":"4","last_reported":1744377588,"current_range_meters":18000,"station_id":"cpo3532slgdg3j2ikp40","pricing_plan_id":"cebpf4jnsgd1na2vs0mg"},{"bike_id":"20d49a66-2c01-4b2f-975b-d8d8000c833f","system_id":"levelo_inurba_marseille","lat":43.28857,"lon":5.35847,"is_reserved":false,"is_disabled":false,"rental_uris":{"android":"levelo://app?vid=20d49a66-2c01-4b2f-975b-d8d8000c833f","ios":"levelo://app?vid=20d49a66-2c01-4b2f-975b-d8d8000c833f"},"vehicle_type_id":"4","last_reported":1744377588,"current_range_meters":18000,"station_id":"ce4bhb12rcd13ifvqem0","pricing_plan_id":"cebpf4jnsgd1na2vs0mg"},{"bike_id":"f6de550e-2260-4569-bde9-81184552ee45","system_id":"levelo_inurba_marseille","lat":43.28567,"lon":5.39494,"is_reserved":false,"is_disabled":false,"rental_uris":{"android":"levelo://app?vid=f6de550e-2260-4569-bde9-81184552ee45","ios":"levelo://app?vid=f6de550e-2260-4569-bde9-81184552ee45"},"vehicle_type_id":"4","last_reported":1744377588,"current_range_meters":17600,"station_id":"ce4bh292rcd13ifvqdg0","pricing_plan_id":"cebpf4jnsgd1na2vs0mg"},{"bike_id":"1518266c-bc0c-4dc5-92e2-32256cc663dd","system_id":"levelo_inurba_marseille","lat":43.28418,"lon":5.34976,"is_reserved":false,"is_disabled":false,"rental_uris":{"android":"levelo://app?vid=1518266c-bc0c-4dc5-92e2-32256cc663dd","ios":"levelo://app?vid=1518266c-bc0c-4dc5-92e2-32256cc663dd"},"vehicle_type_id":"4","last_reported":1744377588,"current_range_meters":17200,"station_id":"ce4bhbh2rcd13ifvqepg","pricing_plan_id":"cebpf4jnsgd1na2vs0mg"},{"bike_id":"e566ad28-d38b-468a-b9ac-e7b86f737322","system_id":"levelo_inurba_marseille","lat":43.24165,"lon":5.36393,"is_reserved":false,"is_disabled":false,"rental_uris":{"android":"levelo://app?vid=e566ad28-d38b-468a-b9ac-e7b86f737322","ios":"levelo://app?vid=e566ad28-d38b-468a-b9ac-e7b86f737322"},"vehicle_type_id":"4","last_reported":1744377588,"current_range_meters":18000,"station_id":"cpo36qri1sfpv3e86is0","pricing_plan_id":"cebpf4jnsgd1na2vs0mg"},{"bike_id":"754619a5-d780-44fe-9ede-cee00907c36d","system_id":"levelo_inurba_marseille","lat":43.337444,"lon":5.374475,"is_reserved":false,"is_disabled":true,"rental_uris":{"android":"levelo://app?vid=754619a5-d780-44fe-9ede-cee00907c36d","ios":"levelo://app?vid=754619a5-d780-44fe-9ede-cee00907c36d"},"vehicle_type_id":"4","last_reported":1744377588,"current_range_meters":18000,"station_id":"","pricing_plan_id":"cebpf4jnsgd1na2vs0mg"},{"bike_id":"7a5c9c76-4e30-46ad-a0c8-64088d059970","system_id":"levelo_inurba_marseille","lat":43.24078,"lon":5.37763,"is_reserved":false,"is_disabled":false,"rental_uris":{"android":"levelo://app?vid=7a5c9c76-4e30-46ad-a0c8-64088d059970","ios":"levelo://app?vid=7a5c9c76-4e30-46ad-a0c8-64088d059970"},"vehicle_type_id":"4","last_reported":1744377588,"current_range_meters":18000,"station_id":"ce4bhnp2rcd13ifvqgvg","pricing_plan_id":"cebpf4jnsgd1na2vs0mg"},{"bike_id":"896d3b5f-ab31-48c8-92dc-50e5bd5335ac","system_id":"levelo_inurba_marseille","lat":43.31754,"lon":5.39,"is_reserved":false,"is_disabled":false,"rental_uris":{"android":"levelo://app?vid=896d3b5f-ab31-48c8-92dc-50e5bd5335ac","ios":"levelo://app?vid=896d3b5f-ab31-48c8-92dc-50e5bd5335ac"},"vehicle_type_id":"4","last_reported":1744377588,"current_range_meters":18000,"station_id":"ce4bhqp2rcd13ifvqhng","pricing_plan_id":"cebpf4jnsgd1na2vs0mg"},{"bike_id":"8ca95e08-243c-48af-85ec-deec946ccd9d","system_id":"levelo_inurba_marseille","lat":43.30155,"lon":5.38089,"is_reserved":false,"is_disabled":false,"rental_uris":{"android":"levelo://app?vid=8ca95e08-243c-48af-85ec-deec946ccd9d","ios":"levelo://app?vid=8ca95e08-243c-48af-85ec-deec946ccd9d"},"vehicle_type_id":"4","last_reported":1744377588,"current_range_meters":18000,"station_id":"ce4bgjp2rcd13ifvqbh0","pricing_plan_id":"cebpf4jnsgd1na2vs0mg"},{"bike_id":"59d65b2a-8b30-4c0f-b337-58e9185c3f49","system_id":"levelo_inurba_marseille","lat":43.28272,"lon":5.35069,"is_reserved":false,"is_disabled":false,"rental_uris":{"android":"levelo://app?vid=59d65b2a-8b30-4c0f-b337-58e9185c3f49","ios":"levelo://app?vid=59d65b2a-8b30-4c0f-b337-58e9185c3f49"},"vehicle_type_id":"4","last_reported":1744377588,"current_range_meters":18000,"station_id":"ce4bhbp2rcd13ifvqerg","pricing_plan_id":"cebpf4jnsgd1na2vs0mg"},{"bike_id":"90cddebc-2506-42ee-9df1-36a6154dff75","system_id":"levelo_inurba_marseille","lat":43.241729,"lon":5.363887,"is_reserved":false,"is_disabled":false,"rental_uris":{"android":"levelo://app?vid=90cddebc-2506-42ee-9df1-36a6154dff75","ios":"levelo://app?vid=90cddebc-2506-42ee-9df1-36a6154dff75"},"vehicle_type_id":"4","last_reported":1744377588,"current_range_meters":18000,"station_id":"cpo36qri1sfpv3e86is0","pricing_plan_id":"cebpf4jnsgd1na2vs0mg"},{"bike_id":"6da7ed18-5a5f-467e-8b00-c46a534110a8","system_id":"levelo_inurba_marseille","lat":43.29896,"lon":5.43663,"is_reserved":false,"is_disabled":false,"rental_uris":{"android":"levelo://app?vid=6da7ed18-5a5f-467e-8b00-c46a534110a8","ios":"levelo://app?vid=6da7ed18-5a5f-467e-8b00-c46a534110a8"},"vehicle_type_id":"4","last_reported":1744377588,"current_range_meters":18800,"station_id":"ce4bhpp2rcd13ifvqhfg","pricing_plan_id":"cebpf4jnsgd1na2vs0mg"},{"bike_id":"1aa6dc75-78d2-4dd9-ba5a-14461d2ec095","system_id":"levelo_inurba_marseille","lat":43.270479,"lon":5.402615,"is_reserved":false,"is_disabled":false,"rental_uris":{"android":"levelo://app?vid=1aa6dc75-78d2-4dd9-ba5a-14461d2ec095","ios":"levelo://app?vid=1aa6dc75-78d2-4dd9-ba5a-14461d2ec095"},"vehicle_type_id":"4","last_reported":1744377588,"current_range_meters":18800,"station_id":"ce4bhk92rcd13ifvqgc0","pricing_plan_id":"cebpf4jnsgd1na2vs0mg"},{"bike_id":"fb07bf41-e15b-44f8-a925-593f31cf8f4e","system_id":"levelo_inurba_marseille","lat":43.284722,"lon":5.385532,"is_reserved":false,"is_disabled":false,"rental_uris":{"android":"levelo://app?vid=fb07bf41-e15b-44f8-a925-593f31cf8f4e","ios":"levelo://app?vid=fb07bf41-e15b-44f8-a925-593f31cf8f4e"},"vehicle_type_id":"4","last_reported":1744377588,"current_range_meters":18800,"station_id":"ce4bhah2rcd13ifvqei0","pricing_plan_id":"cebpf4jnsgd1na2vs0mg"},{"bike_id":"f02aeb64-6231-4974-9e6f-f484f78fc20e","system_id":"levelo_inurba_marseille","lat":43.23142,"lon":5.43723,"is_reserved":false,"is_disabled":false,"rental_uris":{"android":"levelo://app?vid=f02aeb64-6231-4974-9e6f-f484f78fc20e","ios":"levelo://app?vid=f02aeb64-6231-4974-9e6f-f484f78fc20e"},"vehicle_type_id":"4","last_reported":1744377588,"current_range_meters":18800,"station_id":"ce4bhmp2rcd13ifvqgog","pricing_plan_id":"cebpf4jnsgd1na2vs0mg"},{"bike_id":"2e573d24-f88b-4b8a-9598-448a4a09f526","system_id":"levelo_inurba_marseille","lat":43.29003,"lon":5.35607,"is_reserved":false,"is_disabled":false,"rental_uris":{"android":"levelo://app?vid=2e573d24-f88b-4b8a-9598-448a4a09f526","ios":"levelo://app?vid=2e573d24-f88b-4b8a-9598-448a4a09f526"},"vehicle_type_id":"4","last_reported":1744377588,"current_range_meters":18800,"station_id":"ce4bhb92rcd13ifvqen0","pricing_plan_id":"cebpf4jnsgd1na2vs0mg"},{"bike_id":"eb489c2e-1675-434f-bbfa-6a9ed74fea49","system_id":"levelo_inurba_marseille","lat":43.21197,"lon":5.35062,"is_reserved":false,"is_disabled":false,"rental_uris":{"android":"levelo://app?vid=eb489c2e-1675-434f-bbfa-6a9ed74fea49","ios":"levelo://app?vid=eb489c2e-1675-434f-bbfa-6a9ed74fea49"},"vehicle_type_id":"4","last_reported":1744377588,"current_range_meters":18800,"station_id":"st_cvj6sg6p6f1abm77japg","pricing_plan_id":"cebpf4jnsgd1na2vs0mg"},{"bike_id":"89410cbd-74db-423b-83ed-e2b2372ae035","system_id":"levelo_inurba_marseille","lat":43.24546,"lon":5.39523,"is_reserved":false,"is_disabled":false,"rental_uris":{"android":"levelo://app?vid=89410cbd-74db-423b-83ed-e2b2372ae035","ios":"levelo://app?vid=89410cbd-74db-423b-83ed-e2b2372ae035"},"vehicle_type_id":"4","last_reported":1744377588,"current_range_meters":18800,"station_id":"ce4bhlp2rcd13ifvqgjg","pricing_plan_id":"cebpf4jnsgd1na2vs0mg"},{"bike_id":"663b2732-4e40-469c-b29d-1168df3c33a7","system_id":"levelo_inurba_marseille","lat":43.30926,"lon":5.36845,"is_reserved":false,"is_disabled":false,"rental_uris":{"android":"levelo://app?vid=663b2732-4e40-469c-b29d-1168df3c33a7","ios":"levelo://app?vid=663b2732-4e40-469c-b29d-1168df3c33a7"},"vehicle_type_id":"4","last_reported":1744377588,"current_range_meters":18800,"station_id":"ce4bgn92rcd13ifvqbvg","pricing_plan_id":"cebpf4jnsgd1na2vs0mg"},{"bike_id":"e2616b38-e5c8-4719-bb0a-60d882db1c0d","system_id":"levelo_inurba_marseille","lat":43.30607,"lon":5.3722,"is_reserved":false,"is_disabled":false,"rental_uris":{"android":"levelo://app?vid=e2616b38-e5c8-4719-bb0a-60d882db1c0d","ios":"levelo://app?vid=e2616b38-e5c8-4719-bb0a-60d882db1c0d"},"vehicle_type_id":"4","last_reported":1744377588,"current_range_meters":19200,"station_id":"","pricing_plan_id":"cebpf4jnsgd1na2vs0mg"},{"bike_id":"493cde9e-7859-4c26-a2e6-f744ee5d8553","system_id":"levelo_inurba_marseille","lat":43.28999,"lon":5.35641,"is_reserved":false,"is_disabled":false,"rental_uris":{"android":"levelo://app?vid=493cde9e-7859-4c26-a2e6-f744ee5d8553","ios":"levelo://app?vid=493cde9e-7859-4c26-a2e6-f744ee5d8553"},"vehicle_type_id":"4","last_reported":1744377588,"current_range_meters":18800,"station_id":"","pricing_plan_id":"cebpf4jnsgd1na2vs0mg"},{"bike_id":"e7d64116-368f-421d-902b-041b68f32a12","system_id":"levelo_inurba_marseille","lat":43.305472,"lon":5.365295,"is_reserved":false,"is_disabled":false,"rental_uris":{"android":"levelo://app?vid=e7d64116-368f-421d-902b-041b68f32a12","ios":"levelo://app?vid=e7d64116-368f-421d-902b-041b68f32a12"},"vehicle_type_id":"4","last_reported":1744377588,"current_range_meters":19200,"station_id":"ce4bgs12rcd13ifvqcag","pricing_plan_id":"cebpf4jnsgd1na2vs0mg"},{"bike_id":"97e8287f-b06f-4433-9af7-6df48161e74f","system_id":"levelo_inurba_marseille","lat":43.22507,"lon":5.34784,"is_reserved":false,"is_disabled":false,"rental_uris":{"android":"levelo://app?vid=97e8287f-b06f-4433-9af7-6df48161e74f","ios":"levelo://app?vid=97e8287f-b06f-4433-9af7-6df48161e74f"},"vehicle_type_id":"4","last_reported":1744377588,"current_range_meters":19200,"station_id":"st_cvj5dfep6f1abm77gieg","pricing_plan_id":"cebpf4jnsgd1na2vs0mg"},{"bike_id":"04161492-be6a-48b0-8cd5-6292f041e628","system_id":"levelo_inurba_marseille","lat":43.28996,"lon":5.35616,"is_reserved":false,"is_disabled":false,"rental_uris":{"android":"levelo://app?vid=04161492-be6a-48b0-8cd5-6292f041e628","ios":"levelo://app?vid=04161492-be6a-48b0-8cd5-6292f041e628"},"vehicle_type_id":"4","last_reported":1744377588,"current_range_meters":19200,"station_id":"ce4bhb92rcd13ifvqen0","pricing_plan_id":"cebpf4jnsgd1na2vs0mg"},{"bike_id":"e010d000-26fd-4c9b-8397-e3e874a9c321","system_id":"levelo_inurba_marseille","lat":43.29005,"lon":5.3561,"is_reserved":false,"is_disabled":false,"rental_uris":{"android":"levelo://app?vid=e010d000-26fd-4c9b-8397-e3e874a9c321","ios":"levelo://app?vid=e010d000-26fd-4c9b-8397-e3e874a9c321"},"vehicle_type_id":"4","last_reported":1744377588,"current_range_meters":19200,"station_id":"ce4bhb92rcd13ifvqen0","pricing_plan_id":"cebpf4jnsgd1na2vs0mg"},{"bike_id":"35731db3-6912-402e-a623-b72e3ccb4de5","system_id":"levelo_inurba_marseille","lat":43.23146,"lon":5.437,"is_reserved":false,"is_disabled":false,"rental_uris":{"android":"levelo://app?vid=35731db3-6912-402e-a623-b72e3ccb4de5","ios":"levelo://app?vid=35731db3-6912-402e-a623-b72e3ccb4de5"},"vehicle_type_id":"4","last_reported":1744377588,"current_range_meters":19200,"station_id":"ce4bhmp2rcd13ifvqgog","pricing_plan_id":"cebpf4jnsgd1na2vs0mg"},{"bike_id":"f46a49ca-1b9d-47bc-aed6-4fa281bfffb1","system_id":"levelo_inurba_marseille","lat":43.3053,"lon":5.36536,"is_reserved":false,"is_disabled":false,"rental_uris":{"android":"levelo://app?vid=f46a49ca-1b9d-47bc-aed6-4fa281bfffb1","ios":"levelo://app?vid=f46a49ca-1b9d-47bc-aed6-4fa281bfffb1"},"vehicle_type_id":"4","last_reported":1744377588,"current_range_meters":19200,"station_id":"ce4bgs12rcd13ifvqcag","pricing_plan_id":"cebpf4jnsgd1na2vs0mg"},{"bike_id":"756428b6-f32e-4973-85c5-8f0bebfd4eec","system_id":"levelo_inurba_marseille","lat":43.29896,"lon":5.39738,"is_reserved":false,"is_disabled":false,"rental_uris":{"android":"levelo://app?vid=756428b6-f32e-4973-85c5-8f0bebfd4eec","ios":"levelo://app?vid=756428b6-f32e-4973-85c5-8f0bebfd4eec"},"vehicle_type_id":"4","last_reported":1744377588,"current_range_meters":19600,"station_id":"ce4bh0h2rcd13ifvqd50","pricing_plan_id":"cebpf4jnsgd1na2vs0mg"},{"bike_id":"9a5bd8af-68ae-489b-ab8e-d0731e2a8d0c","system_id":"levelo_inurba_marseille","lat":43.28414,"lon":5.34989,"is_reserved":false,"is_disabled":false,"rental_uris":{"android":"levelo://app?vid=9a5bd8af-68ae-489b-ab8e-d0731e2a8d0c","ios":"levelo://app?vid=9a5bd8af-68ae-489b-ab8e-d0731e2a8d0c"},"vehicle_type_id":"4","last_reported":1744377588,"current_range_meters":19600,"station_id":"ce4bhbh2rcd13ifvqepg","pricing_plan_id":"cebpf4jnsgd1na2vs0mg"},{"bike_id":"d58a00a9-6749-4b36-8595-7c37ee228288","system_id":"levelo_inurba_marseille","lat":43.30221,"lon":5.39475,"is_reserved":false,"is_disabled":false,"rental_uris":{"android":"levelo://app?vid=d58a00a9-6749-4b36-8595-7c37ee228288","ios":"levelo://app?vid=d58a00a9-6749-4b36-8595-7c37ee228288"},"vehicle_type_id":"4","last_reported":1744377588,"current_range_meters":19600,"station_id":"ce4bh0p2rcd13ifvqd70","pricing_plan_id":"cebpf4jnsgd1na2vs0mg"},{"bike_id":"50bf9c4a-f35d-4e3f-ad1b-796255af073e","system_id":"levelo_inurba_marseille","lat":43.25569,"lon":5.3825,"is_reserved":false,"is_disabled":false,"rental_uris":{"android":"levelo://app?vid=50bf9c4a-f35d-4e3f-ad1b-796255af073e","ios":"levelo://app?vid=50bf9c4a-f35d-4e3f-ad1b-796255af073e"},"vehicle_type_id":"4","last_reported":1744377588,"current_range_meters":19600,"station_id":"ce4bhih2rcd13ifvqfs0","pricing_plan_id":"cebpf4jnsgd1na2vs0mg"},{"bike_id":"38a29a38-d7a5-4578-bc53-1962fc224d4c","system_id":"levelo_inurba_marseille","lat":43.28609,"lon":5.3706,"is_reserved":false,"is_disabled":false,"rental_uris":{"android":"levelo://app?vid=38a29a38-d7a5-4578-bc53-1962fc224d4c","ios":"levelo://app?vid=38a29a38-d7a5-4578-bc53-1962fc224d4c"},"vehicle_type_id":"4","last_reported":1744377588,"current_range_meters":19600,"station_id":"ce4bht12rcd13ifvqi60","pricing_plan_id":"cebpf4jnsgd1na2vs0mg"},{"bike_id":"8e5be984-786e-48c8-8c8c-71288750e9a0","system_id":"levelo_inurba_marseille","lat":43.30551,"lon":5.3652,"is_reserved":false,"is_disabled":false,"rental_uris":{"android":"levelo://app?vid=8e5be984-786e-48c8-8c8c-71288750e9a0","ios":"levelo://app?vid=8e5be984-786e-48c8-8c8c-71288750e9a0"},"vehicle_type_id":"4","last_reported":1744377588,"current_range_meters":19600,"station_id":"ce4bgs12rcd13ifvqcag","pricing_plan_id":"cebpf4jnsgd1na2vs0mg"},{"bike_id":"c3821a9c-7588-4931-a42d-ffb6971fd988","system_id":"levelo_inurba_marseille","lat":43.28612,"lon":5.37062,"is_reserved":false,"is_disabled":false,"rental_uris":{"android":"levelo://app?vid=c3821a9c-7588-4931-a42d-ffb6971fd988","ios":"levelo://app?vid=c3821a9c-7588-4931-a42d-ffb6971fd988"},"vehicle_type_id":"4","last_reported":1744377588,"current_range_meters":20000,"station_id":"ce4bht12rcd13ifvqi60","pricing_plan_id":"cebpf4jnsgd1na2vs0mg"},{"bike_id":"b4d5d9c3-831b-4cf4-9817-35e6d5e8d990","system_id":"levelo_inurba_marseille","lat":43.231516,"lon":5.437161,"is_reserved":false,"is_disabled":false,"rental_uris":{"android":"levelo://app?vid=b4d5d9c3-831b-4cf4-9817-35e6d5e8d990","ios":"levelo://app?vid=b4d5d9c3-831b-4cf4-9817-35e6d5e8d990"},"vehicle_type_id":"4","last_reported":1744377588,"current_range_meters":20000,"station_id":"ce4bhmp2rcd13ifvqgog","pricing_plan_id":"cebpf4jnsgd1na2vs0mg"},{"bike_id":"a945cbf3-38e6-4aa3-9aa1-d414d6c834b5","system_id":"levelo_inurba_marseille","lat":43.319003,"lon":5.407342,"is_reserved":false,"is_disabled":true,"rental_uris":{"android":"levelo://app?vid=a945cbf3-38e6-4aa3-9aa1-d414d6c834b5","ios":"levelo://app?vid=a945cbf3-38e6-4aa3-9aa1-d414d6c834b5"},"vehicle_type_id":"4","last_reported":1744377588,"current_range_meters":20000,"station_id":"ce4bhq12rcd13ifvqhig","pricing_plan_id":"cebpf4jnsgd1na2vs0mg"},{"bike_id":"7b11c6a0-0be1-4d05-8720-f1bb3efc5b64","system_id":"levelo_inurba_marseille","lat":43.27941,"lon":5.41052,"is_reserved":false,"is_disabled":false,"rental_uris":{"android":"levelo://app?vid=7b11c6a0-0be1-4d05-8720-f1bb3efc5b64","ios":"levelo://app?vid=7b11c6a0-0be1-4d05-8720-f1bb3efc5b64"},"vehicle_type_id":"4","last_reported":1744377588,"current_range_meters":20000,"station_id":"ce4bhnp2rcd13ifvqh0g","pricing_plan_id":"cebpf4jnsgd1na2vs0mg"},{"bike_id":"a7c58a60-a5c5-4a4e-b362-dc7feaea63d7","system_id":"levelo_inurba_marseille","lat":43.31986,"lon":5.38142,"is_reserved":false,"is_disabled":true,"rental_uris":{"android":"levelo://app?vid=a7c58a60-a5c5-4a4e-b362-dc7feaea63d7","ios":"levelo://app?vid=a7c58a60-a5c5-4a4e-b362-dc7feaea63d7"},"vehicle_type_id":"4","last_reported":1744377588,"current_range_meters":20000,"station_id":"ce4bhr12rcd13ifvqhpg","pricing_plan_id":"cebpf4jnsgd1na2vs0mg"},{"bike_id":"44ea3182-88eb-4a7d-bbc8-aa868967f1bc","system_id":"levelo_inurba_marseille","lat":43.3171,"lon":5.37172,"is_reserved":false,"is_disabled":false,"rental_uris":{"android":"levelo://app?vid=44ea3182-88eb-4a7d-bbc8-aa868967f1bc","ios":"levelo://app?vid=44ea3182-88eb-4a7d-bbc8-aa868967f1bc"},"vehicle_type_id":"4","last_reported":1744377588,"current_range_meters":20000,"station_id":"","pricing_plan_id":"cebpf4jnsgd1na2vs0mg"},{"bike_id":"9ed611fc-5d03-4308-9b55-295cf7a74145","system_id":"levelo_inurba_marseille","lat":43.26554,"lon":5.39032,"is_reserved":false,"is_disabled":false,"rental_uris":{"android":"levelo://app?vid=9ed611fc-5d03-4308-9b55-295cf7a74145","ios":"levelo://app?vid=9ed611fc-5d03-4308-9b55-295cf7a74145"},"vehicle_type_id":"4","last_reported":1744377588,"current_range_meters":20000,"station_id":"ce4bhe12rcd13ifvqf30","pricing_plan_id":"cebpf4jnsgd1na2vs0mg"},{"bike_id":"d1739956-1e6b-466e-b9d4-144f60d3d7cb","system_id":"levelo_inurba_marseille","lat":43.23067,"lon":5.35499,"is_reserved":false,"is_disabled":false,"rental_uris":{"android":"levelo://app?vid=d1739956-1e6b-466e-b9d4-144f60d3d7cb","ios":"levelo://app?vid=d1739956-1e6b-466e-b9d4-144f60d3d7cb"},"vehicle_type_id":"4","last_reported":1744377588,"current_range_meters":20400,"station_id":"cpo3342slgdg3j2ifvpg","pricing_plan_id":"cebpf4jnsgd1na2vs0mg"},{"bike_id":"020e9999-d552-48d0-ae5f-b725af0dbea2","system_id":"levelo_inurba_marseille","lat":43.299121,"lon":5.437591,"is_reserved":false,"is_disabled":false,"rental_uris":{"android":"levelo://app?vid=020e9999-d552-48d0-ae5f-b725af0dbea2","ios":"levelo://app?vid=020e9999-d552-48d0-ae5f-b725af0dbea2"},"vehicle_type_id":"4","last_reported":1744377588,"current_range_meters":20400,"station_id":"","pricing_plan_id":"cebpf4jnsgd1na2vs0mg"},{"bike_id":"3efae222-208a-41dc-8cb6-070af598edfa","system_id":"levelo_inurba_marseille","lat":43.23964,"lon":5.36619,"is_reserved":false,"is_disabled":false,"rental_uris":{"android":"levelo://app?vid=3efae222-208a-41dc-8cb6-070af598edfa","ios":"levelo://app?vid=3efae222-208a-41dc-8cb6-070af598edfa"},"vehicle_type_id":"4","last_reported":1744377588,"current_range_meters":20400,"station_id":"ce4bhi12rcd13ifvqfp0","pricing_plan_id":"cebpf4jnsgd1na2vs0mg"},{"bike_id":"d80d0305-e2cf-4bdb-9af9-cafd968c6516","system_id":"levelo_inurba_marseille","lat":43.2862,"lon":5.35101,"is_reserved":false,"is_disabled":false,"rental_uris":{"android":"levelo://app?vid=d80d0305-e2cf-4bdb-9af9-cafd968c6516","ios":"levelo://app?vid=d80d0305-e2cf-4bdb-9af9-cafd968c6516"},"vehicle_type_id":"4","last_reported":1744377588,"current_range_meters":20400,"station_id":"ce4bhch2rcd13ifvqeug","pricing_plan_id":"cebpf4jnsgd1na2vs0mg"},{"bike_id":"a6fb9ac6-0321-4123-b718-f7bd24b8337c","system_id":"levelo_inurba_marseille","lat":43.24172,"lon":5.39725,"is_reserved":false,"is_disabled":false,"rental_uris":{"android":"levelo://app?vid=a6fb9ac6-0321-4123-b718-f7bd24b8337c","ios":"levelo://app?vid=a6fb9ac6-0321-4123-b718-f7bd24b8337c"},"vehicle_type_id":"4","last_reported":1744377588,"current_range_meters":20800,"station_id":"ce4bhn12rcd13ifvqgpg","pricing_plan_id":"cebpf4jnsgd1na2vs0mg"},{"bike_id":"6ceb21bf-a1da-453c-af6a-acb8295cd882","system_id":"levelo_inurba_marseille","lat":43.30774,"lon":5.37657,"is_reserved":false,"is_disabled":false,"rental_uris":{"android":"levelo://app?vid=6ceb21bf-a1da-453c-af6a-acb8295cd882","ios":"levelo://app?vid=6ceb21bf-a1da-453c-af6a-acb8295cd882"},"vehicle_type_id":"4","last_reported":1744377588,"current_range_meters":20800,"station_id":"ce4bgv92rcd13ifvqcq0","pricing_plan_id":"cebpf4jnsgd1na2vs0mg"},{"bike_id":"8f45eeac-ea0b-43d7-a127-2e732620b973","system_id":"levelo_inurba_marseille","lat":43.2407,"lon":5.37756,"is_reserved":false,"is_disabled":false,"rental_uris":{"android":"levelo://app?vid=8f45eeac-ea0b-43d7-a127-2e732620b973","ios":"levelo://app?vid=8f45eeac-ea0b-43d7-a127-2e732620b973"},"vehicle_type_id":"4","last_reported":1744377588,"current_range_meters":20400,"station_id":"ce4bhnp2rcd13ifvqgvg","pricing_plan_id":"cebpf4jnsgd1na2vs0mg"},{"bike_id":"3236a17b-87bc-4827-b557-be034a694ecb","system_id":"levelo_inurba_marseille","lat":43.30542,"lon":5.36524,"is_reserved":false,"is_disabled":false,"rental_uris":{"android":"levelo://app?vid=3236a17b-87bc-4827-b557-be034a694ecb","ios":"levelo://app?vid=3236a17b-87bc-4827-b557-be034a694ecb"},"vehicle_type_id":"4","last_reported":1744377588,"current_range_meters":20800,"station_id":"ce4bgs12rcd13ifvqcag","pricing_plan_id":"cebpf4jnsgd1na2vs0mg"},{"bike_id":"81490769-d9b1-4e08-ba07-685a049a7bc2","system_id":"levelo_inurba_marseille","lat":43.29184,"lon":5.407823,"is_reserved":false,"is_disabled":false,"rental_uris":{"android":"levelo://app?vid=81490769-d9b1-4e08-ba07-685a049a7bc2","ios":"levelo://app?vid=81490769-d9b1-4e08-ba07-685a049a7bc2"},"vehicle_type_id":"4","last_reported":1744377588,"current_range_meters":21600,"station_id":"ce4bh192rcd13ifvqdc0","pricing_plan_id":"cebpf4jnsgd1na2vs0mg"},{"bike_id":"7d64edc8-55e0-4ec7-a701-511a0c310f44","system_id":"levelo_inurba_marseille","lat":43.27362,"lon":5.36248,"is_reserved":false,"is_disabled":false,"rental_uris":{"android":"levelo://app?vid=7d64edc8-55e0-4ec7-a701-511a0c310f44","ios":"levelo://app?vid=7d64edc8-55e0-4ec7-a701-511a0c310f44"},"vehicle_type_id":"4","last_reported":1744377588,"current_range_meters":21600,"station_id":"ce4bhbh2rcd13ifvqeo0","pricing_plan_id":"cebpf4jnsgd1na2vs0mg"},{"bike_id":"ee8e6ffb-007b-4b7a-9cf4-589551c15038","system_id":"levelo_inurba_marseille","lat":43.28264,"lon":5.35066,"is_reserved":false,"is_disabled":false,"rental_uris":{"android":"levelo://app?vid=ee8e6ffb-007b-4b7a-9cf4-589551c15038","ios":"levelo://app?vid=ee8e6ffb-007b-4b7a-9cf4-589551c15038"},"vehicle_type_id":"4","last_reported":1744377588,"current_range_meters":21600,"station_id":"ce4bhbp2rcd13ifvqerg","pricing_plan_id":"cebpf4jnsgd1na2vs0mg"},