{"last_updated":1771183012,"ttl":60,"version":"2.2","data":{"bikes":[{"bike_id":"d96f1086-8d9b-4b38-8774-136993319875","system_id":"levelo_inurba_marseille","lat":43.246406,"lon":5.388861,"is_reserved":false,"is_disabled":false,"rental_uris":{"android":"levelo://app?vid=d96f1086-8d9b-4b38-8774-136993319875","ios":"levelo://app?vid=d96f1086-8d9b-4b38-8774-136993319875"},"vehicle_type_id":"4","last_reported":1771183012,"current_range_meters":13600,"station_id":"ce4bhg12rcd13ifvqf60","pricing_plan_id":"cebpf4jnsgd1na2vs0mg"},{"bike_id":"597ba019-6a14-4724-bfeb-cc559411f270","system_id":"levelo_inurba_marseille","lat":43.27611,"lon":5.36111,"is_reserved":false,"is_disabled":false,"rental_uris":{"android":"levelo://app?vid=597ba019-6a14-4724-bfeb-cc559411f270","ios":"levelo://app?vid=597ba019-6a14-4724-bfeb-cc559411f270"},"vehicle_type_id":"4","last_reported":1771183012,"current_range_meters":39200,"station_id":"ce4bgj92rcd13ifvqbe0","pricing_plan_id":"cebpf4jnsgd1na2vs0mg"},{"bike_id":"34d70057-47d6-4c17-b6c1-e79de54e1e52","system_id":"levelo_inurba_marseille","lat":43.330193,"lon":5.390422,"is_reserved":false,"is_disabled":false,"rental_uris":{"android":"levelo://app?vid=34d70057-47d6-4c17-b6c1-e79de54e1e52","ios":"levelo://app?vid=34d70057-47d6-4c17-b6c1-e79de54e1e52"},"vehicle_type_id":"4","last_reported":1771183012,"current_range_meters":24800,"station_id":"ce4bhr92rcd13ifvqhrg","pricing_plan_id":"cebpf4jnsgd1na2vs0mg"},{"bike_id":"68ef5776-ce7e-4d76-bed7-b3b2136e9f86","system_id":"levelo_inurba_marseille","lat":43.3302,"lon":5.3905,"is_reserved":false,"is_disabled":false,"rental_uris":{"android":"levelo://app?vid=68ef5776-ce7e-4d76-bed7-b3b2136e9f86","ios":"levelo://app?vid=68ef5776-ce7e-4d76-bed7-b3b2136e9f86"},"vehicle_type_id":"4","last_reported":1771183012,"current_range_meters":38800,"station_id":"ce4bhr92rcd13ifvqhrg","pricing_plan_id":"cebpf4jnsgd1na2vs0mg"},{"bike_id":"dcf21c8a-af55-489b-ae7c-c01a8eafbc40","system_id":"levelo_inurba_marseille","lat":43.337444,"lon":5.374475,"is_reserved":false,"is_disabled":false,"rental_uris":{"android":"levelo://app?vid=dcf21c8a-af55-489b-ae7c-c01a8eafbc40","ios":"levelo://app?vid=dcf21c8a-af55-489b-ae7c-c01a8eafbc40"},"vehicle_type_id":"4","last_reported":1771183012,"current_range_meters":18000,"station_id":"","pricing_plan_id":"cebpf4jnsgd1na2vs0mg"},{"bike_id":"05431520-0744-4aff-8d56-5eda07b7d4bf","system_id":"levelo_inurba_marseille","lat":43.33014,"lon":5.39084,"is_reserved":false,"is_disabled":false,"rental_uris":{"android":"levelo://app?vid=05431520-0744-4aff-8d56-5eda07b7d4bf","ios":"levelo://app?vid=05431520-0744-4aff-8d56-5eda07b7d4bf"},"vehicle_type_id":"4","last_reported":1771183012,"current_range_meters":37600,"station_id":"ce4bhr92rcd13ifvqhrg","pricing_plan_id":"cebpf4jnsgd1na2vs0mg"},{"bike_id":"b07f3ef1-c8ed-4cbb-96c2-2cf40b5d7a28","system_id":"levelo_inurba_marseille","lat":43.33004,"lon":5.39043,"is_reserved":false,"is_disabled":false,"rental_uris":{"android":"levelo://app?vid=b07f3ef1-c8ed-4cbb-96c2-2cf40b5d7a28","ios":"levelo://app?vid=b07f3ef1-c8ed-4cbb-96c2-2cf40b5d7a28"},"vehicle_type_id":"4","last_reported":1771183012,"current_range_meters":39200,"station_id":"ce4bhr92rcd13ifvqhrg","pricing_plan_id":"cebpf4jnsgd1na2vs0mg"},{"bike_id":"8ff7e5fe-aeff-4c28-befd-849a0d3b0506","system_id":"levelo_inurba_marseille","lat":43.33034,"lon":5.39037,"is_reserved":false,"is_disabled":false,"rental_uris":{"android":"levelo://app?vid=8ff7e5fe-aeff-4c28-befd-849a0d3b0506","ios":"levelo://app?vid=8ff7e5fe-aeff-4c28-befd-849a0d3b0506"},"vehicle_type_id":"4","last_reported":1771183012,"current_range_meters":38800,"station_id":"ce4bhr92rcd13ifvqhrg","pricing_plan_id":"cebpf4jnsgd1na2vs0mg"},{"bike_id":"64f460a1-288f-42d2-88de-a92a667fff57","system_id":"levelo_inurba_marseille","lat":43.330229,"lon":5.390418,"is_reserved":false,"is_disabled":false,"rental_uris":{"android":"levelo://app?vid=64f460a1-288f-42d2-88de-a92a667fff57","ios":"levelo://app?vid=64f460a1-288f-42d2-88de-a92a667fff57"},"vehicle_type_id":"4","last_reported":1771183012,"current_range_meters":38800,"station_id":"ce4bhr92rcd13ifvqhrg","pricing_plan_id":"cebpf4jnsgd1na2vs0mg"},{"bike_id":"4b69d9ac-5988-4e0b-b555-d4763bf81efe","system_id":"levelo_inurba_marseille","lat":43.3302,"lon":5.39028,"is_reserved":false,"is_disabled":false,"rental_uris":{"android":"levelo://app?vid=4b69d9ac-5988-4e0b-b555-d4763bf81efe","ios":"levelo://app?vid=4b69d9ac-5988-4e0b-b555-d4763bf81efe"},"vehicle_type_id":"4","last_reported":1771183012,"current_range_meters":38800,"station_id":"ce4bhr92rcd13ifvqhrg","pricing_plan_id":"cebpf4jnsgd1na2vs0mg"},{"bike_id":"9942bbc5-c241-4e8a-b7a0-e7948f4f2e45","system_id":"levelo_inurba_marseille","lat":43.32372,"lon":5.38864,"is_reserved":false,"is_disabled":false,"rental_uris":{"android":"levelo://app?vid=9942bbc5-c241-4e8a-b7a0-e7948f4f2e45","ios":"levelo://app?vid=9942bbc5-c241-4e8a-b7a0-e7948f4f2e45"},"vehicle_type_id":"4","last_reported":1771183012,"current_range_meters":39200,"station_id":"ce4bhqp2rcd13ifvqhog","pricing_plan_id":"cebpf4jnsgd1na2vs0mg"},{"bike_id":"78eafc9c-aeb1-4a3e-b6ec-c3c1210ea0e6","system_id":"levelo_inurba_marseille","lat":43.3237,"lon":5.38917,"is_reserved":false,"is_disabled":false,"rental_uris":{"android":"levelo://app?vid=78eafc9c-aeb1-4a3e-b6ec-c3c1210ea0e6","ios":"levelo://app?vid=78eafc9c-aeb1-4a3e-b6ec-c3c1210ea0e6"},"vehicle_type_id":"4","last_reported":1771183012,"current_range_meters":39200,"station_id":"ce4bhqp2rcd13ifvqhog","pricing_plan_id":"cebpf4jnsgd1na2vs0mg"},{"bike_id":"8e8e8859-a5a6-43b8-9a3a-3d7ba83a2210","system_id":"levelo_inurba_marseille","lat":43.330189,"lon":5.390402,"is_reserved":false,"is_disabled":false,"rental_uris":{"android":"levelo://app?vid=8e8e8859-a5a6-43b8-9a3a-3d7ba83a2210","ios":"levelo://app?vid=8e8e8859-a5a6-43b8-9a3a-3d7ba83a2210"},"vehicle_type_id":"4","last_reported":1771183012,"current_range_meters":38000,"station_id":"","pricing_plan_id":"cebpf4jnsgd1na2vs0mg"},{"bike_id":"e09b1854-500a-4103-9ded-791ea62f0cef","system_id":"levelo_inurba_marseille","lat":43.32372,"lon":5.388565,"is_reserved":false,"is_disabled":false,"rental_uris":{"android":"levelo://app?vid=e09b1854-500a-4103-9ded-791ea62f0cef","ios":"levelo://app?vid=e09b1854-500a-4103-9ded-791ea62f0cef"},"vehicle_type_id":"4","last_reported":1771183012,"current_range_meters":39200,"station_id":"ce4bhqp2rcd13ifvqhog","pricing_plan_id":"cebpf4jnsgd1na2vs0mg"},{"bike_id":"be8ecc47-b3b1-4e9a-89ec-d105b0b19936","system_id":"levelo_inurba_marseille","lat":43.32368,"lon":5.38863,"is_reserved":false,"is_disabled":false,"rental_uris":{"android":"levelo://app?vid=be8ecc47-b3b1-4e9a-89ec-d105b0b19936","ios":"levelo://app?vid=be8ecc47-b3b1-4e9a-89ec-d105b0b19936"},"vehicle_type_id":"4","last_reported":1771183012,"current_range_meters":39200,"station_id":"ce4bhqp2rcd13ifvqhog","pricing_plan_id":"cebpf4jnsgd1na2vs0mg"},{"bike_id":"648e6a2a-97a3-4978-b56c-398eb1bdc7d8","system_id":"levelo_inurba_marseille","lat":43.30608,"lon":5.37241,"is_reserved":false,"is_disabled":false,"rental_uris":{"android":"levelo://app?vid=648e6a2a-97a3-4978-b56c-398eb1bdc7d8","ios":"levelo://app?vid=648e6a2a-97a3-4978-b56c-398eb1bdc7d8"},"vehicle_type_id":"4","last_reported":1771183012,"current_range_meters":24000,"station_id":"ce4bgqh2rcd13ifvqc4g","pricing_plan_id":"cebpf4jnsgd1na2vs0mg"},{"bike_id":"2f797b8f-6a1b-4134-b3da-d67715f7aa4a","system_id":"levelo_inurba_marseille","lat":43.23954,"lon":5.36622,"is_reserved":false,"is_disabled":false,"rental_uris":{"android":"levelo://app?vid=2f797b8f-6a1b-4134-b3da-d67715f7aa4a","ios":"levelo://app?vid=2f797b8f-6a1b-4134-b3da-d67715f7aa4a"},"vehicle_type_id":"4","last_reported":1771183012,"current_range_meters":23200,"station_id":"ce4bhi12rcd13ifvqfp0","pricing_plan_id":"cebpf4jnsgd1na2vs0mg"},{"bike_id":"bdf72b80-d7a9-4303-9f7f-d62bd85c9012","system_id":"levelo_inurba_marseille","lat":43.3054,"lon":5.36701,"is_reserved":false,"is_disabled":false,"rental_uris":{"android":"levelo://app?vid=bdf72b80-d7a9-4303-9f7f-d62bd85c9012","ios":"levelo://app?vid=bdf72b80-d7a9-4303-9f7f-d62bd85c9012"},"vehicle_type_id":"4","last_reported":1771183012,"current_range_meters":39200,"station_id":"ce4bgrp2rcd13ifvqc9g","pricing_plan_id":"cebpf4jnsgd1na2vs0mg"},{"bike_id":"2ee2501b-b2dd-4e3f-bff3-a91ee1254efa","system_id":"levelo_inurba_marseille","lat":43.28931,"lon":5.39641,"is_reserved":false,"is_disabled":true,"rental_uris":{"android":"levelo://app?vid=2ee2501b-b2dd-4e3f-bff3-a91ee1254efa","ios":"levelo://app?vid=2ee2501b-b2dd-4e3f-bff3-a91ee1254efa"},"vehicle_type_id":"4","last_reported":1771183012,"current_range_meters":19200,"station_id":"ce4bh3h2rcd13ifvqdn0","pricing_plan_id":"cebpf4jnsgd1na2vs0mg"},{"bike_id":"e28b54de-af57-425f-96ed-b1caac28166f","system_id":"levelo_inurba_marseille","lat":43.331589,"lon":5.376892,"is_reserved":false,"is_disabled":false,"rental_uris":{"android":"levelo://app?vid=e28b54de-af57-425f-96ed-b1caac28166f","ios":"levelo://app?vid=e28b54de-af57-425f-96ed-b1caac28166f"},"vehicle_type_id":"4","last_reported":1771183012,"current_range_meters":34000,"station_id":"st_d46cu089ee8s73dldbu0","pricing_plan_id":"cebpf4jnsgd1na2vs0mg"},{"bike_id":"d43115ad-a729-49ce-89e0-975a929f6aa6","system_id":"levelo_inurba_marseille","lat":43.24802,"lon":5.37507,"is_reserved":false,"is_disabled":false,"rental_uris":{"android":"levelo://app?vid=d43115ad-a729-49ce-89e0-975a929f6aa6","ios":"levelo://app?vid=d43115ad-a729-49ce-89e0-975a929f6aa6"},"vehicle_type_id":"4","last_reported":1771183012,"current_range_meters":39200,"station_id":"","pricing_plan_id":"cebpf4jnsgd1na2vs0mg"},{"bike_id":"f9091509-8dd9-43bc-9ed0-0ab9dbc4420f","system_id":"levelo_inurba_marseille","lat":43.26544,"lon":5.37293,"is_reserved":false,"is_disabled":false,"rental_uris":{"android":"levelo://app?vid=f9091509-8dd9-43bc-9ed0-0ab9dbc4420f","ios":"levelo://app?vid=f9091509-8dd9-43bc-9ed0-0ab9dbc4420f"},"vehicle_type_id":"4","last_reported":1771183012,"current_range_meters":3600,"station_id":"ce4bhg12rcd13ifvqf70","pricing_plan_id":"cebpf4jnsgd1na2vs0mg"},{"bike_id":"b829afcc-9b72-4b0e-9514-8b2754aea185","system_id":"levelo_inurba_marseille","lat":43.29348,"lon":5.3835,"is_reserved":false,"is_disabled":true,"rental_uris":{"android":"levelo://app?vid=b829afcc-9b72-4b0e-9514-8b2754aea185","ios":"levelo://app?vid=b829afcc-9b72-4b0e-9514-8b2754aea185"},"vehicle_type_id":"4","last_reported":1771183012,"current_range_meters":10000,"station_id":"","pricing_plan_id":"cebpf4jnsgd1na2vs0mg"},{"bike_id":"2a5ef9b8-1859-4a82-8031-3c1de4378080","system_id":"levelo_inurba_marseille","lat":43.304207,"lon":5.412811,"is_reserved":false,"is_disabled":false,"rental_uris":{"android":"levelo://app?vid=2a5ef9b8-1859-4a82-8031-3c1de4378080","ios":"levelo://app?vid=2a5ef9b8-1859-4a82-8031-3c1de4378080"},"vehicle_type_id":"4","last_reported":1771183012,"current_range_meters":16400,"station_id":"ce4bhop2rcd13ifvqh8g","pricing_plan_id":"cebpf4jnsgd1na2vs0mg"},{"bike_id":"d6d5d12a-80c0-4acd-bbde-41f77c6e52d4","system_id":"levelo_inurba_marseille","lat":43.272,"lon":5.39195,"is_reserved":false,"is_disabled":true,"rental_uris":{"android":"levelo://app?vid=d6d5d12a-80c0-4acd-bbde-41f77c6e52d4","ios":"levelo://app?vid=d6d5d12a-80c0-4acd-bbde-41f77c6e52d4"},"vehicle_type_id":"4","last_reported":1771183012,"current_range_meters":14400,"station_id":"ce4bhhp2rcd13ifvqfm0","pricing_plan_id":"cebpf4jnsgd1na2vs0mg"},{"bike_id":"fcdc8164-8974-4034-a4c9-bef73e1a1a6f","system_id":"levelo_inurba_marseille","lat":43.28679,"lon":5.3868,"is_reserved":false,"is_disabled":true,"rental_uris":{"android":"levelo://app?vid=fcdc8164-8974-4034-a4c9-bef73e1a1a6f","ios":"levelo://app?vid=fcdc8164-8974-4034-a4c9-bef73e1a1a6f"},"vehicle_type_id":"4","last_reported":1771183012,"current_range_meters":34000,"station_id":"ce4bh492rcd13ifvqdug","pricing_plan_id":"cebpf4jnsgd1na2vs0mg"},{"bike_id":"6bb6442b-5f19-462c-a0c7-df73ed65c6a1","system_id":"levelo_inurba_marseille","lat":43.29883,"lon":5.38122,"is_reserved":false,"is_disabled":false,"rental_uris":{"android":"levelo://app?vid=6bb6442b-5f19-462c-a0c7-df73ed65c6a1","ios":"levelo://app?vid=6bb6442b-5f19-462c-a0c7-df73ed65c6a1"},"vehicle_type_id":"4","last_reported":1771183012,"current_range_meters":40000,"station_id":"ce4bgj12rcd13ifvqbc0","pricing_plan_id":"cebpf4jnsgd1na2vs0mg"},{"bike_id":"f0ad1a56-4e51-42d7-928e-1e7025027f7f","system_id":"levelo_inurba_marseille","lat":43.30263,"lon":5.37684,"is_reserved":false,"is_disabled":false,"rental_uris":{"android":"levelo://app?vid=f0ad1a56-4e51-42d7-928e-1e7025027f7f","ios":"levelo://app?vid=f0ad1a56-4e51-42d7-928e-1e7025027f7f"},"vehicle_type_id":"4","last_reported":1771183012,"current_range_meters":29600,"station_id":"ce4bguh2rcd13ifvqcj0","pricing_plan_id":"cebpf4jnsgd1na2vs0mg"},{"bike_id":"460264f3-8bc6-4c77-beaf-ea8534482f84","system_id":"levelo_inurba_marseille","lat":43.24972,"lon":5.40481,"is_reserved":false,"is_disabled":false,"rental_uris":{"android":"levelo://app?vid=460264f3-8bc6-4c77-beaf-ea8534482f84","ios":"levelo://app?vid=460264f3-8bc6-4c77-beaf-ea8534482f84"},"vehicle_type_id":"4","last_reported":1771183012,"current_range_meters":30800,"station_id":"st_d2ngiaodas8pm72gd1h0","pricing_plan_id":"cebpf4jnsgd1na2vs0mg"},{"bike_id":"bfd89baa-fbc2-45c5-8b74-3d61cb004f40","system_id":"levelo_inurba_marseille","lat":43.23796,"lon":5.36637,"is_reserved":false,"is_disabled":false,"rental_uris":{"android":"levelo://app?vid=bfd89baa-fbc2-45c5-8b74-3d61cb004f40","ios":"levelo://app?vid=bfd89baa-fbc2-45c5-8b74-3d61cb004f40"},"vehicle_type_id":"4","last_reported":1771183012,"current_range_meters":36000,"station_id":"ce4bhi12rcd13ifvqfp0","pricing_plan_id":"cebpf4jnsgd1na2vs0mg"},{"bike_id":"1e61c11e-bb48-462f-95ea-c1bf1ce34a30","system_id":"levelo_inurba_marseille","lat":43.295696,"lon":5.37501,"is_reserved":false,"is_disabled":true,"rental_uris":{"android":"levelo://app?vid=1e61c11e-bb48-462f-95ea-c1bf1ce34a30","ios":"levelo://app?vid=1e61c11e-bb48-462f-95ea-c1bf1ce34a30"},"vehicle_type_id":"4","last_reported":1771183012,"current_range_meters":38800,"station_id":"ce4bgh92rcd13ifvqb50","pricing_plan_id":"cebpf4jnsgd1na2vs0mg"},{"bike_id":"01c800ae-c300-4542-a70a-b8d02ffc839a","system_id":"levelo_inurba_marseille","lat":43.29972,"lon":5.38503,"is_reserved":false,"is_disabled":false,"rental_uris":{"android":"levelo://app?vid=01c800ae-c300-4542-a70a-b8d02ffc839a","ios":"levelo://app?vid=01c800ae-c300-4542-a70a-b8d02ffc839a"},"vehicle_type_id":"4","last_reported":1771183012,"current_range_meters":28400,"station_id":"ce4bgj92rcd13ifvqbd0","pricing_plan_id":"cebpf4jnsgd1na2vs0mg"},{"bike_id":"21477e6a-0fbf-48eb-9e8a-44289a574c26","system_id":"levelo_inurba_marseille","lat":43.28933,"lon":5.36623,"is_reserved":false,"is_disabled":true,"rental_uris":{"android":"levelo://app?vid=21477e6a-0fbf-48eb-9e8a-44289a574c26","ios":"levelo://app?vid=21477e6a-0fbf-48eb-9e8a-44289a574c26"},"vehicle_type_id":"4","last_reported":1771183012,"current_range_meters":28400,"station_id":"ce4bhap2rcd13ifvqek0","pricing_plan_id":"cebpf4jnsgd1na2vs0mg"},{"bike_id":"79fe0ffc-50eb-4d4d-9b5d-ccf40f43cda2","system_id":"levelo_inurba_marseille","lat":43.29975,"lon":5.38466,"is_reserved":false,"is_disabled":true,"rental_uris":{"android":"levelo://app?vid=79fe0ffc-50eb-4d4d-9b5d-ccf40f43cda2","ios":"levelo://app?vid=79fe0ffc-50eb-4d4d-9b5d-ccf40f43cda2"},"vehicle_type_id":"4","last_reported":1771183012,"current_range_meters":14400,"station_id":"ce4bgj92rcd13ifvqbd0","pricing_plan_id":"cebpf4jnsgd1na2vs0mg"},{"bike_id":"cb3664ce-bb87-45c7-b90c-a1425de99006","system_id":"levelo_inurba_marseille","lat":43.27208,"lon":5.39181,"is_reserved":false,"is_disabled":true,"rental_uris":{"android":"levelo://app?vid=cb3664ce-bb87-45c7-b90c-a1425de99006","ios":"levelo://app?vid=cb3664ce-bb87-45c7-b90c-a1425de99006"},"vehicle_type_id":"4","last_reported":1771183012,"current_range_meters":31200,"station_id":"ce4bhdp2rcd13ifvqf20","pricing_plan_id":"cebpf4jnsgd1na2vs0mg"},{"bike_id":"7240ea0f-2b7f-44f4-a8bd-11d01e43c61d","system_id":"levelo_inurba_marseille","lat":43.27665,"lon":5.38886,"is_reserved":false,"is_disabled":false,"rental_uris":{"android":"levelo://app?vid=7240ea0f-2b7f-44f4-a8bd-11d01e43c61d","ios":"levelo://app?vid=7240ea0f-2b7f-44f4-a8bd-11d01e43c61d"},"vehicle_type_id":"4","last_reported":1771183012,"current_range_meters":38400,"station_id":"ce4bhi12rcd13ifvqfo0","pricing_plan_id":"cebpf4jnsgd1na2vs0mg"},{"bike_id":"0c0a95d9-f93d-4e51-8b6c-94e3f53ee021","system_id":"levelo_inurba_marseille","lat":43.29011,"lon":5.38153,"is_reserved":false,"is_disabled":false,"rental_uris":{"android":"levelo://app?vid=0c0a95d9-f93d-4e51-8b6c-94e3f53ee021","ios":"levelo://app?vid=0c0a95d9-f93d-4e51-8b6c-94e3f53ee021"},"vehicle_type_id":"4","last_reported":1771183012,"current_range_meters":32800,"station_id":"ce4bh4p2rcd13ifvqe1g","pricing_plan_id":"cebpf4jnsgd1na2vs0mg"},{"bike_id":"5ebe73de-2cf7-4bc4-9047-e5658e66ceb9","system_id":"levelo_inurba_marseille","lat":43.24167,"lon":5.364,"is_reserved":false,"is_disabled":true,"rental_uris":{"android":"levelo://app?vid=5ebe73de-2cf7-4bc4-9047-e5658e66ceb9","ios":"levelo://app?vid=5ebe73de-2cf7-4bc4-9047-e5658e66ceb9"},"vehicle_type_id":"4","last_reported":1771183012,"current_range_meters":14800,"station_id":"cpo36qri1sfpv3e86is0","pricing_plan_id":"cebpf4jnsgd1na2vs0mg"},{"bike_id":"900b6c3b-2d5e-4377-b231-e5dd5c47067e","system_id":"levelo_inurba_marseille","lat":43.29192,"lon":5.3931,"is_reserved":false,"is_disabled":false,"rental_uris":{"android":"levelo://app?vid=900b6c3b-2d5e-4377-b231-e5dd5c47067e","ios":"levelo://app?vid=900b6c3b-2d5e-4377-b231-e5dd5c47067e"},"vehicle_type_id":"4","last_reported":1771183012,"current_range_meters":30400,"station_id":"ce4bh192rcd13ifvqdd0","pricing_plan_id":"cebpf4jnsgd1na2vs0mg"},{"bike_id":"5c1439a3-4b4f-419f-9804-6795c0de17fa","system_id":"levelo_inurba_marseille","lat":43.27417,"lon":5.3947,"is_reserved":false,"is_disabled":false,"rental_uris":{"android":"levelo://app?vid=5c1439a3-4b4f-419f-9804-6795c0de17fa","ios":"levelo://app?vid=5c1439a3-4b4f-419f-9804-6795c0de17fa"},"vehicle_type_id":"4","last_reported":1771183012,"current_range_meters":38000,"station_id":"ce4bhdp2rcd13ifvqf20","pricing_plan_id":"cebpf4jnsgd1na2vs0mg"},{"bike_id":"ed8b5fe8-1920-4dfd-97af-072031019259","system_id":"levelo_inurba_marseille","lat":43.26367,"lon":5.41073,"is_reserved":false,"is_disabled":false,"rental_uris":{"android":"levelo://app?vid=ed8b5fe8-1920-4dfd-97af-072031019259","ios":"levelo://app?vid=ed8b5fe8-1920-4dfd-97af-072031019259"},"vehicle_type_id":"4","last_reported":1771183012,"current_range_meters":32400,"station_id":"st_d4e5ca6na9uc73bfl5fg","pricing_plan_id":"cebpf4jnsgd1na2vs0mg"},{"bike_id":"90fbdb23-dd88-48cc-b007-d8ab22a05e67","system_id":"levelo_inurba_marseille","lat":43.28928,"lon":5.38389,"is_reserved":false,"is_disabled":false,"rental_uris":{"android":"levelo://app?vid=90fbdb23-dd88-48cc-b007-d8ab22a05e67","ios":"levelo://app?vid=90fbdb23-dd88-48cc-b007-d8ab22a05e67"},"vehicle_type_id":"4","last_reported":1771183012,"current_range_meters":18800,"station_id":"ce4bh612rcd13ifvqe6g","pricing_plan_id":"cebpf4jnsgd1na2vs0mg"},{"bike_id":"c84892b3-eb4b-4559-98db-0e8ff16c6ff1","system_id":"levelo_inurba_marseille","lat":43.32658,"lon":5.41006,"is_reserved":false,"is_disabled":false,"rental_uris":{"android":"levelo://app?vid=c84892b3-eb4b-4559-98db-0e8ff16c6ff1","ios":"levelo://app?vid=c84892b3-eb4b-4559-98db-0e8ff16c6ff1"},"vehicle_type_id":"4","last_reported":1771183012,"current_range_meters":34800,"station_id":"ce4bhpp2rcd13ifvqhgg","pricing_plan_id":"cebpf4jnsgd1na2vs0mg"},{"bike_id":"d97604ce-364c-459d-8875-8f54c335d253","system_id":"levelo_inurba_marseille","lat":43.24702,"lon":5.41726,"is_reserved":false,"is_disabled":false,"rental_uris":{"android":"levelo://app?vid=d97604ce-364c-459d-8875-8f54c335d253","ios":"levelo://app?vid=d97604ce-364c-459d-8875-8f54c335d253"},"vehicle_type_id":"4","last_reported":1771183012,"current_range_meters":8000,"station_id":"","pricing_plan_id":"cebpf4jnsgd1na2vs0mg"},{"bike_id":"44c1ea45-e188-4dac-b4d6-034f4711617f","system_id":"levelo_inurba_marseille","lat":43.29298,"lon":5.36926,"is_reserved":false,"is_disabled":false,"rental_uris":{"android":"levelo://app?vid=44c1ea45-e188-4dac-b4d6-034f4711617f","ios":"levelo://app?vid=44c1ea45-e188-4dac-b4d6-034f4711617f"},"vehicle_type_id":"4","last_reported":1771183012,"current_range_meters":30800,"station_id":"ce4bhbp2rcd13ifvqesg","pricing_plan_id":"cebpf4jnsgd1na2vs0mg"},{"bike_id":"79a7e591-1b27-4aab-b9f7-840e2732a2bc","system_id":"levelo_inurba_marseille","lat":43.31719,"lon":5.40455,"is_reserved":false,"is_disabled":false,"rental_uris":{"android":"levelo://app?vid=79a7e591-1b27-4aab-b9f7-840e2732a2bc","ios":"levelo://app?vid=79a7e591-1b27-4aab-b9f7-840e2732a2bc"},"vehicle_type_id":"4","last_reported":1771183012,"current_range_meters":3600,"station_id":"ce4bh012rcd13ifvqd00","pricing_plan_id":"cebpf4jnsgd1na2vs0mg"},{"bike_id":"98636738-9a5c-46c8-8427-b4b4cd79389e","system_id":"levelo_inurba_marseille","lat":43.29598,"lon":5.38126,"is_reserved":false,"is_disabled":false,"rental_uris":{"android":"levelo://app?vid=98636738-9a5c-46c8-8427-b4b4cd79389e","ios":"levelo://app?vid=98636738-9a5c-46c8-8427-b4b4cd79389e"},"vehicle_type_id":"4","last_reported":1771183012,"current_range_meters":20000,"station_id":"ce4bgl12rcd13ifvqbo0","pricing_plan_id":"cebpf4jnsgd1na2vs0mg"},{"bike_id":"e32d5221-ca1c-4772-a5c6-26646d9ed343","system_id":"levelo_inurba_marseille","lat":43.27828,"lon":5.39217,"is_reserved":false,"is_disabled":false,"rental_uris":{"android":"levelo://app?vid=e32d5221-ca1c-4772-a5c6-26646d9ed343","ios":"levelo://app?vid=e32d5221-ca1c-4772-a5c6-26646d9ed343"},"vehicle_type_id":"4","last_reported":1771183012,"current_range_meters":37600,"station_id":"ce4bhjp2rcd13ifvqga0","pricing_plan_id":"cebpf4jnsgd1na2vs0mg"},{"bike_id":"4409542b-ea1d-4d8b-96a1-c40474b77bff","system_id":"levelo_inurba_marseille","lat":43.29958,"lon":5.3855,"is_reserved":false,"is_disabled":false,"rental_uris":{"android":"levelo://app?vid=4409542b-ea1d-4d8b-96a1-c40474b77bff","ios":"levelo://app?vid=4409542b-ea1d-4d8b-96a1-c40474b77bff"},"vehicle_type_id":"4","last_reported":1771183012,"current_range_meters":27200,"station_id":"","pricing_plan_id":"cebpf4jnsgd1na2vs0mg"},{"bike_id":"e4d4c284-28ad-482b-9ff4-d0399390b2a0","system_id":"levelo_inurba_marseille","lat":43.30202,"lon":5.36638,"is_reserved":false,"is_disabled":false,"rental_uris":{"android":"levelo://app?vid=e4d4c284-28ad-482b-9ff4-d0399390b2a0","ios":"levelo://app?vid=e4d4c284-28ad-482b-9ff4-d0399390b2a0"},"vehicle_type_id":"4","last_reported":1771183012,"current_range_meters":39200,"station_id":"ce4bgrh2rcd13ifvqc8g","pricing_plan_id":"cebpf4jnsgd1na2vs0mg"},{"bike_id":"125e011b-4a09-46ca-94c4-958704b75201","system_id":"levelo_inurba_marseille","lat":43.24063,"lon":5.37697,"is_reserved":false,"is_disabled":false,"rental_uris":{"android":"levelo://app?vid=125e011b-4a09-46ca-94c4-958704b75201","ios":"levelo://app?vid=125e011b-4a09-46ca-94c4-958704b75201"},"vehicle_type_id":"4","last_reported":1771183012,"current_range_meters":32400,"station_id":"ce4bhnp2rcd13ifvqgvg","pricing_plan_id":"cebpf4jnsgd1na2vs0mg"},{"bike_id":"7e1f0635-eba2-4277-aaed-97dad1711a86","system_id":"levelo_inurba_marseille","lat":43.308972,"lon":5.371926,"is_reserved":false,"is_disabled":false,"rental_uris":{"android":"levelo://app?vid=7e1f0635-eba2-4277-aaed-97dad1711a86","ios":"levelo://app?vid=7e1f0635-eba2-4277-aaed-97dad1711a86"},"vehicle_type_id":"4","last_reported":1771183012,"current_range_meters":11600,"station_id":"ce4bguh2rcd13ifvqckg","pricing_plan_id":"cebpf4jnsgd1na2vs0mg"},{"bike_id":"b7fcb2da-5243-440b-926b-4edc89af4b76","system_id":"levelo_inurba_marseille","lat":43.27984,"lon":5.40057,"is_reserved":false,"is_disabled":false,"rental_uris":{"android":"levelo://app?vid=b7fcb2da-5243-440b-926b-4edc89af4b76","ios":"levelo://app?vid=b7fcb2da-5243-440b-926b-4edc89af4b76"},"vehicle_type_id":"4","last_reported":1771183012,"current_range_meters":22000,"station_id":"ce4bho92rcd13ifvqh4g","pricing_plan_id":"cebpf4jnsgd1na2vs0mg"},{"bike_id":"de23c09b-999d-4731-91c0-faf2e4461159","system_id":"levelo_inurba_marseille","lat":43.29224,"lon":5.36059,"is_reserved":false,"is_disabled":false,"rental_uris":{"android":"levelo://app?vid=de23c09b-999d-4731-91c0-faf2e4461159","ios":"levelo://app?vid=de23c09b-999d-4731-91c0-faf2e4461159"},"vehicle_type_id":"4","last_reported":1771183012,"current_range_meters":6800,"station_id":"ce4bhbh2rcd13ifvqeqg","pricing_plan_id":"cebpf4jnsgd1na2vs0mg"},{"bike_id":"d22f4ee9-1e35-4339-bd68-5bd716d18ca6","system_id":"levelo_inurba_marseille","lat":43.31222,"lon":5.36863,"is_reserved":false,"is_disabled":false,"rental_uris":{"android":"levelo://app?vid=d22f4ee9-1e35-4339-bd68-5bd716d18ca6","ios":"levelo://app?vid=d22f4ee9-1e35-4339-bd68-5bd716d18ca6"},"vehicle_type_id":"4","last_reported":1771183012,"current_range_meters":18800,"station_id":"ce4bgl92rcd13ifvqbq0","pricing_plan_id":"cebpf4jnsgd1na2vs0mg"},{"bike_id":"0cc2918b-b433-4ce0-97e8-2fc8fa58f178","system_id":"levelo_inurba_marseille","lat":43.29522,"lon":5.37516,"is_reserved":false,"is_disabled":false,"rental_uris":{"android":"levelo://app?vid=0cc2918b-b433-4ce0-97e8-2fc8fa58f178","ios":"levelo://app?vid=0cc2918b-b433-4ce0-97e8-2fc8fa58f178"},"vehicle_type_id":"4","last_reported":1771183012,"current_range_meters":36000,"station_id":"ce4bgkp2rcd13ifvqbmg","pricing_plan_id":"cebpf4jnsgd1na2vs0mg"},{"bike_id":"5ad7601a-2492-4571-8357-cd6f7efdc8d6","system_id":"levelo_inurba_marseille","lat":43.29217,"lon":5.36063,"is_reserved":false,"is_disabled":false,"rental_uris":{"android":"levelo://app?vid=5ad7601a-2492-4571-8357-cd6f7efdc8d6","ios":"levelo://app?vid=5ad7601a-2492-4571-8357-cd6f7efdc8d6"},"vehicle_type_id":"4","last_reported":1771183012,"current_range_meters":36800,"station_id":"ce4bhbh2rcd13ifvqeqg","pricing_plan_id":"cebpf4jnsgd1na2vs0mg"},{"bike_id":"082d7188-6986-4402-9f74-688922c9aa84","system_id":"levelo_inurba_marseille","lat":43.25116,"lon":5.40363,"is_reserved":false,"is_disabled":true,"rental_uris":{"android":"levelo://app?vid=082d7188-6986-4402-9f74-688922c9aa84","ios":"levelo://app?vid=082d7188-6986-4402-9f74-688922c9aa84"},"vehicle_type_id":"4","last_reported":1771183012,"current_range_meters":36800,"station_id":"ce4bhlh2rcd13ifvqgig","pricing_plan_id":"cebpf4jnsgd1na2vs0mg"},{"bike_id":"7cdae2e1-5306-459b-96ab-2c3aaae39e37","system_id":"levelo_inurba_marseille","lat":43.25,"lon":5.38935,"is_reserved":false,"is_disabled":false,"rental_uris":{"android":"levelo://app?vid=7cdae2e1-5306-459b-96ab-2c3aaae39e37","ios":"levelo://app?vid=7cdae2e1-5306-459b-96ab-2c3aaae39e37"},"vehicle_type_id":"4","last_reported":1771183012,"current_range_meters":33600,"station_id":"ce4bhgp2rcd13ifvqfd0","pricing_plan_id":"cebpf4jnsgd1na2vs0mg"},{"bike_id":"9664a5c4-41bd-49a0-bca7-ccecab569b6a","system_id":"levelo_inurba_marseille","lat":43.3204,"lon":5.41537,"is_reserved":false,"is_disabled":false,"rental_uris":{"android":"levelo://app?vid=9664a5c4-41bd-49a0-bca7-ccecab569b6a","ios":"levelo://app?vid=9664a5c4-41bd-49a0-bca7-ccecab569b6a"},"vehicle_type_id":"4","last_reported":1771183012,"current_range_meters":38800,"station_id":"ce4bhq92rcd13ifvqhkg","pricing_plan_id":"cebpf4jnsgd1na2vs0mg"},{"bike_id":"30de403d-aee7-4467-9e50-3761f2a5df5e","system_id":"levelo_inurba_marseille","lat":43.28431,"lon":5.3921,"is_reserved":false,"is_disabled":true,"rental_uris":{"android":"levelo://app?vid=30de403d-aee7-4467-9e50-3761f2a5df5e","ios":"levelo://app?vid=30de403d-aee7-4467-9e50-3761f2a5df5e"},"vehicle_type_id":"4","last_reported":1771183012,"current_range_meters":38400,"station_id":"ce4bhoh2rcd13ifvqh5g","pricing_plan_id":"cebpf4jnsgd1na2vs0mg"},{"bike_id":"0664bc9f-767f-467e-a2c8-c71096fcbc2b","system_id":"levelo_inurba_marseille","lat":43.305751,"lon":5.365361,"is_reserved":false,"is_disabled":false,"rental_uris":{"android":"levelo://app?vid=0664bc9f-767f-467e-a2c8-c71096fcbc2b","ios":"levelo://app?vid=0664bc9f-767f-467e-a2c8-c71096fcbc2b"},"vehicle_type_id":"4","last_reported":1771183012,"current_range_meters":26800,"station_id":"ce4bgs12rcd13ifvqcag","pricing_plan_id":"cebpf4jnsgd1na2vs0mg"},{"bike_id":"06ca1e50-0c57-4308-ab33-37f48737feed","system_id":"levelo_inurba_marseille","lat":43.3316,"lon":5.37694,"is_reserved":false,"is_disabled":false,"rental_uris":{"android":"levelo://app?vid=06ca1e50-0c57-4308-ab33-37f48737feed","ios":"levelo://app?vid=06ca1e50-0c57-4308-ab33-37f48737feed"},"vehicle_type_id":"4","last_reported":1771183012,"current_range_meters":18000,"station_id":"st_d46cu089ee8s73dldbu0","pricing_plan_id":"cebpf4jnsgd1na2vs0mg"},{"bike_id":"a40147a5-bbf0-4381-a348-9cea87200b78","system_id":"levelo_inurba_marseille","lat":43.2606,"lon":5.39409,"is_reserved":false,"is_disabled":false,"rental_uris":{"android":"levelo://app?vid=a40147a5-bbf0-4381-a348-9cea87200b78","ios":"levelo://app?vid=a40147a5-bbf0-4381-a348-9cea87200b78"},"vehicle_type_id":"4","last_reported":1771183012,"current_range_meters":14400,"station_id":"ce4bhh92rcd13ifvqfj0","pricing_plan_id":"cebpf4jnsgd1na2vs0mg"},{"bike_id":"bae1dbdd-eec7-44bf-9469-fb241658fdbb","system_id":"levelo_inurba_marseille","lat":43.28942,"lon":5.36647,"is_reserved":false,"is_disabled":false,"rental_uris":{"android":"levelo://app?vid=bae1dbdd-eec7-44bf-9469-fb241658fdbb","ios":"levelo://app?vid=bae1dbdd-eec7-44bf-9469-fb241658fdbb"},"vehicle_type_id":"4","last_reported":1771183012,"current_range_meters":24000,"station_id":"ce4bhap2rcd13ifvqek0","pricing_plan_id":"cebpf4jnsgd1na2vs0mg"},{"bike_id":"abb5386c-aa85-45f1-b3a9-55f4ea4e4b5b","system_id":"levelo_inurba_marseille","lat":43.24946,"lon":5.40493,"is_reserved":false,"is_disabled":true,"rental_uris":{"android":"levelo://app?vid=abb5386c-aa85-45f1-b3a9-55f4ea4e4b5b","ios":"levelo://app?vid=abb5386c-aa85-45f1-b3a9-55f4ea4e4b5b"},"vehicle_type_id":"4","last_reported":1771183012,"current_range_meters":33600,"station_id":"st_d2ngiaodas8pm72gd1h0","pricing_plan_id":"cebpf4jnsgd1na2vs0mg"},{"bike_id":"ed5548bc-62cc-4d35-8f24-dd46dc5c1ee5","system_id":"levelo_inurba_marseille","lat":43.29043,"lon":5.3593,"is_reserved":false,"is_disabled":false,"rental_uris":{"android":"levelo://app?vid=ed5548bc-62cc-4d35-8f24-dd46dc5c1ee5","ios":"levelo://app?vid=ed5548bc-62cc-4d35-8f24-dd46dc5c1ee5"},"vehicle_type_id":"4","last_reported":1771183012,"current_range_meters":40000,"station_id":"ce4bha92rcd13ifvqeg0","pricing_plan_id":"cebpf4jnsgd1na2vs0mg"},{"bike_id":"579af26e-548a-4f86-9c31-c74739ec3a56","system_id":"levelo_inurba_marseille","lat":43.29803,"lon":5.37121,"is_reserved":false,"is_disabled":false,"rental_uris":{"android":"levelo://app?vid=579af26e-548a-4f86-9c31-c74739ec3a56","ios":"levelo://app?vid=579af26e-548a-4f86-9c31-c74739ec3a56"},"vehicle_type_id":"4","last_reported":1771183012,"current_range_meters":26800,"station_id":"ce4bgop2rcd13ifvqc1g","pricing_plan_id":"cebpf4jnsgd1na2vs0mg"},{"bike_id":"242f7311-d2cc-4df7-a0f0-7c6d245cdc25","system_id":"levelo_inurba_marseille","lat":43.323586,"lon":5.367542,"is_reserved":false,"is_disabled":false,"rental_uris":{"android":"levelo://app?vid=242f7311-d2cc-4df7-a0f0-7c6d245cdc25","ios":"levelo://app?vid=242f7311-d2cc-4df7-a0f0-7c6d245cdc25"},"vehicle_type_id":"4","last_reported":1771183012,"current_range_meters":19600,"station_id":"ce4bhsh2rcd13ifvqi2g","pricing_plan_id":"cebpf4jnsgd1na2vs0mg"},{"bike_id":"1c552d2a-5637-49d5-bd03-c19868d9f5f0","system_id":"levelo_inurba_marseille","lat":43.274929,"lon":5.424473,"is_reserved":false,"is_disabled":false,"rental_uris":{"android":"levelo://app?vid=1c552d2a-5637-49d5-bd03-c19868d9f5f0","ios":"levelo://app?vid=1c552d2a-5637-49d5-bd03-c19868d9f5f0"},"vehicle_type_id":"4","last_reported":1771183012,"current_range_meters":12800,"station_id":"ce4bhn92rcd13ifvqgrg","pricing_plan_id":"cebpf4jnsgd1na2vs0mg"},{"bike_id":"1c376293-36a4-4bd9-a121-a0f5ce367cc0","system_id":"levelo_inurba_marseille","lat":43.295983,"lon":5.380903,"is_reserved":false,"is_disabled":true,"rental_uris":{"android":"levelo://app?vid=1c376293-36a4-4bd9-a121-a0f5ce367cc0","ios":"levelo://app?vid=1c376293-36a4-4bd9-a121-a0f5ce367cc0"},"vehicle_type_id":"4","last_reported":1771183012,"current_range_meters":0,"station_id":"ce4bgl12rcd13ifvqbo0","pricing_plan_id":"cebpf4jnsgd1na2vs0mg"},{"bike_id":"97ebd584-accc-4ff9-bdb7-a1f9903c0787","system_id":"levelo_inurba_marseille","lat":43.29222,"lon":5.3605,"is_reserved":false,"is_disabled":false,"rental_uris":{"android":"levelo://app?vid=97ebd584-accc-4ff9-bdb7-a1f9903c0787","ios":"levelo://app?vid=97ebd584-accc-4ff9-bdb7-a1f9903c0787"},"vehicle_type_id":"4","last_reported":1771183012,"current_range_meters":38000,"station_id":"ce4bhbh2rcd13ifvqeqg","pricing_plan_id":"cebpf4jnsgd1na2vs0mg"},{"bike_id":"0aab36e4-5ef7-4167-bb66-70976483d07d","system_id":"levelo_inurba_marseille","lat":43.292705,"lon":5.384358,"is_reserved":false,"is_disabled":false,"rental_uris":{"android":"levelo://app?vid=0aab36e4-5ef7-4167-bb66-70976483d07d","ios":"levelo://app?vid=0aab36e4-5ef7-4167-bb66-70976483d07d"},"vehicle_type_id":"4","last_reported":1771183012,"current_range_meters":14000,"station_id":"ce4bh692rcd13ifvqea0","pricing_plan_id":"cebpf4jnsgd1na2vs0mg"},{"bike_id":"6c7943af-6e92-4953-a34a-12fc5eb44b53","system_id":"levelo_inurba_marseille","lat":43.29902,"lon":5.38177,"is_reserved":false,"is_disabled":false,"rental_uris":{"android":"levelo://app?vid=6c7943af-6e92-4953-a34a-12fc5eb44b53","ios":"levelo://app?vid=6c7943af-6e92-4953-a34a-12fc5eb44b53"},"vehicle_type_id":"4","last_reported":1771183012,"current_range_meters":39200,"station_id":"ce4bgj12rcd13ifvqbc0","pricing_plan_id":"cebpf4jnsgd1na2vs0mg"},{"bike_id":"af14ffb7-f097-4d2f-abf2-2d568989ce76","system_id":"levelo_inurba_marseille","lat":43.314849,"lon":5.391158,"is_reserved":false,"is_disabled":false,"rental_uris":{"android":"levelo://app?vid=af14ffb7-f097-4d2f-abf2-2d568989ce76","ios":"levelo://app?vid=af14ffb7-f097-4d2f-abf2-2d568989ce76"},"vehicle_type_id":"4","last_reported":1771183012,"current_range_meters":32800,"station_id":"","pricing_plan_id":"cebpf4jnsgd1na2vs0mg"},{"bike_id":"145e6984-28ea-4666-b90f-7d63cfee56d4","system_id":"levelo_inurba_marseille","lat":43.27491,"lon":5.42454,"is_reserved":false,"is_disabled":false,"rental_uris":{"android":"levelo://app?vid=145e6984-28ea-4666-b90f-7d63cfee56d4","ios":"levelo://app?vid=145e6984-28ea-4666-b90f-7d63cfee56d4"},"vehicle_type_id":"4","last_reported":1771183012,"current_range_meters":32400,"station_id":"ce4bhn92rcd13ifvqgrg","pricing_plan_id":"cebpf4jnsgd1na2vs0mg"},{"bike_id":"361472a9-140d-4e92-9e16-c96fbc664522","system_id":"levelo_inurba_marseille","lat":43.24166,"lon":5.36419,"is_reserved":false,"is_disabled":false,"rental_uris":{"android":"levelo://app?vid=361472a9-140d-4e92-9e16-c96fbc664522","ios":"levelo://app?vid=361472a9-140d-4e92-9e16-c96fbc664522"},"vehicle_type_id":"4","last_reported":1771183012,"current_range_meters":9600,"station_id":"cpo36qri1sfpv3e86is0","pricing_plan_id":"cebpf4jnsgd1na2vs0mg"},{"bike_id":"b9090109-0e85-4d33-94b9-9c3dce7583a5","system_id":"levelo_inurba_marseille","lat":43.31708,"lon":5.43701,"is_reserved":false,"is_disabled":false,"rental_uris":{"android":"levelo://app?vid=b9090109-0e85-4d33-94b9-9c3dce7583a5","ios":"levelo://app?vid=b9090109-0e85-4d33-94b9-9c3dce7583a5"},"vehicle_type_id":"4","last_reported":1771183012,"current_range_meters":24400,"station_id":"ce4bhp92rcd13ifvqhcg","pricing_plan_id":"cebpf4jnsgd1na2vs0mg"},{"bike_id":"ee286eea-5c31-4ed9-a873-d32b0eb3cbe8","system_id":"levelo_inurba_marseille","lat":43.25113,"lon":5.40343,"is_reserved":false,"is_disabled":false,"rental_uris":{"android":"levelo://app?vid=ee286eea-5c31-4ed9-a873-d32b0eb3cbe8","ios":"levelo://app?vid=ee286eea-5c31-4ed9-a873-d32b0eb3cbe8"},"vehicle_type_id":"4","last_reported":1771183012,"current_range_meters":14000,"station_id":"ce4bhlh2rcd13ifvqgig","pricing_plan_id":"cebpf4jnsgd1na2vs0mg"},{"bike_id":"49a391b4-4a87-46fa-a21c-cc41412de409","system_id":"levelo_inurba_marseille","lat":43.27063,"lon":5.3829,"is_reserved":false,"is_disabled":true,"rental_uris":{"android":"levelo://app?vid=49a391b4-4a87-46fa-a21c-cc41412de409","ios":"levelo://app?vid=49a391b4-4a87-46fa-a21c-cc41412de409"},"vehicle_type_id":"4","last_reported":1771183012,"current_range_meters":800,"station_id":"st_d3n2fo6cfp8s73cte1j0","pricing_plan_id":"cebpf4jnsgd1na2vs0mg"},{"bike_id":"79ba23c9-5d93-4d3b-9fba-08fafebf1a9e","system_id":"levelo_inurba_marseille","lat":43.28572,"lon":5.39498,"is_reserved":false,"is_disabled":false,"rental_uris":{"android":"levelo://app?vid=79ba23c9-5d93-4d3b-9fba-08fafebf1a9e","ios":"levelo://app?vid=79ba23c9-5d93-4d3b-9fba-08fafebf1a9e"},"vehicle_type_id":"4","last_reported":1771183012,"current_range_meters":36000,"station_id":"ce4bh292rcd13ifvqdg0","pricing_plan_id":"cebpf4jnsgd1na2vs0mg"},{"bike_id":"377c466e-e4e3-44f9-bfe1-0b19350e0961","system_id":"levelo_inurba_marseille","lat":43.29909,"lon":5.38158,"is_reserved":false,"is_disabled":false,"rental_uris":{"android":"levelo://app?vid=377c466e-e4e3-44f9-bfe1-0b19350e0961","ios":"levelo://app?vid=377c466e-e4e3-44f9-bfe1-0b19350e0961"},"vehicle_type_id":"4","last_reported":1771183012,"current_range_meters":38000,"station_id":"ce4bgj12rcd13ifvqbc0","pricing_plan_id":"cebpf4jnsgd1na2vs0mg"},{"bike_id":"14e2d3fb-6c68-42f9-a053-741cc12027ec","system_id":"levelo_inurba_marseille","lat":43.245419,"lon":5.395159,"is_reserved":false,"is_disabled":true,"rental_uris":{"android":"levelo://app?vid=14e2d3fb-6c68-42f9-a053-741cc12027ec","ios":"levelo://app?vid=14e2d3fb-6c68-42f9-a053-741cc12027ec"},"vehicle_type_id":"4","last_reported":1771183012,"current_range_meters":8000,"station_id":"","pricing_plan_id":"cebpf4jnsgd1na2vs0mg"},{"bike_id":"fef2ac6e-7218-4409-ada0-4bd0bcbfe427","system_id":"levelo_inurba_marseille","lat":43.24643,"lon":5.43173,"is_reserved":false,"is_disabled":false,"rental_uris":{"android":"levelo://app?vid=fef2ac6e-7218-4409-ada0-4bd0bcbfe427","ios":"levelo://app?vid=fef2ac6e-7218-4409-ada0-4bd0bcbfe427"},"vehicle_type_id":"4","last_reported":1771183012,"current_range_meters":19200,"station_id":"st_d2m6c4gdas8pm72e190g","pricing_plan_id":"cebpf4jnsgd1na2vs0mg"},{"bike_id":"c4c10e35-2c8f-4cf6-8bc3-3d0868f5168a","system_id":"levelo_inurba_marseille","lat":43.29956,"lon":5.41331,"is_reserved":false,"is_disabled":false,"rental_uris":{"android":"levelo://app?vid=c4c10e35-2c8f-4cf6-8bc3-3d0868f5168a","ios":"levelo://app?vid=c4c10e35-2c8f-4cf6-8bc3-3d0868f5168a"},"vehicle_type_id":"4","last_reported":1771183012,"current_range_meters":27600,"station_id":"ce4bhp12rcd13ifvqh9g","pricing_plan_id":"cebpf4jnsgd1na2vs0mg"},{"bike_id":"91551ca7-df3c-46ae-b740-97d8aad399d4","system_id":"levelo_inurba_marseille","lat":43.26058,"lon":5.39391,"is_reserved":false,"is_disabled":false,"rental_uris":{"android":"levelo://app?vid=91551ca7-df3c-46ae-b740-97d8aad399d4","ios":"levelo://app?vid=91551ca7-df3c-46ae-b740-97d8aad399d4"},"vehicle_type_id":"4","last_reported":1771183012,"current_range_meters":35600,"station_id":"ce4bhh92rcd13ifvqfj0","pricing_plan_id":"cebpf4jnsgd1na2vs0mg"},{"bike_id":"1d7787fe-197f-4030-b718-5c269acf2b98","system_id":"levelo_inurba_marseille","lat":43.29531,"lon":5.38538,"is_reserved":false,"is_disabled":false,"rental_uris":{"android":"levelo://app?vid=1d7787fe-197f-4030-b718-5c269acf2b98","ios":"levelo://app?vid=1d7787fe-197f-4030-b718-5c269acf2b98"},"vehicle_type_id":"4","last_reported":1771183012,"current_range_meters":24000,"station_id":"ce4bgih2rcd13ifvqba0","pricing_plan_id":"cebpf4jnsgd1na2vs0mg"},{"bike_id":"3c5b9709-56ab-435f-a219-140f4375bdd5","system_id":"levelo_inurba_marseille","lat":43.30796,"lon":5.38162,"is_reserved":false,"is_disabled":false,"rental_uris":{"android":"levelo://app?vid=3c5b9709-56ab-435f-a219-140f4375bdd5","ios":"levelo://app?vid=3c5b9709-56ab-435f-a219-140f4375bdd5"},"vehicle_type_id":"4","last_reported":1771183012,"current_range_meters":10000,"station_id":"ce4bgt12rcd13ifvqce0","pricing_plan_id":"cebpf4jnsgd1na2vs0mg"},{"bike_id":"d4670548-9172-4b16-b5c3-eb7711e2dc11","system_id":"levelo_inurba_marseille","lat":43.29009,"lon":5.38148,"is_reserved":false,"is_disabled":false,"rental_uris":{"android":"levelo://app?vid=d4670548-9172-4b16-b5c3-eb7711e2dc11","ios":"levelo://app?vid=d4670548-9172-4b16-b5c3-eb7711e2dc11"},"vehicle_type_id":"4","last_reported":1771183012,"current_range_meters":38000,"station_id":"ce4bh4p2rcd13ifvqe1g","pricing_plan_id":"cebpf4jnsgd1na2vs0mg"},{"bike_id":"23f101f2-5af2-4076-be66-b4401f342141","system_id":"levelo_inurba_marseille","lat":43.29048,"lon":5.3717,"is_reserved":false,"is_disabled":false,"rental_uris":{"android":"levelo://app?vid=23f101f2-5af2-4076-be66-b4401f342141","ios":"levelo://app?vid=23f101f2-5af2-4076-be66-b4401f342141"},"vehicle_type_id":"4","last_reported":1771183012,"current_range_meters":36000,"station_id":"ce4bh5p2rcd13ifvqe4g","pricing_plan_id":"cebpf4jnsgd1na2vs0mg"},{"bike_id":"2329cc2a-0c6e-43fb-b187-08e448b3cbeb","system_id":"levelo_inurba_marseille","lat":43.30802,"lon":5.38085,"is_reserved":false,"is_disabled":false,"rental_uris":{"android":"levelo://app?vid=2329cc2a-0c6e-43fb-b187-08e448b3cbeb","ios":"levelo://app?vid=2329cc2a-0c6e-43fb-b187-08e448b3cbeb"},"vehicle_type_id":"4","last_reported":1771183012,"current_range_meters":38000,"station_id":"","pricing_plan_id":"cebpf4jnsgd1na2vs0mg"},{"bike_id":"c4ec75e9-b8c8-4de8-9857-e5ce9c774e35","system_id":"levelo_inurba_marseille","lat":43.29183,"lon":5.35803,"is_reserved":false,"is_disabled":false,"rental_uris":{"android":"levelo://app?vid=c4ec75e9-b8c8-4de8-9857-e5ce9c774e35","ios":"levelo://app?vid=c4ec75e9-b8c8-4de8-9857-e5ce9c774e35"},"vehicle_type_id":"4","last_reported":1771183012,"current_range_meters":35200,"station_id":"ce4bhb12rcd13ifvqel0","pricing_plan_id":"cebpf4jnsgd1na2vs0mg"},{"bike_id":"e5866f9c-7f01-4f68-826c-5019be0d6644","system_id":"levelo_inurba_marseille","lat":43.28687,"lon":5.35505,"is_reserved":false,"is_disabled":true,"rental_uris":{"android":"levelo://app?vid=e5866f9c-7f01-4f68-826c-5019be0d6644","ios":"levelo://app?vid=e5866f9c-7f01-4f68-826c-5019be0d6644"},"vehicle_type_id":"4","last_reported":1771183012,"current_range_meters":6800,"station_id":"","pricing_plan_id":"cebpf4jnsgd1na2vs0mg"},{"bike_id":"fa5a3108-faca-4246-a221-debe22f9b953","system_id":"levelo_inurba_marseille","lat":43.2965,"lon":5.37692,"is_reserved":false,"is_disabled":false,"rental_uris":{"android":"levelo://app?vid=fa5a3108-faca-4246-a221-debe22f9b953","ios":"levelo://app?vid=fa5a3108-faca-4246-a221-debe22f9b953"},"vehicle_type_id":"4","last_reported":1771183012,"current_range_meters":25200,"station_id":"ce4bgi92rcd13ifvqb90","pricing_plan_id":"cebpf4jnsgd1na2vs0mg"},{"bike_id":"e018a771-e6cc-4dbb-ae8f-d64b2a69a720","system_id":"levelo_inurba_marseille","lat":43.2737,"lon":5.3627,"is_reserved":false,"is_disabled":false,"rental_uris":{"android":"levelo://app?vid=e018a771-e6cc-4dbb-ae8f-d64b2a69a720","ios":"levelo://app?vid=e018a771-e6cc-4dbb-ae8f-d64b2a69a720"},"vehicle_type_id":"4","last_reported":1771183012,"current_range_meters":28000,"station_id":"ce4bhbh2rcd13ifvqeo0","pricing_plan_id":"cebpf4jnsgd1na2vs0mg"},{"bike_id":"10c2514e-3e10-48b8-b25f-5593fed86aaf","system_id":"levelo_inurba_marseille","lat":43.286175,"lon":5.350969,"is_reserved":false,"is_disabled":false,"rental_uris":{"android":"levelo://app?vid=10c2514e-3e10-48b8-b25f-5593fed86aaf","ios":"levelo://app?vid=10c2514e-3e10-48b8-b25f-5593fed86aaf"},"vehicle_type_id":"4","last_reported":1771183012,"current_range_meters":26000,"station_id":"ce4bhch2rcd13ifvqeug","pricing_plan_id":"cebpf4jnsgd1na2vs0mg"},{"bike_id":"77d97ba8-97db-4bc9-8294-a1d06adce358","system_id":"levelo_inurba_marseille","lat":43.274856,"lon":5.424481,"is_reserved":false,"is_disabled":false,"rental_uris":{"android":"levelo://app?vid=77d97ba8-97db-4bc9-8294-a1d06adce358","ios":"levelo://app?vid=77d97ba8-97db-4bc9-8294-a1d06adce358"},"vehicle_type_id":"4","last_reported":1771183012,"current_range_meters":19200,"station_id":"ce4bhn92rcd13ifvqgrg","pricing_plan_id":"cebpf4jnsgd1na2vs0mg"},{"bike_id":"2e890998-6b11-4d43-89b1-bf06a6d503ec","system_id":"levelo_inurba_marseille","lat":43.25127,"lon":5.40327,"is_reserved":false,"is_disabled":false,"rental_uris":{"android":"levelo://app?vid=2e890998-6b11-4d43-89b1-bf06a6d503ec","ios":"levelo://app?vid=2e890998-6b11-4d43-89b1-bf06a6d503ec"},"vehicle_type_id":"4","last_reported":1771183012,"current_range_meters":38800,"station_id":"ce4bhlh2rcd13ifvqgig","pricing_plan_id":"cebpf4jnsgd1na2vs0mg"},{"bike_id":"a75398a4-d0b6-4900-9674-fe78395921f4","system_id":"levelo_inurba_marseille","lat":43.30537,"lon":5.36706,"is_reserved":false,"is_disabled":false,"rental_uris":{"android":"levelo://app?vid=a75398a4-d0b6-4900-9674-fe78395921f4","ios":"levelo://app?vid=a75398a4-d0b6-4900-9674-fe78395921f4"},"vehicle_type_id":"4","last_reported":1771183012,"current_range_meters":32000,"station_id":"ce4bgrp2rcd13ifvqc9g","pricing_plan_id":"cebpf4jnsgd1na2vs0mg"},{"bike_id":"a92fb365-ee82-44c4-821b-d3a91cb9251a","system_id":"levelo_inurba_marseille","lat":43.31176,"lon":5.36896,"is_reserved":false,"is_disabled":false,"rental_uris":{"android":"levelo://app?vid=a92fb365-ee82-44c4-821b-d3a91cb9251a","ios":"levelo://app?vid=a92fb365-ee82-44c4-821b-d3a91cb9251a"},"vehicle_type_id":"4","last_reported":1771183012,"current_range_meters":30000,"station_id":"","pricing_plan_id":"cebpf4jnsgd1na2vs0mg"},{"bike_id":"a2749dad-a07d-45a5-b48d-09e644d3c272","system_id":"levelo_inurba_marseille","lat":43.29537,"lon":5.37496,"is_reserved":false,"is_disabled":false,"rental_uris":{"android":"levelo://app?vid=a2749dad-a07d-45a5-b48d-09e644d3c272","ios":"levelo://app?vid=a2749dad-a07d-45a5-b48d-09e644d3c272"},"vehicle_type_id":"4","last_reported":1771183012,"current_range_meters":20400,"station_id":"ce4bgkp2rcd13ifvqbmg","pricing_plan_id":"cebpf4jnsgd1na2vs0mg"},{"bike_id":"5f0818d2-4390-4113-9649-e13112879aff","system_id":"levelo_inurba_marseille","lat":43.28938,"lon":5.36631,"is_reserved":false,"is_disabled":false,"rental_uris":{"android":"levelo://app?vid=5f0818d2-4390-4113-9649-e13112879aff","ios":"levelo://app?vid=5f0818d2-4390-4113-9649-e13112879aff"},"vehicle_type_id":"4","last_reported":1771183012,"current_range_meters":17600,"station_id":"ce4bhap2rcd13ifvqek0","pricing_plan_id":"cebpf4jnsgd1na2vs0mg"},{"bike_id":"063fb5b3-6f74-415b-a77e-82ae138da81e","system_id":"levelo_inurba_marseille","lat":43.29835,"lon":5.36275,"is_reserved":false,"is_disabled":false,"rental_uris":{"android":"levelo://app?vid=063fb5b3-6f74-415b-a77e-82ae138da81e","ios":"levelo://app?vid=063fb5b3-6f74-415b-a77e-82ae138da81e"},"vehicle_type_id":"4","last_reported":1771183012,"current_range_meters":36800,"station_id":"ce4bgpp2rcd13ifvqc3g","pricing_plan_id":"cebpf4jnsgd1na2vs0mg"},{"bike_id":"ed7fbdd2-1fe8-4b70-bf65-c956d9d9fc72","system_id":"levelo_inurba_marseille","lat":43.24654,"lon":5.38933,"is_reserved":false,"is_disabled":false,"rental_uris":{"android":"levelo://app?vid=ed7fbdd2-1fe8-4b70-bf65-c956d9d9fc72","ios":"levelo://app?vid=ed7fbdd2-1fe8-4b70-bf65-c956d9d9fc72"},"vehicle_type_id":"4","last_reported":1771183012,"current_range_meters":36000,"station_id":"ce4bhg12rcd13ifvqf60","pricing_plan_id":"cebpf4jnsgd1na2vs0mg"},{"bike_id":"6e075bd3-a285-4aca-ab9e-3191fe53ff47","system_id":"levelo_inurba_marseille","lat":43.284794,"lon":5.38545,"is_reserved":false,"is_disabled":false,"rental_uris":{"android":"levelo://app?vid=6e075bd3-a285-4aca-ab9e-3191fe53ff47","ios":"levelo://app?vid=6e075bd3-a285-4aca-ab9e-3191fe53ff47"},"vehicle_type_id":"4","last_reported":1771183012,"current_range_meters":39200,"station_id":"ce4bh8p2rcd13ifvqeb0","pricing_plan_id":"cebpf4jnsgd1na2vs0mg"},{"bike_id":"477ccfc7-da35-4584-9877-0a9de46fbf98","system_id":"levelo_inurba_marseille","lat":43.29025,"lon":5.38641,"is_reserved":false,"is_disabled":false,"rental_uris":{"android":"levelo://app?vid=477ccfc7-da35-4584-9877-0a9de46fbf98","ios":"levelo://app?vid=477ccfc7-da35-4584-9877-0a9de46fbf98"},"vehicle_type_id":"4","last_reported":1771183012,"current_range_meters":28000,"station_id":"ce4bh4p2rcd13ifvqe0g","pricing_plan_id":"cebpf4jnsgd1na2vs0mg"},{"bike_id":"766ba40c-080a-46d0-a08f-660e07520b61","system_id":"levelo_inurba_marseille","lat":43.29265,"lon":5.36829,"is_reserved":false,"is_disabled":false,"rental_uris":{"android":"levelo://app?vid=766ba40c-080a-46d0-a08f-660e07520b61","ios":"levelo://app?vid=766ba40c-080a-46d0-a08f-660e07520b61"},"vehicle_type_id":"4","last_reported":1771183012,"current_range_meters":37600,"station_id":"ce4bhbp2rcd13ifvqesg","pricing_plan_id":"cebpf4jnsgd1na2vs0mg"},{"bike_id":"f8312403-96e0-48f4-a811-ddf2d3981510","system_id":"levelo_inurba_marseille","lat":43.25113,"lon":5.403252,"is_reserved":false,"is_disabled":false,"rental_uris":{"android":"levelo://app?vid=f8312403-96e0-48f4-a811-ddf2d3981510","ios":"levelo://app?vid=f8312403-96e0-48f4-a811-ddf2d3981510"},"vehicle_type_id":"4","last_reported":1771183012,"current_range_meters":9600,"station_id":"ce4bhlh2rcd13ifvqgig","pricing_plan_id":"cebpf4jnsgd1na2vs0mg"},{"bike_id":"924d7c55-9e75-41cb-9a3e-b7f57a435ae8","system_id":"levelo_inurba_marseille","lat":43.263373,"lon":5.396467,"is_reserved":false,"is_disabled":false,"rental_uris":{"android":"levelo://app?vid=924d7c55-9e75-41cb-9a3e-b7f57a435ae8","ios":"levelo://app?vid=924d7c55-9e75-41cb-9a3e-b7f57a435ae8"},"vehicle_type_id":"4","last_reported":1771183012,"current_range_meters":6000,"station_id":"","pricing_plan_id":"cebpf4jnsgd1na2vs0mg"},{"bike_id":"8c1376f3-519c-4041-9a0a-667bb6369657","system_id":"levelo_inurba_marseille","lat":43.260314,"lon":5.375523,"is_reserved":false,"is_disabled":false,"rental_uris":{"android":"levelo://app?vid=8c1376f3-519c-4041-9a0a-667bb6369657","ios":"levelo://app?vid=8c1376f3-519c-4041-9a0a-667bb6369657"},"vehicle_type_id":"4","last_reported":1771183012,"current_range_meters":12400,"station_id":"ce4bhgh2rcd13ifvqfa0","pricing_plan_id":"cebpf4jnsgd1na2vs0mg"},{"bike_id":"3d77c063-135b-4daf-93de-810c10c76bf7","system_id":"levelo_inurba_marseille","lat":43.29569,"lon":5.37498,"is_reserved":false,"is_disabled":false,"rental_uris":{"android":"levelo://app?vid=3d77c063-135b-4daf-93de-810c10c76bf7","ios":"levelo://app?vid=3d77c063-135b-4daf-93de-810c10c76bf7"},"vehicle_type_id":"4","last_reported":1771183012,"current_range_meters":39200,"station_id":"ce4bgh92rcd13ifvqb50","pricing_plan_id":"cebpf4jnsgd1na2vs0mg"},{"bike_id":"91dd6860-d8b6-48df-9afd-382ab92b6bc0","system_id":"levelo_inurba_marseille","lat":43.2892,"lon":5.3841,"is_reserved":false,"is_disabled":true,"rental_uris":{"android":"levelo://app?vid=91dd6860-d8b6-48df-9afd-382ab92b6bc0","ios":"levelo://app?vid=91dd6860-d8b6-48df-9afd-382ab92b6bc0"},"vehicle_type_id":"4","last_reported":1771183012,"current_range_meters":28400,"station_id":"ce4bh612rcd13ifvqe6g","pricing_plan_id":"cebpf4jnsgd1na2vs0mg"},{"bike_id":"2901c166-58f1-48fa-a2a4-8ac2d786d269","system_id":"levelo_inurba_marseille","lat":43.31208,"lon":5.36891,"is_reserved":false,"is_disabled":true,"rental_uris":{"android":"levelo://app?vid=2901c166-58f1-48fa-a2a4-8ac2d786d269","ios":"levelo://app?vid=2901c166-58f1-48fa-a2a4-8ac2d786d269"},"vehicle_type_id":"4","last_reported":1771183012,"current_range_meters":0,"station_id":"ce4bgl92rcd13ifvqbq0","pricing_plan_id":"cebpf4jnsgd1na2vs0mg"},{"bike_id":"4ef3fea8-855b-4ccb-be6e-2c8185c4a670","system_id":"levelo_inurba_marseille","lat":43.33606,"lon":5.41013,"is_reserved":false,"is_disabled":false,"rental_uris":{"android":"levelo://app?vid=4ef3fea8-855b-4ccb-be6e-2c8185c4a670","ios":"levelo://app?vid=4ef3fea8-855b-4ccb-be6e-2c8185c4a670"},"vehicle_type_id":"4","last_reported":1771183012,"current_range_meters":33200,"station_id":"ce4bhqh2rcd13ifvqhmg","pricing_plan_id":"cebpf4jnsgd1na2vs0mg"},{"bike_id":"524b8461-d679-46b1-a83d-b4bfe7dba6c3","system_id":"levelo_inurba_marseille","lat":43.21777,"lon":5.34575,"is_reserved":false,"is_disabled":false,"rental_uris":{"android":"levelo://app?vid=524b8461-d679-46b1-a83d-b4bfe7dba6c3","ios":"levelo://app?vid=524b8461-d679-46b1-a83d-b4bfe7dba6c3"},"vehicle_type_id":"4","last_reported":1771183012,"current_range_meters":38000,"station_id":"st_cvj6r9ubvosntc0bgbag","pricing_plan_id":"cebpf4jnsgd1na2vs0mg"},{"bike_id":"53bb3863-680c-45ee-b078-75f6bac40aa9","system_id":"levelo_inurba_marseille","lat":43.32655,"lon":5.40992,"is_reserved":false,"is_disabled":false,"rental_uris":{"android":"levelo://app?vid=53bb3863-680c-45ee-b078-75f6bac40aa9","ios":"levelo://app?vid=53bb3863-680c-45ee-b078-75f6bac40aa9"},"vehicle_type_id":"4","last_reported":1771183012,"current_range_meters":38000,"station_id":"ce4bhpp2rcd13ifvqhgg","pricing_plan_id":"cebpf4jnsgd1na2vs0mg"},{"bike_id":"80098677-e509-453f-9fc6-0838a503fcfa","system_id":"levelo_inurba_marseille","lat":43.305405,"lon":5.365312,"is_reserved":false,"is_disabled":false,"rental_uris":{"android":"levelo://app?vid=80098677-e509-453f-9fc6-0838a503fcfa","ios":"levelo://app?vid=80098677-e509-453f-9fc6-0838a503fcfa"},"vehicle_type_id":"4","last_reported":1771183012,"current_range_meters":18800,"station_id":"ce4bgs12rcd13ifvqcag","pricing_plan_id":"cebpf4jnsgd1na2vs0mg"},{"bike_id":"b2793bda-e545-4722-bf36-91387796c790","system_id":"levelo_inurba_marseille","lat":43.25497,"lon":5.37674,"is_reserved":false,"is_disabled":false,"rental_uris":{"android":"levelo://app?vid=b2793bda-e545-4722-bf36-91387796c790","ios":"levelo://app?vid=b2793bda-e545-4722-bf36-91387796c790"},"vehicle_type_id":"4","last_reported":1771183012,"current_range_meters":37600,"station_id":"ce4bhh12rcd13ifvqff0","pricing_plan_id":"cebpf4jnsgd1na2vs0mg"},{"bike_id":"014613de-69aa-4aca-9291-67750cce2e69","system_id":"levelo_inurba_marseille","lat":43.28456,"lon":5.48444,"is_reserved":false,"is_disabled":false,"rental_uris":{"android":"levelo://app?vid=014613de-69aa-4aca-9291-67750cce2e69","ios":"levelo://app?vid=014613de-69aa-4aca-9291-67750cce2e69"},"vehicle_type_id":"4","last_reported":1771183012,"current_range_meters":37600,"station_id":"st_d3svhcjqgbts73a3dn0g","pricing_plan_id":"cebpf4jnsgd1na2vs0mg"},{"bike_id":"ceafdd97-9709-4666-acdc-c6b8a34aace5","system_id":"levelo_inurba_marseille","lat":43.27196,"lon":5.40963,"is_reserved":false,"is_disabled":true,"rental_uris":{"android":"levelo://app?vid=ceafdd97-9709-4666-acdc-c6b8a34aace5","ios":"levelo://app?vid=ceafdd97-9709-4666-acdc-c6b8a34aace5"},"vehicle_type_id":"4","last_reported":1771183012,"current_range_meters":39200,"station_id":"ce4bhl12rcd13ifvqgf0","pricing_plan_id":"cebpf4jnsgd1na2vs0mg"},{"bike_id":"93bab453-c377-4816-a0d3-7383fdfc3ff2","system_id":"levelo_inurba_marseille","lat":43.29525,"lon":5.37485,"is_reserved":false,"is_disabled":false,"rental_uris":{"android":"levelo://app?vid=93bab453-c377-4816-a0d3-7383fdfc3ff2","ios":"levelo://app?vid=93bab453-c377-4816-a0d3-7383fdfc3ff2"},"vehicle_type_id":"4","last_reported":1771183012,"current_range_meters":14800,"station_id":"ce4bgkp2rcd13ifvqbmg","pricing_plan_id":"cebpf4jnsgd1na2vs0mg"},{"bike_id":"9ed7300e-a4d4-493c-95a2-a0b857cf6348","system_id":"levelo_inurba_marseille","lat":43.22549,"lon":5.41631,"is_reserved":false,"is_disabled":false,"rental_uris":{"android":"levelo://app?vid=9ed7300e-a4d4-493c-95a2-a0b857cf6348","ios":"levelo://app?vid=9ed7300e-a4d4-493c-95a2-a0b857cf6348"},"vehicle_type_id":"4","last_reported":1771183012,"current_range_meters":12800,"station_id":"st_d2o4gvlbi1j2169b742g","pricing_plan_id":"cebpf4jnsgd1na2vs0mg"},{"bike_id":"b8d0dbff-fb51-43c9-8f40-12fc94ab2020","system_id":"levelo_inurba_marseille","lat":43.28436,"lon":5.3499,"is_reserved":false,"is_disabled":false,"rental_uris":{"android":"levelo://app?vid=b8d0dbff-fb51-43c9-8f40-12fc94ab2020","ios":"levelo://app?vid=b8d0dbff-fb51-43c9-8f40-12fc94ab2020"},"vehicle_type_id":"4","last_reported":1771183012,"current_range_meters":15200,"station_id":"ce4bhbh2rcd13ifvqepg","pricing_plan_id":"cebpf4jnsgd1na2vs0mg"},{"bike_id":"460473a0-3a46-46d7-9291-f84ca0265299","system_id":"levelo_inurba_marseille","lat":43.29782,"lon":5.3809,"is_reserved":false,"is_disabled":false,"rental_uris":{"android":"levelo://app?vid=460473a0-3a46-46d7-9291-f84ca0265299","ios":"levelo://app?vid=460473a0-3a46-46d7-9291-f84ca0265299"},"vehicle_type_id":"4","last_reported":1771183012,"current_range_meters":11600,"station_id":"ce4bgip2rcd13ifvqbb0","pricing_plan_id":"cebpf4jnsgd1na2vs0mg"},{"bike_id":"491c9ecf-c613-4666-af5f-af02a2932d22","system_id":"levelo_inurba_marseille","lat":43.30954,"lon":5.3903,"is_reserved":false,"is_disabled":true,"rental_uris":{"android":"levelo://app?vid=491c9ecf-c613-4666-af5f-af02a2932d22","ios":"levelo://app?vid=491c9ecf-c613-4666-af5f-af02a2932d22"},"vehicle_type_id":"4","last_reported":1771183012,"current_range_meters":26000,"station_id":"ce4bgup2rcd13ifvqco0","pricing_plan_id":"cebpf4jnsgd1na2vs0mg"},{"bike_id":"a64859b0-ded5-44cf-b988-3c7146afab2f","system_id":"levelo_inurba_marseille","lat":43.29368,"lon":5.3787,"is_reserved":false,"is_disabled":false,"rental_uris":{"android":"levelo://app?vid=a64859b0-ded5-44cf-b988-3c7146afab2f","ios":"levelo://app?vid=a64859b0-ded5-44cf-b988-3c7146afab2f"},"vehicle_type_id":"4","last_reported":1771183012,"current_range_meters":38000,"station_id":"ce4bgjh2rcd13ifvqbf0","pricing_plan_id":"cebpf4jnsgd1na2vs0mg"},{"bike_id":"dc98baeb-281c-4b10-a0d8-1143d2ae501f","system_id":"levelo_inurba_marseille","lat":43.30306,"lon":5.36886,"is_reserved":false,"is_disabled":false,"rental_uris":{"android":"levelo://app?vid=dc98baeb-281c-4b10-a0d8-1143d2ae501f","ios":"levelo://app?vid=dc98baeb-281c-4b10-a0d8-1143d2ae501f"},"vehicle_type_id":"4","last_reported":1771183012,"current_range_meters":32000,"station_id":"ce4bgqh2rcd13ifvqc5g","pricing_plan_id":"cebpf4jnsgd1na2vs0mg"},{"bike_id":"5fd8a138-4462-47cb-9a8e-17d6062f1cae","system_id":"levelo_inurba_marseille","lat":43.29205,"lon":5.35802,"is_reserved":false,"is_disabled":false,"rental_uris":{"android":"levelo://app?vid=5fd8a138-4462-47cb-9a8e-17d6062f1cae","ios":"levelo://app?vid=5fd8a138-4462-47cb-9a8e-17d6062f1cae"},"vehicle_type_id":"4","last_reported":1771183012,"current_range_meters":39200,"station_id":"ce4bhb12rcd13ifvqel0","pricing_plan_id":"cebpf4jnsgd1na2vs0mg"},{"bike_id":"61eb7f07-1c63-4179-84d2-2a4e738d2c5a","system_id":"levelo_inurba_marseille","lat":43.25277,"lon":5.42411,"is_reserved":false,"is_disabled":false,"rental_uris":{"android":"levelo://app?vid=61eb7f07-1c63-4179-84d2-2a4e738d2c5a","ios":"levelo://app?vid=61eb7f07-1c63-4179-84d2-2a4e738d2c5a"},"vehicle_type_id":"4","last_reported":1771183012,"current_range_meters":12000,"station_id":"","pricing_plan_id":"cebpf4jnsgd1na2vs0mg"},{"bike_id":"034224b6-2279-4cbc-9caa-f9a79eebd08e","system_id":"levelo_inurba_marseille","lat":43.31247,"lon":5.36864,"is_reserved":false,"is_disabled":false,"rental_uris":{"android":"levelo://app?vid=034224b6-2279-4cbc-9caa-f9a79eebd08e","ios":"levelo://app?vid=034224b6-2279-4cbc-9caa-f9a79eebd08e"},"vehicle_type_id":"4","last_reported":1771183012,"current_range_meters":40000,"station_id":"ce4bgl92rcd13ifvqbq0","pricing_plan_id":"cebpf4jnsgd1na2vs0mg"},{"bike_id":"3211b5a0-d0e2-4a82-971d-29eb146b2cb0","system_id":"levelo_inurba_marseille","lat":43.28674,"lon":5.36373,"is_reserved":false,"is_disabled":false,"rental_uris":{"android":"levelo://app?vid=3211b5a0-d0e2-4a82-971d-29eb146b2cb0","ios":"levelo://app?vid=3211b5a0-d0e2-4a82-971d-29eb146b2cb0"},"vehicle_type_id":"4","last_reported":1771183012,"current_range_meters":39200,"station_id":"ce4bhah2rcd13ifvqej0","pricing_plan_id":"cebpf4jnsgd1na2vs0mg"},{"bike_id":"128bf807-6e3b-4a15-9089-9c9e1d41a34a","system_id":"levelo_inurba_marseille","lat":43.22931,"lon":5.35409,"is_reserved":false,"is_disabled":false,"rental_uris":{"android":"levelo://app?vid=128bf807-6e3b-4a15-9089-9c9e1d41a34a","ios":"levelo://app?vid=128bf807-6e3b-4a15-9089-9c9e1d41a34a"},"vehicle_type_id":"4","last_reported":1771183012,"current_range_meters":4000,"station_id":"cpo3532slgdg3j2ikp40","pricing_plan_id":"cebpf4jnsgd1na2vs0mg"},{"bike_id":"3b7ab46d-a5b2-42ad-aec6-a2dcef907956","system_id":"levelo_inurba_marseille","lat":43.27179,"lon":5.40987,"is_reserved":false,"is_disabled":false,"rental_uris":{"android":"levelo://app?vid=3b7ab46d-a5b2-42ad-aec6-a2dcef907956","ios":"levelo://app?vid=3b7ab46d-a5b2-42ad-aec6-a2dcef907956"},"vehicle_type_id":"4","last_reported":1771183012,"current_range_meters":39200,"station_id":"ce4bhl12rcd13ifvqgf0","pricing_plan_id":"cebpf4jnsgd1na2vs0mg"},{"bike_id":"053f63a9-b456-4e00-a86e-29f26979507e","system_id":"levelo_inurba_marseille","lat":43.24648,"lon":5.38156,"is_reserved":false,"is_disabled":true,"rental_uris":{"android":"levelo://app?vid=053f63a9-b456-4e00-a86e-29f26979507e","ios":"levelo://app?vid=053f63a9-b456-4e00-a86e-29f26979507e"},"vehicle_type_id":"4","last_reported":1771183012,"current_range_meters":19600,"station_id":"ce4bhih2rcd13ifvqfr0","pricing_plan_id":"cebpf4jnsgd1na2vs0mg"},{"bike_id":"aba49c95-1ed0-472c-931b-037b98c15fc8","system_id":"levelo_inurba_marseille","lat":43.253325,"lon":5.42167,"is_reserved":false,"is_disabled":false,"rental_uris":{"android":"levelo://app?vid=aba49c95-1ed0-472c-931b-037b98c15fc8","ios":"levelo://app?vid=aba49c95-1ed0-472c-931b-037b98c15fc8"},"vehicle_type_id":"4","last_reported":1771183012,"current_range_meters":7200,"station_id":"st_d2m65c5bi1j21697t3ng","pricing_plan_id":"cebpf4jnsgd1na2vs0mg"},{"bike_id":"7cb9d4bb-817c-477e-b821-2482d90489fa","system_id":"levelo_inurba_marseille","lat":43.32962,"lon":5.39126,"is_reserved":false,"is_disabled":false,"rental_uris":{"android":"levelo://app?vid=7cb9d4bb-817c-477e-b821-2482d90489fa","ios":"levelo://app?vid=7cb9d4bb-817c-477e-b821-2482d90489fa"},"vehicle_type_id":"4","last_reported":1771183012,"current_range_meters":10000,"station_id":"","pricing_plan_id":"cebpf4jnsgd1na2vs0mg"},{"bike_id":"ffe3fbd4-6746-48bb-b0b5-fa7f3d6ff56c","system_id":"levelo_inurba_marseille","lat":43.31065,"lon":5.37178,"is_reserved":false,"is_disabled":false,"rental_uris":{"android":"levelo://app?vid=ffe3fbd4-6746-48bb-b0b5-fa7f3d6ff56c","ios":"levelo://app?vid=ffe3fbd4-6746-48bb-b0b5-fa7f3d6ff56c"},"vehicle_type_id":"4","last_reported":1771183012,"current_range_meters":10000,"station_id":"st_d4kl2rp97mjs73e7tdfg","pricing_plan_id":"cebpf4jnsgd1na2vs0mg"},{"bike_id":"f4f4c39c-d293-4a83-92fd-f36bbc65fe4a","system_id":"levelo_inurba_marseille","lat":43.28277,"lon":5.35069,"is_reserved":false,"is_disabled":true,"rental_uris":{"android":"levelo://app?vid=f4f4c39c-d293-4a83-92fd-f36bbc65fe4a","ios":"levelo://app?vid=f4f4c39c-d293-4a83-92fd-f36bbc65fe4a"},"vehicle_type_id":"4","last_reported":1771183012,"current_range_meters":36000,"station_id":"ce4bhbp2rcd13ifvqerg","pricing_plan_id":"cebpf4jnsgd1na2vs0mg"},{"bike_id":"62a8abd2-3087-46db-925f-2d25a2b3f02d","system_id":"levelo_inurba_marseille","lat":43.3045,"lon":5.38902,"is_reserved":false,"is_disabled":true,"rental_uris":{"android":"levelo://app?vid=62a8abd2-3087-46db-925f-2d25a2b3f02d","ios":"levelo://app?vid=62a8abd2-3087-46db-925f-2d25a2b3f02d"},"vehicle_type_id":"4","last_reported":1771183012,"current_range_meters":17200,"station_id":"ce4bgk12rcd13ifvqbi0","pricing_plan_id":"cebpf4jnsgd1na2vs0mg"},{"bike_id":"2fadaefb-d7be-40bc-b8c2-dfba0bb4802c","system_id":"levelo_inurba_marseille","lat":43.302337,"lon":5.400481,"is_reserved":false,"is_disabled":true,"rental_uris":{"android":"levelo://app?vid=2fadaefb-d7be-40bc-b8c2-dfba0bb4802c","ios":"levelo://app?vid=2fadaefb-d7be-40bc-b8c2-dfba0bb4802c"},"vehicle_type_id":"4","last_reported":1771183012,"current_range_meters":29600,"station_id":"","pricing_plan_id":"cebpf4jnsgd1na2vs0mg"},{"bike_id":"c2622548-2352-4ceb-b8b7-2d2a2030a64c","system_id":"levelo_inurba_marseille","lat":43.29568,"lon":5.37505,"is_reserved":false,"is_disabled":false,"rental_uris":{"android":"levelo://app?vid=c2622548-2352-4ceb-b8b7-2d2a2030a64c","ios":"levelo://app?vid=c2622548-2352-4ceb-b8b7-2d2a2030a64c"},"vehicle_type_id":"4","last_reported":1771183012,"current_range_meters":33600,"station_id":"ce4bgh92rcd13ifvqb50","pricing_plan_id":"cebpf4jnsgd1na2vs0mg"},{"bike_id":"2b81de17-a6f0-4c16-b65d-b7feec6d0da0","system_id":"levelo_inurba_marseille","lat":43.26928,"lon":5.38909,"is_reserved":false,"is_disabled":false,"rental_uris":{"android":"levelo://app?vid=2b81de17-a6f0-4c16-b65d-b7feec6d0da0","ios":"levelo://app?vid=2b81de17-a6f0-4c16-b65d-b7feec6d0da0"},"vehicle_type_id":"4","last_reported":1771183012,"current_range_meters":25200,"station_id":"ce4bhhh2rcd13ifvqfl0","pricing_plan_id":"cebpf4jnsgd1na2vs0mg"},{"bike_id":"2aa05e06-5366-4cfd-80c1-a6e66487250b","system_id":"levelo_inurba_marseille","lat":43.28476,"lon":5.48401,"is_reserved":false,"is_disabled":false,"rental_uris":{"android":"levelo://app?vid=2aa05e06-5366-4cfd-80c1-a6e66487250b","ios":"levelo://app?vid=2aa05e06-5366-4cfd-80c1-a6e66487250b"},"vehicle_type_id":"4","last_reported":1771183012,"current_range_meters":24000,"station_id":"st_d3svhcjqgbts73a3dn0g","pricing_plan_id":"cebpf4jnsgd1na2vs0mg"},{"bike_id":"9fa3b8f9-222a-47d4-94ab-1bf20b84c2d5","system_id":"levelo_inurba_marseille","lat":43.29569,"lon":5.37487,"is_reserved":false,"is_disabled":false,"rental_uris":{"android":"levelo://app?vid=9fa3b8f9-222a-47d4-94ab-1bf20b84c2d5","ios":"levelo://app?vid=9fa3b8f9-222a-47d4-94ab-1bf20b84c2d5"},"vehicle_type_id":"4","last_reported":1771183012,"current_range_meters":27600,"station_id":"ce4bgh92rcd13ifvqb50","pricing_plan_id":"cebpf4jnsgd1na2vs0mg"},{"bike_id":"9d0335d2-3051-4637-a59f-b5a4ffc47957","system_id":"levelo_inurba_marseille","lat":43.32645,"lon":5.40983,"is_reserved":false,"is_disabled":false,"rental_uris":{"android":"levelo://app?vid=9d0335d2-3051-4637-a59f-b5a4ffc47957","ios":"levelo://app?vid=9d0335d2-3051-4637-a59f-b5a4ffc47957"},"vehicle_type_id":"4","last_reported":1771183012,"current_range_meters":9200,"station_id":"ce4bhpp2rcd13ifvqhgg","pricing_plan_id":"cebpf4jnsgd1na2vs0mg"},{"bike_id":"bf40be18-51a4-4e54-9c30-1a02e017c42f","system_id":"levelo_inurba_marseille","lat":43.29624,"lon":5.37725,"is_reserved":false,"is_disabled":false,"rental_uris":{"android":"levelo://app?vid=bf40be18-51a4-4e54-9c30-1a02e017c42f","ios":"levelo://app?vid=bf40be18-51a4-4e54-9c30-1a02e017c42f"},"vehicle_type_id":"4","last_reported":1771183012,"current_range_meters":32000,"station_id":"ce4bgi92rcd13ifvqb90","pricing_plan_id":"cebpf4jnsgd1na2vs0mg"},{"bike_id":"ca702067-4858-4ef5-a319-87f24e598e7d","system_id":"levelo_inurba_marseille","lat":43.31226,"lon":5.368536,"is_reserved":false,"is_disabled":false,"rental_uris":{"android":"levelo://app?vid=ca702067-4858-4ef5-a319-87f24e598e7d","ios":"levelo://app?vid=ca702067-4858-4ef5-a319-87f24e598e7d"},"vehicle_type_id":"4","last_reported":1771183012,"current_range_meters":10000,"station_id":"ce4bgl92rcd13ifvqbq0","pricing_plan_id":"cebpf4jnsgd1na2vs0mg"},{"bike_id":"0a999e6d-a2d1-4b1c-bf91-e11c3fa5ffd3","system_id":"levelo_inurba_marseille","lat":43.29192,"lon":5.39384,"is_reserved":false,"is_disabled":false,"rental_uris":{"android":"levelo://app?vid=0a999e6d-a2d1-4b1c-bf91-e11c3fa5ffd3","ios":"levelo://app?vid=0a999e6d-a2d1-4b1c-bf91-e11c3fa5ffd3"},"vehicle_type_id":"4","last_reported":1771183012,"current_range_meters":32400,"station_id":"","pricing_plan_id":"cebpf4jnsgd1na2vs0mg"},{"bike_id":"c7dc1044-a4da-496a-a386-521f9de5f9ec","system_id":"levelo_inurba_marseille","lat":43.28154,"lon":5.4265,"is_reserved":false,"is_disabled":true,"rental_uris":{"android":"levelo://app?vid=c7dc1044-a4da-496a-a386-521f9de5f9ec","ios":"levelo://app?vid=c7dc1044-a4da-496a-a386-521f9de5f9ec"},"vehicle_type_id":"4","last_reported":1771183012,"current_range_meters":2000,"station_id":"ce4bhnh2rcd13ifvqgug","pricing_plan_id":"cebpf4jnsgd1na2vs0mg"},{"bike_id":"32970ac4-1746-4d64-913c-72a1346864f7","system_id":"levelo_inurba_marseille","lat":43.29005,"lon":5.35608,"is_reserved":false,"is_disabled":false,"rental_uris":{"android":"levelo://app?vid=32970ac4-1746-4d64-913c-72a1346864f7","ios":"levelo://app?vid=32970ac4-1746-4d64-913c-72a1346864f7"},"vehicle_type_id":"4","last_reported":1771183012,"current_range_meters":37600,"station_id":"ce4bhb92rcd13ifvqen0","pricing_plan_id":"cebpf4jnsgd1na2vs0mg"},{"bike_id":"f609bbc6-67a1-4416-90f1-748294690250","system_id":"levelo_inurba_marseille","lat":43.32365,"lon":5.38885,"is_reserved":false,"is_disabled":false,"rental_uris":{"android":"levelo://app?vid=f609bbc6-67a1-4416-90f1-748294690250","ios":"levelo://app?vid=f609bbc6-67a1-4416-90f1-748294690250"},"vehicle_type_id":"4","last_reported":1771183012,"current_range_meters":32000,"station_id":"ce4bhqp2rcd13ifvqhog","pricing_plan_id":"cebpf4jnsgd1na2vs0mg"},{"bike_id":"10b03d8e-f943-401c-a144-ab85933f89ee","system_id":"levelo_inurba_marseille","lat":43.26546,"lon":5.39052,"is_reserved":false,"is_disabled":false,"rental_uris":{"android":"levelo://app?vid=10b03d8e-f943-401c-a144-ab85933f89ee","ios":"levelo://app?vid=10b03d8e-f943-401c-a144-ab85933f89ee"},"vehicle_type_id":"4","last_reported":1771183012,"current_range_meters":7200,"station_id":"ce4bhe12rcd13ifvqf30","pricing_plan_id":"cebpf4jnsgd1na2vs0mg"},{"bike_id":"7b124e54-8418-4378-b0ad-874da7c23bc2","system_id":"levelo_inurba_marseille","lat":43.25568,"lon":5.38251,"is_reserved":false,"is_disabled":false,"rental_uris":{"android":"levelo://app?vid=7b124e54-8418-4378-b0ad-874da7c23bc2","ios":"levelo://app?vid=7b124e54-8418-4378-b0ad-874da7c23bc2"},"vehicle_type_id":"4","last_reported":1771183012,"current_range_meters":28400,"station_id":"ce4bhih2rcd13ifvqfs0","pricing_plan_id":"cebpf4jnsgd1na2vs0mg"},{"bike_id":"e951e5e9-ebdf-46dc-97fc-38088d126805","system_id":"levelo_inurba_marseille","lat":43.26554,"lon":5.39065,"is_reserved":false,"is_disabled":false,"rental_uris":{"android":"levelo://app?vid=e951e5e9-ebdf-46dc-97fc-38088d126805","ios":"levelo://app?vid=e951e5e9-ebdf-46dc-97fc-38088d126805"},"vehicle_type_id":"4","last_reported":1771183012,"current_range_meters":8400,"station_id":"ce4bhe12rcd13ifvqf30","pricing_plan_id":"cebpf4jnsgd1na2vs0mg"},{"bike_id":"5ba309a4-12b9-4eee-8397-472968e7c7d4","system_id":"levelo_inurba_marseille","lat":43.31712,"lon":5.40464,"is_reserved":false,"is_disabled":false,"rental_uris":{"android":"levelo://app?vid=5ba309a4-12b9-4eee-8397-472968e7c7d4","ios":"levelo://app?vid=5ba309a4-12b9-4eee-8397-472968e7c7d4"},"vehicle_type_id":"4","last_reported":1771183012,"current_range_meters":19600,"station_id":"ce4bh012rcd13ifvqd00","pricing_plan_id":"cebpf4jnsgd1na2vs0mg"},{"bike_id":"3bd048ee-102f-43d2-9e7e-e3c42044f3b2","system_id":"levelo_inurba_marseille","lat":43.2961,"lon":5.37754,"is_reserved":false,"is_disabled":false,"rental_uris":{"android":"levelo://app?vid=3bd048ee-102f-43d2-9e7e-e3c42044f3b2","ios":"levelo://app?vid=3bd048ee-102f-43d2-9e7e-e3c42044f3b2"},"vehicle_type_id":"4","last_reported":1771183012,"current_range_meters":28000,"station_id":"ce4bgi92rcd13ifvqb90","pricing_plan_id":"cebpf4jnsgd1na2vs0mg"},{"bike_id":"b7600f14-bce5-4dda-a976-6cbf8683f3d2","system_id":"levelo_inurba_marseille","lat":43.27416,"lon":5.39398,"is_reserved":false,"is_disabled":false,"rental_uris":{"android":"levelo://app?vid=b7600f14-bce5-4dda-a976-6cbf8683f3d2","ios":"levelo://app?vid=b7600f14-bce5-4dda-a976-6cbf8683f3d2"},"vehicle_type_id":"4","last_reported":1771183012,"current_range_meters":39200,"station_id":"ce4bhdp2rcd13ifvqf20","pricing_plan_id":"cebpf4jnsgd1na2vs0mg"},{"bike_id":"b20bc577-8bc5-47b1-ab41-99d4e049207a","system_id":"levelo_inurba_marseille","lat":43.30138,"lon":5.38774,"is_reserved":false,"is_disabled":false,"rental_uris":{"android":"levelo://app?vid=b20bc577-8bc5-47b1-ab41-99d4e049207a","ios":"levelo://app?vid=b20bc577-8bc5-47b1-ab41-99d4e049207a"},"vehicle_type_id":"4","last_reported":1771183012,"current_range_meters":36800,"station_id":"ce4bghh2rcd13ifvqb60","pricing_plan_id":"cebpf4jnsgd1na2vs0mg"},{"bike_id":"99e0520a-8006-4995-8a2d-495e35242e98","system_id":"levelo_inurba_marseille","lat":43.31534,"lon":5.38035,"is_reserved":false,"is_disabled":false,"rental_uris":{"android":"levelo://app?vid=99e0520a-8006-4995-8a2d-495e35242e98","ios":"levelo://app?vid=99e0520a-8006-4995-8a2d-495e35242e98"},"vehicle_type_id":"4","last_reported":1771183012,"current_range_meters":33600,"station_id":"ce4bhsp2rcd13ifvqi50","pricing_plan_id":"cebpf4jnsgd1na2vs0mg"},{"bike_id":"f5da9fd8-9139-4984-b2de-0b8ca7936184","system_id":"levelo_inurba_marseille","lat":43.29309,"lon":5.3717,"is_reserved":false,"is_disabled":false,"rental_uris":{"android":"levelo://app?vid=f5da9fd8-9139-4984-b2de-0b8ca7936184","ios":"levelo://app?vid=f5da9fd8-9139-4984-b2de-0b8ca7936184"},"vehicle_type_id":"4","last_reported":1771183012,"current_range_meters":38000,"station_id":"ce4bgh92rcd13ifvqb40","pricing_plan_id":"cebpf4jnsgd1na2vs0mg"},{"bike_id":"da3c25f9-78b4-4200-84ad-4ef68623713a","system_id":"levelo_inurba_marseille","lat":43.29839,"lon":5.36271,"is_reserved":false,"is_disabled":false,"rental_uris":{"android":"levelo://app?vid=da3c25f9-78b4-4200-84ad-4ef68623713a","ios":"levelo://app?vid=da3c25f9-78b4-4200-84ad-4ef68623713a"},"vehicle_type_id":"4","last_reported":1771183012,"current_range_meters":29600,"station_id":"ce4bgpp2rcd13ifvqc3g","pricing_plan_id":"cebpf4jnsgd1na2vs0mg"},{"bike_id":"32075a4c-cff0-4aa5-9de3-cb171de2208d","system_id":"levelo_inurba_marseille","lat":43.309343,"lon":5.401423,"is_reserved":false,"is_disabled":false,"rental_uris":{"android":"levelo://app?vid=32075a4c-cff0-4aa5-9de3-cb171de2208d","ios":"levelo://app?vid=32075a4c-cff0-4aa5-9de3-cb171de2208d"},"vehicle_type_id":"4","last_reported":1771183012,"current_range_meters":31200,"station_id":"ce4bgvp2rcd13ifvqct0","pricing_plan_id":"cebpf4jnsgd1na2vs0mg"},{"bike_id":"43f6d8a2-7e14-45f3-8e91-023310728bea","system_id":"levelo_inurba_marseille","lat":43.29285,"lon":5.37464,"is_reserved":false,"is_disabled":false,"rental_uris":{"android":"levelo://app?vid=43f6d8a2-7e14-45f3-8e91-023310728bea","ios":"levelo://app?vid=43f6d8a2-7e14-45f3-8e91-023310728bea"},"vehicle_type_id":"4","last_reported":1771183012,"current_range_meters":9600,"station_id":"ce4bgi12rcd13ifvqb70","pricing_plan_id":"cebpf4jnsgd1na2vs0mg"},{"bike_id":"aa41dff3-8f5a-45a0-8e5e-1150f4d11ef7","system_id":"levelo_inurba_marseille","lat":43.30297,"lon":5.4051,"is_reserved":false,"is_disabled":false,"rental_uris":{"android":"levelo://app?vid=aa41dff3-8f5a-45a0-8e5e-1150f4d11ef7","ios":"levelo://app?vid=aa41dff3-8f5a-45a0-8e5e-1150f4d11ef7"},"vehicle_type_id":"4","last_reported":1771183012,"current_range_meters":40000,"station_id":"ce4bh012rcd13ifvqd10","pricing_plan_id":"cebpf4jnsgd1na2vs0mg"},{"bike_id":"4cb2a9d8-8a61-4838-80c1-000f896cc9a0","system_id":"levelo_inurba_marseille","lat":43.28428,"lon":5.34981,"is_reserved":false,"is_disabled":false,"rental_uris":{"android":"levelo://app?vid=4cb2a9d8-8a61-4838-80c1-000f896cc9a0","ios":"levelo://app?vid=4cb2a9d8-8a61-4838-80c1-000f896cc9a0"},"vehicle_type_id":"4","last_reported":1771183012,"current_range_meters":9200,"station_id":"ce4bhbh2rcd13ifvqepg","pricing_plan_id":"cebpf4jnsgd1na2vs0mg"},{"bike_id":"8cf2d6d7-e51d-4831-bd1b-4195dd83b79f","system_id":"levelo_inurba_marseille","lat":43.2928,"lon":5.40878,"is_reserved":false,"is_disabled":false,"rental_uris":{"android":"levelo://app?vid=8cf2d6d7-e51d-4831-bd1b-4195dd83b79f","ios":"levelo://app?vid=8cf2d6d7-e51d-4831-bd1b-4195dd83b79f"},"vehicle_type_id":"4","last_reported":1771183012,"current_range_meters":8000,"station_id":"ce4bh192rcd13ifvqdc0","pricing_plan_id":"cebpf4jnsgd1na2vs0mg"},{"bike_id":"56961290-91f6-44a6-b4d7-b7f50bab8506","system_id":"levelo_inurba_marseille","lat":43.29704,"lon":5.37306,"is_reserved":false,"is_disabled":false,"rental_uris":{"android":"levelo://app?vid=56961290-91f6-44a6-b4d7-b7f50bab8506","ios":"levelo://app?vid=56961290-91f6-44a6-b4d7-b7f50bab8506"},"vehicle_type_id":"4","last_reported":1771183012,"current_range_meters":38400,"station_id":"ce4bgk12rcd13ifvqbj0","pricing_plan_id":"cebpf4jnsgd1na2vs0mg"},{"bike_id":"970173df-1a16-42c4-8318-e6bd8c90384b","system_id":"levelo_inurba_marseille","lat":43.29788,"lon":5.38099,"is_reserved":false,"is_disabled":false,"rental_uris":{"android":"levelo://app?vid=970173df-1a16-42c4-8318-e6bd8c90384b","ios":"levelo://app?vid=970173df-1a16-42c4-8318-e6bd8c90384b"},"vehicle_type_id":"4","last_reported":1771183012,"current_range_meters":18000,"station_id":"ce4bgip2rcd13ifvqbb0","pricing_plan_id":"cebpf4jnsgd1na2vs0mg"},{"bike_id":"11bbe498-cd8f-4b2e-8e45-54529a7a0a47","system_id":"levelo_inurba_marseille","lat":43.29747,"lon":5.42797,"is_reserved":false,"is_disabled":false,"rental_uris":{"android":"levelo://app?vid=11bbe498-cd8f-4b2e-8e45-54529a7a0a47","ios":"levelo://app?vid=11bbe498-cd8f-4b2e-8e45-54529a7a0a47"},"vehicle_type_id":"4","last_reported":1771183012,"current_range_meters":3200,"station_id":"st_d3md5207bmas73dh9klg","pricing_plan_id":"cebpf4jnsgd1na2vs0mg"},{"bike_id":"407ad2cd-58fe-4138-84fa-2975698dec4b","system_id":"levelo_inurba_marseille","lat":43.307539,"lon":5.376136,"is_reserved":false,"is_disabled":false,"rental_uris":{"android":"levelo://app?vid=407ad2cd-58fe-4138-84fa-2975698dec4b","ios":"levelo://app?vid=407ad2cd-58fe-4138-84fa-2975698dec4b"},"vehicle_type_id":"4","last_reported":1771183012,"current_range_meters":31200,"station_id":"ce4bgv92rcd13ifvqcq0","pricing_plan_id":"cebpf4jnsgd1na2vs0mg"},{"bike_id":"db85d612-2486-4180-a7a9-4b56d8d31f7d","system_id":"levelo_inurba_marseille","lat":43.292694,"lon":5.368473,"is_reserved":false,"is_disabled":false,"rental_uris":{"android":"levelo://app?vid=db85d612-2486-4180-a7a9-4b56d8d31f7d","ios":"levelo://app?vid=db85d612-2486-4180-a7a9-4b56d8d31f7d"},"vehicle_type_id":"4","last_reported":1771183012,"current_range_meters":31200,"station_id":"ce4bhbp2rcd13ifvqesg","pricing_plan_id":"cebpf4jnsgd1na2vs0mg"},{"bike_id":"c68d4169-f907-4c79-9246-9c72b1a7a46a","system_id":"levelo_inurba_marseille","lat":43.292127,"lon":5.360534,"is_reserved":false,"is_disabled":false,"rental_uris":{"android":"levelo://app?vid=c68d4169-f907-4c79-9246-9c72b1a7a46a","ios":"levelo://app?vid=c68d4169-f907-4c79-9246-9c72b1a7a46a"},"vehicle_type_id":"4","last_reported":1771183012,"current_range_meters":4800,"station_id":"ce4bhbh2rcd13ifvqeqg","pricing_plan_id":"cebpf4jnsgd1na2vs0mg"},{"bike_id":"6f6a04ad-dd00-4f4a-bdfd-a835cfa0cc11","system_id":"levelo_inurba_marseille","lat":43.27082,"lon":5.38292,"is_reserved":false,"is_disabled":false,"rental_uris":{"android":"levelo://app?vid=6f6a04ad-dd00-4f4a-bdfd-a835cfa0cc11","ios":"levelo://app?vid=6f6a04ad-dd00-4f4a-bdfd-a835cfa0cc11"},"vehicle_type_id":"4","last_reported":1771183012,"current_range_meters":32400,"station_id":"st_d3n2fo6cfp8s73cte1j0","pricing_plan_id":"cebpf4jnsgd1na2vs0mg"},{"bike_id":"801aea90-6d04-4d6c-bccd-030211377390","system_id":"levelo_inurba_marseille","lat":43.27494,"lon":5.42473,"is_reserved":false,"is_disabled":false,"rental_uris":{"android":"levelo://app?vid=801aea90-6d04-4d6c-bccd-030211377390","ios":"levelo://app?vid=801aea90-6d04-4d6c-bccd-030211377390"},"vehicle_type_id":"4","last_reported":1771183012,"current_range_meters":24000,"station_id":"ce4bhn92rcd13ifvqgrg","pricing_plan_id":"cebpf4jnsgd1na2vs0mg"},{"bike_id":"4e4c79b4-286f-458a-a494-98664f2e8591","system_id":"levelo_inurba_marseille","lat":43.33125,"lon":5.39271,"is_reserved":false,"is_disabled":false,"rental_uris":{"android":"levelo://app?vid=4e4c79b4-286f-458a-a494-98664f2e8591","ios":"levelo://app?vid=4e4c79b4-286f-458a-a494-98664f2e8591"},"vehicle_type_id":"4","last_reported":1771183012,"current_range_meters":28400,"station_id":"","pricing_plan_id":"cebpf4jnsgd1na2vs0mg"},{"bike_id":"fcdee124-54c2-45c2-866c-075925635f0c","system_id":"levelo_inurba_marseille","lat":43.28636,"lon":5.35067,"is_reserved":false,"is_disabled":false,"rental_uris":{"android":"levelo://app?vid=fcdee124-54c2-45c2-866c-075925635f0c","ios":"levelo://app?vid=fcdee124-54c2-45c2-866c-075925635f0c"},"vehicle_type_id":"4","last_reported":1771183012,"current_range_meters":19200,"station_id":"ce4bhch2rcd13ifvqeug","pricing_plan_id":"cebpf4jnsgd1na2vs0mg"},{"bike_id":"3466503b-af29-415c-826a-265b92625e7e","system_id":"levelo_inurba_marseille","lat":43.32059,"lon":5.36841,"is_reserved":false,"is_disabled":false,"rental_uris":{"android":"levelo://app?vid=3466503b-af29-415c-826a-265b92625e7e","ios":"levelo://app?vid=3466503b-af29-415c-826a-265b92625e7e"},"vehicle_type_id":"4","last_reported":1771183012,"current_range_meters":28400,"station_id":"","pricing_plan_id":"cebpf4jnsgd1na2vs0mg"},{"bike_id":"30242c10-815e-4f77-9fd9-a2c22a5db905","system_id":"levelo_inurba_marseille","lat":43.280788,"lon":5.396588,"is_reserved":false,"is_disabled":false,"rental_uris":{"android":"levelo://app?vid=30242c10-815e-4f77-9fd9-a2c22a5db905","ios":"levelo://app?vid=30242c10-815e-4f77-9fd9-a2c22a5db905"},"vehicle_type_id":"4","last_reported":1771183012,"current_range_meters":32400,"station_id":"ce4bho12rcd13ifvqh2g","pricing_plan_id":"cebpf4jnsgd1na2vs0mg"},{"bike_id":"8a5adf31-8043-4756-b6af-6195148d5774","system_id":"levelo_inurba_marseille","lat":43.29202,"lon":5.35807,"is_reserved":false,"is_disabled":false,"rental_uris":{"android":"levelo://app?vid=8a5adf31-8043-4756-b6af-6195148d5774","ios":"levelo://app?vid=8a5adf31-8043-4756-b6af-6195148d5774"},"vehicle_type_id":"4","last_reported":1771183012,"current_range_meters":19600,"station_id":"ce4bhb12rcd13ifvqel0","pricing_plan_id":"cebpf4jnsgd1na2vs0mg"},{"bike_id":"6d819218-6dc0-4758-82ab-51c5e4561485","system_id":"levelo_inurba_marseille","lat":43.28616,"lon":5.35102,"is_reserved":false,"is_disabled":false,"rental_uris":{"android":"levelo://app?vid=6d819218-6dc0-4758-82ab-51c5e4561485","ios":"levelo://app?vid=6d819218-6dc0-4758-82ab-51c5e4561485"},"vehicle_type_id":"4","last_reported":1771183012,"current_range_meters":6800,"station_id":"ce4bhch2rcd13ifvqeug","pricing_plan_id":"cebpf4jnsgd1na2vs0mg"},{"bike_id":"ac89198c-c702-4d3c-9029-266a18e0ed53","system_id":"levelo_inurba_marseille","lat":43.30904,"lon":5.36861,"is_reserved":false,"is_disabled":false,"rental_uris":{"android":"levelo://app?vid=ac89198c-c702-4d3c-9029-266a18e0ed53","ios":"levelo://app?vid=ac89198c-c702-4d3c-9029-266a18e0ed53"},"vehicle_type_id":"4","last_reported":1771183012,"current_range_meters":24000,"station_id":"ce4bgn92rcd13ifvqbvg","pricing_plan_id":"cebpf4jnsgd1na2vs0mg"},{"bike_id":"0cfeca90-3a0f-4841-9a00-2513602bf4d3","system_id":"levelo_inurba_marseille","lat":43.29585,"lon":5.37744,"is_reserved":false,"is_disabled":false,"rental_uris":{"android":"levelo://app?vid=0cfeca90-3a0f-4841-9a00-2513602bf4d3","ios":"levelo://app?vid=0cfeca90-3a0f-4841-9a00-2513602bf4d3"},"vehicle_type_id":"4","last_reported":1771183012,"current_range_meters":30800,"station_id":"","pricing_plan_id":"cebpf4jnsgd1na2vs0mg"},{"bike_id":"eaa5a20b-1cfb-4952-b36f-41363341fdee","system_id":"levelo_inurba_marseille","lat":43.2396,"lon":5.36642,"is_reserved":false,"is_disabled":false,"rental_uris":{"android":"levelo://app?vid=eaa5a20b-1cfb-4952-b36f-41363341fdee","ios":"levelo://app?vid=eaa5a20b-1cfb-4952-b36f-41363341fdee"},"vehicle_type_id":"4","last_reported":1771183012,"current_range_meters":11600,"station_id":"ce4bhi12rcd13ifvqfp0","pricing_plan_id":"cebpf4jnsgd1na2vs0mg"},{"bike_id":"728a8600-c06b-4447-9a71-a43a2371fd54","system_id":"levelo_inurba_marseille","lat":43.25094,"lon":5.39502,"is_reserved":false,"is_disabled":true,"rental_uris":{"android":"levelo://app?vid=728a8600-c06b-4447-9a71-a43a2371fd54","ios":"levelo://app?vid=728a8600-c06b-4447-9a71-a43a2371fd54"},"vehicle_type_id":"4","last_reported":1771183012,"current_range_meters":10800,"station_id":"ce4bhm12rcd13ifvqgkg","pricing_plan_id":"cebpf4jnsgd1na2vs0mg"},{"bike_id":"ea90ff18-89ca-468b-9c65-2bfa0ffd613b","system_id":"levelo_inurba_marseille","lat":43.26801,"lon":5.39429,"is_reserved":false,"is_disabled":false,"rental_uris":{"android":"levelo://app?vid=ea90ff18-89ca-468b-9c65-2bfa0ffd613b","ios":"levelo://app?vid=ea90ff18-89ca-468b-9c65-2bfa0ffd613b"},"vehicle_type_id":"4","last_reported":1771183012,"current_range_meters":24800,"station_id":"ce4bhh12rcd13ifvqfg0","pricing_plan_id":"cebpf4jnsgd1na2vs0mg"},{"bike_id":"8737a08f-def5-40a2-8352-dee367d723f1","system_id":"levelo_inurba_marseille","lat":43.27307,"lon":5.39074,"is_reserved":false,"is_disabled":false,"rental_uris":{"android":"levelo://app?vid=8737a08f-def5-40a2-8352-dee367d723f1","ios":"levelo://app?vid=8737a08f-def5-40a2-8352-dee367d723f1"},"vehicle_type_id":"4","last_reported":1771183012,"current_range_meters":36800,"station_id":"ce4bhgp2rcd13ifvqfe0","pricing_plan_id":"cebpf4jnsgd1na2vs0mg"},{"bike_id":"2f0b85aa-c457-4958-914e-08f5ab13887b","system_id":"levelo_inurba_marseille","lat":43.240791,"lon":5.3775,"is_reserved":false,"is_disabled":false,"rental_uris":{"android":"levelo://app?vid=2f0b85aa-c457-4958-914e-08f5ab13887b","ios":"levelo://app?vid=2f0b85aa-c457-4958-914e-08f5ab13887b"},"vehicle_type_id":"4","last_reported":1771183012,"current_range_meters":26000,"station_id":"ce4bhnp2rcd13ifvqgvg","pricing_plan_id":"cebpf4jnsgd1na2vs0mg"},{"bike_id":"978d2f99-2f31-4c4e-be2a-4e68224c9eda","system_id":"levelo_inurba_marseille","lat":43.26795,"lon":5.40245,"is_reserved":false,"is_disabled":false,"rental_uris":{"android":"levelo://app?vid=978d2f99-2f31-4c4e-be2a-4e68224c9eda","ios":"levelo://app?vid=978d2f99-2f31-4c4e-be2a-4e68224c9eda"},"vehicle_type_id":"4","last_reported":1771183012,"current_range_meters":24400,"station_id":"ce501612rcd8frsf0b60","pricing_plan_id":"cebpf4jnsgd1na2vs0mg"},{"bike_id":"e71994a2-65a6-4b6d-9113-3678b38f3c81","system_id":"levelo_inurba_marseille","lat":43.30502,"lon":5.36556,"is_reserved":false,"is_disabled":false,"rental_uris":{"android":"levelo://app?vid=e71994a2-65a6-4b6d-9113-3678b38f3c81","ios":"levelo://app?vid=e71994a2-65a6-4b6d-9113-3678b38f3c81"},"vehicle_type_id":"4","last_reported":1771183012,"current_range_meters":13600,"station_id":"","pricing_plan_id":"cebpf4jnsgd1na2vs0mg"},{"bike_id":"a7f7b660-0691-444e-a35e-d0e7e558f8cd","system_id":"levelo_inurba_marseille","lat":43.26943,"lon":5.38627,"is_reserved":false,"is_disabled":true,"rental_uris":{"android":"levelo://app?vid=a7f7b660-0691-444e-a35e-d0e7e558f8cd","ios":"levelo://app?vid=a7f7b660-0691-444e-a35e-d0e7e558f8cd"},"vehicle_type_id":"4","last_reported":1771183012,"current_range_meters":32400,"station_id":"ce4bhh92rcd13ifvqfh0","pricing_plan_id":"cebpf4jnsgd1na2vs0mg"},{"bike_id":"81af1ab8-7371-40b0-8e90-41134fdcf3a1","system_id":"levelo_inurba_marseille","lat":43.26954,"lon":5.38913,"is_reserved":false,"is_disabled":false,"rental_uris":{"android":"levelo://app?vid=81af1ab8-7371-40b0-8e90-41134fdcf3a1","ios":"levelo://app?vid=81af1ab8-7371-40b0-8e90-41134fdcf3a1"},"vehicle_type_id":"4","last_reported":1771183012,"current_range_meters":38400,"station_id":"ce4bhhh2rcd13ifvqfl0","pricing_plan_id":"cebpf4jnsgd1na2vs0mg"},{"bike_id":"cf8b7d0a-9a5a-4f97-92c3-931492bbfb02","system_id":"levelo_inurba_marseille","lat":43.27212,"lon":5.40967,"is_reserved":false,"is_disabled":false,"rental_uris":{"android":"levelo://app?vid=cf8b7d0a-9a5a-4f97-92c3-931492bbfb02","ios":"levelo://app?vid=cf8b7d0a-9a5a-4f97-92c3-931492bbfb02"},"vehicle_type_id":"4","last_reported":1771183012,"current_range_meters":28400,"station_id":"","pricing_plan_id":"cebpf4jnsgd1na2vs0mg"},{"bike_id":"bfd9d056-3cd0-4156-bc1c-ed231a73ccbf","system_id":"levelo_inurba_marseille","lat":43.29571,"lon":5.37502,"is_reserved":false,"is_disabled":false,"rental_uris":{"android":"levelo://app?vid=bfd9d056-3cd0-4156-bc1c-ed231a73ccbf","ios":"levelo://app?vid=bfd9d056-3cd0-4156-bc1c-ed231a73ccbf"},"vehicle_type_id":"4","last_reported":1771183012,"current_range_meters":14000,"station_id":"ce4bgh92rcd13ifvqb50","pricing_plan_id":"cebpf4jnsgd1na2vs0mg"},{"bike_id":"af391d0a-a6da-4399-9f4d-a72ce800dfbc","system_id":"levelo_inurba_marseille","lat":43.29911,"lon":5.38144,"is_reserved":false,"is_disabled":false,"rental_uris":{"android":"levelo://app?vid=af391d0a-a6da-4399-9f4d-a72ce800dfbc","ios":"levelo://app?vid=af391d0a-a6da-4399-9f4d-a72ce800dfbc"},"vehicle_type_id":"4","last_reported":1771183012,"current_range_meters":35600,"station_id":"ce4bgj12rcd13ifvqbc0","pricing_plan_id":"cebpf4jnsgd1na2vs0mg"},{"bike_id":"88ff9439-db02-4be2-a9f2-dbfd8e7a5968","system_id":"levelo_inurba_marseille","lat":43.25859,"lon":5.39896,"is_reserved":false,"is_disabled":false,"rental_uris":{"android":"levelo://app?vid=88ff9439-db02-4be2-a9f2-dbfd8e7a5968","ios":"levelo://app?vid=88ff9439-db02-4be2-a9f2-dbfd8e7a5968"},"vehicle_type_id":"4","last_reported":1771183012,"current_range_meters":31200,"station_id":"ce4bhl92rcd13ifvqghg","pricing_plan_id":"cebpf4jnsgd1na2vs0mg"},{"bike_id":"cfae685f-c63c-4f49-9c1b-ab3959e7fdd6","system_id":"levelo_inurba_marseille","lat":43.249429,"lon":5.404989,"is_reserved":false,"is_disabled":false,"rental_uris":{"android":"levelo://app?vid=cfae685f-c63c-4f49-9c1b-ab3959e7fdd6","ios":"levelo://app?vid=cfae685f-c63c-4f49-9c1b-ab3959e7fdd6"},"vehicle_type_id":"4","last_reported":1771183012,"current_range_meters":36000,"station_id":"st_d2ngiaodas8pm72gd1h0","pricing_plan_id":"cebpf4jnsgd1na2vs0mg"},{"bike_id":"ffcb95c1-3776-4292-8599-220fd7020f47","system_id":"levelo_inurba_marseille","lat":43.28213,"lon":5.39048,"is_reserved":false,"is_disabled":true,"rental_uris":{"android":"levelo://app?vid=ffcb95c1-3776-4292-8599-220fd7020f47","ios":"levelo://app?vid=ffcb95c1-3776-4292-8599-220fd7020f47"},"vehicle_type_id":"4","last_reported":1771183012,"current_range_meters":24000,"station_id":"ce4bhn92rcd13ifvqgsg","pricing_plan_id":"cebpf4jnsgd1na2vs0mg"},{"bike_id":"a92aea04-d9ee-40a7-9385-9fbb090f0026","system_id":"levelo_inurba_marseille","lat":43.26074,"lon":5.39399,"is_reserved":false,"is_disabled":false,"rental_uris":{"android":"levelo://app?vid=a92aea04-d9ee-40a7-9385-9fbb090f0026","ios":"levelo://app?vid=a92aea04-d9ee-40a7-9385-9fbb090f0026"},"vehicle_type_id":"4","last_reported":1771183012,"current_range_meters":39200,"station_id":"ce4bhh92rcd13ifvqfj0","pricing_plan_id":"cebpf4jnsgd1na2vs0mg"},{"bike_id":"d1bdaccb-a031-4f97-b54b-58b434e13e4c","system_id":"levelo_inurba_marseille","lat":43.29913,"lon":5.39763,"is_reserved":false,"is_disabled":false,"rental_uris":{"android":"levelo://app?vid=d1bdaccb-a031-4f97-b54b-58b434e13e4c","ios":"levelo://app?vid=d1bdaccb-a031-4f97-b54b-58b434e13e4c"},"vehicle_type_id":"4","last_reported":1771183012,"current_range_meters":39200,"station_id":"ce4bh0h2rcd13ifvqd50","pricing_plan_id":"cebpf4jnsgd1na2vs0mg"},{"bike_id":"ddc08c7d-272e-4f9e-9760-0703e441790a","system_id":"levelo_inurba_marseille","lat":43.29591,"lon":5.37526,"is_reserved":false,"is_disabled":false,"rental_uris":{"android":"levelo://app?vid=ddc08c7d-272e-4f9e-9760-0703e441790a","ios":"levelo://app?vid=ddc08c7d-272e-4f9e-9760-0703e441790a"},"vehicle_type_id":"4","last_reported":1771183012,"current_range_meters":28000,"station_id":"ce4bgh92rcd13ifvqb50","pricing_plan_id":"cebpf4jnsgd1na2vs0mg"},{"bike_id":"aa18849d-f083-4418-be85-55b6f0c91487","system_id":"levelo_inurba_marseille","lat":43.290314,"lon":5.386511,"is_reserved":false,"is_disabled":false,"rental_uris":{"android":"levelo://app?vid=aa18849d-f083-4418-be85-55b6f0c91487","ios":"levelo://app?vid=aa18849d-f083-4418-be85-55b6f0c91487"},"vehicle_type_id":"4","last_reported":1771183012,"current_range_meters":16400,"station_id":"ce4bh4p2rcd13ifvqe0g","pricing_plan_id":"cebpf4jnsgd1na2vs0mg"},{"bike_id":"48aed61f-414a-497a-ac68-86d9f7b9bb97","system_id":"levelo_inurba_marseille","lat":43.30593,"lon":5.37273,"is_reserved":false,"is_disabled":true,"rental_uris":{"android":"levelo://app?vid=48aed61f-414a-497a-ac68-86d9f7b9bb97","ios":"levelo://app?vid=48aed61f-414a-497a-ac68-86d9f7b9bb97"},"vehicle_type_id":"4","last_reported":1771183012,"current_range_meters":24400,"station_id":"ce4bgqh2rcd13ifvqc4g","pricing_plan_id":"cebpf4jnsgd1na2vs0mg"},{"bike_id":"9a845590-bef0-4cac-8aaf-99569a2ff2ac","system_id":"levelo_inurba_marseille","lat":43.292537,"lon":5.409109,"is_reserved":false,"is_disabled":false,"rental_uris":{"android":"levelo://app?vid=9a845590-bef0-4cac-8aaf-99569a2ff2ac","ios":"levelo://app?vid=9a845590-bef0-4cac-8aaf-99569a2ff2ac"},"vehicle_type_id":"4","last_reported":1771183012,"current_range_meters":36400,"station_id":"ce4bh192rcd13ifvqdc0","pricing_plan_id":"cebpf4jnsgd1na2vs0mg"},{"bike_id":"8491b334-0ba7-4277-9797-3edac002b21f","system_id":"levelo_inurba_marseille","lat":43.26219,"lon":5.40468,"is_reserved":false,"is_disabled":false,"rental_uris":{"android":"levelo://app?vid=8491b334-0ba7-4277-9797-3edac002b21f","ios":"levelo://app?vid=8491b334-0ba7-4277-9797-3edac002b21f"},"vehicle_type_id":"4","last_reported":1771183012,"current_range_meters":8000,"station_id":"ce4bhmh2rcd13ifvqgmg","pricing_plan_id":"cebpf4jnsgd1na2vs0mg"},{"bike_id":"6c78efb4-21ea-48b6-a077-5447702c0f63","system_id":"levelo_inurba_marseille","lat":43.29883,"lon":5.43654,"is_reserved":false,"is_disabled":false,"rental_uris":{"android":"levelo://app?vid=6c78efb4-21ea-48b6-a077-5447702c0f63","ios":"levelo://app?vid=6c78efb4-21ea-48b6-a077-5447702c0f63"},"vehicle_type_id":"4","last_reported":1771183012,"current_range_meters":32400,"station_id":"ce4bhpp2rcd13ifvqhfg","pricing_plan_id":"cebpf4jnsgd1na2vs0mg"},{"bike_id":"77d1d293-10fd-49de-a4ca-b7d708651906","system_id":"levelo_inurba_marseille","lat":43.26801,"lon":5.39461,"is_reserved":false,"is_disabled":false,"rental_uris":{"android":"levelo://app?vid=77d1d293-10fd-49de-a4ca-b7d708651906","ios":"levelo://app?vid=77d1d293-10fd-49de-a4ca-b7d708651906"},"vehicle_type_id":"4","last_reported":1771183012,"current_range_meters":25600,"station_id":"","pricing_plan_id":"cebpf4jnsgd1na2vs0mg"},{"bike_id":"af1bad4a-9a8c-4ce6-826d-62498546f4f1","system_id":"levelo_inurba_marseille","lat":43.30418,"lon":5.36906,"is_reserved":false,"is_disabled":false,"rental_uris":{"android":"levelo://app?vid=af1bad4a-9a8c-4ce6-826d-62498546f4f1","ios":"levelo://app?vid=af1bad4a-9a8c-4ce6-826d-62498546f4f1"},"vehicle_type_id":"4","last_reported":1771183012,"current_range_meters":25200,"station_id":"","pricing_plan_id":"cebpf4jnsgd1na2vs0mg"},{"bike_id":"d1ea4c1d-165a-4745-8895-5bae6ea7450c","system_id":"levelo_inurba_marseille","lat":43.28927,"lon":5.36636,"is_reserved":false,"is_disabled":false,"rental_uris":{"android":"levelo://app?vid=d1ea4c1d-165a-4745-8895-5bae6ea7450c","ios":"levelo://app?vid=d1ea4c1d-165a-4745-8895-5bae6ea7450c"},"vehicle_type_id":"4","last_reported":1771183012,"current_range_meters":38800,"station_id":"","pricing_plan_id":"cebpf4jnsgd1na2vs0mg"},{"bike_id":"2532d967-21ae-40ef-ad2c-dacd160e3c9f","system_id":"levelo_inurba_marseille","lat":43.29798,"lon":5.38086,"is_reserved":false,"is_disabled":false,"rental_uris":{"android":"levelo://app?vid=2532d967-21ae-40ef-ad2c-dacd160e3c9f","ios":"levelo://app?vid=2532d967-21ae-40ef-ad2c-dacd160e3c9f"},"vehicle_type_id":"4","last_reported":1771183012,"current_range_meters":36400,"station_id":"ce4bgip2rcd13ifvqbb0","pricing_plan_id":"cebpf4jnsgd1na2vs0mg"},{"bike_id":"3bb5bc67-1d0a-4908-8016-273223517602","system_id":"levelo_inurba_marseille","lat":43.260628,"lon":5.393978,"is_reserved":false,"is_disabled":false,"rental_uris":{"android":"levelo://app?vid=3bb5bc67-1d0a-4908-8016-273223517602","ios":"levelo://app?vid=3bb5bc67-1d0a-4908-8016-273223517602"},"vehicle_type_id":"4","last_reported":1771183012,"current_range_meters":4800,"station_id":"ce4bhh92rcd13ifvqfj0","pricing_plan_id":"cebpf4jnsgd1na2vs0mg"},{"bike_id":"bb8da79f-40bd-46c5-8d9f-995adda9ec00","system_id":"levelo_inurba_marseille","lat":43.2796,"lon":5.38674,"is_reserved":false,"is_disabled":true,"rental_uris":{"android":"levelo://app?vid=bb8da79f-40bd-46c5-8d9f-995adda9ec00","ios":"levelo://app?vid=bb8da79f-40bd-46c5-8d9f-995adda9ec00"},"vehicle_type_id":"4","last_reported":1771183012,"current_range_meters":28400,"station_id":"","pricing_plan_id":"cebpf4jnsgd1na2vs0mg"},{"bike_id":"4ecccdf8-eeb1-4e16-8486-1a035343c059","system_id":"levelo_inurba_marseille","lat":43.28615,"lon":5.3512,"is_reserved":false,"is_disabled":false,"rental_uris":{"android":"levelo://app?vid=4ecccdf8-eeb1-4e16-8486-1a035343c059","ios":"levelo://app?vid=4ecccdf8-eeb1-4e16-8486-1a035343c059"},"vehicle_type_id":"4","last_reported":1771183012,"current_range_meters":12800,"station_id":"ce4bhch2rcd13ifvqeug","pricing_plan_id":"cebpf4jnsgd1na2vs0mg"},{"bike_id":"b25d14fc-b504-4447-a03d-7ca17c4c80bd","system_id":"levelo_inurba_marseille","lat":43.25333,"lon":5.42152,"is_reserved":false,"is_disabled":false,"rental_uris":{"android":"levelo://app?vid=b25d14fc-b504-4447-a03d-7ca17c4c80bd","ios":"levelo://app?vid=b25d14fc-b504-4447-a03d-7ca17c4c80bd"},"vehicle_type_id":"4","last_reported":1771183012,"current_range_meters":24000,"station_id":"st_d2m65c5bi1j21697t3ng","pricing_plan_id":"cebpf4jnsgd1na2vs0mg"},{"bike_id":"9c84dd9d-345d-4e79-b566-6f7378557fe2","system_id":"levelo_inurba_marseille","lat":43.28422,"lon":5.37507,"is_reserved":false,"is_disabled":false,"rental_uris":{"android":"levelo://app?vid=9c84dd9d-345d-4e79-b566-6f7378557fe2","ios":"levelo://app?vid=9c84dd9d-345d-4e79-b566-6f7378557fe2"},"vehicle_type_id":"4","last_reported":1771183012,"current_range_meters":37600,"station_id":"ce4bh412rcd13ifvqds0","pricing_plan_id":"cebpf4jnsgd1na2vs0mg"},{"bike_id":"414fe893-910a-4545-b16e-dc2665c28af7","system_id":"levelo_inurba_marseille","lat":43.29964,"lon":5.41321,"is_reserved":false,"is_disabled":false,"rental_uris":{"android":"levelo://app?vid=414fe893-910a-4545-b16e-dc2665c28af7","ios":"levelo://app?vid=414fe893-910a-4545-b16e-dc2665c28af7"},"vehicle_type_id":"4","last_reported":1771183012,"current_range_meters":36400,"station_id":"ce4bhp12rcd13ifvqh9g","pricing_plan_id":"cebpf4jnsgd1na2vs0mg"},{"bike_id":"d023d277-de4f-4f8d-8ce8-685b15fa0053","system_id":"levelo_inurba_marseille","lat":43.28938,"lon":5.38402,"is_reserved":false,"is_disabled":false,"rental_uris":{"android":"levelo://app?vid=d023d277-de4f-4f8d-8ce8-685b15fa0053","ios":"levelo://app?vid=d023d277-de4f-4f8d-8ce8-685b15fa0053"},"vehicle_type_id":"4","last_reported":1771183012,"current_range_meters":36000,"station_id":"","pricing_plan_id":"cebpf4jnsgd1na2vs0mg"},{"bike_id":"d9e6a7e6-72d9-4ab5-a73c-8b8ce1684c73","system_id":"levelo_inurba_marseille","lat":43.27064,"lon":5.40273,"is_reserved":false,"is_disabled":false,"rental_uris":{"android":"levelo://app?vid=d9e6a7e6-72d9-4ab5-a73c-8b8ce1684c73","ios":"levelo://app?vid=d9e6a7e6-72d9-4ab5-a73c-8b8ce1684c73"},"vehicle_type_id":"4","last_reported":1771183012,"current_range_meters":35200,"station_id":"ce4bhk92rcd13ifvqgc0","pricing_plan_id":"cebpf4jnsgd1na2vs0mg"},{"bike_id":"69dae0b3-9261-4f21-adf0-bd671c11c632","system_id":"levelo_inurba_marseille","lat":43.29162,"lon":5.37163,"is_reserved":false,"is_disabled":true,"rental_uris":{"android":"levelo://app?vid=69dae0b3-9261-4f21-adf0-bd671c11c632","ios":"levelo://app?vid=69dae0b3-9261-4f21-adf0-bd671c11c632"},"vehicle_type_id":"4","last_reported":1771183012,"current_range_meters":36400,"station_id":"ce4bha92rcd13ifvqeh0","pricing_plan_id":"cebpf4jnsgd1na2vs0mg"},{"bike_id":"e2ae36e2-7f95-4984-96f8-6f34e5ef1346","system_id":"levelo_inurba_marseille","lat":43.29814,"lon":5.44101,"is_reserved":false,"is_disabled":false,"rental_uris":{"android":"levelo://app?vid=e2ae36e2-7f95-4984-96f8-6f34e5ef1346","ios":"levelo://app?vid=e2ae36e2-7f95-4984-96f8-6f34e5ef1346"},"vehicle_type_id":"4","last_reported":1771183012,"current_range_meters":16400,"station_id":"st_d3jp68qikq2c7381ktn0","pricing_plan_id":"cebpf4jnsgd1na2vs0mg"},{"bike_id":"1bcef405-6f57-4918-b9c5-3c05671fd130","system_id":"levelo_inurba_marseille","lat":43.30278,"lon":5.3771,"is_reserved":false,"is_disabled":false,"rental_uris":{"android":"levelo://app?vid=1bcef405-6f57-4918-b9c5-3c05671fd130","ios":"levelo://app?vid=1bcef405-6f57-4918-b9c5-3c05671fd130"},