{"last_updated":1703291613,"ttl":30,"version":"2.2","data":{"bikes":[{"bike_id":"ec3214d1-0cbf-4d91-9c7b-1538d332cbaf","system_id":"levelo_inurba_marseille","lat":43.314811,"lon":5.373103,"is_reserved":false,"is_disabled":false,"rental_uris":{"android":"levelo://app?vid=ec3214d1-0cbf-4d91-9c7b-1538d332cbaf","ios":"levelo://app?vid=ec3214d1-0cbf-4d91-9c7b-1538d332cbaf"},"vehicle_type_id":"4","last_reported":1703291613,"current_range_meters":9200,"station_id":"ce4bgt12rcd13ifvqcd0","pricing_plan_id":"free"},{"bike_id":"d37d52c6-a1eb-4740-a5cc-e7935cd603f0","system_id":"levelo_inurba_marseille","lat":43.314811,"lon":5.373103,"is_reserved":false,"is_disabled":false,"rental_uris":{"android":"levelo://app?vid=d37d52c6-a1eb-4740-a5cc-e7935cd603f0","ios":"levelo://app?vid=d37d52c6-a1eb-4740-a5cc-e7935cd603f0"},"vehicle_type_id":"4","last_reported":1703291613,"current_range_meters":29200,"station_id":"ce4bgt12rcd13ifvqcd0","pricing_plan_id":"free"},{"bike_id":"9d8db9d4-b6f4-46d3-8619-672e6448567c","system_id":"levelo_inurba_marseille","lat":43.314811,"lon":5.373103,"is_reserved":false,"is_disabled":false,"rental_uris":{"android":"levelo://app?vid=9d8db9d4-b6f4-46d3-8619-672e6448567c","ios":"levelo://app?vid=9d8db9d4-b6f4-46d3-8619-672e6448567c"},"vehicle_type_id":"4","last_reported":1703291613,"current_range_meters":30000,"station_id":"ce4bgt12rcd13ifvqcd0","pricing_plan_id":"free"},{"bike_id":"75d62c3a-a73b-435f-86d1-5a1088daf589","system_id":"levelo_inurba_marseille","lat":43.305989,"lon":5.37225,"is_reserved":false,"is_disabled":false,"rental_uris":{"android":"levelo://app?vid=75d62c3a-a73b-435f-86d1-5a1088daf589","ios":"levelo://app?vid=75d62c3a-a73b-435f-86d1-5a1088daf589"},"vehicle_type_id":"4","last_reported":1703291613,"current_range_meters":26000,"station_id":"ce4bgqh2rcd13ifvqc4g","pricing_plan_id":"free"},{"bike_id":"0cc383f1-96b7-4e3f-91d8-3a503cf49e49","system_id":"levelo_inurba_marseille","lat":43.311131,"lon":5.377651,"is_reserved":false,"is_disabled":false,"rental_uris":{"android":"levelo://app?vid=0cc383f1-96b7-4e3f-91d8-3a503cf49e49","ios":"levelo://app?vid=0cc383f1-96b7-4e3f-91d8-3a503cf49e49"},"vehicle_type_id":"4","last_reported":1703291613,"current_range_meters":17200,"station_id":"ce4bgt92rcd13ifvqcg0","pricing_plan_id":"free"},{"bike_id":"fb118b0a-db0f-4e92-a91a-a6fadc82352a","system_id":"levelo_inurba_marseille","lat":43.311131,"lon":5.377651,"is_reserved":false,"is_disabled":false,"rental_uris":{"android":"levelo://app?vid=fb118b0a-db0f-4e92-a91a-a6fadc82352a","ios":"levelo://app?vid=fb118b0a-db0f-4e92-a91a-a6fadc82352a"},"vehicle_type_id":"4","last_reported":1703291613,"current_range_meters":7200,"station_id":"ce4bgt92rcd13ifvqcg0","pricing_plan_id":"free"},{"bike_id":"bc74c432-90ab-4b82-bc0b-9716a4ccf6b2","system_id":"levelo_inurba_marseille","lat":43.317075,"lon":5.377367,"is_reserved":false,"is_disabled":false,"rental_uris":{"android":"levelo://app?vid=bc74c432-90ab-4b82-bc0b-9716a4ccf6b2","ios":"levelo://app?vid=bc74c432-90ab-4b82-bc0b-9716a4ccf6b2"},"vehicle_type_id":"4","last_reported":1703291613,"current_range_meters":17600,"station_id":"ce4bgth2rcd13ifvqch0","pricing_plan_id":"free"},{"bike_id":"31064d41-982a-4d68-957c-a6ab36a1327f","system_id":"levelo_inurba_marseille","lat":43.317075,"lon":5.377367,"is_reserved":false,"is_disabled":false,"rental_uris":{"android":"levelo://app?vid=31064d41-982a-4d68-957c-a6ab36a1327f","ios":"levelo://app?vid=31064d41-982a-4d68-957c-a6ab36a1327f"},"vehicle_type_id":"4","last_reported":1703291613,"current_range_meters":30400,"station_id":"ce4bgth2rcd13ifvqch0","pricing_plan_id":"free"},{"bike_id":"213b627f-e915-40a2-a6e9-d4f5a1a71bbc","system_id":"levelo_inurba_marseille","lat":43.307945,"lon":5.376487,"is_reserved":false,"is_disabled":false,"rental_uris":{"android":"levelo://app?vid=213b627f-e915-40a2-a6e9-d4f5a1a71bbc","ios":"levelo://app?vid=213b627f-e915-40a2-a6e9-d4f5a1a71bbc"},"vehicle_type_id":"4","last_reported":1703291613,"current_range_meters":30800,"station_id":"ce4bgv92rcd13ifvqcq0","pricing_plan_id":"free"},{"bike_id":"d48d57bf-fbfb-4ed4-bb4b-a1413b2a4eba","system_id":"levelo_inurba_marseille","lat":43.301939,"lon":5.366286,"is_reserved":false,"is_disabled":false,"rental_uris":{"android":"levelo://app?vid=d48d57bf-fbfb-4ed4-bb4b-a1413b2a4eba","ios":"levelo://app?vid=d48d57bf-fbfb-4ed4-bb4b-a1413b2a4eba"},"vehicle_type_id":"4","last_reported":1703291613,"current_range_meters":32000,"station_id":"ce4bgrh2rcd13ifvqc8g","pricing_plan_id":"free"},{"bike_id":"3d8fc60a-8e6e-4ebc-8ace-04b10e9f48bd","system_id":"levelo_inurba_marseille","lat":43.301939,"lon":5.366286,"is_reserved":false,"is_disabled":false,"rental_uris":{"android":"levelo://app?vid=3d8fc60a-8e6e-4ebc-8ace-04b10e9f48bd","ios":"levelo://app?vid=3d8fc60a-8e6e-4ebc-8ace-04b10e9f48bd"},"vehicle_type_id":"4","last_reported":1703291613,"current_range_meters":12000,"station_id":"ce4bgrh2rcd13ifvqc8g","pricing_plan_id":"free"},{"bike_id":"cf28ca03-6df3-4dbf-a190-bbac42653145","system_id":"levelo_inurba_marseille","lat":43.301939,"lon":5.366286,"is_reserved":false,"is_disabled":false,"rental_uris":{"android":"levelo://app?vid=cf28ca03-6df3-4dbf-a190-bbac42653145","ios":"levelo://app?vid=cf28ca03-6df3-4dbf-a190-bbac42653145"},"vehicle_type_id":"4","last_reported":1703291613,"current_range_meters":22400,"station_id":"ce4bgrh2rcd13ifvqc8g","pricing_plan_id":"free"},{"bike_id":"93e3df6a-5fb6-401c-a19e-e3d9b65be1d8","system_id":"levelo_inurba_marseille","lat":43.308012,"lon":5.381511,"is_reserved":false,"is_disabled":false,"rental_uris":{"android":"levelo://app?vid=93e3df6a-5fb6-401c-a19e-e3d9b65be1d8","ios":"levelo://app?vid=93e3df6a-5fb6-401c-a19e-e3d9b65be1d8"},"vehicle_type_id":"4","last_reported":1703291613,"current_range_meters":19200,"station_id":"ce4bgt12rcd13ifvqce0","pricing_plan_id":"free"},{"bike_id":"0f12f4a1-9d18-4087-b872-4b0ae162eb1d","system_id":"levelo_inurba_marseille","lat":43.324771,"lon":5.36557,"is_reserved":false,"is_disabled":false,"rental_uris":{"android":"levelo://app?vid=0f12f4a1-9d18-4087-b872-4b0ae162eb1d","ios":"levelo://app?vid=0f12f4a1-9d18-4087-b872-4b0ae162eb1d"},"vehicle_type_id":"4","last_reported":1703291613,"current_range_meters":0,"station_id":"ce4bhs12rcd13ifvqhvg","pricing_plan_id":"free"},{"bike_id":"fc8ec5f1-5f09-4364-9576-3ec3ab394e4b","system_id":"levelo_inurba_marseille","lat":43.324771,"lon":5.36557,"is_reserved":false,"is_disabled":false,"rental_uris":{"android":"levelo://app?vid=fc8ec5f1-5f09-4364-9576-3ec3ab394e4b","ios":"levelo://app?vid=fc8ec5f1-5f09-4364-9576-3ec3ab394e4b"},"vehicle_type_id":"4","last_reported":1703291613,"current_range_meters":24400,"station_id":"ce4bhs12rcd13ifvqhvg","pricing_plan_id":"free"},{"bike_id":"4b176a2b-35a8-478e-93c2-e09cc8ed4702","system_id":"levelo_inurba_marseille","lat":43.302784,"lon":5.377158,"is_reserved":false,"is_disabled":false,"rental_uris":{"android":"levelo://app?vid=4b176a2b-35a8-478e-93c2-e09cc8ed4702","ios":"levelo://app?vid=4b176a2b-35a8-478e-93c2-e09cc8ed4702"},"vehicle_type_id":"4","last_reported":1703291613,"current_range_meters":1200,"station_id":"ce4bguh2rcd13ifvqcj0","pricing_plan_id":"free"},{"bike_id":"84ff0b10-c257-4323-b98a-de8b16b89652","system_id":"levelo_inurba_marseille","lat":43.302784,"lon":5.377158,"is_reserved":false,"is_disabled":false,"rental_uris":{"android":"levelo://app?vid=84ff0b10-c257-4323-b98a-de8b16b89652","ios":"levelo://app?vid=84ff0b10-c257-4323-b98a-de8b16b89652"},"vehicle_type_id":"4","last_reported":1703291613,"current_range_meters":5200,"station_id":"ce4bguh2rcd13ifvqcj0","pricing_plan_id":"free"},{"bike_id":"69599836-e945-413a-a849-741769f44bc7","system_id":"levelo_inurba_marseille","lat":43.302784,"lon":5.377158,"is_reserved":false,"is_disabled":false,"rental_uris":{"android":"levelo://app?vid=69599836-e945-413a-a849-741769f44bc7","ios":"levelo://app?vid=69599836-e945-413a-a849-741769f44bc7"},"vehicle_type_id":"4","last_reported":1703291613,"current_range_meters":16400,"station_id":"ce4bguh2rcd13ifvqcj0","pricing_plan_id":"free"},{"bike_id":"08a4cd95-4c29-4f5a-9d62-af409fc42d0b","system_id":"levelo_inurba_marseille","lat":43.301429,"lon":5.37413,"is_reserved":false,"is_disabled":false,"rental_uris":{"android":"levelo://app?vid=08a4cd95-4c29-4f5a-9d62-af409fc42d0b","ios":"levelo://app?vid=08a4cd95-4c29-4f5a-9d62-af409fc42d0b"},"vehicle_type_id":"4","last_reported":1703291613,"current_range_meters":26400,"station_id":"ce4bgs92rcd13ifvqcc0","pricing_plan_id":"free"},{"bike_id":"9c231161-337f-4eba-87d3-44d75eaa84aa","system_id":"levelo_inurba_marseille","lat":43.319935,"lon":5.381699,"is_reserved":false,"is_disabled":false,"rental_uris":{"android":"levelo://app?vid=9c231161-337f-4eba-87d3-44d75eaa84aa","ios":"levelo://app?vid=9c231161-337f-4eba-87d3-44d75eaa84aa"},"vehicle_type_id":"4","last_reported":1703291613,"current_range_meters":29600,"station_id":"ce4bhr12rcd13ifvqhpg","pricing_plan_id":"free"},{"bike_id":"dc0f6af5-c02c-4610-baea-e5c6ca16f530","system_id":"levelo_inurba_marseille","lat":43.319933,"lon":5.38151,"is_reserved":false,"is_disabled":false,"rental_uris":{"android":"levelo://app?vid=dc0f6af5-c02c-4610-baea-e5c6ca16f530","ios":"levelo://app?vid=dc0f6af5-c02c-4610-baea-e5c6ca16f530"},"vehicle_type_id":"4","last_reported":1703291613,"current_range_meters":27200,"station_id":"ce4bhr12rcd13ifvqhpg","pricing_plan_id":"free"},{"bike_id":"a4d91f4c-0227-4bc9-a904-969806ef4ac5","system_id":"levelo_inurba_marseille","lat":43.31996,"lon":5.38151,"is_reserved":false,"is_disabled":false,"rental_uris":{"android":"levelo://app?vid=a4d91f4c-0227-4bc9-a904-969806ef4ac5","ios":"levelo://app?vid=a4d91f4c-0227-4bc9-a904-969806ef4ac5"},"vehicle_type_id":"4","last_reported":1703291613,"current_range_meters":20400,"station_id":"ce4bhr12rcd13ifvqhpg","pricing_plan_id":"free"},{"bike_id":"0660b770-dd60-4e90-8802-23f4be821afa","system_id":"levelo_inurba_marseille","lat":43.31998,"lon":5.38151,"is_reserved":false,"is_disabled":false,"rental_uris":{"android":"levelo://app?vid=0660b770-dd60-4e90-8802-23f4be821afa","ios":"levelo://app?vid=0660b770-dd60-4e90-8802-23f4be821afa"},"vehicle_type_id":"4","last_reported":1703291613,"current_range_meters":4800,"station_id":"ce4bhr12rcd13ifvqhpg","pricing_plan_id":"free"},{"bike_id":"c616a760-5d15-46bb-9d75-552ebc124cb7","system_id":"levelo_inurba_marseille","lat":43.319935,"lon":5.381699,"is_reserved":false,"is_disabled":false,"rental_uris":{"android":"levelo://app?vid=c616a760-5d15-46bb-9d75-552ebc124cb7","ios":"levelo://app?vid=c616a760-5d15-46bb-9d75-552ebc124cb7"},"vehicle_type_id":"4","last_reported":1703291613,"current_range_meters":18400,"station_id":"ce4bhr12rcd13ifvqhpg","pricing_plan_id":"free"},{"bike_id":"7f17d550-d32d-4490-8e9d-12fbd3d7571d","system_id":"levelo_inurba_marseille","lat":43.319935,"lon":5.381699,"is_reserved":false,"is_disabled":false,"rental_uris":{"android":"levelo://app?vid=7f17d550-d32d-4490-8e9d-12fbd3d7571d","ios":"levelo://app?vid=7f17d550-d32d-4490-8e9d-12fbd3d7571d"},"vehicle_type_id":"4","last_reported":1703291613,"current_range_meters":20800,"station_id":"ce4bhr12rcd13ifvqhpg","pricing_plan_id":"free"},{"bike_id":"82b7c1aa-506b-4cff-953c-bb835d7847c3","system_id":"levelo_inurba_marseille","lat":43.319935,"lon":5.381699,"is_reserved":false,"is_disabled":false,"rental_uris":{"android":"levelo://app?vid=82b7c1aa-506b-4cff-953c-bb835d7847c3","ios":"levelo://app?vid=82b7c1aa-506b-4cff-953c-bb835d7847c3"},"vehicle_type_id":"4","last_reported":1703291613,"current_range_meters":13200,"station_id":"ce4bhr12rcd13ifvqhpg","pricing_plan_id":"free"},{"bike_id":"965cf9c4-61d5-49c2-b8b1-76508d620af4","system_id":"levelo_inurba_marseille","lat":43.32002,"lon":5.38155,"is_reserved":false,"is_disabled":false,"rental_uris":{"android":"levelo://app?vid=965cf9c4-61d5-49c2-b8b1-76508d620af4","ios":"levelo://app?vid=965cf9c4-61d5-49c2-b8b1-76508d620af4"},"vehicle_type_id":"4","last_reported":1703291613,"current_range_meters":19200,"station_id":"ce4bhr12rcd13ifvqhpg","pricing_plan_id":"free"},{"bike_id":"b848a9a5-5e3b-441d-869e-9f335456034d","system_id":"levelo_inurba_marseille","lat":43.313571,"lon":5.384829,"is_reserved":false,"is_disabled":false,"rental_uris":{"android":"levelo://app?vid=b848a9a5-5e3b-441d-869e-9f335456034d","ios":"levelo://app?vid=b848a9a5-5e3b-441d-869e-9f335456034d"},"vehicle_type_id":"4","last_reported":1703291613,"current_range_meters":26400,"station_id":"ce4bgt92rcd13ifvqcf0","pricing_plan_id":"free"},{"bike_id":"ef8af028-1549-48a0-977e-4457f6b198f5","system_id":"levelo_inurba_marseille","lat":43.313571,"lon":5.384829,"is_reserved":false,"is_disabled":false,"rental_uris":{"android":"levelo://app?vid=ef8af028-1549-48a0-977e-4457f6b198f5","ios":"levelo://app?vid=ef8af028-1549-48a0-977e-4457f6b198f5"},"vehicle_type_id":"4","last_reported":1703291613,"current_range_meters":26800,"station_id":"ce4bgt92rcd13ifvqcf0","pricing_plan_id":"free"},{"bike_id":"b2298684-599c-482e-b07c-b5922fa63ab5","system_id":"levelo_inurba_marseille","lat":43.313571,"lon":5.384829,"is_reserved":false,"is_disabled":false,"rental_uris":{"android":"levelo://app?vid=b2298684-599c-482e-b07c-b5922fa63ab5","ios":"levelo://app?vid=b2298684-599c-482e-b07c-b5922fa63ab5"},"vehicle_type_id":"4","last_reported":1703291613,"current_range_meters":6800,"station_id":"ce4bgt92rcd13ifvqcf0","pricing_plan_id":"free"},{"bike_id":"96082c80-39de-4be7-8a77-b831d2eb4ee8","system_id":"levelo_inurba_marseille","lat":43.305364,"lon":5.384119,"is_reserved":false,"is_disabled":false,"rental_uris":{"android":"levelo://app?vid=96082c80-39de-4be7-8a77-b831d2eb4ee8","ios":"levelo://app?vid=96082c80-39de-4be7-8a77-b831d2eb4ee8"},"vehicle_type_id":"4","last_reported":1703291613,"current_range_meters":19200,"station_id":"ce4bgg92rcd13ifvqb30","pricing_plan_id":"free"},{"bike_id":"39f0daf9-5d2a-4157-a9bf-21ba28fbcf18","system_id":"levelo_inurba_marseille","lat":43.311722,"lon":5.387247,"is_reserved":false,"is_disabled":false,"rental_uris":{"android":"levelo://app?vid=39f0daf9-5d2a-4157-a9bf-21ba28fbcf18","ios":"levelo://app?vid=39f0daf9-5d2a-4157-a9bf-21ba28fbcf18"},"vehicle_type_id":"4","last_reported":1703291613,"current_range_meters":31600,"station_id":"ce4bgv12rcd13ifvqcp0","pricing_plan_id":"free"},{"bike_id":"8e793923-fa4c-438b-978b-8708cbf0b182","system_id":"levelo_inurba_marseille","lat":43.311722,"lon":5.387247,"is_reserved":false,"is_disabled":false,"rental_uris":{"android":"levelo://app?vid=8e793923-fa4c-438b-978b-8708cbf0b182","ios":"levelo://app?vid=8e793923-fa4c-438b-978b-8708cbf0b182"},"vehicle_type_id":"4","last_reported":1703291613,"current_range_meters":16000,"station_id":"ce4bgv12rcd13ifvqcp0","pricing_plan_id":"free"},{"bike_id":"11260b99-74b4-4059-bf60-e31b9d3e6c5b","system_id":"levelo_inurba_marseille","lat":43.311722,"lon":5.387247,"is_reserved":false,"is_disabled":false,"rental_uris":{"android":"levelo://app?vid=11260b99-74b4-4059-bf60-e31b9d3e6c5b","ios":"levelo://app?vid=11260b99-74b4-4059-bf60-e31b9d3e6c5b"},"vehicle_type_id":"4","last_reported":1703291613,"current_range_meters":24800,"station_id":"ce4bgv12rcd13ifvqcp0","pricing_plan_id":"free"},{"bike_id":"62a0e181-56c1-4aad-a05b-240ecf27baec","system_id":"levelo_inurba_marseille","lat":43.322872,"lon":5.382756,"is_reserved":false,"is_disabled":false,"rental_uris":{"android":"levelo://app?vid=62a0e181-56c1-4aad-a05b-240ecf27baec","ios":"levelo://app?vid=62a0e181-56c1-4aad-a05b-240ecf27baec"},"vehicle_type_id":"4","last_reported":1703291613,"current_range_meters":32000,"station_id":"ce4bhr12rcd13ifvqhqg","pricing_plan_id":"free"},{"bike_id":"e4cf6f6e-7d8c-4b7e-ab01-7de3c446c970","system_id":"levelo_inurba_marseille","lat":43.322872,"lon":5.382756,"is_reserved":false,"is_disabled":false,"rental_uris":{"android":"levelo://app?vid=e4cf6f6e-7d8c-4b7e-ab01-7de3c446c970","ios":"levelo://app?vid=e4cf6f6e-7d8c-4b7e-ab01-7de3c446c970"},"vehicle_type_id":"4","last_reported":1703291613,"current_range_meters":32000,"station_id":"ce4bhr12rcd13ifvqhqg","pricing_plan_id":"free"},{"bike_id":"6ef56fd5-1a7c-4c71-8bf8-33afeff899ef","system_id":"levelo_inurba_marseille","lat":43.322872,"lon":5.382756,"is_reserved":false,"is_disabled":false,"rental_uris":{"android":"levelo://app?vid=6ef56fd5-1a7c-4c71-8bf8-33afeff899ef","ios":"levelo://app?vid=6ef56fd5-1a7c-4c71-8bf8-33afeff899ef"},"vehicle_type_id":"4","last_reported":1703291613,"current_range_meters":19200,"station_id":"ce4bhr12rcd13ifvqhqg","pricing_plan_id":"free"},{"bike_id":"f5987233-1d3e-4901-8b4d-56e1ca83344b","system_id":"levelo_inurba_marseille","lat":43.322872,"lon":5.382756,"is_reserved":false,"is_disabled":false,"rental_uris":{"android":"levelo://app?vid=f5987233-1d3e-4901-8b4d-56e1ca83344b","ios":"levelo://app?vid=f5987233-1d3e-4901-8b4d-56e1ca83344b"},"vehicle_type_id":"4","last_reported":1703291613,"current_range_meters":32000,"station_id":"ce4bhr12rcd13ifvqhqg","pricing_plan_id":"free"},{"bike_id":"d728a8b4-bece-4be0-a14a-8abb6b425cd7","system_id":"levelo_inurba_marseille","lat":43.328371,"lon":5.366909,"is_reserved":false,"is_disabled":false,"rental_uris":{"android":"levelo://app?vid=d728a8b4-bece-4be0-a14a-8abb6b425cd7","ios":"levelo://app?vid=d728a8b4-bece-4be0-a14a-8abb6b425cd7"},"vehicle_type_id":"4","last_reported":1703291613,"current_range_meters":15600,"station_id":"ce4bhs92rcd13ifvqi0g","pricing_plan_id":"free"},{"bike_id":"6cba446c-9ee9-4546-8c3c-626825b73b1e","system_id":"levelo_inurba_marseille","lat":43.328371,"lon":5.366909,"is_reserved":false,"is_disabled":false,"rental_uris":{"android":"levelo://app?vid=6cba446c-9ee9-4546-8c3c-626825b73b1e","ios":"levelo://app?vid=6cba446c-9ee9-4546-8c3c-626825b73b1e"},"vehicle_type_id":"4","last_reported":1703291613,"current_range_meters":5600,"station_id":"ce4bhs92rcd13ifvqi0g","pricing_plan_id":"free"},{"bike_id":"aa3fb6e4-1c03-44e5-96a0-f8edc6b5e34f","system_id":"levelo_inurba_marseille","lat":43.328371,"lon":5.366909,"is_reserved":false,"is_disabled":false,"rental_uris":{"android":"levelo://app?vid=aa3fb6e4-1c03-44e5-96a0-f8edc6b5e34f","ios":"levelo://app?vid=aa3fb6e4-1c03-44e5-96a0-f8edc6b5e34f"},"vehicle_type_id":"4","last_reported":1703291613,"current_range_meters":0,"station_id":"ce4bhs92rcd13ifvqi0g","pricing_plan_id":"free"},{"bike_id":"d2be49f4-d512-450f-80de-370a6da97420","system_id":"levelo_inurba_marseille","lat":43.328371,"lon":5.366909,"is_reserved":false,"is_disabled":false,"rental_uris":{"android":"levelo://app?vid=d2be49f4-d512-450f-80de-370a6da97420","ios":"levelo://app?vid=d2be49f4-d512-450f-80de-370a6da97420"},"vehicle_type_id":"4","last_reported":1703291613,"current_range_meters":3200,"station_id":"ce4bhs92rcd13ifvqi0g","pricing_plan_id":"free"},{"bike_id":"525f6ec1-c089-48ad-8216-d8e073aa768d","system_id":"levelo_inurba_marseille","lat":43.32849,"lon":5.36686,"is_reserved":false,"is_disabled":false,"rental_uris":{"android":"levelo://app?vid=525f6ec1-c089-48ad-8216-d8e073aa768d","ios":"levelo://app?vid=525f6ec1-c089-48ad-8216-d8e073aa768d"},"vehicle_type_id":"4","last_reported":1703291613,"current_range_meters":3600,"station_id":"ce4bhs92rcd13ifvqi0g","pricing_plan_id":"free"},{"bike_id":"558ec63f-134c-4e7a-9858-e5ff95d1d8fa","system_id":"levelo_inurba_marseille","lat":43.296022,"lon":5.367832,"is_reserved":false,"is_disabled":false,"rental_uris":{"android":"levelo://app?vid=558ec63f-134c-4e7a-9858-e5ff95d1d8fa","ios":"levelo://app?vid=558ec63f-134c-4e7a-9858-e5ff95d1d8fa"},"vehicle_type_id":"4","last_reported":1703291613,"current_range_meters":12800,"station_id":"","pricing_plan_id":"free"},{"bike_id":"9838b89e-0795-40dd-9385-1004c286a59b","system_id":"levelo_inurba_marseille","lat":43.309589,"lon":5.390258,"is_reserved":false,"is_disabled":false,"rental_uris":{"android":"levelo://app?vid=9838b89e-0795-40dd-9385-1004c286a59b","ios":"levelo://app?vid=9838b89e-0795-40dd-9385-1004c286a59b"},"vehicle_type_id":"4","last_reported":1703291613,"current_range_meters":21200,"station_id":"ce4bgup2rcd13ifvqco0","pricing_plan_id":"free"},{"bike_id":"4ef0fa5d-af1f-4fa7-bc6a-e349b7fdae8e","system_id":"levelo_inurba_marseille","lat":43.309589,"lon":5.390258,"is_reserved":false,"is_disabled":false,"rental_uris":{"android":"levelo://app?vid=4ef0fa5d-af1f-4fa7-bc6a-e349b7fdae8e","ios":"levelo://app?vid=4ef0fa5d-af1f-4fa7-bc6a-e349b7fdae8e"},"vehicle_type_id":"4","last_reported":1703291613,"current_range_meters":23200,"station_id":"ce4bgup2rcd13ifvqco0","pricing_plan_id":"free"},{"bike_id":"978bd87e-148d-4d12-929b-ed562b80b796","system_id":"levelo_inurba_marseille","lat":43.309589,"lon":5.390258,"is_reserved":false,"is_disabled":false,"rental_uris":{"android":"levelo://app?vid=978bd87e-148d-4d12-929b-ed562b80b796","ios":"levelo://app?vid=978bd87e-148d-4d12-929b-ed562b80b796"},"vehicle_type_id":"4","last_reported":1703291613,"current_range_meters":24800,"station_id":"ce4bgup2rcd13ifvqco0","pricing_plan_id":"free"},{"bike_id":"03815bc5-fd8d-4c64-a29a-be74fea49ca0","system_id":"levelo_inurba_marseille","lat":43.309589,"lon":5.390258,"is_reserved":false,"is_disabled":false,"rental_uris":{"android":"levelo://app?vid=03815bc5-fd8d-4c64-a29a-be74fea49ca0","ios":"levelo://app?vid=03815bc5-fd8d-4c64-a29a-be74fea49ca0"},"vehicle_type_id":"4","last_reported":1703291613,"current_range_meters":23200,"station_id":"ce4bgup2rcd13ifvqco0","pricing_plan_id":"free"},{"bike_id":"8620d5d1-a605-48f1-911d-1e6c2fe32288","system_id":"levelo_inurba_marseille","lat":43.309589,"lon":5.390258,"is_reserved":false,"is_disabled":false,"rental_uris":{"android":"levelo://app?vid=8620d5d1-a605-48f1-911d-1e6c2fe32288","ios":"levelo://app?vid=8620d5d1-a605-48f1-911d-1e6c2fe32288"},"vehicle_type_id":"4","last_reported":1703291613,"current_range_meters":28800,"station_id":"ce4bgup2rcd13ifvqco0","pricing_plan_id":"free"},{"bike_id":"0eb456c9-b32c-41c1-9b31-d5728e3b8202","system_id":"levelo_inurba_marseille","lat":43.309589,"lon":5.390258,"is_reserved":false,"is_disabled":false,"rental_uris":{"android":"levelo://app?vid=0eb456c9-b32c-41c1-9b31-d5728e3b8202","ios":"levelo://app?vid=0eb456c9-b32c-41c1-9b31-d5728e3b8202"},"vehicle_type_id":"4","last_reported":1703291613,"current_range_meters":26000,"station_id":"ce4bgup2rcd13ifvqco0","pricing_plan_id":"free"},{"bike_id":"b9c8fefe-fcf2-4e1c-95c9-c0ffed42221d","system_id":"levelo_inurba_marseille","lat":43.317557,"lon":5.390173,"is_reserved":false,"is_disabled":false,"rental_uris":{"android":"levelo://app?vid=b9c8fefe-fcf2-4e1c-95c9-c0ffed42221d","ios":"levelo://app?vid=b9c8fefe-fcf2-4e1c-95c9-c0ffed42221d"},"vehicle_type_id":"4","last_reported":1703291613,"current_range_meters":30000,"station_id":"ce4bhqp2rcd13ifvqhng","pricing_plan_id":"free"},{"bike_id":"62e22e3e-8174-4ec7-90f7-4445322daa77","system_id":"levelo_inurba_marseille","lat":43.317557,"lon":5.390173,"is_reserved":false,"is_disabled":false,"rental_uris":{"android":"levelo://app?vid=62e22e3e-8174-4ec7-90f7-4445322daa77","ios":"levelo://app?vid=62e22e3e-8174-4ec7-90f7-4445322daa77"},"vehicle_type_id":"4","last_reported":1703291613,"current_range_meters":25600,"station_id":"ce4bhqp2rcd13ifvqhng","pricing_plan_id":"free"},{"bike_id":"c8fb1772-b152-41b4-b416-0d39c46a6ebd","system_id":"levelo_inurba_marseille","lat":43.317557,"lon":5.390173,"is_reserved":false,"is_disabled":false,"rental_uris":{"android":"levelo://app?vid=c8fb1772-b152-41b4-b416-0d39c46a6ebd","ios":"levelo://app?vid=c8fb1772-b152-41b4-b416-0d39c46a6ebd"},"vehicle_type_id":"4","last_reported":1703291613,"current_range_meters":4400,"station_id":"ce4bhqp2rcd13ifvqhng","pricing_plan_id":"free"},{"bike_id":"d39682ea-d8f1-45a4-b2b8-5a732fb091bc","system_id":"levelo_inurba_marseille","lat":43.317557,"lon":5.390173,"is_reserved":false,"is_disabled":false,"rental_uris":{"android":"levelo://app?vid=d39682ea-d8f1-45a4-b2b8-5a732fb091bc","ios":"levelo://app?vid=d39682ea-d8f1-45a4-b2b8-5a732fb091bc"},"vehicle_type_id":"4","last_reported":1703291613,"current_range_meters":32000,"station_id":"ce4bhqp2rcd13ifvqhng","pricing_plan_id":"free"},{"bike_id":"b3e69c1d-7e5a-4757-bef8-3569af454ae7","system_id":"levelo_inurba_marseille","lat":43.317537,"lon":5.390198,"is_reserved":false,"is_disabled":false,"rental_uris":{"android":"levelo://app?vid=b3e69c1d-7e5a-4757-bef8-3569af454ae7","ios":"levelo://app?vid=b3e69c1d-7e5a-4757-bef8-3569af454ae7"},"vehicle_type_id":"4","last_reported":1703291613,"current_range_meters":20000,"station_id":"ce4bhqp2rcd13ifvqhng","pricing_plan_id":"free"},{"bike_id":"7eada8fb-8c59-41ea-ae15-1164bd9fc1af","system_id":"levelo_inurba_marseille","lat":43.32174,"lon":5.38773,"is_reserved":false,"is_disabled":false,"rental_uris":{"android":"levelo://app?vid=7eada8fb-8c59-41ea-ae15-1164bd9fc1af","ios":"levelo://app?vid=7eada8fb-8c59-41ea-ae15-1164bd9fc1af"},"vehicle_type_id":"4","last_reported":1703291613,"current_range_meters":29200,"station_id":"","pricing_plan_id":"free"},{"bike_id":"43855516-4c02-494d-aefa-3c215dbc6b85","system_id":"levelo_inurba_marseille","lat":43.317557,"lon":5.390173,"is_reserved":false,"is_disabled":false,"rental_uris":{"android":"levelo://app?vid=43855516-4c02-494d-aefa-3c215dbc6b85","ios":"levelo://app?vid=43855516-4c02-494d-aefa-3c215dbc6b85"},"vehicle_type_id":"4","last_reported":1703291613,"current_range_meters":0,"station_id":"ce4bhqp2rcd13ifvqhng","pricing_plan_id":"free"},{"bike_id":"cdb3d701-5381-4219-9cdd-c446bf2fa9ab","system_id":"levelo_inurba_marseille","lat":43.295333,"lon":5.361207,"is_reserved":false,"is_disabled":false,"rental_uris":{"android":"levelo://app?vid=cdb3d701-5381-4219-9cdd-c446bf2fa9ab","ios":"levelo://app?vid=cdb3d701-5381-4219-9cdd-c446bf2fa9ab"},"vehicle_type_id":"4","last_reported":1703291613,"current_range_meters":6400,"station_id":"","pricing_plan_id":"free"},{"bike_id":"7cf44cd9-c4a9-4e4e-82e3-17d1300da03b","system_id":"levelo_inurba_marseille","lat":43.30447,"lon":5.3889,"is_reserved":false,"is_disabled":false,"rental_uris":{"android":"levelo://app?vid=7cf44cd9-c4a9-4e4e-82e3-17d1300da03b","ios":"levelo://app?vid=7cf44cd9-c4a9-4e4e-82e3-17d1300da03b"},"vehicle_type_id":"4","last_reported":1703291613,"current_range_meters":8400,"station_id":"ce4bgk12rcd13ifvqbi0","pricing_plan_id":"free"},{"bike_id":"476ab6f7-9133-4ba3-8490-d8e96b8cf3d3","system_id":"levelo_inurba_marseille","lat":43.295748,"lon":5.37522,"is_reserved":false,"is_disabled":false,"rental_uris":{"android":"levelo://app?vid=476ab6f7-9133-4ba3-8490-d8e96b8cf3d3","ios":"levelo://app?vid=476ab6f7-9133-4ba3-8490-d8e96b8cf3d3"},"vehicle_type_id":"4","last_reported":1703291613,"current_range_meters":0,"station_id":"ce4bgh92rcd13ifvqb50","pricing_plan_id":"free"},{"bike_id":"694568e9-d58d-4b3a-a2de-3702346ea19a","system_id":"levelo_inurba_marseille","lat":43.299707,"lon":5.384859,"is_reserved":false,"is_disabled":false,"rental_uris":{"android":"levelo://app?vid=694568e9-d58d-4b3a-a2de-3702346ea19a","ios":"levelo://app?vid=694568e9-d58d-4b3a-a2de-3702346ea19a"},"vehicle_type_id":"4","last_reported":1703291613,"current_range_meters":22000,"station_id":"ce4bgj92rcd13ifvqbd0","pricing_plan_id":"free"},{"bike_id":"dc576f31-c21e-42d2-97a4-815b145b7f58","system_id":"levelo_inurba_marseille","lat":43.32367,"lon":5.388836,"is_reserved":false,"is_disabled":false,"rental_uris":{"android":"levelo://app?vid=dc576f31-c21e-42d2-97a4-815b145b7f58","ios":"levelo://app?vid=dc576f31-c21e-42d2-97a4-815b145b7f58"},"vehicle_type_id":"4","last_reported":1703291613,"current_range_meters":1200,"station_id":"ce4bhqp2rcd13ifvqhog","pricing_plan_id":"free"},{"bike_id":"eaa5e0c9-2b1c-4467-ab68-bbff3d6c2e68","system_id":"levelo_inurba_marseille","lat":43.32367,"lon":5.388836,"is_reserved":false,"is_disabled":false,"rental_uris":{"android":"levelo://app?vid=eaa5e0c9-2b1c-4467-ab68-bbff3d6c2e68","ios":"levelo://app?vid=eaa5e0c9-2b1c-4467-ab68-bbff3d6c2e68"},"vehicle_type_id":"4","last_reported":1703291613,"current_range_meters":18400,"station_id":"ce4bhqp2rcd13ifvqhog","pricing_plan_id":"free"},{"bike_id":"035ba96c-8560-4c70-973e-f7eb3e99c40c","system_id":"levelo_inurba_marseille","lat":43.32367,"lon":5.388836,"is_reserved":false,"is_disabled":false,"rental_uris":{"android":"levelo://app?vid=035ba96c-8560-4c70-973e-f7eb3e99c40c","ios":"levelo://app?vid=035ba96c-8560-4c70-973e-f7eb3e99c40c"},"vehicle_type_id":"4","last_reported":1703291613,"current_range_meters":19200,"station_id":"ce4bhqp2rcd13ifvqhog","pricing_plan_id":"free"},{"bike_id":"8c22a900-4e4d-4d58-959b-061994631eb3","system_id":"levelo_inurba_marseille","lat":43.29602,"lon":5.381084,"is_reserved":false,"is_disabled":false,"rental_uris":{"android":"levelo://app?vid=8c22a900-4e4d-4d58-959b-061994631eb3","ios":"levelo://app?vid=8c22a900-4e4d-4d58-959b-061994631eb3"},"vehicle_type_id":"4","last_reported":1703291613,"current_range_meters":29200,"station_id":"ce4bgl12rcd13ifvqbo0","pricing_plan_id":"free"},{"bike_id":"a8a8b7a4-a6b1-4246-9bd0-6d41f5238142","system_id":"levelo_inurba_marseille","lat":43.293009,"lon":5.374584,"is_reserved":false,"is_disabled":false,"rental_uris":{"android":"levelo://app?vid=a8a8b7a4-a6b1-4246-9bd0-6d41f5238142","ios":"levelo://app?vid=a8a8b7a4-a6b1-4246-9bd0-6d41f5238142"},"vehicle_type_id":"4","last_reported":1703291613,"current_range_meters":28000,"station_id":"ce4bgi12rcd13ifvqb70","pricing_plan_id":"free"},{"bike_id":"e35aad00-e198-44c6-ad37-5d26adf72f63","system_id":"levelo_inurba_marseille","lat":43.305994,"lon":5.393687,"is_reserved":false,"is_disabled":false,"rental_uris":{"android":"levelo://app?vid=e35aad00-e198-44c6-ad37-5d26adf72f63","ios":"levelo://app?vid=e35aad00-e198-44c6-ad37-5d26adf72f63"},"vehicle_type_id":"4","last_reported":1703291613,"current_range_meters":24800,"station_id":"ce4bh0p2rcd13ifvqd80","pricing_plan_id":"free"},{"bike_id":"52ffccbf-e7dd-4073-953f-81eb4cce5eda","system_id":"levelo_inurba_marseille","lat":43.305994,"lon":5.393687,"is_reserved":false,"is_disabled":false,"rental_uris":{"android":"levelo://app?vid=52ffccbf-e7dd-4073-953f-81eb4cce5eda","ios":"levelo://app?vid=52ffccbf-e7dd-4073-953f-81eb4cce5eda"},"vehicle_type_id":"4","last_reported":1703291613,"current_range_meters":9200,"station_id":"ce4bh0p2rcd13ifvqd80","pricing_plan_id":"free"},{"bike_id":"cf9125ac-0535-4783-a319-869bdec2aa22","system_id":"levelo_inurba_marseille","lat":43.284538,"lon":5.358657,"is_reserved":false,"is_disabled":false,"rental_uris":{"android":"levelo://app?vid=cf9125ac-0535-4783-a319-869bdec2aa22","ios":"levelo://app?vid=cf9125ac-0535-4783-a319-869bdec2aa22"},"vehicle_type_id":"4","last_reported":1703291613,"current_range_meters":22800,"station_id":"ce4bhah2rcd13ifvqei0","pricing_plan_id":"free"},{"bike_id":"6b18bf16-2713-445d-a871-514ed4097ac6","system_id":"levelo_inurba_marseille","lat":43.30883,"lon":5.39628,"is_reserved":false,"is_disabled":false,"rental_uris":{"android":"levelo://app?vid=6b18bf16-2713-445d-a871-514ed4097ac6","ios":"levelo://app?vid=6b18bf16-2713-445d-a871-514ed4097ac6"},"vehicle_type_id":"4","last_reported":1703291613,"current_range_meters":0,"station_id":"ce4bh012rcd13ifvqcv0","pricing_plan_id":"free"},{"bike_id":"a3f899e3-7023-44e7-9080-b8249dcf4b23","system_id":"levelo_inurba_marseille","lat":43.3088,"lon":5.39631,"is_reserved":false,"is_disabled":false,"rental_uris":{"android":"levelo://app?vid=a3f899e3-7023-44e7-9080-b8249dcf4b23","ios":"levelo://app?vid=a3f899e3-7023-44e7-9080-b8249dcf4b23"},"vehicle_type_id":"4","last_reported":1703291613,"current_range_meters":21600,"station_id":"ce4bh012rcd13ifvqcv0","pricing_plan_id":"free"},{"bike_id":"787a319f-9a79-4164-8fbf-55115fc93c14","system_id":"levelo_inurba_marseille","lat":43.292005,"lon":5.357875,"is_reserved":false,"is_disabled":false,"rental_uris":{"android":"levelo://app?vid=787a319f-9a79-4164-8fbf-55115fc93c14","ios":"levelo://app?vid=787a319f-9a79-4164-8fbf-55115fc93c14"},"vehicle_type_id":"4","last_reported":1703291613,"current_range_meters":800,"station_id":"ce4bhb12rcd13ifvqel0","pricing_plan_id":"free"},{"bike_id":"d3cc02c2-2b0a-46f6-962c-8d5cf9b92e1d","system_id":"levelo_inurba_marseille","lat":43.313291,"lon":5.396838,"is_reserved":false,"is_disabled":false,"rental_uris":{"android":"levelo://app?vid=d3cc02c2-2b0a-46f6-962c-8d5cf9b92e1d","ios":"levelo://app?vid=d3cc02c2-2b0a-46f6-962c-8d5cf9b92e1d"},"vehicle_type_id":"4","last_reported":1703291613,"current_range_meters":13600,"station_id":"ce4bgvp2rcd13ifvqcu0","pricing_plan_id":"free"},{"bike_id":"9c4bd2fc-3d5e-46d7-a52e-17b1c35c085b","system_id":"levelo_inurba_marseille","lat":43.313291,"lon":5.396838,"is_reserved":false,"is_disabled":false,"rental_uris":{"android":"levelo://app?vid=9c4bd2fc-3d5e-46d7-a52e-17b1c35c085b","ios":"levelo://app?vid=9c4bd2fc-3d5e-46d7-a52e-17b1c35c085b"},"vehicle_type_id":"4","last_reported":1703291613,"current_range_meters":15200,"station_id":"ce4bgvp2rcd13ifvqcu0","pricing_plan_id":"free"},{"bike_id":"745b3ffa-fd0e-427a-8fc0-7f4276899b6e","system_id":"levelo_inurba_marseille","lat":43.30883,"lon":5.396415,"is_reserved":false,"is_disabled":false,"rental_uris":{"android":"levelo://app?vid=745b3ffa-fd0e-427a-8fc0-7f4276899b6e","ios":"levelo://app?vid=745b3ffa-fd0e-427a-8fc0-7f4276899b6e"},"vehicle_type_id":"4","last_reported":1703291613,"current_range_meters":7600,"station_id":"ce4bh012rcd13ifvqcv0","pricing_plan_id":"free"},{"bike_id":"38d8ffb9-ac7c-4e14-9721-daaee9d23c1a","system_id":"levelo_inurba_marseille","lat":43.313291,"lon":5.396838,"is_reserved":false,"is_disabled":false,"rental_uris":{"android":"levelo://app?vid=38d8ffb9-ac7c-4e14-9721-daaee9d23c1a","ios":"levelo://app?vid=38d8ffb9-ac7c-4e14-9721-daaee9d23c1a"},"vehicle_type_id":"4","last_reported":1703291613,"current_range_meters":31600,"station_id":"ce4bgvp2rcd13ifvqcu0","pricing_plan_id":"free"},{"bike_id":"a90b8b83-e596-4fc1-8b62-b201f740b064","system_id":"levelo_inurba_marseille","lat":43.313291,"lon":5.396838,"is_reserved":false,"is_disabled":false,"rental_uris":{"android":"levelo://app?vid=a90b8b83-e596-4fc1-8b62-b201f740b064","ios":"levelo://app?vid=a90b8b83-e596-4fc1-8b62-b201f740b064"},"vehicle_type_id":"4","last_reported":1703291613,"current_range_meters":30400,"station_id":"ce4bgvp2rcd13ifvqcu0","pricing_plan_id":"free"},{"bike_id":"60de5ffc-41f6-43eb-b69f-c56cc8381207","system_id":"levelo_inurba_marseille","lat":43.313291,"lon":5.396838,"is_reserved":false,"is_disabled":false,"rental_uris":{"android":"levelo://app?vid=60de5ffc-41f6-43eb-b69f-c56cc8381207","ios":"levelo://app?vid=60de5ffc-41f6-43eb-b69f-c56cc8381207"},"vehicle_type_id":"4","last_reported":1703291613,"current_range_meters":24400,"station_id":"ce4bgvp2rcd13ifvqcu0","pricing_plan_id":"free"},{"bike_id":"cbc62839-3c9d-4d9e-963f-bbabfe928114","system_id":"levelo_inurba_marseille","lat":43.313291,"lon":5.396838,"is_reserved":false,"is_disabled":false,"rental_uris":{"android":"levelo://app?vid=cbc62839-3c9d-4d9e-963f-bbabfe928114","ios":"levelo://app?vid=cbc62839-3c9d-4d9e-963f-bbabfe928114"},"vehicle_type_id":"4","last_reported":1703291613,"current_range_meters":28000,"station_id":"ce4bgvp2rcd13ifvqcu0","pricing_plan_id":"free"},{"bike_id":"fa38fcc7-ca87-4463-a289-03c7cd4e6723","system_id":"levelo_inurba_marseille","lat":43.313291,"lon":5.396838,"is_reserved":false,"is_disabled":false,"rental_uris":{"android":"levelo://app?vid=fa38fcc7-ca87-4463-a289-03c7cd4e6723","ios":"levelo://app?vid=fa38fcc7-ca87-4463-a289-03c7cd4e6723"},"vehicle_type_id":"4","last_reported":1703291613,"current_range_meters":31600,"station_id":"ce4bgvp2rcd13ifvqcu0","pricing_plan_id":"free"},{"bike_id":"365351fb-9dc0-4763-85db-886ebe3b10db","system_id":"levelo_inurba_marseille","lat":43.313291,"lon":5.396838,"is_reserved":false,"is_disabled":false,"rental_uris":{"android":"levelo://app?vid=365351fb-9dc0-4763-85db-886ebe3b10db","ios":"levelo://app?vid=365351fb-9dc0-4763-85db-886ebe3b10db"},"vehicle_type_id":"4","last_reported":1703291613,"current_range_meters":7600,"station_id":"ce4bgvp2rcd13ifvqcu0","pricing_plan_id":"free"},{"bike_id":"c4b5c253-f844-42fd-82a6-50cb9b8a64cd","system_id":"levelo_inurba_marseille","lat":43.313291,"lon":5.396838,"is_reserved":false,"is_disabled":false,"rental_uris":{"android":"levelo://app?vid=c4b5c253-f844-42fd-82a6-50cb9b8a64cd","ios":"levelo://app?vid=c4b5c253-f844-42fd-82a6-50cb9b8a64cd"},"vehicle_type_id":"4","last_reported":1703291613,"current_range_meters":32000,"station_id":"ce4bgvp2rcd13ifvqcu0","pricing_plan_id":"free"},{"bike_id":"eceb5307-053e-422d-bbd0-9af032e873b8","system_id":"levelo_inurba_marseille","lat":43.313291,"lon":5.396838,"is_reserved":false,"is_disabled":false,"rental_uris":{"android":"levelo://app?vid=eceb5307-053e-422d-bbd0-9af032e873b8","ios":"levelo://app?vid=eceb5307-053e-422d-bbd0-9af032e873b8"},"vehicle_type_id":"4","last_reported":1703291613,"current_range_meters":30800,"station_id":"ce4bgvp2rcd13ifvqcu0","pricing_plan_id":"free"},{"bike_id":"391fd59d-c17f-42ab-af5d-4958a8115fc0","system_id":"levelo_inurba_marseille","lat":43.309038,"lon":5.396546,"is_reserved":false,"is_disabled":false,"rental_uris":{"android":"levelo://app?vid=391fd59d-c17f-42ab-af5d-4958a8115fc0","ios":"levelo://app?vid=391fd59d-c17f-42ab-af5d-4958a8115fc0"},"vehicle_type_id":"4","last_reported":1703291613,"current_range_meters":24400,"station_id":"ce4bh012rcd13ifvqcv0","pricing_plan_id":"free"},{"bike_id":"1cdb7fe1-f4e6-4212-968d-54421a6e3220","system_id":"levelo_inurba_marseille","lat":43.290779,"lon":5.371482,"is_reserved":false,"is_disabled":false,"rental_uris":{"android":"levelo://app?vid=1cdb7fe1-f4e6-4212-968d-54421a6e3220","ios":"levelo://app?vid=1cdb7fe1-f4e6-4212-968d-54421a6e3220"},"vehicle_type_id":"4","last_reported":1703291613,"current_range_meters":2800,"station_id":"ce4bh5p2rcd13ifvqe4g","pricing_plan_id":"free"},{"bike_id":"bdb1e526-ed6b-4170-be46-35b3b374252e","system_id":"levelo_inurba_marseille","lat":43.290779,"lon":5.371482,"is_reserved":false,"is_disabled":false,"rental_uris":{"android":"levelo://app?vid=bdb1e526-ed6b-4170-be46-35b3b374252e","ios":"levelo://app?vid=bdb1e526-ed6b-4170-be46-35b3b374252e"},"vehicle_type_id":"4","last_reported":1703291613,"current_range_meters":12400,"station_id":"ce4bh5p2rcd13ifvqe4g","pricing_plan_id":"free"},{"bike_id":"8fe68dc4-f43c-4ff3-a7b1-c77e232db5de","system_id":"levelo_inurba_marseille","lat":43.302008,"lon":5.394694,"is_reserved":false,"is_disabled":false,"rental_uris":{"android":"levelo://app?vid=8fe68dc4-f43c-4ff3-a7b1-c77e232db5de","ios":"levelo://app?vid=8fe68dc4-f43c-4ff3-a7b1-c77e232db5de"},"vehicle_type_id":"4","last_reported":1703291613,"current_range_meters":10800,"station_id":"ce4bh0p2rcd13ifvqd70","pricing_plan_id":"free"},{"bike_id":"dd007d71-4a6c-403a-a1a0-ea0c10c811f9","system_id":"levelo_inurba_marseille","lat":43.290624,"lon":5.359245,"is_reserved":false,"is_disabled":false,"rental_uris":{"android":"levelo://app?vid=dd007d71-4a6c-403a-a1a0-ea0c10c811f9","ios":"levelo://app?vid=dd007d71-4a6c-403a-a1a0-ea0c10c811f9"},"vehicle_type_id":"4","last_reported":1703291613,"current_range_meters":31600,"station_id":"ce4bha92rcd13ifvqeg0","pricing_plan_id":"free"},{"bike_id":"81ecd235-69e4-434d-8b01-82b37874aab3","system_id":"levelo_inurba_marseille","lat":43.290631,"lon":5.359244,"is_reserved":false,"is_disabled":false,"rental_uris":{"android":"levelo://app?vid=81ecd235-69e4-434d-8b01-82b37874aab3","ios":"levelo://app?vid=81ecd235-69e4-434d-8b01-82b37874aab3"},"vehicle_type_id":"4","last_reported":1703291613,"current_range_meters":31600,"station_id":"ce4bha92rcd13ifvqeg0","pricing_plan_id":"free"},{"bike_id":"14c14df6-3d79-4e82-b696-58ac6d869466","system_id":"levelo_inurba_marseille","lat":43.290624,"lon":5.359245,"is_reserved":false,"is_disabled":false,"rental_uris":{"android":"levelo://app?vid=14c14df6-3d79-4e82-b696-58ac6d869466","ios":"levelo://app?vid=14c14df6-3d79-4e82-b696-58ac6d869466"},"vehicle_type_id":"4","last_reported":1703291613,"current_range_meters":4400,"station_id":"ce4bha92rcd13ifvqeg0","pricing_plan_id":"free"},{"bike_id":"05a91304-c3de-4da2-834e-5964d898eaca","system_id":"levelo_inurba_marseille","lat":43.290631,"lon":5.359244,"is_reserved":false,"is_disabled":false,"rental_uris":{"android":"levelo://app?vid=05a91304-c3de-4da2-834e-5964d898eaca","ios":"levelo://app?vid=05a91304-c3de-4da2-834e-5964d898eaca"},"vehicle_type_id":"4","last_reported":1703291613,"current_range_meters":30800,"station_id":"ce4bha92rcd13ifvqeg0","pricing_plan_id":"free"},{"bike_id":"25d2e648-dfe2-40b7-86b2-23a259efe87b","system_id":"levelo_inurba_marseille","lat":43.28942,"lon":5.36631,"is_reserved":false,"is_disabled":false,"rental_uris":{"android":"levelo://app?vid=25d2e648-dfe2-40b7-86b2-23a259efe87b","ios":"levelo://app?vid=25d2e648-dfe2-40b7-86b2-23a259efe87b"},"vehicle_type_id":"4","last_reported":1703291613,"current_range_meters":24400,"station_id":"ce4bhap2rcd13ifvqek0","pricing_plan_id":"free"},{"bike_id":"c32bb65a-a2bd-4b51-a3ad-7909cb9602b4","system_id":"levelo_inurba_marseille","lat":43.304296,"lon":5.397513,"is_reserved":false,"is_disabled":false,"rental_uris":{"android":"levelo://app?vid=c32bb65a-a2bd-4b51-a3ad-7909cb9602b4","ios":"levelo://app?vid=c32bb65a-a2bd-4b51-a3ad-7909cb9602b4"},"vehicle_type_id":"4","last_reported":1703291613,"current_range_meters":27200,"station_id":"ce4bh092rcd13ifvqd20","pricing_plan_id":"free"},{"bike_id":"7790ff89-fdfe-452d-9d36-d8b1d5cc781d","system_id":"levelo_inurba_marseille","lat":43.290104,"lon":5.356111,"is_reserved":false,"is_disabled":false,"rental_uris":{"android":"levelo://app?vid=7790ff89-fdfe-452d-9d36-d8b1d5cc781d","ios":"levelo://app?vid=7790ff89-fdfe-452d-9d36-d8b1d5cc781d"},"vehicle_type_id":"4","last_reported":1703291613,"current_range_meters":22800,"station_id":"ce4bhb92rcd13ifvqen0","pricing_plan_id":"free"},{"bike_id":"9d64ccf9-6dda-4c77-abff-bff32676c82a","system_id":"levelo_inurba_marseille","lat":43.290995,"lon":5.381361,"is_reserved":false,"is_disabled":false,"rental_uris":{"android":"levelo://app?vid=9d64ccf9-6dda-4c77-abff-bff32676c82a","ios":"levelo://app?vid=9d64ccf9-6dda-4c77-abff-bff32676c82a"},"vehicle_type_id":"4","last_reported":1703291613,"current_range_meters":15600,"station_id":"ce4bh512rcd13ifvqe2g","pricing_plan_id":"free"},{"bike_id":"5d493969-578d-4ecd-9d25-2d165dc669df","system_id":"levelo_inurba_marseille","lat":43.303306,"lon":5.397684,"is_reserved":false,"is_disabled":false,"rental_uris":{"android":"levelo://app?vid=5d493969-578d-4ecd-9d25-2d165dc669df","ios":"levelo://app?vid=5d493969-578d-4ecd-9d25-2d165dc669df"},"vehicle_type_id":"4","last_reported":1703291613,"current_range_meters":0,"station_id":"","pricing_plan_id":"free"},{"bike_id":"5f476807-2cdf-4e90-95d4-5c969ff44176","system_id":"levelo_inurba_marseille","lat":43.297815,"lon":5.393548,"is_reserved":false,"is_disabled":false,"rental_uris":{"android":"levelo://app?vid=5f476807-2cdf-4e90-95d4-5c969ff44176","ios":"levelo://app?vid=5f476807-2cdf-4e90-95d4-5c969ff44176"},"vehicle_type_id":"4","last_reported":1703291613,"current_range_meters":2000,"station_id":"chh1huq6cuj3fo74tm60","pricing_plan_id":"free"},{"bike_id":"05fff6a7-69be-496f-8807-94fe102f048d","system_id":"levelo_inurba_marseille","lat":43.295169,"lon":5.390426,"is_reserved":false,"is_disabled":false,"rental_uris":{"android":"levelo://app?vid=05fff6a7-69be-496f-8807-94fe102f048d","ios":"levelo://app?vid=05fff6a7-69be-496f-8807-94fe102f048d"},"vehicle_type_id":"4","last_reported":1703291613,"current_range_meters":26800,"station_id":"ce4bh3p2rcd13ifvqdp0","pricing_plan_id":"free"},{"bike_id":"9a7d81c2-dfd6-4ae6-a540-c70243efc23c","system_id":"levelo_inurba_marseille","lat":43.29787,"lon":5.39353,"is_reserved":false,"is_disabled":false,"rental_uris":{"android":"levelo://app?vid=9a7d81c2-dfd6-4ae6-a540-c70243efc23c","ios":"levelo://app?vid=9a7d81c2-dfd6-4ae6-a540-c70243efc23c"},"vehicle_type_id":"4","last_reported":1703291613,"current_range_meters":0,"station_id":"chh1huq6cuj3fo74tm60","pricing_plan_id":"free"},{"bike_id":"dc0030d2-89b6-4c8c-b296-bd8d804f8cb6","system_id":"levelo_inurba_marseille","lat":43.289743,"lon":5.378304,"is_reserved":false,"is_disabled":false,"rental_uris":{"android":"levelo://app?vid=dc0030d2-89b6-4c8c-b296-bd8d804f8cb6","ios":"levelo://app?vid=dc0030d2-89b6-4c8c-b296-bd8d804f8cb6"},"vehicle_type_id":"4","last_reported":1703291613,"current_range_meters":15600,"station_id":"ce4bh9p2rcd13ifvqed0","pricing_plan_id":"free"},{"bike_id":"a38b60a8-06ce-4809-9702-3880250fd5ce","system_id":"levelo_inurba_marseille","lat":43.289741,"lon":5.378306,"is_reserved":false,"is_disabled":false,"rental_uris":{"android":"levelo://app?vid=a38b60a8-06ce-4809-9702-3880250fd5ce","ios":"levelo://app?vid=a38b60a8-06ce-4809-9702-3880250fd5ce"},"vehicle_type_id":"4","last_reported":1703291613,"current_range_meters":30000,"station_id":"ce4bh9p2rcd13ifvqed0","pricing_plan_id":"free"},{"bike_id":"8ef0b422-19f6-411f-94a3-e522ab90585c","system_id":"levelo_inurba_marseille","lat":43.28856,"lon":5.358371,"is_reserved":false,"is_disabled":false,"rental_uris":{"android":"levelo://app?vid=8ef0b422-19f6-411f-94a3-e522ab90585c","ios":"levelo://app?vid=8ef0b422-19f6-411f-94a3-e522ab90585c"},"vehicle_type_id":"4","last_reported":1703291613,"current_range_meters":800,"station_id":"ce4bhb12rcd13ifvqem0","pricing_plan_id":"free"},{"bike_id":"6af4b8f1-e26b-4e3c-9cc6-8708fffe2abf","system_id":"levelo_inurba_marseille","lat":43.290094,"lon":5.381264,"is_reserved":false,"is_disabled":false,"rental_uris":{"android":"levelo://app?vid=6af4b8f1-e26b-4e3c-9cc6-8708fffe2abf","ios":"levelo://app?vid=6af4b8f1-e26b-4e3c-9cc6-8708fffe2abf"},"vehicle_type_id":"4","last_reported":1703291613,"current_range_meters":19600,"station_id":"ce4bh4p2rcd13ifvqe1g","pricing_plan_id":"free"},{"bike_id":"080d41da-08ca-4cbb-9354-0b57f8d5ef34","system_id":"levelo_inurba_marseille","lat":43.2901,"lon":5.381269,"is_reserved":false,"is_disabled":false,"rental_uris":{"android":"levelo://app?vid=080d41da-08ca-4cbb-9354-0b57f8d5ef34","ios":"levelo://app?vid=080d41da-08ca-4cbb-9354-0b57f8d5ef34"},"vehicle_type_id":"4","last_reported":1703291613,"current_range_meters":28400,"station_id":"ce4bh4p2rcd13ifvqe1g","pricing_plan_id":"free"},{"bike_id":"0e155c0e-5b61-4c1e-b428-7a4daeaeed51","system_id":"levelo_inurba_marseille","lat":43.28856,"lon":5.358371,"is_reserved":false,"is_disabled":false,"rental_uris":{"android":"levelo://app?vid=0e155c0e-5b61-4c1e-b428-7a4daeaeed51","ios":"levelo://app?vid=0e155c0e-5b61-4c1e-b428-7a4daeaeed51"},"vehicle_type_id":"4","last_reported":1703291613,"current_range_meters":6800,"station_id":"ce4bhb12rcd13ifvqem0","pricing_plan_id":"free"},{"bike_id":"cb834f18-e533-4e4b-866a-78b5e9e89f81","system_id":"levelo_inurba_marseille","lat":43.312609,"lon":5.401662,"is_reserved":false,"is_disabled":false,"rental_uris":{"android":"levelo://app?vid=cb834f18-e533-4e4b-866a-78b5e9e89f81","ios":"levelo://app?vid=cb834f18-e533-4e4b-866a-78b5e9e89f81"},"vehicle_type_id":"4","last_reported":1703291613,"current_range_meters":6400,"station_id":"ce4bh092rcd13ifvqd30","pricing_plan_id":"free"},{"bike_id":"53e421d9-65d6-44cf-8edd-899c2cf616e6","system_id":"levelo_inurba_marseille","lat":43.312609,"lon":5.401662,"is_reserved":false,"is_disabled":false,"rental_uris":{"android":"levelo://app?vid=53e421d9-65d6-44cf-8edd-899c2cf616e6","ios":"levelo://app?vid=53e421d9-65d6-44cf-8edd-899c2cf616e6"},"vehicle_type_id":"4","last_reported":1703291613,"current_range_meters":21200,"station_id":"ce4bh092rcd13ifvqd30","pricing_plan_id":"free"},{"bike_id":"0eec310e-c256-4de4-88ce-29ff2efb1842","system_id":"levelo_inurba_marseille","lat":43.309371,"lon":5.401449,"is_reserved":false,"is_disabled":false,"rental_uris":{"android":"levelo://app?vid=0eec310e-c256-4de4-88ce-29ff2efb1842","ios":"levelo://app?vid=0eec310e-c256-4de4-88ce-29ff2efb1842"},"vehicle_type_id":"4","last_reported":1703291613,"current_range_meters":24400,"station_id":"ce4bgvp2rcd13ifvqct0","pricing_plan_id":"free"},{"bike_id":"f01fc780-09a3-489f-afc7-f01c2d89bba2","system_id":"levelo_inurba_marseille","lat":43.30642,"lon":5.401031,"is_reserved":false,"is_disabled":false,"rental_uris":{"android":"levelo://app?vid=f01fc780-09a3-489f-afc7-f01c2d89bba2","ios":"levelo://app?vid=f01fc780-09a3-489f-afc7-f01c2d89bba2"},"vehicle_type_id":"4","last_reported":1703291613,"current_range_meters":9600,"station_id":"ce4bh112rcd13ifvqda0","pricing_plan_id":"free"},{"bike_id":"fb80af67-0bd9-41bb-9332-628b36cf4a3e","system_id":"levelo_inurba_marseille","lat":43.309371,"lon":5.401449,"is_reserved":false,"is_disabled":false,"rental_uris":{"android":"levelo://app?vid=fb80af67-0bd9-41bb-9332-628b36cf4a3e","ios":"levelo://app?vid=fb80af67-0bd9-41bb-9332-628b36cf4a3e"},"vehicle_type_id":"4","last_reported":1703291613,"current_range_meters":20000,"station_id":"ce4bgvp2rcd13ifvqct0","pricing_plan_id":"free"},{"bike_id":"5442de4e-bff5-4457-9eff-f4bd8123b423","system_id":"levelo_inurba_marseille","lat":43.306412,"lon":5.401035,"is_reserved":false,"is_disabled":false,"rental_uris":{"android":"levelo://app?vid=5442de4e-bff5-4457-9eff-f4bd8123b423","ios":"levelo://app?vid=5442de4e-bff5-4457-9eff-f4bd8123b423"},"vehicle_type_id":"4","last_reported":1703291613,"current_range_meters":29600,"station_id":"ce4bh112rcd13ifvqda0","pricing_plan_id":"free"},{"bike_id":"5ead1464-77c6-4df9-9688-a6faea1fbd31","system_id":"levelo_inurba_marseille","lat":43.30642,"lon":5.401031,"is_reserved":false,"is_disabled":false,"rental_uris":{"android":"levelo://app?vid=5ead1464-77c6-4df9-9688-a6faea1fbd31","ios":"levelo://app?vid=5ead1464-77c6-4df9-9688-a6faea1fbd31"},"vehicle_type_id":"4","last_reported":1703291613,"current_range_meters":7600,"station_id":"ce4bh112rcd13ifvqda0","pricing_plan_id":"free"},{"bike_id":"83771038-c763-4b22-9b90-a21f76827797","system_id":"levelo_inurba_marseille","lat":43.30642,"lon":5.401031,"is_reserved":false,"is_disabled":false,"rental_uris":{"android":"levelo://app?vid=83771038-c763-4b22-9b90-a21f76827797","ios":"levelo://app?vid=83771038-c763-4b22-9b90-a21f76827797"},"vehicle_type_id":"4","last_reported":1703291613,"current_range_meters":15200,"station_id":"ce4bh112rcd13ifvqda0","pricing_plan_id":"free"},{"bike_id":"9bee3a0c-136c-441f-b810-f0830a58602e","system_id":"levelo_inurba_marseille","lat":43.28727,"lon":5.36078,"is_reserved":false,"is_disabled":false,"rental_uris":{"android":"levelo://app?vid=9bee3a0c-136c-441f-b810-f0830a58602e","ios":"levelo://app?vid=9bee3a0c-136c-441f-b810-f0830a58602e"},"vehicle_type_id":"4","last_reported":1703291613,"current_range_meters":26000,"station_id":"cki0cbj6b192h4jlfktg","pricing_plan_id":"free"},{"bike_id":"0033355c-48e3-487f-83f1-2a6ccbb3045c","system_id":"levelo_inurba_marseille","lat":43.28727,"lon":5.36078,"is_reserved":false,"is_disabled":false,"rental_uris":{"android":"levelo://app?vid=0033355c-48e3-487f-83f1-2a6ccbb3045c","ios":"levelo://app?vid=0033355c-48e3-487f-83f1-2a6ccbb3045c"},"vehicle_type_id":"4","last_reported":1703291613,"current_range_meters":30800,"station_id":"cki0cbj6b192h4jlfktg","pricing_plan_id":"free"},{"bike_id":"3f6afa85-cff6-4d13-a0d3-9212c867d1d1","system_id":"levelo_inurba_marseille","lat":43.2988,"lon":5.39724,"is_reserved":false,"is_disabled":false,"rental_uris":{"android":"levelo://app?vid=3f6afa85-cff6-4d13-a0d3-9212c867d1d1","ios":"levelo://app?vid=3f6afa85-cff6-4d13-a0d3-9212c867d1d1"},"vehicle_type_id":"4","last_reported":1703291613,"current_range_meters":1600,"station_id":"ce4bh0h2rcd13ifvqd50","pricing_plan_id":"free"},{"bike_id":"d9319860-de7a-4ba2-95a1-203c76321596","system_id":"levelo_inurba_marseille","lat":43.298757,"lon":5.3975,"is_reserved":false,"is_disabled":false,"rental_uris":{"android":"levelo://app?vid=d9319860-de7a-4ba2-95a1-203c76321596","ios":"levelo://app?vid=d9319860-de7a-4ba2-95a1-203c76321596"},"vehicle_type_id":"4","last_reported":1703291613,"current_range_meters":6800,"station_id":"ce4bh0h2rcd13ifvqd50","pricing_plan_id":"free"},{"bike_id":"baa99744-c241-4434-b1f3-82817ff7d8b2","system_id":"levelo_inurba_marseille","lat":43.286961,"lon":5.373785,"is_reserved":false,"is_disabled":false,"rental_uris":{"android":"levelo://app?vid=baa99744-c241-4434-b1f3-82817ff7d8b2","ios":"levelo://app?vid=baa99744-c241-4434-b1f3-82817ff7d8b2"},"vehicle_type_id":"4","last_reported":1703291613,"current_range_meters":13200,"station_id":"ce4bh3p2rcd13ifvqdq0","pricing_plan_id":"free"},{"bike_id":"dba5d776-6b5a-4c2c-b5f5-ea57412fbe25","system_id":"levelo_inurba_marseille","lat":43.302759,"lon":5.400793,"is_reserved":false,"is_disabled":false,"rental_uris":{"android":"levelo://app?vid=dba5d776-6b5a-4c2c-b5f5-ea57412fbe25","ios":"levelo://app?vid=dba5d776-6b5a-4c2c-b5f5-ea57412fbe25"},"vehicle_type_id":"4","last_reported":1703291613,"current_range_meters":18800,"station_id":"ce4bgvh2rcd13ifvqcs0","pricing_plan_id":"free"},{"bike_id":"be70652c-11eb-40a4-bc1b-bdcf9873b074","system_id":"levelo_inurba_marseille","lat":43.302759,"lon":5.400793,"is_reserved":false,"is_disabled":false,"rental_uris":{"android":"levelo://app?vid=be70652c-11eb-40a4-bc1b-bdcf9873b074","ios":"levelo://app?vid=be70652c-11eb-40a4-bc1b-bdcf9873b074"},"vehicle_type_id":"4","last_reported":1703291613,"current_range_meters":4400,"station_id":"ce4bgvh2rcd13ifvqcs0","pricing_plan_id":"free"},{"bike_id":"b269c749-19b3-457a-9f11-021ccc443c55","system_id":"levelo_inurba_marseille","lat":43.286039,"lon":5.370679,"is_reserved":false,"is_disabled":false,"rental_uris":{"android":"levelo://app?vid=b269c749-19b3-457a-9f11-021ccc443c55","ios":"levelo://app?vid=b269c749-19b3-457a-9f11-021ccc443c55"},"vehicle_type_id":"4","last_reported":1703291613,"current_range_meters":18000,"station_id":"ce4bht12rcd13ifvqi60","pricing_plan_id":"free"},{"bike_id":"8d7088d7-7e98-4530-8f59-682e05945221","system_id":"levelo_inurba_marseille","lat":43.316828,"lon":5.404723,"is_reserved":false,"is_disabled":false,"rental_uris":{"android":"levelo://app?vid=8d7088d7-7e98-4530-8f59-682e05945221","ios":"levelo://app?vid=8d7088d7-7e98-4530-8f59-682e05945221"},"vehicle_type_id":"4","last_reported":1703291613,"current_range_meters":8800,"station_id":"ce4bh012rcd13ifvqd00","pricing_plan_id":"free"},{"bike_id":"f9da823c-ddd9-44f8-aac7-40bd85a95c97","system_id":"levelo_inurba_marseille","lat":43.291994,"lon":5.392907,"is_reserved":false,"is_disabled":false,"rental_uris":{"android":"levelo://app?vid=f9da823c-ddd9-44f8-aac7-40bd85a95c97","ios":"levelo://app?vid=f9da823c-ddd9-44f8-aac7-40bd85a95c97"},"vehicle_type_id":"4","last_reported":1703291613,"current_range_meters":18800,"station_id":"ce4bh192rcd13ifvqdd0","pricing_plan_id":"free"},{"bike_id":"0a2e800b-fa74-4150-afbb-edb394aedf99","system_id":"levelo_inurba_marseille","lat":43.29199,"lon":5.3933,"is_reserved":false,"is_disabled":false,"rental_uris":{"android":"levelo://app?vid=0a2e800b-fa74-4150-afbb-edb394aedf99","ios":"levelo://app?vid=0a2e800b-fa74-4150-afbb-edb394aedf99"},"vehicle_type_id":"4","last_reported":1703291613,"current_range_meters":16800,"station_id":"ce4bh192rcd13ifvqdd0","pricing_plan_id":"free"},{"bike_id":"e2adfa7c-882e-48a1-9ee4-b36e6186ebbf","system_id":"levelo_inurba_marseille","lat":43.330912,"lon":5.396935,"is_reserved":false,"is_disabled":false,"rental_uris":{"android":"levelo://app?vid=e2adfa7c-882e-48a1-9ee4-b36e6186ebbf","ios":"levelo://app?vid=e2adfa7c-882e-48a1-9ee4-b36e6186ebbf"},"vehicle_type_id":"4","last_reported":1703291613,"current_range_meters":16800,"station_id":"","pricing_plan_id":"free"},{"bike_id":"6681f091-8cae-40db-82be-2afedc79afec","system_id":"levelo_inurba_marseille","lat":43.297943,"lon":5.400741,"is_reserved":false,"is_disabled":false,"rental_uris":{"android":"levelo://app?vid=6681f091-8cae-40db-82be-2afedc79afec","ios":"levelo://app?vid=6681f091-8cae-40db-82be-2afedc79afec"},"vehicle_type_id":"4","last_reported":1703291613,"current_range_meters":4000,"station_id":"","pricing_plan_id":"free"},{"bike_id":"ce83a5c5-1b59-4268-ba3a-86cabe0b3ae5","system_id":"levelo_inurba_marseille","lat":43.284538,"lon":5.358657,"is_reserved":false,"is_disabled":false,"rental_uris":{"android":"levelo://app?vid=ce83a5c5-1b59-4268-ba3a-86cabe0b3ae5","ios":"levelo://app?vid=ce83a5c5-1b59-4268-ba3a-86cabe0b3ae5"},"vehicle_type_id":"4","last_reported":1703291613,"current_range_meters":12800,"station_id":"ce4bhah2rcd13ifvqei0","pricing_plan_id":"free"},{"bike_id":"86482fdd-e01f-4a50-953e-0a82f878b583","system_id":"levelo_inurba_marseille","lat":43.284534,"lon":5.358662,"is_reserved":false,"is_disabled":false,"rental_uris":{"android":"levelo://app?vid=86482fdd-e01f-4a50-953e-0a82f878b583","ios":"levelo://app?vid=86482fdd-e01f-4a50-953e-0a82f878b583"},"vehicle_type_id":"4","last_reported":1703291613,"current_range_meters":16000,"station_id":"ce4bhah2rcd13ifvqei0","pricing_plan_id":"free"},{"bike_id":"51dd8f50-e7b1-4e0f-be55-6d854daa0745","system_id":"levelo_inurba_marseille","lat":43.294314,"lon":5.397498,"is_reserved":false,"is_disabled":false,"rental_uris":{"android":"levelo://app?vid=51dd8f50-e7b1-4e0f-be55-6d854daa0745","ios":"levelo://app?vid=51dd8f50-e7b1-4e0f-be55-6d854daa0745"},"vehicle_type_id":"4","last_reported":1703291613,"current_range_meters":24800,"station_id":"ce4bh3h2rcd13ifvqdo0","pricing_plan_id":"free"},{"bike_id":"20582815-1600-49ec-81a2-7c2555508982","system_id":"levelo_inurba_marseille","lat":43.294314,"lon":5.397498,"is_reserved":false,"is_disabled":false,"rental_uris":{"android":"levelo://app?vid=20582815-1600-49ec-81a2-7c2555508982","ios":"levelo://app?vid=20582815-1600-49ec-81a2-7c2555508982"},"vehicle_type_id":"4","last_reported":1703291613,"current_range_meters":29200,"station_id":"ce4bh3h2rcd13ifvqdo0","pricing_plan_id":"free"},{"bike_id":"ae0ee3ea-4525-4ebf-b192-cc0a6cce2969","system_id":"levelo_inurba_marseille","lat":43.29572,"lon":5.39968,"is_reserved":false,"is_disabled":false,"rental_uris":{"android":"levelo://app?vid=ae0ee3ea-4525-4ebf-b192-cc0a6cce2969","ios":"levelo://app?vid=ae0ee3ea-4525-4ebf-b192-cc0a6cce2969"},"vehicle_type_id":"4","last_reported":1703291613,"current_range_meters":3200,"station_id":"ce4bh312rcd13ifvqdj0","pricing_plan_id":"free"},{"bike_id":"5be14da4-4e9b-4368-8d32-be9f61fbce48","system_id":"levelo_inurba_marseille","lat":43.295713,"lon":5.399639,"is_reserved":false,"is_disabled":false,"rental_uris":{"android":"levelo://app?vid=5be14da4-4e9b-4368-8d32-be9f61fbce48","ios":"levelo://app?vid=5be14da4-4e9b-4368-8d32-be9f61fbce48"},"vehicle_type_id":"4","last_reported":1703291613,"current_range_meters":30400,"station_id":"ce4bh312rcd13ifvqdj0","pricing_plan_id":"free"},{"bike_id":"3b7e3ec0-988e-4aeb-bcf3-3017c628b5d3","system_id":"levelo_inurba_marseille","lat":43.33717,"lon":5.391857,"is_reserved":false,"is_disabled":false,"rental_uris":{"android":"levelo://app?vid=3b7e3ec0-988e-4aeb-bcf3-3017c628b5d3","ios":"levelo://app?vid=3b7e3ec0-988e-4aeb-bcf3-3017c628b5d3"},"vehicle_type_id":"4","last_reported":1703291613,"current_range_meters":30400,"station_id":"ce4bhr92rcd13ifvqhsg","pricing_plan_id":"free"},{"bike_id":"b306bef3-61ce-4097-b249-eebc7da08ee6","system_id":"levelo_inurba_marseille","lat":43.323464,"lon":5.406297,"is_reserved":false,"is_disabled":false,"rental_uris":{"android":"levelo://app?vid=b306bef3-61ce-4097-b249-eebc7da08ee6","ios":"levelo://app?vid=b306bef3-61ce-4097-b249-eebc7da08ee6"},"vehicle_type_id":"4","last_reported":1703291613,"current_range_meters":27200,"station_id":"ce4bhq92rcd13ifvqhjg","pricing_plan_id":"free"},{"bike_id":"b7c71217-6fce-490c-9bd4-073ff8143718","system_id":"levelo_inurba_marseille","lat":43.33717,"lon":5.391857,"is_reserved":false,"is_disabled":false,"rental_uris":{"android":"levelo://app?vid=b7c71217-6fce-490c-9bd4-073ff8143718","ios":"levelo://app?vid=b7c71217-6fce-490c-9bd4-073ff8143718"},"vehicle_type_id":"4","last_reported":1703291613,"current_range_meters":31600,"station_id":"ce4bhr92rcd13ifvqhsg","pricing_plan_id":"free"},{"bike_id":"233eb238-e400-46e7-9601-45e4ec2edf9e","system_id":"levelo_inurba_marseille","lat":43.337168,"lon":5.391825,"is_reserved":false,"is_disabled":false,"rental_uris":{"android":"levelo://app?vid=233eb238-e400-46e7-9601-45e4ec2edf9e","ios":"levelo://app?vid=233eb238-e400-46e7-9601-45e4ec2edf9e"},"vehicle_type_id":"4","last_reported":1703291613,"current_range_meters":23200,"station_id":"ce4bhr92rcd13ifvqhsg","pricing_plan_id":"free"},{"bike_id":"69a23a1c-70a2-4aea-9058-ccf2c18c7b58","system_id":"levelo_inurba_marseille","lat":43.33717,"lon":5.391857,"is_reserved":false,"is_disabled":false,"rental_uris":{"android":"levelo://app?vid=69a23a1c-70a2-4aea-9058-ccf2c18c7b58","ios":"levelo://app?vid=69a23a1c-70a2-4aea-9058-ccf2c18c7b58"},"vehicle_type_id":"4","last_reported":1703291613,"current_range_meters":30000,"station_id":"ce4bhr92rcd13ifvqhsg","pricing_plan_id":"free"},{"bike_id":"65021249-c0c2-4b0f-bb1e-ecd3d7ce2832","system_id":"levelo_inurba_marseille","lat":43.284745,"lon":5.384125,"is_reserved":false,"is_disabled":false,"rental_uris":{"android":"levelo://app?vid=65021249-c0c2-4b0f-bb1e-ecd3d7ce2832","ios":"levelo://app?vid=65021249-c0c2-4b0f-bb1e-ecd3d7ce2832"},"vehicle_type_id":"4","last_reported":1703291613,"current_range_meters":0,"station_id":"ce4bh512rcd13ifvqe3g","pricing_plan_id":"free"},{"bike_id":"fd6583fe-bfb4-4eec-9c48-29450c69b4e5","system_id":"levelo_inurba_marseille","lat":43.283494,"lon":5.380945,"is_reserved":false,"is_disabled":false,"rental_uris":{"android":"levelo://app?vid=fd6583fe-bfb4-4eec-9c48-29450c69b4e5","ios":"levelo://app?vid=fd6583fe-bfb4-4eec-9c48-29450c69b4e5"},"vehicle_type_id":"4","last_reported":1703291613,"current_range_meters":24400,"station_id":"ce4bh412rcd13ifvqdr0","pricing_plan_id":"free"},{"bike_id":"9d529b75-68bf-461d-a200-5fe479ed1362","system_id":"levelo_inurba_marseille","lat":43.283494,"lon":5.380945,"is_reserved":false,"is_disabled":false,"rental_uris":{"android":"levelo://app?vid=9d529b75-68bf-461d-a200-5fe479ed1362","ios":"levelo://app?vid=9d529b75-68bf-461d-a200-5fe479ed1362"},"vehicle_type_id":"4","last_reported":1703291613,"current_range_meters":6800,"station_id":"ce4bh412rcd13ifvqdr0","pricing_plan_id":"free"},{"bike_id":"b1150a08-14b8-4d87-8b9a-5658fda0c676","system_id":"levelo_inurba_marseille","lat":43.283494,"lon":5.380945,"is_reserved":false,"is_disabled":false,"rental_uris":{"android":"levelo://app?vid=b1150a08-14b8-4d87-8b9a-5658fda0c676","ios":"levelo://app?vid=b1150a08-14b8-4d87-8b9a-5658fda0c676"},"vehicle_type_id":"4","last_reported":1703291613,"current_range_meters":24000,"station_id":"ce4bh412rcd13ifvqdr0","pricing_plan_id":"free"},{"bike_id":"3836b981-ce8c-4134-a5b7-097c6433e054","system_id":"levelo_inurba_marseille","lat":43.283498,"lon":5.380948,"is_reserved":false,"is_disabled":false,"rental_uris":{"android":"levelo://app?vid=3836b981-ce8c-4134-a5b7-097c6433e054","ios":"levelo://app?vid=3836b981-ce8c-4134-a5b7-097c6433e054"},"vehicle_type_id":"4","last_reported":1703291613,"current_range_meters":28400,"station_id":"ce4bh412rcd13ifvqdr0","pricing_plan_id":"free"},{"bike_id":"b02feee7-8174-41b3-95be-62f87df2ecbb","system_id":"levelo_inurba_marseille","lat":43.283494,"lon":5.380945,"is_reserved":false,"is_disabled":false,"rental_uris":{"android":"levelo://app?vid=b02feee7-8174-41b3-95be-62f87df2ecbb","ios":"levelo://app?vid=b02feee7-8174-41b3-95be-62f87df2ecbb"},"vehicle_type_id":"4","last_reported":1703291613,"current_range_meters":20400,"station_id":"ce4bh412rcd13ifvqdr0","pricing_plan_id":"free"},{"bike_id":"b6f1f3de-4488-4b2c-932e-085734e4f1f1","system_id":"levelo_inurba_marseille","lat":43.284217,"lon":5.349697,"is_reserved":false,"is_disabled":false,"rental_uris":{"android":"levelo://app?vid=b6f1f3de-4488-4b2c-932e-085734e4f1f1","ios":"levelo://app?vid=b6f1f3de-4488-4b2c-932e-085734e4f1f1"},"vehicle_type_id":"4","last_reported":1703291613,"current_range_meters":26800,"station_id":"ce4bhbh2rcd13ifvqepg","pricing_plan_id":"free"},{"bike_id":"e05e32f5-da1c-4867-b59d-08f9c7c0b28e","system_id":"levelo_inurba_marseille","lat":43.29282,"lon":5.40113,"is_reserved":false,"is_disabled":false,"rental_uris":{"android":"levelo://app?vid=e05e32f5-da1c-4867-b59d-08f9c7c0b28e","ios":"levelo://app?vid=e05e32f5-da1c-4867-b59d-08f9c7c0b28e"},"vehicle_type_id":"4","last_reported":1703291613,"current_range_meters":0,"station_id":"ce4bh312rcd13ifvqdk0","pricing_plan_id":"free"},{"bike_id":"d8ca7455-ec88-4250-8ec0-3fc21f92c74f","system_id":"levelo_inurba_marseille","lat":43.292724,"lon":5.401131,"is_reserved":false,"is_disabled":false,"rental_uris":{"android":"levelo://app?vid=d8ca7455-ec88-4250-8ec0-3fc21f92c74f","ios":"levelo://app?vid=d8ca7455-ec88-4250-8ec0-3fc21f92c74f"},"vehicle_type_id":"4","last_reported":1703291613,"current_range_meters":9600,"station_id":"ce4bh312rcd13ifvqdk0","pricing_plan_id":"free"},{"bike_id":"53ace7c0-9f5b-4097-96fd-0b2d8b24a753","system_id":"levelo_inurba_marseille","lat":43.292724,"lon":5.401131,"is_reserved":false,"is_disabled":false,"rental_uris":{"android":"levelo://app?vid=53ace7c0-9f5b-4097-96fd-0b2d8b24a753","ios":"levelo://app?vid=53ace7c0-9f5b-4097-96fd-0b2d8b24a753"},"vehicle_type_id":"4","last_reported":1703291613,"current_range_meters":22000,"station_id":"ce4bh312rcd13ifvqdk0","pricing_plan_id":"free"},{"bike_id":"0c07039d-f042-4577-ad3b-2eb17b5732ec","system_id":"levelo_inurba_marseille","lat":43.282694,"lon":5.350734,"is_reserved":false,"is_disabled":false,"rental_uris":{"android":"levelo://app?vid=0c07039d-f042-4577-ad3b-2eb17b5732ec","ios":"levelo://app?vid=0c07039d-f042-4577-ad3b-2eb17b5732ec"},"vehicle_type_id":"4","last_reported":1703291613,"current_range_meters":9600,"station_id":"ce4bhbp2rcd13ifvqerg","pricing_plan_id":"free"},{"bike_id":"084a68a6-31fa-4c68-9c25-1a38349bdae3","system_id":"levelo_inurba_marseille","lat":43.283502,"lon":5.386471,"is_reserved":false,"is_disabled":false,"rental_uris":{"android":"levelo://app?vid=084a68a6-31fa-4c68-9c25-1a38349bdae3","ios":"levelo://app?vid=084a68a6-31fa-4c68-9c25-1a38349bdae3"},"vehicle_type_id":"4","last_reported":1703291613,"current_range_meters":22400,"station_id":"ce4bh492rcd13ifvqdvg","pricing_plan_id":"free"},{"bike_id":"86a968dc-f141-4fe8-a39b-55246f534eb4","system_id":"levelo_inurba_marseille","lat":43.28039,"lon":5.369297,"is_reserved":false,"is_disabled":false,"rental_uris":{"android":"levelo://app?vid=86a968dc-f141-4fe8-a39b-55246f534eb4","ios":"levelo://app?vid=86a968dc-f141-4fe8-a39b-55246f534eb4"},"vehicle_type_id":"4","last_reported":1703291613,"current_range_meters":19200,"station_id":"ce4bha12rcd13ifvqef0","pricing_plan_id":"free"},{"bike_id":"8d954b9b-7cc9-4db6-b465-bf95f174b85f","system_id":"levelo_inurba_marseille","lat":43.2804,"lon":5.36944,"is_reserved":false,"is_disabled":false,"rental_uris":{"android":"levelo://app?vid=8d954b9b-7cc9-4db6-b465-bf95f174b85f","ios":"levelo://app?vid=8d954b9b-7cc9-4db6-b465-bf95f174b85f"},"vehicle_type_id":"4","last_reported":1703291613,"current_range_meters":3600,"station_id":"ce4bha12rcd13ifvqef0","pricing_plan_id":"free"},{"bike_id":"2024a61b-7173-4785-8359-84679011d211","system_id":"levelo_inurba_marseille","lat":43.280382,"lon":5.369291,"is_reserved":false,"is_disabled":false,"rental_uris":{"android":"levelo://app?vid=2024a61b-7173-4785-8359-84679011d211","ios":"levelo://app?vid=2024a61b-7173-4785-8359-84679011d211"},"vehicle_type_id":"4","last_reported":1703291613,"current_range_meters":20800,"station_id":"ce4bha12rcd13ifvqef0","pricing_plan_id":"free"},{"bike_id":"9ffafec3-6611-4556-9571-530e1d819b18","system_id":"levelo_inurba_marseille","lat":43.280382,"lon":5.369291,"is_reserved":false,"is_disabled":false,"rental_uris":{"android":"levelo://app?vid=9ffafec3-6611-4556-9571-530e1d819b18","ios":"levelo://app?vid=9ffafec3-6611-4556-9571-530e1d819b18"},"vehicle_type_id":"4","last_reported":1703291613,"current_range_meters":17200,"station_id":"ce4bha12rcd13ifvqef0","pricing_plan_id":"free"},{"bike_id":"289d2076-0005-417e-aaf4-5a60e1989df9","system_id":"levelo_inurba_marseille","lat":43.28039,"lon":5.369297,"is_reserved":false,"is_disabled":false,"rental_uris":{"android":"levelo://app?vid=289d2076-0005-417e-aaf4-5a60e1989df9","ios":"levelo://app?vid=289d2076-0005-417e-aaf4-5a60e1989df9"},"vehicle_type_id":"4","last_reported":1703291613,"current_range_meters":20000,"station_id":"ce4bha12rcd13ifvqef0","pricing_plan_id":"free"},{"bike_id":"06197de1-47f7-4cb7-9a62-a0f13e3be420","system_id":"levelo_inurba_marseille","lat":43.280382,"lon":5.369291,"is_reserved":false,"is_disabled":false,"rental_uris":{"android":"levelo://app?vid=06197de1-47f7-4cb7-9a62-a0f13e3be420","ios":"levelo://app?vid=06197de1-47f7-4cb7-9a62-a0f13e3be420"},"vehicle_type_id":"4","last_reported":1703291613,"current_range_meters":23200,"station_id":"ce4bha12rcd13ifvqef0","pricing_plan_id":"free"},{"bike_id":"f89a31a4-b19e-4573-bb9b-1c5d0a75ac34","system_id":"levelo_inurba_marseille","lat":43.29035,"lon":5.39952,"is_reserved":false,"is_disabled":false,"rental_uris":{"android":"levelo://app?vid=f89a31a4-b19e-4573-bb9b-1c5d0a75ac34","ios":"levelo://app?vid=f89a31a4-b19e-4573-bb9b-1c5d0a75ac34"},"vehicle_type_id":"4","last_reported":1703291613,"current_range_meters":3600,"station_id":"ce4bh392rcd13ifvqdm0","pricing_plan_id":"free"},{"bike_id":"4a7194a6-bdc2-4d67-a274-476a5cbc95aa","system_id":"levelo_inurba_marseille","lat":43.281044,"lon":5.378308,"is_reserved":false,"is_disabled":false,"rental_uris":{"android":"levelo://app?vid=4a7194a6-bdc2-4d67-a274-476a5cbc95aa","ios":"levelo://app?vid=4a7194a6-bdc2-4d67-a274-476a5cbc95aa"},"vehicle_type_id":"4","last_reported":1703291613,"current_range_meters":26800,"station_id":"ce4bha12rcd13ifvqee0","pricing_plan_id":"free"},{"bike_id":"8379dd3c-9b88-4dae-95f2-cf66f3df6a33","system_id":"levelo_inurba_marseille","lat":43.281044,"lon":5.378308,"is_reserved":false,"is_disabled":false,"rental_uris":{"android":"levelo://app?vid=8379dd3c-9b88-4dae-95f2-cf66f3df6a33","ios":"levelo://app?vid=8379dd3c-9b88-4dae-95f2-cf66f3df6a33"},"vehicle_type_id":"4","last_reported":1703291613,"current_range_meters":28400,"station_id":"ce4bha12rcd13ifvqee0","pricing_plan_id":"free"},{"bike_id":"4c43b076-ecab-4426-a7e6-d095a83b2ead","system_id":"levelo_inurba_marseille","lat":43.284462,"lon":5.392121,"is_reserved":false,"is_disabled":false,"rental_uris":{"android":"levelo://app?vid=4c43b076-ecab-4426-a7e6-d095a83b2ead","ios":"levelo://app?vid=4c43b076-ecab-4426-a7e6-d095a83b2ead"},"vehicle_type_id":"4","last_reported":1703291613,"current_range_meters":31600,"station_id":"ce4bhoh2rcd13ifvqh5g","pricing_plan_id":"free"},{"bike_id":"1bc8f8c2-c661-4e40-8f36-815ae692bb87","system_id":"levelo_inurba_marseille","lat":43.284462,"lon":5.392121,"is_reserved":false,"is_disabled":false,"rental_uris":{"android":"levelo://app?vid=1bc8f8c2-c661-4e40-8f36-815ae692bb87","ios":"levelo://app?vid=1bc8f8c2-c661-4e40-8f36-815ae692bb87"},"vehicle_type_id":"4","last_reported":1703291613,"current_range_meters":7200,"station_id":"ce4bhoh2rcd13ifvqh5g","pricing_plan_id":"free"},{"bike_id":"54a19b5f-c93d-48fc-8dbd-1a738c52f387","system_id":"levelo_inurba_marseille","lat":43.28573,"lon":5.394992,"is_reserved":false,"is_disabled":false,"rental_uris":{"android":"levelo://app?vid=54a19b5f-c93d-48fc-8dbd-1a738c52f387","ios":"levelo://app?vid=54a19b5f-c93d-48fc-8dbd-1a738c52f387"},"vehicle_type_id":"4","last_reported":1703291613,"current_range_meters":22000,"station_id":"ce4bh292rcd13ifvqdg0","pricing_plan_id":"free"},{"bike_id":"4c33b76c-4bbb-496b-a596-f3563dcc2cc8","system_id":"levelo_inurba_marseille","lat":43.285742,"lon":5.395004,"is_reserved":false,"is_disabled":false,"rental_uris":{"android":"levelo://app?vid=4c33b76c-4bbb-496b-a596-f3563dcc2cc8","ios":"levelo://app?vid=4c33b76c-4bbb-496b-a596-f3563dcc2cc8"},"vehicle_type_id":"4","last_reported":1703291613,"current_range_meters":30800,"station_id":"ce4bh292rcd13ifvqdg0","pricing_plan_id":"free"},{"bike_id":"921b424d-ad0d-4c7a-9d74-66e3a49bfa19","system_id":"levelo_inurba_marseille","lat":43.326605,"lon":5.409903,"is_reserved":false,"is_disabled":false,"rental_uris":{"android":"levelo://app?vid=921b424d-ad0d-4c7a-9d74-66e3a49bfa19","ios":"levelo://app?vid=921b424d-ad0d-4c7a-9d74-66e3a49bfa19"},"vehicle_type_id":"4","last_reported":1703291613,"current_range_meters":28800,"station_id":"ce4bhpp2rcd13ifvqhgg","pricing_plan_id":"free"},{"bike_id":"49d73e02-e5c2-4882-b44f-d8c5e2af2b78","system_id":"levelo_inurba_marseille","lat":43.326605,"lon":5.409903,"is_reserved":false,"is_disabled":false,"rental_uris":{"android":"levelo://app?vid=49d73e02-e5c2-4882-b44f-d8c5e2af2b78","ios":"levelo://app?vid=49d73e02-e5c2-4882-b44f-d8c5e2af2b78"},"vehicle_type_id":"4","last_reported":1703291613,"current_range_meters":29600,"station_id":"ce4bhpp2rcd13ifvqhgg","pricing_plan_id":"free"},{"bike_id":"2dce41b4-f1e9-4565-979b-d206af37124f","system_id":"levelo_inurba_marseille","lat":43.326605,"lon":5.409903,"is_reserved":false,"is_disabled":false,"rental_uris":{"android":"levelo://app?vid=2dce41b4-f1e9-4565-979b-d206af37124f","ios":"levelo://app?vid=2dce41b4-f1e9-4565-979b-d206af37124f"},"vehicle_type_id":"4","last_reported":1703291613,"current_range_meters":31600,"station_id":"ce4bhpp2rcd13ifvqhgg","pricing_plan_id":"free"},{"bike_id":"aefe02c5-00b4-4187-895f-8ef3edfdb806","system_id":"levelo_inurba_marseille","lat":43.3042,"lon":5.41277,"is_reserved":false,"is_disabled":false,"rental_uris":{"android":"levelo://app?vid=aefe02c5-00b4-4187-895f-8ef3edfdb806","ios":"levelo://app?vid=aefe02c5-00b4-4187-895f-8ef3edfdb806"},"vehicle_type_id":"4","last_reported":1703291613,"current_range_meters":30000,"station_id":"ce4bhop2rcd13ifvqh8g","pricing_plan_id":"free"},{"bike_id":"3facbe4d-388c-40d0-82e4-59c677c06a34","system_id":"levelo_inurba_marseille","lat":43.30422,"lon":5.4128,"is_reserved":false,"is_disabled":false,"rental_uris":{"android":"levelo://app?vid=3facbe4d-388c-40d0-82e4-59c677c06a34","ios":"levelo://app?vid=3facbe4d-388c-40d0-82e4-59c677c06a34"},"vehicle_type_id":"4","last_reported":1703291613,"current_range_meters":3600,"station_id":"ce4bhop2rcd13ifvqh8g","pricing_plan_id":"free"},{"bike_id":"2994219f-f282-434d-a4a5-dcac2f9151e5","system_id":"levelo_inurba_marseille","lat":43.30417,"lon":5.41279,"is_reserved":false,"is_disabled":false,"rental_uris":{"android":"levelo://app?vid=2994219f-f282-434d-a4a5-dcac2f9151e5","ios":"levelo://app?vid=2994219f-f282-434d-a4a5-dcac2f9151e5"},"vehicle_type_id":"4","last_reported":1703291613,"current_range_meters":14000,"station_id":"ce4bhop2rcd13ifvqh8g","pricing_plan_id":"free"},{"bike_id":"f2a735b9-b183-4b03-acbe-8b823bd40b24","system_id":"levelo_inurba_marseille","lat":43.30412,"lon":5.41285,"is_reserved":false,"is_disabled":false,"rental_uris":{"android":"levelo://app?vid=f2a735b9-b183-4b03-acbe-8b823bd40b24","ios":"levelo://app?vid=f2a735b9-b183-4b03-acbe-8b823bd40b24"},"vehicle_type_id":"4","last_reported":1703291613,"current_range_meters":31600,"station_id":"ce4bhop2rcd13ifvqh8g","pricing_plan_id":"free"},{"bike_id":"7f89473b-4ee2-4ba8-86bf-bc53e18d4702","system_id":"levelo_inurba_marseille","lat":43.3042,"lon":5.412893,"is_reserved":false,"is_disabled":false,"rental_uris":{"android":"levelo://app?vid=7f89473b-4ee2-4ba8-86bf-bc53e18d4702","ios":"levelo://app?vid=7f89473b-4ee2-4ba8-86bf-bc53e18d4702"},"vehicle_type_id":"4","last_reported":1703291613,"current_range_meters":2800,"station_id":"ce4bhop2rcd13ifvqh8g","pricing_plan_id":"free"},{"bike_id":"03a8f128-97e5-40ae-9081-744f8ce83749","system_id":"levelo_inurba_marseille","lat":43.279087,"lon":5.380114,"is_reserved":false,"is_disabled":false,"rental_uris":{"android":"levelo://app?vid=03a8f128-97e5-40ae-9081-744f8ce83749","ios":"levelo://app?vid=03a8f128-97e5-40ae-9081-744f8ce83749"},"vehicle_type_id":"4","last_reported":1703291613,"current_range_meters":30400,"station_id":"ce4bhf92rcd13ifvqf50","pricing_plan_id":"free"},{"bike_id":"0607fcfe-033a-447c-9428-df4bb5a0f943","system_id":"levelo_inurba_marseille","lat":43.287154,"lon":5.399979,"is_reserved":false,"is_disabled":false,"rental_uris":{"android":"levelo://app?vid=0607fcfe-033a-447c-9428-df4bb5a0f943","ios":"levelo://app?vid=0607fcfe-033a-447c-9428-df4bb5a0f943"},"vehicle_type_id":"4","last_reported":1703291613,"current_range_meters":18800,"station_id":"ce4bho92rcd13ifvqh3g","pricing_plan_id":"free"},{"bike_id":"4e8e6023-ce65-468d-93fa-ea027a64e38b","system_id":"levelo_inurba_marseille","lat":43.287154,"lon":5.399979,"is_reserved":false,"is_disabled":false,"rental_uris":{"android":"levelo://app?vid=4e8e6023-ce65-468d-93fa-ea027a64e38b","ios":"levelo://app?vid=4e8e6023-ce65-468d-93fa-ea027a64e38b"},"vehicle_type_id":"4","last_reported":1703291613,"current_range_meters":24800,"station_id":"ce4bho92rcd13ifvqh3g","pricing_plan_id":"free"},{"bike_id":"1db55c21-5b1c-4276-b8ff-c0616eb64739","system_id":"levelo_inurba_marseille","lat":43.287154,"lon":5.399979,"is_reserved":false,"is_disabled":false,"rental_uris":{"android":"levelo://app?vid=1db55c21-5b1c-4276-b8ff-c0616eb64739","ios":"levelo://app?vid=1db55c21-5b1c-4276-b8ff-c0616eb64739"},"vehicle_type_id":"4","last_reported":1703291613,"current_range_meters":31200,"station_id":"ce4bho92rcd13ifvqh3g","pricing_plan_id":"free"},{"bike_id":"2538550c-5623-4e0a-9b88-f5b8cb93aaaf","system_id":"levelo_inurba_marseille","lat":43.287154,"lon":5.399979,"is_reserved":false,"is_disabled":false,"rental_uris":{"android":"levelo://app?vid=2538550c-5623-4e0a-9b88-f5b8cb93aaaf","ios":"levelo://app?vid=2538550c-5623-4e0a-9b88-f5b8cb93aaaf"},"vehicle_type_id":"4","last_reported":1703291613,"current_range_meters":26000,"station_id":"ce4bho92rcd13ifvqh3g","pricing_plan_id":"free"},{"bike_id":"3abf6371-b3c9-4f2e-92be-ad71562b6a11","system_id":"levelo_inurba_marseille","lat":43.287123,"lon":5.39994,"is_reserved":false,"is_disabled":false,"rental_uris":{"android":"levelo://app?vid=3abf6371-b3c9-4f2e-92be-ad71562b6a11","ios":"levelo://app?vid=3abf6371-b3c9-4f2e-92be-ad71562b6a11"},"vehicle_type_id":"4","last_reported":1703291613,"current_range_meters":7200,"station_id":"ce4bho92rcd13ifvqh3g","pricing_plan_id":"free"},{"bike_id":"0eb99f76-9044-469e-b5cd-4c052b458bfb","system_id":"levelo_inurba_marseille","lat":43.276769,"lon":5.388787,"is_reserved":false,"is_disabled":false,"rental_uris":{"android":"levelo://app?vid=0eb99f76-9044-469e-b5cd-4c052b458bfb","ios":"levelo://app?vid=0eb99f76-9044-469e-b5cd-4c052b458bfb"},"vehicle_type_id":"4","last_reported":1703291613,"current_range_meters":17200,"station_id":"ce4bhi12rcd13ifvqfo0","pricing_plan_id":"free"},{"bike_id":"9a1e58b2-5874-42c8-9f84-d3f37c76e1ba","system_id":"levelo_inurba_marseille","lat":43.279742,"lon":5.38744,"is_reserved":false,"is_disabled":false,"rental_uris":{"android":"levelo://app?vid=9a1e58b2-5874-42c8-9f84-d3f37c76e1ba","ios":"levelo://app?vid=9a1e58b2-5874-42c8-9f84-d3f37c76e1ba"},"vehicle_type_id":"4","last_reported":1703291613,"current_range_meters":17600,"station_id":"ce4bhg12rcd13ifvqf80","pricing_plan_id":"free"},{"bike_id":"3c990e90-1eed-4343-9b72-6fb2ce5c8fda","system_id":"levelo_inurba_marseille","lat":43.27618,"lon":5.3612,"is_reserved":false,"is_disabled":false,"rental_uris":{"android":"levelo://app?vid=3c990e90-1eed-4343-9b72-6fb2ce5c8fda","ios":"levelo://app?vid=3c990e90-1eed-4343-9b72-6fb2ce5c8fda"},"vehicle_type_id":"4","last_reported":1703291613,"current_range_meters":2400,"station_id":"ce4bgj92rcd13ifvqbe0","pricing_plan_id":"free"},{"bike_id":"db2046b0-697a-4d2e-8814-6af0aeab90a8","system_id":"levelo_inurba_marseille","lat":43.276179,"lon":5.361009,"is_reserved":false,"is_disabled":false,"rental_uris":{"android":"levelo://app?vid=db2046b0-697a-4d2e-8814-6af0aeab90a8","ios":"levelo://app?vid=db2046b0-697a-4d2e-8814-6af0aeab90a8"},"vehicle_type_id":"4","last_reported":1703291613,"current_range_meters":5600,"station_id":"ce4bgj92rcd13ifvqbe0","pricing_plan_id":"free"},{"bike_id":"92652a21-0cc0-4a5f-8e5f-31ffc502ba29","system_id":"levelo_inurba_marseille","lat":43.303837,"lon":5.418724,"is_reserved":false,"is_disabled":false,"rental_uris":{"android":"levelo://app?vid=92652a21-0cc0-4a5f-8e5f-31ffc502ba29","ios":"levelo://app?vid=92652a21-0cc0-4a5f-8e5f-31ffc502ba29"},"vehicle_type_id":"4","last_reported":1703291613,"current_range_meters":31200,"station_id":"ce4bhop2rcd13ifvqh7g","pricing_plan_id":"free"},{"bike_id":"f6a29d14-aee7-4b91-a8c6-8625046948d6","system_id":"levelo_inurba_marseille","lat":43.278401,"lon":5.392152,"is_reserved":false,"is_disabled":false,"rental_uris":{"android":"levelo://app?vid=f6a29d14-aee7-4b91-a8c6-8625046948d6","ios":"levelo://app?vid=f6a29d14-aee7-4b91-a8c6-8625046948d6"},"vehicle_type_id":"4","last_reported":1703291613,"current_range_meters":18400,"station_id":"ce4bhjp2rcd13ifvqga0","pricing_plan_id":"free"},{"bike_id":"03b14f24-ad2a-40bf-a8a4-d789d50cd69a","system_id":"levelo_inurba_marseille","lat":43.303837,"lon":5.418724,"is_reserved":false,"is_disabled":false,"rental_uris":{"android":"levelo://app?vid=03b14f24-ad2a-40bf-a8a4-d789d50cd69a","ios":"levelo://app?vid=03b14f24-ad2a-40bf-a8a4-d789d50cd69a"},"vehicle_type_id":"4","last_reported":1703291613,"current_range_meters":30000,"station_id":"ce4bhop2rcd13ifvqh7g","pricing_plan_id":"free"},{"bike_id":"1cf773da-d503-4f1b-8437-4a6b465d5f1a","system_id":"levelo_inurba_marseille","lat":43.2784,"lon":5.39201,"is_reserved":false,"is_disabled":false,"rental_uris":{"android":"levelo://app?vid=1cf773da-d503-4f1b-8437-4a6b465d5f1a","ios":"levelo://app?vid=1cf773da-d503-4f1b-8437-4a6b465d5f1a"},"vehicle_type_id":"4","last_reported":1703291613,"current_range_meters":400,"station_id":"ce4bhjp2rcd13ifvqga0","pricing_plan_id":"free"},{"bike_id":"85140b79-1d5c-4c1f-b734-02a48fa0e504","system_id":"levelo_inurba_marseille","lat":43.278401,"lon":5.392152,"is_reserved":false,"is_disabled":false,"rental_uris":{"android":"levelo://app?vid=85140b79-1d5c-4c1f-b734-02a48fa0e504","ios":"levelo://app?vid=85140b79-1d5c-4c1f-b734-02a48fa0e504"},"vehicle_type_id":"4","last_reported":1703291613,"current_range_meters":16000,"station_id":"ce4bhjp2rcd13ifvqga0","pricing_plan_id":"free"},{"bike_id":"1cd6b669-dafb-4027-9078-bd3a5fa6957c","system_id":"levelo_inurba_marseille","lat":43.275625,"lon":5.384392,"is_reserved":false,"is_disabled":false,"rental_uris":{"android":"levelo://app?vid=1cd6b669-dafb-4027-9078-bd3a5fa6957c","ios":"levelo://app?vid=1cd6b669-dafb-4027-9078-bd3a5fa6957c"},"vehicle_type_id":"4","last_reported":1703291613,"current_range_meters":15200,"station_id":"ce4bhh92rcd13ifvqfi0","pricing_plan_id":"free"},{"bike_id":"48cb72d6-5769-46dd-a4f2-54dfd0bfb283","system_id":"levelo_inurba_marseille","lat":43.273613,"lon":5.362705,"is_reserved":false,"is_disabled":false,"rental_uris":{"android":"levelo://app?vid=48cb72d6-5769-46dd-a4f2-54dfd0bfb283","ios":"levelo://app?vid=48cb72d6-5769-46dd-a4f2-54dfd0bfb283"},"vehicle_type_id":"4","last_reported":1703291613,"current_range_meters":29200,"station_id":"ce4bhbh2rcd13ifvqeo0","pricing_plan_id":"free"},{"bike_id":"843de36b-095c-4afd-830d-de0e9d07ea09","system_id":"levelo_inurba_marseille","lat":43.273613,"lon":5.362705,"is_reserved":false,"is_disabled":false,"rental_uris":{"android":"levelo://app?vid=843de36b-095c-4afd-830d-de0e9d07ea09","ios":"levelo://app?vid=843de36b-095c-4afd-830d-de0e9d07ea09"},"vehicle_type_id":"4","last_reported":1703291613,"current_range_meters":30800,"station_id":"ce4bhbh2rcd13ifvqeo0","pricing_plan_id":"free"},{"bike_id":"e09a6d18-e62b-45bc-ba72-f8db6df2fcf5","system_id":"levelo_inurba_marseille","lat":43.273609,"lon":5.362708,"is_reserved":false,"is_disabled":false,"rental_uris":{"android":"levelo://app?vid=e09a6d18-e62b-45bc-ba72-f8db6df2fcf5","ios":"levelo://app?vid=e09a6d18-e62b-45bc-ba72-f8db6df2fcf5"},"vehicle_type_id":"4","last_reported":1703291613,"current_range_meters":30400,"station_id":"ce4bhbh2rcd13ifvqeo0","pricing_plan_id":"free"},{"bike_id":"bba24c96-cb49-4b49-8b92-d47436e8f5c0","system_id":"levelo_inurba_marseille","lat":43.275625,"lon":5.384392,"is_reserved":false,"is_disabled":false,"rental_uris":{"android":"levelo://app?vid=bba24c96-cb49-4b49-8b92-d47436e8f5c0","ios":"levelo://app?vid=bba24c96-cb49-4b49-8b92-d47436e8f5c0"},"vehicle_type_id":"4","last_reported":1703291613,"current_range_meters":27600,"station_id":"ce4bhh92rcd13ifvqfi0","pricing_plan_id":"free"},{"bike_id":"97c507dd-7a15-4107-9c1d-de28161d4f7f","system_id":"levelo_inurba_marseille","lat":43.275625,"lon":5.384392,"is_reserved":false,"is_disabled":false,"rental_uris":{"android":"levelo://app?vid=97c507dd-7a15-4107-9c1d-de28161d4f7f","ios":"levelo://app?vid=97c507dd-7a15-4107-9c1d-de28161d4f7f"},"vehicle_type_id":"4","last_reported":1703291613,"current_range_meters":24800,"station_id":"ce4bhh92rcd13ifvqfi0","pricing_plan_id":"free"},{"bike_id":"9e5c25e1-990c-4015-ba32-154357056fd9","system_id":"levelo_inurba_marseille","lat":43.276771,"lon":5.388799,"is_reserved":false,"is_disabled":false,"rental_uris":{"android":"levelo://app?vid=9e5c25e1-990c-4015-ba32-154357056fd9","ios":"levelo://app?vid=9e5c25e1-990c-4015-ba32-154357056fd9"},"vehicle_type_id":"4","last_reported":1703291613,"current_range_meters":21200,"station_id":"ce4bhi12rcd13ifvqfo0","pricing_plan_id":"free"},{"bike_id":"511388d4-c760-4094-88ff-7089e112f7e1","system_id":"levelo_inurba_marseille","lat":43.336148,"lon":5.410349,"is_reserved":false,"is_disabled":false,"rental_uris":{"android":"levelo://app?vid=511388d4-c760-4094-88ff-7089e112f7e1","ios":"levelo://app?vid=511388d4-c760-4094-88ff-7089e112f7e1"},"vehicle_type_id":"4","last_reported":1703291613,"current_range_meters":10000,"station_id":"ce4bhqh2rcd13ifvqhmg","pricing_plan_id":"free"},{"bike_id":"107d35fb-f284-4514-99a6-11ba1e926114","system_id":"levelo_inurba_marseille","lat":43.276769,"lon":5.388787,"is_reserved":false,"is_disabled":false,"rental_uris":{"android":"levelo://app?vid=107d35fb-f284-4514-99a6-11ba1e926114","ios":"levelo://app?vid=107d35fb-f284-4514-99a6-11ba1e926114"},"vehicle_type_id":"4","last_reported":1703291613,"current_range_meters":2800,"station_id":"ce4bhi12rcd13ifvqfo0","pricing_plan_id":"free"},{"bike_id":"d25de747-3cec-4576-99a5-27d47914b475","system_id":"levelo_inurba_marseille","lat":43.336134,"lon":5.410341,"is_reserved":false,"is_disabled":false,"rental_uris":{"android":"levelo://app?vid=d25de747-3cec-4576-99a5-27d47914b475","ios":"levelo://app?vid=d25de747-3cec-4576-99a5-27d47914b475"},"vehicle_type_id":"4","last_reported":1703291613,"current_range_meters":13600,"station_id":"ce4bhqh2rcd13ifvqhmg","pricing_plan_id":"free"},{"bike_id":"0eaedfa9-1ab3-4a2f-bf28-f8642f328c07","system_id":"levelo_inurba_marseille","lat":43.276769,"lon":5.388787,"is_reserved":false,"is_disabled":false,"rental_uris":{"android":"levelo://app?vid=0eaedfa9-1ab3-4a2f-bf28-f8642f328c07","ios":"levelo://app?vid=0eaedfa9-1ab3-4a2f-bf28-f8642f328c07"},"vehicle_type_id":"4","last_reported":1703291613,"current_range_meters":2000,"station_id":"ce4bhi12rcd13ifvqfo0","pricing_plan_id":"free"},{"bike_id":"dcd92362-1ec1-400f-8e0c-299a3282265b","system_id":"levelo_inurba_marseille","lat":43.276771,"lon":5.388799,"is_reserved":false,"is_disabled":false,"rental_uris":{"android":"levelo://app?vid=dcd92362-1ec1-400f-8e0c-299a3282265b","ios":"levelo://app?vid=dcd92362-1ec1-400f-8e0c-299a3282265b"},"vehicle_type_id":"4","last_reported":1703291613,"current_range_meters":20000,"station_id":"ce4bhi12rcd13ifvqfo0","pricing_plan_id":"free"},{"bike_id":"cf61e5f6-1fec-4cd9-a117-5d585df8348f","system_id":"levelo_inurba_marseille","lat":43.276769,"lon":5.388787,"is_reserved":false,"is_disabled":false,"rental_uris":{"android":"levelo://app?vid=cf61e5f6-1fec-4cd9-a117-5d585df8348f","ios":"levelo://app?vid=cf61e5f6-1fec-4cd9-a117-5d585df8348f"},"vehicle_type_id":"4","last_reported":1703291613,"current_range_meters":12400,"station_id":"ce4bhi12rcd13ifvqfo0","pricing_plan_id":"free"},{"bike_id":"358230c6-2f53-4c94-bd58-3ab03d16e35d","system_id":"levelo_inurba_marseille","lat":43.276769,"lon":5.388787,"is_reserved":false,"is_disabled":false,"rental_uris":{"android":"levelo://app?vid=358230c6-2f53-4c94-bd58-3ab03d16e35d","ios":"levelo://app?vid=358230c6-2f53-4c94-bd58-3ab03d16e35d"},"vehicle_type_id":"4","last_reported":1703291613,"current_range_meters":20800,"station_id":"ce4bhi12rcd13ifvqfo0","pricing_plan_id":"free"},{"bike_id":"9d8a300c-7356-461f-8e60-7c138328974e","system_id":"levelo_inurba_marseille","lat":43.317121,"lon":5.423936,"is_reserved":false,"is_disabled":false,"rental_uris":{"android":"levelo://app?vid=9d8a300c-7356-461f-8e60-7c138328974e","ios":"levelo://app?vid=9d8a300c-7356-461f-8e60-7c138328974e"},"vehicle_type_id":"4","last_reported":1703291613,"current_range_meters":29600,"station_id":"ce4bhp92rcd13ifvqhbg","pricing_plan_id":"free"},{"bike_id":"7c92ac06-9f8b-4771-8927-7d3efcae43ac","system_id":"levelo_inurba_marseille","lat":43.310785,"lon":5.424305,"is_reserved":false,"is_disabled":false,"rental_uris":{"android":"levelo://app?vid=7c92ac06-9f8b-4771-8927-7d3efcae43ac","ios":"levelo://app?vid=7c92ac06-9f8b-4771-8927-7d3efcae43ac"},"vehicle_type_id":"4","last_reported":1703291613,"current_range_meters":19600,"station_id":"ce4bhp92rcd13ifvqhag","pricing_plan_id":"free"},{"bike_id":"fd7a78e7-2b19-4ddd-a7d7-b9e5bae14ded","system_id":"levelo_inurba_marseille","lat":43.273129,"lon":5.390725,"is_reserved":false,"is_disabled":false,"rental_uris":{"android":"levelo://app?vid=fd7a78e7-2b19-4ddd-a7d7-b9e5bae14ded","ios":"levelo://app?vid=fd7a78e7-2b19-4ddd-a7d7-b9e5bae14ded"},"vehicle_type_id":"4","last_reported":1703291613,"current_range_meters":24000,"station_id":"ce4bhgp2rcd13ifvqfe0","pricing_plan_id":"free"},{"bike_id":"b536ccdf-df56-4d64-94dc-0a8917ac4ab2","system_id":"levelo_inurba_marseille","lat":43.274099,"lon":5.394019,"is_reserved":false,"is_disabled":false,"rental_uris":{"android":"levelo://app?vid=b536ccdf-df56-4d64-94dc-0a8917ac4ab2","ios":"levelo://app?vid=b536ccdf-df56-4d64-94dc-0a8917ac4ab2"},"vehicle_type_id":"4","last_reported":1703291613,"current_range_meters":4000,"station_id":"ce4bhdp2rcd13ifvqf20","pricing_plan_id":"free"},{"bike_id":"b2bae555-70b7-4476-bc50-e1d2a40076e2","system_id":"levelo_inurba_marseille","lat":43.295511,"lon":5.422926,"is_reserved":false,"is_disabled":false,"rental_uris":{"android":"levelo://app?vid=b2bae555-70b7-4476-bc50-e1d2a40076e2","ios":"levelo://app?vid=b2bae555-70b7-4476-bc50-e1d2a40076e2"},"vehicle_type_id":"4","last_reported":1703291613,"current_range_meters":26000,"station_id":"ce4bhph2rcd13ifvqhdg","pricing_plan_id":"free"},{"bike_id":"5a5ac261-9383-48c6-aae2-bc4a8af2166e","system_id":"levelo_inurba_marseille","lat":43.279465,"lon":5.410561,"is_reserved":false,"is_disabled":false,"rental_uris":{"android":"levelo://app?vid=5a5ac261-9383-48c6-aae2-bc4a8af2166e","ios":"levelo://app?vid=5a5ac261-9383-48c6-aae2-bc4a8af2166e"},"vehicle_type_id":"4","last_reported":1703291613,"current_range_meters":28000,"station_id":"ce4bhnp2rcd13ifvqh0g","pricing_plan_id":"free"},{"bike_id":"8030204b-84e1-4f67-82c1-8471ea1e1bb5","system_id":"levelo_inurba_marseille","lat":43.26681,"lon":5.382694,"is_reserved":false,"is_disabled":false,"rental_uris":{"android":"levelo://app?vid=8030204b-84e1-4f67-82c1-8471ea1e1bb5","ios":"levelo://app?vid=8030204b-84e1-4f67-82c1-8471ea1e1bb5"},"vehicle_type_id":"4","last_reported":1703291613,"current_range_meters":28000,"station_id":"ce4bhg92rcd13ifvqf90","pricing_plan_id":"free"},{"bike_id":"588a2ec9-f980-4124-8efc-c1edcee7ffe2","system_id":"levelo_inurba_marseille","lat":43.265714,"lon":5.372891,"is_reserved":false,"is_disabled":false,"rental_uris":{"android":"levelo://app?vid=588a2ec9-f980-4124-8efc-c1edcee7ffe2","ios":"levelo://app?vid=588a2ec9-f980-4124-8efc-c1edcee7ffe2"},"vehicle_type_id":"4","last_reported":1703291613,"current_range_meters":23200,"station_id":"ce4bhg12rcd13ifvqf70","pricing_plan_id":"free"},{"bike_id":"9f64aafd-c841-405b-aa4d-882e9d32084c","system_id":"levelo_inurba_marseille","lat":43.26552,"lon":5.37287,"is_reserved":false,"is_disabled":false,"rental_uris":{"android":"levelo://app?vid=9f64aafd-c841-405b-aa4d-882e9d32084c","ios":"levelo://app?vid=9f64aafd-c841-405b-aa4d-882e9d32084c"},"vehicle_type_id":"4","last_reported":1703291613,"current_range_meters":21200,"station_id":"ce4bhg12rcd13ifvqf70","pricing_plan_id":"free"},{"bike_id":"45cb4486-330d-45fd-a321-d10b334e3612","system_id":"levelo_inurba_marseille","lat":43.265714,"lon":5.372891,"is_reserved":false,"is_disabled":false,"rental_uris":{"android":"levelo://app?vid=45cb4486-330d-45fd-a321-d10b334e3612","ios":"levelo://app?vid=45cb4486-330d-45fd-a321-d10b334e3612"},"vehicle_type_id":"4","last_reported":1703291613,"current_range_meters":3600,"station_id":"ce4bhg12rcd13ifvqf70","pricing_plan_id":"free"},{"bike_id":"8a8118d2-1be5-4451-b2d9-0ba1321b8f2d","system_id":"levelo_inurba_marseille","lat":43.28004,"lon":5.41653,"is_reserved":false,"is_disabled":false,"rental_uris":{"android":"levelo://app?vid=8a8118d2-1be5-4451-b2d9-0ba1321b8f2d","ios":"levelo://app?vid=8a8118d2-1be5-4451-b2d9-0ba1321b8f2d"},"vehicle_type_id":"4","last_reported":1703291613,"current_range_meters":12400,"station_id":"ce4bho12rcd13ifvqh1g","pricing_plan_id":"free"},{"bike_id":"7dbab88e-f24e-4f52-9d01-769ec1c71328","system_id":"levelo_inurba_marseille","lat":43.308051,"lon":5.43527,"is_reserved":false,"is_disabled":false,"rental_uris":{"android":"levelo://app?vid=7dbab88e-f24e-4f52-9d01-769ec1c71328","ios":"levelo://app?vid=7dbab88e-f24e-4f52-9d01-769ec1c71328"},"vehicle_type_id":"4","last_reported":1703291613,"current_range_meters":7200,"station_id":"ce4bhph2rcd13ifvqheg","pricing_plan_id":"free"},{"bike_id":"47c3210a-9bdf-4b50-a52e-5994dcc84599","system_id":"levelo_inurba_marseille","lat":43.26949,"lon":5.40262,"is_reserved":false,"is_disabled":false,"rental_uris":{"android":"levelo://app?vid=47c3210a-9bdf-4b50-a52e-5994dcc84599","ios":"levelo://app?vid=47c3210a-9bdf-4b50-a52e-5994dcc84599"},"vehicle_type_id":"4","last_reported":1703291613,"current_range_meters":7200,"station_id":"cjm6bp8fraef2m0cb0m0","pricing_plan_id":"free"},{"bike_id":"c58e1262-f8e5-4cce-9f1b-ca3654f61e11","system_id":"levelo_inurba_marseille","lat":43.26949,"lon":5.40262,"is_reserved":false,"is_disabled":false,"rental_uris":{"android":"levelo://app?vid=c58e1262-f8e5-4cce-9f1b-ca3654f61e11","ios":"levelo://app?vid=c58e1262-f8e5-4cce-9f1b-ca3654f61e11"},"vehicle_type_id":"4","last_reported":1703291613,"current_range_meters":11600,"station_id":"cjm6bp8fraef2m0cb0m0","pricing_plan_id":"free"},{"bike_id":"7fbe02a0-b05d-40e2-885a-21861b971e54","system_id":"levelo_inurba_marseille","lat":43.317104,"lon":5.436818,"is_reserved":false,"is_disabled":false,"rental_uris":{"android":"levelo://app?vid=7fbe02a0-b05d-40e2-885a-21861b971e54","ios":"levelo://app?vid=7fbe02a0-b05d-40e2-885a-21861b971e54"},"vehicle_type_id":"4","last_reported":1703291613,"current_range_meters":10400,"station_id":"ce4bhp92rcd13ifvqhcg","pricing_plan_id":"free"},{"bike_id":"a36e5938-cfe7-4a1e-b899-9e1c72d03485","system_id":"levelo_inurba_marseille","lat":43.317104,"lon":5.436818,"is_reserved":false,"is_disabled":false,"rental_uris":{"android":"levelo://app?vid=a36e5938-cfe7-4a1e-b899-9e1c72d03485","ios":"levelo://app?vid=a36e5938-cfe7-4a1e-b899-9e1c72d03485"},"vehicle_type_id":"4","last_reported":1703291613,"current_range_meters":7200,"station_id":"ce4bhp92rcd13ifvqhcg","pricing_plan_id":"free"},{"bike_id":"335681ec-9d1c-491b-ae06-a269e8d79a54","system_id":"levelo_inurba_marseille","lat":43.317104,"lon":5.436818,"is_reserved":false,"is_disabled":false,"rental_uris":{"android":"levelo://app?vid=335681ec-9d1c-491b-ae06-a269e8d79a54","ios":"levelo://app?vid=335681ec-9d1c-491b-ae06-a269e8d79a54"},"vehicle_type_id":"4","last_reported":1703291613,"current_range_meters":19200,"station_id":"ce4bhp92rcd13ifvqhcg","pricing_plan_id":"free"},{"bike_id":"9a22b759-cb02-4a9f-b32d-4de2997c4531","system_id":"levelo_inurba_marseille","lat":43.317104,"lon":5.436818,"is_reserved":false,"is_disabled":false,"rental_uris":{"android":"levelo://app?vid=9a22b759-cb02-4a9f-b32d-4de2997c4531","ios":"levelo://app?vid=9a22b759-cb02-4a9f-b32d-4de2997c4531"},"vehicle_type_id":"4","last_reported":1703291613,"current_range_meters":1600,"station_id":"ce4bhp92rcd13ifvqhcg","pricing_plan_id":"free"},{"bike_id":"3c97a8a7-622c-4d01-a316-783cde5fc7f9","system_id":"levelo_inurba_marseille","lat":43.317104,"lon":5.436818,"is_reserved":false,"is_disabled":false,"rental_uris":{"android":"levelo://app?vid=3c97a8a7-622c-4d01-a316-783cde5fc7f9","ios":"levelo://app?vid=3c97a8a7-622c-4d01-a316-783cde5fc7f9"},"vehicle_type_id":"4","last_reported":1703291613,"current_range_meters":25600,"station_id":"ce4bhp92rcd13ifvqhcg","pricing_plan_id":"free"},{"bike_id":"cb3bedef-14c4-4d98-84e3-b4d224805958","system_id":"levelo_inurba_marseille","lat":43.271368,"lon":5.40928,"is_reserved":false,"is_disabled":false,"rental_uris":{"android":"levelo://app?vid=cb3bedef-14c4-4d98-84e3-b4d224805958","ios":"levelo://app?vid=cb3bedef-14c4-4d98-84e3-b4d224805958"},"vehicle_type_id":"4","last_reported":1703291613,"current_range_meters":27200,"station_id":"ce4bhl12rcd13ifvqgf0","pricing_plan_id":"free"},{"bike_id":"ecded0b1-26e9-4178-868a-0ff40f1e2ee0","system_id":"levelo_inurba_marseille","lat":43.271388,"lon":5.409269,"is_reserved":false,"is_disabled":false,"rental_uris":{"android":"levelo://app?vid=ecded0b1-26e9-4178-868a-0ff40f1e2ee0","ios":"levelo://app?vid=ecded0b1-26e9-4178-868a-0ff40f1e2ee0"},"vehicle_type_id":"4","last_reported":1703291613,"current_range_meters":30400,"station_id":"ce4bhl12rcd13ifvqgf0","pricing_plan_id":"free"},{"bike_id":"9a11cea6-5728-4fbd-9162-591fb81b9f95","system_id":"levelo_inurba_marseille","lat":43.267959,"lon":5.402687,"is_reserved":false,"is_disabled":false,"rental_uris":{"android":"levelo://app?vid=9a11cea6-5728-4fbd-9162-591fb81b9f95","ios":"levelo://app?vid=9a11cea6-5728-4fbd-9162-591fb81b9f95"},"vehicle_type_id":"4","last_reported":1703291613,"current_range_meters":9600,"station_id":"ce501612rcd8frsf0b60","pricing_plan_id":"free"},{"bike_id":"e8fa3cc4-24c5-46cd-837e-b47808dfd25b","system_id":"levelo_inurba_marseille","lat":43.267959,"lon":5.402685,"is_reserved":false,"is_disabled":false,"rental_uris":{"android":"levelo://app?vid=e8fa3cc4-24c5-46cd-837e-b47808dfd25b","ios":"levelo://app?vid=e8fa3cc4-24c5-46cd-837e-b47808dfd25b"},"vehicle_type_id":"4","last_reported":1703291613,"current_range_meters":28000,"station_id":"ce501612rcd8frsf0b60","pricing_plan_id":"free"},{"bike_id":"b266dc45-379e-44a7-93b3-516166020790","system_id":"levelo_inurba_marseille","lat":43.267959,"lon":5.402687,"is_reserved":false,"is_disabled":false,"rental_uris":{"android":"levelo://app?vid=b266dc45-379e-44a7-93b3-516166020790","ios":"levelo://app?vid=b266dc45-379e-44a7-93b3-516166020790"},"vehicle_type_id":"4","last_reported":1703291613,"current_range_meters":19600,"station_id":"ce501612rcd8frsf0b60","pricing_plan_id":"free"},{"bike_id":"0131924d-5605-48f3-988f-22a5f29a2c50","system_id":"levelo_inurba_marseille","lat":43.298768,"lon":5.43643,"is_reserved":false,"is_disabled":false,"rental_uris":{"android":"levelo://app?vid=0131924d-5605-48f3-988f-22a5f29a2c50","ios":"levelo://app?vid=0131924d-5605-48f3-988f-22a5f29a2c50"},"vehicle_type_id":"4","last_reported":1703291613,"current_range_meters":26800,"station_id":"ce4bhpp2rcd13ifvqhfg","pricing_plan_id":"free"},{"bike_id":"68bf5348-716b-4b6e-aaf3-3e6f5e38c2c0","system_id":"levelo_inurba_marseille","lat":43.260219,"lon":5.37546,"is_reserved":false,"is_disabled":false,"rental_uris":{"android":"levelo://app?vid=68bf5348-716b-4b6e-aaf3-3e6f5e38c2c0","ios":"levelo://app?vid=68bf5348-716b-4b6e-aaf3-3e6f5e38c2c0"},"vehicle_type_id":"4","last_reported":1703291613,"current_range_meters":24400,"station_id":"ce4bhgh2rcd13ifvqfa0","pricing_plan_id":"free"},{"bike_id":"2356bd4e-8dfc-4a3d-b08d-ff792ae24204","system_id":"levelo_inurba_marseille","lat":43.281548,"lon":5.42643,"is_reserved":false,"is_disabled":false,"rental_uris":{"android":"levelo://app?vid=2356bd4e-8dfc-4a3d-b08d-ff792ae24204","ios":"levelo://app?vid=2356bd4e-8dfc-4a3d-b08d-ff792ae24204"},"vehicle_type_id":"4","last_reported":1703291613,"current_range_meters":24800,"station_id":"ce4bhnh2rcd13ifvqgug","pricing_plan_id":"free"},