{"last_updated":1747336094,"ttl":60,"version":"2.2","data":{"bikes":[{"bike_id":"f0ad8807-f001-4812-80df-35ee42f66dd2","system_id":"levelo_inurba_marseille","lat":43.29197,"lon":5.39309,"is_reserved":false,"is_disabled":false,"rental_uris":{"android":"levelo://app?vid=f0ad8807-f001-4812-80df-35ee42f66dd2","ios":"levelo://app?vid=f0ad8807-f001-4812-80df-35ee42f66dd2"},"vehicle_type_id":"4","last_reported":1747336094,"current_range_meters":2800,"station_id":"ce4bh192rcd13ifvqdd0","pricing_plan_id":"cebpf4jnsgd1na2vs0mg"},{"bike_id":"430675d1-b8b1-4ac2-af6d-698d50e334ac","system_id":"levelo_inurba_marseille","lat":43.279909,"lon":5.400141,"is_reserved":false,"is_disabled":false,"rental_uris":{"android":"levelo://app?vid=430675d1-b8b1-4ac2-af6d-698d50e334ac","ios":"levelo://app?vid=430675d1-b8b1-4ac2-af6d-698d50e334ac"},"vehicle_type_id":"4","last_reported":1747336094,"current_range_meters":2800,"station_id":"ce4bho92rcd13ifvqh4g","pricing_plan_id":"cebpf4jnsgd1na2vs0mg"},{"bike_id":"7c7c560f-0c9c-417c-a1b7-72c8ffc81630","system_id":"levelo_inurba_marseille","lat":43.30628,"lon":5.41026,"is_reserved":false,"is_disabled":false,"rental_uris":{"android":"levelo://app?vid=7c7c560f-0c9c-417c-a1b7-72c8ffc81630","ios":"levelo://app?vid=7c7c560f-0c9c-417c-a1b7-72c8ffc81630"},"vehicle_type_id":"4","last_reported":1747336094,"current_range_meters":2800,"station_id":"","pricing_plan_id":"cebpf4jnsgd1na2vs0mg"},{"bike_id":"5e9fa20e-1340-4d0d-b683-901a4275ba5d","system_id":"levelo_inurba_marseille","lat":43.28181,"lon":5.425331,"is_reserved":false,"is_disabled":false,"rental_uris":{"android":"levelo://app?vid=5e9fa20e-1340-4d0d-b683-901a4275ba5d","ios":"levelo://app?vid=5e9fa20e-1340-4d0d-b683-901a4275ba5d"},"vehicle_type_id":"4","last_reported":1747336094,"current_range_meters":2800,"station_id":"","pricing_plan_id":"cebpf4jnsgd1na2vs0mg"},{"bike_id":"ad4822f5-dceb-440b-9bcb-6cfc5e9af24d","system_id":"levelo_inurba_marseille","lat":43.29798,"lon":5.42662,"is_reserved":false,"is_disabled":false,"rental_uris":{"android":"levelo://app?vid=ad4822f5-dceb-440b-9bcb-6cfc5e9af24d","ios":"levelo://app?vid=ad4822f5-dceb-440b-9bcb-6cfc5e9af24d"},"vehicle_type_id":"4","last_reported":1747336094,"current_range_meters":2800,"station_id":"","pricing_plan_id":"cebpf4jnsgd1na2vs0mg"},{"bike_id":"e71cf5dc-bd3d-413a-b68d-6d6054593538","system_id":"levelo_inurba_marseille","lat":43.28674,"lon":5.36346,"is_reserved":false,"is_disabled":false,"rental_uris":{"android":"levelo://app?vid=e71cf5dc-bd3d-413a-b68d-6d6054593538","ios":"levelo://app?vid=e71cf5dc-bd3d-413a-b68d-6d6054593538"},"vehicle_type_id":"4","last_reported":1747336094,"current_range_meters":2800,"station_id":"ce4bhah2rcd13ifvqej0","pricing_plan_id":"cebpf4jnsgd1na2vs0mg"},{"bike_id":"42a107b2-7c8b-4ef9-8623-ce33afec46ab","system_id":"levelo_inurba_marseille","lat":43.29517,"lon":5.39407,"is_reserved":false,"is_disabled":false,"rental_uris":{"android":"levelo://app?vid=42a107b2-7c8b-4ef9-8623-ce33afec46ab","ios":"levelo://app?vid=42a107b2-7c8b-4ef9-8623-ce33afec46ab"},"vehicle_type_id":"4","last_reported":1747336094,"current_range_meters":3200,"station_id":"ce4bh292rcd13ifvqdf0","pricing_plan_id":"cebpf4jnsgd1na2vs0mg"},{"bike_id":"d357bbc1-1431-454e-841f-be6ec271db1d","system_id":"levelo_inurba_marseille","lat":43.29283,"lon":5.40131,"is_reserved":false,"is_disabled":false,"rental_uris":{"android":"levelo://app?vid=d357bbc1-1431-454e-841f-be6ec271db1d","ios":"levelo://app?vid=d357bbc1-1431-454e-841f-be6ec271db1d"},"vehicle_type_id":"4","last_reported":1747336094,"current_range_meters":2800,"station_id":"ce4bh312rcd13ifvqdk0","pricing_plan_id":"cebpf4jnsgd1na2vs0mg"},{"bike_id":"0f749fc6-df86-42a1-b9e1-54dba00ac8dc","system_id":"levelo_inurba_marseille","lat":43.29254,"lon":5.40911,"is_reserved":false,"is_disabled":false,"rental_uris":{"android":"levelo://app?vid=0f749fc6-df86-42a1-b9e1-54dba00ac8dc","ios":"levelo://app?vid=0f749fc6-df86-42a1-b9e1-54dba00ac8dc"},"vehicle_type_id":"4","last_reported":1747336094,"current_range_meters":3200,"station_id":"ce4bh192rcd13ifvqdc0","pricing_plan_id":"cebpf4jnsgd1na2vs0mg"},{"bike_id":"9c5bf4e6-2969-4158-99f2-5b3e0b3c9f95","system_id":"levelo_inurba_marseille","lat":43.29191,"lon":5.35793,"is_reserved":false,"is_disabled":false,"rental_uris":{"android":"levelo://app?vid=9c5bf4e6-2969-4158-99f2-5b3e0b3c9f95","ios":"levelo://app?vid=9c5bf4e6-2969-4158-99f2-5b3e0b3c9f95"},"vehicle_type_id":"4","last_reported":1747336094,"current_range_meters":3200,"station_id":"ce4bhb12rcd13ifvqel0","pricing_plan_id":"cebpf4jnsgd1na2vs0mg"},{"bike_id":"27f58695-9267-4d33-ae6d-ff4873303450","system_id":"levelo_inurba_marseille","lat":43.2847,"lon":5.38421,"is_reserved":false,"is_disabled":false,"rental_uris":{"android":"levelo://app?vid=27f58695-9267-4d33-ae6d-ff4873303450","ios":"levelo://app?vid=27f58695-9267-4d33-ae6d-ff4873303450"},"vehicle_type_id":"4","last_reported":1747336094,"current_range_meters":3200,"station_id":"ce4bh512rcd13ifvqe3g","pricing_plan_id":"cebpf4jnsgd1na2vs0mg"},{"bike_id":"673ceb40-f0c3-4247-848a-b5c4d83940a6","system_id":"levelo_inurba_marseille","lat":43.326599,"lon":5.409942,"is_reserved":false,"is_disabled":false,"rental_uris":{"android":"levelo://app?vid=673ceb40-f0c3-4247-848a-b5c4d83940a6","ios":"levelo://app?vid=673ceb40-f0c3-4247-848a-b5c4d83940a6"},"vehicle_type_id":"4","last_reported":1747336094,"current_range_meters":3200,"station_id":"ce4bhpp2rcd13ifvqhgg","pricing_plan_id":"cebpf4jnsgd1na2vs0mg"},{"bike_id":"f491ec09-296b-4a4a-a2b8-79febfc36105","system_id":"levelo_inurba_marseille","lat":43.29521,"lon":5.37495,"is_reserved":false,"is_disabled":false,"rental_uris":{"android":"levelo://app?vid=f491ec09-296b-4a4a-a2b8-79febfc36105","ios":"levelo://app?vid=f491ec09-296b-4a4a-a2b8-79febfc36105"},"vehicle_type_id":"4","last_reported":1747336094,"current_range_meters":3200,"station_id":"ce4bgkp2rcd13ifvqbmg","pricing_plan_id":"cebpf4jnsgd1na2vs0mg"},{"bike_id":"3912493a-3d82-47b8-a654-004af226a8d2","system_id":"levelo_inurba_marseille","lat":43.30124,"lon":5.39849,"is_reserved":false,"is_disabled":false,"rental_uris":{"android":"levelo://app?vid=3912493a-3d82-47b8-a654-004af226a8d2","ios":"levelo://app?vid=3912493a-3d82-47b8-a654-004af226a8d2"},"vehicle_type_id":"4","last_reported":1747336094,"current_range_meters":3200,"station_id":"ce4bh0h2rcd13ifvqd40","pricing_plan_id":"cebpf4jnsgd1na2vs0mg"},{"bike_id":"9eb0606b-75e4-4223-8e2a-f00136aa1720","system_id":"levelo_inurba_marseille","lat":43.297104,"lon":5.366152,"is_reserved":false,"is_disabled":false,"rental_uris":{"android":"levelo://app?vid=9eb0606b-75e4-4223-8e2a-f00136aa1720","ios":"levelo://app?vid=9eb0606b-75e4-4223-8e2a-f00136aa1720"},"vehicle_type_id":"4","last_reported":1747336094,"current_range_meters":3600,"station_id":"ce4bgn12rcd13ifvqbt0","pricing_plan_id":"cebpf4jnsgd1na2vs0mg"},{"bike_id":"bce4ac72-5680-4a8f-bd55-ade0d192b49f","system_id":"levelo_inurba_marseille","lat":43.28443,"lon":5.39197,"is_reserved":false,"is_disabled":false,"rental_uris":{"android":"levelo://app?vid=bce4ac72-5680-4a8f-bd55-ade0d192b49f","ios":"levelo://app?vid=bce4ac72-5680-4a8f-bd55-ade0d192b49f"},"vehicle_type_id":"4","last_reported":1747336094,"current_range_meters":3200,"station_id":"ce4bhoh2rcd13ifvqh5g","pricing_plan_id":"cebpf4jnsgd1na2vs0mg"},{"bike_id":"93db2b39-994c-4291-995c-4178bb869f0f","system_id":"levelo_inurba_marseille","lat":43.28947,"lon":5.36619,"is_reserved":false,"is_disabled":false,"rental_uris":{"android":"levelo://app?vid=93db2b39-994c-4291-995c-4178bb869f0f","ios":"levelo://app?vid=93db2b39-994c-4291-995c-4178bb869f0f"},"vehicle_type_id":"4","last_reported":1747336094,"current_range_meters":3600,"station_id":"ce4bhap2rcd13ifvqek0","pricing_plan_id":"cebpf4jnsgd1na2vs0mg"},{"bike_id":"8b659ca0-8c1c-44cf-a8a5-9d1cb5fe4acf","system_id":"levelo_inurba_marseille","lat":43.30653,"lon":5.40103,"is_reserved":false,"is_disabled":false,"rental_uris":{"android":"levelo://app?vid=8b659ca0-8c1c-44cf-a8a5-9d1cb5fe4acf","ios":"levelo://app?vid=8b659ca0-8c1c-44cf-a8a5-9d1cb5fe4acf"},"vehicle_type_id":"4","last_reported":1747336094,"current_range_meters":3600,"station_id":"ce4bh112rcd13ifvqda0","pricing_plan_id":"cebpf4jnsgd1na2vs0mg"},{"bike_id":"bc620b41-635b-46fe-9a1c-fa921a32ece9","system_id":"levelo_inurba_marseille","lat":43.3175,"lon":5.39019,"is_reserved":false,"is_disabled":false,"rental_uris":{"android":"levelo://app?vid=bc620b41-635b-46fe-9a1c-fa921a32ece9","ios":"levelo://app?vid=bc620b41-635b-46fe-9a1c-fa921a32ece9"},"vehicle_type_id":"4","last_reported":1747336094,"current_range_meters":3600,"station_id":"ce4bhqp2rcd13ifvqhng","pricing_plan_id":"cebpf4jnsgd1na2vs0mg"},{"bike_id":"6bfa2a37-4117-4d50-8d20-1d3a85319806","system_id":"levelo_inurba_marseille","lat":43.29042,"lon":5.39965,"is_reserved":false,"is_disabled":false,"rental_uris":{"android":"levelo://app?vid=6bfa2a37-4117-4d50-8d20-1d3a85319806","ios":"levelo://app?vid=6bfa2a37-4117-4d50-8d20-1d3a85319806"},"vehicle_type_id":"4","last_reported":1747336094,"current_range_meters":3600,"station_id":"ce4bh392rcd13ifvqdm0","pricing_plan_id":"cebpf4jnsgd1na2vs0mg"},{"bike_id":"b329783e-16e4-4e76-a65b-7e2cc6122549","system_id":"levelo_inurba_marseille","lat":43.30818,"lon":5.38168,"is_reserved":false,"is_disabled":false,"rental_uris":{"android":"levelo://app?vid=b329783e-16e4-4e76-a65b-7e2cc6122549","ios":"levelo://app?vid=b329783e-16e4-4e76-a65b-7e2cc6122549"},"vehicle_type_id":"4","last_reported":1747336094,"current_range_meters":3600,"station_id":"ce4bgt12rcd13ifvqce0","pricing_plan_id":"cebpf4jnsgd1na2vs0mg"},{"bike_id":"ba9c1983-e1c5-421b-aa2d-bcb9e6951a40","system_id":"levelo_inurba_marseille","lat":43.26062,"lon":5.39394,"is_reserved":false,"is_disabled":false,"rental_uris":{"android":"levelo://app?vid=ba9c1983-e1c5-421b-aa2d-bcb9e6951a40","ios":"levelo://app?vid=ba9c1983-e1c5-421b-aa2d-bcb9e6951a40"},"vehicle_type_id":"4","last_reported":1747336094,"current_range_meters":3600,"station_id":"ce4bhh92rcd13ifvqfj0","pricing_plan_id":"cebpf4jnsgd1na2vs0mg"},{"bike_id":"7dbeb578-03b8-4b8d-b6b8-296876d4a59a","system_id":"levelo_inurba_marseille","lat":43.31486,"lon":5.37308,"is_reserved":false,"is_disabled":false,"rental_uris":{"android":"levelo://app?vid=7dbeb578-03b8-4b8d-b6b8-296876d4a59a","ios":"levelo://app?vid=7dbeb578-03b8-4b8d-b6b8-296876d4a59a"},"vehicle_type_id":"4","last_reported":1747336094,"current_range_meters":3600,"station_id":"ce4bgt12rcd13ifvqcd0","pricing_plan_id":"cebpf4jnsgd1na2vs0mg"},{"bike_id":"a775bd26-aebf-48f5-843b-53b4e0130aa6","system_id":"levelo_inurba_marseille","lat":43.291881,"lon":5.357929,"is_reserved":false,"is_disabled":false,"rental_uris":{"android":"levelo://app?vid=a775bd26-aebf-48f5-843b-53b4e0130aa6","ios":"levelo://app?vid=a775bd26-aebf-48f5-843b-53b4e0130aa6"},"vehicle_type_id":"4","last_reported":1747336094,"current_range_meters":3600,"station_id":"ce4bhb12rcd13ifvqel0","pricing_plan_id":"cebpf4jnsgd1na2vs0mg"},{"bike_id":"98cdeddf-c2f2-42a2-a28f-4cd4d879692f","system_id":"levelo_inurba_marseille","lat":43.28615,"lon":5.35107,"is_reserved":false,"is_disabled":false,"rental_uris":{"android":"levelo://app?vid=98cdeddf-c2f2-42a2-a28f-4cd4d879692f","ios":"levelo://app?vid=98cdeddf-c2f2-42a2-a28f-4cd4d879692f"},"vehicle_type_id":"4","last_reported":1747336094,"current_range_meters":4000,"station_id":"ce4bhch2rcd13ifvqeug","pricing_plan_id":"cebpf4jnsgd1na2vs0mg"},{"bike_id":"f06462db-b290-43c3-9794-1ab7d7211cb3","system_id":"levelo_inurba_marseille","lat":43.292583,"lon":5.409043,"is_reserved":false,"is_disabled":false,"rental_uris":{"android":"levelo://app?vid=f06462db-b290-43c3-9794-1ab7d7211cb3","ios":"levelo://app?vid=f06462db-b290-43c3-9794-1ab7d7211cb3"},"vehicle_type_id":"4","last_reported":1747336094,"current_range_meters":4000,"station_id":"ce4bh192rcd13ifvqdc0","pricing_plan_id":"cebpf4jnsgd1na2vs0mg"},{"bike_id":"9c237acd-6116-49df-b11e-412a81b76adc","system_id":"levelo_inurba_marseille","lat":43.29715,"lon":5.36611,"is_reserved":false,"is_disabled":false,"rental_uris":{"android":"levelo://app?vid=9c237acd-6116-49df-b11e-412a81b76adc","ios":"levelo://app?vid=9c237acd-6116-49df-b11e-412a81b76adc"},"vehicle_type_id":"4","last_reported":1747336094,"current_range_meters":4000,"station_id":"ce4bgn12rcd13ifvqbt0","pricing_plan_id":"cebpf4jnsgd1na2vs0mg"},{"bike_id":"7f308e56-6f07-4184-bc0d-315fe13f4065","system_id":"levelo_inurba_marseille","lat":43.29968,"lon":5.38491,"is_reserved":false,"is_disabled":false,"rental_uris":{"android":"levelo://app?vid=7f308e56-6f07-4184-bc0d-315fe13f4065","ios":"levelo://app?vid=7f308e56-6f07-4184-bc0d-315fe13f4065"},"vehicle_type_id":"4","last_reported":1747336094,"current_range_meters":4000,"station_id":"ce4bgj92rcd13ifvqbd0","pricing_plan_id":"cebpf4jnsgd1na2vs0mg"},{"bike_id":"f9e7d873-88bb-4f94-a0d6-3fcae7d05021","system_id":"levelo_inurba_marseille","lat":43.30813,"lon":5.36965,"is_reserved":false,"is_disabled":false,"rental_uris":{"android":"levelo://app?vid=f9e7d873-88bb-4f94-a0d6-3fcae7d05021","ios":"levelo://app?vid=f9e7d873-88bb-4f94-a0d6-3fcae7d05021"},"vehicle_type_id":"4","last_reported":1747336094,"current_range_meters":4400,"station_id":"","pricing_plan_id":"cebpf4jnsgd1na2vs0mg"},{"bike_id":"3225a70f-12cd-4cb5-a7c5-ab0440c76feb","system_id":"levelo_inurba_marseille","lat":43.26551,"lon":5.37288,"is_reserved":false,"is_disabled":false,"rental_uris":{"android":"levelo://app?vid=3225a70f-12cd-4cb5-a7c5-ab0440c76feb","ios":"levelo://app?vid=3225a70f-12cd-4cb5-a7c5-ab0440c76feb"},"vehicle_type_id":"4","last_reported":1747336094,"current_range_meters":4400,"station_id":"ce4bhg12rcd13ifvqf70","pricing_plan_id":"cebpf4jnsgd1na2vs0mg"},{"bike_id":"8cafbaf4-db5f-4f20-ba59-8ee50dd610b5","system_id":"levelo_inurba_marseille","lat":43.31313,"lon":5.39705,"is_reserved":false,"is_disabled":true,"rental_uris":{"android":"levelo://app?vid=8cafbaf4-db5f-4f20-ba59-8ee50dd610b5","ios":"levelo://app?vid=8cafbaf4-db5f-4f20-ba59-8ee50dd610b5"},"vehicle_type_id":"4","last_reported":1747336094,"current_range_meters":4400,"station_id":"ce4bgvp2rcd13ifvqcu0","pricing_plan_id":"cebpf4jnsgd1na2vs0mg"},{"bike_id":"d8a739e2-01be-4859-893b-3009da028a91","system_id":"levelo_inurba_marseille","lat":43.28677,"lon":5.3866,"is_reserved":false,"is_disabled":false,"rental_uris":{"android":"levelo://app?vid=d8a739e2-01be-4859-893b-3009da028a91","ios":"levelo://app?vid=d8a739e2-01be-4859-893b-3009da028a91"},"vehicle_type_id":"4","last_reported":1747336094,"current_range_meters":4400,"station_id":"ce4bh492rcd13ifvqdug","pricing_plan_id":"cebpf4jnsgd1na2vs0mg"},{"bike_id":"85201045-0c72-43fc-8dd8-648aa3e0c0bf","system_id":"levelo_inurba_marseille","lat":43.29029,"lon":5.38637,"is_reserved":false,"is_disabled":false,"rental_uris":{"android":"levelo://app?vid=85201045-0c72-43fc-8dd8-648aa3e0c0bf","ios":"levelo://app?vid=85201045-0c72-43fc-8dd8-648aa3e0c0bf"},"vehicle_type_id":"4","last_reported":1747336094,"current_range_meters":4800,"station_id":"ce4bh4p2rcd13ifvqe0g","pricing_plan_id":"cebpf4jnsgd1na2vs0mg"},{"bike_id":"d4fc9686-7356-4ec5-9f10-f9e883af4e04","system_id":"levelo_inurba_marseille","lat":43.25113,"lon":5.40319,"is_reserved":false,"is_disabled":false,"rental_uris":{"android":"levelo://app?vid=d4fc9686-7356-4ec5-9f10-f9e883af4e04","ios":"levelo://app?vid=d4fc9686-7356-4ec5-9f10-f9e883af4e04"},"vehicle_type_id":"4","last_reported":1747336094,"current_range_meters":4800,"station_id":"ce4bhlh2rcd13ifvqgig","pricing_plan_id":"cebpf4jnsgd1na2vs0mg"},{"bike_id":"db3423b5-6f2a-48ae-862f-36f61d097117","system_id":"levelo_inurba_marseille","lat":43.30437,"lon":5.38887,"is_reserved":false,"is_disabled":false,"rental_uris":{"android":"levelo://app?vid=db3423b5-6f2a-48ae-862f-36f61d097117","ios":"levelo://app?vid=db3423b5-6f2a-48ae-862f-36f61d097117"},"vehicle_type_id":"4","last_reported":1747336094,"current_range_meters":4800,"station_id":"ce4bgk12rcd13ifvqbi0","pricing_plan_id":"cebpf4jnsgd1na2vs0mg"},{"bike_id":"7061a76f-90b0-418d-9de9-fba7b79a4930","system_id":"levelo_inurba_marseille","lat":43.29513,"lon":5.394,"is_reserved":false,"is_disabled":false,"rental_uris":{"android":"levelo://app?vid=7061a76f-90b0-418d-9de9-fba7b79a4930","ios":"levelo://app?vid=7061a76f-90b0-418d-9de9-fba7b79a4930"},"vehicle_type_id":"4","last_reported":1747336094,"current_range_meters":4800,"station_id":"ce4bh292rcd13ifvqdf0","pricing_plan_id":"cebpf4jnsgd1na2vs0mg"},{"bike_id":"de66b2a2-def5-4060-a2ad-b5c568cb6eac","system_id":"levelo_inurba_marseille","lat":43.28151,"lon":5.42646,"is_reserved":false,"is_disabled":false,"rental_uris":{"android":"levelo://app?vid=de66b2a2-def5-4060-a2ad-b5c568cb6eac","ios":"levelo://app?vid=de66b2a2-def5-4060-a2ad-b5c568cb6eac"},"vehicle_type_id":"4","last_reported":1747336094,"current_range_meters":4800,"station_id":"ce4bhnh2rcd13ifvqgug","pricing_plan_id":"cebpf4jnsgd1na2vs0mg"},{"bike_id":"aa135efa-7f54-4db0-b146-91ad5844592b","system_id":"levelo_inurba_marseille","lat":43.29531,"lon":5.38546,"is_reserved":false,"is_disabled":false,"rental_uris":{"android":"levelo://app?vid=aa135efa-7f54-4db0-b146-91ad5844592b","ios":"levelo://app?vid=aa135efa-7f54-4db0-b146-91ad5844592b"},"vehicle_type_id":"4","last_reported":1747336094,"current_range_meters":5600,"station_id":"ce4bgih2rcd13ifvqba0","pricing_plan_id":"cebpf4jnsgd1na2vs0mg"},{"bike_id":"cc53dea9-3051-43f6-9343-96415378f3b6","system_id":"levelo_inurba_marseille","lat":43.29786,"lon":5.37105,"is_reserved":false,"is_disabled":false,"rental_uris":{"android":"levelo://app?vid=cc53dea9-3051-43f6-9343-96415378f3b6","ios":"levelo://app?vid=cc53dea9-3051-43f6-9343-96415378f3b6"},"vehicle_type_id":"4","last_reported":1747336094,"current_range_meters":5600,"station_id":"ce4bgop2rcd13ifvqc1g","pricing_plan_id":"cebpf4jnsgd1na2vs0mg"},{"bike_id":"a5cef2ba-f07f-4a5d-a10a-13b338869b55","system_id":"levelo_inurba_marseille","lat":43.29776,"lon":5.39359,"is_reserved":false,"is_disabled":false,"rental_uris":{"android":"levelo://app?vid=a5cef2ba-f07f-4a5d-a10a-13b338869b55","ios":"levelo://app?vid=a5cef2ba-f07f-4a5d-a10a-13b338869b55"},"vehicle_type_id":"4","last_reported":1747336094,"current_range_meters":5600,"station_id":"chh1huq6cuj3fo74tm60","pricing_plan_id":"cebpf4jnsgd1na2vs0mg"},{"bike_id":"d9675773-db8d-4871-950d-fe9c2d3b6230","system_id":"levelo_inurba_marseille","lat":43.28618,"lon":5.35105,"is_reserved":false,"is_disabled":false,"rental_uris":{"android":"levelo://app?vid=d9675773-db8d-4871-950d-fe9c2d3b6230","ios":"levelo://app?vid=d9675773-db8d-4871-950d-fe9c2d3b6230"},"vehicle_type_id":"4","last_reported":1747336094,"current_range_meters":5600,"station_id":"ce4bhch2rcd13ifvqeug","pricing_plan_id":"cebpf4jnsgd1na2vs0mg"},{"bike_id":"7ab1f241-2254-4889-9d7a-85bc20955edf","system_id":"levelo_inurba_marseille","lat":43.29427,"lon":5.38635,"is_reserved":false,"is_disabled":false,"rental_uris":{"android":"levelo://app?vid=7ab1f241-2254-4889-9d7a-85bc20955edf","ios":"levelo://app?vid=7ab1f241-2254-4889-9d7a-85bc20955edf"},"vehicle_type_id":"4","last_reported":1747336094,"current_range_meters":5600,"station_id":"ce4bh2h2rcd13ifvqdh0","pricing_plan_id":"cebpf4jnsgd1na2vs0mg"},{"bike_id":"a13c4cf2-f456-4eb4-8933-2c2db96157cc","system_id":"levelo_inurba_marseille","lat":43.29272,"lon":5.38443,"is_reserved":false,"is_disabled":false,"rental_uris":{"android":"levelo://app?vid=a13c4cf2-f456-4eb4-8933-2c2db96157cc","ios":"levelo://app?vid=a13c4cf2-f456-4eb4-8933-2c2db96157cc"},"vehicle_type_id":"4","last_reported":1747336094,"current_range_meters":5600,"station_id":"ce4bh692rcd13ifvqea0","pricing_plan_id":"cebpf4jnsgd1na2vs0mg"},{"bike_id":"3e80f396-bd8d-4d10-bade-e5e3594dc868","system_id":"levelo_inurba_marseille","lat":43.28456,"lon":5.35893,"is_reserved":false,"is_disabled":false,"rental_uris":{"android":"levelo://app?vid=3e80f396-bd8d-4d10-bade-e5e3594dc868","ios":"levelo://app?vid=3e80f396-bd8d-4d10-bade-e5e3594dc868"},"vehicle_type_id":"4","last_reported":1747336094,"current_range_meters":5600,"station_id":"ce4bhah2rcd13ifvqei0","pricing_plan_id":"cebpf4jnsgd1na2vs0mg"},{"bike_id":"d9c73706-af57-4ff4-b468-5b8e5a981863","system_id":"levelo_inurba_marseille","lat":43.30155,"lon":5.38089,"is_reserved":false,"is_disabled":false,"rental_uris":{"android":"levelo://app?vid=d9c73706-af57-4ff4-b468-5b8e5a981863","ios":"levelo://app?vid=d9c73706-af57-4ff4-b468-5b8e5a981863"},"vehicle_type_id":"4","last_reported":1747336094,"current_range_meters":5600,"station_id":"ce4bgjp2rcd13ifvqbh0","pricing_plan_id":"cebpf4jnsgd1na2vs0mg"},{"bike_id":"fc4950d7-0888-44f9-b6bc-bb6330e386cb","system_id":"levelo_inurba_marseille","lat":43.29614,"lon":5.37717,"is_reserved":false,"is_disabled":true,"rental_uris":{"android":"levelo://app?vid=fc4950d7-0888-44f9-b6bc-bb6330e386cb","ios":"levelo://app?vid=fc4950d7-0888-44f9-b6bc-bb6330e386cb"},"vehicle_type_id":"4","last_reported":1747336094,"current_range_meters":5600,"station_id":"ce4bgi92rcd13ifvqb90","pricing_plan_id":"cebpf4jnsgd1na2vs0mg"},{"bike_id":"ae917dab-c38c-4d3f-99a4-43a9ab0fea86","system_id":"levelo_inurba_marseille","lat":43.30925,"lon":5.40146,"is_reserved":false,"is_disabled":false,"rental_uris":{"android":"levelo://app?vid=ae917dab-c38c-4d3f-99a4-43a9ab0fea86","ios":"levelo://app?vid=ae917dab-c38c-4d3f-99a4-43a9ab0fea86"},"vehicle_type_id":"4","last_reported":1747336094,"current_range_meters":5600,"station_id":"ce4bgvp2rcd13ifvqct0","pricing_plan_id":"cebpf4jnsgd1na2vs0mg"},{"bike_id":"ea716814-d8a0-425d-8c9d-51cf34ecd6e9","system_id":"levelo_inurba_marseille","lat":43.28108,"lon":5.37828,"is_reserved":false,"is_disabled":false,"rental_uris":{"android":"levelo://app?vid=ea716814-d8a0-425d-8c9d-51cf34ecd6e9","ios":"levelo://app?vid=ea716814-d8a0-425d-8c9d-51cf34ecd6e9"},"vehicle_type_id":"4","last_reported":1747336094,"current_range_meters":5600,"station_id":"ce4bha12rcd13ifvqee0","pricing_plan_id":"cebpf4jnsgd1na2vs0mg"},{"bike_id":"8c886e62-c783-4cbe-8aed-19784ab859c7","system_id":"levelo_inurba_marseille","lat":43.31172,"lon":5.38723,"is_reserved":false,"is_disabled":false,"rental_uris":{"android":"levelo://app?vid=8c886e62-c783-4cbe-8aed-19784ab859c7","ios":"levelo://app?vid=8c886e62-c783-4cbe-8aed-19784ab859c7"},"vehicle_type_id":"4","last_reported":1747336094,"current_range_meters":6000,"station_id":"ce4bgv12rcd13ifvqcp0","pricing_plan_id":"cebpf4jnsgd1na2vs0mg"},{"bike_id":"66c4dafd-0b7f-4a48-a767-11297956bbfc","system_id":"levelo_inurba_marseille","lat":43.32363,"lon":5.36763,"is_reserved":false,"is_disabled":false,"rental_uris":{"android":"levelo://app?vid=66c4dafd-0b7f-4a48-a767-11297956bbfc","ios":"levelo://app?vid=66c4dafd-0b7f-4a48-a767-11297956bbfc"},"vehicle_type_id":"4","last_reported":1747336094,"current_range_meters":6000,"station_id":"ce4bhsh2rcd13ifvqi2g","pricing_plan_id":"cebpf4jnsgd1na2vs0mg"},{"bike_id":"a1ba339c-6baa-4965-ad75-b545ba9511d7","system_id":"levelo_inurba_marseille","lat":43.31362,"lon":5.38493,"is_reserved":false,"is_disabled":false,"rental_uris":{"android":"levelo://app?vid=a1ba339c-6baa-4965-ad75-b545ba9511d7","ios":"levelo://app?vid=a1ba339c-6baa-4965-ad75-b545ba9511d7"},"vehicle_type_id":"4","last_reported":1747336094,"current_range_meters":6000,"station_id":"ce4bgt92rcd13ifvqcf0","pricing_plan_id":"cebpf4jnsgd1na2vs0mg"},{"bike_id":"57c1d7b4-5383-409e-9c87-af3864356f1c","system_id":"levelo_inurba_marseille","lat":43.30209,"lon":5.39464,"is_reserved":false,"is_disabled":false,"rental_uris":{"android":"levelo://app?vid=57c1d7b4-5383-409e-9c87-af3864356f1c","ios":"levelo://app?vid=57c1d7b4-5383-409e-9c87-af3864356f1c"},"vehicle_type_id":"4","last_reported":1747336094,"current_range_meters":6000,"station_id":"ce4bh0p2rcd13ifvqd70","pricing_plan_id":"cebpf4jnsgd1na2vs0mg"},{"bike_id":"66b45e87-5571-4d90-815f-cfdb32be53ee","system_id":"levelo_inurba_marseille","lat":43.28617,"lon":5.35102,"is_reserved":false,"is_disabled":true,"rental_uris":{"android":"levelo://app?vid=66b45e87-5571-4d90-815f-cfdb32be53ee","ios":"levelo://app?vid=66b45e87-5571-4d90-815f-cfdb32be53ee"},"vehicle_type_id":"4","last_reported":1747336094,"current_range_meters":6000,"station_id":"ce4bhch2rcd13ifvqeug","pricing_plan_id":"cebpf4jnsgd1na2vs0mg"},{"bike_id":"d2449169-a451-4966-be38-c5971452e792","system_id":"levelo_inurba_marseille","lat":43.2796,"lon":5.3867,"is_reserved":false,"is_disabled":true,"rental_uris":{"android":"levelo://app?vid=d2449169-a451-4966-be38-c5971452e792","ios":"levelo://app?vid=d2449169-a451-4966-be38-c5971452e792"},"vehicle_type_id":"4","last_reported":1747336094,"current_range_meters":6000,"station_id":"","pricing_plan_id":"cebpf4jnsgd1na2vs0mg"},{"bike_id":"e06f964d-0ee1-4670-8050-57a4fa8cf083","system_id":"levelo_inurba_marseille","lat":43.29528,"lon":5.38539,"is_reserved":false,"is_disabled":false,"rental_uris":{"android":"levelo://app?vid=e06f964d-0ee1-4670-8050-57a4fa8cf083","ios":"levelo://app?vid=e06f964d-0ee1-4670-8050-57a4fa8cf083"},"vehicle_type_id":"4","last_reported":1747336094,"current_range_meters":6400,"station_id":"ce4bgih2rcd13ifvqba0","pricing_plan_id":"cebpf4jnsgd1na2vs0mg"},{"bike_id":"1a3b67fa-9166-4e06-911a-c195c7a57ecd","system_id":"levelo_inurba_marseille","lat":43.28939,"lon":5.36641,"is_reserved":false,"is_disabled":false,"rental_uris":{"android":"levelo://app?vid=1a3b67fa-9166-4e06-911a-c195c7a57ecd","ios":"levelo://app?vid=1a3b67fa-9166-4e06-911a-c195c7a57ecd"},"vehicle_type_id":"4","last_reported":1747336094,"current_range_meters":6400,"station_id":"ce4bhap2rcd13ifvqek0","pricing_plan_id":"cebpf4jnsgd1na2vs0mg"},{"bike_id":"fed06cf5-f5f2-4809-91f1-074e851a4497","system_id":"levelo_inurba_marseille","lat":43.24186,"lon":5.39715,"is_reserved":false,"is_disabled":false,"rental_uris":{"android":"levelo://app?vid=fed06cf5-f5f2-4809-91f1-074e851a4497","ios":"levelo://app?vid=fed06cf5-f5f2-4809-91f1-074e851a4497"},"vehicle_type_id":"4","last_reported":1747336094,"current_range_meters":6400,"station_id":"ce4bhn12rcd13ifvqgpg","pricing_plan_id":"cebpf4jnsgd1na2vs0mg"},{"bike_id":"32f3187c-a8f3-4e9c-9ea9-d11b72f079b4","system_id":"levelo_inurba_marseille","lat":43.27914,"lon":5.39573,"is_reserved":false,"is_disabled":false,"rental_uris":{"android":"levelo://app?vid=32f3187c-a8f3-4e9c-9ea9-d11b72f079b4","ios":"levelo://app?vid=32f3187c-a8f3-4e9c-9ea9-d11b72f079b4"},"vehicle_type_id":"4","last_reported":1747336094,"current_range_meters":6400,"station_id":"ce4bhf92rcd13ifvqf40","pricing_plan_id":"cebpf4jnsgd1na2vs0mg"},{"bike_id":"5baa7772-e2fe-4389-a345-745b93ef1034","system_id":"levelo_inurba_marseille","lat":43.28472,"lon":5.35879,"is_reserved":false,"is_disabled":false,"rental_uris":{"android":"levelo://app?vid=5baa7772-e2fe-4389-a345-745b93ef1034","ios":"levelo://app?vid=5baa7772-e2fe-4389-a345-745b93ef1034"},"vehicle_type_id":"4","last_reported":1747336094,"current_range_meters":6400,"station_id":"ce4bhah2rcd13ifvqei0","pricing_plan_id":"cebpf4jnsgd1na2vs0mg"},{"bike_id":"9e860552-081e-4a5a-a85e-9ad4365b660f","system_id":"levelo_inurba_marseille","lat":43.30414,"lon":5.41275,"is_reserved":false,"is_disabled":false,"rental_uris":{"android":"levelo://app?vid=9e860552-081e-4a5a-a85e-9ad4365b660f","ios":"levelo://app?vid=9e860552-081e-4a5a-a85e-9ad4365b660f"},"vehicle_type_id":"4","last_reported":1747336094,"current_range_meters":6400,"station_id":"ce4bhop2rcd13ifvqh8g","pricing_plan_id":"cebpf4jnsgd1na2vs0mg"},{"bike_id":"68c1d069-9c7a-402b-a5d1-00dac11234cf","system_id":"levelo_inurba_marseille","lat":43.29528,"lon":5.39045,"is_reserved":false,"is_disabled":false,"rental_uris":{"android":"levelo://app?vid=68c1d069-9c7a-402b-a5d1-00dac11234cf","ios":"levelo://app?vid=68c1d069-9c7a-402b-a5d1-00dac11234cf"},"vehicle_type_id":"4","last_reported":1747336094,"current_range_meters":6400,"station_id":"ce4bh3p2rcd13ifvqdp0","pricing_plan_id":"cebpf4jnsgd1na2vs0mg"},{"bike_id":"fccb336e-d2ea-48fc-b4b5-69db9f976629","system_id":"levelo_inurba_marseille","lat":43.28452,"lon":5.39198,"is_reserved":false,"is_disabled":false,"rental_uris":{"android":"levelo://app?vid=fccb336e-d2ea-48fc-b4b5-69db9f976629","ios":"levelo://app?vid=fccb336e-d2ea-48fc-b4b5-69db9f976629"},"vehicle_type_id":"4","last_reported":1747336094,"current_range_meters":6400,"station_id":"ce4bhoh2rcd13ifvqh5g","pricing_plan_id":"cebpf4jnsgd1na2vs0mg"},{"bike_id":"bb62f627-46cf-481f-9a43-d422197979e8","system_id":"levelo_inurba_marseille","lat":43.29264,"lon":5.38437,"is_reserved":false,"is_disabled":false,"rental_uris":{"android":"levelo://app?vid=bb62f627-46cf-481f-9a43-d422197979e8","ios":"levelo://app?vid=bb62f627-46cf-481f-9a43-d422197979e8"},"vehicle_type_id":"4","last_reported":1747336094,"current_range_meters":6800,"station_id":"ce4bh692rcd13ifvqea0","pricing_plan_id":"cebpf4jnsgd1na2vs0mg"},{"bike_id":"1c9b4205-860d-43dc-b3dd-2022b581eab8","system_id":"levelo_inurba_marseille","lat":43.29261,"lon":5.37633,"is_reserved":false,"is_disabled":false,"rental_uris":{"android":"levelo://app?vid=1c9b4205-860d-43dc-b3dd-2022b581eab8","ios":"levelo://app?vid=1c9b4205-860d-43dc-b3dd-2022b581eab8"},"vehicle_type_id":"4","last_reported":1747336094,"current_range_meters":6800,"station_id":"ce4bgi12rcd13ifvqb80","pricing_plan_id":"cebpf4jnsgd1na2vs0mg"},{"bike_id":"8fa32dfc-d6d8-43be-9180-9cccb9aa16b9","system_id":"levelo_inurba_marseille","lat":43.32342,"lon":5.40622,"is_reserved":false,"is_disabled":false,"rental_uris":{"android":"levelo://app?vid=8fa32dfc-d6d8-43be-9180-9cccb9aa16b9","ios":"levelo://app?vid=8fa32dfc-d6d8-43be-9180-9cccb9aa16b9"},"vehicle_type_id":"4","last_reported":1747336094,"current_range_meters":6800,"station_id":"ce4bhq92rcd13ifvqhjg","pricing_plan_id":"cebpf4jnsgd1na2vs0mg"},{"bike_id":"d3bfbf1a-39e2-4d8b-acdc-3297994c84b5","system_id":"levelo_inurba_marseille","lat":43.29842,"lon":5.36269,"is_reserved":false,"is_disabled":false,"rental_uris":{"android":"levelo://app?vid=d3bfbf1a-39e2-4d8b-acdc-3297994c84b5","ios":"levelo://app?vid=d3bfbf1a-39e2-4d8b-acdc-3297994c84b5"},"vehicle_type_id":"4","last_reported":1747336094,"current_range_meters":6800,"station_id":"ce4bgpp2rcd13ifvqc3g","pricing_plan_id":"cebpf4jnsgd1na2vs0mg"},{"bike_id":"7485b98a-fcb8-44a3-bcad-7e53c94d0282","system_id":"levelo_inurba_marseille","lat":43.25115,"lon":5.40323,"is_reserved":false,"is_disabled":false,"rental_uris":{"android":"levelo://app?vid=7485b98a-fcb8-44a3-bcad-7e53c94d0282","ios":"levelo://app?vid=7485b98a-fcb8-44a3-bcad-7e53c94d0282"},"vehicle_type_id":"4","last_reported":1747336094,"current_range_meters":6800,"station_id":"ce4bhlh2rcd13ifvqgig","pricing_plan_id":"cebpf4jnsgd1na2vs0mg"},{"bike_id":"b47ff3b2-1ab9-4945-87ab-f7d96649a5e9","system_id":"levelo_inurba_marseille","lat":43.27227,"lon":5.39214,"is_reserved":false,"is_disabled":true,"rental_uris":{"android":"levelo://app?vid=b47ff3b2-1ab9-4945-87ab-f7d96649a5e9","ios":"levelo://app?vid=b47ff3b2-1ab9-4945-87ab-f7d96649a5e9"},"vehicle_type_id":"4","last_reported":1747336094,"current_range_meters":7200,"station_id":"ce4bhhp2rcd13ifvqfm0","pricing_plan_id":"cebpf4jnsgd1na2vs0mg"},{"bike_id":"78eb5edf-30e7-4077-bdc9-3768d3076bab","system_id":"levelo_inurba_marseille","lat":43.25819,"lon":5.39436,"is_reserved":false,"is_disabled":false,"rental_uris":{"android":"levelo://app?vid=78eb5edf-30e7-4077-bdc9-3768d3076bab","ios":"levelo://app?vid=78eb5edf-30e7-4077-bdc9-3768d3076bab"},"vehicle_type_id":"4","last_reported":1747336094,"current_range_meters":7200,"station_id":"ce4bhip2rcd13ifvqft0","pricing_plan_id":"cebpf4jnsgd1na2vs0mg"},{"bike_id":"b1814987-7757-40b4-90bc-ea16b056a8dd","system_id":"levelo_inurba_marseille","lat":43.27558,"lon":5.38414,"is_reserved":false,"is_disabled":false,"rental_uris":{"android":"levelo://app?vid=b1814987-7757-40b4-90bc-ea16b056a8dd","ios":"levelo://app?vid=b1814987-7757-40b4-90bc-ea16b056a8dd"},"vehicle_type_id":"4","last_reported":1747336094,"current_range_meters":6800,"station_id":"ce4bhh92rcd13ifvqfi0","pricing_plan_id":"cebpf4jnsgd1na2vs0mg"},{"bike_id":"9fbc4b0a-22b5-475e-9fa9-fefee100a33d","system_id":"levelo_inurba_marseille","lat":43.27911,"lon":5.38006,"is_reserved":false,"is_disabled":false,"rental_uris":{"android":"levelo://app?vid=9fbc4b0a-22b5-475e-9fa9-fefee100a33d","ios":"levelo://app?vid=9fbc4b0a-22b5-475e-9fa9-fefee100a33d"},"vehicle_type_id":"4","last_reported":1747336094,"current_range_meters":7200,"station_id":"ce4bhf92rcd13ifvqf50","pricing_plan_id":"cebpf4jnsgd1na2vs0mg"},{"bike_id":"04574477-fc37-49b9-8077-2ff96b7a1e6d","system_id":"levelo_inurba_marseille","lat":43.26558,"lon":5.39006,"is_reserved":false,"is_disabled":false,"rental_uris":{"android":"levelo://app?vid=04574477-fc37-49b9-8077-2ff96b7a1e6d","ios":"levelo://app?vid=04574477-fc37-49b9-8077-2ff96b7a1e6d"},"vehicle_type_id":"4","last_reported":1747336094,"current_range_meters":7200,"station_id":"ce4bhe12rcd13ifvqf30","pricing_plan_id":"cebpf4jnsgd1na2vs0mg"},{"bike_id":"7589aa3c-663d-4b9a-82a9-c7c89bfde8f2","system_id":"levelo_inurba_marseille","lat":43.28405,"lon":5.37525,"is_reserved":false,"is_disabled":false,"rental_uris":{"android":"levelo://app?vid=7589aa3c-663d-4b9a-82a9-c7c89bfde8f2","ios":"levelo://app?vid=7589aa3c-663d-4b9a-82a9-c7c89bfde8f2"},"vehicle_type_id":"4","last_reported":1747336094,"current_range_meters":7200,"station_id":"ce4bh412rcd13ifvqds0","pricing_plan_id":"cebpf4jnsgd1na2vs0mg"},{"bike_id":"3cac543e-9f3a-4ea2-b525-f8c01c5c8d5a","system_id":"levelo_inurba_marseille","lat":43.29575,"lon":5.3997,"is_reserved":false,"is_disabled":false,"rental_uris":{"android":"levelo://app?vid=3cac543e-9f3a-4ea2-b525-f8c01c5c8d5a","ios":"levelo://app?vid=3cac543e-9f3a-4ea2-b525-f8c01c5c8d5a"},"vehicle_type_id":"4","last_reported":1747336094,"current_range_meters":7200,"station_id":"ce4bh312rcd13ifvqdj0","pricing_plan_id":"cebpf4jnsgd1na2vs0mg"},{"bike_id":"30c98bae-c413-45de-8dce-ad606c227923","system_id":"levelo_inurba_marseille","lat":43.25494,"lon":5.37646,"is_reserved":false,"is_disabled":false,"rental_uris":{"android":"levelo://app?vid=30c98bae-c413-45de-8dce-ad606c227923","ios":"levelo://app?vid=30c98bae-c413-45de-8dce-ad606c227923"},"vehicle_type_id":"4","last_reported":1747336094,"current_range_meters":7200,"station_id":"ce4bhh12rcd13ifvqff0","pricing_plan_id":"cebpf4jnsgd1na2vs0mg"},{"bike_id":"68dc72fc-dc84-4f18-b61f-37d8cd4d7006","system_id":"levelo_inurba_marseille","lat":43.29954,"lon":5.41318,"is_reserved":false,"is_disabled":false,"rental_uris":{"android":"levelo://app?vid=68dc72fc-dc84-4f18-b61f-37d8cd4d7006","ios":"levelo://app?vid=68dc72fc-dc84-4f18-b61f-37d8cd4d7006"},"vehicle_type_id":"4","last_reported":1747336094,"current_range_meters":7200,"station_id":"ce4bhp12rcd13ifvqh9g","pricing_plan_id":"cebpf4jnsgd1na2vs0mg"},{"bike_id":"5dadde77-0072-464f-a62b-cac2843b777b","system_id":"levelo_inurba_marseille","lat":43.30952,"lon":5.39039,"is_reserved":false,"is_disabled":false,"rental_uris":{"android":"levelo://app?vid=5dadde77-0072-464f-a62b-cac2843b777b","ios":"levelo://app?vid=5dadde77-0072-464f-a62b-cac2843b777b"},"vehicle_type_id":"4","last_reported":1747336094,"current_range_meters":7200,"station_id":"ce4bgup2rcd13ifvqco0","pricing_plan_id":"cebpf4jnsgd1na2vs0mg"},{"bike_id":"3225593a-ae7c-4690-ba47-2d2c33a61c10","system_id":"levelo_inurba_marseille","lat":43.24169,"lon":5.3975,"is_reserved":false,"is_disabled":false,"rental_uris":{"android":"levelo://app?vid=3225593a-ae7c-4690-ba47-2d2c33a61c10","ios":"levelo://app?vid=3225593a-ae7c-4690-ba47-2d2c33a61c10"},"vehicle_type_id":"4","last_reported":1747336094,"current_range_meters":7200,"station_id":"ce4bhn12rcd13ifvqgpg","pricing_plan_id":"cebpf4jnsgd1na2vs0mg"},{"bike_id":"f0b1205f-9ed4-4a45-99f0-cca317ea750d","system_id":"levelo_inurba_marseille","lat":43.29033,"lon":5.37556,"is_reserved":false,"is_disabled":false,"rental_uris":{"android":"levelo://app?vid=f0b1205f-9ed4-4a45-99f0-cca317ea750d","ios":"levelo://app?vid=f0b1205f-9ed4-4a45-99f0-cca317ea750d"},"vehicle_type_id":"4","last_reported":1747336094,"current_range_meters":7200,"station_id":"ce4bh692rcd13ifvqe90","pricing_plan_id":"cebpf4jnsgd1na2vs0mg"},{"bike_id":"15f7fe66-9c89-40aa-8eed-bcc3270ce363","system_id":"levelo_inurba_marseille","lat":43.23965,"lon":5.36632,"is_reserved":false,"is_disabled":false,"rental_uris":{"android":"levelo://app?vid=15f7fe66-9c89-40aa-8eed-bcc3270ce363","ios":"levelo://app?vid=15f7fe66-9c89-40aa-8eed-bcc3270ce363"},"vehicle_type_id":"4","last_reported":1747336094,"current_range_meters":8000,"station_id":"ce4bhi12rcd13ifvqfp0","pricing_plan_id":"cebpf4jnsgd1na2vs0mg"},{"bike_id":"bccc769a-5b79-435e-b1fb-0d4df4701bad","system_id":"levelo_inurba_marseille","lat":43.32655,"lon":5.41003,"is_reserved":false,"is_disabled":false,"rental_uris":{"android":"levelo://app?vid=bccc769a-5b79-435e-b1fb-0d4df4701bad","ios":"levelo://app?vid=bccc769a-5b79-435e-b1fb-0d4df4701bad"},"vehicle_type_id":"4","last_reported":1747336094,"current_range_meters":8000,"station_id":"ce4bhpp2rcd13ifvqhgg","pricing_plan_id":"cebpf4jnsgd1na2vs0mg"},{"bike_id":"dc2662a1-0028-4913-99fc-5040b82da38c","system_id":"levelo_inurba_marseille","lat":43.3042,"lon":5.39764,"is_reserved":false,"is_disabled":false,"rental_uris":{"android":"levelo://app?vid=dc2662a1-0028-4913-99fc-5040b82da38c","ios":"levelo://app?vid=dc2662a1-0028-4913-99fc-5040b82da38c"},"vehicle_type_id":"4","last_reported":1747336094,"current_range_meters":8000,"station_id":"ce4bh092rcd13ifvqd20","pricing_plan_id":"cebpf4jnsgd1na2vs0mg"},{"bike_id":"77a97a10-49ce-4d5a-b430-9b0855c9b056","system_id":"levelo_inurba_marseille","lat":43.29519,"lon":5.39405,"is_reserved":false,"is_disabled":false,"rental_uris":{"android":"levelo://app?vid=77a97a10-49ce-4d5a-b430-9b0855c9b056","ios":"levelo://app?vid=77a97a10-49ce-4d5a-b430-9b0855c9b056"},"vehicle_type_id":"4","last_reported":1747336094,"current_range_meters":8000,"station_id":"ce4bh292rcd13ifvqdf0","pricing_plan_id":"cebpf4jnsgd1na2vs0mg"},{"bike_id":"8e65741d-9294-474a-b60c-daf415664170","system_id":"levelo_inurba_marseille","lat":43.29175,"lon":5.35811,"is_reserved":false,"is_disabled":false,"rental_uris":{"android":"levelo://app?vid=8e65741d-9294-474a-b60c-daf415664170","ios":"levelo://app?vid=8e65741d-9294-474a-b60c-daf415664170"},"vehicle_type_id":"4","last_reported":1747336094,"current_range_meters":8000,"station_id":"ce4bhb12rcd13ifvqel0","pricing_plan_id":"cebpf4jnsgd1na2vs0mg"},{"bike_id":"b7cb570d-77f5-48d9-be33-70291761d5d7","system_id":"levelo_inurba_marseille","lat":43.21194,"lon":5.350722,"is_reserved":false,"is_disabled":false,"rental_uris":{"android":"levelo://app?vid=b7cb570d-77f5-48d9-be33-70291761d5d7","ios":"levelo://app?vid=b7cb570d-77f5-48d9-be33-70291761d5d7"},"vehicle_type_id":"4","last_reported":1747336094,"current_range_meters":8400,"station_id":"st_cvj6sg6p6f1abm77japg","pricing_plan_id":"cebpf4jnsgd1na2vs0mg"},{"bike_id":"b433f2df-60d9-42eb-a8ac-f2d77b5c86e3","system_id":"levelo_inurba_marseille","lat":43.29877,"lon":5.38904,"is_reserved":false,"is_disabled":false,"rental_uris":{"android":"levelo://app?vid=b433f2df-60d9-42eb-a8ac-f2d77b5c86e3","ios":"levelo://app?vid=b433f2df-60d9-42eb-a8ac-f2d77b5c86e3"},"vehicle_type_id":"4","last_reported":1747336094,"current_range_meters":8400,"station_id":"ce4bh392rcd13ifvqdl0","pricing_plan_id":"cebpf4jnsgd1na2vs0mg"},{"bike_id":"80539fb5-0346-44e5-b7fd-cd6408b36909","system_id":"levelo_inurba_marseille","lat":43.28081,"lon":5.39662,"is_reserved":false,"is_disabled":false,"rental_uris":{"android":"levelo://app?vid=80539fb5-0346-44e5-b7fd-cd6408b36909","ios":"levelo://app?vid=80539fb5-0346-44e5-b7fd-cd6408b36909"},"vehicle_type_id":"4","last_reported":1747336094,"current_range_meters":8400,"station_id":"ce4bho12rcd13ifvqh2g","pricing_plan_id":"cebpf4jnsgd1na2vs0mg"},{"bike_id":"edaaf2df-7e25-4901-a3c5-f3ac570649bb","system_id":"levelo_inurba_marseille","lat":43.28943,"lon":5.36632,"is_reserved":false,"is_disabled":false,"rental_uris":{"android":"levelo://app?vid=edaaf2df-7e25-4901-a3c5-f3ac570649bb","ios":"levelo://app?vid=edaaf2df-7e25-4901-a3c5-f3ac570649bb"},"vehicle_type_id":"4","last_reported":1747336094,"current_range_meters":8400,"station_id":"ce4bhap2rcd13ifvqek0","pricing_plan_id":"cebpf4jnsgd1na2vs0mg"},{"bike_id":"5fdebff2-c927-4e43-81c5-6ec5122ce28c","system_id":"levelo_inurba_marseille","lat":43.28102,"lon":5.37836,"is_reserved":false,"is_disabled":false,"rental_uris":{"android":"levelo://app?vid=5fdebff2-c927-4e43-81c5-6ec5122ce28c","ios":"levelo://app?vid=5fdebff2-c927-4e43-81c5-6ec5122ce28c"},"vehicle_type_id":"4","last_reported":1747336094,"current_range_meters":8400,"station_id":"ce4bha12rcd13ifvqee0","pricing_plan_id":"cebpf4jnsgd1na2vs0mg"},{"bike_id":"2c8dcbb1-5f6f-4a52-89d7-48b720fb69f6","system_id":"levelo_inurba_marseille","lat":43.21194,"lon":5.35073,"is_reserved":false,"is_disabled":false,"rental_uris":{"android":"levelo://app?vid=2c8dcbb1-5f6f-4a52-89d7-48b720fb69f6","ios":"levelo://app?vid=2c8dcbb1-5f6f-4a52-89d7-48b720fb69f6"},"vehicle_type_id":"4","last_reported":1747336094,"current_range_meters":8400,"station_id":"st_cvj6sg6p6f1abm77japg","pricing_plan_id":"cebpf4jnsgd1na2vs0mg"},{"bike_id":"414d56c9-f1a7-4e20-9c42-836e3990fabb","system_id":"levelo_inurba_marseille","lat":43.22927,"lon":5.35378,"is_reserved":false,"is_disabled":false,"rental_uris":{"android":"levelo://app?vid=414d56c9-f1a7-4e20-9c42-836e3990fabb","ios":"levelo://app?vid=414d56c9-f1a7-4e20-9c42-836e3990fabb"},"vehicle_type_id":"4","last_reported":1747336094,"current_range_meters":8800,"station_id":"cpo3532slgdg3j2ikp40","pricing_plan_id":"cebpf4jnsgd1na2vs0mg"},{"bike_id":"a7752188-a17f-4e91-a5db-2090db73afa2","system_id":"levelo_inurba_marseille","lat":43.29301,"lon":5.3715,"is_reserved":false,"is_disabled":false,"rental_uris":{"android":"levelo://app?vid=a7752188-a17f-4e91-a5db-2090db73afa2","ios":"levelo://app?vid=a7752188-a17f-4e91-a5db-2090db73afa2"},"vehicle_type_id":"4","last_reported":1747336094,"current_range_meters":8800,"station_id":"ce4bgh92rcd13ifvqb40","pricing_plan_id":"cebpf4jnsgd1na2vs0mg"},{"bike_id":"88ecd459-e40f-4b22-a6e2-a6c395341410","system_id":"levelo_inurba_marseille","lat":43.29708,"lon":5.36609,"is_reserved":false,"is_disabled":false,"rental_uris":{"android":"levelo://app?vid=88ecd459-e40f-4b22-a6e2-a6c395341410","ios":"levelo://app?vid=88ecd459-e40f-4b22-a6e2-a6c395341410"},"vehicle_type_id":"4","last_reported":1747336094,"current_range_meters":8800,"station_id":"ce4bgn12rcd13ifvqbt0","pricing_plan_id":"cebpf4jnsgd1na2vs0mg"},{"bike_id":"1796e008-62a0-44d4-95fd-f1c319d6fd52","system_id":"levelo_inurba_marseille","lat":43.28853,"lon":5.35852,"is_reserved":false,"is_disabled":false,"rental_uris":{"android":"levelo://app?vid=1796e008-62a0-44d4-95fd-f1c319d6fd52","ios":"levelo://app?vid=1796e008-62a0-44d4-95fd-f1c319d6fd52"},"vehicle_type_id":"4","last_reported":1747336094,"current_range_meters":8800,"station_id":"ce4bhb12rcd13ifvqem0","pricing_plan_id":"cebpf4jnsgd1na2vs0mg"},{"bike_id":"464d93e2-87bf-44da-836c-6a523fc37f50","system_id":"levelo_inurba_marseille","lat":43.21194,"lon":5.35071,"is_reserved":false,"is_disabled":false,"rental_uris":{"android":"levelo://app?vid=464d93e2-87bf-44da-836c-6a523fc37f50","ios":"levelo://app?vid=464d93e2-87bf-44da-836c-6a523fc37f50"},"vehicle_type_id":"4","last_reported":1747336094,"current_range_meters":8800,"station_id":"st_cvj6sg6p6f1abm77japg","pricing_plan_id":"cebpf4jnsgd1na2vs0mg"},{"bike_id":"4ce9b04d-9e1b-4f40-9e45-ab2e4accb04e","system_id":"levelo_inurba_marseille","lat":43.30418,"lon":5.41283,"is_reserved":false,"is_disabled":false,"rental_uris":{"android":"levelo://app?vid=4ce9b04d-9e1b-4f40-9e45-ab2e4accb04e","ios":"levelo://app?vid=4ce9b04d-9e1b-4f40-9e45-ab2e4accb04e"},"vehicle_type_id":"4","last_reported":1747336094,"current_range_meters":8800,"station_id":"ce4bhop2rcd13ifvqh8g","pricing_plan_id":"cebpf4jnsgd1na2vs0mg"},{"bike_id":"0b5c54eb-88e5-44c3-9800-29333dd914ba","system_id":"levelo_inurba_marseille","lat":43.30876,"lon":5.3965,"is_reserved":false,"is_disabled":false,"rental_uris":{"android":"levelo://app?vid=0b5c54eb-88e5-44c3-9800-29333dd914ba","ios":"levelo://app?vid=0b5c54eb-88e5-44c3-9800-29333dd914ba"},"vehicle_type_id":"4","last_reported":1747336094,"current_range_meters":9200,"station_id":"ce4bh012rcd13ifvqcv0","pricing_plan_id":"cebpf4jnsgd1na2vs0mg"},{"bike_id":"6d2aa4af-1d67-4d2d-961d-4c565530b026","system_id":"levelo_inurba_marseille","lat":43.2926,"lon":5.38453,"is_reserved":false,"is_disabled":false,"rental_uris":{"android":"levelo://app?vid=6d2aa4af-1d67-4d2d-961d-4c565530b026","ios":"levelo://app?vid=6d2aa4af-1d67-4d2d-961d-4c565530b026"},"vehicle_type_id":"4","last_reported":1747336094,"current_range_meters":9200,"station_id":"ce4bh692rcd13ifvqea0","pricing_plan_id":"cebpf4jnsgd1na2vs0mg"},{"bike_id":"7fd3af6e-475c-44e9-9eb8-83b60254d73f","system_id":"levelo_inurba_marseille","lat":43.29416,"lon":5.38623,"is_reserved":false,"is_disabled":false,"rental_uris":{"android":"levelo://app?vid=7fd3af6e-475c-44e9-9eb8-83b60254d73f","ios":"levelo://app?vid=7fd3af6e-475c-44e9-9eb8-83b60254d73f"},"vehicle_type_id":"4","last_reported":1747336094,"current_range_meters":9200,"station_id":"ce4bh2h2rcd13ifvqdh0","pricing_plan_id":"cebpf4jnsgd1na2vs0mg"},{"bike_id":"15577d04-3e2b-4f99-afaa-ef9ba2ad9697","system_id":"levelo_inurba_marseille","lat":43.25835,"lon":5.39434,"is_reserved":false,"is_disabled":false,"rental_uris":{"android":"levelo://app?vid=15577d04-3e2b-4f99-afaa-ef9ba2ad9697","ios":"levelo://app?vid=15577d04-3e2b-4f99-afaa-ef9ba2ad9697"},"vehicle_type_id":"4","last_reported":1747336094,"current_range_meters":9200,"station_id":"ce4bhip2rcd13ifvqft0","pricing_plan_id":"cebpf4jnsgd1na2vs0mg"},{"bike_id":"e79d3b58-33a1-41f1-b349-5f861f0ec570","system_id":"levelo_inurba_marseille","lat":43.30246,"lon":5.4006,"is_reserved":false,"is_disabled":false,"rental_uris":{"android":"levelo://app?vid=e79d3b58-33a1-41f1-b349-5f861f0ec570","ios":"levelo://app?vid=e79d3b58-33a1-41f1-b349-5f861f0ec570"},"vehicle_type_id":"4","last_reported":1747336094,"current_range_meters":9200,"station_id":"ce4bgvh2rcd13ifvqcs0","pricing_plan_id":"cebpf4jnsgd1na2vs0mg"},{"bike_id":"282d1f1a-41b1-45df-94ad-62aeb21049b9","system_id":"levelo_inurba_marseille","lat":43.31753,"lon":5.39024,"is_reserved":false,"is_disabled":false,"rental_uris":{"android":"levelo://app?vid=282d1f1a-41b1-45df-94ad-62aeb21049b9","ios":"levelo://app?vid=282d1f1a-41b1-45df-94ad-62aeb21049b9"},"vehicle_type_id":"4","last_reported":1747336094,"current_range_meters":9200,"station_id":"ce4bhqp2rcd13ifvqhng","pricing_plan_id":"cebpf4jnsgd1na2vs0mg"},{"bike_id":"e56f9369-4431-4988-89b6-9ee464beb732","system_id":"levelo_inurba_marseille","lat":43.29737,"lon":5.37676,"is_reserved":false,"is_disabled":false,"rental_uris":{"android":"levelo://app?vid=e56f9369-4431-4988-89b6-9ee464beb732","ios":"levelo://app?vid=e56f9369-4431-4988-89b6-9ee464beb732"},"vehicle_type_id":"4","last_reported":1747336094,"current_range_meters":9200,"station_id":"ce4bgkh2rcd13ifvqbl0","pricing_plan_id":"cebpf4jnsgd1na2vs0mg"},{"bike_id":"561549a2-798d-4052-830a-279630f71645","system_id":"levelo_inurba_marseille","lat":43.28436,"lon":5.35513,"is_reserved":false,"is_disabled":false,"rental_uris":{"android":"levelo://app?vid=561549a2-798d-4052-830a-279630f71645","ios":"levelo://app?vid=561549a2-798d-4052-830a-279630f71645"},"vehicle_type_id":"4","last_reported":1747336094,"current_range_meters":9200,"station_id":"","pricing_plan_id":"cebpf4jnsgd1na2vs0mg"},{"bike_id":"c10ff901-ad61-4a57-b01b-53f9b2989769","system_id":"levelo_inurba_marseille","lat":43.26063,"lon":5.39392,"is_reserved":false,"is_disabled":false,"rental_uris":{"android":"levelo://app?vid=c10ff901-ad61-4a57-b01b-53f9b2989769","ios":"levelo://app?vid=c10ff901-ad61-4a57-b01b-53f9b2989769"},"vehicle_type_id":"4","last_reported":1747336094,"current_range_meters":8800,"station_id":"ce4bhh92rcd13ifvqfj0","pricing_plan_id":"cebpf4jnsgd1na2vs0mg"},{"bike_id":"121c00a4-ba4d-4e68-9ccb-c5604866f8ca","system_id":"levelo_inurba_marseille","lat":43.28945,"lon":5.36632,"is_reserved":false,"is_disabled":false,"rental_uris":{"android":"levelo://app?vid=121c00a4-ba4d-4e68-9ccb-c5604866f8ca","ios":"levelo://app?vid=121c00a4-ba4d-4e68-9ccb-c5604866f8ca"},"vehicle_type_id":"4","last_reported":1747336094,"current_range_meters":9200,"station_id":"ce4bhap2rcd13ifvqek0","pricing_plan_id":"cebpf4jnsgd1na2vs0mg"},{"bike_id":"0e15afb0-a993-422b-89e4-99327c2648e2","system_id":"levelo_inurba_marseille","lat":43.24885,"lon":5.40691,"is_reserved":false,"is_disabled":false,"rental_uris":{"android":"levelo://app?vid=0e15afb0-a993-422b-89e4-99327c2648e2","ios":"levelo://app?vid=0e15afb0-a993-422b-89e4-99327c2648e2"},"vehicle_type_id":"4","last_reported":1747336094,"current_range_meters":9200,"station_id":"","pricing_plan_id":"cebpf4jnsgd1na2vs0mg"},{"bike_id":"e2e8437d-242f-4cda-8001-7a4b1ad489f2","system_id":"levelo_inurba_marseille","lat":43.27478,"lon":5.42468,"is_reserved":false,"is_disabled":false,"rental_uris":{"android":"levelo://app?vid=e2e8437d-242f-4cda-8001-7a4b1ad489f2","ios":"levelo://app?vid=e2e8437d-242f-4cda-8001-7a4b1ad489f2"},"vehicle_type_id":"4","last_reported":1747336094,"current_range_meters":9200,"station_id":"ce4bhn92rcd13ifvqgrg","pricing_plan_id":"cebpf4jnsgd1na2vs0mg"},{"bike_id":"fd368a2c-24ee-4354-aec6-35cb06319654","system_id":"levelo_inurba_marseille","lat":43.32365,"lon":5.38885,"is_reserved":false,"is_disabled":false,"rental_uris":{"android":"levelo://app?vid=fd368a2c-24ee-4354-aec6-35cb06319654","ios":"levelo://app?vid=fd368a2c-24ee-4354-aec6-35cb06319654"},"vehicle_type_id":"4","last_reported":1747336094,"current_range_meters":9600,"station_id":"ce4bhqp2rcd13ifvqhog","pricing_plan_id":"cebpf4jnsgd1na2vs0mg"},{"bike_id":"a6c49a68-0b27-4659-892e-48a7987fb11e","system_id":"levelo_inurba_marseille","lat":43.27384,"lon":5.36238,"is_reserved":false,"is_disabled":false,"rental_uris":{"android":"levelo://app?vid=a6c49a68-0b27-4659-892e-48a7987fb11e","ios":"levelo://app?vid=a6c49a68-0b27-4659-892e-48a7987fb11e"},"vehicle_type_id":"4","last_reported":1747336094,"current_range_meters":9600,"station_id":"ce4bhbh2rcd13ifvqeo0","pricing_plan_id":"cebpf4jnsgd1na2vs0mg"},{"bike_id":"203ffa2b-2247-4bdc-a3f5-c606bc1edcfc","system_id":"levelo_inurba_marseille","lat":43.29721,"lon":5.36612,"is_reserved":false,"is_disabled":false,"rental_uris":{"android":"levelo://app?vid=203ffa2b-2247-4bdc-a3f5-c606bc1edcfc","ios":"levelo://app?vid=203ffa2b-2247-4bdc-a3f5-c606bc1edcfc"},"vehicle_type_id":"4","last_reported":1747336094,"current_range_meters":9600,"station_id":"ce4bgn12rcd13ifvqbt0","pricing_plan_id":"cebpf4jnsgd1na2vs0mg"},{"bike_id":"9b23b2a7-fc1d-44ae-8d6a-059508deb2fc","system_id":"levelo_inurba_marseille","lat":43.29205,"lon":5.39321,"is_reserved":false,"is_disabled":false,"rental_uris":{"android":"levelo://app?vid=9b23b2a7-fc1d-44ae-8d6a-059508deb2fc","ios":"levelo://app?vid=9b23b2a7-fc1d-44ae-8d6a-059508deb2fc"},"vehicle_type_id":"4","last_reported":1747336094,"current_range_meters":9600,"station_id":"ce4bh192rcd13ifvqdd0","pricing_plan_id":"cebpf4jnsgd1na2vs0mg"},{"bike_id":"9ee7a612-9bf2-46da-8676-0793df036d2a","system_id":"levelo_inurba_marseille","lat":43.29616,"lon":5.37723,"is_reserved":false,"is_disabled":false,"rental_uris":{"android":"levelo://app?vid=9ee7a612-9bf2-46da-8676-0793df036d2a","ios":"levelo://app?vid=9ee7a612-9bf2-46da-8676-0793df036d2a"},"vehicle_type_id":"4","last_reported":1747336094,"current_range_meters":9600,"station_id":"","pricing_plan_id":"cebpf4jnsgd1na2vs0mg"},{"bike_id":"2d868c7d-1773-4908-befa-cd0aaed09d96","system_id":"levelo_inurba_marseille","lat":43.32354,"lon":5.38932,"is_reserved":false,"is_disabled":false,"rental_uris":{"android":"levelo://app?vid=2d868c7d-1773-4908-befa-cd0aaed09d96","ios":"levelo://app?vid=2d868c7d-1773-4908-befa-cd0aaed09d96"},"vehicle_type_id":"4","last_reported":1747336094,"current_range_meters":9600,"station_id":"ce4bhqp2rcd13ifvqhog","pricing_plan_id":"cebpf4jnsgd1na2vs0mg"},{"bike_id":"4c153542-f850-4144-8a4c-487b110bcb3a","system_id":"levelo_inurba_marseille","lat":43.298798,"lon":5.397221,"is_reserved":false,"is_disabled":false,"rental_uris":{"android":"levelo://app?vid=4c153542-f850-4144-8a4c-487b110bcb3a","ios":"levelo://app?vid=4c153542-f850-4144-8a4c-487b110bcb3a"},"vehicle_type_id":"4","last_reported":1747336094,"current_range_meters":9600,"station_id":"ce4bh0h2rcd13ifvqd50","pricing_plan_id":"cebpf4jnsgd1na2vs0mg"},{"bike_id":"60dbb4bb-0c60-49a4-aaa6-ab99224195da","system_id":"levelo_inurba_marseille","lat":43.29201,"lon":5.39321,"is_reserved":false,"is_disabled":false,"rental_uris":{"android":"levelo://app?vid=60dbb4bb-0c60-49a4-aaa6-ab99224195da","ios":"levelo://app?vid=60dbb4bb-0c60-49a4-aaa6-ab99224195da"},"vehicle_type_id":"4","last_reported":1747336094,"current_range_meters":9600,"station_id":"ce4bh192rcd13ifvqdd0","pricing_plan_id":"cebpf4jnsgd1na2vs0mg"},{"bike_id":"f466d87a-11e5-4b59-acb6-c0d906ba5665","system_id":"levelo_inurba_marseille","lat":43.25578,"lon":5.38232,"is_reserved":false,"is_disabled":false,"rental_uris":{"android":"levelo://app?vid=f466d87a-11e5-4b59-acb6-c0d906ba5665","ios":"levelo://app?vid=f466d87a-11e5-4b59-acb6-c0d906ba5665"},"vehicle_type_id":"4","last_reported":1747336094,"current_range_meters":9600,"station_id":"ce4bhih2rcd13ifvqfs0","pricing_plan_id":"cebpf4jnsgd1na2vs0mg"},{"bike_id":"5fbcd3a8-5fba-4859-a6da-5a3b617f4707","system_id":"levelo_inurba_marseille","lat":43.24159,"lon":5.36369,"is_reserved":false,"is_disabled":false,"rental_uris":{"android":"levelo://app?vid=5fbcd3a8-5fba-4859-a6da-5a3b617f4707","ios":"levelo://app?vid=5fbcd3a8-5fba-4859-a6da-5a3b617f4707"},"vehicle_type_id":"4","last_reported":1747336094,"current_range_meters":9600,"station_id":"cpo36qri1sfpv3e86is0","pricing_plan_id":"cebpf4jnsgd1na2vs0mg"},{"bike_id":"b79a285d-c8f5-444f-8fe8-9016a444cdd9","system_id":"levelo_inurba_marseille","lat":43.28997,"lon":5.35615,"is_reserved":false,"is_disabled":true,"rental_uris":{"android":"levelo://app?vid=b79a285d-c8f5-444f-8fe8-9016a444cdd9","ios":"levelo://app?vid=b79a285d-c8f5-444f-8fe8-9016a444cdd9"},"vehicle_type_id":"4","last_reported":1747336094,"current_range_meters":9600,"station_id":"ce4bhb92rcd13ifvqen0","pricing_plan_id":"cebpf4jnsgd1na2vs0mg"},{"bike_id":"f28e640f-ce51-425c-9e65-3c5a2e1c209e","system_id":"levelo_inurba_marseille","lat":43.26806,"lon":5.40274,"is_reserved":false,"is_disabled":false,"rental_uris":{"android":"levelo://app?vid=f28e640f-ce51-425c-9e65-3c5a2e1c209e","ios":"levelo://app?vid=f28e640f-ce51-425c-9e65-3c5a2e1c209e"},"vehicle_type_id":"4","last_reported":1747336094,"current_range_meters":9600,"station_id":"ce501612rcd8frsf0b60","pricing_plan_id":"cebpf4jnsgd1na2vs0mg"},{"bike_id":"c0cf8434-3abf-4f47-9cf4-97e4935ed394","system_id":"levelo_inurba_marseille","lat":43.25488,"lon":5.37643,"is_reserved":false,"is_disabled":false,"rental_uris":{"android":"levelo://app?vid=c0cf8434-3abf-4f47-9cf4-97e4935ed394","ios":"levelo://app?vid=c0cf8434-3abf-4f47-9cf4-97e4935ed394"},"vehicle_type_id":"4","last_reported":1747336094,"current_range_meters":9600,"station_id":"ce4bhh12rcd13ifvqff0","pricing_plan_id":"cebpf4jnsgd1na2vs0mg"},{"bike_id":"4e716133-12bd-48ef-8462-cdade112f10c","system_id":"levelo_inurba_marseille","lat":43.27132,"lon":5.40023,"is_reserved":false,"is_disabled":false,"rental_uris":{"android":"levelo://app?vid=4e716133-12bd-48ef-8462-cdade112f10c","ios":"levelo://app?vid=4e716133-12bd-48ef-8462-cdade112f10c"},"vehicle_type_id":"4","last_reported":1747336094,"current_range_meters":9600,"station_id":"","pricing_plan_id":"cebpf4jnsgd1na2vs0mg"},{"bike_id":"cdc17061-5a6f-437b-a2d6-ebac9cb6a45e","system_id":"levelo_inurba_marseille","lat":43.32347,"lon":5.40619,"is_reserved":false,"is_disabled":false,"rental_uris":{"android":"levelo://app?vid=cdc17061-5a6f-437b-a2d6-ebac9cb6a45e","ios":"levelo://app?vid=cdc17061-5a6f-437b-a2d6-ebac9cb6a45e"},"vehicle_type_id":"4","last_reported":1747336094,"current_range_meters":9600,"station_id":"ce4bhq92rcd13ifvqhjg","pricing_plan_id":"cebpf4jnsgd1na2vs0mg"},{"bike_id":"b131f0d5-6905-4fcb-b71c-3159b3f40acd","system_id":"levelo_inurba_marseille","lat":43.288517,"lon":5.358403,"is_reserved":false,"is_disabled":true,"rental_uris":{"android":"levelo://app?vid=b131f0d5-6905-4fcb-b71c-3159b3f40acd","ios":"levelo://app?vid=b131f0d5-6905-4fcb-b71c-3159b3f40acd"},"vehicle_type_id":"4","last_reported":1747336094,"current_range_meters":9600,"station_id":"ce4bhb12rcd13ifvqem0","pricing_plan_id":"cebpf4jnsgd1na2vs0mg"},{"bike_id":"28dc8f37-4a35-41fe-974b-73bd5af5ea54","system_id":"levelo_inurba_marseille","lat":43.29415,"lon":5.38628,"is_reserved":false,"is_disabled":false,"rental_uris":{"android":"levelo://app?vid=28dc8f37-4a35-41fe-974b-73bd5af5ea54","ios":"levelo://app?vid=28dc8f37-4a35-41fe-974b-73bd5af5ea54"},"vehicle_type_id":"4","last_reported":1747336094,"current_range_meters":9600,"station_id":"ce4bh2h2rcd13ifvqdh0","pricing_plan_id":"cebpf4jnsgd1na2vs0mg"},{"bike_id":"d47aa709-16cd-4003-b5f2-52a3f9556c58","system_id":"levelo_inurba_marseille","lat":43.3235,"lon":5.40604,"is_reserved":false,"is_disabled":false,"rental_uris":{"android":"levelo://app?vid=d47aa709-16cd-4003-b5f2-52a3f9556c58","ios":"levelo://app?vid=d47aa709-16cd-4003-b5f2-52a3f9556c58"},"vehicle_type_id":"4","last_reported":1747336094,"current_range_meters":10000,"station_id":"ce4bhq92rcd13ifvqhjg","pricing_plan_id":"cebpf4jnsgd1na2vs0mg"},{"bike_id":"9ddfeeff-43a1-46c2-bb2e-57596e41838f","system_id":"levelo_inurba_marseille","lat":43.323365,"lon":5.406226,"is_reserved":false,"is_disabled":false,"rental_uris":{"android":"levelo://app?vid=9ddfeeff-43a1-46c2-bb2e-57596e41838f","ios":"levelo://app?vid=9ddfeeff-43a1-46c2-bb2e-57596e41838f"},"vehicle_type_id":"4","last_reported":1747336094,"current_range_meters":10000,"station_id":"ce4bhq92rcd13ifvqhjg","pricing_plan_id":"cebpf4jnsgd1na2vs0mg"},{"bike_id":"efd70095-7bdc-4fd3-bcce-0413058dcaab","system_id":"levelo_inurba_marseille","lat":43.28733,"lon":5.36096,"is_reserved":false,"is_disabled":false,"rental_uris":{"android":"levelo://app?vid=efd70095-7bdc-4fd3-bcce-0413058dcaab","ios":"levelo://app?vid=efd70095-7bdc-4fd3-bcce-0413058dcaab"},"vehicle_type_id":"4","last_reported":1747336094,"current_range_meters":10000,"station_id":"cki0cbj6b192h4jlfktg","pricing_plan_id":"cebpf4jnsgd1na2vs0mg"},{"bike_id":"8a225b4f-12c2-4b61-92f1-03d6c11a31f4","system_id":"levelo_inurba_marseille","lat":43.29424,"lon":5.3861,"is_reserved":false,"is_disabled":false,"rental_uris":{"android":"levelo://app?vid=8a225b4f-12c2-4b61-92f1-03d6c11a31f4","ios":"levelo://app?vid=8a225b4f-12c2-4b61-92f1-03d6c11a31f4"},"vehicle_type_id":"4","last_reported":1747336094,"current_range_meters":10000,"station_id":"ce4bh2h2rcd13ifvqdh0","pricing_plan_id":"cebpf4jnsgd1na2vs0mg"},{"bike_id":"7f4fc273-1360-4a47-aa6f-29da663bd116","system_id":"levelo_inurba_marseille","lat":43.24894,"lon":5.39381,"is_reserved":false,"is_disabled":false,"rental_uris":{"android":"levelo://app?vid=7f4fc273-1360-4a47-aa6f-29da663bd116","ios":"levelo://app?vid=7f4fc273-1360-4a47-aa6f-29da663bd116"},"vehicle_type_id":"4","last_reported":1747336094,"current_range_meters":10000,"station_id":"","pricing_plan_id":"cebpf4jnsgd1na2vs0mg"},{"bike_id":"5d28272a-6434-4036-8b97-27bfdfa65c1a","system_id":"levelo_inurba_marseille","lat":43.28669,"lon":5.38669,"is_reserved":false,"is_disabled":false,"rental_uris":{"android":"levelo://app?vid=5d28272a-6434-4036-8b97-27bfdfa65c1a","ios":"levelo://app?vid=5d28272a-6434-4036-8b97-27bfdfa65c1a"},"vehicle_type_id":"4","last_reported":1747336094,"current_range_meters":10000,"station_id":"ce4bh492rcd13ifvqdug","pricing_plan_id":"cebpf4jnsgd1na2vs0mg"},{"bike_id":"825ac272-f5a7-40d0-9bf1-29acd0cb3c90","system_id":"levelo_inurba_marseille","lat":43.30888,"lon":5.3966,"is_reserved":false,"is_disabled":false,"rental_uris":{"android":"levelo://app?vid=825ac272-f5a7-40d0-9bf1-29acd0cb3c90","ios":"levelo://app?vid=825ac272-f5a7-40d0-9bf1-29acd0cb3c90"},"vehicle_type_id":"4","last_reported":1747336094,"current_range_meters":10000,"station_id":"ce4bh012rcd13ifvqcv0","pricing_plan_id":"cebpf4jnsgd1na2vs0mg"},{"bike_id":"a20360bb-41f0-4761-af07-c268cf8ac0e0","system_id":"levelo_inurba_marseille","lat":43.30132,"lon":5.38771,"is_reserved":false,"is_disabled":false,"rental_uris":{"android":"levelo://app?vid=a20360bb-41f0-4761-af07-c268cf8ac0e0","ios":"levelo://app?vid=a20360bb-41f0-4761-af07-c268cf8ac0e0"},"vehicle_type_id":"4","last_reported":1747336094,"current_range_meters":10000,"station_id":"ce4bghh2rcd13ifvqb60","pricing_plan_id":"cebpf4jnsgd1na2vs0mg"},{"bike_id":"3bbd92f2-6806-408b-a244-9d40163b65cd","system_id":"levelo_inurba_marseille","lat":43.294062,"lon":5.386109,"is_reserved":false,"is_disabled":false,"rental_uris":{"android":"levelo://app?vid=3bbd92f2-6806-408b-a244-9d40163b65cd","ios":"levelo://app?vid=3bbd92f2-6806-408b-a244-9d40163b65cd"},"vehicle_type_id":"4","last_reported":1747336094,"current_range_meters":10000,"station_id":"ce4bh2h2rcd13ifvqdh0","pricing_plan_id":"cebpf4jnsgd1na2vs0mg"},{"bike_id":"0077f398-56b6-43bb-8eeb-9798d08de05c","system_id":"levelo_inurba_marseille","lat":43.30919,"lon":5.37264,"is_reserved":false,"is_disabled":false,"rental_uris":{"android":"levelo://app?vid=0077f398-56b6-43bb-8eeb-9798d08de05c","ios":"levelo://app?vid=0077f398-56b6-43bb-8eeb-9798d08de05c"},"vehicle_type_id":"4","last_reported":1747336094,"current_range_meters":10000,"station_id":"","pricing_plan_id":"cebpf4jnsgd1na2vs0mg"},{"bike_id":"2a159e02-335f-42f0-ba6f-54148a50cd31","system_id":"levelo_inurba_marseille","lat":43.30203,"lon":5.39477,"is_reserved":false,"is_disabled":false,"rental_uris":{"android":"levelo://app?vid=2a159e02-335f-42f0-ba6f-54148a50cd31","ios":"levelo://app?vid=2a159e02-335f-42f0-ba6f-54148a50cd31"},"vehicle_type_id":"4","last_reported":1747336094,"current_range_meters":10000,"station_id":"ce4bh0p2rcd13ifvqd70","pricing_plan_id":"cebpf4jnsgd1na2vs0mg"},{"bike_id":"f768f02c-a770-46ed-b9fb-ed1e435a3c0f","system_id":"levelo_inurba_marseille","lat":43.32925,"lon":5.39,"is_reserved":false,"is_disabled":false,"rental_uris":{"android":"levelo://app?vid=f768f02c-a770-46ed-b9fb-ed1e435a3c0f","ios":"levelo://app?vid=f768f02c-a770-46ed-b9fb-ed1e435a3c0f"},"vehicle_type_id":"4","last_reported":1747336094,"current_range_meters":10800,"station_id":"","pricing_plan_id":"cebpf4jnsgd1na2vs0mg"},{"bike_id":"4d2a91e0-1e71-4274-8d42-028af3d58327","system_id":"levelo_inurba_marseille","lat":43.30433,"lon":5.38887,"is_reserved":false,"is_disabled":false,"rental_uris":{"android":"levelo://app?vid=4d2a91e0-1e71-4274-8d42-028af3d58327","ios":"levelo://app?vid=4d2a91e0-1e71-4274-8d42-028af3d58327"},"vehicle_type_id":"4","last_reported":1747336094,"current_range_meters":10800,"station_id":"ce4bgk12rcd13ifvqbi0","pricing_plan_id":"cebpf4jnsgd1na2vs0mg"},{"bike_id":"8c0a604a-9eb9-4b4c-bc53-4ce1c9809f77","system_id":"levelo_inurba_marseille","lat":43.24664,"lon":5.38169,"is_reserved":false,"is_disabled":false,"rental_uris":{"android":"levelo://app?vid=8c0a604a-9eb9-4b4c-bc53-4ce1c9809f77","ios":"levelo://app?vid=8c0a604a-9eb9-4b4c-bc53-4ce1c9809f77"},"vehicle_type_id":"4","last_reported":1747336094,"current_range_meters":10800,"station_id":"ce4bhih2rcd13ifvqfr0","pricing_plan_id":"cebpf4jnsgd1na2vs0mg"},{"bike_id":"30d0517e-0e9a-48f5-bf2f-fc64812aeec7","system_id":"levelo_inurba_marseille","lat":43.29307,"lon":5.37442,"is_reserved":false,"is_disabled":false,"rental_uris":{"android":"levelo://app?vid=30d0517e-0e9a-48f5-bf2f-fc64812aeec7","ios":"levelo://app?vid=30d0517e-0e9a-48f5-bf2f-fc64812aeec7"},"vehicle_type_id":"4","last_reported":1747336094,"current_range_meters":10800,"station_id":"ce4bgi12rcd13ifvqb70","pricing_plan_id":"cebpf4jnsgd1na2vs0mg"},{"bike_id":"75488db6-d898-47a7-9e83-b228a3d3b0cf","system_id":"levelo_inurba_marseille","lat":43.29969,"lon":5.38488,"is_reserved":false,"is_disabled":false,"rental_uris":{"android":"levelo://app?vid=75488db6-d898-47a7-9e83-b228a3d3b0cf","ios":"levelo://app?vid=75488db6-d898-47a7-9e83-b228a3d3b0cf"},"vehicle_type_id":"4","last_reported":1747336094,"current_range_meters":10800,"station_id":"ce4bgj92rcd13ifvqbd0","pricing_plan_id":"cebpf4jnsgd1na2vs0mg"},{"bike_id":"ab3a1b8d-598c-486d-94f8-293196bde362","system_id":"levelo_inurba_marseille","lat":43.29276,"lon":5.36845,"is_reserved":false,"is_disabled":false,"rental_uris":{"android":"levelo://app?vid=ab3a1b8d-598c-486d-94f8-293196bde362","ios":"levelo://app?vid=ab3a1b8d-598c-486d-94f8-293196bde362"},"vehicle_type_id":"4","last_reported":1747336094,"current_range_meters":10800,"station_id":"ce4bhbp2rcd13ifvqesg","pricing_plan_id":"cebpf4jnsgd1na2vs0mg"},{"bike_id":"7ea1cd83-11e2-4fce-85da-44d52dc09b4b","system_id":"levelo_inurba_marseille","lat":43.29517,"lon":5.39034,"is_reserved":false,"is_disabled":false,"rental_uris":{"android":"levelo://app?vid=7ea1cd83-11e2-4fce-85da-44d52dc09b4b","ios":"levelo://app?vid=7ea1cd83-11e2-4fce-85da-44d52dc09b4b"},"vehicle_type_id":"4","last_reported":1747336094,"current_range_meters":10000,"station_id":"ce4bh3p2rcd13ifvqdp0","pricing_plan_id":"cebpf4jnsgd1na2vs0mg"},{"bike_id":"83bd77d5-e4c3-4a04-9379-943d401db7f7","system_id":"levelo_inurba_marseille","lat":43.24384,"lon":5.37067,"is_reserved":false,"is_disabled":false,"rental_uris":{"android":"levelo://app?vid=83bd77d5-e4c3-4a04-9379-943d401db7f7","ios":"levelo://app?vid=83bd77d5-e4c3-4a04-9379-943d401db7f7"},"vehicle_type_id":"4","last_reported":1747336094,"current_range_meters":10800,"station_id":"ce4bhhh2rcd13ifvqfk0","pricing_plan_id":"cebpf4jnsgd1na2vs0mg"},{"bike_id":"af330f2a-4e9f-4945-8d38-a5bc13399da1","system_id":"levelo_inurba_marseille","lat":43.289447,"lon":5.363869,"is_reserved":false,"is_disabled":false,"rental_uris":{"android":"levelo://app?vid=af330f2a-4e9f-4945-8d38-a5bc13399da1","ios":"levelo://app?vid=af330f2a-4e9f-4945-8d38-a5bc13399da1"},"vehicle_type_id":"4","last_reported":1747336094,"current_range_meters":10800,"station_id":"ce4bhc92rcd13ifvqetg","pricing_plan_id":"cebpf4jnsgd1na2vs0mg"},{"bike_id":"bc9a370d-b8be-4f05-9bec-ca5594a69aea","system_id":"levelo_inurba_marseille","lat":43.24072,"lon":5.37762,"is_reserved":false,"is_disabled":false,"rental_uris":{"android":"levelo://app?vid=bc9a370d-b8be-4f05-9bec-ca5594a69aea","ios":"levelo://app?vid=bc9a370d-b8be-4f05-9bec-ca5594a69aea"},"vehicle_type_id":"4","last_reported":1747336094,"current_range_meters":10800,"station_id":"ce4bhnp2rcd13ifvqgvg","pricing_plan_id":"cebpf4jnsgd1na2vs0mg"},{"bike_id":"a4254f33-dfdc-4beb-9ee4-21271a8a3aac","system_id":"levelo_inurba_marseille","lat":43.30353,"lon":5.41212,"is_reserved":false,"is_disabled":true,"rental_uris":{"android":"levelo://app?vid=a4254f33-dfdc-4beb-9ee4-21271a8a3aac","ios":"levelo://app?vid=a4254f33-dfdc-4beb-9ee4-21271a8a3aac"},"vehicle_type_id":"4","last_reported":1747336094,"current_range_meters":10800,"station_id":"ce4bhop2rcd13ifvqh8g","pricing_plan_id":"cebpf4jnsgd1na2vs0mg"},{"bike_id":"f8708533-c882-424d-919c-8da02599e742","system_id":"levelo_inurba_marseille","lat":43.32359,"lon":5.3889,"is_reserved":false,"is_disabled":false,"rental_uris":{"android":"levelo://app?vid=f8708533-c882-424d-919c-8da02599e742","ios":"levelo://app?vid=f8708533-c882-424d-919c-8da02599e742"},"vehicle_type_id":"4","last_reported":1747336094,"current_range_meters":11200,"station_id":"ce4bhqp2rcd13ifvqhog","pricing_plan_id":"cebpf4jnsgd1na2vs0mg"},{"bike_id":"004ba9d4-1164-43b7-b212-a33f62c5b053","system_id":"levelo_inurba_marseille","lat":43.26265,"lon":5.40364,"is_reserved":false,"is_disabled":false,"rental_uris":{"android":"levelo://app?vid=004ba9d4-1164-43b7-b212-a33f62c5b053","ios":"levelo://app?vid=004ba9d4-1164-43b7-b212-a33f62c5b053"},"vehicle_type_id":"4","last_reported":1747336094,"current_range_meters":11200,"station_id":"ce4bhmh2rcd13ifvqgmg","pricing_plan_id":"cebpf4jnsgd1na2vs0mg"},{"bike_id":"098492cd-7a21-4527-911a-072b6030b1a3","system_id":"levelo_inurba_marseille","lat":43.29535,"lon":5.39032,"is_reserved":false,"is_disabled":false,"rental_uris":{"android":"levelo://app?vid=098492cd-7a21-4527-911a-072b6030b1a3","ios":"levelo://app?vid=098492cd-7a21-4527-911a-072b6030b1a3"},"vehicle_type_id":"4","last_reported":1747336094,"current_range_meters":11200,"station_id":"ce4bh3p2rcd13ifvqdp0","pricing_plan_id":"cebpf4jnsgd1na2vs0mg"},{"bike_id":"cb30f1f3-ee29-46b2-8a86-a4733a1d23e3","system_id":"levelo_inurba_marseille","lat":43.29186,"lon":5.39322,"is_reserved":false,"is_disabled":false,"rental_uris":{"android":"levelo://app?vid=cb30f1f3-ee29-46b2-8a86-a4733a1d23e3","ios":"levelo://app?vid=cb30f1f3-ee29-46b2-8a86-a4733a1d23e3"},"vehicle_type_id":"4","last_reported":1747336094,"current_range_meters":11200,"station_id":"ce4bh192rcd13ifvqdd0","pricing_plan_id":"cebpf4jnsgd1na2vs0mg"},{"bike_id":"4fbffe75-ceee-4594-8624-f627ad973aac","system_id":"levelo_inurba_marseille","lat":43.29306,"lon":5.37145,"is_reserved":false,"is_disabled":false,"rental_uris":{"android":"levelo://app?vid=4fbffe75-ceee-4594-8624-f627ad973aac","ios":"levelo://app?vid=4fbffe75-ceee-4594-8624-f627ad973aac"},"vehicle_type_id":"4","last_reported":1747336094,"current_range_meters":11200,"station_id":"ce4bgh92rcd13ifvqb40","pricing_plan_id":"cebpf4jnsgd1na2vs0mg"},{"bike_id":"0a2c8b94-8737-4074-8da5-a615979a85ea","system_id":"levelo_inurba_marseille","lat":43.27827,"lon":5.40731,"is_reserved":false,"is_disabled":false,"rental_uris":{"android":"levelo://app?vid=0a2c8b94-8737-4074-8da5-a615979a85ea","ios":"levelo://app?vid=0a2c8b94-8737-4074-8da5-a615979a85ea"},"vehicle_type_id":"4","last_reported":1747336094,"current_range_meters":11200,"station_id":"ce4bhnh2rcd13ifvqgtg","pricing_plan_id":"cebpf4jnsgd1na2vs0mg"},{"bike_id":"3a2677fd-c8a2-48ec-91c8-b8e84315c610","system_id":"levelo_inurba_marseille","lat":43.33026,"lon":5.39077,"is_reserved":false,"is_disabled":false,"rental_uris":{"android":"levelo://app?vid=3a2677fd-c8a2-48ec-91c8-b8e84315c610","ios":"levelo://app?vid=3a2677fd-c8a2-48ec-91c8-b8e84315c610"},"vehicle_type_id":"4","last_reported":1747336094,"current_range_meters":11200,"station_id":"ce4bhr92rcd13ifvqhrg","pricing_plan_id":"cebpf4jnsgd1na2vs0mg"},{"bike_id":"175b0af1-4865-45c2-8dc8-d5a32deb3590","system_id":"levelo_inurba_marseille","lat":43.31774,"lon":5.38998,"is_reserved":false,"is_disabled":false,"rental_uris":{"android":"levelo://app?vid=175b0af1-4865-45c2-8dc8-d5a32deb3590","ios":"levelo://app?vid=175b0af1-4865-45c2-8dc8-d5a32deb3590"},"vehicle_type_id":"4","last_reported":1747336094,"current_range_meters":11200,"station_id":"ce4bhqp2rcd13ifvqhng","pricing_plan_id":"cebpf4jnsgd1na2vs0mg"},{"bike_id":"a65bab31-8d7f-4e2b-9ee3-7eea1124f5a7","system_id":"levelo_inurba_marseille","lat":43.28669,"lon":5.3866,"is_reserved":false,"is_disabled":false,"rental_uris":{"android":"levelo://app?vid=a65bab31-8d7f-4e2b-9ee3-7eea1124f5a7","ios":"levelo://app?vid=a65bab31-8d7f-4e2b-9ee3-7eea1124f5a7"},"vehicle_type_id":"4","last_reported":1747336094,"current_range_meters":11200,"station_id":"ce4bh492rcd13ifvqdug","pricing_plan_id":"cebpf4jnsgd1na2vs0mg"},{"bike_id":"31bedb95-5fc4-4b24-91b1-10c9cd7506c0","system_id":"levelo_inurba_marseille","lat":43.25837,"lon":5.39434,"is_reserved":false,"is_disabled":false,"rental_uris":{"android":"levelo://app?vid=31bedb95-5fc4-4b24-91b1-10c9cd7506c0","ios":"levelo://app?vid=31bedb95-5fc4-4b24-91b1-10c9cd7506c0"},"vehicle_type_id":"4","last_reported":1747336094,"current_range_meters":11600,"station_id":"ce4bhip2rcd13ifvqft0","pricing_plan_id":"cebpf4jnsgd1na2vs0mg"},{"bike_id":"8b697f19-ca5a-440e-8172-9fdbb69a9893","system_id":"levelo_inurba_marseille","lat":43.29606,"lon":5.377,"is_reserved":false,"is_disabled":true,"rental_uris":{"android":"levelo://app?vid=8b697f19-ca5a-440e-8172-9fdbb69a9893","ios":"levelo://app?vid=8b697f19-ca5a-440e-8172-9fdbb69a9893"},"vehicle_type_id":"4","last_reported":1747336094,"current_range_meters":11600,"station_id":"ce4bgi92rcd13ifvqb90","pricing_plan_id":"cebpf4jnsgd1na2vs0mg"},{"bike_id":"6563e80e-21af-439b-8c71-e1baa7144b09","system_id":"levelo_inurba_marseille","lat":43.24543,"lon":5.39527,"is_reserved":false,"is_disabled":false,"rental_uris":{"android":"levelo://app?vid=6563e80e-21af-439b-8c71-e1baa7144b09","ios":"levelo://app?vid=6563e80e-21af-439b-8c71-e1baa7144b09"},"vehicle_type_id":"4","last_reported":1747336094,"current_range_meters":11600,"station_id":"ce4bhlp2rcd13ifvqgjg","pricing_plan_id":"cebpf4jnsgd1na2vs0mg"},{"bike_id":"f3a72af1-1864-4f80-b643-9506010f65f6","system_id":"levelo_inurba_marseille","lat":43.28709,"lon":5.37391,"is_reserved":false,"is_disabled":false,"rental_uris":{"android":"levelo://app?vid=f3a72af1-1864-4f80-b643-9506010f65f6","ios":"levelo://app?vid=f3a72af1-1864-4f80-b643-9506010f65f6"},"vehicle_type_id":"4","last_reported":1747336094,"current_range_meters":11600,"station_id":"ce4bh3p2rcd13ifvqdq0","pricing_plan_id":"cebpf4jnsgd1na2vs0mg"},{"bike_id":"85d6796c-d0d9-4c35-be0b-74022339f9ba","system_id":"levelo_inurba_marseille","lat":43.292,"lon":5.39314,"is_reserved":false,"is_disabled":false,"rental_uris":{"android":"levelo://app?vid=85d6796c-d0d9-4c35-be0b-74022339f9ba","ios":"levelo://app?vid=85d6796c-d0d9-4c35-be0b-74022339f9ba"},"vehicle_type_id":"4","last_reported":1747336094,"current_range_meters":11200,"station_id":"ce4bh192rcd13ifvqdd0","pricing_plan_id":"cebpf4jnsgd1na2vs0mg"},{"bike_id":"c34dee5f-4e06-4011-955b-1a275c558187","system_id":"levelo_inurba_marseille","lat":43.27295,"lon":5.41015,"is_reserved":false,"is_disabled":false,"rental_uris":{"android":"levelo://app?vid=c34dee5f-4e06-4011-955b-1a275c558187","ios":"levelo://app?vid=c34dee5f-4e06-4011-955b-1a275c558187"},"vehicle_type_id":"4","last_reported":1747336094,"current_range_meters":12000,"station_id":"","pricing_plan_id":"cebpf4jnsgd1na2vs0mg"},{"bike_id":"69395ec3-f2c3-497b-ba6e-ea857b4662d1","system_id":"levelo_inurba_marseille","lat":43.24179,"lon":5.39723,"is_reserved":false,"is_disabled":false,"rental_uris":{"android":"levelo://app?vid=69395ec3-f2c3-497b-ba6e-ea857b4662d1","ios":"levelo://app?vid=69395ec3-f2c3-497b-ba6e-ea857b4662d1"},"vehicle_type_id":"4","last_reported":1747336094,"current_range_meters":12000,"station_id":"ce4bhn12rcd13ifvqgpg","pricing_plan_id":"cebpf4jnsgd1na2vs0mg"},{"bike_id":"473051da-68e1-4fa1-85fe-ca50e29e0297","system_id":"levelo_inurba_marseille","lat":43.29418,"lon":5.38623,"is_reserved":false,"is_disabled":false,"rental_uris":{"android":"levelo://app?vid=473051da-68e1-4fa1-85fe-ca50e29e0297","ios":"levelo://app?vid=473051da-68e1-4fa1-85fe-ca50e29e0297"},"vehicle_type_id":"4","last_reported":1747336094,"current_range_meters":12000,"station_id":"ce4bh2h2rcd13ifvqdh0","pricing_plan_id":"cebpf4jnsgd1na2vs0mg"},{"bike_id":"23d4ac47-0408-4370-a6b6-e5f09d34c722","system_id":"levelo_inurba_marseille","lat":43.27943,"lon":5.41051,"is_reserved":false,"is_disabled":false,"rental_uris":{"android":"levelo://app?vid=23d4ac47-0408-4370-a6b6-e5f09d34c722","ios":"levelo://app?vid=23d4ac47-0408-4370-a6b6-e5f09d34c722"},"vehicle_type_id":"4","last_reported":1747336094,"current_range_meters":12000,"station_id":"ce4bhnp2rcd13ifvqh0g","pricing_plan_id":"cebpf4jnsgd1na2vs0mg"},{"bike_id":"a25fd359-0469-408d-a721-b93c134e6751","system_id":"levelo_inurba_marseille","lat":43.29874,"lon":5.39731,"is_reserved":false,"is_disabled":false,"rental_uris":{"android":"levelo://app?vid=a25fd359-0469-408d-a721-b93c134e6751","ios":"levelo://app?vid=a25fd359-0469-408d-a721-b93c134e6751"},"vehicle_type_id":"4","last_reported":1747336094,"current_range_meters":12000,"station_id":"ce4bh0h2rcd13ifvqd50","pricing_plan_id":"cebpf4jnsgd1na2vs0mg"},{"bike_id":"423aa1ca-c4fb-4b93-ad68-fabe0dfb1921","system_id":"levelo_inurba_marseille","lat":43.29683,"lon":5.373,"is_reserved":false,"is_disabled":false,"rental_uris":{"android":"levelo://app?vid=423aa1ca-c4fb-4b93-ad68-fabe0dfb1921","ios":"levelo://app?vid=423aa1ca-c4fb-4b93-ad68-fabe0dfb1921"},"vehicle_type_id":"4","last_reported":1747336094,"current_range_meters":12000,"station_id":"ce4bgk12rcd13ifvqbj0","pricing_plan_id":"cebpf4jnsgd1na2vs0mg"},{"bike_id":"f4f1c3df-f05f-42d3-a581-5db42e9a1838","system_id":"levelo_inurba_marseille","lat":43.27901,"lon":5.3799,"is_reserved":false,"is_disabled":false,"rental_uris":{"android":"levelo://app?vid=f4f1c3df-f05f-42d3-a581-5db42e9a1838","ios":"levelo://app?vid=f4f1c3df-f05f-42d3-a581-5db42e9a1838"},"vehicle_type_id":"4","last_reported":1747336094,"current_range_meters":12000,"station_id":"ce4bhf92rcd13ifvqf50","pricing_plan_id":"cebpf4jnsgd1na2vs0mg"},{"bike_id":"e80da78f-15c5-4b5d-902e-77b0a6e1824a","system_id":"levelo_inurba_marseille","lat":43.29277,"lon":5.36839,"is_reserved":false,"is_disabled":false,"rental_uris":{"android":"levelo://app?vid=e80da78f-15c5-4b5d-902e-77b0a6e1824a","ios":"levelo://app?vid=e80da78f-15c5-4b5d-902e-77b0a6e1824a"},"vehicle_type_id":"4","last_reported":1747336094,"current_range_meters":12000,"station_id":"ce4bhbp2rcd13ifvqesg","pricing_plan_id":"cebpf4jnsgd1na2vs0mg"},{"bike_id":"5983738d-9d65-49a7-bf0b-3f551513f3c0","system_id":"levelo_inurba_marseille","lat":43.24667,"lon":5.38167,"is_reserved":false,"is_disabled":false,"rental_uris":{"android":"levelo://app?vid=5983738d-9d65-49a7-bf0b-3f551513f3c0","ios":"levelo://app?vid=5983738d-9d65-49a7-bf0b-3f551513f3c0"},"vehicle_type_id":"4","last_reported":1747336094,"current_range_meters":12000,"station_id":"ce4bhih2rcd13ifvqfr0","pricing_plan_id":"cebpf4jnsgd1na2vs0mg"},{"bike_id":"695ee1bf-f908-43ef-b5f9-177f0297b131","system_id":"levelo_inurba_marseille","lat":43.29273,"lon":5.36835,"is_reserved":false,"is_disabled":true,"rental_uris":{"android":"levelo://app?vid=695ee1bf-f908-43ef-b5f9-177f0297b131","ios":"levelo://app?vid=695ee1bf-f908-43ef-b5f9-177f0297b131"},"vehicle_type_id":"4","last_reported":1747336094,"current_range_meters":12400,"station_id":"ce4bhbp2rcd13ifvqesg","pricing_plan_id":"cebpf4jnsgd1na2vs0mg"},{"bike_id":"1843c56b-08c1-4a46-9ffa-d73c0a64e48c","system_id":"levelo_inurba_marseille","lat":43.311667,"lon":5.38711,"is_reserved":false,"is_disabled":false,"rental_uris":{"android":"levelo://app?vid=1843c56b-08c1-4a46-9ffa-d73c0a64e48c","ios":"levelo://app?vid=1843c56b-08c1-4a46-9ffa-d73c0a64e48c"},"vehicle_type_id":"4","last_reported":1747336094,"current_range_meters":12400,"station_id":"ce4bgv12rcd13ifvqcp0","pricing_plan_id":"cebpf4jnsgd1na2vs0mg"},{"bike_id":"e64e4484-2db6-41f4-beb8-e0c0ae1263cd","system_id":"levelo_inurba_marseille","lat":43.28518,"lon":5.43046,"is_reserved":false,"is_disabled":false,"rental_uris":{"android":"levelo://app?vid=e64e4484-2db6-41f4-beb8-e0c0ae1263cd","ios":"levelo://app?vid=e64e4484-2db6-41f4-beb8-e0c0ae1263cd"},"vehicle_type_id":"4","last_reported":1747336094,"current_range_meters":12400,"station_id":"","pricing_plan_id":"cebpf4jnsgd1na2vs0mg"},{"bike_id":"4b0a2866-e040-4e48-9e42-eab44185abd8","system_id":"levelo_inurba_marseille","lat":43.2848,"lon":5.38421,"is_reserved":false,"is_disabled":false,"rental_uris":{"android":"levelo://app?vid=4b0a2866-e040-4e48-9e42-eab44185abd8","ios":"levelo://app?vid=4b0a2866-e040-4e48-9e42-eab44185abd8"},"vehicle_type_id":"4","last_reported":1747336094,"current_range_meters":12400,"station_id":"ce4bh512rcd13ifvqe3g","pricing_plan_id":"cebpf4jnsgd1na2vs0mg"},{"bike_id":"dd5422d6-53cb-49fb-8efb-b898f8501e90","system_id":"levelo_inurba_marseille","lat":43.27618,"lon":5.36126,"is_reserved":false,"is_disabled":false,"rental_uris":{"android":"levelo://app?vid=dd5422d6-53cb-49fb-8efb-b898f8501e90","ios":"levelo://app?vid=dd5422d6-53cb-49fb-8efb-b898f8501e90"},"vehicle_type_id":"4","last_reported":1747336094,"current_range_meters":12400,"station_id":"ce4bgj92rcd13ifvqbe0","pricing_plan_id":"cebpf4jnsgd1na2vs0mg"},{"bike_id":"1f40b1c8-404d-4fd1-bb32-88fb923bca3f","system_id":"levelo_inurba_marseille","lat":43.29784,"lon":5.3934,"is_reserved":false,"is_disabled":false,"rental_uris":{"android":"levelo://app?vid=1f40b1c8-404d-4fd1-bb32-88fb923bca3f","ios":"levelo://app?vid=1f40b1c8-404d-4fd1-bb32-88fb923bca3f"},"vehicle_type_id":"4","last_reported":1747336094,"current_range_meters":12800,"station_id":"chh1huq6cuj3fo74tm60","pricing_plan_id":"cebpf4jnsgd1na2vs0mg"},{"bike_id":"bd3e560c-5b08-4cd6-bcf6-7477897c3a0d","system_id":"levelo_inurba_marseille","lat":43.324863,"lon":5.36562,"is_reserved":false,"is_disabled":true,"rental_uris":{"android":"levelo://app?vid=bd3e560c-5b08-4cd6-bcf6-7477897c3a0d","ios":"levelo://app?vid=bd3e560c-5b08-4cd6-bcf6-7477897c3a0d"},"vehicle_type_id":"4","last_reported":1747336094,"current_range_meters":12800,"station_id":"ce4bhs12rcd13ifvqhvg","pricing_plan_id":"cebpf4jnsgd1na2vs0mg"},{"bike_id":"238d7f52-41a9-4d4e-836b-955a6b2dfec8","system_id":"levelo_inurba_marseille","lat":43.28155,"lon":5.42638,"is_reserved":false,"is_disabled":false,"rental_uris":{"android":"levelo://app?vid=238d7f52-41a9-4d4e-836b-955a6b2dfec8","ios":"levelo://app?vid=238d7f52-41a9-4d4e-836b-955a6b2dfec8"},"vehicle_type_id":"4","last_reported":1747336094,"current_range_meters":12800,"station_id":"ce4bhnh2rcd13ifvqgug","pricing_plan_id":"cebpf4jnsgd1na2vs0mg"},{"bike_id":"97debd90-929f-4fac-82c1-32872a77ce7a","system_id":"levelo_inurba_marseille","lat":43.291967,"lon":5.393197,"is_reserved":false,"is_disabled":false,"rental_uris":{"android":"levelo://app?vid=97debd90-929f-4fac-82c1-32872a77ce7a","ios":"levelo://app?vid=97debd90-929f-4fac-82c1-32872a77ce7a"},"vehicle_type_id":"4","last_reported":1747336094,"current_range_meters":12800,"station_id":"ce4bh192rcd13ifvqdd0","pricing_plan_id":"cebpf4jnsgd1na2vs0mg"},{"bike_id":"f8e4732a-2ecf-431c-8f66-abc7aabb8aa1","system_id":"levelo_inurba_marseille","lat":43.32936,"lon":5.39007,"is_reserved":false,"is_disabled":false,"rental_uris":{"android":"levelo://app?vid=f8e4732a-2ecf-431c-8f66-abc7aabb8aa1","ios":"levelo://app?vid=f8e4732a-2ecf-431c-8f66-abc7aabb8aa1"},"vehicle_type_id":"4","last_reported":1747336094,"current_range_meters":12800,"station_id":"","pricing_plan_id":"cebpf4jnsgd1na2vs0mg"},{"bike_id":"60e21f6a-43ce-4091-bcb1-7e3a836c1bde","system_id":"levelo_inurba_marseille","lat":43.28925,"lon":5.36639,"is_reserved":false,"is_disabled":false,"rental_uris":{"android":"levelo://app?vid=60e21f6a-43ce-4091-bcb1-7e3a836c1bde","ios":"levelo://app?vid=60e21f6a-43ce-4091-bcb1-7e3a836c1bde"},"vehicle_type_id":"4","last_reported":1747336094,"current_range_meters":12800,"station_id":"ce4bhap2rcd13ifvqek0","pricing_plan_id":"cebpf4jnsgd1na2vs0mg"},{"bike_id":"a488853e-8708-42f9-a9f1-40f4dc62e03d","system_id":"levelo_inurba_marseille","lat":43.30532,"lon":5.37308,"is_reserved":false,"is_disabled":false,"rental_uris":{"android":"levelo://app?vid=a488853e-8708-42f9-a9f1-40f4dc62e03d","ios":"levelo://app?vid=a488853e-8708-42f9-a9f1-40f4dc62e03d"},"vehicle_type_id":"4","last_reported":1747336094,"current_range_meters":12800,"station_id":"","pricing_plan_id":"cebpf4jnsgd1na2vs0mg"},{"bike_id":"8a9e17b2-15c0-4c4d-9504-07a56c546bef","system_id":"levelo_inurba_marseille","lat":43.24389,"lon":5.37057,"is_reserved":false,"is_disabled":false,"rental_uris":{"android":"levelo://app?vid=8a9e17b2-15c0-4c4d-9504-07a56c546bef","ios":"levelo://app?vid=8a9e17b2-15c0-4c4d-9504-07a56c546bef"},"vehicle_type_id":"4","last_reported":1747336094,"current_range_meters":12800,"station_id":"ce4bhhh2rcd13ifvqfk0","pricing_plan_id":"cebpf4jnsgd1na2vs0mg"},{"bike_id":"e5099fa2-ba7e-4314-aea0-64849cc72ef0","system_id":"levelo_inurba_marseille","lat":43.265569,"lon":5.372824,"is_reserved":false,"is_disabled":false,"rental_uris":{"android":"levelo://app?vid=e5099fa2-ba7e-4314-aea0-64849cc72ef0","ios":"levelo://app?vid=e5099fa2-ba7e-4314-aea0-64849cc72ef0"},"vehicle_type_id":"4","last_reported":1747336094,"current_range_meters":13600,"station_id":"ce4bhg12rcd13ifvqf70","pricing_plan_id":"cebpf4jnsgd1na2vs0mg"},{"bike_id":"adab874f-0d73-494c-947b-63859354ac06","system_id":"levelo_inurba_marseille","lat":43.30781,"lon":5.37655,"is_reserved":false,"is_disabled":false,"rental_uris":{"android":"levelo://app?vid=adab874f-0d73-494c-947b-63859354ac06","ios":"levelo://app?vid=adab874f-0d73-494c-947b-63859354ac06"},"vehicle_type_id":"4","last_reported":1747336094,"current_range_meters":13600,"station_id":"ce4bgv92rcd13ifvqcq0","pricing_plan_id":"cebpf4jnsgd1na2vs0mg"},{"bike_id":"027f72d8-88c3-409a-9f83-3afde0954f18","system_id":"levelo_inurba_marseille","lat":43.3027,"lon":5.39703,"is_reserved":false,"is_disabled":false,"rental_uris":{"android":"levelo://app?vid=027f72d8-88c3-409a-9f83-3afde0954f18","ios":"levelo://app?vid=027f72d8-88c3-409a-9f83-3afde0954f18"},"vehicle_type_id":"4","last_reported":1747336094,"current_range_meters":13600,"station_id":"","pricing_plan_id":"cebpf4jnsgd1na2vs0mg"},{"bike_id":"e261bc05-ed06-4a3d-b634-4f7528c58a8e","system_id":"levelo_inurba_marseille","lat":43.30295,"lon":5.39223,"is_reserved":false,"is_disabled":false,"rental_uris":{"android":"levelo://app?vid=e261bc05-ed06-4a3d-b634-4f7528c58a8e","ios":"levelo://app?vid=e261bc05-ed06-4a3d-b634-4f7528c58a8e"},"vehicle_type_id":"4","last_reported":1747336094,"current_range_meters":13600,"station_id":"ce4bgkh2rcd13ifvqbk0","pricing_plan_id":"cebpf4jnsgd1na2vs0mg"},{"bike_id":"a47c17a4-dff5-4a09-b71d-f2a0a7a70749","system_id":"levelo_inurba_marseille","lat":43.31116,"lon":5.37769,"is_reserved":false,"is_disabled":false,"rental_uris":{"android":"levelo://app?vid=a47c17a4-dff5-4a09-b71d-f2a0a7a70749","ios":"levelo://app?vid=a47c17a4-dff5-4a09-b71d-f2a0a7a70749"},"vehicle_type_id":"4","last_reported":1747336094,"current_range_meters":13600,"station_id":"ce4bgt92rcd13ifvqcg0","pricing_plan_id":"cebpf4jnsgd1na2vs0mg"},{"bike_id":"97b61146-5296-45f9-9d24-f860105881cd","system_id":"levelo_inurba_marseille","lat":43.29414,"lon":5.38632,"is_reserved":false,"is_disabled":false,"rental_uris":{"android":"levelo://app?vid=97b61146-5296-45f9-9d24-f860105881cd","ios":"levelo://app?vid=97b61146-5296-45f9-9d24-f860105881cd"},"vehicle_type_id":"4","last_reported":1747336094,"current_range_meters":13600,"station_id":"ce4bh2h2rcd13ifvqdh0","pricing_plan_id":"cebpf4jnsgd1na2vs0mg"},{"bike_id":"c0b9fd4f-e181-46ce-b0bf-f5119973334f","system_id":"levelo_inurba_marseille","lat":43.33771,"lon":5.37424,"is_reserved":false,"is_disabled":false,"rental_uris":{"android":"levelo://app?vid=c0b9fd4f-e181-46ce-b0bf-f5119973334f","ios":"levelo://app?vid=c0b9fd4f-e181-46ce-b0bf-f5119973334f"},"vehicle_type_id":"4","last_reported":1747336094,"current_range_meters":13600,"station_id":"","pricing_plan_id":"cebpf4jnsgd1na2vs0mg"},{"bike_id":"46a3e2c1-f297-4f25-9c99-f961a1accd8c","system_id":"levelo_inurba_marseille","lat":43.3315,"lon":5.3913,"is_reserved":false,"is_disabled":false,"rental_uris":{"android":"levelo://app?vid=46a3e2c1-f297-4f25-9c99-f961a1accd8c","ios":"levelo://app?vid=46a3e2c1-f297-4f25-9c99-f961a1accd8c"},"vehicle_type_id":"4","last_reported":1747336094,"current_range_meters":14000,"station_id":"","pricing_plan_id":"cebpf4jnsgd1na2vs0mg"},{"bike_id":"1cd4a1da-0805-44c0-8046-f15ab91b4b4c","system_id":"levelo_inurba_marseille","lat":43.2844,"lon":5.39183,"is_reserved":false,"is_disabled":false,"rental_uris":{"android":"levelo://app?vid=1cd4a1da-0805-44c0-8046-f15ab91b4b4c","ios":"levelo://app?vid=1cd4a1da-0805-44c0-8046-f15ab91b4b4c"},"vehicle_type_id":"4","last_reported":1747336094,"current_range_meters":14000,"station_id":"ce4bhoh2rcd13ifvqh5g","pricing_plan_id":"cebpf4jnsgd1na2vs0mg"},{"bike_id":"c84a0417-89cc-4faa-9354-122740b51444","system_id":"levelo_inurba_marseille","lat":43.281,"lon":5.37843,"is_reserved":false,"is_disabled":false,"rental_uris":{"android":"levelo://app?vid=c84a0417-89cc-4faa-9354-122740b51444","ios":"levelo://app?vid=c84a0417-89cc-4faa-9354-122740b51444"},"vehicle_type_id":"4","last_reported":1747336094,"current_range_meters":14000,"station_id":"ce4bha12rcd13ifvqee0","pricing_plan_id":"cebpf4jnsgd1na2vs0mg"},{"bike_id":"f5469fb4-3df6-436c-8087-71d9bfcb234d","system_id":"levelo_inurba_marseille","lat":43.30269,"lon":5.37721,"is_reserved":false,"is_disabled":false,"rental_uris":{"android":"levelo://app?vid=f5469fb4-3df6-436c-8087-71d9bfcb234d","ios":"levelo://app?vid=f5469fb4-3df6-436c-8087-71d9bfcb234d"},"vehicle_type_id":"4","last_reported":1747336094,"current_range_meters":14000,"station_id":"ce4bguh2rcd13ifvqcj0","pricing_plan_id":"cebpf4jnsgd1na2vs0mg"},{"bike_id":"a43cf1a0-ec72-43ee-a8b4-d67093b271a7","system_id":"levelo_inurba_marseille","lat":43.30275,"lon":5.3772,"is_reserved":false,"is_disabled":false,"rental_uris":{"android":"levelo://app?vid=a43cf1a0-ec72-43ee-a8b4-d67093b271a7","ios":"levelo://app?vid=a43cf1a0-ec72-43ee-a8b4-d67093b271a7"},"vehicle_type_id":"4","last_reported":1747336094,"current_range_meters":14000,"station_id":"ce4bguh2rcd13ifvqcj0","pricing_plan_id":"cebpf4jnsgd1na2vs0mg"},{"bike_id":"ceb44c13-74ae-446d-a5f8-e6370804832f","system_id":"levelo_inurba_marseille","lat":43.28937,"lon":5.36628,"is_reserved":false,"is_disabled":false,"rental_uris":{"android":"levelo://app?vid=ceb44c13-74ae-446d-a5f8-e6370804832f","ios":"levelo://app?vid=ceb44c13-74ae-446d-a5f8-e6370804832f"},"vehicle_type_id":"4","last_reported":1747336094,"current_range_meters":14000,"station_id":"ce4bhap2rcd13ifvqek0","pricing_plan_id":"cebpf4jnsgd1na2vs0mg"},{"bike_id":"7e2a97e4-053d-4148-a2d1-e3042ac29dc4","system_id":"levelo_inurba_marseille","lat":43.26776,"lon":5.39419,"is_reserved":false,"is_disabled":false,"rental_uris":{"android":"levelo://app?vid=7e2a97e4-053d-4148-a2d1-e3042ac29dc4","ios":"levelo://app?vid=7e2a97e4-053d-4148-a2d1-e3042ac29dc4"},"vehicle_type_id":"4","last_reported":1747336094,"current_range_meters":14000,"station_id":"ce4bhh12rcd13ifvqfg0","pricing_plan_id":"cebpf4jnsgd1na2vs0mg"},{"bike_id":"b61f6143-1801-4b56-9795-982d60ce5554","system_id":"levelo_inurba_marseille","lat":43.30904,"lon":5.36843,"is_reserved":false,"is_disabled":false,"rental_uris":{"android":"levelo://app?vid=b61f6143-1801-4b56-9795-982d60ce5554","ios":"levelo://app?vid=b61f6143-1801-4b56-9795-982d60ce5554"},"vehicle_type_id":"4","last_reported":1747336094,"current_range_meters":14400,"station_id":"","pricing_plan_id":"cebpf4jnsgd1na2vs0mg"},{"bike_id":"607fc069-8e47-49ca-b2a9-50fcbc97e58e","system_id":"levelo_inurba_marseille","lat":43.2836,"lon":5.38633,"is_reserved":false,"is_disabled":false,"rental_uris":{"android":"levelo://app?vid=607fc069-8e47-49ca-b2a9-50fcbc97e58e","ios":"levelo://app?vid=607fc069-8e47-49ca-b2a9-50fcbc97e58e"},"vehicle_type_id":"4","last_reported":1747336094,"current_range_meters":14400,"station_id":"ce4bh492rcd13ifvqdvg","pricing_plan_id":"cebpf4jnsgd1na2vs0mg"},{"bike_id":"f86bff49-f428-42a7-96af-ace44757dd4a","system_id":"levelo_inurba_marseille","lat":43.33773,"lon":5.37461,"is_reserved":false,"is_disabled":false,"rental_uris":{"android":"levelo://app?vid=f86bff49-f428-42a7-96af-ace44757dd4a","ios":"levelo://app?vid=f86bff49-f428-42a7-96af-ace44757dd4a"},"vehicle_type_id":"4","last_reported":1747336094,"current_range_meters":14400,"station_id":"","pricing_plan_id":"cebpf4jnsgd1na2vs0mg"},{"bike_id":"0994b457-8ae9-42d0-9677-bcee432c2d95","system_id":"levelo_inurba_marseille","lat":43.27496,"lon":5.42446,"is_reserved":false,"is_disabled":false,"rental_uris":{"android":"levelo://app?vid=0994b457-8ae9-42d0-9677-bcee432c2d95","ios":"levelo://app?vid=0994b457-8ae9-42d0-9677-bcee432c2d95"},"vehicle_type_id":"4","last_reported":1747336094,"current_range_meters":14800,"station_id":"ce4bhn92rcd13ifvqgrg","pricing_plan_id":"cebpf4jnsgd1na2vs0mg"},{"bike_id":"3dbc6791-df37-4975-92ae-0908961e5cdf","system_id":"levelo_inurba_marseille","lat":43.29419,"lon":5.38627,"is_reserved":false,"is_disabled":false,"rental_uris":{"android":"levelo://app?vid=3dbc6791-df37-4975-92ae-0908961e5cdf","ios":"levelo://app?vid=3dbc6791-df37-4975-92ae-0908961e5cdf"},"vehicle_type_id":"4","last_reported":1747336094,"current_range_meters":14800,"station_id":"ce4bh2h2rcd13ifvqdh0","pricing_plan_id":"cebpf4jnsgd1na2vs0mg"},{"bike_id":"2281a678-794d-4c3a-b223-cba8714e3a31","system_id":"levelo_inurba_marseille","lat":43.27815,"lon":5.40717,"is_reserved":false,"is_disabled":false,"rental_uris":{"android":"levelo://app?vid=2281a678-794d-4c3a-b223-cba8714e3a31","ios":"levelo://app?vid=2281a678-794d-4c3a-b223-cba8714e3a31"},"vehicle_type_id":"4","last_reported":1747336094,"current_range_meters":15200,"station_id":"ce4bhnh2rcd13ifvqgtg","pricing_plan_id":"cebpf4jnsgd1na2vs0mg"},{"bike_id":"b2944b7d-4b6f-4377-a86f-f09c653ab28a","system_id":"levelo_inurba_marseille","lat":43.2953,"lon":5.39028,"is_reserved":false,"is_disabled":false,"rental_uris":{"android":"levelo://app?vid=b2944b7d-4b6f-4377-a86f-f09c653ab28a","ios":"levelo://app?vid=b2944b7d-4b6f-4377-a86f-f09c653ab28a"},"vehicle_type_id":"4","last_reported":1747336094,"current_range_meters":15200,"station_id":"ce4bh3p2rcd13ifvqdp0","pricing_plan_id":"cebpf4jnsgd1na2vs0mg"},{"bike_id":"2dbe5eb8-2d00-4cce-b8a4-cfda9ed5138f","system_id":"levelo_inurba_marseille","lat":43.29909,"lon":5.38133,"is_reserved":false,"is_disabled":false,"rental_uris":{"android":"levelo://app?vid=2dbe5eb8-2d00-4cce-b8a4-cfda9ed5138f","ios":"levelo://app?vid=2dbe5eb8-2d00-4cce-b8a4-cfda9ed5138f"},"vehicle_type_id":"4","last_reported":1747336094,"current_range_meters":15200,"station_id":"ce4bgj12rcd13ifvqbc0","pricing_plan_id":"cebpf4jnsgd1na2vs0mg"},{"bike_id":"618bdd4b-9753-438b-96a0-52507d58c812","system_id":"levelo_inurba_marseille","lat":43.29299,"lon":5.37145,"is_reserved":false,"is_disabled":false,"rental_uris":{"android":"levelo://app?vid=618bdd4b-9753-438b-96a0-52507d58c812","ios":"levelo://app?vid=618bdd4b-9753-438b-96a0-52507d58c812"},"vehicle_type_id":"4","last_reported":1747336094,"current_range_meters":15200,"station_id":"ce4bgh92rcd13ifvqb40","pricing_plan_id":"cebpf4jnsgd1na2vs0mg"},{"bike_id":"85bbcd8a-51e5-48d6-81c8-1992ee7d7c84","system_id":"levelo_inurba_marseille","lat":43.21753,"lon":5.34603,"is_reserved":false,"is_disabled":false,"rental_uris":{"android":"levelo://app?vid=85bbcd8a-51e5-48d6-81c8-1992ee7d7c84","ios":"levelo://app?vid=85bbcd8a-51e5-48d6-81c8-1992ee7d7c84"},"vehicle_type_id":"4","last_reported":1747336094,"current_range_meters":16000,"station_id":"st_cvj6r9ubvosntc0bgbag","pricing_plan_id":"cebpf4jnsgd1na2vs0mg"},{"bike_id":"48369fd2-3d84-4c76-a7f2-8984e096af8d","system_id":"levelo_inurba_marseille","lat":43.29266,"lon":5.38423,"is_reserved":false,"is_disabled":false,"rental_uris":{"android":"levelo://app?vid=48369fd2-3d84-4c76-a7f2-8984e096af8d","ios":"levelo://app?vid=48369fd2-3d84-4c76-a7f2-8984e096af8d"},"vehicle_type_id":"4","last_reported":1747336094,"current_range_meters":16000,"station_id":"ce4bh692rcd13ifvqea0","pricing_plan_id":"cebpf4jnsgd1na2vs0mg"},{"bike_id":"6d886103-344e-431a-ac80-7f62879d2f7c","system_id":"levelo_inurba_marseille","lat":43.22938,"lon":5.35394,"is_reserved":false,"is_disabled":false,"rental_uris":{"android":"levelo://app?vid=6d886103-344e-431a-ac80-7f62879d2f7c","ios":"levelo://app?vid=6d886103-344e-431a-ac80-7f62879d2f7c"},"vehicle_type_id":"4","last_reported":1747336094,"current_range_meters":16000,"station_id":"cpo3532slgdg3j2ikp40","pricing_plan_id":"cebpf4jnsgd1na2vs0mg"},{"bike_id":"950e501a-c977-4a8a-8ab9-3cf42ae8c33f","system_id":"levelo_inurba_marseille","lat":43.27906,"lon":5.38006,"is_reserved":false,"is_disabled":false,"rental_uris":{"android":"levelo://app?vid=950e501a-c977-4a8a-8ab9-3cf42ae8c33f","ios":"levelo://app?vid=950e501a-c977-4a8a-8ab9-3cf42ae8c33f"},"vehicle_type_id":"4","last_reported":1747336094,"current_range_meters":16000,"station_id":"ce4bhf92rcd13ifvqf50","pricing_plan_id":"cebpf4jnsgd1na2vs0mg"},{"bike_id":"540af681-cd16-436d-b25d-6439867dee89","system_id":"levelo_inurba_marseille","lat":43.29209,"lon":5.39312,"is_reserved":false,"is_disabled":false,"rental_uris":{"android":"levelo://app?vid=540af681-cd16-436d-b25d-6439867dee89","ios":"levelo://app?vid=540af681-cd16-436d-b25d-6439867dee89"},"vehicle_type_id":"4","last_reported":1747336094,"current_range_meters":16000,"station_id":"ce4bh192rcd13ifvqdd0","pricing_plan_id":"cebpf4jnsgd1na2vs0mg"},{"bike_id":"24e1be49-d8a1-4f9b-a764-9f6d987e16d4","system_id":"levelo_inurba_marseille","lat":43.32658,"lon":5.40999,"is_reserved":false,"is_disabled":false,"rental_uris":{"android":"levelo://app?vid=24e1be49-d8a1-4f9b-a764-9f6d987e16d4","ios":"levelo://app?vid=24e1be49-d8a1-4f9b-a764-9f6d987e16d4"},"vehicle_type_id":"4","last_reported":1747336094,"current_range_meters":16000,"station_id":"ce4bhpp2rcd13ifvqhgg","pricing_plan_id":"cebpf4jnsgd1na2vs0mg"},{"bike_id":"0616fca5-17bc-40fd-90cd-c6fb1d29640d","system_id":"levelo_inurba_marseille","lat":43.28974,"lon":5.37843,"is_reserved":false,"is_disabled":true,"rental_uris":{"android":"levelo://app?vid=0616fca5-17bc-40fd-90cd-c6fb1d29640d","ios":"levelo://app?vid=0616fca5-17bc-40fd-90cd-c6fb1d29640d"},"vehicle_type_id":"4","last_reported":1747336094,"current_range_meters":16000,"station_id":"ce4bh9p2rcd13ifvqed0","pricing_plan_id":"cebpf4jnsgd1na2vs0mg"},{"bike_id":"964a307b-da46-48fe-85c6-fcdcd13bb10c","system_id":"levelo_inurba_marseille","lat":43.24546,"lon":5.39517,"is_reserved":false,"is_disabled":false,"rental_uris":{"android":"levelo://app?vid=964a307b-da46-48fe-85c6-fcdcd13bb10c","ios":"levelo://app?vid=964a307b-da46-48fe-85c6-fcdcd13bb10c"},"vehicle_type_id":"4","last_reported":1747336094,"current_range_meters":16000,"station_id":"ce4bhlp2rcd13ifvqgjg","pricing_plan_id":"cebpf4jnsgd1na2vs0mg"},{"bike_id":"846f3563-8a21-42cb-9e15-dea0c632edda","system_id":"levelo_inurba_marseille","lat":43.29539,"lon":5.3903,"is_reserved":false,"is_disabled":false,"rental_uris":{"android":"levelo://app?vid=846f3563-8a21-42cb-9e15-dea0c632edda","ios":"levelo://app?vid=846f3563-8a21-42cb-9e15-dea0c632edda"},"vehicle_type_id":"4","last_reported":1747336094,"current_range_meters":16400,"station_id":"ce4bh3p2rcd13ifvqdp0","pricing_plan_id":"cebpf4jnsgd1na2vs0mg"},{"bike_id":"9113989b-2472-4e73-a8b4-c5569cab11e4","system_id":"levelo_inurba_marseille","lat":43.23963,"lon":5.36632,"is_reserved":false,"is_disabled":false,"rental_uris":{"android":"levelo://app?vid=9113989b-2472-4e73-a8b4-c5569cab11e4","ios":"levelo://app?vid=9113989b-2472-4e73-a8b4-c5569cab11e4"},"vehicle_type_id":"4","last_reported":1747336094,"current_range_meters":16400,"station_id":"ce4bhi12rcd13ifvqfp0","pricing_plan_id":"cebpf4jnsgd1na2vs0mg"},{"bike_id":"fba0b25e-6de5-4566-8ae8-2d17f152ca15","system_id":"levelo_inurba_marseille","lat":43.29092,"lon":5.38159,"is_reserved":false,"is_disabled":true,"rental_uris":{"android":"levelo://app?vid=fba0b25e-6de5-4566-8ae8-2d17f152ca15","ios":"levelo://app?vid=fba0b25e-6de5-4566-8ae8-2d17f152ca15"},"vehicle_type_id":"4","last_reported":1747336094,"current_range_meters":16400,"station_id":"ce4bh512rcd13ifvqe2g","pricing_plan_id":"cebpf4jnsgd1na2vs0mg"},{"bike_id":"27020e2b-7f98-455e-a9b1-830a27f23dc9","system_id":"levelo_inurba_marseille","lat":43.27917,"lon":5.39576,"is_reserved":false,"is_disabled":false,"rental_uris":{"android":"levelo://app?vid=27020e2b-7f98-455e-a9b1-830a27f23dc9","ios":"levelo://app?vid=27020e2b-7f98-455e-a9b1-830a27f23dc9"},"vehicle_type_id":"4","last_reported":1747336094,"current_range_meters":16400,"station_id":"ce4bhf92rcd13ifvqf40","pricing_plan_id":"cebpf4jnsgd1na2vs0mg"},{"bike_id":"9c69e55b-3827-4551-aa71-02fc928cda04","system_id":"levelo_inurba_marseille","lat":43.323674,"lon":5.388883,"is_reserved":false,"is_disabled":false,"rental_uris":{"android":"levelo://app?vid=9c69e55b-3827-4551-aa71-02fc928cda04","ios":"levelo://app?vid=9c69e55b-3827-4551-aa71-02fc928cda04"},"vehicle_type_id":"4","last_reported":1747336094,"current_range_meters":16800,"station_id":"ce4bhqp2rcd13ifvqhog","pricing_plan_id":"cebpf4jnsgd1na2vs0mg"},{"bike_id":"5bdf9427-d925-4d8e-9a13-704a331ed780","system_id":"levelo_inurba_marseille","lat":43.246068,"lon":5.395428,"is_reserved":false,"is_disabled":false,"rental_uris":{"android":"levelo://app?vid=5bdf9427-d925-4d8e-9a13-704a331ed780","ios":"levelo://app?vid=5bdf9427-d925-4d8e-9a13-704a331ed780"},