{"last_updated":1762521697,"ttl":60,"version":"2.2","data":{"bikes":[{"bike_id":"e6e9fef3-6f7b-4862-824b-9215cc16b185","system_id":"levelo_inurba_marseille","lat":43.29613,"lon":5.37708,"is_reserved":false,"is_disabled":false,"rental_uris":{"android":"levelo://app?vid=e6e9fef3-6f7b-4862-824b-9215cc16b185","ios":"levelo://app?vid=e6e9fef3-6f7b-4862-824b-9215cc16b185"},"vehicle_type_id":"4","last_reported":1762521697,"current_range_meters":2800,"station_id":"ce4bgi92rcd13ifvqb90","pricing_plan_id":"cebpf4jnsgd1na2vs0mg"},{"bike_id":"874b186c-6ec7-4094-a4dd-a249e7cc9b62","system_id":"levelo_inurba_marseille","lat":43.27731,"lon":5.42696,"is_reserved":false,"is_disabled":false,"rental_uris":{"android":"levelo://app?vid=874b186c-6ec7-4094-a4dd-a249e7cc9b62","ios":"levelo://app?vid=874b186c-6ec7-4094-a4dd-a249e7cc9b62"},"vehicle_type_id":"4","last_reported":1762521697,"current_range_meters":2800,"station_id":"","pricing_plan_id":"cebpf4jnsgd1na2vs0mg"},{"bike_id":"bc0b3be4-d5a8-4c0e-9a13-7009360b6420","system_id":"levelo_inurba_marseille","lat":43.28722,"lon":5.37941,"is_reserved":false,"is_disabled":false,"rental_uris":{"android":"levelo://app?vid=bc0b3be4-d5a8-4c0e-9a13-7009360b6420","ios":"levelo://app?vid=bc0b3be4-d5a8-4c0e-9a13-7009360b6420"},"vehicle_type_id":"4","last_reported":1762521697,"current_range_meters":2800,"station_id":"ce4bh9p2rcd13ifvqec0","pricing_plan_id":"cebpf4jnsgd1na2vs0mg"},{"bike_id":"ff667ab7-4fa8-4d49-9a7f-966c5f0c039b","system_id":"levelo_inurba_marseille","lat":43.28413,"lon":5.37522,"is_reserved":false,"is_disabled":false,"rental_uris":{"android":"levelo://app?vid=ff667ab7-4fa8-4d49-9a7f-966c5f0c039b","ios":"levelo://app?vid=ff667ab7-4fa8-4d49-9a7f-966c5f0c039b"},"vehicle_type_id":"4","last_reported":1762521697,"current_range_meters":2800,"station_id":"ce4bh412rcd13ifvqds0","pricing_plan_id":"cebpf4jnsgd1na2vs0mg"},{"bike_id":"0a9633af-8d62-496c-bb51-76e1bf4348dc","system_id":"levelo_inurba_marseille","lat":43.29593,"lon":5.38105,"is_reserved":false,"is_disabled":false,"rental_uris":{"android":"levelo://app?vid=0a9633af-8d62-496c-bb51-76e1bf4348dc","ios":"levelo://app?vid=0a9633af-8d62-496c-bb51-76e1bf4348dc"},"vehicle_type_id":"4","last_reported":1762521697,"current_range_meters":3200,"station_id":"ce4bgl12rcd13ifvqbo0","pricing_plan_id":"cebpf4jnsgd1na2vs0mg"},{"bike_id":"03d38a6c-a93a-4634-be9b-4e2dab3a5b9b","system_id":"levelo_inurba_marseille","lat":43.29709,"lon":5.37702,"is_reserved":false,"is_disabled":false,"rental_uris":{"android":"levelo://app?vid=03d38a6c-a93a-4634-be9b-4e2dab3a5b9b","ios":"levelo://app?vid=03d38a6c-a93a-4634-be9b-4e2dab3a5b9b"},"vehicle_type_id":"4","last_reported":1762521697,"current_range_meters":3200,"station_id":"ce4bgkh2rcd13ifvqbl0","pricing_plan_id":"cebpf4jnsgd1na2vs0mg"},{"bike_id":"258dfe36-0257-4954-851a-e21e90a76077","system_id":"levelo_inurba_marseille","lat":43.2511,"lon":5.40317,"is_reserved":false,"is_disabled":false,"rental_uris":{"android":"levelo://app?vid=258dfe36-0257-4954-851a-e21e90a76077","ios":"levelo://app?vid=258dfe36-0257-4954-851a-e21e90a76077"},"vehicle_type_id":"4","last_reported":1762521697,"current_range_meters":3200,"station_id":"ce4bhlh2rcd13ifvqgig","pricing_plan_id":"cebpf4jnsgd1na2vs0mg"},{"bike_id":"a2122e86-91c9-470d-9921-ccb7da7ffc5f","system_id":"levelo_inurba_marseille","lat":43.27997,"lon":5.41664,"is_reserved":false,"is_disabled":false,"rental_uris":{"android":"levelo://app?vid=a2122e86-91c9-470d-9921-ccb7da7ffc5f","ios":"levelo://app?vid=a2122e86-91c9-470d-9921-ccb7da7ffc5f"},"vehicle_type_id":"4","last_reported":1762521697,"current_range_meters":3200,"station_id":"ce4bho12rcd13ifvqh1g","pricing_plan_id":"cebpf4jnsgd1na2vs0mg"},{"bike_id":"5819084e-68c2-4eb9-95a5-7c311c7f0ff1","system_id":"levelo_inurba_marseille","lat":43.30768,"lon":5.37661,"is_reserved":false,"is_disabled":false,"rental_uris":{"android":"levelo://app?vid=5819084e-68c2-4eb9-95a5-7c311c7f0ff1","ios":"levelo://app?vid=5819084e-68c2-4eb9-95a5-7c311c7f0ff1"},"vehicle_type_id":"4","last_reported":1762521697,"current_range_meters":3600,"station_id":"ce4bgv92rcd13ifvqcq0","pricing_plan_id":"cebpf4jnsgd1na2vs0mg"},{"bike_id":"571bd3a6-912b-44a3-9841-50c558a61481","system_id":"levelo_inurba_marseille","lat":43.28092,"lon":5.4057,"is_reserved":false,"is_disabled":false,"rental_uris":{"android":"levelo://app?vid=571bd3a6-912b-44a3-9841-50c558a61481","ios":"levelo://app?vid=571bd3a6-912b-44a3-9841-50c558a61481"},"vehicle_type_id":"4","last_reported":1762521697,"current_range_meters":3600,"station_id":"","pricing_plan_id":"cebpf4jnsgd1na2vs0mg"},{"bike_id":"4f748541-eb18-4c1f-aec7-86e6418235bc","system_id":"levelo_inurba_marseille","lat":43.28401,"lon":5.3751,"is_reserved":false,"is_disabled":false,"rental_uris":{"android":"levelo://app?vid=4f748541-eb18-4c1f-aec7-86e6418235bc","ios":"levelo://app?vid=4f748541-eb18-4c1f-aec7-86e6418235bc"},"vehicle_type_id":"4","last_reported":1762521697,"current_range_meters":3600,"station_id":"ce4bh412rcd13ifvqds0","pricing_plan_id":"cebpf4jnsgd1na2vs0mg"},{"bike_id":"6f6b566c-5dd0-4cfa-80bc-8bc5c9c87a57","system_id":"levelo_inurba_marseille","lat":43.26496,"lon":5.39543,"is_reserved":false,"is_disabled":false,"rental_uris":{"android":"levelo://app?vid=6f6b566c-5dd0-4cfa-80bc-8bc5c9c87a57","ios":"levelo://app?vid=6f6b566c-5dd0-4cfa-80bc-8bc5c9c87a57"},"vehicle_type_id":"4","last_reported":1762521697,"current_range_meters":3600,"station_id":"ce4bhi12rcd13ifvqfq0","pricing_plan_id":"cebpf4jnsgd1na2vs0mg"},{"bike_id":"a0986b7e-5cfa-426f-8c69-c9c870aeebd6","system_id":"levelo_inurba_marseille","lat":43.30253,"lon":5.40076,"is_reserved":false,"is_disabled":false,"rental_uris":{"android":"levelo://app?vid=a0986b7e-5cfa-426f-8c69-c9c870aeebd6","ios":"levelo://app?vid=a0986b7e-5cfa-426f-8c69-c9c870aeebd6"},"vehicle_type_id":"4","last_reported":1762521697,"current_range_meters":4000,"station_id":"ce4bgvh2rcd13ifvqcs0","pricing_plan_id":"cebpf4jnsgd1na2vs0mg"},{"bike_id":"28acdc45-59c8-465c-9610-94ab4c3c61c9","system_id":"levelo_inurba_marseille","lat":43.284723,"lon":5.484027,"is_reserved":false,"is_disabled":false,"rental_uris":{"android":"levelo://app?vid=28acdc45-59c8-465c-9610-94ab4c3c61c9","ios":"levelo://app?vid=28acdc45-59c8-465c-9610-94ab4c3c61c9"},"vehicle_type_id":"4","last_reported":1762521697,"current_range_meters":4000,"station_id":"st_d3svhcjqgbts73a3dn0g","pricing_plan_id":"cebpf4jnsgd1na2vs0mg"},{"bike_id":"46ea1783-79a5-4ee9-b0e7-3de645166e70","system_id":"levelo_inurba_marseille","lat":43.22565,"lon":5.41643,"is_reserved":false,"is_disabled":false,"rental_uris":{"android":"levelo://app?vid=46ea1783-79a5-4ee9-b0e7-3de645166e70","ios":"levelo://app?vid=46ea1783-79a5-4ee9-b0e7-3de645166e70"},"vehicle_type_id":"4","last_reported":1762521697,"current_range_meters":4000,"station_id":"st_d2o4gvlbi1j2169b742g","pricing_plan_id":"cebpf4jnsgd1na2vs0mg"},{"bike_id":"4843ec3f-019f-47e6-b8d2-139dad4df1bc","system_id":"levelo_inurba_marseille","lat":43.30148,"lon":5.38082,"is_reserved":false,"is_disabled":false,"rental_uris":{"android":"levelo://app?vid=4843ec3f-019f-47e6-b8d2-139dad4df1bc","ios":"levelo://app?vid=4843ec3f-019f-47e6-b8d2-139dad4df1bc"},"vehicle_type_id":"4","last_reported":1762521697,"current_range_meters":4000,"station_id":"ce4bgjp2rcd13ifvqbh0","pricing_plan_id":"cebpf4jnsgd1na2vs0mg"},{"bike_id":"b7fadd0f-8eee-409f-8c17-c8bea261ac4c","system_id":"levelo_inurba_marseille","lat":43.28426,"lon":5.34985,"is_reserved":false,"is_disabled":false,"rental_uris":{"android":"levelo://app?vid=b7fadd0f-8eee-409f-8c17-c8bea261ac4c","ios":"levelo://app?vid=b7fadd0f-8eee-409f-8c17-c8bea261ac4c"},"vehicle_type_id":"4","last_reported":1762521697,"current_range_meters":4400,"station_id":"ce4bhbh2rcd13ifvqepg","pricing_plan_id":"cebpf4jnsgd1na2vs0mg"},{"bike_id":"0b8e47b9-adbb-4e15-8949-2703ff621987","system_id":"levelo_inurba_marseille","lat":43.289767,"lon":5.378396,"is_reserved":false,"is_disabled":true,"rental_uris":{"android":"levelo://app?vid=0b8e47b9-adbb-4e15-8949-2703ff621987","ios":"levelo://app?vid=0b8e47b9-adbb-4e15-8949-2703ff621987"},"vehicle_type_id":"4","last_reported":1762521697,"current_range_meters":4400,"station_id":"ce4bh9p2rcd13ifvqed0","pricing_plan_id":"cebpf4jnsgd1na2vs0mg"},{"bike_id":"d3a8c452-bd73-4909-9cfe-f1c0285f3d0c","system_id":"levelo_inurba_marseille","lat":43.28484,"lon":5.48411,"is_reserved":false,"is_disabled":false,"rental_uris":{"android":"levelo://app?vid=d3a8c452-bd73-4909-9cfe-f1c0285f3d0c","ios":"levelo://app?vid=d3a8c452-bd73-4909-9cfe-f1c0285f3d0c"},"vehicle_type_id":"4","last_reported":1762521697,"current_range_meters":4800,"station_id":"","pricing_plan_id":"cebpf4jnsgd1na2vs0mg"},{"bike_id":"b9469b2e-3c10-4f41-8f69-4babf4ac2b3a","system_id":"levelo_inurba_marseille","lat":43.30422,"lon":5.38895,"is_reserved":false,"is_disabled":false,"rental_uris":{"android":"levelo://app?vid=b9469b2e-3c10-4f41-8f69-4babf4ac2b3a","ios":"levelo://app?vid=b9469b2e-3c10-4f41-8f69-4babf4ac2b3a"},"vehicle_type_id":"4","last_reported":1762521697,"current_range_meters":5600,"station_id":"ce4bgk12rcd13ifvqbi0","pricing_plan_id":"cebpf4jnsgd1na2vs0mg"},{"bike_id":"c39f2984-7da0-4cd3-a70c-f8f2bd6e6afe","system_id":"levelo_inurba_marseille","lat":43.280329,"lon":5.369542,"is_reserved":false,"is_disabled":false,"rental_uris":{"android":"levelo://app?vid=c39f2984-7da0-4cd3-a70c-f8f2bd6e6afe","ios":"levelo://app?vid=c39f2984-7da0-4cd3-a70c-f8f2bd6e6afe"},"vehicle_type_id":"4","last_reported":1762521697,"current_range_meters":5600,"station_id":"ce4bha12rcd13ifvqef0","pricing_plan_id":"cebpf4jnsgd1na2vs0mg"},{"bike_id":"00065666-b382-40c8-87f2-d52ded706b03","system_id":"levelo_inurba_marseille","lat":43.3018,"lon":5.39208,"is_reserved":false,"is_disabled":false,"rental_uris":{"android":"levelo://app?vid=00065666-b382-40c8-87f2-d52ded706b03","ios":"levelo://app?vid=00065666-b382-40c8-87f2-d52ded706b03"},"vehicle_type_id":"4","last_reported":1762521697,"current_range_meters":6000,"station_id":"","pricing_plan_id":"cebpf4jnsgd1na2vs0mg"},{"bike_id":"b7bacdc8-fe24-419d-a1a7-194cc9df7143","system_id":"levelo_inurba_marseille","lat":43.24996,"lon":5.38933,"is_reserved":false,"is_disabled":false,"rental_uris":{"android":"levelo://app?vid=b7bacdc8-fe24-419d-a1a7-194cc9df7143","ios":"levelo://app?vid=b7bacdc8-fe24-419d-a1a7-194cc9df7143"},"vehicle_type_id":"4","last_reported":1762521697,"current_range_meters":6000,"station_id":"ce4bhgp2rcd13ifvqfd0","pricing_plan_id":"cebpf4jnsgd1na2vs0mg"},{"bike_id":"af255bfe-60d5-4cf4-8358-3b1e9dbf248c","system_id":"levelo_inurba_marseille","lat":43.28851,"lon":5.35867,"is_reserved":false,"is_disabled":false,"rental_uris":{"android":"levelo://app?vid=af255bfe-60d5-4cf4-8358-3b1e9dbf248c","ios":"levelo://app?vid=af255bfe-60d5-4cf4-8358-3b1e9dbf248c"},"vehicle_type_id":"4","last_reported":1762521697,"current_range_meters":6000,"station_id":"ce4bhb12rcd13ifvqem0","pricing_plan_id":"cebpf4jnsgd1na2vs0mg"},{"bike_id":"ece050db-7adf-43c9-9ed5-8f474b14b8a8","system_id":"levelo_inurba_marseille","lat":43.2655,"lon":5.37296,"is_reserved":false,"is_disabled":false,"rental_uris":{"android":"levelo://app?vid=ece050db-7adf-43c9-9ed5-8f474b14b8a8","ios":"levelo://app?vid=ece050db-7adf-43c9-9ed5-8f474b14b8a8"},"vehicle_type_id":"4","last_reported":1762521697,"current_range_meters":6000,"station_id":"ce4bhg12rcd13ifvqf70","pricing_plan_id":"cebpf4jnsgd1na2vs0mg"},{"bike_id":"aeebc136-8da5-42f8-adb5-e925adf89390","system_id":"levelo_inurba_marseille","lat":43.31686,"lon":5.40478,"is_reserved":false,"is_disabled":false,"rental_uris":{"android":"levelo://app?vid=aeebc136-8da5-42f8-adb5-e925adf89390","ios":"levelo://app?vid=aeebc136-8da5-42f8-adb5-e925adf89390"},"vehicle_type_id":"4","last_reported":1762521697,"current_range_meters":6000,"station_id":"ce4bh012rcd13ifvqd00","pricing_plan_id":"cebpf4jnsgd1na2vs0mg"},{"bike_id":"3e48eaa2-b7e3-402c-80c5-9c80949b6305","system_id":"levelo_inurba_marseille","lat":43.31887,"lon":5.4073,"is_reserved":false,"is_disabled":false,"rental_uris":{"android":"levelo://app?vid=3e48eaa2-b7e3-402c-80c5-9c80949b6305","ios":"levelo://app?vid=3e48eaa2-b7e3-402c-80c5-9c80949b6305"},"vehicle_type_id":"4","last_reported":1762521697,"current_range_meters":6400,"station_id":"ce4bhq12rcd13ifvqhig","pricing_plan_id":"cebpf4jnsgd1na2vs0mg"},{"bike_id":"b07cc8c7-2443-4003-ab4d-c6e5ffa3a055","system_id":"levelo_inurba_marseille","lat":43.26784,"lon":5.39428,"is_reserved":false,"is_disabled":false,"rental_uris":{"android":"levelo://app?vid=b07cc8c7-2443-4003-ab4d-c6e5ffa3a055","ios":"levelo://app?vid=b07cc8c7-2443-4003-ab4d-c6e5ffa3a055"},"vehicle_type_id":"4","last_reported":1762521697,"current_range_meters":6400,"station_id":"ce4bhh12rcd13ifvqfg0","pricing_plan_id":"cebpf4jnsgd1na2vs0mg"},{"bike_id":"aeef36c3-4fc9-4d7f-ad59-b016d63a2a2e","system_id":"levelo_inurba_marseille","lat":43.337444,"lon":5.374475,"is_reserved":false,"is_disabled":false,"rental_uris":{"android":"levelo://app?vid=aeef36c3-4fc9-4d7f-ad59-b016d63a2a2e","ios":"levelo://app?vid=aeef36c3-4fc9-4d7f-ad59-b016d63a2a2e"},"vehicle_type_id":"4","last_reported":1762521697,"current_range_meters":6400,"station_id":"ce4bgqh2rcd13ifvqc5g","pricing_plan_id":"cebpf4jnsgd1na2vs0mg"},{"bike_id":"fc8334d2-8cc7-48bf-93cc-8304409e8292","system_id":"levelo_inurba_marseille","lat":43.21752,"lon":5.346,"is_reserved":false,"is_disabled":false,"rental_uris":{"android":"levelo://app?vid=fc8334d2-8cc7-48bf-93cc-8304409e8292","ios":"levelo://app?vid=fc8334d2-8cc7-48bf-93cc-8304409e8292"},"vehicle_type_id":"4","last_reported":1762521697,"current_range_meters":6400,"station_id":"","pricing_plan_id":"cebpf4jnsgd1na2vs0mg"},{"bike_id":"64a7e14c-46d0-4d8c-91f0-19fb7c8ad288","system_id":"levelo_inurba_marseille","lat":43.303217,"lon":5.369007,"is_reserved":false,"is_disabled":true,"rental_uris":{"android":"levelo://app?vid=64a7e14c-46d0-4d8c-91f0-19fb7c8ad288","ios":"levelo://app?vid=64a7e14c-46d0-4d8c-91f0-19fb7c8ad288"},"vehicle_type_id":"4","last_reported":1762521697,"current_range_meters":6800,"station_id":"","pricing_plan_id":"cebpf4jnsgd1na2vs0mg"},{"bike_id":"6e9601c8-3a9b-4c4f-8a50-e778f7d9a229","system_id":"levelo_inurba_marseille","lat":43.299348,"lon":5.365413,"is_reserved":false,"is_disabled":false,"rental_uris":{"android":"levelo://app?vid=6e9601c8-3a9b-4c4f-8a50-e778f7d9a229","ios":"levelo://app?vid=6e9601c8-3a9b-4c4f-8a50-e778f7d9a229"},"vehicle_type_id":"4","last_reported":1762521697,"current_range_meters":6800,"station_id":"ce4bgm92rcd13ifvqbr0","pricing_plan_id":"cebpf4jnsgd1na2vs0mg"},{"bike_id":"cf141db4-bbc8-48d9-9864-385cedc76b99","system_id":"levelo_inurba_marseille","lat":43.26224,"lon":5.40453,"is_reserved":false,"is_disabled":false,"rental_uris":{"android":"levelo://app?vid=cf141db4-bbc8-48d9-9864-385cedc76b99","ios":"levelo://app?vid=cf141db4-bbc8-48d9-9864-385cedc76b99"},"vehicle_type_id":"4","last_reported":1762521697,"current_range_meters":6800,"station_id":"ce4bhmh2rcd13ifvqgmg","pricing_plan_id":"cebpf4jnsgd1na2vs0mg"},{"bike_id":"faf02dba-a063-4be7-b738-20d510b602ef","system_id":"levelo_inurba_marseille","lat":43.298177,"lon":5.382928,"is_reserved":false,"is_disabled":false,"rental_uris":{"android":"levelo://app?vid=faf02dba-a063-4be7-b738-20d510b602ef","ios":"levelo://app?vid=faf02dba-a063-4be7-b738-20d510b602ef"},"vehicle_type_id":"4","last_reported":1762521697,"current_range_meters":6800,"station_id":"","pricing_plan_id":"cebpf4jnsgd1na2vs0mg"},{"bike_id":"71311121-3414-4a68-b95a-d7343d1d4636","system_id":"levelo_inurba_marseille","lat":43.28835,"lon":5.3933,"is_reserved":false,"is_disabled":false,"rental_uris":{"android":"levelo://app?vid=71311121-3414-4a68-b95a-d7343d1d4636","ios":"levelo://app?vid=71311121-3414-4a68-b95a-d7343d1d4636"},"vehicle_type_id":"4","last_reported":1762521697,"current_range_meters":6800,"station_id":"ce4bh2p2rcd13ifvqdi0","pricing_plan_id":"cebpf4jnsgd1na2vs0mg"},{"bike_id":"81dcc136-dea2-46c0-98af-42dbdee92b54","system_id":"levelo_inurba_marseille","lat":43.28476,"lon":5.483875,"is_reserved":false,"is_disabled":false,"rental_uris":{"android":"levelo://app?vid=81dcc136-dea2-46c0-98af-42dbdee92b54","ios":"levelo://app?vid=81dcc136-dea2-46c0-98af-42dbdee92b54"},"vehicle_type_id":"4","last_reported":1762521697,"current_range_meters":6800,"station_id":"","pricing_plan_id":"cebpf4jnsgd1na2vs0mg"},{"bike_id":"1b672432-8b75-4031-b134-1d0f02487f86","system_id":"levelo_inurba_marseille","lat":43.28418,"lon":5.37519,"is_reserved":false,"is_disabled":false,"rental_uris":{"android":"levelo://app?vid=1b672432-8b75-4031-b134-1d0f02487f86","ios":"levelo://app?vid=1b672432-8b75-4031-b134-1d0f02487f86"},"vehicle_type_id":"4","last_reported":1762521697,"current_range_meters":7200,"station_id":"ce4bh412rcd13ifvqds0","pricing_plan_id":"cebpf4jnsgd1na2vs0mg"},{"bike_id":"aca95969-56a5-4b65-a36a-2f4e683e95bf","system_id":"levelo_inurba_marseille","lat":43.30427,"lon":5.38882,"is_reserved":false,"is_disabled":false,"rental_uris":{"android":"levelo://app?vid=aca95969-56a5-4b65-a36a-2f4e683e95bf","ios":"levelo://app?vid=aca95969-56a5-4b65-a36a-2f4e683e95bf"},"vehicle_type_id":"4","last_reported":1762521697,"current_range_meters":7200,"station_id":"ce4bgk12rcd13ifvqbi0","pricing_plan_id":"cebpf4jnsgd1na2vs0mg"},{"bike_id":"6f8be490-fbd4-4e32-be34-b25a27b465ad","system_id":"levelo_inurba_marseille","lat":43.25929,"lon":5.40908,"is_reserved":false,"is_disabled":false,"rental_uris":{"android":"levelo://app?vid=6f8be490-fbd4-4e32-be34-b25a27b465ad","ios":"levelo://app?vid=6f8be490-fbd4-4e32-be34-b25a27b465ad"},"vehicle_type_id":"4","last_reported":1762521697,"current_range_meters":7200,"station_id":"ce4bhm92rcd13ifvqglg","pricing_plan_id":"cebpf4jnsgd1na2vs0mg"},{"bike_id":"0a5aca4d-957d-4d2e-88d6-a7508d323c3a","system_id":"levelo_inurba_marseille","lat":43.28223,"lon":5.39074,"is_reserved":false,"is_disabled":false,"rental_uris":{"android":"levelo://app?vid=0a5aca4d-957d-4d2e-88d6-a7508d323c3a","ios":"levelo://app?vid=0a5aca4d-957d-4d2e-88d6-a7508d323c3a"},"vehicle_type_id":"4","last_reported":1762521697,"current_range_meters":7200,"station_id":"ce4bhn92rcd13ifvqgsg","pricing_plan_id":"cebpf4jnsgd1na2vs0mg"},{"bike_id":"78a2ab8f-4f7c-4ddc-9701-1001c917a1ce","system_id":"levelo_inurba_marseille","lat":43.29658,"lon":5.42483,"is_reserved":false,"is_disabled":true,"rental_uris":{"android":"levelo://app?vid=78a2ab8f-4f7c-4ddc-9701-1001c917a1ce","ios":"levelo://app?vid=78a2ab8f-4f7c-4ddc-9701-1001c917a1ce"},"vehicle_type_id":"4","last_reported":1762521697,"current_range_meters":7200,"station_id":"","pricing_plan_id":"cebpf4jnsgd1na2vs0mg"},{"bike_id":"f3eadd45-5b60-4c17-bbc4-678d1d3be3f0","system_id":"levelo_inurba_marseille","lat":43.3019,"lon":5.36609,"is_reserved":false,"is_disabled":false,"rental_uris":{"android":"levelo://app?vid=f3eadd45-5b60-4c17-bbc4-678d1d3be3f0","ios":"levelo://app?vid=f3eadd45-5b60-4c17-bbc4-678d1d3be3f0"},"vehicle_type_id":"4","last_reported":1762521697,"current_range_meters":7200,"station_id":"ce4bgrh2rcd13ifvqc8g","pricing_plan_id":"cebpf4jnsgd1na2vs0mg"},{"bike_id":"21c102e1-18fd-47e1-9fce-e85741de7326","system_id":"levelo_inurba_marseille","lat":43.31223,"lon":5.36867,"is_reserved":false,"is_disabled":false,"rental_uris":{"android":"levelo://app?vid=21c102e1-18fd-47e1-9fce-e85741de7326","ios":"levelo://app?vid=21c102e1-18fd-47e1-9fce-e85741de7326"},"vehicle_type_id":"4","last_reported":1762521697,"current_range_meters":7200,"station_id":"ce4bgl92rcd13ifvqbq0","pricing_plan_id":"cebpf4jnsgd1na2vs0mg"},{"bike_id":"f8fd6d69-23e2-4808-9815-5680c0ea9021","system_id":"levelo_inurba_marseille","lat":43.29299,"lon":5.37162,"is_reserved":false,"is_disabled":false,"rental_uris":{"android":"levelo://app?vid=f8fd6d69-23e2-4808-9815-5680c0ea9021","ios":"levelo://app?vid=f8fd6d69-23e2-4808-9815-5680c0ea9021"},"vehicle_type_id":"4","last_reported":1762521697,"current_range_meters":8000,"station_id":"ce4bgh92rcd13ifvqb40","pricing_plan_id":"cebpf4jnsgd1na2vs0mg"},{"bike_id":"524ec682-9eda-4766-ab30-300116a67d10","system_id":"levelo_inurba_marseille","lat":43.30457,"lon":5.37492,"is_reserved":false,"is_disabled":false,"rental_uris":{"android":"levelo://app?vid=524ec682-9eda-4766-ab30-300116a67d10","ios":"levelo://app?vid=524ec682-9eda-4766-ab30-300116a67d10"},"vehicle_type_id":"4","last_reported":1762521697,"current_range_meters":8000,"station_id":"","pricing_plan_id":"cebpf4jnsgd1na2vs0mg"},{"bike_id":"274e83ec-10c4-4267-8ca5-75bcaee1f866","system_id":"levelo_inurba_marseille","lat":43.29796,"lon":5.38096,"is_reserved":false,"is_disabled":false,"rental_uris":{"android":"levelo://app?vid=274e83ec-10c4-4267-8ca5-75bcaee1f866","ios":"levelo://app?vid=274e83ec-10c4-4267-8ca5-75bcaee1f866"},"vehicle_type_id":"4","last_reported":1762521697,"current_range_meters":8000,"station_id":"ce4bgip2rcd13ifvqbb0","pricing_plan_id":"cebpf4jnsgd1na2vs0mg"},{"bike_id":"71967476-752a-4f5e-b222-99c0eea95f39","system_id":"levelo_inurba_marseille","lat":43.32322,"lon":5.38421,"is_reserved":false,"is_disabled":false,"rental_uris":{"android":"levelo://app?vid=71967476-752a-4f5e-b222-99c0eea95f39","ios":"levelo://app?vid=71967476-752a-4f5e-b222-99c0eea95f39"},"vehicle_type_id":"4","last_reported":1762521697,"current_range_meters":8000,"station_id":"","pricing_plan_id":"cebpf4jnsgd1na2vs0mg"},{"bike_id":"74a83f19-4620-4517-be1e-697db6f72f0b","system_id":"levelo_inurba_marseille","lat":43.32347,"lon":5.3675,"is_reserved":false,"is_disabled":false,"rental_uris":{"android":"levelo://app?vid=74a83f19-4620-4517-be1e-697db6f72f0b","ios":"levelo://app?vid=74a83f19-4620-4517-be1e-697db6f72f0b"},"vehicle_type_id":"4","last_reported":1762521697,"current_range_meters":8000,"station_id":"ce4bhsh2rcd13ifvqi2g","pricing_plan_id":"cebpf4jnsgd1na2vs0mg"},{"bike_id":"fd264b3e-de5e-46e6-8fbf-e9cac9b2053a","system_id":"levelo_inurba_marseille","lat":43.26571,"lon":5.39024,"is_reserved":false,"is_disabled":false,"rental_uris":{"android":"levelo://app?vid=fd264b3e-de5e-46e6-8fbf-e9cac9b2053a","ios":"levelo://app?vid=fd264b3e-de5e-46e6-8fbf-e9cac9b2053a"},"vehicle_type_id":"4","last_reported":1762521697,"current_range_meters":8000,"station_id":"ce4bhe12rcd13ifvqf30","pricing_plan_id":"cebpf4jnsgd1na2vs0mg"},{"bike_id":"76b2012f-0044-4f08-9472-f8cf82537b7c","system_id":"levelo_inurba_marseille","lat":43.31239,"lon":5.36887,"is_reserved":false,"is_disabled":false,"rental_uris":{"android":"levelo://app?vid=76b2012f-0044-4f08-9472-f8cf82537b7c","ios":"levelo://app?vid=76b2012f-0044-4f08-9472-f8cf82537b7c"},"vehicle_type_id":"4","last_reported":1762521697,"current_range_meters":8000,"station_id":"ce4bgl92rcd13ifvqbq0","pricing_plan_id":"cebpf4jnsgd1na2vs0mg"},{"bike_id":"b3f96f90-6ee1-40df-977b-556ba81502c8","system_id":"levelo_inurba_marseille","lat":43.28615,"lon":5.35104,"is_reserved":false,"is_disabled":false,"rental_uris":{"android":"levelo://app?vid=b3f96f90-6ee1-40df-977b-556ba81502c8","ios":"levelo://app?vid=b3f96f90-6ee1-40df-977b-556ba81502c8"},"vehicle_type_id":"4","last_reported":1762521697,"current_range_meters":8400,"station_id":"ce4bhch2rcd13ifvqeug","pricing_plan_id":"cebpf4jnsgd1na2vs0mg"},{"bike_id":"64fa8b3c-58de-44b2-8974-07fe358be2de","system_id":"levelo_inurba_marseille","lat":43.29361,"lon":5.37849,"is_reserved":false,"is_disabled":false,"rental_uris":{"android":"levelo://app?vid=64fa8b3c-58de-44b2-8974-07fe358be2de","ios":"levelo://app?vid=64fa8b3c-58de-44b2-8974-07fe358be2de"},"vehicle_type_id":"4","last_reported":1762521697,"current_range_meters":8400,"station_id":"ce4bgjh2rcd13ifvqbf0","pricing_plan_id":"cebpf4jnsgd1na2vs0mg"},{"bike_id":"b0732b62-19ca-4ec8-88e7-432d75ca293d","system_id":"levelo_inurba_marseille","lat":43.21745,"lon":5.34603,"is_reserved":false,"is_disabled":false,"rental_uris":{"android":"levelo://app?vid=b0732b62-19ca-4ec8-88e7-432d75ca293d","ios":"levelo://app?vid=b0732b62-19ca-4ec8-88e7-432d75ca293d"},"vehicle_type_id":"4","last_reported":1762521697,"current_range_meters":8400,"station_id":"","pricing_plan_id":"cebpf4jnsgd1na2vs0mg"},{"bike_id":"77807b52-a342-4413-b550-e7560c391773","system_id":"levelo_inurba_marseille","lat":43.31256,"lon":5.40147,"is_reserved":false,"is_disabled":false,"rental_uris":{"android":"levelo://app?vid=77807b52-a342-4413-b550-e7560c391773","ios":"levelo://app?vid=77807b52-a342-4413-b550-e7560c391773"},"vehicle_type_id":"4","last_reported":1762521697,"current_range_meters":8800,"station_id":"ce4bh092rcd13ifvqd30","pricing_plan_id":"cebpf4jnsgd1na2vs0mg"},{"bike_id":"59b31ef2-3fe3-46e5-b5a5-685f264695ce","system_id":"levelo_inurba_marseille","lat":43.28471,"lon":5.4841,"is_reserved":false,"is_disabled":false,"rental_uris":{"android":"levelo://app?vid=59b31ef2-3fe3-46e5-b5a5-685f264695ce","ios":"levelo://app?vid=59b31ef2-3fe3-46e5-b5a5-685f264695ce"},"vehicle_type_id":"4","last_reported":1762521697,"current_range_meters":8800,"station_id":"","pricing_plan_id":"cebpf4jnsgd1na2vs0mg"},{"bike_id":"3ffe2c7b-f27f-49bd-95c3-0ecfbf0880d2","system_id":"levelo_inurba_marseille","lat":43.307031,"lon":5.384326,"is_reserved":false,"is_disabled":false,"rental_uris":{"android":"levelo://app?vid=3ffe2c7b-f27f-49bd-95c3-0ecfbf0880d2","ios":"levelo://app?vid=3ffe2c7b-f27f-49bd-95c3-0ecfbf0880d2"},"vehicle_type_id":"4","last_reported":1762521697,"current_range_meters":8800,"station_id":"","pricing_plan_id":"cebpf4jnsgd1na2vs0mg"},{"bike_id":"aa073d3c-91f3-4920-9d1e-90bf82850b1e","system_id":"levelo_inurba_marseille","lat":43.337652,"lon":5.374393,"is_reserved":false,"is_disabled":false,"rental_uris":{"android":"levelo://app?vid=aa073d3c-91f3-4920-9d1e-90bf82850b1e","ios":"levelo://app?vid=aa073d3c-91f3-4920-9d1e-90bf82850b1e"},"vehicle_type_id":"4","last_reported":1762521697,"current_range_meters":8800,"station_id":"","pricing_plan_id":"cebpf4jnsgd1na2vs0mg"},{"bike_id":"9feacea8-ff8c-482a-92d0-0a47bf1ed3dd","system_id":"levelo_inurba_marseille","lat":43.231837,"lon":5.399916,"is_reserved":false,"is_disabled":false,"rental_uris":{"android":"levelo://app?vid=9feacea8-ff8c-482a-92d0-0a47bf1ed3dd","ios":"levelo://app?vid=9feacea8-ff8c-482a-92d0-0a47bf1ed3dd"},"vehicle_type_id":"4","last_reported":1762521697,"current_range_meters":8800,"station_id":"ce4bhn12rcd13ifvqgqg","pricing_plan_id":"cebpf4jnsgd1na2vs0mg"},{"bike_id":"51e45a32-5f29-4c01-abc4-036a99f5d83a","system_id":"levelo_inurba_marseille","lat":43.28617,"lon":5.35102,"is_reserved":false,"is_disabled":false,"rental_uris":{"android":"levelo://app?vid=51e45a32-5f29-4c01-abc4-036a99f5d83a","ios":"levelo://app?vid=51e45a32-5f29-4c01-abc4-036a99f5d83a"},"vehicle_type_id":"4","last_reported":1762521697,"current_range_meters":8800,"station_id":"ce4bhch2rcd13ifvqeug","pricing_plan_id":"cebpf4jnsgd1na2vs0mg"},{"bike_id":"ab3a4d6b-b442-44b9-8f02-c1c222f445ba","system_id":"levelo_inurba_marseille","lat":43.27435,"lon":5.39268,"is_reserved":false,"is_disabled":false,"rental_uris":{"android":"levelo://app?vid=ab3a4d6b-b442-44b9-8f02-c1c222f445ba","ios":"levelo://app?vid=ab3a4d6b-b442-44b9-8f02-c1c222f445ba"},"vehicle_type_id":"4","last_reported":1762521697,"current_range_meters":9200,"station_id":"","pricing_plan_id":"cebpf4jnsgd1na2vs0mg"},{"bike_id":"a6b5c354-bbc4-46b2-9356-4b84838966f9","system_id":"levelo_inurba_marseille","lat":43.30684,"lon":5.40351,"is_reserved":false,"is_disabled":false,"rental_uris":{"android":"levelo://app?vid=a6b5c354-bbc4-46b2-9356-4b84838966f9","ios":"levelo://app?vid=a6b5c354-bbc4-46b2-9356-4b84838966f9"},"vehicle_type_id":"4","last_reported":1762521697,"current_range_meters":9200,"station_id":"","pricing_plan_id":"cebpf4jnsgd1na2vs0mg"},{"bike_id":"bceab136-953a-4f70-8d1b-53de0dc52351","system_id":"levelo_inurba_marseille","lat":43.23152,"lon":5.43725,"is_reserved":false,"is_disabled":false,"rental_uris":{"android":"levelo://app?vid=bceab136-953a-4f70-8d1b-53de0dc52351","ios":"levelo://app?vid=bceab136-953a-4f70-8d1b-53de0dc52351"},"vehicle_type_id":"4","last_reported":1762521697,"current_range_meters":9200,"station_id":"ce4bhmp2rcd13ifvqgog","pricing_plan_id":"cebpf4jnsgd1na2vs0mg"},{"bike_id":"1c6a32f6-b063-4166-a49d-b9ba7e8a3a9a","system_id":"levelo_inurba_marseille","lat":43.33603,"lon":5.41034,"is_reserved":false,"is_disabled":false,"rental_uris":{"android":"levelo://app?vid=1c6a32f6-b063-4166-a49d-b9ba7e8a3a9a","ios":"levelo://app?vid=1c6a32f6-b063-4166-a49d-b9ba7e8a3a9a"},"vehicle_type_id":"4","last_reported":1762521697,"current_range_meters":9200,"station_id":"ce4bhqh2rcd13ifvqhmg","pricing_plan_id":"cebpf4jnsgd1na2vs0mg"},{"bike_id":"f3486f05-cfdd-457d-b052-78d834c5badd","system_id":"levelo_inurba_marseille","lat":43.26775,"lon":5.39413,"is_reserved":false,"is_disabled":false,"rental_uris":{"android":"levelo://app?vid=f3486f05-cfdd-457d-b052-78d834c5badd","ios":"levelo://app?vid=f3486f05-cfdd-457d-b052-78d834c5badd"},"vehicle_type_id":"4","last_reported":1762521697,"current_range_meters":9200,"station_id":"ce4bhh12rcd13ifvqfg0","pricing_plan_id":"cebpf4jnsgd1na2vs0mg"},{"bike_id":"139f0b47-d5bc-42bf-8b35-e2657fa1864e","system_id":"levelo_inurba_marseille","lat":43.28934,"lon":5.3664,"is_reserved":false,"is_disabled":false,"rental_uris":{"android":"levelo://app?vid=139f0b47-d5bc-42bf-8b35-e2657fa1864e","ios":"levelo://app?vid=139f0b47-d5bc-42bf-8b35-e2657fa1864e"},"vehicle_type_id":"4","last_reported":1762521697,"current_range_meters":9200,"station_id":"ce4bhap2rcd13ifvqek0","pricing_plan_id":"cebpf4jnsgd1na2vs0mg"},{"bike_id":"d076e008-e96c-4433-9d2b-db5cee569ddf","system_id":"levelo_inurba_marseille","lat":43.28414,"lon":5.375007,"is_reserved":false,"is_disabled":false,"rental_uris":{"android":"levelo://app?vid=d076e008-e96c-4433-9d2b-db5cee569ddf","ios":"levelo://app?vid=d076e008-e96c-4433-9d2b-db5cee569ddf"},"vehicle_type_id":"4","last_reported":1762521697,"current_range_meters":9600,"station_id":"ce4bhb92rcd13ifvqen0","pricing_plan_id":"cebpf4jnsgd1na2vs0mg"},{"bike_id":"d1cf2f4a-318a-4389-8c56-b7bc26928f85","system_id":"levelo_inurba_marseille","lat":43.24388,"lon":5.3706,"is_reserved":false,"is_disabled":false,"rental_uris":{"android":"levelo://app?vid=d1cf2f4a-318a-4389-8c56-b7bc26928f85","ios":"levelo://app?vid=d1cf2f4a-318a-4389-8c56-b7bc26928f85"},"vehicle_type_id":"4","last_reported":1762521697,"current_range_meters":9600,"station_id":"ce4bhhh2rcd13ifvqfk0","pricing_plan_id":"cebpf4jnsgd1na2vs0mg"},{"bike_id":"319ffc4e-7711-40e6-a5bd-4d90d7a995da","system_id":"levelo_inurba_marseille","lat":43.31076,"lon":5.42438,"is_reserved":false,"is_disabled":false,"rental_uris":{"android":"levelo://app?vid=319ffc4e-7711-40e6-a5bd-4d90d7a995da","ios":"levelo://app?vid=319ffc4e-7711-40e6-a5bd-4d90d7a995da"},"vehicle_type_id":"4","last_reported":1762521697,"current_range_meters":9600,"station_id":"ce4bhp92rcd13ifvqhag","pricing_plan_id":"cebpf4jnsgd1na2vs0mg"},{"bike_id":"62b597ad-0183-45ab-83ea-6b1f25540269","system_id":"levelo_inurba_marseille","lat":43.3274,"lon":5.45214,"is_reserved":false,"is_disabled":false,"rental_uris":{"android":"levelo://app?vid=62b597ad-0183-45ab-83ea-6b1f25540269","ios":"levelo://app?vid=62b597ad-0183-45ab-83ea-6b1f25540269"},"vehicle_type_id":"4","last_reported":1762521697,"current_range_meters":9600,"station_id":"","pricing_plan_id":"cebpf4jnsgd1na2vs0mg"},{"bike_id":"1c1406c3-ccbf-4c7e-948d-af3d562996c8","system_id":"levelo_inurba_marseille","lat":43.298198,"lon":5.440664,"is_reserved":false,"is_disabled":false,"rental_uris":{"android":"levelo://app?vid=1c1406c3-ccbf-4c7e-948d-af3d562996c8","ios":"levelo://app?vid=1c1406c3-ccbf-4c7e-948d-af3d562996c8"},"vehicle_type_id":"4","last_reported":1762521697,"current_range_meters":10000,"station_id":"st_d3jp68qikq2c7381ktn0","pricing_plan_id":"cebpf4jnsgd1na2vs0mg"},{"bike_id":"5368198b-d43d-42dc-9d96-75407f2494fe","system_id":"levelo_inurba_marseille","lat":43.246429,"lon":5.388898,"is_reserved":false,"is_disabled":false,"rental_uris":{"android":"levelo://app?vid=5368198b-d43d-42dc-9d96-75407f2494fe","ios":"levelo://app?vid=5368198b-d43d-42dc-9d96-75407f2494fe"},"vehicle_type_id":"4","last_reported":1762521697,"current_range_meters":10000,"station_id":"","pricing_plan_id":"cebpf4jnsgd1na2vs0mg"},{"bike_id":"f9a84438-123e-4caa-9547-9df9964b1ae5","system_id":"levelo_inurba_marseille","lat":43.33603,"lon":5.4102,"is_reserved":false,"is_disabled":false,"rental_uris":{"android":"levelo://app?vid=f9a84438-123e-4caa-9547-9df9964b1ae5","ios":"levelo://app?vid=f9a84438-123e-4caa-9547-9df9964b1ae5"},"vehicle_type_id":"4","last_reported":1762521697,"current_range_meters":10000,"station_id":"ce4bhqh2rcd13ifvqhmg","pricing_plan_id":"cebpf4jnsgd1na2vs0mg"},{"bike_id":"0e20a5d9-0ab3-4e71-a3ef-c9be28fc5551","system_id":"levelo_inurba_marseille","lat":43.28535,"lon":5.44101,"is_reserved":false,"is_disabled":false,"rental_uris":{"android":"levelo://app?vid=0e20a5d9-0ab3-4e71-a3ef-c9be28fc5551","ios":"levelo://app?vid=0e20a5d9-0ab3-4e71-a3ef-c9be28fc5551"},"vehicle_type_id":"4","last_reported":1762521697,"current_range_meters":10000,"station_id":"st_d3j3df2ikq2c7380ej80","pricing_plan_id":"cebpf4jnsgd1na2vs0mg"},{"bike_id":"acd11f1f-a797-4d8a-ac97-7cfd85277af2","system_id":"levelo_inurba_marseille","lat":43.22931,"lon":5.353811,"is_reserved":false,"is_disabled":false,"rental_uris":{"android":"levelo://app?vid=acd11f1f-a797-4d8a-ac97-7cfd85277af2","ios":"levelo://app?vid=acd11f1f-a797-4d8a-ac97-7cfd85277af2"},"vehicle_type_id":"4","last_reported":1762521697,"current_range_meters":10000,"station_id":"cpo3532slgdg3j2ikp40","pricing_plan_id":"cebpf4jnsgd1na2vs0mg"},{"bike_id":"6c0e4ec5-2ec8-42ff-b076-20ded930abe8","system_id":"levelo_inurba_marseille","lat":43.28693,"lon":5.39986,"is_reserved":false,"is_disabled":false,"rental_uris":{"android":"levelo://app?vid=6c0e4ec5-2ec8-42ff-b076-20ded930abe8","ios":"levelo://app?vid=6c0e4ec5-2ec8-42ff-b076-20ded930abe8"},"vehicle_type_id":"4","last_reported":1762521697,"current_range_meters":10800,"station_id":"ce4bho92rcd13ifvqh3g","pricing_plan_id":"cebpf4jnsgd1na2vs0mg"},{"bike_id":"fed7a9d1-73a3-40b0-aeb0-e201fde93a31","system_id":"levelo_inurba_marseille","lat":43.3019,"lon":5.36595,"is_reserved":false,"is_disabled":false,"rental_uris":{"android":"levelo://app?vid=fed7a9d1-73a3-40b0-aeb0-e201fde93a31","ios":"levelo://app?vid=fed7a9d1-73a3-40b0-aeb0-e201fde93a31"},"vehicle_type_id":"4","last_reported":1762521697,"current_range_meters":10800,"station_id":"ce4bgrh2rcd13ifvqc8g","pricing_plan_id":"cebpf4jnsgd1na2vs0mg"},{"bike_id":"3cea909b-5046-4c71-a2dc-59f29e1653c1","system_id":"levelo_inurba_marseille","lat":43.28941,"lon":5.39637,"is_reserved":false,"is_disabled":false,"rental_uris":{"android":"levelo://app?vid=3cea909b-5046-4c71-a2dc-59f29e1653c1","ios":"levelo://app?vid=3cea909b-5046-4c71-a2dc-59f29e1653c1"},"vehicle_type_id":"4","last_reported":1762521697,"current_range_meters":10800,"station_id":"ce4bh3h2rcd13ifvqdn0","pricing_plan_id":"cebpf4jnsgd1na2vs0mg"},{"bike_id":"e092049f-fa98-4e4f-af8a-c784edacc904","system_id":"levelo_inurba_marseille","lat":43.25581,"lon":5.38248,"is_reserved":false,"is_disabled":false,"rental_uris":{"android":"levelo://app?vid=e092049f-fa98-4e4f-af8a-c784edacc904","ios":"levelo://app?vid=e092049f-fa98-4e4f-af8a-c784edacc904"},"vehicle_type_id":"4","last_reported":1762521697,"current_range_meters":10800,"station_id":"ce4bhih2rcd13ifvqfs0","pricing_plan_id":"cebpf4jnsgd1na2vs0mg"},{"bike_id":"8c118d90-d638-4241-afa6-17f188a4e6b6","system_id":"levelo_inurba_marseille","lat":43.337444,"lon":5.374475,"is_reserved":false,"is_disabled":false,"rental_uris":{"android":"levelo://app?vid=8c118d90-d638-4241-afa6-17f188a4e6b6","ios":"levelo://app?vid=8c118d90-d638-4241-afa6-17f188a4e6b6"},"vehicle_type_id":"4","last_reported":1762521697,"current_range_meters":10800,"station_id":"","pricing_plan_id":"cebpf4jnsgd1na2vs0mg"},{"bike_id":"64074be9-b5e2-4049-938e-b1f92634bbb2","system_id":"levelo_inurba_marseille","lat":43.30255,"lon":5.40081,"is_reserved":false,"is_disabled":false,"rental_uris":{"android":"levelo://app?vid=64074be9-b5e2-4049-938e-b1f92634bbb2","ios":"levelo://app?vid=64074be9-b5e2-4049-938e-b1f92634bbb2"},"vehicle_type_id":"4","last_reported":1762521697,"current_range_meters":10800,"station_id":"ce4bgvh2rcd13ifvqcs0","pricing_plan_id":"cebpf4jnsgd1na2vs0mg"},{"bike_id":"3f8e1e63-599d-49bb-a4ac-ac95b231c8c3","system_id":"levelo_inurba_marseille","lat":43.29037,"lon":5.37582,"is_reserved":false,"is_disabled":false,"rental_uris":{"android":"levelo://app?vid=3f8e1e63-599d-49bb-a4ac-ac95b231c8c3","ios":"levelo://app?vid=3f8e1e63-599d-49bb-a4ac-ac95b231c8c3"},"vehicle_type_id":"4","last_reported":1762521697,"current_range_meters":10800,"station_id":"ce4bh692rcd13ifvqe90","pricing_plan_id":"cebpf4jnsgd1na2vs0mg"},{"bike_id":"fdef9327-beed-4f50-bbb2-578ade70fe76","system_id":"levelo_inurba_marseille","lat":43.2973,"lon":5.42789,"is_reserved":false,"is_disabled":false,"rental_uris":{"android":"levelo://app?vid=fdef9327-beed-4f50-bbb2-578ade70fe76","ios":"levelo://app?vid=fdef9327-beed-4f50-bbb2-578ade70fe76"},"vehicle_type_id":"4","last_reported":1762521697,"current_range_meters":10800,"station_id":"st_d3md5207bmas73dh9klg","pricing_plan_id":"cebpf4jnsgd1na2vs0mg"},{"bike_id":"711b5184-06a1-46c6-b1ad-270408b914a4","system_id":"levelo_inurba_marseille","lat":43.29993,"lon":5.40976,"is_reserved":false,"is_disabled":false,"rental_uris":{"android":"levelo://app?vid=711b5184-06a1-46c6-b1ad-270408b914a4","ios":"levelo://app?vid=711b5184-06a1-46c6-b1ad-270408b914a4"},"vehicle_type_id":"4","last_reported":1762521697,"current_range_meters":11200,"station_id":"","pricing_plan_id":"cebpf4jnsgd1na2vs0mg"},{"bike_id":"735af335-66bf-4340-87fb-78f795989dcc","system_id":"levelo_inurba_marseille","lat":43.29944,"lon":5.38226,"is_reserved":false,"is_disabled":false,"rental_uris":{"android":"levelo://app?vid=735af335-66bf-4340-87fb-78f795989dcc","ios":"levelo://app?vid=735af335-66bf-4340-87fb-78f795989dcc"},"vehicle_type_id":"4","last_reported":1762521697,"current_range_meters":11200,"station_id":"","pricing_plan_id":"cebpf4jnsgd1na2vs0mg"},{"bike_id":"859e0c0f-aa1f-43fe-8c5a-8953e618b51b","system_id":"levelo_inurba_marseille","lat":43.2846,"lon":5.358892,"is_reserved":false,"is_disabled":false,"rental_uris":{"android":"levelo://app?vid=859e0c0f-aa1f-43fe-8c5a-8953e618b51b","ios":"levelo://app?vid=859e0c0f-aa1f-43fe-8c5a-8953e618b51b"},"vehicle_type_id":"4","last_reported":1762521697,"current_range_meters":11200,"station_id":"ce4bhah2rcd13ifvqei0","pricing_plan_id":"cebpf4jnsgd1na2vs0mg"},{"bike_id":"9520b262-983c-49d3-940e-46b3877ee741","system_id":"levelo_inurba_marseille","lat":43.29278,"lon":5.40116,"is_reserved":false,"is_disabled":false,"rental_uris":{"android":"levelo://app?vid=9520b262-983c-49d3-940e-46b3877ee741","ios":"levelo://app?vid=9520b262-983c-49d3-940e-46b3877ee741"},"vehicle_type_id":"4","last_reported":1762521697,"current_range_meters":11200,"station_id":"ce4bh312rcd13ifvqdk0","pricing_plan_id":"cebpf4jnsgd1na2vs0mg"},{"bike_id":"c0b7a471-f70d-437e-b72b-b9a67eac7822","system_id":"levelo_inurba_marseille","lat":43.26223,"lon":5.40447,"is_reserved":false,"is_disabled":false,"rental_uris":{"android":"levelo://app?vid=c0b7a471-f70d-437e-b72b-b9a67eac7822","ios":"levelo://app?vid=c0b7a471-f70d-437e-b72b-b9a67eac7822"},"vehicle_type_id":"4","last_reported":1762521697,"current_range_meters":11200,"station_id":"ce4bhmh2rcd13ifvqgmg","pricing_plan_id":"cebpf4jnsgd1na2vs0mg"},{"bike_id":"a465ab4f-3309-402f-9882-d65891a17151","system_id":"levelo_inurba_marseille","lat":43.24179,"lon":5.39729,"is_reserved":false,"is_disabled":false,"rental_uris":{"android":"levelo://app?vid=a465ab4f-3309-402f-9882-d65891a17151","ios":"levelo://app?vid=a465ab4f-3309-402f-9882-d65891a17151"},"vehicle_type_id":"4","last_reported":1762521697,"current_range_meters":11600,"station_id":"ce4bhn12rcd13ifvqgpg","pricing_plan_id":"cebpf4jnsgd1na2vs0mg"},{"bike_id":"fd56d2bc-6f60-4008-a2cc-ba3081efc60a","system_id":"levelo_inurba_marseille","lat":43.29554,"lon":5.3751,"is_reserved":false,"is_disabled":false,"rental_uris":{"android":"levelo://app?vid=fd56d2bc-6f60-4008-a2cc-ba3081efc60a","ios":"levelo://app?vid=fd56d2bc-6f60-4008-a2cc-ba3081efc60a"},"vehicle_type_id":"4","last_reported":1762521697,"current_range_meters":11600,"station_id":"ce4bgh92rcd13ifvqb50","pricing_plan_id":"cebpf4jnsgd1na2vs0mg"},{"bike_id":"1ee6fff6-ca60-442f-b802-fbae83947a22","system_id":"levelo_inurba_marseille","lat":43.33601,"lon":5.41033,"is_reserved":false,"is_disabled":false,"rental_uris":{"android":"levelo://app?vid=1ee6fff6-ca60-442f-b802-fbae83947a22","ios":"levelo://app?vid=1ee6fff6-ca60-442f-b802-fbae83947a22"},"vehicle_type_id":"4","last_reported":1762521697,"current_range_meters":11600,"station_id":"ce4bhqh2rcd13ifvqhmg","pricing_plan_id":"cebpf4jnsgd1na2vs0mg"},{"bike_id":"8f01e68a-0a05-4db6-b791-b8beaba42366","system_id":"levelo_inurba_marseille","lat":43.29815,"lon":5.38151,"is_reserved":false,"is_disabled":false,"rental_uris":{"android":"levelo://app?vid=8f01e68a-0a05-4db6-b791-b8beaba42366","ios":"levelo://app?vid=8f01e68a-0a05-4db6-b791-b8beaba42366"},"vehicle_type_id":"4","last_reported":1762521697,"current_range_meters":11600,"station_id":"ce4bgip2rcd13ifvqbb0","pricing_plan_id":"cebpf4jnsgd1na2vs0mg"},{"bike_id":"b6d6ed38-4c87-427d-b530-709237f9a962","system_id":"levelo_inurba_marseille","lat":43.23127,"lon":5.43706,"is_reserved":false,"is_disabled":false,"rental_uris":{"android":"levelo://app?vid=b6d6ed38-4c87-427d-b530-709237f9a962","ios":"levelo://app?vid=b6d6ed38-4c87-427d-b530-709237f9a962"},"vehicle_type_id":"4","last_reported":1762521697,"current_range_meters":11600,"station_id":"ce4bhmp2rcd13ifvqgog","pricing_plan_id":"cebpf4jnsgd1na2vs0mg"},{"bike_id":"b0b27449-42a5-4ac9-b3d4-8357d9f61eb5","system_id":"levelo_inurba_marseille","lat":43.28698,"lon":5.39983,"is_reserved":false,"is_disabled":false,"rental_uris":{"android":"levelo://app?vid=b0b27449-42a5-4ac9-b3d4-8357d9f61eb5","ios":"levelo://app?vid=b0b27449-42a5-4ac9-b3d4-8357d9f61eb5"},"vehicle_type_id":"4","last_reported":1762521697,"current_range_meters":11600,"station_id":"ce4bho92rcd13ifvqh3g","pricing_plan_id":"cebpf4jnsgd1na2vs0mg"},{"bike_id":"bf54311a-6347-4b36-aaaf-ce1a0ecc323a","system_id":"levelo_inurba_marseille","lat":43.24163,"lon":5.36377,"is_reserved":false,"is_disabled":false,"rental_uris":{"android":"levelo://app?vid=bf54311a-6347-4b36-aaaf-ce1a0ecc323a","ios":"levelo://app?vid=bf54311a-6347-4b36-aaaf-ce1a0ecc323a"},"vehicle_type_id":"4","last_reported":1762521697,"current_range_meters":11600,"station_id":"cpo36qri1sfpv3e86is0","pricing_plan_id":"cebpf4jnsgd1na2vs0mg"},{"bike_id":"1449e528-a953-449d-97b4-aea6ccdd65fb","system_id":"levelo_inurba_marseille","lat":43.30952,"lon":5.39029,"is_reserved":false,"is_disabled":false,"rental_uris":{"android":"levelo://app?vid=1449e528-a953-449d-97b4-aea6ccdd65fb","ios":"levelo://app?vid=1449e528-a953-449d-97b4-aea6ccdd65fb"},"vehicle_type_id":"4","last_reported":1762521697,"current_range_meters":11600,"station_id":"ce4bgup2rcd13ifvqco0","pricing_plan_id":"cebpf4jnsgd1na2vs0mg"},{"bike_id":"1429fa01-256c-4037-bf14-f7e4da268e66","system_id":"levelo_inurba_marseille","lat":43.29903,"lon":5.37471,"is_reserved":false,"is_disabled":false,"rental_uris":{"android":"levelo://app?vid=1429fa01-256c-4037-bf14-f7e4da268e66","ios":"levelo://app?vid=1429fa01-256c-4037-bf14-f7e4da268e66"},"vehicle_type_id":"4","last_reported":1762521697,"current_range_meters":12000,"station_id":"ce4bgjh2rcd13ifvqbg0","pricing_plan_id":"cebpf4jnsgd1na2vs0mg"},{"bike_id":"03837dd4-9a35-4463-9134-f815a83c59a4","system_id":"levelo_inurba_marseille","lat":43.3014,"lon":5.37413,"is_reserved":false,"is_disabled":false,"rental_uris":{"android":"levelo://app?vid=03837dd4-9a35-4463-9134-f815a83c59a4","ios":"levelo://app?vid=03837dd4-9a35-4463-9134-f815a83c59a4"},"vehicle_type_id":"4","last_reported":1762521697,"current_range_meters":12000,"station_id":"ce4bgs92rcd13ifvqcc0","pricing_plan_id":"cebpf4jnsgd1na2vs0mg"},{"bike_id":"df436567-b5dd-47ff-82cb-66b373039810","system_id":"levelo_inurba_marseille","lat":43.25942,"lon":5.4091,"is_reserved":false,"is_disabled":false,"rental_uris":{"android":"levelo://app?vid=df436567-b5dd-47ff-82cb-66b373039810","ios":"levelo://app?vid=df436567-b5dd-47ff-82cb-66b373039810"},"vehicle_type_id":"4","last_reported":1762521697,"current_range_meters":12000,"station_id":"ce4bhm92rcd13ifvqglg","pricing_plan_id":"cebpf4jnsgd1na2vs0mg"},{"bike_id":"0a2914c2-0901-4870-b89d-0109d1e1d543","system_id":"levelo_inurba_marseille","lat":43.29274,"lon":5.40138,"is_reserved":false,"is_disabled":false,"rental_uris":{"android":"levelo://app?vid=0a2914c2-0901-4870-b89d-0109d1e1d543","ios":"levelo://app?vid=0a2914c2-0901-4870-b89d-0109d1e1d543"},"vehicle_type_id":"4","last_reported":1762521697,"current_range_meters":12000,"station_id":"ce4bh312rcd13ifvqdk0","pricing_plan_id":"cebpf4jnsgd1na2vs0mg"},{"bike_id":"5bee8f0f-57fe-4257-a72a-04a4967570b5","system_id":"levelo_inurba_marseille","lat":43.30034,"lon":5.37721,"is_reserved":false,"is_disabled":false,"rental_uris":{"android":"levelo://app?vid=5bee8f0f-57fe-4257-a72a-04a4967570b5","ios":"levelo://app?vid=5bee8f0f-57fe-4257-a72a-04a4967570b5"},"vehicle_type_id":"4","last_reported":1762521697,"current_range_meters":12000,"station_id":"","pricing_plan_id":"cebpf4jnsgd1na2vs0mg"},{"bike_id":"c541d6c6-d855-480d-9416-ad1e26b18f93","system_id":"levelo_inurba_marseille","lat":43.29515,"lon":5.39409,"is_reserved":false,"is_disabled":true,"rental_uris":{"android":"levelo://app?vid=c541d6c6-d855-480d-9416-ad1e26b18f93","ios":"levelo://app?vid=c541d6c6-d855-480d-9416-ad1e26b18f93"},"vehicle_type_id":"4","last_reported":1762521697,"current_range_meters":12000,"station_id":"ce4bh292rcd13ifvqdf0","pricing_plan_id":"cebpf4jnsgd1na2vs0mg"},{"bike_id":"cac9bd2a-a5fe-49c6-85d1-4ecab2f78de0","system_id":"levelo_inurba_marseille","lat":43.2973,"lon":5.38387,"is_reserved":false,"is_disabled":false,"rental_uris":{"android":"levelo://app?vid=cac9bd2a-a5fe-49c6-85d1-4ecab2f78de0","ios":"levelo://app?vid=cac9bd2a-a5fe-49c6-85d1-4ecab2f78de0"},"vehicle_type_id":"4","last_reported":1762521697,"current_range_meters":12000,"station_id":"","pricing_plan_id":"cebpf4jnsgd1na2vs0mg"},{"bike_id":"91195dc3-7219-4139-a8eb-8e52bb6d271e","system_id":"levelo_inurba_marseille","lat":43.2319,"lon":5.35558,"is_reserved":false,"is_disabled":false,"rental_uris":{"android":"levelo://app?vid=91195dc3-7219-4139-a8eb-8e52bb6d271e","ios":"levelo://app?vid=91195dc3-7219-4139-a8eb-8e52bb6d271e"},"vehicle_type_id":"4","last_reported":1762521697,"current_range_meters":12400,"station_id":"ce4bhu92rcd13ifvqi70","pricing_plan_id":"cebpf4jnsgd1na2vs0mg"},{"bike_id":"7e50e8da-5299-4aa1-849c-f5ceadbf07e2","system_id":"levelo_inurba_marseille","lat":43.2558,"lon":5.38272,"is_reserved":false,"is_disabled":false,"rental_uris":{"android":"levelo://app?vid=7e50e8da-5299-4aa1-849c-f5ceadbf07e2","ios":"levelo://app?vid=7e50e8da-5299-4aa1-849c-f5ceadbf07e2"},"vehicle_type_id":"4","last_reported":1762521697,"current_range_meters":12400,"station_id":"ce4bhih2rcd13ifvqfs0","pricing_plan_id":"cebpf4jnsgd1na2vs0mg"},{"bike_id":"2db8d361-1a3d-4660-8313-7f0efd4e0966","system_id":"levelo_inurba_marseille","lat":43.29046,"lon":5.39941,"is_reserved":false,"is_disabled":false,"rental_uris":{"android":"levelo://app?vid=2db8d361-1a3d-4660-8313-7f0efd4e0966","ios":"levelo://app?vid=2db8d361-1a3d-4660-8313-7f0efd4e0966"},"vehicle_type_id":"4","last_reported":1762521697,"current_range_meters":12400,"station_id":"ce4bh392rcd13ifvqdm0","pricing_plan_id":"cebpf4jnsgd1na2vs0mg"},{"bike_id":"d302854f-17a1-4386-8084-f0bab5b9ae1c","system_id":"levelo_inurba_marseille","lat":43.276185,"lon":5.361131,"is_reserved":false,"is_disabled":false,"rental_uris":{"android":"levelo://app?vid=d302854f-17a1-4386-8084-f0bab5b9ae1c","ios":"levelo://app?vid=d302854f-17a1-4386-8084-f0bab5b9ae1c"},"vehicle_type_id":"4","last_reported":1762521697,"current_range_meters":12400,"station_id":"ce4bgj92rcd13ifvqbe0","pricing_plan_id":"cebpf4jnsgd1na2vs0mg"},{"bike_id":"eb9ce90f-371d-4f2a-a45b-57010c299772","system_id":"levelo_inurba_marseille","lat":43.27488,"lon":5.42459,"is_reserved":false,"is_disabled":false,"rental_uris":{"android":"levelo://app?vid=eb9ce90f-371d-4f2a-a45b-57010c299772","ios":"levelo://app?vid=eb9ce90f-371d-4f2a-a45b-57010c299772"},"vehicle_type_id":"4","last_reported":1762521697,"current_range_meters":12400,"station_id":"ce4bhn92rcd13ifvqgrg","pricing_plan_id":"cebpf4jnsgd1na2vs0mg"},{"bike_id":"ff52e6d2-0126-428b-8241-f19a2cd5a014","system_id":"levelo_inurba_marseille","lat":43.26953,"lon":5.38635,"is_reserved":false,"is_disabled":true,"rental_uris":{"android":"levelo://app?vid=ff52e6d2-0126-428b-8241-f19a2cd5a014","ios":"levelo://app?vid=ff52e6d2-0126-428b-8241-f19a2cd5a014"},"vehicle_type_id":"4","last_reported":1762521697,"current_range_meters":12400,"station_id":"ce4bhh92rcd13ifvqfh0","pricing_plan_id":"cebpf4jnsgd1na2vs0mg"},{"bike_id":"1c3b6b02-c345-419e-acff-2ea38bcab5a6","system_id":"levelo_inurba_marseille","lat":43.2314,"lon":5.43728,"is_reserved":false,"is_disabled":false,"rental_uris":{"android":"levelo://app?vid=1c3b6b02-c345-419e-acff-2ea38bcab5a6","ios":"levelo://app?vid=1c3b6b02-c345-419e-acff-2ea38bcab5a6"},"vehicle_type_id":"4","last_reported":1762521697,"current_range_meters":12400,"station_id":"ce4bhmp2rcd13ifvqgog","pricing_plan_id":"cebpf4jnsgd1na2vs0mg"},{"bike_id":"47fe472a-584f-43c1-989e-cc29d650cbff","system_id":"levelo_inurba_marseille","lat":43.3124,"lon":5.3687,"is_reserved":false,"is_disabled":false,"rental_uris":{"android":"levelo://app?vid=47fe472a-584f-43c1-989e-cc29d650cbff","ios":"levelo://app?vid=47fe472a-584f-43c1-989e-cc29d650cbff"},"vehicle_type_id":"4","last_reported":1762521697,"current_range_meters":12400,"station_id":"ce4bgl92rcd13ifvqbq0","pricing_plan_id":"cebpf4jnsgd1na2vs0mg"},{"bike_id":"957dedc2-44bd-40ee-a718-ca0ffd0efaef","system_id":"levelo_inurba_marseille","lat":43.27697,"lon":5.38858,"is_reserved":false,"is_disabled":false,"rental_uris":{"android":"levelo://app?vid=957dedc2-44bd-40ee-a718-ca0ffd0efaef","ios":"levelo://app?vid=957dedc2-44bd-40ee-a718-ca0ffd0efaef"},"vehicle_type_id":"4","last_reported":1762521697,"current_range_meters":12800,"station_id":"ce4bhi12rcd13ifvqfo0","pricing_plan_id":"cebpf4jnsgd1na2vs0mg"},{"bike_id":"ec44e195-cde1-4252-aadf-701a64256dd7","system_id":"levelo_inurba_marseille","lat":43.24618,"lon":5.4316,"is_reserved":false,"is_disabled":false,"rental_uris":{"android":"levelo://app?vid=ec44e195-cde1-4252-aadf-701a64256dd7","ios":"levelo://app?vid=ec44e195-cde1-4252-aadf-701a64256dd7"},"vehicle_type_id":"4","last_reported":1762521697,"current_range_meters":12800,"station_id":"st_d2m6c4gdas8pm72e190g","pricing_plan_id":"cebpf4jnsgd1na2vs0mg"},{"bike_id":"49f72977-a3b0-4756-91f7-bfd8da95f1b4","system_id":"levelo_inurba_marseille","lat":43.25943,"lon":5.40903,"is_reserved":false,"is_disabled":false,"rental_uris":{"android":"levelo://app?vid=49f72977-a3b0-4756-91f7-bfd8da95f1b4","ios":"levelo://app?vid=49f72977-a3b0-4756-91f7-bfd8da95f1b4"},"vehicle_type_id":"4","last_reported":1762521697,"current_range_meters":12800,"station_id":"ce4bhm92rcd13ifvqglg","pricing_plan_id":"cebpf4jnsgd1na2vs0mg"},{"bike_id":"5f48118e-e9dd-40cf-a954-36eea361da07","system_id":"levelo_inurba_marseille","lat":43.33022,"lon":5.39047,"is_reserved":false,"is_disabled":false,"rental_uris":{"android":"levelo://app?vid=5f48118e-e9dd-40cf-a954-36eea361da07","ios":"levelo://app?vid=5f48118e-e9dd-40cf-a954-36eea361da07"},"vehicle_type_id":"4","last_reported":1762521697,"current_range_meters":12800,"station_id":"ce4bhr92rcd13ifvqhrg","pricing_plan_id":"cebpf4jnsgd1na2vs0mg"},{"bike_id":"2214147d-b2bc-47a5-8262-b29a2f3cbd90","system_id":"levelo_inurba_marseille","lat":43.28849,"lon":5.42507,"is_reserved":false,"is_disabled":false,"rental_uris":{"android":"levelo://app?vid=2214147d-b2bc-47a5-8262-b29a2f3cbd90","ios":"levelo://app?vid=2214147d-b2bc-47a5-8262-b29a2f3cbd90"},"vehicle_type_id":"4","last_reported":1762521697,"current_range_meters":12800,"station_id":"st_d3b462108ojc7389ooeg","pricing_plan_id":"cebpf4jnsgd1na2vs0mg"},{"bike_id":"06d8a6d4-cde1-4774-80e5-91004a4fe543","system_id":"levelo_inurba_marseille","lat":43.29856,"lon":5.36277,"is_reserved":false,"is_disabled":false,"rental_uris":{"android":"levelo://app?vid=06d8a6d4-cde1-4774-80e5-91004a4fe543","ios":"levelo://app?vid=06d8a6d4-cde1-4774-80e5-91004a4fe543"},"vehicle_type_id":"4","last_reported":1762521697,"current_range_meters":13600,"station_id":"ce4bgpp2rcd13ifvqc3g","pricing_plan_id":"cebpf4jnsgd1na2vs0mg"},{"bike_id":"6b2f2874-6c02-45c8-a399-eddf5f20fbe8","system_id":"levelo_inurba_marseille","lat":43.29801,"lon":5.38092,"is_reserved":false,"is_disabled":false,"rental_uris":{"android":"levelo://app?vid=6b2f2874-6c02-45c8-a399-eddf5f20fbe8","ios":"levelo://app?vid=6b2f2874-6c02-45c8-a399-eddf5f20fbe8"},"vehicle_type_id":"4","last_reported":1762521697,"current_range_meters":13600,"station_id":"ce4bgip2rcd13ifvqbb0","pricing_plan_id":"cebpf4jnsgd1na2vs0mg"},{"bike_id":"3b350de2-695c-42e3-a80c-fe5d0f1d9920","system_id":"levelo_inurba_marseille","lat":43.25936,"lon":5.40899,"is_reserved":false,"is_disabled":false,"rental_uris":{"android":"levelo://app?vid=3b350de2-695c-42e3-a80c-fe5d0f1d9920","ios":"levelo://app?vid=3b350de2-695c-42e3-a80c-fe5d0f1d9920"},"vehicle_type_id":"4","last_reported":1762521697,"current_range_meters":13600,"station_id":"ce4bhm92rcd13ifvqglg","pricing_plan_id":"cebpf4jnsgd1na2vs0mg"},{"bike_id":"8cbdb283-7820-4526-b16a-94db7fdce5f7","system_id":"levelo_inurba_marseille","lat":43.28847,"lon":5.39328,"is_reserved":false,"is_disabled":false,"rental_uris":{"android":"levelo://app?vid=8cbdb283-7820-4526-b16a-94db7fdce5f7","ios":"levelo://app?vid=8cbdb283-7820-4526-b16a-94db7fdce5f7"},"vehicle_type_id":"4","last_reported":1762521697,"current_range_meters":13600,"station_id":"ce4bh2p2rcd13ifvqdi0","pricing_plan_id":"cebpf4jnsgd1na2vs0mg"},{"bike_id":"23d4b732-c785-4a74-a220-93191f06591d","system_id":"levelo_inurba_marseille","lat":43.21183,"lon":5.35075,"is_reserved":false,"is_disabled":true,"rental_uris":{"android":"levelo://app?vid=23d4b732-c785-4a74-a220-93191f06591d","ios":"levelo://app?vid=23d4b732-c785-4a74-a220-93191f06591d"},"vehicle_type_id":"4","last_reported":1762521697,"current_range_meters":13600,"station_id":"st_cvj6sg6p6f1abm77japg","pricing_plan_id":"cebpf4jnsgd1na2vs0mg"},{"bike_id":"2e0f5b64-65ed-42b3-9deb-fc4f03eedfcc","system_id":"levelo_inurba_marseille","lat":43.28534,"lon":5.44122,"is_reserved":false,"is_disabled":false,"rental_uris":{"android":"levelo://app?vid=2e0f5b64-65ed-42b3-9deb-fc4f03eedfcc","ios":"levelo://app?vid=2e0f5b64-65ed-42b3-9deb-fc4f03eedfcc"},"vehicle_type_id":"4","last_reported":1762521697,"current_range_meters":13600,"station_id":"st_d3j3df2ikq2c7380ej80","pricing_plan_id":"cebpf4jnsgd1na2vs0mg"},{"bike_id":"7c392732-2900-41fd-8c6d-e5b49cdf67b5","system_id":"levelo_inurba_marseille","lat":43.29715,"lon":5.38241,"is_reserved":false,"is_disabled":false,"rental_uris":{"android":"levelo://app?vid=7c392732-2900-41fd-8c6d-e5b49cdf67b5","ios":"levelo://app?vid=7c392732-2900-41fd-8c6d-e5b49cdf67b5"},"vehicle_type_id":"4","last_reported":1762521697,"current_range_meters":14000,"station_id":"","pricing_plan_id":"cebpf4jnsgd1na2vs0mg"},{"bike_id":"4da52325-1288-448d-88b3-9e1e5f383137","system_id":"levelo_inurba_marseille","lat":43.23965,"lon":5.36635,"is_reserved":false,"is_disabled":false,"rental_uris":{"android":"levelo://app?vid=4da52325-1288-448d-88b3-9e1e5f383137","ios":"levelo://app?vid=4da52325-1288-448d-88b3-9e1e5f383137"},"vehicle_type_id":"4","last_reported":1762521697,"current_range_meters":14000,"station_id":"ce4bhi12rcd13ifvqfp0","pricing_plan_id":"cebpf4jnsgd1na2vs0mg"},{"bike_id":"ada7c068-07f5-4885-8cb5-5c4f9b537ace","system_id":"levelo_inurba_marseille","lat":43.23133,"lon":5.43704,"is_reserved":false,"is_disabled":false,"rental_uris":{"android":"levelo://app?vid=ada7c068-07f5-4885-8cb5-5c4f9b537ace","ios":"levelo://app?vid=ada7c068-07f5-4885-8cb5-5c4f9b537ace"},"vehicle_type_id":"4","last_reported":1762521697,"current_range_meters":14000,"station_id":"ce4bhmp2rcd13ifvqgog","pricing_plan_id":"cebpf4jnsgd1na2vs0mg"},{"bike_id":"3771f242-ebc1-4678-84d4-230be10e9f54","system_id":"levelo_inurba_marseille","lat":43.25329,"lon":5.42163,"is_reserved":false,"is_disabled":false,"rental_uris":{"android":"levelo://app?vid=3771f242-ebc1-4678-84d4-230be10e9f54","ios":"levelo://app?vid=3771f242-ebc1-4678-84d4-230be10e9f54"},"vehicle_type_id":"4","last_reported":1762521697,"current_range_meters":14000,"station_id":"st_d2m65c5bi1j21697t3ng","pricing_plan_id":"cebpf4jnsgd1na2vs0mg"},{"bike_id":"dedb9884-d86f-4f1c-b68d-c55262240bd8","system_id":"levelo_inurba_marseille","lat":43.279777,"lon":5.387482,"is_reserved":false,"is_disabled":false,"rental_uris":{"android":"levelo://app?vid=dedb9884-d86f-4f1c-b68d-c55262240bd8","ios":"levelo://app?vid=dedb9884-d86f-4f1c-b68d-c55262240bd8"},"vehicle_type_id":"4","last_reported":1762521697,"current_range_meters":14000,"station_id":"ce4bhg12rcd13ifvqf80","pricing_plan_id":"cebpf4jnsgd1na2vs0mg"},{"bike_id":"e181b120-ee26-4b1a-b634-14ab46e60871","system_id":"levelo_inurba_marseille","lat":43.28157,"lon":5.42644,"is_reserved":false,"is_disabled":false,"rental_uris":{"android":"levelo://app?vid=e181b120-ee26-4b1a-b634-14ab46e60871","ios":"levelo://app?vid=e181b120-ee26-4b1a-b634-14ab46e60871"},"vehicle_type_id":"4","last_reported":1762521697,"current_range_meters":14000,"station_id":"ce4bhnh2rcd13ifvqgug","pricing_plan_id":"cebpf4jnsgd1na2vs0mg"},{"bike_id":"ba00a797-bc94-42f1-aba8-9bf207fe458c","system_id":"levelo_inurba_marseille","lat":43.30568,"lon":5.3647,"is_reserved":false,"is_disabled":false,"rental_uris":{"android":"levelo://app?vid=ba00a797-bc94-42f1-aba8-9bf207fe458c","ios":"levelo://app?vid=ba00a797-bc94-42f1-aba8-9bf207fe458c"},"vehicle_type_id":"4","last_reported":1762521697,"current_range_meters":14000,"station_id":"","pricing_plan_id":"cebpf4jnsgd1na2vs0mg"},{"bike_id":"d9e1a6df-6b07-4bb5-b031-591abd529c58","system_id":"levelo_inurba_marseille","lat":43.302,"lon":5.36599,"is_reserved":false,"is_disabled":false,"rental_uris":{"android":"levelo://app?vid=d9e1a6df-6b07-4bb5-b031-591abd529c58","ios":"levelo://app?vid=d9e1a6df-6b07-4bb5-b031-591abd529c58"},"vehicle_type_id":"4","last_reported":1762521697,"current_range_meters":14000,"station_id":"","pricing_plan_id":"cebpf4jnsgd1na2vs0mg"},{"bike_id":"1e46fe04-89da-46eb-9bd6-7b3e33687c2a","system_id":"levelo_inurba_marseille","lat":43.28611,"lon":5.3512,"is_reserved":false,"is_disabled":false,"rental_uris":{"android":"levelo://app?vid=1e46fe04-89da-46eb-9bd6-7b3e33687c2a","ios":"levelo://app?vid=1e46fe04-89da-46eb-9bd6-7b3e33687c2a"},"vehicle_type_id":"4","last_reported":1762521697,"current_range_meters":14400,"station_id":"ce4bhch2rcd13ifvqeug","pricing_plan_id":"cebpf4jnsgd1na2vs0mg"},{"bike_id":"2c54771e-bc90-4fcb-a7c7-984aebd4a9b2","system_id":"levelo_inurba_marseille","lat":43.30151,"lon":5.38779,"is_reserved":false,"is_disabled":false,"rental_uris":{"android":"levelo://app?vid=2c54771e-bc90-4fcb-a7c7-984aebd4a9b2","ios":"levelo://app?vid=2c54771e-bc90-4fcb-a7c7-984aebd4a9b2"},"vehicle_type_id":"4","last_reported":1762521697,"current_range_meters":14400,"station_id":"ce4bghh2rcd13ifvqb60","pricing_plan_id":"cebpf4jnsgd1na2vs0mg"},{"bike_id":"e75d9186-258c-4c6e-a7e1-e60c8b2984d7","system_id":"levelo_inurba_marseille","lat":43.28227,"lon":5.39082,"is_reserved":false,"is_disabled":false,"rental_uris":{"android":"levelo://app?vid=e75d9186-258c-4c6e-a7e1-e60c8b2984d7","ios":"levelo://app?vid=e75d9186-258c-4c6e-a7e1-e60c8b2984d7"},"vehicle_type_id":"4","last_reported":1762521697,"current_range_meters":14400,"station_id":"ce4bhn92rcd13ifvqgsg","pricing_plan_id":"cebpf4jnsgd1na2vs0mg"},{"bike_id":"fbe1980c-28b3-44ff-94bc-1a822c9d6de7","system_id":"levelo_inurba_marseille","lat":43.30932,"lon":5.3727,"is_reserved":false,"is_disabled":false,"rental_uris":{"android":"levelo://app?vid=fbe1980c-28b3-44ff-94bc-1a822c9d6de7","ios":"levelo://app?vid=fbe1980c-28b3-44ff-94bc-1a822c9d6de7"},"vehicle_type_id":"4","last_reported":1762521697,"current_range_meters":14400,"station_id":"","pricing_plan_id":"cebpf4jnsgd1na2vs0mg"},{"bike_id":"51b9afea-e3f9-46da-a79d-624b2847ee35","system_id":"levelo_inurba_marseille","lat":43.299359,"lon":5.365218,"is_reserved":false,"is_disabled":false,"rental_uris":{"android":"levelo://app?vid=51b9afea-e3f9-46da-a79d-624b2847ee35","ios":"levelo://app?vid=51b9afea-e3f9-46da-a79d-624b2847ee35"},"vehicle_type_id":"4","last_reported":1762521697,"current_range_meters":14400,"station_id":"ce4bgm92rcd13ifvqbr0","pricing_plan_id":"cebpf4jnsgd1na2vs0mg"},{"bike_id":"b972a77b-ac48-46ed-827d-5a979e96e6a2","system_id":"levelo_inurba_marseille","lat":43.31275,"lon":5.40167,"is_reserved":false,"is_disabled":false,"rental_uris":{"android":"levelo://app?vid=b972a77b-ac48-46ed-827d-5a979e96e6a2","ios":"levelo://app?vid=b972a77b-ac48-46ed-827d-5a979e96e6a2"},"vehicle_type_id":"4","last_reported":1762521697,"current_range_meters":14400,"station_id":"ce4bh092rcd13ifvqd30","pricing_plan_id":"cebpf4jnsgd1na2vs0mg"},{"bike_id":"42971e05-5f52-4ddb-be59-802f6451d0de","system_id":"levelo_inurba_marseille","lat":43.23965,"lon":5.36632,"is_reserved":false,"is_disabled":false,"rental_uris":{"android":"levelo://app?vid=42971e05-5f52-4ddb-be59-802f6451d0de","ios":"levelo://app?vid=42971e05-5f52-4ddb-be59-802f6451d0de"},"vehicle_type_id":"4","last_reported":1762521697,"current_range_meters":14400,"station_id":"ce4bhi12rcd13ifvqfp0","pricing_plan_id":"cebpf4jnsgd1na2vs0mg"},{"bike_id":"3a77eb2f-2263-45d0-a4b7-d6fe1a249033","system_id":"levelo_inurba_marseille","lat":43.27993,"lon":5.40006,"is_reserved":false,"is_disabled":false,"rental_uris":{"android":"levelo://app?vid=3a77eb2f-2263-45d0-a4b7-d6fe1a249033","ios":"levelo://app?vid=3a77eb2f-2263-45d0-a4b7-d6fe1a249033"},"vehicle_type_id":"4","last_reported":1762521697,"current_range_meters":14800,"station_id":"ce4bho92rcd13ifvqh4g","pricing_plan_id":"cebpf4jnsgd1na2vs0mg"},{"bike_id":"a88522c2-7f31-460d-8b59-1c10109fed19","system_id":"levelo_inurba_marseille","lat":43.3144,"lon":5.37615,"is_reserved":false,"is_disabled":false,"rental_uris":{"android":"levelo://app?vid=a88522c2-7f31-460d-8b59-1c10109fed19","ios":"levelo://app?vid=a88522c2-7f31-460d-8b59-1c10109fed19"},"vehicle_type_id":"4","last_reported":1762521697,"current_range_meters":14800,"station_id":"","pricing_plan_id":"cebpf4jnsgd1na2vs0mg"},{"bike_id":"3a6b939b-8483-4a00-8652-d825cdd856d7","system_id":"levelo_inurba_marseille","lat":43.22554,"lon":5.41631,"is_reserved":false,"is_disabled":false,"rental_uris":{"android":"levelo://app?vid=3a6b939b-8483-4a00-8652-d825cdd856d7","ios":"levelo://app?vid=3a6b939b-8483-4a00-8652-d825cdd856d7"},"vehicle_type_id":"4","last_reported":1762521697,"current_range_meters":14800,"station_id":"st_d2o4gvlbi1j2169b742g","pricing_plan_id":"cebpf4jnsgd1na2vs0mg"},{"bike_id":"e2c6f10f-9a39-45e5-b59e-f10053add70c","system_id":"levelo_inurba_marseille","lat":43.34139,"lon":5.40908,"is_reserved":false,"is_disabled":false,"rental_uris":{"android":"levelo://app?vid=e2c6f10f-9a39-45e5-b59e-f10053add70c","ios":"levelo://app?vid=e2c6f10f-9a39-45e5-b59e-f10053add70c"},"vehicle_type_id":"4","last_reported":1762521697,"current_range_meters":14800,"station_id":"ce4bhqh2rcd13ifvqhlg","pricing_plan_id":"cebpf4jnsgd1na2vs0mg"},{"bike_id":"46609da1-1a56-4a2e-8fd3-da507a08e8ac","system_id":"levelo_inurba_marseille","lat":43.23155,"lon":5.43767,"is_reserved":false,"is_disabled":false,"rental_uris":{"android":"levelo://app?vid=46609da1-1a56-4a2e-8fd3-da507a08e8ac","ios":"levelo://app?vid=46609da1-1a56-4a2e-8fd3-da507a08e8ac"},"vehicle_type_id":"4","last_reported":1762521697,"current_range_meters":14800,"station_id":"ce4bhmp2rcd13ifvqgog","pricing_plan_id":"cebpf4jnsgd1na2vs0mg"},{"bike_id":"7d7b26a3-e50e-46da-a936-2990c6881edf","system_id":"levelo_inurba_marseille","lat":43.304564,"lon":5.379031,"is_reserved":false,"is_disabled":false,"rental_uris":{"android":"levelo://app?vid=7d7b26a3-e50e-46da-a936-2990c6881edf","ios":"levelo://app?vid=7d7b26a3-e50e-46da-a936-2990c6881edf"},"vehicle_type_id":"4","last_reported":1762521697,"current_range_meters":15200,"station_id":"ce4bgup2rcd13ifvqcn0","pricing_plan_id":"cebpf4jnsgd1na2vs0mg"},{"bike_id":"310115a0-7bf2-4a4a-9d53-56bf6918e4d0","system_id":"levelo_inurba_marseille","lat":43.28475,"lon":5.48398,"is_reserved":false,"is_disabled":false,"rental_uris":{"android":"levelo://app?vid=310115a0-7bf2-4a4a-9d53-56bf6918e4d0","ios":"levelo://app?vid=310115a0-7bf2-4a4a-9d53-56bf6918e4d0"},"vehicle_type_id":"4","last_reported":1762521697,"current_range_meters":15200,"station_id":"st_d3svhcjqgbts73a3dn0g","pricing_plan_id":"cebpf4jnsgd1na2vs0mg"},{"bike_id":"ab57a438-ae7d-432c-b302-3fda6242e506","system_id":"levelo_inurba_marseille","lat":43.23151,"lon":5.43705,"is_reserved":false,"is_disabled":false,"rental_uris":{"android":"levelo://app?vid=ab57a438-ae7d-432c-b302-3fda6242e506","ios":"levelo://app?vid=ab57a438-ae7d-432c-b302-3fda6242e506"},"vehicle_type_id":"4","last_reported":1762521697,"current_range_meters":15200,"station_id":"ce4bhmp2rcd13ifvqgog","pricing_plan_id":"cebpf4jnsgd1na2vs0mg"},{"bike_id":"42f18eb7-4b1f-482c-82cd-091a445f5847","system_id":"levelo_inurba_marseille","lat":43.292635,"lon":5.376097,"is_reserved":false,"is_disabled":false,"rental_uris":{"android":"levelo://app?vid=42f18eb7-4b1f-482c-82cd-091a445f5847","ios":"levelo://app?vid=42f18eb7-4b1f-482c-82cd-091a445f5847"},"vehicle_type_id":"4","last_reported":1762521697,"current_range_meters":15200,"station_id":"ce4bgi12rcd13ifvqb80","pricing_plan_id":"cebpf4jnsgd1na2vs0mg"},{"bike_id":"7cfd895d-ac07-4659-8cbf-b904095aa855","system_id":"levelo_inurba_marseille","lat":43.28614,"lon":5.35104,"is_reserved":false,"is_disabled":false,"rental_uris":{"android":"levelo://app?vid=7cfd895d-ac07-4659-8cbf-b904095aa855","ios":"levelo://app?vid=7cfd895d-ac07-4659-8cbf-b904095aa855"},"vehicle_type_id":"4","last_reported":1762521697,"current_range_meters":15200,"station_id":"ce4bhch2rcd13ifvqeug","pricing_plan_id":"cebpf4jnsgd1na2vs0mg"},{"bike_id":"43cfab9e-f547-4304-9999-4a8329474751","system_id":"levelo_inurba_marseille","lat":43.21193,"lon":5.35125,"is_reserved":false,"is_disabled":false,"rental_uris":{"android":"levelo://app?vid=43cfab9e-f547-4304-9999-4a8329474751","ios":"levelo://app?vid=43cfab9e-f547-4304-9999-4a8329474751"},"vehicle_type_id":"4","last_reported":1762521697,"current_range_meters":15200,"station_id":"st_cvj6sg6p6f1abm77japg","pricing_plan_id":"cebpf4jnsgd1na2vs0mg"},{"bike_id":"0129d5e3-887c-4b82-9486-db9b5dbeeb12","system_id":"levelo_inurba_marseille","lat":43.24648,"lon":5.38889,"is_reserved":false,"is_disabled":false,"rental_uris":{"android":"levelo://app?vid=0129d5e3-887c-4b82-9486-db9b5dbeeb12","ios":"levelo://app?vid=0129d5e3-887c-4b82-9486-db9b5dbeeb12"},"vehicle_type_id":"4","last_reported":1762521697,"current_range_meters":15200,"station_id":"ce4bhg12rcd13ifvqf60","pricing_plan_id":"cebpf4jnsgd1na2vs0mg"},{"bike_id":"3214b007-c855-4395-ab8b-45b735ec0fc8","system_id":"levelo_inurba_marseille","lat":43.285307,"lon":5.441024,"is_reserved":false,"is_disabled":false,"rental_uris":{"android":"levelo://app?vid=3214b007-c855-4395-ab8b-45b735ec0fc8","ios":"levelo://app?vid=3214b007-c855-4395-ab8b-45b735ec0fc8"},"vehicle_type_id":"4","last_reported":1762521697,"current_range_meters":15200,"station_id":"st_d3j3df2ikq2c7380ej80","pricing_plan_id":"cebpf4jnsgd1na2vs0mg"},{"bike_id":"d4fd249b-f955-4bfc-9f05-15245dd43fad","system_id":"levelo_inurba_marseille","lat":43.29779,"lon":5.3709,"is_reserved":false,"is_disabled":false,"rental_uris":{"android":"levelo://app?vid=d4fd249b-f955-4bfc-9f05-15245dd43fad","ios":"levelo://app?vid=d4fd249b-f955-4bfc-9f05-15245dd43fad"},"vehicle_type_id":"4","last_reported":1762521697,"current_range_meters":15200,"station_id":"ce4bgop2rcd13ifvqc1g","pricing_plan_id":"cebpf4jnsgd1na2vs0mg"},{"bike_id":"ac9b2307-8532-4e5b-acbf-4475959117d2","system_id":"levelo_inurba_marseille","lat":43.2573,"lon":5.41116,"is_reserved":false,"is_disabled":false,"rental_uris":{"android":"levelo://app?vid=ac9b2307-8532-4e5b-acbf-4475959117d2","ios":"levelo://app?vid=ac9b2307-8532-4e5b-acbf-4475959117d2"},"vehicle_type_id":"4","last_reported":1762521697,"current_range_meters":16000,"station_id":"ce4bhkp2rcd13ifvqgd0","pricing_plan_id":"cebpf4jnsgd1na2vs0mg"},{"bike_id":"528e018f-7e23-4cad-87d7-80d7e67201fb","system_id":"levelo_inurba_marseille","lat":43.28844,"lon":5.39304,"is_reserved":false,"is_disabled":false,"rental_uris":{"android":"levelo://app?vid=528e018f-7e23-4cad-87d7-80d7e67201fb","ios":"levelo://app?vid=528e018f-7e23-4cad-87d7-80d7e67201fb"},"vehicle_type_id":"4","last_reported":1762521697,"current_range_meters":16000,"station_id":"ce4bh2p2rcd13ifvqdi0","pricing_plan_id":"cebpf4jnsgd1na2vs0mg"},{"bike_id":"401209f9-1098-407a-9275-182f209531f6","system_id":"levelo_inurba_marseille","lat":43.2954,"lon":5.42274,"is_reserved":false,"is_disabled":false,"rental_uris":{"android":"levelo://app?vid=401209f9-1098-407a-9275-182f209531f6","ios":"levelo://app?vid=401209f9-1098-407a-9275-182f209531f6"},"vehicle_type_id":"4","last_reported":1762521697,"current_range_meters":16000,"station_id":"ce4bhph2rcd13ifvqhdg","pricing_plan_id":"cebpf4jnsgd1na2vs0mg"},{"bike_id":"68020efb-b356-43dc-bbbe-4c97ae6babb6","system_id":"levelo_inurba_marseille","lat":43.2836,"lon":5.38638,"is_reserved":false,"is_disabled":false,"rental_uris":{"android":"levelo://app?vid=68020efb-b356-43dc-bbbe-4c97ae6babb6","ios":"levelo://app?vid=68020efb-b356-43dc-bbbe-4c97ae6babb6"},"vehicle_type_id":"4","last_reported":1762521697,"current_range_meters":16000,"station_id":"ce4bh492rcd13ifvqdvg","pricing_plan_id":"cebpf4jnsgd1na2vs0mg"},{"bike_id":"4f0c3306-4d54-4347-bb19-aa2fe877c2b3","system_id":"levelo_inurba_marseille","lat":43.26228,"lon":5.40458,"is_reserved":false,"is_disabled":false,"rental_uris":{"android":"levelo://app?vid=4f0c3306-4d54-4347-bb19-aa2fe877c2b3","ios":"levelo://app?vid=4f0c3306-4d54-4347-bb19-aa2fe877c2b3"},"vehicle_type_id":"4","last_reported":1762521697,"current_range_meters":16400,"station_id":"ce4bhmh2rcd13ifvqgmg","pricing_plan_id":"cebpf4jnsgd1na2vs0mg"},{"bike_id":"c8272fa7-32cb-479a-8c8c-0335cc6173de","system_id":"levelo_inurba_marseille","lat":43.23186,"lon":5.39965,"is_reserved":false,"is_disabled":false,"rental_uris":{"android":"levelo://app?vid=c8272fa7-32cb-479a-8c8c-0335cc6173de","ios":"levelo://app?vid=c8272fa7-32cb-479a-8c8c-0335cc6173de"},"vehicle_type_id":"4","last_reported":1762521697,"current_range_meters":16400,"station_id":"ce4bhn12rcd13ifvqgqg","pricing_plan_id":"cebpf4jnsgd1na2vs0mg"},{"bike_id":"6ad393a1-1379-4e05-9651-8b6d9332dd47","system_id":"levelo_inurba_marseille","lat":43.29257,"lon":5.40907,"is_reserved":false,"is_disabled":false,"rental_uris":{"android":"levelo://app?vid=6ad393a1-1379-4e05-9651-8b6d9332dd47","ios":"levelo://app?vid=6ad393a1-1379-4e05-9651-8b6d9332dd47"},"vehicle_type_id":"4","last_reported":1762521697,"current_range_meters":16400,"station_id":"ce4bh192rcd13ifvqdc0","pricing_plan_id":"cebpf4jnsgd1na2vs0mg"},{"bike_id":"22918fb7-a391-4f35-8c21-8eb60e2ab03f","system_id":"levelo_inurba_marseille","lat":43.22551,"lon":5.4164,"is_reserved":false,"is_disabled":false,"rental_uris":{"android":"levelo://app?vid=22918fb7-a391-4f35-8c21-8eb60e2ab03f","ios":"levelo://app?vid=22918fb7-a391-4f35-8c21-8eb60e2ab03f"},"vehicle_type_id":"4","last_reported":1762521697,"current_range_meters":16400,"station_id":"st_d2o4gvlbi1j2169b742g","pricing_plan_id":"cebpf4jnsgd1na2vs0mg"},{"bike_id":"27b410b1-4f32-446f-b24b-6fd710d540fd","system_id":"levelo_inurba_marseille","lat":43.29261,"lon":5.38442,"is_reserved":false,"is_disabled":false,"rental_uris":{"android":"levelo://app?vid=27b410b1-4f32-446f-b24b-6fd710d540fd","ios":"levelo://app?vid=27b410b1-4f32-446f-b24b-6fd710d540fd"},"vehicle_type_id":"4","last_reported":1762521697,"current_range_meters":16400,"station_id":"ce4bh692rcd13ifvqea0","pricing_plan_id":"cebpf4jnsgd1na2vs0mg"},{"bike_id":"d6a299fe-c32e-4d1e-a1d1-06a2ef00a38d","system_id":"levelo_inurba_marseille","lat":43.28712,"lon":5.37936,"is_reserved":false,"is_disabled":false,"rental_uris":{"android":"levelo://app?vid=d6a299fe-c32e-4d1e-a1d1-06a2ef00a38d","ios":"levelo://app?vid=d6a299fe-c32e-4d1e-a1d1-06a2ef00a38d"},"vehicle_type_id":"4","last_reported":1762521697,"current_range_meters":16400,"station_id":"ce4bh9p2rcd13ifvqec0","pricing_plan_id":"cebpf4jnsgd1na2vs0mg"},{"bike_id":"5b03e0a7-e5b7-4bb1-a15f-78dcdc45fd57","system_id":"levelo_inurba_marseille","lat":43.23136,"lon":5.43728,"is_reserved":false,"is_disabled":false,"rental_uris":{"android":"levelo://app?vid=5b03e0a7-e5b7-4bb1-a15f-78dcdc45fd57","ios":"levelo://app?vid=5b03e0a7-e5b7-4bb1-a15f-78dcdc45fd57"},"vehicle_type_id":"4","last_reported":1762521697,"current_range_meters":16400,"station_id":"ce4bhmp2rcd13ifvqgog","pricing_plan_id":"cebpf4jnsgd1na2vs0mg"},{"bike_id":"4b54ec45-bae2-4bcd-b8cd-3cad4a3c5f70","system_id":"levelo_inurba_marseille","lat":43.27673,"lon":5.38888,"is_reserved":false,"is_disabled":false,"rental_uris":{"android":"levelo://app?vid=4b54ec45-bae2-4bcd-b8cd-3cad4a3c5f70","ios":"levelo://app?vid=4b54ec45-bae2-4bcd-b8cd-3cad4a3c5f70"},"vehicle_type_id":"4","last_reported":1762521697,"current_range_meters":16400,"station_id":"ce4bhi12rcd13ifvqfo0","pricing_plan_id":"cebpf4jnsgd1na2vs0mg"},{"bike_id":"e071e82c-cdb6-459f-b22d-eefcbaca951d","system_id":"levelo_inurba_marseille","lat":43.311533,"lon":5.387363,"is_reserved":false,"is_disabled":false,"rental_uris":{"android":"levelo://app?vid=e071e82c-cdb6-459f-b22d-eefcbaca951d","ios":"levelo://app?vid=e071e82c-cdb6-459f-b22d-eefcbaca951d"},"vehicle_type_id":"4","last_reported":1762521697,"current_range_meters":16800,"station_id":"ce4bgv12rcd13ifvqcp0","pricing_plan_id":"cebpf4jnsgd1na2vs0mg"},{"bike_id":"3df6bfda-db80-475a-88ab-b10a24ae6e4f","system_id":"levelo_inurba_marseille","lat":43.23163,"lon":5.39955,"is_reserved":false,"is_disabled":false,"rental_uris":{"android":"levelo://app?vid=3df6bfda-db80-475a-88ab-b10a24ae6e4f","ios":"levelo://app?vid=3df6bfda-db80-475a-88ab-b10a24ae6e4f"},"vehicle_type_id":"4","last_reported":1762521697,"current_range_meters":16800,"station_id":"ce4bhn12rcd13ifvqgqg","pricing_plan_id":"cebpf4jnsgd1na2vs0mg"},{"bike_id":"0ee3a2cd-bf73-412d-acd4-59beb849ed7e","system_id":"levelo_inurba_marseille","lat":43.31084,"lon":5.3781,"is_reserved":false,"is_disabled":false,"rental_uris":{"android":"levelo://app?vid=0ee3a2cd-bf73-412d-acd4-59beb849ed7e","ios":"levelo://app?vid=0ee3a2cd-bf73-412d-acd4-59beb849ed7e"},"vehicle_type_id":"4","last_reported":1762521697,"current_range_meters":16800,"station_id":"ce4bgt92rcd13ifvqcg0","pricing_plan_id":"cebpf4jnsgd1na2vs0mg"},{"bike_id":"05c639a2-6660-40ed-a12f-85b485fe188e","system_id":"levelo_inurba_marseille","lat":43.29214,"lon":5.35781,"is_reserved":false,"is_disabled":false,"rental_uris":{"android":"levelo://app?vid=05c639a2-6660-40ed-a12f-85b485fe188e","ios":"levelo://app?vid=05c639a2-6660-40ed-a12f-85b485fe188e"},"vehicle_type_id":"4","last_reported":1762521697,"current_range_meters":16800,"station_id":"ce4bhb12rcd13ifvqel0","pricing_plan_id":"cebpf4jnsgd1na2vs0mg"},{"bike_id":"a24ecaa7-dc5d-4c8e-a910-6021da3d40da","system_id":"levelo_inurba_marseille","lat":43.22564,"lon":5.41613,"is_reserved":false,"is_disabled":false,"rental_uris":{"android":"levelo://app?vid=a24ecaa7-dc5d-4c8e-a910-6021da3d40da","ios":"levelo://app?vid=a24ecaa7-dc5d-4c8e-a910-6021da3d40da"},"vehicle_type_id":"4","last_reported":1762521697,"current_range_meters":16800,"station_id":"st_d2o4gvlbi1j2169b742g","pricing_plan_id":"cebpf4jnsgd1na2vs0mg"},{"bike_id":"65d83eaf-428a-43cd-a356-ecaed95948ff","system_id":"levelo_inurba_marseille","lat":43.24832,"lon":5.39799,"is_reserved":false,"is_disabled":false,"rental_uris":{"android":"levelo://app?vid=65d83eaf-428a-43cd-a356-ecaed95948ff","ios":"levelo://app?vid=65d83eaf-428a-43cd-a356-ecaed95948ff"},"vehicle_type_id":"4","last_reported":1762521697,"current_range_meters":16800,"station_id":"","pricing_plan_id":"cebpf4jnsgd1na2vs0mg"},{"bike_id":"9af0687b-3e79-4e11-b844-dd239618aeba","system_id":"levelo_inurba_marseille","lat":43.28858,"lon":5.42517,"is_reserved":false,"is_disabled":false,"rental_uris":{"android":"levelo://app?vid=9af0687b-3e79-4e11-b844-dd239618aeba","ios":"levelo://app?vid=9af0687b-3e79-4e11-b844-dd239618aeba"},"vehicle_type_id":"4","last_reported":1762521697,"current_range_meters":16800,"station_id":"st_d3b462108ojc7389ooeg","pricing_plan_id":"cebpf4jnsgd1na2vs0mg"},{"bike_id":"b9600cd1-bacb-42ff-b6cc-744a7989cace","system_id":"levelo_inurba_marseille","lat":43.27493,"lon":5.42448,"is_reserved":false,"is_disabled":false,"rental_uris":{"android":"levelo://app?vid=b9600cd1-bacb-42ff-b6cc-744a7989cace","ios":"levelo://app?vid=b9600cd1-bacb-42ff-b6cc-744a7989cace"},"vehicle_type_id":"4","last_reported":1762521697,"current_range_meters":16800,"station_id":"ce4bhn92rcd13ifvqgrg","pricing_plan_id":"cebpf4jnsgd1na2vs0mg"},{"bike_id":"1bf477b3-55e6-4f59-a7a7-7034928d8403","system_id":"levelo_inurba_marseille","lat":43.25335,"lon":5.42172,"is_reserved":false,"is_disabled":false,"rental_uris":{"android":"levelo://app?vid=1bf477b3-55e6-4f59-a7a7-7034928d8403","ios":"levelo://app?vid=1bf477b3-55e6-4f59-a7a7-7034928d8403"},"vehicle_type_id":"4","last_reported":1762521697,"current_range_meters":16800,"station_id":"st_d2m65c5bi1j21697t3ng","pricing_plan_id":"cebpf4jnsgd1na2vs0mg"},{"bike_id":"51d77b29-5f53-46ec-a314-70229c8d02f2","system_id":"levelo_inurba_marseille","lat":43.30137,"lon":5.38784,"is_reserved":false,"is_disabled":false,"rental_uris":{"android":"levelo://app?vid=51d77b29-5f53-46ec-a314-70229c8d02f2","ios":"levelo://app?vid=51d77b29-5f53-46ec-a314-70229c8d02f2"},"vehicle_type_id":"4","last_reported":1762521697,"current_range_meters":16800,"station_id":"ce4bghh2rcd13ifvqb60","pricing_plan_id":"cebpf4jnsgd1na2vs0mg"},{"bike_id":"21f9a670-dfaa-4d25-b788-c7baab7dace7","system_id":"levelo_inurba_marseille","lat":43.26944,"lon":5.38645,"is_reserved":false,"is_disabled":false,"rental_uris":{"android":"levelo://app?vid=21f9a670-dfaa-4d25-b788-c7baab7dace7","ios":"levelo://app?vid=21f9a670-dfaa-4d25-b788-c7baab7dace7"},"vehicle_type_id":"4","last_reported":1762521697,"current_range_meters":16800,"station_id":"ce4bhh92rcd13ifvqfh0","pricing_plan_id":"cebpf4jnsgd1na2vs0mg"},{"bike_id":"33fcdbb0-2f2f-418c-a9e2-8bfbd62dc3a5","system_id":"levelo_inurba_marseille","lat":43.30544,"lon":5.36712,"is_reserved":false,"is_disabled":false,"rental_uris":{"android":"levelo://app?vid=33fcdbb0-2f2f-418c-a9e2-8bfbd62dc3a5","ios":"levelo://app?vid=33fcdbb0-2f2f-418c-a9e2-8bfbd62dc3a5"},"vehicle_type_id":"4","last_reported":1762521697,"current_range_meters":16800,"station_id":"ce4bgrp2rcd13ifvqc9g","pricing_plan_id":"cebpf4jnsgd1na2vs0mg"},{"bike_id":"97718d8d-dbe9-4992-91a6-d4748f6205c7","system_id":"levelo_inurba_marseille","lat":43.31227,"lon":5.36858,"is_reserved":false,"is_disabled":false,"rental_uris":{"android":"levelo://app?vid=97718d8d-dbe9-4992-91a6-d4748f6205c7","ios":"levelo://app?vid=97718d8d-dbe9-4992-91a6-d4748f6205c7"},"vehicle_type_id":"4","last_reported":1762521697,"current_range_meters":17200,"station_id":"ce4bgl92rcd13ifvqbq0","pricing_plan_id":"cebpf4jnsgd1na2vs0mg"},{"bike_id":"cbaf6e70-be37-4c92-8bb7-677f9be0a37d","system_id":"levelo_inurba_marseille","lat":43.301209,"lon":5.431304,"is_reserved":false,"is_disabled":false,"rental_uris":{"android":"levelo://app?vid=cbaf6e70-be37-4c92-8bb7-677f9be0a37d","ios":"levelo://app?vid=cbaf6e70-be37-4c92-8bb7-677f9be0a37d"},"vehicle_type_id":"4","last_reported":1762521697,"current_range_meters":17200,"station_id":"st_d3js3co5814s73ftftug","pricing_plan_id":"cebpf4jnsgd1na2vs0mg"},{"bike_id":"b42f9b52-51b0-44ec-94b5-5a5bf48a552c","system_id":"levelo_inurba_marseille","lat":43.29018,"lon":5.38085,"is_reserved":false,"is_disabled":false,"rental_uris":{"android":"levelo://app?vid=b42f9b52-51b0-44ec-94b5-5a5bf48a552c","ios":"levelo://app?vid=b42f9b52-51b0-44ec-94b5-5a5bf48a552c"},"vehicle_type_id":"4","last_reported":1762521697,"current_range_meters":17200,"station_id":"ce4bh4p2rcd13ifvqe1g","pricing_plan_id":"cebpf4jnsgd1na2vs0mg"},{"bike_id":"80d6028b-d102-4553-996c-40c70fdfb53c","system_id":"levelo_inurba_marseille","lat":43.262017,"lon":5.379356,"is_reserved":false,"is_disabled":false,"rental_uris":{"android":"levelo://app?vid=80d6028b-d102-4553-996c-40c70fdfb53c","ios":"levelo://app?vid=80d6028b-d102-4553-996c-40c70fdfb53c"},"vehicle_type_id":"4","last_reported":1762521697,"current_range_meters":17200,"station_id":"ce4bhjp2rcd13ifvqg90","pricing_plan_id":"cebpf4jnsgd1na2vs0mg"},{"bike_id":"026711f1-c640-4e28-8a55-fae57096ee2c","system_id":"levelo_inurba_marseille","lat":43.25937,"lon":5.40921,"is_reserved":false,"is_disabled":false,"rental_uris":{"android":"levelo://app?vid=026711f1-c640-4e28-8a55-fae57096ee2c","ios":"levelo://app?vid=026711f1-c640-4e28-8a55-fae57096ee2c"},"vehicle_type_id":"4","last_reported":1762521697,"current_range_meters":17200,"station_id":"ce4bhm92rcd13ifvqglg","pricing_plan_id":"cebpf4jnsgd1na2vs0mg"},{"bike_id":"07d4a740-67e7-417b-9820-14faa44cc7d6","system_id":"levelo_inurba_marseille","lat":43.28867,"lon":5.42524,"is_reserved":false,"is_disabled":false,"rental_uris":{"android":"levelo://app?vid=07d4a740-67e7-417b-9820-14faa44cc7d6","ios":"levelo://app?vid=07d4a740-67e7-417b-9820-14faa44cc7d6"},"vehicle_type_id":"4","last_reported":1762521697,"current_range_meters":17200,"station_id":"st_d3b462108ojc7389ooeg","pricing_plan_id":"cebpf4jnsgd1na2vs0mg"},{"bike_id":"8294fb7c-61b8-46dd-8a0d-07e729b72143","system_id":"levelo_inurba_marseille","lat":43.23139,"lon":5.43707,"is_reserved":false,"is_disabled":false,"rental_uris":{"android":"levelo://app?vid=8294fb7c-61b8-46dd-8a0d-07e729b72143","ios":"levelo://app?vid=8294fb7c-61b8-46dd-8a0d-07e729b72143"},"vehicle_type_id":"4","last_reported":1762521697,"current_range_meters":17200,"station_id":"ce4bhmp2rcd13ifvqgog","pricing_plan_id":"cebpf4jnsgd1na2vs0mg"},{"bike_id":"51ff5fdd-6d7a-4c6d-82f1-53a4b37ae161","system_id":"levelo_inurba_marseille","lat":43.29275,"lon":5.40144,"is_reserved":false,"is_disabled":false,"rental_uris":{"android":"levelo://app?vid=51ff5fdd-6d7a-4c6d-82f1-53a4b37ae161","ios":"levelo://app?vid=51ff5fdd-6d7a-4c6d-82f1-53a4b37ae161"},"vehicle_type_id":"4","last_reported":1762521697,"current_range_meters":17600,"station_id":"ce4bh312rcd13ifvqdk0","pricing_plan_id":"cebpf4jnsgd1na2vs0mg"},{"bike_id":"6a5ddfdf-eda2-4c9a-bd10-fba552af5b58","system_id":"levelo_inurba_marseille","lat":43.26948,"lon":5.38917,"is_reserved":false,"is_disabled":false,"rental_uris":{"android":"levelo://app?vid=6a5ddfdf-eda2-4c9a-bd10-fba552af5b58","ios":"levelo://app?vid=6a5ddfdf-eda2-4c9a-bd10-fba552af5b58"},"vehicle_type_id":"4","last_reported":1762521697,"current_range_meters":17600,"station_id":"ce4bhhh2rcd13ifvqfl0","pricing_plan_id":"cebpf4jnsgd1na2vs0mg"},{"bike_id":"75d7dc47-dceb-471d-8668-ef13189f4f02","system_id":"levelo_inurba_marseille","lat":43.32335,"lon":5.36708,"is_reserved":false,"is_disabled":false,"rental_uris":{"android":"levelo://app?vid=75d7dc47-dceb-471d-8668-ef13189f4f02","ios":"levelo://app?vid=75d7dc47-dceb-471d-8668-ef13189f4f02"},"vehicle_type_id":"4","last_reported":1762521697,"current_range_meters":17600,"station_id":"ce4bhsh2rcd13ifvqi2g","pricing_plan_id":"cebpf4jnsgd1na2vs0mg"},{"bike_id":"becc05ef-c148-4583-bfb3-696549166a2f","system_id":"levelo_inurba_marseille","lat":43.26963,"lon":5.3864,"is_reserved":false,"is_disabled":false,"rental_uris":{"android":"levelo://app?vid=becc05ef-c148-4583-bfb3-696549166a2f","ios":"levelo://app?vid=becc05ef-c148-4583-bfb3-696549166a2f"},"vehicle_type_id":"4","last_reported":1762521697,"current_range_meters":17600,"station_id":"ce4bhh92rcd13ifvqfh0","pricing_plan_id":"cebpf4jnsgd1na2vs0mg"},{"bike_id":"6d50bdc0-5f2c-43b6-bf1d-fa91b1758752","system_id":"levelo_inurba_marseille","lat":43.25912,"lon":5.40909,"is_reserved":false,"is_disabled":false,"rental_uris":{"android":"levelo://app?vid=6d50bdc0-5f2c-43b6-bf1d-fa91b1758752","ios":"levelo://app?vid=6d50bdc0-5f2c-43b6-bf1d-fa91b1758752"},"vehicle_type_id":"4","last_reported":1762521697,"current_range_meters":17600,"station_id":"ce4bhm92rcd13ifvqglg","pricing_plan_id":"cebpf4jnsgd1na2vs0mg"},{"bike_id":"a718cc29-6f54-49e3-862a-351d7a32001f","system_id":"levelo_inurba_marseille","lat":43.28486,"lon":5.48399,"is_reserved":false,"is_disabled":false,"rental_uris":{"android":"levelo://app?vid=a718cc29-6f54-49e3-862a-351d7a32001f","ios":"levelo://app?vid=a718cc29-6f54-49e3-862a-351d7a32001f"},"vehicle_type_id":"4","last_reported":1762521697,"current_range_meters":17600,"station_id":"","pricing_plan_id":"cebpf4jnsgd1na2vs0mg"},{"bike_id":"d8e5a2ae-7558-4ca1-8f51-3799e24ce1ed","system_id":"levelo_inurba_marseille","lat":43.312174,"lon":5.368414,"is_reserved":false,"is_disabled":true,"rental_uris":{"android":"levelo://app?vid=d8e5a2ae-7558-4ca1-8f51-3799e24ce1ed","ios":"levelo://app?vid=d8e5a2ae-7558-4ca1-8f51-3799e24ce1ed"},"vehicle_type_id":"4","last_reported":1762521697,"current_range_meters":18000,"station_id":"ce4bgl92rcd13ifvqbq0","pricing_plan_id":"cebpf4jnsgd1na2vs0mg"},{"bike_id":"7e2f8f1c-d16c-43c6-b735-214741806923","system_id":"levelo_inurba_marseille","lat":43.2737,"lon":5.36261,"is_reserved":false,"is_disabled":false,"rental_uris":{"android":"levelo://app?vid=7e2f8f1c-d16c-43c6-b735-214741806923","ios":"levelo://app?vid=7e2f8f1c-d16c-43c6-b735-214741806923"},"vehicle_type_id":"4","last_reported":1762521697,"current_range_meters":18000,"station_id":"ce4bhbh2rcd13ifvqeo0","pricing_plan_id":"cebpf4jnsgd1na2vs0mg"},{"bike_id":"6f9bb718-c04b-417b-b3b3-49ce559ac937","system_id":"levelo_inurba_marseille","lat":43.28613,"lon":5.35103,"is_reserved":false,"is_disabled":false,"rental_uris":{"android":"levelo://app?vid=6f9bb718-c04b-417b-b3b3-49ce559ac937","ios":"levelo://app?vid=6f9bb718-c04b-417b-b3b3-49ce559ac937"},"vehicle_type_id":"4","last_reported":1762521697,"current_range_meters":18000,"station_id":"ce4bhch2rcd13ifvqeug","pricing_plan_id":"cebpf4jnsgd1na2vs0mg"},{"bike_id":"c448769d-72a1-4a2a-80b2-791ccf525608","system_id":"levelo_inurba_marseille","lat":43.25721,"lon":5.41113,"is_reserved":false,"is_disabled":false,"rental_uris":{"android":"levelo://app?vid=c448769d-72a1-4a2a-80b2-791ccf525608","ios":"levelo://app?vid=c448769d-72a1-4a2a-80b2-791ccf525608"},"vehicle_type_id":"4","last_reported":1762521697,"current_range_meters":18000,"station_id":"ce4bhkp2rcd13ifvqgd0","pricing_plan_id":"cebpf4jnsgd1na2vs0mg"},{"bike_id":"04d717a8-88c2-4971-8600-fb70f3d4a4b4","system_id":"levelo_inurba_marseille","lat":43.28714,"lon":5.37946,"is_reserved":false,"is_disabled":false,"rental_uris":{"android":"levelo://app?vid=04d717a8-88c2-4971-8600-fb70f3d4a4b4","ios":"levelo://app?vid=04d717a8-88c2-4971-8600-fb70f3d4a4b4"},"vehicle_type_id":"4","last_reported":1762521697,"current_range_meters":18000,"station_id":"ce4bh9p2rcd13ifvqec0","pricing_plan_id":"cebpf4jnsgd1na2vs0mg"},{"bike_id":"288d078a-1775-4c75-b6eb-76ffdc66fb34","system_id":"levelo_inurba_marseille","lat":43.28716,"lon":5.37936,"is_reserved":false,"is_disabled":false,"rental_uris":{"android":"levelo://app?vid=288d078a-1775-4c75-b6eb-76ffdc66fb34","ios":"levelo://app?vid=288d078a-1775-4c75-b6eb-76ffdc66fb34"},"vehicle_type_id":"4","last_reported":1762521697,"current_range_meters":18000,"station_id":"ce4bh9p2rcd13ifvqec0","pricing_plan_id":"cebpf4jnsgd1na2vs0mg"},{"bike_id":"a52e199a-b6c0-46a6-81c2-ed40b23c08f7","system_id":"levelo_inurba_marseille","lat":43.242124,"lon":5.367317,"is_reserved":false,"is_disabled":false,"rental_uris":{"android":"levelo://app?vid=a52e199a-b6c0-46a6-81c2-ed40b23c08f7","ios":"levelo://app?vid=a52e199a-b6c0-46a6-81c2-ed40b23c08f7"},"vehicle_type_id":"4","last_reported":1762521697,"current_range_meters":18000,"station_id":"","pricing_plan_id":"cebpf4jnsgd1na2vs0mg"},{"bike_id":"e4d003e9-9fec-437f-85b8-3e45acbe64c6","system_id":"levelo_inurba_marseille","lat":43.29545,"lon":5.39397,"is_reserved":false,"is_disabled":false,"rental_uris":{"android":"levelo://app?vid=e4d003e9-9fec-437f-85b8-3e45acbe64c6","ios":"levelo://app?vid=e4d003e9-9fec-437f-85b8-3e45acbe64c6"},"vehicle_type_id":"4","last_reported":1762521697,"current_range_meters":18000,"station_id":"ce4bh292rcd13ifvqdf0","pricing_plan_id":"cebpf4jnsgd1na2vs0mg"},{"bike_id":"9f6ec81b-2246-4666-92ef-add3d889a730","system_id":"levelo_inurba_marseille","lat":43.32361,"lon":5.3854,"is_reserved":false,"is_disabled":false,"rental_uris":{"android":"levelo://app?vid=9f6ec81b-2246-4666-92ef-add3d889a730","ios":"levelo://app?vid=9f6ec81b-2246-4666-92ef-add3d889a730"},"vehicle_type_id":"4","last_reported":1762521697,"current_range_meters":18000,"station_id":"st_d45171o9ee8s73djdqug","pricing_plan_id":"cebpf4jnsgd1na2vs0mg"},{"bike_id":"74bb8ce2-1ec5-4414-94bf-bc4889d1e14c","system_id":"levelo_inurba_marseille","lat":43.32471,"lon":5.39476,"is_reserved":false,"is_disabled":false,"rental_uris":{"android":"levelo://app?vid=74bb8ce2-1ec5-4414-94bf-bc4889d1e14c","ios":"levelo://app?vid=74bb8ce2-1ec5-4414-94bf-bc4889d1e14c"},"vehicle_type_id":"4","last_reported":1762521697,"current_range_meters":18000,"station_id":"","pricing_plan_id":"cebpf4jnsgd1na2vs0mg"},{"bike_id":"28b7845d-f455-4d82-b864-641eeb9ca156","system_id":"levelo_inurba_marseille","lat":43.31245,"lon":5.368892,"is_reserved":false,"is_disabled":false,"rental_uris":{"android":"levelo://app?vid=28b7845d-f455-4d82-b864-641eeb9ca156","ios":"levelo://app?vid=28b7845d-f455-4d82-b864-641eeb9ca156"},"vehicle_type_id":"4","last_reported":1762521697,"current_range_meters":18000,"station_id":"ce4bgl92rcd13ifvqbq0","pricing_plan_id":"cebpf4jnsgd1na2vs0mg"},{"bike_id":"4267b514-ba5d-4574-adbd-2f1d6552ba83","system_id":"levelo_inurba_marseille","lat":43.29845,"lon":5.36291,"is_reserved":false,"is_disabled":false,"rental_uris":{"android":"levelo://app?vid=4267b514-ba5d-4574-adbd-2f1d6552ba83","ios":"levelo://app?vid=4267b514-ba5d-4574-adbd-2f1d6552ba83"},"vehicle_type_id":"4","last_reported":1762521697,"current_range_meters":18800,"station_id":"ce4bgpp2rcd13ifvqc3g","pricing_plan_id":"cebpf4jnsgd1na2vs0mg"},{"bike_id":"50d66ef6-eee6-446b-89c0-a013e389d618","system_id":"levelo_inurba_marseille","lat":43.29981,"lon":5.38483,"is_reserved":false,"is_disabled":false,"rental_uris":{"android":"levelo://app?vid=50d66ef6-eee6-446b-89c0-a013e389d618","ios":"levelo://app?vid=50d66ef6-eee6-446b-89c0-a013e389d618"},"vehicle_type_id":"4","last_reported":1762521697,"current_range_meters":18800,"station_id":"ce4bgj92rcd13ifvqbd0","pricing_plan_id":"cebpf4jnsgd1na2vs0mg"},{"bike_id":"f38f1bc3-618d-492a-a121-992dbdd6ea3f","system_id":"levelo_inurba_marseille","lat":43.29766,"lon":5.37097,"is_reserved":false,"is_disabled":false,"rental_uris":{"android":"levelo://app?vid=f38f1bc3-618d-492a-a121-992dbdd6ea3f","ios":"levelo://app?vid=f38f1bc3-618d-492a-a121-992dbdd6ea3f"},"vehicle_type_id":"4","last_reported":1762521697,"current_range_meters":18800,"station_id":"ce4bgop2rcd13ifvqc1g","pricing_plan_id":"cebpf4jnsgd1na2vs0mg"},{"bike_id":"1254ff5e-9c85-4832-970c-4da75b27c329","system_id":"levelo_inurba_marseille","lat":43.27839,"lon":5.39208,"is_reserved":false,"is_disabled":false,"rental_uris":{"android":"levelo://app?vid=1254ff5e-9c85-4832-970c-4da75b27c329","ios":"levelo://app?vid=1254ff5e-9c85-4832-970c-4da75b27c329"},"vehicle_type_id":"4","last_reported":1762521697,"current_range_meters":18800,"station_id":"ce4bhjp2rcd13ifvqga0","pricing_plan_id":"cebpf4jnsgd1na2vs0mg"},{"bike_id":"106efc4b-3629-4c83-a1c4-3f4ee9d12cb6","system_id":"levelo_inurba_marseille","lat":43.309076,"lon":5.373057,"is_reserved":false,"is_disabled":false,"rental_uris":{"android":"levelo://app?vid=106efc4b-3629-4c83-a1c4-3f4ee9d12cb6","ios":"levelo://app?vid=106efc4b-3629-4c83-a1c4-3f4ee9d12cb6"},"vehicle_type_id":"4","last_reported":1762521697,"current_range_meters":18800,"station_id":"","pricing_plan_id":"cebpf4jnsgd1na2vs0mg"},{"bike_id":"c508dfa6-c4b6-4cea-a4ec-947e346a8310","system_id":"levelo_inurba_marseille","lat":43.33608,"lon":5.41016,"is_reserved":false,"is_disabled":true,"rental_uris":{"android":"levelo://app?vid=c508dfa6-c4b6-4cea-a4ec-947e346a8310","ios":"levelo://app?vid=c508dfa6-c4b6-4cea-a4ec-947e346a8310"},"vehicle_type_id":"4","last_reported":1762521697,"current_range_meters":18800,"station_id":"ce4bhqh2rcd13ifvqhmg","pricing_plan_id":"cebpf4jnsgd1na2vs0mg"},{"bike_id":"5430dbad-1cf4-4aed-b79e-a3de7d44f7f4","system_id":"levelo_inurba_marseille","lat":43.25924,"lon":5.40909,"is_reserved":false,"is_disabled":false,"rental_uris":{"android":"levelo://app?vid=5430dbad-1cf4-4aed-b79e-a3de7d44f7f4","ios":"levelo://app?vid=5430dbad-1cf4-4aed-b79e-a3de7d44f7f4"},"vehicle_type_id":"4","last_reported":1762521697,"current_range_meters":18800,"station_id":"ce4bhm92rcd13ifvqglg","pricing_plan_id":"cebpf4jnsgd1na2vs0mg"},{"bike_id":"58df984d-f6ad-47ef-818a-7818e887c7c9","system_id":"levelo_inurba_marseille","lat":43.30126,"lon":5.43092,"is_reserved":false,"is_disabled":false,"rental_uris":{"android":"levelo://app?vid=58df984d-f6ad-47ef-818a-7818e887c7c9","ios":"levelo://app?vid=58df984d-f6ad-47ef-818a-7818e887c7c9"},"vehicle_type_id":"4","last_reported":1762521697,"current_range_meters":19200,"station_id":"st_d3js3co5814s73ftftug","pricing_plan_id":"cebpf4jnsgd1na2vs0mg"},{"bike_id":"878061ad-be07-4023-9441-7225cc46602a","system_id":"levelo_inurba_marseille","lat":43.29278,"lon":5.40141,"is_reserved":false,"is_disabled":false,"rental_uris":{"android":"levelo://app?vid=878061ad-be07-4023-9441-7225cc46602a","ios":"levelo://app?vid=878061ad-be07-4023-9441-7225cc46602a"},"vehicle_type_id":"4","last_reported":1762521697,"current_range_meters":19200,"station_id":"ce4bh312rcd13ifvqdk0","pricing_plan_id":"cebpf4jnsgd1na2vs0mg"},{"bike_id":"6256ef13-bed3-4bf0-aac6-c59c1a0f4cc7","system_id":"levelo_inurba_marseille","lat":43.285403,"lon":5.350493,"is_reserved":false,"is_disabled":false,"rental_uris":{"android":"levelo://app?vid=6256ef13-bed3-4bf0-aac6-c59c1a0f4cc7","ios":"levelo://app?vid=6256ef13-bed3-4bf0-aac6-c59c1a0f4cc7"},"vehicle_type_id":"4","last_reported":1762521697,"current_range_meters":19200,"station_id":"ce4bhoh2rcd13ifvqh5g","pricing_plan_id":"cebpf4jnsgd1na2vs0mg"},{"bike_id":"5098c842-5e48-40e2-b457-cc6766f8dfac","system_id":"levelo_inurba_marseille","lat":43.25714,"lon":5.41095,"is_reserved":false,"is_disabled":false,"rental_uris":{"android":"levelo://app?vid=5098c842-5e48-40e2-b457-cc6766f8dfac","ios":"levelo://app?vid=5098c842-5e48-40e2-b457-cc6766f8dfac"},"vehicle_type_id":"4","last_reported":1762521697,"current_range_meters":19200,"station_id":"ce4bhkp2rcd13ifvqgd0","pricing_plan_id":"cebpf4jnsgd1na2vs0mg"},{"bike_id":"01e19127-993f-431f-ba2a-0c312c9293c3","system_id":"levelo_inurba_marseille","lat":43.31121,"lon":5.37759,"is_reserved":false,"is_disabled":false,"rental_uris":{"android":"levelo://app?vid=01e19127-993f-431f-ba2a-0c312c9293c3","ios":"levelo://app?vid=01e19127-993f-431f-ba2a-0c312c9293c3"},"vehicle_type_id":"4","last_reported":1762521697,"current_range_meters":19200,"station_id":"ce4bgt92rcd13ifvqcg0","pricing_plan_id":"cebpf4jnsgd1na2vs0mg"},{"bike_id":"a7074784-7394-4575-9b19-f3061e86a019","system_id":"levelo_inurba_marseille","lat":43.25928,"lon":5.40899,"is_reserved":false,"is_disabled":false,"rental_uris":{"android":"levelo://app?vid=a7074784-7394-4575-9b19-f3061e86a019","ios":"levelo://app?vid=a7074784-7394-4575-9b19-f3061e86a019"},"vehicle_type_id":"4","last_reported":1762521697,"current_range_meters":19200,"station_id":"ce4bhm92rcd13ifvqglg","pricing_plan_id":"cebpf4jnsgd1na2vs0mg"},{"bike_id":"e322078f-993b-4fa2-baf7-b7d5fcc92b95","system_id":"levelo_inurba_marseille","lat":43.309473,"lon":5.390276,"is_reserved":false,"is_disabled":false,"rental_uris":{"android":"levelo://app?vid=e322078f-993b-4fa2-baf7-b7d5fcc92b95","ios":"levelo://app?vid=e322078f-993b-4fa2-baf7-b7d5fcc92b95"},"vehicle_type_id":"4","last_reported":1762521697,"current_range_meters":19200,"station_id":"ce4bgup2rcd13ifvqco0","pricing_plan_id":"cebpf4jnsgd1na2vs0mg"},{"bike_id":"fcb5eb0c-3791-4769-990f-4a5a7b0e2eb0","system_id":"levelo_inurba_marseille","lat":43.31264,"lon":5.40172,"is_reserved":false,"is_disabled":false,"rental_uris":{"android":"levelo://app?vid=fcb5eb0c-3791-4769-990f-4a5a7b0e2eb0","ios":"levelo://app?vid=fcb5eb0c-3791-4769-990f-4a5a7b0e2eb0"},"vehicle_type_id":"4","last_reported":1762521697,"current_range_meters":19200,"station_id":"ce4bh092rcd13ifvqd30","pricing_plan_id":"cebpf4jnsgd1na2vs0mg"},{"bike_id":"a2b2770b-9c2a-43e8-8168-db2fdc11979f","system_id":"levelo_inurba_marseille","lat":43.23176,"lon":5.39991,"is_reserved":false,"is_disabled":false,"rental_uris":{"android":"levelo://app?vid=a2b2770b-9c2a-43e8-8168-db2fdc11979f","ios":"levelo://app?vid=a2b2770b-9c2a-43e8-8168-db2fdc11979f"},"vehicle_type_id":"4","last_reported":1762521697,"current_range_meters":19200,"station_id":"ce4bhn12rcd13ifvqgqg","pricing_plan_id":"cebpf4jnsgd1na2vs0mg"},{"bike_id":"d2991a60-dcfa-4252-8f9d-bfff4b1dc433","system_id":"levelo_inurba_marseille","lat":43.31049,"lon":5.37181,"is_reserved":false,"is_disabled":false,"rental_uris":{"android":"levelo://app?vid=d2991a60-dcfa-4252-8f9d-bfff4b1dc433","ios":"levelo://app?vid=d2991a60-dcfa-4252-8f9d-bfff4b1dc433"},"vehicle_type_id":"4","last_reported":1762521697,"current_range_meters":19200,"station_id":"","pricing_plan_id":"cebpf4jnsgd1na2vs0mg"},{"bike_id":"31eebf4e-53f3-4e71-9e14-50cb1d1e0630","system_id":"levelo_inurba_marseille","lat":43.23966,"lon":5.36629,"is_reserved":false,"is_disabled":false,"rental_uris":{"android":"levelo://app?vid=31eebf4e-53f3-4e71-9e14-50cb1d1e0630","ios":"levelo://app?vid=31eebf4e-53f3-4e71-9e14-50cb1d1e0630"},"vehicle_type_id":"4","last_reported":1762521697,"current_range_meters":19200,"station_id":"ce4bhi12rcd13ifvqfp0","pricing_plan_id":"cebpf4jnsgd1na2vs0mg"},{"bike_id":"190c163d-9939-47be-b785-7d7e5113a307","system_id":"levelo_inurba_marseille","lat":43.28854,"lon":5.35862,"is_reserved":false,"is_disabled":false,"rental_uris":{"android":"levelo://app?vid=190c163d-9939-47be-b785-7d7e5113a307","ios":"levelo://app?vid=190c163d-9939-47be-b785-7d7e5113a307"},"vehicle_type_id":"4","last_reported":1762521697,"current_range_meters":19600,"station_id":"ce4bhb12rcd13ifvqem0","pricing_plan_id":"cebpf4jnsgd1na2vs0mg"},{"bike_id":"adc728c4-7d88-468c-be89-220c19218372","system_id":"levelo_inurba_marseille","lat":43.316158,"lon":5.38284,"is_reserved":false,"is_disabled":false,"rental_uris":{"android":"levelo://app?vid=adc728c4-7d88-468c-be89-220c19218372","ios":"levelo://app?vid=adc728c4-7d88-468c-be89-220c19218372"},"vehicle_type_id":"4","last_reported":1762521697,"current_range_meters":19600,"station_id":"","pricing_plan_id":"cebpf4jnsgd1na2vs0mg"},{"bike_id":"be38f283-4df3-4244-ad71-6fe621d54ae8","system_id":"levelo_inurba_marseille","lat":43.337539,"lon":5.374602,"is_reserved":false,"is_disabled":false,"rental_uris":{"android":"levelo://app?vid=be38f283-4df3-4244-ad71-6fe621d54ae8","ios":"levelo://app?vid=be38f283-4df3-4244-ad71-6fe621d54ae8"},"vehicle_type_id":"4","last_reported":1762521697,"current_range_meters":19600,"station_id":"","pricing_plan_id":"cebpf4jnsgd1na2vs0mg"},{"bike_id":"5ebbfdc4-4988-4f8f-860a-a23e6d29751d","system_id":"levelo_inurba_marseille","lat":43.30535,"lon":5.36536,"is_reserved":false,"is_disabled":false,"rental_uris":{"android":"levelo://app?vid=5ebbfdc4-4988-4f8f-860a-a23e6d29751d","ios":"levelo://app?vid=5ebbfdc4-4988-4f8f-860a-a23e6d29751d"},"vehicle_type_id":"4","last_reported":1762521697,"current_range_meters":19600,"station_id":"ce4bgs12rcd13ifvqcag","pricing_plan_id":"cebpf4jnsgd1na2vs0mg"},