{"last_updated":1714939607,"ttl":30,"version":"2.2","data":{"bikes":[{"bike_id":"b1433d7b-d001-474f-b9cc-c4a563b7ea57","system_id":"levelo_inurba_marseille","lat":43.31341,"lon":5.367098,"is_reserved":false,"is_disabled":false,"rental_uris":{"android":"levelo://app?vid=b1433d7b-d001-474f-b9cc-c4a563b7ea57","ios":"levelo://app?vid=b1433d7b-d001-474f-b9cc-c4a563b7ea57"},"vehicle_type_id":"4","last_reported":1714939607,"current_range_meters":2400,"station_id":"ce4bgr92rcd13ifvqc6g","pricing_plan_id":"cebpf4jnsgd1na2vs0mg"},{"bike_id":"6befe83b-e194-4965-9508-03c78812574a","system_id":"levelo_inurba_marseille","lat":43.31341,"lon":5.367098,"is_reserved":false,"is_disabled":false,"rental_uris":{"android":"levelo://app?vid=6befe83b-e194-4965-9508-03c78812574a","ios":"levelo://app?vid=6befe83b-e194-4965-9508-03c78812574a"},"vehicle_type_id":"4","last_reported":1714939607,"current_range_meters":0,"station_id":"ce4bgr92rcd13ifvqc6g","pricing_plan_id":"cebpf4jnsgd1na2vs0mg"},{"bike_id":"343734a7-a6f0-446b-9565-ab574a4205a7","system_id":"levelo_inurba_marseille","lat":43.31216,"lon":5.36854,"is_reserved":false,"is_disabled":false,"rental_uris":{"android":"levelo://app?vid=343734a7-a6f0-446b-9565-ab574a4205a7","ios":"levelo://app?vid=343734a7-a6f0-446b-9565-ab574a4205a7"},"vehicle_type_id":"4","last_reported":1714939607,"current_range_meters":8800,"station_id":"ce4bgl92rcd13ifvqbq0","pricing_plan_id":"cebpf4jnsgd1na2vs0mg"},{"bike_id":"2920ff4b-ea01-443f-bcb5-43a81ab4f514","system_id":"levelo_inurba_marseille","lat":43.312239,"lon":5.368562,"is_reserved":false,"is_disabled":false,"rental_uris":{"android":"levelo://app?vid=2920ff4b-ea01-443f-bcb5-43a81ab4f514","ios":"levelo://app?vid=2920ff4b-ea01-443f-bcb5-43a81ab4f514"},"vehicle_type_id":"4","last_reported":1714939607,"current_range_meters":3600,"station_id":"ce4bgl92rcd13ifvqbq0","pricing_plan_id":"cebpf4jnsgd1na2vs0mg"},{"bike_id":"824f1933-0f1a-4a87-a8a6-16affaf9e328","system_id":"levelo_inurba_marseille","lat":43.309076,"lon":5.368465,"is_reserved":false,"is_disabled":false,"rental_uris":{"android":"levelo://app?vid=824f1933-0f1a-4a87-a8a6-16affaf9e328","ios":"levelo://app?vid=824f1933-0f1a-4a87-a8a6-16affaf9e328"},"vehicle_type_id":"4","last_reported":1714939607,"current_range_meters":24000,"station_id":"ce4bgn92rcd13ifvqbvg","pricing_plan_id":"cebpf4jnsgd1na2vs0mg"},{"bike_id":"48cdc1d0-2d7f-4e97-b3f9-f2e74fa12405","system_id":"levelo_inurba_marseille","lat":43.309076,"lon":5.368465,"is_reserved":false,"is_disabled":false,"rental_uris":{"android":"levelo://app?vid=48cdc1d0-2d7f-4e97-b3f9-f2e74fa12405","ios":"levelo://app?vid=48cdc1d0-2d7f-4e97-b3f9-f2e74fa12405"},"vehicle_type_id":"4","last_reported":1714939607,"current_range_meters":25200,"station_id":"ce4bgn92rcd13ifvqbvg","pricing_plan_id":"cebpf4jnsgd1na2vs0mg"},{"bike_id":"f0b78e20-d2fd-4cce-b0d8-356db9bccb49","system_id":"levelo_inurba_marseille","lat":43.309039,"lon":5.371797,"is_reserved":false,"is_disabled":false,"rental_uris":{"android":"levelo://app?vid=f0b78e20-d2fd-4cce-b0d8-356db9bccb49","ios":"levelo://app?vid=f0b78e20-d2fd-4cce-b0d8-356db9bccb49"},"vehicle_type_id":"4","last_reported":1714939607,"current_range_meters":8400,"station_id":"ce4bguh2rcd13ifvqckg","pricing_plan_id":"cebpf4jnsgd1na2vs0mg"},{"bike_id":"48b34684-b0a8-4e7a-8754-7097f36fa7db","system_id":"levelo_inurba_marseille","lat":43.314811,"lon":5.373103,"is_reserved":false,"is_disabled":false,"rental_uris":{"android":"levelo://app?vid=48b34684-b0a8-4e7a-8754-7097f36fa7db","ios":"levelo://app?vid=48b34684-b0a8-4e7a-8754-7097f36fa7db"},"vehicle_type_id":"4","last_reported":1714939607,"current_range_meters":24800,"station_id":"ce4bgt12rcd13ifvqcd0","pricing_plan_id":"cebpf4jnsgd1na2vs0mg"},{"bike_id":"687a4560-ac26-4b1e-8a61-e4d61eed7ff4","system_id":"levelo_inurba_marseille","lat":43.309039,"lon":5.371797,"is_reserved":false,"is_disabled":false,"rental_uris":{"android":"levelo://app?vid=687a4560-ac26-4b1e-8a61-e4d61eed7ff4","ios":"levelo://app?vid=687a4560-ac26-4b1e-8a61-e4d61eed7ff4"},"vehicle_type_id":"4","last_reported":1714939607,"current_range_meters":3200,"station_id":"ce4bguh2rcd13ifvqckg","pricing_plan_id":"cebpf4jnsgd1na2vs0mg"},{"bike_id":"7af15aaf-e8e0-416b-8d9d-6ffd9cab4a45","system_id":"levelo_inurba_marseille","lat":43.309039,"lon":5.371797,"is_reserved":false,"is_disabled":false,"rental_uris":{"android":"levelo://app?vid=7af15aaf-e8e0-416b-8d9d-6ffd9cab4a45","ios":"levelo://app?vid=7af15aaf-e8e0-416b-8d9d-6ffd9cab4a45"},"vehicle_type_id":"4","last_reported":1714939607,"current_range_meters":21600,"station_id":"ce4bguh2rcd13ifvqckg","pricing_plan_id":"cebpf4jnsgd1na2vs0mg"},{"bike_id":"077f227b-77c9-4917-926a-d0110e852c99","system_id":"levelo_inurba_marseille","lat":43.305301,"lon":5.365469,"is_reserved":false,"is_disabled":false,"rental_uris":{"android":"levelo://app?vid=077f227b-77c9-4917-926a-d0110e852c99","ios":"levelo://app?vid=077f227b-77c9-4917-926a-d0110e852c99"},"vehicle_type_id":"4","last_reported":1714939607,"current_range_meters":0,"station_id":"ce4bgs12rcd13ifvqcag","pricing_plan_id":"cebpf4jnsgd1na2vs0mg"},{"bike_id":"74e5be37-8bad-494f-a7f3-a04d7e240040","system_id":"levelo_inurba_marseille","lat":43.30537,"lon":5.367345,"is_reserved":false,"is_disabled":false,"rental_uris":{"android":"levelo://app?vid=74e5be37-8bad-494f-a7f3-a04d7e240040","ios":"levelo://app?vid=74e5be37-8bad-494f-a7f3-a04d7e240040"},"vehicle_type_id":"4","last_reported":1714939607,"current_range_meters":27600,"station_id":"ce4bgrp2rcd13ifvqc9g","pricing_plan_id":"cebpf4jnsgd1na2vs0mg"},{"bike_id":"c77217c3-6fb0-4e87-b829-e6794d5d281e","system_id":"levelo_inurba_marseille","lat":43.305989,"lon":5.37225,"is_reserved":false,"is_disabled":false,"rental_uris":{"android":"levelo://app?vid=c77217c3-6fb0-4e87-b829-e6794d5d281e","ios":"levelo://app?vid=c77217c3-6fb0-4e87-b829-e6794d5d281e"},"vehicle_type_id":"4","last_reported":1714939607,"current_range_meters":400,"station_id":"ce4bgqh2rcd13ifvqc4g","pricing_plan_id":"cebpf4jnsgd1na2vs0mg"},{"bike_id":"fc2dc722-b144-4470-a77d-272d48df3e5e","system_id":"levelo_inurba_marseille","lat":43.311125,"lon":5.377624,"is_reserved":false,"is_disabled":false,"rental_uris":{"android":"levelo://app?vid=fc2dc722-b144-4470-a77d-272d48df3e5e","ios":"levelo://app?vid=fc2dc722-b144-4470-a77d-272d48df3e5e"},"vehicle_type_id":"4","last_reported":1714939607,"current_range_meters":28800,"station_id":"ce4bgt92rcd13ifvqcg0","pricing_plan_id":"cebpf4jnsgd1na2vs0mg"},{"bike_id":"48f5ab4f-694c-4f7f-884a-6e63771b6d0b","system_id":"levelo_inurba_marseille","lat":43.3111,"lon":5.37767,"is_reserved":false,"is_disabled":false,"rental_uris":{"android":"levelo://app?vid=48f5ab4f-694c-4f7f-884a-6e63771b6d0b","ios":"levelo://app?vid=48f5ab4f-694c-4f7f-884a-6e63771b6d0b"},"vehicle_type_id":"4","last_reported":1714939607,"current_range_meters":0,"station_id":"ce4bgt92rcd13ifvqcg0","pricing_plan_id":"cebpf4jnsgd1na2vs0mg"},{"bike_id":"8cc05ece-51aa-4b3d-8461-17b7aaa1843d","system_id":"levelo_inurba_marseille","lat":43.311127,"lon":5.377687,"is_reserved":false,"is_disabled":false,"rental_uris":{"android":"levelo://app?vid=8cc05ece-51aa-4b3d-8461-17b7aaa1843d","ios":"levelo://app?vid=8cc05ece-51aa-4b3d-8461-17b7aaa1843d"},"vehicle_type_id":"4","last_reported":1714939607,"current_range_meters":16800,"station_id":"ce4bgt92rcd13ifvqcg0","pricing_plan_id":"cebpf4jnsgd1na2vs0mg"},{"bike_id":"a0ac1f46-cbf3-42ff-8192-b8be99a935f8","system_id":"levelo_inurba_marseille","lat":43.31108,"lon":5.377673,"is_reserved":false,"is_disabled":false,"rental_uris":{"android":"levelo://app?vid=a0ac1f46-cbf3-42ff-8192-b8be99a935f8","ios":"levelo://app?vid=a0ac1f46-cbf3-42ff-8192-b8be99a935f8"},"vehicle_type_id":"4","last_reported":1714939607,"current_range_meters":25600,"station_id":"ce4bgt92rcd13ifvqcg0","pricing_plan_id":"cebpf4jnsgd1na2vs0mg"},{"bike_id":"b6f28c22-5538-4482-aa01-885250b05914","system_id":"levelo_inurba_marseille","lat":43.311125,"lon":5.377624,"is_reserved":false,"is_disabled":false,"rental_uris":{"android":"levelo://app?vid=b6f28c22-5538-4482-aa01-885250b05914","ios":"levelo://app?vid=b6f28c22-5538-4482-aa01-885250b05914"},"vehicle_type_id":"4","last_reported":1714939607,"current_range_meters":6400,"station_id":"ce4bgt92rcd13ifvqcg0","pricing_plan_id":"cebpf4jnsgd1na2vs0mg"},{"bike_id":"271b2707-110e-4748-a371-58ffe3662035","system_id":"levelo_inurba_marseille","lat":43.30781,"lon":5.37648,"is_reserved":false,"is_disabled":false,"rental_uris":{"android":"levelo://app?vid=271b2707-110e-4748-a371-58ffe3662035","ios":"levelo://app?vid=271b2707-110e-4748-a371-58ffe3662035"},"vehicle_type_id":"4","last_reported":1714939607,"current_range_meters":5600,"station_id":"ce4bgv92rcd13ifvqcq0","pricing_plan_id":"cebpf4jnsgd1na2vs0mg"},{"bike_id":"6e7bac92-e124-4dee-989b-18d57967afb6","system_id":"levelo_inurba_marseille","lat":43.307945,"lon":5.376487,"is_reserved":false,"is_disabled":false,"rental_uris":{"android":"levelo://app?vid=6e7bac92-e124-4dee-989b-18d57967afb6","ios":"levelo://app?vid=6e7bac92-e124-4dee-989b-18d57967afb6"},"vehicle_type_id":"4","last_reported":1714939607,"current_range_meters":10800,"station_id":"ce4bgv92rcd13ifvqcq0","pricing_plan_id":"cebpf4jnsgd1na2vs0mg"},{"bike_id":"183d5142-7e00-4aad-8376-617b24901c49","system_id":"levelo_inurba_marseille","lat":43.307945,"lon":5.376487,"is_reserved":false,"is_disabled":false,"rental_uris":{"android":"levelo://app?vid=183d5142-7e00-4aad-8376-617b24901c49","ios":"levelo://app?vid=183d5142-7e00-4aad-8376-617b24901c49"},"vehicle_type_id":"4","last_reported":1714939607,"current_range_meters":9200,"station_id":"ce4bgv92rcd13ifvqcq0","pricing_plan_id":"cebpf4jnsgd1na2vs0mg"},{"bike_id":"f638ef10-5955-4537-a399-43b50f8d02d9","system_id":"levelo_inurba_marseille","lat":43.307945,"lon":5.376487,"is_reserved":false,"is_disabled":false,"rental_uris":{"android":"levelo://app?vid=f638ef10-5955-4537-a399-43b50f8d02d9","ios":"levelo://app?vid=f638ef10-5955-4537-a399-43b50f8d02d9"},"vehicle_type_id":"4","last_reported":1714939607,"current_range_meters":19200,"station_id":"ce4bgv92rcd13ifvqcq0","pricing_plan_id":"cebpf4jnsgd1na2vs0mg"},{"bike_id":"e62e6e00-9df9-4a06-bfaa-a17f80f83683","system_id":"levelo_inurba_marseille","lat":43.30782,"lon":5.37654,"is_reserved":false,"is_disabled":false,"rental_uris":{"android":"levelo://app?vid=e62e6e00-9df9-4a06-bfaa-a17f80f83683","ios":"levelo://app?vid=e62e6e00-9df9-4a06-bfaa-a17f80f83683"},"vehicle_type_id":"4","last_reported":1714939607,"current_range_meters":21600,"station_id":"","pricing_plan_id":"cebpf4jnsgd1na2vs0mg"},{"bike_id":"d39bda1e-d904-47ff-947a-e7265cde3e0c","system_id":"levelo_inurba_marseille","lat":43.307945,"lon":5.376487,"is_reserved":false,"is_disabled":false,"rental_uris":{"android":"levelo://app?vid=d39bda1e-d904-47ff-947a-e7265cde3e0c","ios":"levelo://app?vid=d39bda1e-d904-47ff-947a-e7265cde3e0c"},"vehicle_type_id":"4","last_reported":1714939607,"current_range_meters":19200,"station_id":"ce4bgv92rcd13ifvqcq0","pricing_plan_id":"cebpf4jnsgd1na2vs0mg"},{"bike_id":"fee1b8d0-b0a9-447c-ad14-06e0e9ea9f4b","system_id":"levelo_inurba_marseille","lat":43.307945,"lon":5.376487,"is_reserved":false,"is_disabled":false,"rental_uris":{"android":"levelo://app?vid=fee1b8d0-b0a9-447c-ad14-06e0e9ea9f4b","ios":"levelo://app?vid=fee1b8d0-b0a9-447c-ad14-06e0e9ea9f4b"},"vehicle_type_id":"4","last_reported":1714939607,"current_range_meters":1200,"station_id":"ce4bgv92rcd13ifvqcq0","pricing_plan_id":"cebpf4jnsgd1na2vs0mg"},{"bike_id":"d83f3424-119a-42dd-90ed-c4fcefa6653d","system_id":"levelo_inurba_marseille","lat":43.307945,"lon":5.376487,"is_reserved":false,"is_disabled":false,"rental_uris":{"android":"levelo://app?vid=d83f3424-119a-42dd-90ed-c4fcefa6653d","ios":"levelo://app?vid=d83f3424-119a-42dd-90ed-c4fcefa6653d"},"vehicle_type_id":"4","last_reported":1714939607,"current_range_meters":12000,"station_id":"ce4bgv92rcd13ifvqcq0","pricing_plan_id":"cebpf4jnsgd1na2vs0mg"},{"bike_id":"66a95d25-c052-4191-8523-0a0fc9e5ddc6","system_id":"levelo_inurba_marseille","lat":43.307945,"lon":5.376487,"is_reserved":false,"is_disabled":false,"rental_uris":{"android":"levelo://app?vid=66a95d25-c052-4191-8523-0a0fc9e5ddc6","ios":"levelo://app?vid=66a95d25-c052-4191-8523-0a0fc9e5ddc6"},"vehicle_type_id":"4","last_reported":1714939607,"current_range_meters":14400,"station_id":"ce4bgv92rcd13ifvqcq0","pricing_plan_id":"cebpf4jnsgd1na2vs0mg"},{"bike_id":"674d86a4-1ca7-475f-9d35-27c57698729a","system_id":"levelo_inurba_marseille","lat":43.307945,"lon":5.376487,"is_reserved":false,"is_disabled":false,"rental_uris":{"android":"levelo://app?vid=674d86a4-1ca7-475f-9d35-27c57698729a","ios":"levelo://app?vid=674d86a4-1ca7-475f-9d35-27c57698729a"},"vehicle_type_id":"4","last_reported":1714939607,"current_range_meters":24800,"station_id":"ce4bgv92rcd13ifvqcq0","pricing_plan_id":"cebpf4jnsgd1na2vs0mg"},{"bike_id":"496893d4-1559-4594-9b0e-fbfdd9ad9e8a","system_id":"levelo_inurba_marseille","lat":43.317075,"lon":5.377367,"is_reserved":false,"is_disabled":false,"rental_uris":{"android":"levelo://app?vid=496893d4-1559-4594-9b0e-fbfdd9ad9e8a","ios":"levelo://app?vid=496893d4-1559-4594-9b0e-fbfdd9ad9e8a"},"vehicle_type_id":"4","last_reported":1714939607,"current_range_meters":23200,"station_id":"ce4bgth2rcd13ifvqch0","pricing_plan_id":"cebpf4jnsgd1na2vs0mg"},{"bike_id":"efab0a68-a236-4fc8-a84f-d97a55581c0a","system_id":"levelo_inurba_marseille","lat":43.317075,"lon":5.377367,"is_reserved":false,"is_disabled":false,"rental_uris":{"android":"levelo://app?vid=efab0a68-a236-4fc8-a84f-d97a55581c0a","ios":"levelo://app?vid=efab0a68-a236-4fc8-a84f-d97a55581c0a"},"vehicle_type_id":"4","last_reported":1714939607,"current_range_meters":4800,"station_id":"ce4bgth2rcd13ifvqch0","pricing_plan_id":"cebpf4jnsgd1na2vs0mg"},{"bike_id":"66706403-b896-4377-a451-aac33ee3c4ea","system_id":"levelo_inurba_marseille","lat":43.317075,"lon":5.377367,"is_reserved":false,"is_disabled":false,"rental_uris":{"android":"levelo://app?vid=66706403-b896-4377-a451-aac33ee3c4ea","ios":"levelo://app?vid=66706403-b896-4377-a451-aac33ee3c4ea"},"vehicle_type_id":"4","last_reported":1714939607,"current_range_meters":7200,"station_id":"ce4bgth2rcd13ifvqch0","pricing_plan_id":"cebpf4jnsgd1na2vs0mg"},{"bike_id":"1cbd7034-6937-4f21-a9e6-c4fe634acfca","system_id":"levelo_inurba_marseille","lat":43.303046,"lon":5.368981,"is_reserved":false,"is_disabled":false,"rental_uris":{"android":"levelo://app?vid=1cbd7034-6937-4f21-a9e6-c4fe634acfca","ios":"levelo://app?vid=1cbd7034-6937-4f21-a9e6-c4fe634acfca"},"vehicle_type_id":"4","last_reported":1714939607,"current_range_meters":21200,"station_id":"ce4bgqh2rcd13ifvqc5g","pricing_plan_id":"cebpf4jnsgd1na2vs0mg"},{"bike_id":"0a27f836-5ff1-44da-9f63-b8a90f0a2dba","system_id":"levelo_inurba_marseille","lat":43.315289,"lon":5.380349,"is_reserved":false,"is_disabled":false,"rental_uris":{"android":"levelo://app?vid=0a27f836-5ff1-44da-9f63-b8a90f0a2dba","ios":"levelo://app?vid=0a27f836-5ff1-44da-9f63-b8a90f0a2dba"},"vehicle_type_id":"4","last_reported":1714939607,"current_range_meters":15200,"station_id":"ce4bhsp2rcd13ifvqi50","pricing_plan_id":"cebpf4jnsgd1na2vs0mg"},{"bike_id":"62195c3a-58b1-4595-9180-0f8e8c60a33d","system_id":"levelo_inurba_marseille","lat":43.315289,"lon":5.380349,"is_reserved":false,"is_disabled":false,"rental_uris":{"android":"levelo://app?vid=62195c3a-58b1-4595-9180-0f8e8c60a33d","ios":"levelo://app?vid=62195c3a-58b1-4595-9180-0f8e8c60a33d"},"vehicle_type_id":"4","last_reported":1714939607,"current_range_meters":16400,"station_id":"ce4bhsp2rcd13ifvqi50","pricing_plan_id":"cebpf4jnsgd1na2vs0mg"},{"bike_id":"180410da-9fa0-4d42-a120-0e962f9178b6","system_id":"levelo_inurba_marseille","lat":43.315293,"lon":5.380349,"is_reserved":false,"is_disabled":false,"rental_uris":{"android":"levelo://app?vid=180410da-9fa0-4d42-a120-0e962f9178b6","ios":"levelo://app?vid=180410da-9fa0-4d42-a120-0e962f9178b6"},"vehicle_type_id":"4","last_reported":1714939607,"current_range_meters":16400,"station_id":"ce4bhsp2rcd13ifvqi50","pricing_plan_id":"cebpf4jnsgd1na2vs0mg"},{"bike_id":"93a6cbc3-3d42-4d71-85c7-0764427b9d2f","system_id":"levelo_inurba_marseille","lat":43.315289,"lon":5.380349,"is_reserved":false,"is_disabled":false,"rental_uris":{"android":"levelo://app?vid=93a6cbc3-3d42-4d71-85c7-0764427b9d2f","ios":"levelo://app?vid=93a6cbc3-3d42-4d71-85c7-0764427b9d2f"},"vehicle_type_id":"4","last_reported":1714939607,"current_range_meters":26400,"station_id":"ce4bhsp2rcd13ifvqi50","pricing_plan_id":"cebpf4jnsgd1na2vs0mg"},{"bike_id":"287cb00b-5ddc-4dec-982c-821863eb5756","system_id":"levelo_inurba_marseille","lat":43.315293,"lon":5.380349,"is_reserved":false,"is_disabled":false,"rental_uris":{"android":"levelo://app?vid=287cb00b-5ddc-4dec-982c-821863eb5756","ios":"levelo://app?vid=287cb00b-5ddc-4dec-982c-821863eb5756"},"vehicle_type_id":"4","last_reported":1714939607,"current_range_meters":3200,"station_id":"ce4bhsp2rcd13ifvqi50","pricing_plan_id":"cebpf4jnsgd1na2vs0mg"},{"bike_id":"3344ee68-15c5-4edc-885e-7b06b8bb4c03","system_id":"levelo_inurba_marseille","lat":43.301939,"lon":5.366286,"is_reserved":false,"is_disabled":false,"rental_uris":{"android":"levelo://app?vid=3344ee68-15c5-4edc-885e-7b06b8bb4c03","ios":"levelo://app?vid=3344ee68-15c5-4edc-885e-7b06b8bb4c03"},"vehicle_type_id":"4","last_reported":1714939607,"current_range_meters":23600,"station_id":"ce4bgrh2rcd13ifvqc8g","pricing_plan_id":"cebpf4jnsgd1na2vs0mg"},{"bike_id":"62957b86-58cc-4fe5-a7e8-49edfe33102d","system_id":"levelo_inurba_marseille","lat":43.31061,"lon":5.38143,"is_reserved":false,"is_disabled":false,"rental_uris":{"android":"levelo://app?vid=62957b86-58cc-4fe5-a7e8-49edfe33102d","ios":"levelo://app?vid=62957b86-58cc-4fe5-a7e8-49edfe33102d"},"vehicle_type_id":"4","last_reported":1714939607,"current_range_meters":6800,"station_id":"","pricing_plan_id":"cebpf4jnsgd1na2vs0mg"},{"bike_id":"23e86c73-8cb4-4a7d-9724-af5bffc0e147","system_id":"levelo_inurba_marseille","lat":43.301939,"lon":5.366286,"is_reserved":false,"is_disabled":false,"rental_uris":{"android":"levelo://app?vid=23e86c73-8cb4-4a7d-9724-af5bffc0e147","ios":"levelo://app?vid=23e86c73-8cb4-4a7d-9724-af5bffc0e147"},"vehicle_type_id":"4","last_reported":1714939607,"current_range_meters":5200,"station_id":"ce4bgrh2rcd13ifvqc8g","pricing_plan_id":"cebpf4jnsgd1na2vs0mg"},{"bike_id":"e2e0f35f-8fdd-4bdd-b732-b69608cb187a","system_id":"levelo_inurba_marseille","lat":43.308012,"lon":5.381511,"is_reserved":false,"is_disabled":false,"rental_uris":{"android":"levelo://app?vid=e2e0f35f-8fdd-4bdd-b732-b69608cb187a","ios":"levelo://app?vid=e2e0f35f-8fdd-4bdd-b732-b69608cb187a"},"vehicle_type_id":"4","last_reported":1714939607,"current_range_meters":0,"station_id":"ce4bgt12rcd13ifvqce0","pricing_plan_id":"cebpf4jnsgd1na2vs0mg"},{"bike_id":"39754606-3727-495e-b4c0-dc782e8a9dd1","system_id":"levelo_inurba_marseille","lat":43.31307,"lon":5.38296,"is_reserved":false,"is_disabled":false,"rental_uris":{"android":"levelo://app?vid=39754606-3727-495e-b4c0-dc782e8a9dd1","ios":"levelo://app?vid=39754606-3727-495e-b4c0-dc782e8a9dd1"},"vehicle_type_id":"4","last_reported":1714939607,"current_range_meters":3600,"station_id":"","pricing_plan_id":"cebpf4jnsgd1na2vs0mg"},{"bike_id":"123b5665-717c-49a0-abc7-b23bec7a92d3","system_id":"levelo_inurba_marseille","lat":43.32489,"lon":5.36567,"is_reserved":false,"is_disabled":false,"rental_uris":{"android":"levelo://app?vid=123b5665-717c-49a0-abc7-b23bec7a92d3","ios":"levelo://app?vid=123b5665-717c-49a0-abc7-b23bec7a92d3"},"vehicle_type_id":"4","last_reported":1714939607,"current_range_meters":0,"station_id":"ce4bhs12rcd13ifvqhvg","pricing_plan_id":"cebpf4jnsgd1na2vs0mg"},{"bike_id":"0091b138-24f3-43c9-b59a-2bbe4d031566","system_id":"levelo_inurba_marseille","lat":43.310804,"lon":5.38359,"is_reserved":false,"is_disabled":false,"rental_uris":{"android":"levelo://app?vid=0091b138-24f3-43c9-b59a-2bbe4d031566","ios":"levelo://app?vid=0091b138-24f3-43c9-b59a-2bbe4d031566"},"vehicle_type_id":"4","last_reported":1714939607,"current_range_meters":25200,"station_id":"ce4bgv92rcd13ifvqcr0","pricing_plan_id":"cebpf4jnsgd1na2vs0mg"},{"bike_id":"88e5fe8f-d192-4d08-b6e2-46d35a3ef5ec","system_id":"levelo_inurba_marseille","lat":43.301429,"lon":5.37413,"is_reserved":false,"is_disabled":false,"rental_uris":{"android":"levelo://app?vid=88e5fe8f-d192-4d08-b6e2-46d35a3ef5ec","ios":"levelo://app?vid=88e5fe8f-d192-4d08-b6e2-46d35a3ef5ec"},"vehicle_type_id":"4","last_reported":1714939607,"current_range_meters":0,"station_id":"ce4bgs92rcd13ifvqcc0","pricing_plan_id":"cebpf4jnsgd1na2vs0mg"},{"bike_id":"971599e8-7632-40f9-87d7-d3078e01813a","system_id":"levelo_inurba_marseille","lat":43.319935,"lon":5.381699,"is_reserved":false,"is_disabled":false,"rental_uris":{"android":"levelo://app?vid=971599e8-7632-40f9-87d7-d3078e01813a","ios":"levelo://app?vid=971599e8-7632-40f9-87d7-d3078e01813a"},"vehicle_type_id":"4","last_reported":1714939607,"current_range_meters":4000,"station_id":"ce4bhr12rcd13ifvqhpg","pricing_plan_id":"cebpf4jnsgd1na2vs0mg"},{"bike_id":"5cd46c73-c81e-43a1-9c13-4f62e0c4f85f","system_id":"levelo_inurba_marseille","lat":43.319935,"lon":5.381699,"is_reserved":false,"is_disabled":false,"rental_uris":{"android":"levelo://app?vid=5cd46c73-c81e-43a1-9c13-4f62e0c4f85f","ios":"levelo://app?vid=5cd46c73-c81e-43a1-9c13-4f62e0c4f85f"},"vehicle_type_id":"4","last_reported":1714939607,"current_range_meters":5200,"station_id":"ce4bhr12rcd13ifvqhpg","pricing_plan_id":"cebpf4jnsgd1na2vs0mg"},{"bike_id":"e3e7e185-6f22-434f-a609-55ca226bcf65","system_id":"levelo_inurba_marseille","lat":43.319935,"lon":5.381699,"is_reserved":false,"is_disabled":false,"rental_uris":{"android":"levelo://app?vid=e3e7e185-6f22-434f-a609-55ca226bcf65","ios":"levelo://app?vid=e3e7e185-6f22-434f-a609-55ca226bcf65"},"vehicle_type_id":"4","last_reported":1714939607,"current_range_meters":16800,"station_id":"ce4bhr12rcd13ifvqhpg","pricing_plan_id":"cebpf4jnsgd1na2vs0mg"},{"bike_id":"e07befc2-9d87-484b-afe2-17bced68ff18","system_id":"levelo_inurba_marseille","lat":43.319935,"lon":5.381699,"is_reserved":false,"is_disabled":false,"rental_uris":{"android":"levelo://app?vid=e07befc2-9d87-484b-afe2-17bced68ff18","ios":"levelo://app?vid=e07befc2-9d87-484b-afe2-17bced68ff18"},"vehicle_type_id":"4","last_reported":1714939607,"current_range_meters":13200,"station_id":"ce4bhr12rcd13ifvqhpg","pricing_plan_id":"cebpf4jnsgd1na2vs0mg"},{"bike_id":"7ef3bd06-208c-45c6-a30e-d5ffdc444c86","system_id":"levelo_inurba_marseille","lat":43.313571,"lon":5.384829,"is_reserved":false,"is_disabled":false,"rental_uris":{"android":"levelo://app?vid=7ef3bd06-208c-45c6-a30e-d5ffdc444c86","ios":"levelo://app?vid=7ef3bd06-208c-45c6-a30e-d5ffdc444c86"},"vehicle_type_id":"4","last_reported":1714939607,"current_range_meters":9600,"station_id":"ce4bgt92rcd13ifvqcf0","pricing_plan_id":"cebpf4jnsgd1na2vs0mg"},{"bike_id":"146fc708-6bb2-482b-9e18-5a768712eb6f","system_id":"levelo_inurba_marseille","lat":43.313571,"lon":5.384829,"is_reserved":false,"is_disabled":false,"rental_uris":{"android":"levelo://app?vid=146fc708-6bb2-482b-9e18-5a768712eb6f","ios":"levelo://app?vid=146fc708-6bb2-482b-9e18-5a768712eb6f"},"vehicle_type_id":"4","last_reported":1714939607,"current_range_meters":2000,"station_id":"ce4bgt92rcd13ifvqcf0","pricing_plan_id":"cebpf4jnsgd1na2vs0mg"},{"bike_id":"3b5a3fde-7142-4579-8e9d-09c95a4f6617","system_id":"levelo_inurba_marseille","lat":43.31351,"lon":5.38495,"is_reserved":false,"is_disabled":false,"rental_uris":{"android":"levelo://app?vid=3b5a3fde-7142-4579-8e9d-09c95a4f6617","ios":"levelo://app?vid=3b5a3fde-7142-4579-8e9d-09c95a4f6617"},"vehicle_type_id":"4","last_reported":1714939607,"current_range_meters":0,"station_id":"ce4bgt92rcd13ifvqcf0","pricing_plan_id":"cebpf4jnsgd1na2vs0mg"},{"bike_id":"b292827b-8468-473c-ad68-c430817bbb39","system_id":"levelo_inurba_marseille","lat":43.325884,"lon":5.366515,"is_reserved":false,"is_disabled":false,"rental_uris":{"android":"levelo://app?vid=b292827b-8468-473c-ad68-c430817bbb39","ios":"levelo://app?vid=b292827b-8468-473c-ad68-c430817bbb39"},"vehicle_type_id":"4","last_reported":1714939607,"current_range_meters":8000,"station_id":"","pricing_plan_id":"cebpf4jnsgd1na2vs0mg"},{"bike_id":"e48dc8b5-7946-4b4c-bb61-4466c6dc4fdc","system_id":"levelo_inurba_marseille","lat":43.313571,"lon":5.384829,"is_reserved":false,"is_disabled":false,"rental_uris":{"android":"levelo://app?vid=e48dc8b5-7946-4b4c-bb61-4466c6dc4fdc","ios":"levelo://app?vid=e48dc8b5-7946-4b4c-bb61-4466c6dc4fdc"},"vehicle_type_id":"4","last_reported":1714939607,"current_range_meters":21600,"station_id":"ce4bgt92rcd13ifvqcf0","pricing_plan_id":"cebpf4jnsgd1na2vs0mg"},{"bike_id":"4c1b5c44-01c5-432c-b7be-a8fbe452c9f4","system_id":"levelo_inurba_marseille","lat":43.29982,"lon":5.37172,"is_reserved":false,"is_disabled":false,"rental_uris":{"android":"levelo://app?vid=4c1b5c44-01c5-432c-b7be-a8fbe452c9f4","ios":"levelo://app?vid=4c1b5c44-01c5-432c-b7be-a8fbe452c9f4"},"vehicle_type_id":"4","last_reported":1714939607,"current_range_meters":6000,"station_id":"ce4bgr92rcd13ifvqc7g","pricing_plan_id":"cebpf4jnsgd1na2vs0mg"},{"bike_id":"be036d2b-299f-486e-abf8-9f7d037e899e","system_id":"levelo_inurba_marseille","lat":43.29979,"lon":5.37168,"is_reserved":false,"is_disabled":false,"rental_uris":{"android":"levelo://app?vid=be036d2b-299f-486e-abf8-9f7d037e899e","ios":"levelo://app?vid=be036d2b-299f-486e-abf8-9f7d037e899e"},"vehicle_type_id":"4","last_reported":1714939607,"current_range_meters":9200,"station_id":"ce4bgr92rcd13ifvqc7g","pricing_plan_id":"cebpf4jnsgd1na2vs0mg"},{"bike_id":"aca9009d-31d1-4cc9-a47c-7385e54a9e93","system_id":"levelo_inurba_marseille","lat":43.299724,"lon":5.371829,"is_reserved":false,"is_disabled":false,"rental_uris":{"android":"levelo://app?vid=aca9009d-31d1-4cc9-a47c-7385e54a9e93","ios":"levelo://app?vid=aca9009d-31d1-4cc9-a47c-7385e54a9e93"},"vehicle_type_id":"4","last_reported":1714939607,"current_range_meters":7200,"station_id":"ce4bgr92rcd13ifvqc7g","pricing_plan_id":"cebpf4jnsgd1na2vs0mg"},{"bike_id":"329bc740-ea6d-4796-a2ed-b800216c64ab","system_id":"levelo_inurba_marseille","lat":43.29934,"lon":5.36539,"is_reserved":false,"is_disabled":false,"rental_uris":{"android":"levelo://app?vid=329bc740-ea6d-4796-a2ed-b800216c64ab","ios":"levelo://app?vid=329bc740-ea6d-4796-a2ed-b800216c64ab"},"vehicle_type_id":"4","last_reported":1714939607,"current_range_meters":0,"station_id":"ce4bgm92rcd13ifvqbr0","pricing_plan_id":"cebpf4jnsgd1na2vs0mg"},{"bike_id":"cac868c4-9a7c-4022-bbca-9cd2744bca90","system_id":"levelo_inurba_marseille","lat":43.299734,"lon":5.371732,"is_reserved":false,"is_disabled":false,"rental_uris":{"android":"levelo://app?vid=cac868c4-9a7c-4022-bbca-9cd2744bca90","ios":"levelo://app?vid=cac868c4-9a7c-4022-bbca-9cd2744bca90"},"vehicle_type_id":"4","last_reported":1714939607,"current_range_meters":0,"station_id":"ce4bgr92rcd13ifvqc7g","pricing_plan_id":"cebpf4jnsgd1na2vs0mg"},{"bike_id":"e66de01b-1475-4e9c-8fe3-2eac784982ac","system_id":"levelo_inurba_marseille","lat":43.299664,"lon":5.371796,"is_reserved":false,"is_disabled":false,"rental_uris":{"android":"levelo://app?vid=e66de01b-1475-4e9c-8fe3-2eac784982ac","ios":"levelo://app?vid=e66de01b-1475-4e9c-8fe3-2eac784982ac"},"vehicle_type_id":"4","last_reported":1714939607,"current_range_meters":0,"station_id":"ce4bgr92rcd13ifvqc7g","pricing_plan_id":"cebpf4jnsgd1na2vs0mg"},{"bike_id":"f324e89c-44fd-4b50-97ab-bc1f9e6d4715","system_id":"levelo_inurba_marseille","lat":43.30557,"lon":5.38417,"is_reserved":false,"is_disabled":false,"rental_uris":{"android":"levelo://app?vid=f324e89c-44fd-4b50-97ab-bc1f9e6d4715","ios":"levelo://app?vid=f324e89c-44fd-4b50-97ab-bc1f9e6d4715"},"vehicle_type_id":"4","last_reported":1714939607,"current_range_meters":0,"station_id":"ce4bgg92rcd13ifvqb30","pricing_plan_id":"cebpf4jnsgd1na2vs0mg"},{"bike_id":"7abff947-d5bc-400c-ba9a-af6529f77165","system_id":"levelo_inurba_marseille","lat":43.305364,"lon":5.384119,"is_reserved":false,"is_disabled":false,"rental_uris":{"android":"levelo://app?vid=7abff947-d5bc-400c-ba9a-af6529f77165","ios":"levelo://app?vid=7abff947-d5bc-400c-ba9a-af6529f77165"},"vehicle_type_id":"4","last_reported":1714939607,"current_range_meters":2400,"station_id":"ce4bgg92rcd13ifvqb30","pricing_plan_id":"cebpf4jnsgd1na2vs0mg"},{"bike_id":"bdeecc45-dac4-49ee-b91b-25f8e8ef6a57","system_id":"levelo_inurba_marseille","lat":43.305364,"lon":5.384119,"is_reserved":false,"is_disabled":false,"rental_uris":{"android":"levelo://app?vid=bdeecc45-dac4-49ee-b91b-25f8e8ef6a57","ios":"levelo://app?vid=bdeecc45-dac4-49ee-b91b-25f8e8ef6a57"},"vehicle_type_id":"4","last_reported":1714939607,"current_range_meters":21200,"station_id":"ce4bgg92rcd13ifvqb30","pricing_plan_id":"cebpf4jnsgd1na2vs0mg"},{"bike_id":"f03529fe-2cab-445c-8f82-f7c63f7f5408","system_id":"levelo_inurba_marseille","lat":43.29846,"lon":5.36282,"is_reserved":false,"is_disabled":false,"rental_uris":{"android":"levelo://app?vid=f03529fe-2cab-445c-8f82-f7c63f7f5408","ios":"levelo://app?vid=f03529fe-2cab-445c-8f82-f7c63f7f5408"},"vehicle_type_id":"4","last_reported":1714939607,"current_range_meters":0,"station_id":"ce4bgpp2rcd13ifvqc3g","pricing_plan_id":"cebpf4jnsgd1na2vs0mg"},{"bike_id":"0205b486-0fb9-426a-bdd8-a2c8f832df12","system_id":"levelo_inurba_marseille","lat":43.305364,"lon":5.384119,"is_reserved":false,"is_disabled":false,"rental_uris":{"android":"levelo://app?vid=0205b486-0fb9-426a-bdd8-a2c8f832df12","ios":"levelo://app?vid=0205b486-0fb9-426a-bdd8-a2c8f832df12"},"vehicle_type_id":"4","last_reported":1714939607,"current_range_meters":2800,"station_id":"ce4bgg92rcd13ifvqb30","pricing_plan_id":"cebpf4jnsgd1na2vs0mg"},{"bike_id":"dc3e5ba4-7c11-4663-a45d-2c5871f27685","system_id":"levelo_inurba_marseille","lat":43.305387,"lon":5.384312,"is_reserved":false,"is_disabled":false,"rental_uris":{"android":"levelo://app?vid=dc3e5ba4-7c11-4663-a45d-2c5871f27685","ios":"levelo://app?vid=dc3e5ba4-7c11-4663-a45d-2c5871f27685"},"vehicle_type_id":"4","last_reported":1714939607,"current_range_meters":0,"station_id":"ce4bgg92rcd13ifvqb30","pricing_plan_id":"cebpf4jnsgd1na2vs0mg"},{"bike_id":"e8454070-9b48-41f8-9c81-9c6f691a6054","system_id":"levelo_inurba_marseille","lat":43.311722,"lon":5.387247,"is_reserved":false,"is_disabled":false,"rental_uris":{"android":"levelo://app?vid=e8454070-9b48-41f8-9c81-9c6f691a6054","ios":"levelo://app?vid=e8454070-9b48-41f8-9c81-9c6f691a6054"},"vehicle_type_id":"4","last_reported":1714939607,"current_range_meters":800,"station_id":"ce4bgv12rcd13ifvqcp0","pricing_plan_id":"cebpf4jnsgd1na2vs0mg"},{"bike_id":"edee3f71-2722-4fdb-b2d0-6937ae2456b3","system_id":"levelo_inurba_marseille","lat":43.29912,"lon":5.37479,"is_reserved":false,"is_disabled":false,"rental_uris":{"android":"levelo://app?vid=edee3f71-2722-4fdb-b2d0-6937ae2456b3","ios":"levelo://app?vid=edee3f71-2722-4fdb-b2d0-6937ae2456b3"},"vehicle_type_id":"4","last_reported":1714939607,"current_range_meters":0,"station_id":"ce4bgjh2rcd13ifvqbg0","pricing_plan_id":"cebpf4jnsgd1na2vs0mg"},{"bike_id":"60a6db0b-8079-4b9d-8b07-f62b4f3b0117","system_id":"levelo_inurba_marseille","lat":43.311722,"lon":5.387247,"is_reserved":false,"is_disabled":false,"rental_uris":{"android":"levelo://app?vid=60a6db0b-8079-4b9d-8b07-f62b4f3b0117","ios":"levelo://app?vid=60a6db0b-8079-4b9d-8b07-f62b4f3b0117"},"vehicle_type_id":"4","last_reported":1714939607,"current_range_meters":10800,"station_id":"ce4bgv12rcd13ifvqcp0","pricing_plan_id":"cebpf4jnsgd1na2vs0mg"},{"bike_id":"7347d7d3-d5f9-484f-ac09-2a20648839ed","system_id":"levelo_inurba_marseille","lat":43.29904,"lon":5.37479,"is_reserved":false,"is_disabled":false,"rental_uris":{"android":"levelo://app?vid=7347d7d3-d5f9-484f-ac09-2a20648839ed","ios":"levelo://app?vid=7347d7d3-d5f9-484f-ac09-2a20648839ed"},"vehicle_type_id":"4","last_reported":1714939607,"current_range_meters":0,"station_id":"ce4bgjh2rcd13ifvqbg0","pricing_plan_id":"cebpf4jnsgd1na2vs0mg"},{"bike_id":"033e1630-294b-4b6e-97da-677b506875f7","system_id":"levelo_inurba_marseille","lat":43.311722,"lon":5.387247,"is_reserved":false,"is_disabled":false,"rental_uris":{"android":"levelo://app?vid=033e1630-294b-4b6e-97da-677b506875f7","ios":"levelo://app?vid=033e1630-294b-4b6e-97da-677b506875f7"},"vehicle_type_id":"4","last_reported":1714939607,"current_range_meters":8400,"station_id":"ce4bgv12rcd13ifvqcp0","pricing_plan_id":"cebpf4jnsgd1na2vs0mg"},{"bike_id":"b96dedc8-8d76-49f9-abf7-8a3001c99e0c","system_id":"levelo_inurba_marseille","lat":43.297693,"lon":5.370597,"is_reserved":false,"is_disabled":false,"rental_uris":{"android":"levelo://app?vid=b96dedc8-8d76-49f9-abf7-8a3001c99e0c","ios":"levelo://app?vid=b96dedc8-8d76-49f9-abf7-8a3001c99e0c"},"vehicle_type_id":"4","last_reported":1714939607,"current_range_meters":0,"station_id":"ce4bgnh2rcd13ifvqc0g","pricing_plan_id":"cebpf4jnsgd1na2vs0mg"},{"bike_id":"e3214be1-b18a-4bb1-a4fb-c5eaff855630","system_id":"levelo_inurba_marseille","lat":43.297774,"lon":5.370875,"is_reserved":false,"is_disabled":false,"rental_uris":{"android":"levelo://app?vid=e3214be1-b18a-4bb1-a4fb-c5eaff855630","ios":"levelo://app?vid=e3214be1-b18a-4bb1-a4fb-c5eaff855630"},"vehicle_type_id":"4","last_reported":1714939607,"current_range_meters":20400,"station_id":"ce4bgop2rcd13ifvqc1g","pricing_plan_id":"cebpf4jnsgd1na2vs0mg"},{"bike_id":"256826f0-4224-420d-a488-3c773b6c1e2d","system_id":"levelo_inurba_marseille","lat":43.297163,"lon":5.365866,"is_reserved":false,"is_disabled":false,"rental_uris":{"android":"levelo://app?vid=256826f0-4224-420d-a488-3c773b6c1e2d","ios":"levelo://app?vid=256826f0-4224-420d-a488-3c773b6c1e2d"},"vehicle_type_id":"4","last_reported":1714939607,"current_range_meters":21600,"station_id":"ce4bgn12rcd13ifvqbt0","pricing_plan_id":"cebpf4jnsgd1na2vs0mg"},{"bike_id":"525b9bac-7fbb-4586-ba41-abce8723de38","system_id":"levelo_inurba_marseille","lat":43.29715,"lon":5.35986,"is_reserved":false,"is_disabled":false,"rental_uris":{"android":"levelo://app?vid=525b9bac-7fbb-4586-ba41-abce8723de38","ios":"levelo://app?vid=525b9bac-7fbb-4586-ba41-abce8723de38"},"vehicle_type_id":"4","last_reported":1714939607,"current_range_meters":25600,"station_id":"","pricing_plan_id":"cebpf4jnsgd1na2vs0mg"},{"bike_id":"84815684-f1aa-4ec3-848f-af5f78ceb80d","system_id":"levelo_inurba_marseille","lat":43.29622,"lon":5.37155,"is_reserved":false,"is_disabled":false,"rental_uris":{"android":"levelo://app?vid=84815684-f1aa-4ec3-848f-af5f78ceb80d","ios":"levelo://app?vid=84815684-f1aa-4ec3-848f-af5f78ceb80d"},"vehicle_type_id":"4","last_reported":1714939607,"current_range_meters":8400,"station_id":"","pricing_plan_id":"cebpf4jnsgd1na2vs0mg"},{"bike_id":"e32bb468-b55a-426d-b9b1-7018f373d62e","system_id":"levelo_inurba_marseille","lat":43.296129,"lon":5.370777,"is_reserved":false,"is_disabled":false,"rental_uris":{"android":"levelo://app?vid=e32bb468-b55a-426d-b9b1-7018f373d62e","ios":"levelo://app?vid=e32bb468-b55a-426d-b9b1-7018f373d62e"},"vehicle_type_id":"4","last_reported":1714939607,"current_range_meters":20000,"station_id":"ce4bgnh2rcd13ifvqc0g","pricing_plan_id":"cebpf4jnsgd1na2vs0mg"},{"bike_id":"14d87b79-f0bc-418b-be82-3da129711c9c","system_id":"levelo_inurba_marseille","lat":43.309513,"lon":5.390215,"is_reserved":false,"is_disabled":false,"rental_uris":{"android":"levelo://app?vid=14d87b79-f0bc-418b-be82-3da129711c9c","ios":"levelo://app?vid=14d87b79-f0bc-418b-be82-3da129711c9c"},"vehicle_type_id":"4","last_reported":1714939607,"current_range_meters":0,"station_id":"ce4bgup2rcd13ifvqco0","pricing_plan_id":"cebpf4jnsgd1na2vs0mg"},{"bike_id":"9db06773-44e9-4817-8c7a-ea66074ccdee","system_id":"levelo_inurba_marseille","lat":43.296921,"lon":5.376579,"is_reserved":false,"is_disabled":false,"rental_uris":{"android":"levelo://app?vid=9db06773-44e9-4817-8c7a-ea66074ccdee","ios":"levelo://app?vid=9db06773-44e9-4817-8c7a-ea66074ccdee"},"vehicle_type_id":"4","last_reported":1714939607,"current_range_meters":29200,"station_id":"ce4bgkh2rcd13ifvqbl0","pricing_plan_id":"cebpf4jnsgd1na2vs0mg"},{"bike_id":"5505f3ac-5e7d-4188-aa2e-a0126571fc0d","system_id":"levelo_inurba_marseille","lat":43.299028,"lon":5.381509,"is_reserved":false,"is_disabled":false,"rental_uris":{"android":"levelo://app?vid=5505f3ac-5e7d-4188-aa2e-a0126571fc0d","ios":"levelo://app?vid=5505f3ac-5e7d-4188-aa2e-a0126571fc0d"},"vehicle_type_id":"4","last_reported":1714939607,"current_range_meters":5600,"station_id":"ce4bgj12rcd13ifvqbc0","pricing_plan_id":"cebpf4jnsgd1na2vs0mg"},{"bike_id":"09978520-6d7b-4bf5-a5f1-acd3909af5dd","system_id":"levelo_inurba_marseille","lat":43.299028,"lon":5.381509,"is_reserved":false,"is_disabled":false,"rental_uris":{"android":"levelo://app?vid=09978520-6d7b-4bf5-a5f1-acd3909af5dd","ios":"levelo://app?vid=09978520-6d7b-4bf5-a5f1-acd3909af5dd"},"vehicle_type_id":"4","last_reported":1714939607,"current_range_meters":11200,"station_id":"ce4bgj12rcd13ifvqbc0","pricing_plan_id":"cebpf4jnsgd1na2vs0mg"},{"bike_id":"566947f9-808d-4c5f-9b30-778880e089a8","system_id":"levelo_inurba_marseille","lat":43.30947,"lon":5.39031,"is_reserved":false,"is_disabled":false,"rental_uris":{"android":"levelo://app?vid=566947f9-808d-4c5f-9b30-778880e089a8","ios":"levelo://app?vid=566947f9-808d-4c5f-9b30-778880e089a8"},"vehicle_type_id":"4","last_reported":1714939607,"current_range_meters":0,"station_id":"ce4bgup2rcd13ifvqco0","pricing_plan_id":"cebpf4jnsgd1na2vs0mg"},{"bike_id":"143e0143-b7c2-4334-876d-98df6566ad4b","system_id":"levelo_inurba_marseille","lat":43.309589,"lon":5.390258,"is_reserved":false,"is_disabled":false,"rental_uris":{"android":"levelo://app?vid=143e0143-b7c2-4334-876d-98df6566ad4b","ios":"levelo://app?vid=143e0143-b7c2-4334-876d-98df6566ad4b"},"vehicle_type_id":"4","last_reported":1714939607,"current_range_meters":4000,"station_id":"ce4bgup2rcd13ifvqco0","pricing_plan_id":"cebpf4jnsgd1na2vs0mg"},{"bike_id":"4bc54331-b8ef-42fe-b63c-d6a59cd69c47","system_id":"levelo_inurba_marseille","lat":43.299028,"lon":5.381509,"is_reserved":false,"is_disabled":false,"rental_uris":{"android":"levelo://app?vid=4bc54331-b8ef-42fe-b63c-d6a59cd69c47","ios":"levelo://app?vid=4bc54331-b8ef-42fe-b63c-d6a59cd69c47"},"vehicle_type_id":"4","last_reported":1714939607,"current_range_meters":12400,"station_id":"ce4bgj12rcd13ifvqbc0","pricing_plan_id":"cebpf4jnsgd1na2vs0mg"},{"bike_id":"8250c440-2bcb-4649-a490-35bb0d003688","system_id":"levelo_inurba_marseille","lat":43.317557,"lon":5.390173,"is_reserved":false,"is_disabled":false,"rental_uris":{"android":"levelo://app?vid=8250c440-2bcb-4649-a490-35bb0d003688","ios":"levelo://app?vid=8250c440-2bcb-4649-a490-35bb0d003688"},"vehicle_type_id":"4","last_reported":1714939607,"current_range_meters":7200,"station_id":"ce4bhqp2rcd13ifvqhng","pricing_plan_id":"cebpf4jnsgd1na2vs0mg"},{"bike_id":"ca3852a5-f2de-498b-b426-4eb807ff692d","system_id":"levelo_inurba_marseille","lat":43.317557,"lon":5.390173,"is_reserved":false,"is_disabled":false,"rental_uris":{"android":"levelo://app?vid=ca3852a5-f2de-498b-b426-4eb807ff692d","ios":"levelo://app?vid=ca3852a5-f2de-498b-b426-4eb807ff692d"},"vehicle_type_id":"4","last_reported":1714939607,"current_range_meters":16400,"station_id":"ce4bhqp2rcd13ifvqhng","pricing_plan_id":"cebpf4jnsgd1na2vs0mg"},{"bike_id":"17c4fb95-c903-45ec-9748-53e0f9c42e59","system_id":"levelo_inurba_marseille","lat":43.317557,"lon":5.390173,"is_reserved":false,"is_disabled":false,"rental_uris":{"android":"levelo://app?vid=17c4fb95-c903-45ec-9748-53e0f9c42e59","ios":"levelo://app?vid=17c4fb95-c903-45ec-9748-53e0f9c42e59"},"vehicle_type_id":"4","last_reported":1714939607,"current_range_meters":8800,"station_id":"ce4bhqp2rcd13ifvqhng","pricing_plan_id":"cebpf4jnsgd1na2vs0mg"},{"bike_id":"b0703693-5d02-408d-8d63-5332f25e2164","system_id":"levelo_inurba_marseille","lat":43.298037,"lon":5.381066,"is_reserved":false,"is_disabled":false,"rental_uris":{"android":"levelo://app?vid=b0703693-5d02-408d-8d63-5332f25e2164","ios":"levelo://app?vid=b0703693-5d02-408d-8d63-5332f25e2164"},"vehicle_type_id":"4","last_reported":1714939607,"current_range_meters":6400,"station_id":"ce4bgip2rcd13ifvqbb0","pricing_plan_id":"cebpf4jnsgd1na2vs0mg"},{"bike_id":"f422616b-d146-4bdf-9a6f-3a99995564af","system_id":"levelo_inurba_marseille","lat":43.298037,"lon":5.381066,"is_reserved":false,"is_disabled":false,"rental_uris":{"android":"levelo://app?vid=f422616b-d146-4bdf-9a6f-3a99995564af","ios":"levelo://app?vid=f422616b-d146-4bdf-9a6f-3a99995564af"},"vehicle_type_id":"4","last_reported":1714939607,"current_range_meters":26000,"station_id":"ce4bgip2rcd13ifvqbb0","pricing_plan_id":"cebpf4jnsgd1na2vs0mg"},{"bike_id":"bff30385-4f44-454b-a136-0d9067543934","system_id":"levelo_inurba_marseille","lat":43.298037,"lon":5.381066,"is_reserved":false,"is_disabled":false,"rental_uris":{"android":"levelo://app?vid=bff30385-4f44-454b-a136-0d9067543934","ios":"levelo://app?vid=bff30385-4f44-454b-a136-0d9067543934"},"vehicle_type_id":"4","last_reported":1714939607,"current_range_meters":18400,"station_id":"ce4bgip2rcd13ifvqbb0","pricing_plan_id":"cebpf4jnsgd1na2vs0mg"},{"bike_id":"71c7c3a0-5279-413b-adff-a0e95f710a20","system_id":"levelo_inurba_marseille","lat":43.298037,"lon":5.381066,"is_reserved":false,"is_disabled":false,"rental_uris":{"android":"levelo://app?vid=71c7c3a0-5279-413b-adff-a0e95f710a20","ios":"levelo://app?vid=71c7c3a0-5279-413b-adff-a0e95f710a20"},"vehicle_type_id":"4","last_reported":1714939607,"current_range_meters":23600,"station_id":"ce4bgip2rcd13ifvqbb0","pricing_plan_id":"cebpf4jnsgd1na2vs0mg"},{"bike_id":"d7d995ff-f8e2-4848-8e1e-8cc8a0787e9d","system_id":"levelo_inurba_marseille","lat":43.298037,"lon":5.381066,"is_reserved":false,"is_disabled":false,"rental_uris":{"android":"levelo://app?vid=d7d995ff-f8e2-4848-8e1e-8cc8a0787e9d","ios":"levelo://app?vid=d7d995ff-f8e2-4848-8e1e-8cc8a0787e9d"},"vehicle_type_id":"4","last_reported":1714939607,"current_range_meters":31200,"station_id":"ce4bgip2rcd13ifvqbb0","pricing_plan_id":"cebpf4jnsgd1na2vs0mg"},{"bike_id":"7f58fb26-669b-4bca-91a4-1347c1831b4c","system_id":"levelo_inurba_marseille","lat":43.298037,"lon":5.381066,"is_reserved":false,"is_disabled":false,"rental_uris":{"android":"levelo://app?vid=7f58fb26-669b-4bca-91a4-1347c1831b4c","ios":"levelo://app?vid=7f58fb26-669b-4bca-91a4-1347c1831b4c"},"vehicle_type_id":"4","last_reported":1714939607,"current_range_meters":22400,"station_id":"ce4bgip2rcd13ifvqbb0","pricing_plan_id":"cebpf4jnsgd1na2vs0mg"},{"bike_id":"3ec18591-9c7c-40af-8139-24169b78c47b","system_id":"levelo_inurba_marseille","lat":43.298037,"lon":5.381066,"is_reserved":false,"is_disabled":false,"rental_uris":{"android":"levelo://app?vid=3ec18591-9c7c-40af-8139-24169b78c47b","ios":"levelo://app?vid=3ec18591-9c7c-40af-8139-24169b78c47b"},"vehicle_type_id":"4","last_reported":1714939607,"current_range_meters":18800,"station_id":"ce4bgip2rcd13ifvqbb0","pricing_plan_id":"cebpf4jnsgd1na2vs0mg"},{"bike_id":"f1989bd4-d968-4c90-8460-2dc35785ae71","system_id":"levelo_inurba_marseille","lat":43.298037,"lon":5.381066,"is_reserved":false,"is_disabled":false,"rental_uris":{"android":"levelo://app?vid=f1989bd4-d968-4c90-8460-2dc35785ae71","ios":"levelo://app?vid=f1989bd4-d968-4c90-8460-2dc35785ae71"},"vehicle_type_id":"4","last_reported":1714939607,"current_range_meters":26800,"station_id":"ce4bgip2rcd13ifvqbb0","pricing_plan_id":"cebpf4jnsgd1na2vs0mg"},{"bike_id":"8cfc603d-ccda-439d-bc89-a2f7ea71572a","system_id":"levelo_inurba_marseille","lat":43.298037,"lon":5.381066,"is_reserved":false,"is_disabled":false,"rental_uris":{"android":"levelo://app?vid=8cfc603d-ccda-439d-bc89-a2f7ea71572a","ios":"levelo://app?vid=8cfc603d-ccda-439d-bc89-a2f7ea71572a"},"vehicle_type_id":"4","last_reported":1714939607,"current_range_meters":17200,"station_id":"ce4bgip2rcd13ifvqbb0","pricing_plan_id":"cebpf4jnsgd1na2vs0mg"},{"bike_id":"0a1fa5f8-06bf-4bf4-9727-fca1548428d9","system_id":"levelo_inurba_marseille","lat":43.298037,"lon":5.381066,"is_reserved":false,"is_disabled":false,"rental_uris":{"android":"levelo://app?vid=0a1fa5f8-06bf-4bf4-9727-fca1548428d9","ios":"levelo://app?vid=0a1fa5f8-06bf-4bf4-9727-fca1548428d9"},"vehicle_type_id":"4","last_reported":1714939607,"current_range_meters":17600,"station_id":"ce4bgip2rcd13ifvqbb0","pricing_plan_id":"cebpf4jnsgd1na2vs0mg"},{"bike_id":"2000b907-74bf-4455-b6af-d986a6c310e4","system_id":"levelo_inurba_marseille","lat":43.298037,"lon":5.381066,"is_reserved":false,"is_disabled":false,"rental_uris":{"android":"levelo://app?vid=2000b907-74bf-4455-b6af-d986a6c310e4","ios":"levelo://app?vid=2000b907-74bf-4455-b6af-d986a6c310e4"},"vehicle_type_id":"4","last_reported":1714939607,"current_range_meters":17200,"station_id":"ce4bgip2rcd13ifvqbb0","pricing_plan_id":"cebpf4jnsgd1na2vs0mg"},{"bike_id":"6534fcee-f5e1-461b-8f4e-bc192e77d44b","system_id":"levelo_inurba_marseille","lat":43.29783,"lon":5.38088,"is_reserved":false,"is_disabled":false,"rental_uris":{"android":"levelo://app?vid=6534fcee-f5e1-461b-8f4e-bc192e77d44b","ios":"levelo://app?vid=6534fcee-f5e1-461b-8f4e-bc192e77d44b"},"vehicle_type_id":"4","last_reported":1714939607,"current_range_meters":0,"station_id":"ce4bgip2rcd13ifvqbb0","pricing_plan_id":"cebpf4jnsgd1na2vs0mg"},{"bike_id":"76f9cd15-bc87-470f-9262-d39d174de2fe","system_id":"levelo_inurba_marseille","lat":43.298037,"lon":5.381066,"is_reserved":false,"is_disabled":false,"rental_uris":{"android":"levelo://app?vid=76f9cd15-bc87-470f-9262-d39d174de2fe","ios":"levelo://app?vid=76f9cd15-bc87-470f-9262-d39d174de2fe"},"vehicle_type_id":"4","last_reported":1714939607,"current_range_meters":25200,"station_id":"ce4bgip2rcd13ifvqbb0","pricing_plan_id":"cebpf4jnsgd1na2vs0mg"},{"bike_id":"07a864d1-4663-444d-ad62-95aa59fae8a8","system_id":"levelo_inurba_marseille","lat":43.304278,"lon":5.388868,"is_reserved":false,"is_disabled":false,"rental_uris":{"android":"levelo://app?vid=07a864d1-4663-444d-ad62-95aa59fae8a8","ios":"levelo://app?vid=07a864d1-4663-444d-ad62-95aa59fae8a8"},"vehicle_type_id":"4","last_reported":1714939607,"current_range_meters":0,"station_id":"ce4bgk12rcd13ifvqbi0","pricing_plan_id":"cebpf4jnsgd1na2vs0mg"},{"bike_id":"d25533f2-010b-481c-90e8-8a394cd62b75","system_id":"levelo_inurba_marseille","lat":43.304274,"lon":5.388873,"is_reserved":false,"is_disabled":false,"rental_uris":{"android":"levelo://app?vid=d25533f2-010b-481c-90e8-8a394cd62b75","ios":"levelo://app?vid=d25533f2-010b-481c-90e8-8a394cd62b75"},"vehicle_type_id":"4","last_reported":1714939607,"current_range_meters":2400,"station_id":"ce4bgk12rcd13ifvqbi0","pricing_plan_id":"cebpf4jnsgd1na2vs0mg"},{"bike_id":"d89dc949-04bc-4fa0-81b4-fa3125fd10b1","system_id":"levelo_inurba_marseille","lat":43.304278,"lon":5.388868,"is_reserved":false,"is_disabled":false,"rental_uris":{"android":"levelo://app?vid=d89dc949-04bc-4fa0-81b4-fa3125fd10b1","ios":"levelo://app?vid=d89dc949-04bc-4fa0-81b4-fa3125fd10b1"},"vehicle_type_id":"4","last_reported":1714939607,"current_range_meters":6800,"station_id":"ce4bgk12rcd13ifvqbi0","pricing_plan_id":"cebpf4jnsgd1na2vs0mg"},{"bike_id":"8c666e34-355a-41cb-8172-28e382296bf0","system_id":"levelo_inurba_marseille","lat":43.295748,"lon":5.37522,"is_reserved":false,"is_disabled":false,"rental_uris":{"android":"levelo://app?vid=8c666e34-355a-41cb-8172-28e382296bf0","ios":"levelo://app?vid=8c666e34-355a-41cb-8172-28e382296bf0"},"vehicle_type_id":"4","last_reported":1714939607,"current_range_meters":20000,"station_id":"ce4bgh92rcd13ifvqb50","pricing_plan_id":"cebpf4jnsgd1na2vs0mg"},{"bike_id":"a57670a0-8c70-4fd6-ade5-29361fbb7628","system_id":"levelo_inurba_marseille","lat":43.29618,"lon":5.377212,"is_reserved":false,"is_disabled":false,"rental_uris":{"android":"levelo://app?vid=a57670a0-8c70-4fd6-ade5-29361fbb7628","ios":"levelo://app?vid=a57670a0-8c70-4fd6-ade5-29361fbb7628"},"vehicle_type_id":"4","last_reported":1714939607,"current_range_meters":0,"station_id":"","pricing_plan_id":"cebpf4jnsgd1na2vs0mg"},{"bike_id":"9457886d-0632-497f-baf9-13be34675370","system_id":"levelo_inurba_marseille","lat":43.29608,"lon":5.37707,"is_reserved":false,"is_disabled":false,"rental_uris":{"android":"levelo://app?vid=9457886d-0632-497f-baf9-13be34675370","ios":"levelo://app?vid=9457886d-0632-497f-baf9-13be34675370"},"vehicle_type_id":"4","last_reported":1714939607,"current_range_meters":26800,"station_id":"ce4bgi92rcd13ifvqb90","pricing_plan_id":"cebpf4jnsgd1na2vs0mg"},{"bike_id":"d43ce32a-73d8-46a5-94c4-48f313e1ca3e","system_id":"levelo_inurba_marseille","lat":43.299717,"lon":5.384845,"is_reserved":false,"is_disabled":false,"rental_uris":{"android":"levelo://app?vid=d43ce32a-73d8-46a5-94c4-48f313e1ca3e","ios":"levelo://app?vid=d43ce32a-73d8-46a5-94c4-48f313e1ca3e"},"vehicle_type_id":"4","last_reported":1714939607,"current_range_meters":22400,"station_id":"ce4bgj92rcd13ifvqbd0","pricing_plan_id":"cebpf4jnsgd1na2vs0mg"},{"bike_id":"2445eb17-8dac-4a2c-a51c-8b29bb7f28ae","system_id":"levelo_inurba_marseille","lat":43.29513,"lon":5.3751,"is_reserved":false,"is_disabled":false,"rental_uris":{"android":"levelo://app?vid=2445eb17-8dac-4a2c-a51c-8b29bb7f28ae","ios":"levelo://app?vid=2445eb17-8dac-4a2c-a51c-8b29bb7f28ae"},"vehicle_type_id":"4","last_reported":1714939607,"current_range_meters":0,"station_id":"ce4bgkp2rcd13ifvqbmg","pricing_plan_id":"cebpf4jnsgd1na2vs0mg"},{"bike_id":"e07adb91-19ee-4a41-824f-97e08bf983f6","system_id":"levelo_inurba_marseille","lat":43.32367,"lon":5.388836,"is_reserved":false,"is_disabled":false,"rental_uris":{"android":"levelo://app?vid=e07adb91-19ee-4a41-824f-97e08bf983f6","ios":"levelo://app?vid=e07adb91-19ee-4a41-824f-97e08bf983f6"},"vehicle_type_id":"4","last_reported":1714939607,"current_range_meters":18000,"station_id":"ce4bhqp2rcd13ifvqhog","pricing_plan_id":"cebpf4jnsgd1na2vs0mg"},{"bike_id":"2ea73606-ba82-4619-919f-1d5025ae4d38","system_id":"levelo_inurba_marseille","lat":43.32365,"lon":5.38884,"is_reserved":false,"is_disabled":false,"rental_uris":{"android":"levelo://app?vid=2ea73606-ba82-4619-919f-1d5025ae4d38","ios":"levelo://app?vid=2ea73606-ba82-4619-919f-1d5025ae4d38"},"vehicle_type_id":"4","last_reported":1714939607,"current_range_meters":0,"station_id":"ce4bhqp2rcd13ifvqhog","pricing_plan_id":"cebpf4jnsgd1na2vs0mg"},{"bike_id":"8ab01fa2-6893-42fc-9324-616838ccf8a2","system_id":"levelo_inurba_marseille","lat":43.32367,"lon":5.388836,"is_reserved":false,"is_disabled":false,"rental_uris":{"android":"levelo://app?vid=8ab01fa2-6893-42fc-9324-616838ccf8a2","ios":"levelo://app?vid=8ab01fa2-6893-42fc-9324-616838ccf8a2"},"vehicle_type_id":"4","last_reported":1714939607,"current_range_meters":400,"station_id":"ce4bhqp2rcd13ifvqhog","pricing_plan_id":"cebpf4jnsgd1na2vs0mg"},{"bike_id":"4a39b302-b5a2-4539-b586-f66857dbb7c6","system_id":"levelo_inurba_marseille","lat":43.323668,"lon":5.388852,"is_reserved":false,"is_disabled":false,"rental_uris":{"android":"levelo://app?vid=4a39b302-b5a2-4539-b586-f66857dbb7c6","ios":"levelo://app?vid=4a39b302-b5a2-4539-b586-f66857dbb7c6"},"vehicle_type_id":"4","last_reported":1714939607,"current_range_meters":0,"station_id":"ce4bhqp2rcd13ifvqhog","pricing_plan_id":"cebpf4jnsgd1na2vs0mg"},{"bike_id":"bea1c408-3456-4bc9-81d7-94a9d859b98f","system_id":"levelo_inurba_marseille","lat":43.29601,"lon":5.381084,"is_reserved":false,"is_disabled":false,"rental_uris":{"android":"levelo://app?vid=bea1c408-3456-4bc9-81d7-94a9d859b98f","ios":"levelo://app?vid=bea1c408-3456-4bc9-81d7-94a9d859b98f"},"vehicle_type_id":"4","last_reported":1714939607,"current_range_meters":17600,"station_id":"ce4bgl12rcd13ifvqbo0","pricing_plan_id":"cebpf4jnsgd1na2vs0mg"},{"bike_id":"0028f065-6513-4ec3-a1a5-9062670cb13f","system_id":"levelo_inurba_marseille","lat":43.29601,"lon":5.381084,"is_reserved":false,"is_disabled":false,"rental_uris":{"android":"levelo://app?vid=0028f065-6513-4ec3-a1a5-9062670cb13f","ios":"levelo://app?vid=0028f065-6513-4ec3-a1a5-9062670cb13f"},"vehicle_type_id":"4","last_reported":1714939607,"current_range_meters":17200,"station_id":"ce4bgl12rcd13ifvqbo0","pricing_plan_id":"cebpf4jnsgd1na2vs0mg"},{"bike_id":"c68c37dc-3511-4526-a794-4ba495fa305e","system_id":"levelo_inurba_marseille","lat":43.29601,"lon":5.381084,"is_reserved":false,"is_disabled":false,"rental_uris":{"android":"levelo://app?vid=c68c37dc-3511-4526-a794-4ba495fa305e","ios":"levelo://app?vid=c68c37dc-3511-4526-a794-4ba495fa305e"},"vehicle_type_id":"4","last_reported":1714939607,"current_range_meters":12400,"station_id":"ce4bgl12rcd13ifvqbo0","pricing_plan_id":"cebpf4jnsgd1na2vs0mg"},{"bike_id":"6bf9d3b0-76f3-42e0-b0fc-c46815991e04","system_id":"levelo_inurba_marseille","lat":43.29601,"lon":5.381084,"is_reserved":false,"is_disabled":false,"rental_uris":{"android":"levelo://app?vid=6bf9d3b0-76f3-42e0-b0fc-c46815991e04","ios":"levelo://app?vid=6bf9d3b0-76f3-42e0-b0fc-c46815991e04"},"vehicle_type_id":"4","last_reported":1714939607,"current_range_meters":23600,"station_id":"ce4bgl12rcd13ifvqbo0","pricing_plan_id":"cebpf4jnsgd1na2vs0mg"},{"bike_id":"7b299b75-4779-477b-bc10-a71f2e880046","system_id":"levelo_inurba_marseille","lat":43.29602,"lon":5.381084,"is_reserved":false,"is_disabled":false,"rental_uris":{"android":"levelo://app?vid=7b299b75-4779-477b-bc10-a71f2e880046","ios":"levelo://app?vid=7b299b75-4779-477b-bc10-a71f2e880046"},"vehicle_type_id":"4","last_reported":1714939607,"current_range_meters":22400,"station_id":"ce4bgl12rcd13ifvqbo0","pricing_plan_id":"cebpf4jnsgd1na2vs0mg"},{"bike_id":"7bc1595c-5b28-4cfd-9b10-917390976d1f","system_id":"levelo_inurba_marseille","lat":43.29602,"lon":5.381084,"is_reserved":false,"is_disabled":false,"rental_uris":{"android":"levelo://app?vid=7bc1595c-5b28-4cfd-9b10-917390976d1f","ios":"levelo://app?vid=7bc1595c-5b28-4cfd-9b10-917390976d1f"},"vehicle_type_id":"4","last_reported":1714939607,"current_range_meters":21600,"station_id":"ce4bgl12rcd13ifvqbo0","pricing_plan_id":"cebpf4jnsgd1na2vs0mg"},{"bike_id":"857252ca-eec1-4690-bfe6-d164d14a45a2","system_id":"levelo_inurba_marseille","lat":43.29601,"lon":5.381084,"is_reserved":false,"is_disabled":false,"rental_uris":{"android":"levelo://app?vid=857252ca-eec1-4690-bfe6-d164d14a45a2","ios":"levelo://app?vid=857252ca-eec1-4690-bfe6-d164d14a45a2"},"vehicle_type_id":"4","last_reported":1714939607,"current_range_meters":0,"station_id":"ce4bgl12rcd13ifvqbo0","pricing_plan_id":"cebpf4jnsgd1na2vs0mg"},{"bike_id":"2d71a405-491b-4d93-956d-0ee5d65d52ee","system_id":"levelo_inurba_marseille","lat":43.29602,"lon":5.381084,"is_reserved":false,"is_disabled":false,"rental_uris":{"android":"levelo://app?vid=2d71a405-491b-4d93-956d-0ee5d65d52ee","ios":"levelo://app?vid=2d71a405-491b-4d93-956d-0ee5d65d52ee"},"vehicle_type_id":"4","last_reported":1714939607,"current_range_meters":8800,"station_id":"ce4bgl12rcd13ifvqbo0","pricing_plan_id":"cebpf4jnsgd1na2vs0mg"},{"bike_id":"5836cf89-e317-4f1a-9bde-e267f0171dfa","system_id":"levelo_inurba_marseille","lat":43.293259,"lon":5.371586,"is_reserved":false,"is_disabled":false,"rental_uris":{"android":"levelo://app?vid=5836cf89-e317-4f1a-9bde-e267f0171dfa","ios":"levelo://app?vid=5836cf89-e317-4f1a-9bde-e267f0171dfa"},"vehicle_type_id":"4","last_reported":1714939607,"current_range_meters":28800,"station_id":"ce4bgh92rcd13ifvqb40","pricing_plan_id":"cebpf4jnsgd1na2vs0mg"},{"bike_id":"26e41d3d-e68a-4479-b389-f79ae471cc60","system_id":"levelo_inurba_marseille","lat":43.29271,"lon":5.36837,"is_reserved":false,"is_disabled":false,"rental_uris":{"android":"levelo://app?vid=26e41d3d-e68a-4479-b389-f79ae471cc60","ios":"levelo://app?vid=26e41d3d-e68a-4479-b389-f79ae471cc60"},"vehicle_type_id":"4","last_reported":1714939607,"current_range_meters":0,"station_id":"ce4bhbp2rcd13ifvqesg","pricing_plan_id":"cebpf4jnsgd1na2vs0mg"},{"bike_id":"944b3e3b-b179-4d03-857f-4c9cdec5701c","system_id":"levelo_inurba_marseille","lat":43.29267,"lon":5.36841,"is_reserved":false,"is_disabled":false,"rental_uris":{"android":"levelo://app?vid=944b3e3b-b179-4d03-857f-4c9cdec5701c","ios":"levelo://app?vid=944b3e3b-b179-4d03-857f-4c9cdec5701c"},"vehicle_type_id":"4","last_reported":1714939607,"current_range_meters":0,"station_id":"ce4bhbp2rcd13ifvqesg","pricing_plan_id":"cebpf4jnsgd1na2vs0mg"},{"bike_id":"07d81044-dbcd-4c01-9fac-0f82b429be37","system_id":"levelo_inurba_marseille","lat":43.29265,"lon":5.36838,"is_reserved":false,"is_disabled":false,"rental_uris":{"android":"levelo://app?vid=07d81044-dbcd-4c01-9fac-0f82b429be37","ios":"levelo://app?vid=07d81044-dbcd-4c01-9fac-0f82b429be37"},"vehicle_type_id":"4","last_reported":1714939607,"current_range_meters":0,"station_id":"ce4bhbp2rcd13ifvqesg","pricing_plan_id":"cebpf4jnsgd1na2vs0mg"},{"bike_id":"09f7cb5d-9edd-47d2-a04e-f1b90dc48fc4","system_id":"levelo_inurba_marseille","lat":43.292749,"lon":5.368402,"is_reserved":false,"is_disabled":false,"rental_uris":{"android":"levelo://app?vid=09f7cb5d-9edd-47d2-a04e-f1b90dc48fc4","ios":"levelo://app?vid=09f7cb5d-9edd-47d2-a04e-f1b90dc48fc4"},"vehicle_type_id":"4","last_reported":1714939607,"current_range_meters":20000,"station_id":"ce4bhbp2rcd13ifvqesg","pricing_plan_id":"cebpf4jnsgd1na2vs0mg"},{"bike_id":"f098cb26-b9bf-4833-a11f-ae2bcd50f67a","system_id":"levelo_inurba_marseille","lat":43.30595,"lon":5.39344,"is_reserved":false,"is_disabled":false,"rental_uris":{"android":"levelo://app?vid=f098cb26-b9bf-4833-a11f-ae2bcd50f67a","ios":"levelo://app?vid=f098cb26-b9bf-4833-a11f-ae2bcd50f67a"},"vehicle_type_id":"4","last_reported":1714939607,"current_range_meters":0,"station_id":"ce4bh0p2rcd13ifvqd80","pricing_plan_id":"cebpf4jnsgd1na2vs0mg"},{"bike_id":"2a4022f5-da71-4490-9a2f-473a0b15c095","system_id":"levelo_inurba_marseille","lat":43.305994,"lon":5.393687,"is_reserved":false,"is_disabled":false,"rental_uris":{"android":"levelo://app?vid=2a4022f5-da71-4490-9a2f-473a0b15c095","ios":"levelo://app?vid=2a4022f5-da71-4490-9a2f-473a0b15c095"},"vehicle_type_id":"4","last_reported":1714939607,"current_range_meters":26800,"station_id":"ce4bh0p2rcd13ifvqd80","pricing_plan_id":"cebpf4jnsgd1na2vs0mg"},{"bike_id":"c3d882bd-f5d3-4236-8d64-ccbf163cf3b5","system_id":"levelo_inurba_marseille","lat":43.29298,"lon":5.37453,"is_reserved":false,"is_disabled":false,"rental_uris":{"android":"levelo://app?vid=c3d882bd-f5d3-4236-8d64-ccbf163cf3b5","ios":"levelo://app?vid=c3d882bd-f5d3-4236-8d64-ccbf163cf3b5"},"vehicle_type_id":"4","last_reported":1714939607,"current_range_meters":0,"station_id":"ce4bgi12rcd13ifvqb70","pricing_plan_id":"cebpf4jnsgd1na2vs0mg"},{"bike_id":"7928863f-e648-4f16-a0cd-16cc6ed75359","system_id":"levelo_inurba_marseille","lat":43.305994,"lon":5.393687,"is_reserved":false,"is_disabled":false,"rental_uris":{"android":"levelo://app?vid=7928863f-e648-4f16-a0cd-16cc6ed75359","ios":"levelo://app?vid=7928863f-e648-4f16-a0cd-16cc6ed75359"},"vehicle_type_id":"4","last_reported":1714939607,"current_range_meters":2800,"station_id":"ce4bh0p2rcd13ifvqd80","pricing_plan_id":"cebpf4jnsgd1na2vs0mg"},{"bike_id":"365911cb-f67b-4995-9917-b705be5ee5c1","system_id":"levelo_inurba_marseille","lat":43.293009,"lon":5.374584,"is_reserved":false,"is_disabled":false,"rental_uris":{"android":"levelo://app?vid=365911cb-f67b-4995-9917-b705be5ee5c1","ios":"levelo://app?vid=365911cb-f67b-4995-9917-b705be5ee5c1"},"vehicle_type_id":"4","last_reported":1714939607,"current_range_meters":26000,"station_id":"ce4bgi12rcd13ifvqb70","pricing_plan_id":"cebpf4jnsgd1na2vs0mg"},{"bike_id":"ae025c39-524b-43e8-9f4a-f0686a0e05f5","system_id":"levelo_inurba_marseille","lat":43.293009,"lon":5.374584,"is_reserved":false,"is_disabled":false,"rental_uris":{"android":"levelo://app?vid=ae025c39-524b-43e8-9f4a-f0686a0e05f5","ios":"levelo://app?vid=ae025c39-524b-43e8-9f4a-f0686a0e05f5"},"vehicle_type_id":"4","last_reported":1714939607,"current_range_meters":6000,"station_id":"ce4bgi12rcd13ifvqb70","pricing_plan_id":"cebpf4jnsgd1na2vs0mg"},{"bike_id":"9e89b862-7082-4937-92ad-18c279a9761b","system_id":"levelo_inurba_marseille","lat":43.303002,"lon":5.392142,"is_reserved":false,"is_disabled":false,"rental_uris":{"android":"levelo://app?vid=9e89b862-7082-4937-92ad-18c279a9761b","ios":"levelo://app?vid=9e89b862-7082-4937-92ad-18c279a9761b"},"vehicle_type_id":"4","last_reported":1714939607,"current_range_meters":2400,"station_id":"ce4bgkh2rcd13ifvqbk0","pricing_plan_id":"cebpf4jnsgd1na2vs0mg"},{"bike_id":"536680ff-9c5b-4a61-9dc7-2ee037159e5a","system_id":"levelo_inurba_marseille","lat":43.303002,"lon":5.392142,"is_reserved":false,"is_disabled":false,"rental_uris":{"android":"levelo://app?vid=536680ff-9c5b-4a61-9dc7-2ee037159e5a","ios":"levelo://app?vid=536680ff-9c5b-4a61-9dc7-2ee037159e5a"},"vehicle_type_id":"4","last_reported":1714939607,"current_range_meters":800,"station_id":"ce4bgkh2rcd13ifvqbk0","pricing_plan_id":"cebpf4jnsgd1na2vs0mg"},{"bike_id":"c230a222-7156-4fde-8b72-058265d3bfd4","system_id":"levelo_inurba_marseille","lat":43.302992,"lon":5.392136,"is_reserved":false,"is_disabled":false,"rental_uris":{"android":"levelo://app?vid=c230a222-7156-4fde-8b72-058265d3bfd4","ios":"levelo://app?vid=c230a222-7156-4fde-8b72-058265d3bfd4"},"vehicle_type_id":"4","last_reported":1714939607,"current_range_meters":16400,"station_id":"ce4bgkh2rcd13ifvqbk0","pricing_plan_id":"cebpf4jnsgd1na2vs0mg"},{"bike_id":"0c66adba-04fc-4f1b-bebd-e4d00ce9e8e3","system_id":"levelo_inurba_marseille","lat":43.29375,"lon":5.37851,"is_reserved":false,"is_disabled":false,"rental_uris":{"android":"levelo://app?vid=0c66adba-04fc-4f1b-bebd-e4d00ce9e8e3","ios":"levelo://app?vid=0c66adba-04fc-4f1b-bebd-e4d00ce9e8e3"},"vehicle_type_id":"4","last_reported":1714939607,"current_range_meters":0,"station_id":"ce4bgjh2rcd13ifvqbf0","pricing_plan_id":"cebpf4jnsgd1na2vs0mg"},{"bike_id":"9a552ee7-2f41-4cb8-8ade-4e347273b7a7","system_id":"levelo_inurba_marseille","lat":43.2936,"lon":5.37835,"is_reserved":false,"is_disabled":false,"rental_uris":{"android":"levelo://app?vid=9a552ee7-2f41-4cb8-8ade-4e347273b7a7","ios":"levelo://app?vid=9a552ee7-2f41-4cb8-8ade-4e347273b7a7"},"vehicle_type_id":"4","last_reported":1714939607,"current_range_meters":27200,"station_id":"ce4bgjh2rcd13ifvqbf0","pricing_plan_id":"cebpf4jnsgd1na2vs0mg"},{"bike_id":"a3e8686d-6093-464b-a925-1e21eaed18df","system_id":"levelo_inurba_marseille","lat":43.292311,"lon":5.360731,"is_reserved":false,"is_disabled":false,"rental_uris":{"android":"levelo://app?vid=a3e8686d-6093-464b-a925-1e21eaed18df","ios":"levelo://app?vid=a3e8686d-6093-464b-a925-1e21eaed18df"},"vehicle_type_id":"4","last_reported":1714939607,"current_range_meters":4400,"station_id":"ce4bhbh2rcd13ifvqeqg","pricing_plan_id":"cebpf4jnsgd1na2vs0mg"},{"bike_id":"b031ee42-b0d0-4cd4-a8e1-4d8e6f9d3b79","system_id":"levelo_inurba_marseille","lat":43.2923,"lon":5.36055,"is_reserved":false,"is_disabled":false,"rental_uris":{"android":"levelo://app?vid=b031ee42-b0d0-4cd4-a8e1-4d8e6f9d3b79","ios":"levelo://app?vid=b031ee42-b0d0-4cd4-a8e1-4d8e6f9d3b79"},"vehicle_type_id":"4","last_reported":1714939607,"current_range_meters":0,"station_id":"ce4bhbh2rcd13ifvqeqg","pricing_plan_id":"cebpf4jnsgd1na2vs0mg"},{"bike_id":"054ab93c-0c70-4f82-8f6b-80f41580f4d3","system_id":"levelo_inurba_marseille","lat":43.292311,"lon":5.360731,"is_reserved":false,"is_disabled":false,"rental_uris":{"android":"levelo://app?vid=054ab93c-0c70-4f82-8f6b-80f41580f4d3","ios":"levelo://app?vid=054ab93c-0c70-4f82-8f6b-80f41580f4d3"},"vehicle_type_id":"4","last_reported":1714939607,"current_range_meters":7200,"station_id":"ce4bhbh2rcd13ifvqeqg","pricing_plan_id":"cebpf4jnsgd1na2vs0mg"},{"bike_id":"494d0420-d038-416d-b5da-7ab82607be04","system_id":"levelo_inurba_marseille","lat":43.29228,"lon":5.36054,"is_reserved":false,"is_disabled":false,"rental_uris":{"android":"levelo://app?vid=494d0420-d038-416d-b5da-7ab82607be04","ios":"levelo://app?vid=494d0420-d038-416d-b5da-7ab82607be04"},"vehicle_type_id":"4","last_reported":1714939607,"current_range_meters":2400,"station_id":"ce4bhbh2rcd13ifvqeqg","pricing_plan_id":"cebpf4jnsgd1na2vs0mg"},{"bike_id":"f27ff229-0054-4fa3-81b3-1a9092c5dd19","system_id":"levelo_inurba_marseille","lat":43.29217,"lon":5.36041,"is_reserved":false,"is_disabled":false,"rental_uris":{"android":"levelo://app?vid=f27ff229-0054-4fa3-81b3-1a9092c5dd19","ios":"levelo://app?vid=f27ff229-0054-4fa3-81b3-1a9092c5dd19"},"vehicle_type_id":"4","last_reported":1714939607,"current_range_meters":0,"station_id":"ce4bhbh2rcd13ifvqeqg","pricing_plan_id":"cebpf4jnsgd1na2vs0mg"},{"bike_id":"65e130bf-94f2-4c5b-a927-3b88585a4953","system_id":"levelo_inurba_marseille","lat":43.292165,"lon":5.36043,"is_reserved":false,"is_disabled":false,"rental_uris":{"android":"levelo://app?vid=65e130bf-94f2-4c5b-a927-3b88585a4953","ios":"levelo://app?vid=65e130bf-94f2-4c5b-a927-3b88585a4953"},"vehicle_type_id":"4","last_reported":1714939607,"current_range_meters":400,"station_id":"ce4bhbh2rcd13ifvqeqg","pricing_plan_id":"cebpf4jnsgd1na2vs0mg"},{"bike_id":"3d992560-c5d0-4f34-8cfc-cf6535b440da","system_id":"levelo_inurba_marseille","lat":43.298787,"lon":5.389103,"is_reserved":false,"is_disabled":false,"rental_uris":{"android":"levelo://app?vid=3d992560-c5d0-4f34-8cfc-cf6535b440da","ios":"levelo://app?vid=3d992560-c5d0-4f34-8cfc-cf6535b440da"},"vehicle_type_id":"4","last_reported":1714939607,"current_range_meters":18400,"station_id":"ce4bh392rcd13ifvqdl0","pricing_plan_id":"cebpf4jnsgd1na2vs0mg"},{"bike_id":"1a6bbed3-d501-47b6-a03a-8f88d86b328d","system_id":"levelo_inurba_marseille","lat":43.298764,"lon":5.388973,"is_reserved":false,"is_disabled":false,"rental_uris":{"android":"levelo://app?vid=1a6bbed3-d501-47b6-a03a-8f88d86b328d","ios":"levelo://app?vid=1a6bbed3-d501-47b6-a03a-8f88d86b328d"},"vehicle_type_id":"4","last_reported":1714939607,"current_range_meters":19600,"station_id":"ce4bh392rcd13ifvqdl0","pricing_plan_id":"cebpf4jnsgd1na2vs0mg"},{"bike_id":"49906941-d2ce-4a82-bc8f-ea210039cfa9","system_id":"levelo_inurba_marseille","lat":43.29872,"lon":5.38909,"is_reserved":false,"is_disabled":false,"rental_uris":{"android":"levelo://app?vid=49906941-d2ce-4a82-bc8f-ea210039cfa9","ios":"levelo://app?vid=49906941-d2ce-4a82-bc8f-ea210039cfa9"},"vehicle_type_id":"4","last_reported":1714939607,"current_range_meters":24400,"station_id":"ce4bh392rcd13ifvqdl0","pricing_plan_id":"cebpf4jnsgd1na2vs0mg"},{"bike_id":"59b896a9-4e4d-45c5-a17f-4c27d7cd1294","system_id":"levelo_inurba_marseille","lat":43.298764,"lon":5.388973,"is_reserved":false,"is_disabled":false,"rental_uris":{"android":"levelo://app?vid=59b896a9-4e4d-45c5-a17f-4c27d7cd1294","ios":"levelo://app?vid=59b896a9-4e4d-45c5-a17f-4c27d7cd1294"},"vehicle_type_id":"4","last_reported":1714939607,"current_range_meters":26000,"station_id":"ce4bh392rcd13ifvqdl0","pricing_plan_id":"cebpf4jnsgd1na2vs0mg"},{"bike_id":"c983c83d-7868-42f2-8d28-00acb459aab4","system_id":"levelo_inurba_marseille","lat":43.298764,"lon":5.388973,"is_reserved":false,"is_disabled":false,"rental_uris":{"android":"levelo://app?vid=c983c83d-7868-42f2-8d28-00acb459aab4","ios":"levelo://app?vid=c983c83d-7868-42f2-8d28-00acb459aab4"},"vehicle_type_id":"4","last_reported":1714939607,"current_range_meters":19200,"station_id":"ce4bh392rcd13ifvqdl0","pricing_plan_id":"cebpf4jnsgd1na2vs0mg"},{"bike_id":"977f609b-89e0-456b-b368-684a3848ea28","system_id":"levelo_inurba_marseille","lat":43.309047,"lon":5.396551,"is_reserved":false,"is_disabled":false,"rental_uris":{"android":"levelo://app?vid=977f609b-89e0-456b-b368-684a3848ea28","ios":"levelo://app?vid=977f609b-89e0-456b-b368-684a3848ea28"},"vehicle_type_id":"4","last_reported":1714939607,"current_range_meters":18000,"station_id":"ce4bh012rcd13ifvqcv0","pricing_plan_id":"cebpf4jnsgd1na2vs0mg"},{"bike_id":"18e2a9ff-95ad-4485-950c-5c9348c82202","system_id":"levelo_inurba_marseille","lat":43.30881,"lon":5.3963,"is_reserved":false,"is_disabled":false,"rental_uris":{"android":"levelo://app?vid=18e2a9ff-95ad-4485-950c-5c9348c82202","ios":"levelo://app?vid=18e2a9ff-95ad-4485-950c-5c9348c82202"},"vehicle_type_id":"4","last_reported":1714939607,"current_range_meters":31200,"station_id":"ce4bh012rcd13ifvqcv0","pricing_plan_id":"cebpf4jnsgd1na2vs0mg"},{"bike_id":"75803ff0-a600-44a0-bb5a-8364ef238f1d","system_id":"levelo_inurba_marseille","lat":43.309047,"lon":5.396551,"is_reserved":false,"is_disabled":false,"rental_uris":{"android":"levelo://app?vid=75803ff0-a600-44a0-bb5a-8364ef238f1d","ios":"levelo://app?vid=75803ff0-a600-44a0-bb5a-8364ef238f1d"},"vehicle_type_id":"4","last_reported":1714939607,"current_range_meters":24400,"station_id":"ce4bh012rcd13ifvqcv0","pricing_plan_id":"cebpf4jnsgd1na2vs0mg"},{"bike_id":"7780c257-166f-4a5f-99bd-34354967e5cf","system_id":"levelo_inurba_marseille","lat":43.309038,"lon":5.396546,"is_reserved":false,"is_disabled":false,"rental_uris":{"android":"levelo://app?vid=7780c257-166f-4a5f-99bd-34354967e5cf","ios":"levelo://app?vid=7780c257-166f-4a5f-99bd-34354967e5cf"},"vehicle_type_id":"4","last_reported":1714939607,"current_range_meters":31600,"station_id":"ce4bh012rcd13ifvqcv0","pricing_plan_id":"cebpf4jnsgd1na2vs0mg"},{"bike_id":"96995d77-859f-44a4-a56c-615586faa10f","system_id":"levelo_inurba_marseille","lat":43.309047,"lon":5.396551,"is_reserved":false,"is_disabled":false,"rental_uris":{"android":"levelo://app?vid=96995d77-859f-44a4-a56c-615586faa10f","ios":"levelo://app?vid=96995d77-859f-44a4-a56c-615586faa10f"},"vehicle_type_id":"4","last_reported":1714939607,"current_range_meters":18400,"station_id":"ce4bh012rcd13ifvqcv0","pricing_plan_id":"cebpf4jnsgd1na2vs0mg"},{"bike_id":"1e4a1176-3873-415b-92b7-c9baff5cb041","system_id":"levelo_inurba_marseille","lat":43.309047,"lon":5.396551,"is_reserved":false,"is_disabled":false,"rental_uris":{"android":"levelo://app?vid=1e4a1176-3873-415b-92b7-c9baff5cb041","ios":"levelo://app?vid=1e4a1176-3873-415b-92b7-c9baff5cb041"},"vehicle_type_id":"4","last_reported":1714939607,"current_range_meters":4000,"station_id":"ce4bh012rcd13ifvqcv0","pricing_plan_id":"cebpf4jnsgd1na2vs0mg"},{"bike_id":"0ab46143-8915-4c41-9824-b544dc4ca085","system_id":"levelo_inurba_marseille","lat":43.313291,"lon":5.396838,"is_reserved":false,"is_disabled":false,"rental_uris":{"android":"levelo://app?vid=0ab46143-8915-4c41-9824-b544dc4ca085","ios":"levelo://app?vid=0ab46143-8915-4c41-9824-b544dc4ca085"},"vehicle_type_id":"4","last_reported":1714939607,"current_range_meters":8800,"station_id":"ce4bgvp2rcd13ifvqcu0","pricing_plan_id":"cebpf4jnsgd1na2vs0mg"},{"bike_id":"4ea147cb-2e3b-49e1-b762-de27bc1e8448","system_id":"levelo_inurba_marseille","lat":43.313291,"lon":5.396838,"is_reserved":false,"is_disabled":false,"rental_uris":{"android":"levelo://app?vid=4ea147cb-2e3b-49e1-b762-de27bc1e8448","ios":"levelo://app?vid=4ea147cb-2e3b-49e1-b762-de27bc1e8448"},"vehicle_type_id":"4","last_reported":1714939607,"current_range_meters":9200,"station_id":"ce4bgvp2rcd13ifvqcu0","pricing_plan_id":"cebpf4jnsgd1na2vs0mg"},{"bike_id":"bce55cf7-1b4b-4e18-b9de-0c7cd1591256","system_id":"levelo_inurba_marseille","lat":43.31329,"lon":5.39694,"is_reserved":false,"is_disabled":false,"rental_uris":{"android":"levelo://app?vid=bce55cf7-1b4b-4e18-b9de-0c7cd1591256","ios":"levelo://app?vid=bce55cf7-1b4b-4e18-b9de-0c7cd1591256"},"vehicle_type_id":"4","last_reported":1714939607,"current_range_meters":8800,"station_id":"ce4bgvp2rcd13ifvqcu0","pricing_plan_id":"cebpf4jnsgd1na2vs0mg"},{"bike_id":"945a0a4f-34d7-4195-b2aa-e08fe97c7c2f","system_id":"levelo_inurba_marseille","lat":43.313291,"lon":5.396838,"is_reserved":false,"is_disabled":false,"rental_uris":{"android":"levelo://app?vid=945a0a4f-34d7-4195-b2aa-e08fe97c7c2f","ios":"levelo://app?vid=945a0a4f-34d7-4195-b2aa-e08fe97c7c2f"},"vehicle_type_id":"4","last_reported":1714939607,"current_range_meters":7600,"station_id":"ce4bgvp2rcd13ifvqcu0","pricing_plan_id":"cebpf4jnsgd1na2vs0mg"},{"bike_id":"fe8d9a96-1357-48f7-be43-f6b245b341fe","system_id":"levelo_inurba_marseille","lat":43.313291,"lon":5.396838,"is_reserved":false,"is_disabled":false,"rental_uris":{"android":"levelo://app?vid=fe8d9a96-1357-48f7-be43-f6b245b341fe","ios":"levelo://app?vid=fe8d9a96-1357-48f7-be43-f6b245b341fe"},"vehicle_type_id":"4","last_reported":1714939607,"current_range_meters":1200,"station_id":"ce4bgvp2rcd13ifvqcu0","pricing_plan_id":"cebpf4jnsgd1na2vs0mg"},{"bike_id":"4a2167dc-b66d-4706-8008-d253f41ac531","system_id":"levelo_inurba_marseille","lat":43.313291,"lon":5.396838,"is_reserved":false,"is_disabled":false,"rental_uris":{"android":"levelo://app?vid=4a2167dc-b66d-4706-8008-d253f41ac531","ios":"levelo://app?vid=4a2167dc-b66d-4706-8008-d253f41ac531"},"vehicle_type_id":"4","last_reported":1714939607,"current_range_meters":31600,"station_id":"ce4bgvp2rcd13ifvqcu0","pricing_plan_id":"cebpf4jnsgd1na2vs0mg"},{"bike_id":"40a46232-87d5-4b5a-818e-d169d1b078a2","system_id":"levelo_inurba_marseille","lat":43.309038,"lon":5.396546,"is_reserved":false,"is_disabled":false,"rental_uris":{"android":"levelo://app?vid=40a46232-87d5-4b5a-818e-d169d1b078a2","ios":"levelo://app?vid=40a46232-87d5-4b5a-818e-d169d1b078a2"},"vehicle_type_id":"4","last_reported":1714939607,"current_range_meters":24000,"station_id":"ce4bh012rcd13ifvqcv0","pricing_plan_id":"cebpf4jnsgd1na2vs0mg"},{"bike_id":"c4b679ac-0005-4416-8ae1-228d12945004","system_id":"levelo_inurba_marseille","lat":43.313291,"lon":5.396838,"is_reserved":false,"is_disabled":false,"rental_uris":{"android":"levelo://app?vid=c4b679ac-0005-4416-8ae1-228d12945004","ios":"levelo://app?vid=c4b679ac-0005-4416-8ae1-228d12945004"},"vehicle_type_id":"4","last_reported":1714939607,"current_range_meters":30000,"station_id":"ce4bgvp2rcd13ifvqcu0","pricing_plan_id":"cebpf4jnsgd1na2vs0mg"},{"bike_id":"59df403c-3abd-4c4c-9dad-0c98500d1ab6","system_id":"levelo_inurba_marseille","lat":43.29544,"lon":5.38548,"is_reserved":false,"is_disabled":false,"rental_uris":{"android":"levelo://app?vid=59df403c-3abd-4c4c-9dad-0c98500d1ab6","ios":"levelo://app?vid=59df403c-3abd-4c4c-9dad-0c98500d1ab6"},"vehicle_type_id":"4","last_reported":1714939607,"current_range_meters":20800,"station_id":"ce4bgih2rcd13ifvqba0","pricing_plan_id":"cebpf4jnsgd1na2vs0mg"},{"bike_id":"71ae0fd0-a45e-45bc-a79c-fa8dcf12e894","system_id":"levelo_inurba_marseille","lat":43.29539,"lon":5.38543,"is_reserved":false,"is_disabled":false,"rental_uris":{"android":"levelo://app?vid=71ae0fd0-a45e-45bc-a79c-fa8dcf12e894","ios":"levelo://app?vid=71ae0fd0-a45e-45bc-a79c-fa8dcf12e894"},"vehicle_type_id":"4","last_reported":1714939607,"current_range_meters":14400,"station_id":"ce4bgih2rcd13ifvqba0","pricing_plan_id":"cebpf4jnsgd1na2vs0mg"},{"bike_id":"4a9fba57-bd23-4da2-a520-15979301d4c7","system_id":"levelo_inurba_marseille","lat":43.29529,"lon":5.385581,"is_reserved":false,"is_disabled":false,"rental_uris":{"android":"levelo://app?vid=4a9fba57-bd23-4da2-a520-15979301d4c7","ios":"levelo://app?vid=4a9fba57-bd23-4da2-a520-15979301d4c7"},"vehicle_type_id":"4","last_reported":1714939607,"current_range_meters":24800,"station_id":"ce4bgih2rcd13ifvqba0","pricing_plan_id":"cebpf4jnsgd1na2vs0mg"},{"bike_id":"edff4256-ce20-4751-8a16-84ecf9220fc8","system_id":"levelo_inurba_marseille","lat":43.29537,"lon":5.38548,"is_reserved":false,"is_disabled":false,"rental_uris":{"android":"levelo://app?vid=edff4256-ce20-4751-8a16-84ecf9220fc8","ios":"levelo://app?vid=edff4256-ce20-4751-8a16-84ecf9220fc8"},"vehicle_type_id":"4","last_reported":1714939607,"current_range_meters":18800,"station_id":"ce4bgih2rcd13ifvqba0","pricing_plan_id":"cebpf4jnsgd1na2vs0mg"},{"bike_id":"24d06a49-9f09-4f15-8c75-bde6cb48853f","system_id":"levelo_inurba_marseille","lat":43.29531,"lon":5.38544,"is_reserved":false,"is_disabled":false,"rental_uris":{"android":"levelo://app?vid=24d06a49-9f09-4f15-8c75-bde6cb48853f","ios":"levelo://app?vid=24d06a49-9f09-4f15-8c75-bde6cb48853f"},"vehicle_type_id":"4","last_reported":1714939607,"current_range_meters":20800,"station_id":"ce4bgih2rcd13ifvqba0","pricing_plan_id":"cebpf4jnsgd1na2vs0mg"},{"bike_id":"881d944a-be9d-4d8d-992c-cfae43ea7028","system_id":"levelo_inurba_marseille","lat":43.29534,"lon":5.3855,"is_reserved":false,"is_disabled":false,"rental_uris":{"android":"levelo://app?vid=881d944a-be9d-4d8d-992c-cfae43ea7028","ios":"levelo://app?vid=881d944a-be9d-4d8d-992c-cfae43ea7028"},"vehicle_type_id":"4","last_reported":1714939607,"current_range_meters":0,"station_id":"ce4bgih2rcd13ifvqba0","pricing_plan_id":"cebpf4jnsgd1na2vs0mg"},{"bike_id":"179e6534-f2dd-4b51-9c0d-2d1c36c5b555","system_id":"levelo_inurba_marseille","lat":43.29521,"lon":5.38536,"is_reserved":false,"is_disabled":false,"rental_uris":{"android":"levelo://app?vid=179e6534-f2dd-4b51-9c0d-2d1c36c5b555","ios":"levelo://app?vid=179e6534-f2dd-4b51-9c0d-2d1c36c5b555"},"vehicle_type_id":"4","last_reported":1714939607,"current_range_meters":12400,"station_id":"ce4bgih2rcd13ifvqba0","pricing_plan_id":"cebpf4jnsgd1na2vs0mg"},{"bike_id":"d89e2959-1a0a-4c92-a39f-3c85b3457c12","system_id":"levelo_inurba_marseille","lat":43.29527,"lon":5.38547,"is_reserved":false,"is_disabled":false,"rental_uris":{"android":"levelo://app?vid=d89e2959-1a0a-4c92-a39f-3c85b3457c12","ios":"levelo://app?vid=d89e2959-1a0a-4c92-a39f-3c85b3457c12"},"vehicle_type_id":"4","last_reported":1714939607,"current_range_meters":8000,"station_id":"ce4bgih2rcd13ifvqba0","pricing_plan_id":"cebpf4jnsgd1na2vs0mg"},{"bike_id":"b1a78b56-3a80-4857-93d2-70a003f99627","system_id":"levelo_inurba_marseille","lat":43.29527,"lon":5.38548,"is_reserved":false,"is_disabled":false,"rental_uris":{"android":"levelo://app?vid=b1a78b56-3a80-4857-93d2-70a003f99627","ios":"levelo://app?vid=b1a78b56-3a80-4857-93d2-70a003f99627"},"vehicle_type_id":"4","last_reported":1714939607,"current_range_meters":8800,"station_id":"ce4bgih2rcd13ifvqba0","pricing_plan_id":"cebpf4jnsgd1na2vs0mg"},{"bike_id":"2a747553-d271-409b-a5f2-ec498318efcf","system_id":"levelo_inurba_marseille","lat":43.29524,"lon":5.38545,"is_reserved":false,"is_disabled":false,"rental_uris":{"android":"levelo://app?vid=2a747553-d271-409b-a5f2-ec498318efcf","ios":"levelo://app?vid=2a747553-d271-409b-a5f2-ec498318efcf"},"vehicle_type_id":"4","last_reported":1714939607,"current_range_meters":2000,"station_id":"ce4bgih2rcd13ifvqba0","pricing_plan_id":"cebpf4jnsgd1na2vs0mg"},{"bike_id":"cc786325-60dd-45cf-ad05-e2e564cb5fdf","system_id":"levelo_inurba_marseille","lat":43.29529,"lon":5.385581,"is_reserved":false,"is_disabled":false,"rental_uris":{"android":"levelo://app?vid=cc786325-60dd-45cf-ad05-e2e564cb5fdf","ios":"levelo://app?vid=cc786325-60dd-45cf-ad05-e2e564cb5fdf"},"vehicle_type_id":"4","last_reported":1714939607,"current_range_meters":16000,"station_id":"ce4bgih2rcd13ifvqba0","pricing_plan_id":"cebpf4jnsgd1na2vs0mg"},{"bike_id":"d365cfd3-fbd7-44f8-81f1-de182b792820","system_id":"levelo_inurba_marseille","lat":43.295194,"lon":5.39397,"is_reserved":false,"is_disabled":false,"rental_uris":{"android":"levelo://app?vid=d365cfd3-fbd7-44f8-81f1-de182b792820","ios":"levelo://app?vid=d365cfd3-fbd7-44f8-81f1-de182b792820"},"vehicle_type_id":"4","last_reported":1714939607,"current_range_meters":800,"station_id":"ce4bh292rcd13ifvqdf0","pricing_plan_id":"cebpf4jnsgd1na2vs0mg"},{"bike_id":"25af2ede-2268-4a3f-a3e9-85d112c032da","system_id":"levelo_inurba_marseille","lat":43.302008,"lon":5.394694,"is_reserved":false,"is_disabled":false,"rental_uris":{"android":"levelo://app?vid=25af2ede-2268-4a3f-a3e9-85d112c032da","ios":"levelo://app?vid=25af2ede-2268-4a3f-a3e9-85d112c032da"},"vehicle_type_id":"4","last_reported":1714939607,"current_range_meters":21600,"station_id":"ce4bh0p2rcd13ifvqd70","pricing_plan_id":"cebpf4jnsgd1na2vs0mg"},{"bike_id":"bb4a19dc-3e6c-4408-89e3-5956536b4814","system_id":"levelo_inurba_marseille","lat":43.290631,"lon":5.359244,"is_reserved":false,"is_disabled":false,"rental_uris":{"android":"levelo://app?vid=bb4a19dc-3e6c-4408-89e3-5956536b4814","ios":"levelo://app?vid=bb4a19dc-3e6c-4408-89e3-5956536b4814"},"vehicle_type_id":"4","last_reported":1714939607,"current_range_meters":11200,"station_id":"ce4bha92rcd13ifvqeg0","pricing_plan_id":"cebpf4jnsgd1na2vs0mg"},{"bike_id":"501786c0-2914-45ba-8245-a7e1d14c4add","system_id":"levelo_inurba_marseille","lat":43.290624,"lon":5.359245,"is_reserved":false,"is_disabled":false,"rental_uris":{"android":"levelo://app?vid=501786c0-2914-45ba-8245-a7e1d14c4add","ios":"levelo://app?vid=501786c0-2914-45ba-8245-a7e1d14c4add"},"vehicle_type_id":"4","last_reported":1714939607,"current_range_meters":27200,"station_id":"ce4bha92rcd13ifvqeg0","pricing_plan_id":"cebpf4jnsgd1na2vs0mg"},{"bike_id":"041b7581-7d2e-437f-953f-ba4321345d5f","system_id":"levelo_inurba_marseille","lat":43.29422,"lon":5.3862,"is_reserved":false,"is_disabled":false,"rental_uris":{"android":"levelo://app?vid=041b7581-7d2e-437f-953f-ba4321345d5f","ios":"levelo://app?vid=041b7581-7d2e-437f-953f-ba4321345d5f"},"vehicle_type_id":"4","last_reported":1714939607,"current_range_meters":800,"station_id":"ce4bh2h2rcd13ifvqdh0","pricing_plan_id":"cebpf4jnsgd1na2vs0mg"},{"bike_id":"c8cfa35b-434e-420d-a5c8-22d07e37e042","system_id":"levelo_inurba_marseille","lat":43.2942,"lon":5.38617,"is_reserved":false,"is_disabled":false,"rental_uris":{"android":"levelo://app?vid=c8cfa35b-434e-420d-a5c8-22d07e37e042","ios":"levelo://app?vid=c8cfa35b-434e-420d-a5c8-22d07e37e042"},"vehicle_type_id":"4","last_reported":1714939607,"current_range_meters":21600,"station_id":"ce4bh2h2rcd13ifvqdh0","pricing_plan_id":"cebpf4jnsgd1na2vs0mg"},{"bike_id":"c2bbd255-350b-4614-a406-e6894d40d3fb","system_id":"levelo_inurba_marseille","lat":43.29037,"lon":5.37556,"is_reserved":false,"is_disabled":false,"rental_uris":{"android":"levelo://app?vid=c2bbd255-350b-4614-a406-e6894d40d3fb","ios":"levelo://app?vid=c2bbd255-350b-4614-a406-e6894d40d3fb"},"vehicle_type_id":"4","last_reported":1714939607,"current_range_meters":26000,"station_id":"ce4bh692rcd13ifvqe90","pricing_plan_id":"cebpf4jnsgd1na2vs0mg"},{"bike_id":"45b1bdeb-5ff9-4f41-86b3-32e846ed3113","system_id":"levelo_inurba_marseille","lat":43.294162,"lon":5.386292,"is_reserved":false,"is_disabled":false,"rental_uris":{"android":"levelo://app?vid=45b1bdeb-5ff9-4f41-86b3-32e846ed3113","ios":"levelo://app?vid=45b1bdeb-5ff9-4f41-86b3-32e846ed3113"},"vehicle_type_id":"4","last_reported":1714939607,"current_range_meters":26800,"station_id":"ce4bh2h2rcd13ifvqdh0","pricing_plan_id":"cebpf4jnsgd1na2vs0mg"},{"bike_id":"8f0a1a37-961b-43fa-9a97-297fcb2d8c2b","system_id":"levelo_inurba_marseille","lat":43.294153,"lon":5.386305,"is_reserved":false,"is_disabled":false,"rental_uris":{"android":"levelo://app?vid=8f0a1a37-961b-43fa-9a97-297fcb2d8c2b","ios":"levelo://app?vid=8f0a1a37-961b-43fa-9a97-297fcb2d8c2b"},"vehicle_type_id":"4","last_reported":1714939607,"current_range_meters":3600,"station_id":"ce4bh2h2rcd13ifvqdh0","pricing_plan_id":"cebpf4jnsgd1na2vs0mg"},{"bike_id":"d1ec9202-f6e7-4a91-bd8a-572ea0a0d8e4","system_id":"levelo_inurba_marseille","lat":43.29417,"lon":5.3862,"is_reserved":false,"is_disabled":false,"rental_uris":{"android":"levelo://app?vid=d1ec9202-f6e7-4a91-bd8a-572ea0a0d8e4","ios":"levelo://app?vid=d1ec9202-f6e7-4a91-bd8a-572ea0a0d8e4"},"vehicle_type_id":"4","last_reported":1714939607,"current_range_meters":1200,"station_id":"ce4bh2h2rcd13ifvqdh0","pricing_plan_id":"cebpf4jnsgd1na2vs0mg"},{"bike_id":"4ee84967-7004-4321-82a5-43b53eb4e424","system_id":"levelo_inurba_marseille","lat":43.29417,"lon":5.38621,"is_reserved":false,"is_disabled":false,"rental_uris":{"android":"levelo://app?vid=4ee84967-7004-4321-82a5-43b53eb4e424","ios":"levelo://app?vid=4ee84967-7004-4321-82a5-43b53eb4e424"},"vehicle_type_id":"4","last_reported":1714939607,"current_range_meters":2800,"station_id":"ce4bh2h2rcd13ifvqdh0","pricing_plan_id":"cebpf4jnsgd1na2vs0mg"},{"bike_id":"6e36210d-70b3-4125-8e43-a4f34f43304a","system_id":"levelo_inurba_marseille","lat":43.294162,"lon":5.386292,"is_reserved":false,"is_disabled":false,"rental_uris":{"android":"levelo://app?vid=6e36210d-70b3-4125-8e43-a4f34f43304a","ios":"levelo://app?vid=6e36210d-70b3-4125-8e43-a4f34f43304a"},"vehicle_type_id":"4","last_reported":1714939607,"current_range_meters":17200,"station_id":"ce4bh2h2rcd13ifvqdh0","pricing_plan_id":"cebpf4jnsgd1na2vs0mg"},{"bike_id":"fc17981a-d791-447e-8813-14664a7a24d7","system_id":"levelo_inurba_marseille","lat":43.294162,"lon":5.386292,"is_reserved":false,"is_disabled":false,"rental_uris":{"android":"levelo://app?vid=fc17981a-d791-447e-8813-14664a7a24d7","ios":"levelo://app?vid=fc17981a-d791-447e-8813-14664a7a24d7"},"vehicle_type_id":"4","last_reported":1714939607,"current_range_meters":19600,"station_id":"ce4bh2h2rcd13ifvqdh0","pricing_plan_id":"cebpf4jnsgd1na2vs0mg"},{"bike_id":"1dc366f5-a24e-4cc7-860c-f253cde13ba4","system_id":"levelo_inurba_marseille","lat":43.29416,"lon":5.38621,"is_reserved":false,"is_disabled":false,"rental_uris":{"android":"levelo://app?vid=1dc366f5-a24e-4cc7-860c-f253cde13ba4","ios":"levelo://app?vid=1dc366f5-a24e-4cc7-860c-f253cde13ba4"},"vehicle_type_id":"4","last_reported":1714939607,"current_range_meters":6800,"station_id":"ce4bh2h2rcd13ifvqdh0","pricing_plan_id":"cebpf4jnsgd1na2vs0mg"},{"bike_id":"df817235-3b9f-421b-805a-065cdd64affd","system_id":"levelo_inurba_marseille","lat":43.29414,"lon":5.38618,"is_reserved":false,"is_disabled":false,"rental_uris":{"android":"levelo://app?vid=df817235-3b9f-421b-805a-065cdd64affd","ios":"levelo://app?vid=df817235-3b9f-421b-805a-065cdd64affd"},"vehicle_type_id":"4","last_reported":1714939607,"current_range_meters":23200,"station_id":"ce4bh2h2rcd13ifvqdh0","pricing_plan_id":"cebpf4jnsgd1na2vs0mg"},{"bike_id":"db4c9210-4a71-452f-9db0-4fb1379a545d","system_id":"levelo_inurba_marseille","lat":43.29416,"lon":5.38623,"is_reserved":false,"is_disabled":false,"rental_uris":{"android":"levelo://app?vid=db4c9210-4a71-452f-9db0-4fb1379a545d","ios":"levelo://app?vid=db4c9210-4a71-452f-9db0-4fb1379a545d"},"vehicle_type_id":"4","last_reported":1714939607,"current_range_meters":25200,"station_id":"ce4bh2h2rcd13ifvqdh0","pricing_plan_id":"cebpf4jnsgd1na2vs0mg"},{"bike_id":"d3454b87-cac3-4ccf-aee1-2eeb20e9ca8e","system_id":"levelo_inurba_marseille","lat":43.294162,"lon":5.386292,"is_reserved":false,"is_disabled":false,"rental_uris":{"android":"levelo://app?vid=d3454b87-cac3-4ccf-aee1-2eeb20e9ca8e","ios":"levelo://app?vid=d3454b87-cac3-4ccf-aee1-2eeb20e9ca8e"},"vehicle_type_id":"4","last_reported":1714939607,"current_range_meters":16400,"station_id":"ce4bh2h2rcd13ifvqdh0","pricing_plan_id":"cebpf4jnsgd1na2vs0mg"},{"bike_id":"53dd913b-20e4-401d-b92c-936fe2f0b26f","system_id":"levelo_inurba_marseille","lat":43.294162,"lon":5.386292,"is_reserved":false,"is_disabled":false,"rental_uris":{"android":"levelo://app?vid=53dd913b-20e4-401d-b92c-936fe2f0b26f","ios":"levelo://app?vid=53dd913b-20e4-401d-b92c-936fe2f0b26f"},"vehicle_type_id":"4","last_reported":1714939607,"current_range_meters":22400,"station_id":"ce4bh2h2rcd13ifvqdh0","pricing_plan_id":"cebpf4jnsgd1na2vs0mg"},{"bike_id":"3dae8e58-afa5-425d-9950-09f26f6f85da","system_id":"levelo_inurba_marseille","lat":43.29415,"lon":5.38624,"is_reserved":false,"is_disabled":false,"rental_uris":{"android":"levelo://app?vid=3dae8e58-afa5-425d-9950-09f26f6f85da","ios":"levelo://app?vid=3dae8e58-afa5-425d-9950-09f26f6f85da"},"vehicle_type_id":"4","last_reported":1714939607,"current_range_meters":8000,"station_id":"ce4bh2h2rcd13ifvqdh0","pricing_plan_id":"cebpf4jnsgd1na2vs0mg"},{"bike_id":"9244f192-20f6-4853-8085-ebfb7d3053cd","system_id":"levelo_inurba_marseille","lat":43.29411,"lon":5.38617,"is_reserved":false,"is_disabled":false,"rental_uris":{"android":"levelo://app?vid=9244f192-20f6-4853-8085-ebfb7d3053cd","ios":"levelo://app?vid=9244f192-20f6-4853-8085-ebfb7d3053cd"},"vehicle_type_id":"4","last_reported":1714939607,"current_range_meters":4800,"station_id":"ce4bh2h2rcd13ifvqdh0","pricing_plan_id":"cebpf4jnsgd1na2vs0mg"},{"bike_id":"2205b130-cc67-42c3-8e1f-e06dca252c02","system_id":"levelo_inurba_marseille","lat":43.294184,"lon":5.386307,"is_reserved":false,"is_disabled":false,"rental_uris":{"android":"levelo://app?vid=2205b130-cc67-42c3-8e1f-e06dca252c02","ios":"levelo://app?vid=2205b130-cc67-42c3-8e1f-e06dca252c02"},"vehicle_type_id":"4","last_reported":1714939607,"current_range_meters":2000,"station_id":"","pricing_plan_id":"cebpf4jnsgd1na2vs0mg"},{"bike_id":"4dfea70d-329f-4343-a9c2-2ce1f2240170","system_id":"levelo_inurba_marseille","lat":43.290327,"lon":5.375711,"is_reserved":false,"is_disabled":false,"rental_uris":{"android":"levelo://app?vid=4dfea70d-329f-4343-a9c2-2ce1f2240170","ios":"levelo://app?vid=4dfea70d-329f-4343-a9c2-2ce1f2240170"},"vehicle_type_id":"4","last_reported":1714939607,"current_range_meters":25200,"station_id":"ce4bh692rcd13ifvqe90","pricing_plan_id":"cebpf4jnsgd1na2vs0mg"},{"bike_id":"9b19f0bf-d5a5-4aa7-81ec-8f098fd53574","system_id":"levelo_inurba_marseille","lat":43.29414,"lon":5.38624,"is_reserved":false,"is_disabled":false,"rental_uris":{"android":"levelo://app?vid=9b19f0bf-d5a5-4aa7-81ec-8f098fd53574","ios":"levelo://app?vid=9b19f0bf-d5a5-4aa7-81ec-8f098fd53574"},"vehicle_type_id":"4","last_reported":1714939607,"current_range_meters":5200,"station_id":"ce4bh2h2rcd13ifvqdh0","pricing_plan_id":"cebpf4jnsgd1na2vs0mg"},{"bike_id":"ae8117bc-a69c-489e-8365-eb0628bdd024","system_id":"levelo_inurba_marseille","lat":43.29415,"lon":5.38627,"is_reserved":false,"is_disabled":false,"rental_uris":{"android":"levelo://app?vid=ae8117bc-a69c-489e-8365-eb0628bdd024","ios":"levelo://app?vid=ae8117bc-a69c-489e-8365-eb0628bdd024"},"vehicle_type_id":"4","last_reported":1714939607,"current_range_meters":21200,"station_id":"ce4bh2h2rcd13ifvqdh0","pricing_plan_id":"cebpf4jnsgd1na2vs0mg"},{"bike_id":"412c2e58-815e-4f25-afcb-bd631547d79c","system_id":"levelo_inurba_marseille","lat":43.294153,"lon":5.386305,"is_reserved":false,"is_disabled":false,"rental_uris":{"android":"levelo://app?vid=412c2e58-815e-4f25-afcb-bd631547d79c","ios":"levelo://app?vid=412c2e58-815e-4f25-afcb-bd631547d79c"},"vehicle_type_id":"4","last_reported":1714939607,"current_range_meters":12400,"station_id":"ce4bh2h2rcd13ifvqdh0","pricing_plan_id":"cebpf4jnsgd1na2vs0mg"},{"bike_id":"792b569f-5f4a-49b9-ae3e-20b603f89795","system_id":"levelo_inurba_marseille","lat":43.29413,"lon":5.38624,"is_reserved":false,"is_disabled":false,"rental_uris":{"android":"levelo://app?vid=792b569f-5f4a-49b9-ae3e-20b603f89795","ios":"levelo://app?vid=792b569f-5f4a-49b9-ae3e-20b603f89795"},"vehicle_type_id":"4","last_reported":1714939607,"current_range_meters":0,"station_id":"ce4bh2h2rcd13ifvqdh0","pricing_plan_id":"cebpf4jnsgd1na2vs0mg"},{"bike_id":"ea7381fc-07a5-485f-8dac-be8abf744acb","system_id":"levelo_inurba_marseille","lat":43.294162,"lon":5.386292,"is_reserved":false,"is_disabled":false,"rental_uris":{"android":"levelo://app?vid=ea7381fc-07a5-485f-8dac-be8abf744acb","ios":"levelo://app?vid=ea7381fc-07a5-485f-8dac-be8abf744acb"},"vehicle_type_id":"4","last_reported":1714939607,"current_range_meters":9200,"station_id":"ce4bh2h2rcd13ifvqdh0","pricing_plan_id":"cebpf4jnsgd1na2vs0mg"},{"bike_id":"d3d55cc0-a9be-4b5e-be40-dbf6180c1a88","system_id":"levelo_inurba_marseille","lat":43.289184,"lon":5.366408,"is_reserved":false,"is_disabled":false,"rental_uris":{"android":"levelo://app?vid=d3d55cc0-a9be-4b5e-be40-dbf6180c1a88","ios":"levelo://app?vid=d3d55cc0-a9be-4b5e-be40-dbf6180c1a88"},"vehicle_type_id":"4","last_reported":1714939607,"current_range_meters":17600,"station_id":"ce4bhap2rcd13ifvqek0","pricing_plan_id":"cebpf4jnsgd1na2vs0mg"},{"bike_id":"4aad27af-a401-4c77-90c9-10df54955c32","system_id":"levelo_inurba_marseille","lat":43.294162,"lon":5.386292,"is_reserved":false,"is_disabled":false,"rental_uris":{"android":"levelo://app?vid=4aad27af-a401-4c77-90c9-10df54955c32","ios":"levelo://app?vid=4aad27af-a401-4c77-90c9-10df54955c32"},"vehicle_type_id":"4","last_reported":1714939607,"current_range_meters":27600,"station_id":"ce4bh2h2rcd13ifvqdh0","pricing_plan_id":"cebpf4jnsgd1na2vs0mg"},{"bike_id":"40d01867-49b8-4638-b98a-6b5089606f68","system_id":"levelo_inurba_marseille","lat":43.29414,"lon":5.38628,"is_reserved":false,"is_disabled":false,"rental_uris":{"android":"levelo://app?vid=40d01867-49b8-4638-b98a-6b5089606f68","ios":"levelo://app?vid=40d01867-49b8-4638-b98a-6b5089606f68"},"vehicle_type_id":"4","last_reported":1714939607,"current_range_meters":0,"station_id":"ce4bh2h2rcd13ifvqdh0","pricing_plan_id":"cebpf4jnsgd1na2vs0mg"},{"bike_id":"d1349fad-7276-48d3-b0db-ec2ec4338a64","system_id":"levelo_inurba_marseille","lat":43.294153,"lon":5.386305,"is_reserved":false,"is_disabled":false,"rental_uris":{"android":"levelo://app?vid=d1349fad-7276-48d3-b0db-ec2ec4338a64","ios":"levelo://app?vid=d1349fad-7276-48d3-b0db-ec2ec4338a64"},"vehicle_type_id":"4","last_reported":1714939607,"current_range_meters":20000,"station_id":"ce4bh2h2rcd13ifvqdh0","pricing_plan_id":"cebpf4jnsgd1na2vs0mg"},{"bike_id":"497e6b77-082b-434e-b6d8-8551b082f002","system_id":"levelo_inurba_marseille","lat":43.2894,"lon":5.36634,"is_reserved":false,"is_disabled":false,"rental_uris":{"android":"levelo://app?vid=497e6b77-082b-434e-b6d8-8551b082f002","ios":"levelo://app?vid=497e6b77-082b-434e-b6d8-8551b082f002"},"vehicle_type_id":"4","last_reported":1714939607,"current_range_meters":27200,"station_id":"ce4bhap2rcd13ifvqek0","pricing_plan_id":"cebpf4jnsgd1na2vs0mg"},{"bike_id":"3b23fd44-40a7-4872-b074-ca4b7f3cd097","system_id":"levelo_inurba_marseille","lat":43.2941,"lon":5.38625,"is_reserved":false,"is_disabled":false,"rental_uris":{"android":"levelo://app?vid=3b23fd44-40a7-4872-b074-ca4b7f3cd097","ios":"levelo://app?vid=3b23fd44-40a7-4872-b074-ca4b7f3cd097"},"vehicle_type_id":"4","last_reported":1714939607,"current_range_meters":5200,"station_id":"ce4bh2h2rcd13ifvqdh0","pricing_plan_id":"cebpf4jnsgd1na2vs0mg"},{"bike_id":"e9cfe703-8e82-41fd-8638-16d648c4d800","system_id":"levelo_inurba_marseille","lat":43.28939,"lon":5.36639,"is_reserved":false,"is_disabled":false,"rental_uris":{"android":"levelo://app?vid=e9cfe703-8e82-41fd-8638-16d648c4d800","ios":"levelo://app?vid=e9cfe703-8e82-41fd-8638-16d648c4d800"},"vehicle_type_id":"4","last_reported":1714939607,"current_range_meters":2000,"station_id":"ce4bhap2rcd13ifvqek0","pricing_plan_id":"cebpf4jnsgd1na2vs0mg"},{"bike_id":"a1dc0cad-f467-483c-8a8c-2f192b8141ae","system_id":"levelo_inurba_marseille","lat":43.294162,"lon":5.386292,"is_reserved":false,"is_disabled":false,"rental_uris":{"android":"levelo://app?vid=a1dc0cad-f467-483c-8a8c-2f192b8141ae","ios":"levelo://app?vid=a1dc0cad-f467-483c-8a8c-2f192b8141ae"},"vehicle_type_id":"4","last_reported":1714939607,"current_range_meters":25200,"station_id":"ce4bh2h2rcd13ifvqdh0","pricing_plan_id":"cebpf4jnsgd1na2vs0mg"},{"bike_id":"6b4b075e-59b2-47f8-9cf7-cb4241541bbe","system_id":"levelo_inurba_marseille","lat":43.289184,"lon":5.366408,"is_reserved":false,"is_disabled":false,"rental_uris":{"android":"levelo://app?vid=6b4b075e-59b2-47f8-9cf7-cb4241541bbe","ios":"levelo://app?vid=6b4b075e-59b2-47f8-9cf7-cb4241541bbe"},"vehicle_type_id":"4","last_reported":1714939607,"current_range_meters":6400,"station_id":"ce4bhap2rcd13ifvqek0","pricing_plan_id":"cebpf4jnsgd1na2vs0mg"},{"bike_id":"f3828102-796d-446b-bd01-12fc93919222","system_id":"levelo_inurba_marseille","lat":43.289184,"lon":5.366408,"is_reserved":false,"is_disabled":false,"rental_uris":{"android":"levelo://app?vid=f3828102-796d-446b-bd01-12fc93919222","ios":"levelo://app?vid=f3828102-796d-446b-bd01-12fc93919222"},"vehicle_type_id":"4","last_reported":1714939607,"current_range_meters":9200,"station_id":"ce4bhap2rcd13ifvqek0","pricing_plan_id":"cebpf4jnsgd1na2vs0mg"},{"bike_id":"b62c2ad9-7ea7-430f-9913-65ce75ae6bc9","system_id":"levelo_inurba_marseille","lat":43.29409,"lon":5.38628,"is_reserved":false,"is_disabled":false,"rental_uris":{"android":"levelo://app?vid=b62c2ad9-7ea7-430f-9913-65ce75ae6bc9","ios":"levelo://app?vid=b62c2ad9-7ea7-430f-9913-65ce75ae6bc9"},"vehicle_type_id":"4","last_reported":1714939607,"current_range_meters":3600,"station_id":"ce4bh2h2rcd13ifvqdh0","pricing_plan_id":"cebpf4jnsgd1na2vs0mg"},{"bike_id":"a8cd38d5-60b9-40a4-829d-f936b0750742","system_id":"levelo_inurba_marseille","lat":43.28937,"lon":5.3663,"is_reserved":false,"is_disabled":false,"rental_uris":{"android":"levelo://app?vid=a8cd38d5-60b9-40a4-829d-f936b0750742","ios":"levelo://app?vid=a8cd38d5-60b9-40a4-829d-f936b0750742"},"vehicle_type_id":"4","last_reported":1714939607,"current_range_meters":26000,"station_id":"ce4bhap2rcd13ifvqek0","pricing_plan_id":"cebpf4jnsgd1na2vs0mg"},{"bike_id":"5b95d3c5-90e8-4673-9955-b53ac66e60bd","system_id":"levelo_inurba_marseille","lat":43.294153,"lon":5.386305,"is_reserved":false,"is_disabled":false,"rental_uris":{"android":"levelo://app?vid=5b95d3c5-90e8-4673-9955-b53ac66e60bd","ios":"levelo://app?vid=5b95d3c5-90e8-4673-9955-b53ac66e60bd"},"vehicle_type_id":"4","last_reported":1714939607,"current_range_meters":29600,"station_id":"ce4bh2h2rcd13ifvqdh0","pricing_plan_id":"cebpf4jnsgd1na2vs0mg"},{"bike_id":"eed84951-1526-4e0d-923d-a28cd7bdba9e","system_id":"levelo_inurba_marseille","lat":43.289184,"lon":5.366408,"is_reserved":false,"is_disabled":false,"rental_uris":{"android":"levelo://app?vid=eed84951-1526-4e0d-923d-a28cd7bdba9e","ios":"levelo://app?vid=eed84951-1526-4e0d-923d-a28cd7bdba9e"},"vehicle_type_id":"4","last_reported":1714939607,"current_range_meters":2800,"station_id":"ce4bhap2rcd13ifvqek0","pricing_plan_id":"cebpf4jnsgd1na2vs0mg"},{"bike_id":"51d4c113-5c80-41ee-97b7-24942fc2a645","system_id":"levelo_inurba_marseille","lat":43.289184,"lon":5.366408,"is_reserved":false,"is_disabled":false,"rental_uris":{"android":"levelo://app?vid=51d4c113-5c80-41ee-97b7-24942fc2a645","ios":"levelo://app?vid=51d4c113-5c80-41ee-97b7-24942fc2a645"},"vehicle_type_id":"4","last_reported":1714939607,"current_range_meters":1200,"station_id":"ce4bhap2rcd13ifvqek0","pricing_plan_id":"cebpf4jnsgd1na2vs0mg"},{"bike_id":"8f21af03-99bb-4956-a590-c21b6da9c9f5","system_id":"levelo_inurba_marseille","lat":43.29408,"lon":5.38631,"is_reserved":false,"is_disabled":false,"rental_uris":{"android":"levelo://app?vid=8f21af03-99bb-4956-a590-c21b6da9c9f5","ios":"levelo://app?vid=8f21af03-99bb-4956-a590-c21b6da9c9f5"},"vehicle_type_id":"4","last_reported":1714939607,"current_range_meters":0,"station_id":"ce4bh2h2rcd13ifvqdh0","pricing_plan_id":"cebpf4jnsgd1na2vs0mg"},{"bike_id":"48d47755-8a36-4a7a-b6d7-c657c60e3a79","system_id":"levelo_inurba_marseille","lat":43.289184,"lon":5.366408,"is_reserved":false,"is_disabled":false,"rental_uris":{"android":"levelo://app?vid=48d47755-8a36-4a7a-b6d7-c657c60e3a79","ios":"levelo://app?vid=48d47755-8a36-4a7a-b6d7-c657c60e3a79"},"vehicle_type_id":"4","last_reported":1714939607,"current_range_meters":18400,"station_id":"ce4bhap2rcd13ifvqek0","pricing_plan_id":"cebpf4jnsgd1na2vs0mg"},{"bike_id":"60aa760e-8b85-4c21-9ffd-1c0bfdb44dfe","system_id":"levelo_inurba_marseille","lat":43.28933,"lon":5.36645,"is_reserved":false,"is_disabled":false,"rental_uris":{"android":"levelo://app?vid=60aa760e-8b85-4c21-9ffd-1c0bfdb44dfe","ios":"levelo://app?vid=60aa760e-8b85-4c21-9ffd-1c0bfdb44dfe"},"vehicle_type_id":"4","last_reported":1714939607,"current_range_meters":24800,"station_id":"ce4bhap2rcd13ifvqek0","pricing_plan_id":"cebpf4jnsgd1na2vs0mg"},{"bike_id":"bd507d66-ecb4-461a-b3f2-6d052436503e","system_id":"levelo_inurba_marseille","lat":43.289184,"lon":5.366408,"is_reserved":false,"is_disabled":false,"rental_uris":{"android":"levelo://app?vid=bd507d66-ecb4-461a-b3f2-6d052436503e","ios":"levelo://app?vid=bd507d66-ecb4-461a-b3f2-6d052436503e"},"vehicle_type_id":"4","last_reported":1714939607,"current_range_meters":20800,"station_id":"ce4bhap2rcd13ifvqek0","pricing_plan_id":"cebpf4jnsgd1na2vs0mg"},{"bike_id":"d72e6931-a8e1-45ab-822b-ebde64a6ea3d","system_id":"levelo_inurba_marseille","lat":43.289468,"lon":5.363719,"is_reserved":false,"is_disabled":false,"rental_uris":{"android":"levelo://app?vid=d72e6931-a8e1-45ab-822b-ebde64a6ea3d","ios":"levelo://app?vid=d72e6931-a8e1-45ab-822b-ebde64a6ea3d"},