{"last_updated":1702210331,"ttl":30,"version":"2.2","data":{"bikes":[{"bike_id":"b01071ad-d4d9-4b33-baaf-71d8683b1833","system_id":"levelo_inurba_marseille","lat":43.312239,"lon":5.368562,"is_reserved":false,"is_disabled":false,"rental_uris":{"android":"levelo://app?vid=b01071ad-d4d9-4b33-baaf-71d8683b1833","ios":"levelo://app?vid=b01071ad-d4d9-4b33-baaf-71d8683b1833"},"vehicle_type_id":"4","last_reported":1702210332,"current_range_meters":14800,"station_id":"ce4bgl92rcd13ifvqbq0","pricing_plan_id":"free"},{"bike_id":"fa095748-018b-4dfe-a9af-a4e1fda65414","system_id":"levelo_inurba_marseille","lat":43.309076,"lon":5.368465,"is_reserved":false,"is_disabled":false,"rental_uris":{"android":"levelo://app?vid=fa095748-018b-4dfe-a9af-a4e1fda65414","ios":"levelo://app?vid=fa095748-018b-4dfe-a9af-a4e1fda65414"},"vehicle_type_id":"4","last_reported":1702210332,"current_range_meters":29200,"station_id":"ce4bgn92rcd13ifvqbvg","pricing_plan_id":"free"},{"bike_id":"9d5e2381-23d7-4a1f-b02d-fbdbe1b0c117","system_id":"levelo_inurba_marseille","lat":43.309039,"lon":5.371797,"is_reserved":false,"is_disabled":false,"rental_uris":{"android":"levelo://app?vid=9d5e2381-23d7-4a1f-b02d-fbdbe1b0c117","ios":"levelo://app?vid=9d5e2381-23d7-4a1f-b02d-fbdbe1b0c117"},"vehicle_type_id":"4","last_reported":1702210332,"current_range_meters":7600,"station_id":"ce4bguh2rcd13ifvqckg","pricing_plan_id":"free"},{"bike_id":"946f700b-ed7c-4c28-82dc-bb02b8f687f4","system_id":"levelo_inurba_marseille","lat":43.305714,"lon":5.365633,"is_reserved":false,"is_disabled":false,"rental_uris":{"android":"levelo://app?vid=946f700b-ed7c-4c28-82dc-bb02b8f687f4","ios":"levelo://app?vid=946f700b-ed7c-4c28-82dc-bb02b8f687f4"},"vehicle_type_id":"4","last_reported":1702210332,"current_range_meters":4400,"station_id":"ce4bgs12rcd13ifvqcag","pricing_plan_id":"free"},{"bike_id":"4f22b037-f63d-498b-bdd2-fd9d360d370d","system_id":"levelo_inurba_marseille","lat":43.305706,"lon":5.365654,"is_reserved":false,"is_disabled":false,"rental_uris":{"android":"levelo://app?vid=4f22b037-f63d-498b-bdd2-fd9d360d370d","ios":"levelo://app?vid=4f22b037-f63d-498b-bdd2-fd9d360d370d"},"vehicle_type_id":"4","last_reported":1702210332,"current_range_meters":12000,"station_id":"ce4bgs12rcd13ifvqcag","pricing_plan_id":"free"},{"bike_id":"8aeaf0c7-1776-441d-bd55-668a483130b8","system_id":"levelo_inurba_marseille","lat":43.305195,"lon":5.366183,"is_reserved":false,"is_disabled":false,"rental_uris":{"android":"levelo://app?vid=8aeaf0c7-1776-441d-bd55-668a483130b8","ios":"levelo://app?vid=8aeaf0c7-1776-441d-bd55-668a483130b8"},"vehicle_type_id":"4","last_reported":1702210332,"current_range_meters":5200,"station_id":"","pricing_plan_id":"free"},{"bike_id":"63f9c5c9-e54e-47bb-8fe0-e370e3d6086f","system_id":"levelo_inurba_marseille","lat":43.305989,"lon":5.37225,"is_reserved":false,"is_disabled":false,"rental_uris":{"android":"levelo://app?vid=63f9c5c9-e54e-47bb-8fe0-e370e3d6086f","ios":"levelo://app?vid=63f9c5c9-e54e-47bb-8fe0-e370e3d6086f"},"vehicle_type_id":"4","last_reported":1702210332,"current_range_meters":26400,"station_id":"ce4bgqh2rcd13ifvqc4g","pricing_plan_id":"free"},{"bike_id":"7eaadb1b-c30b-4592-b1f4-c9073c2d87d5","system_id":"levelo_inurba_marseille","lat":43.305989,"lon":5.37225,"is_reserved":false,"is_disabled":false,"rental_uris":{"android":"levelo://app?vid=7eaadb1b-c30b-4592-b1f4-c9073c2d87d5","ios":"levelo://app?vid=7eaadb1b-c30b-4592-b1f4-c9073c2d87d5"},"vehicle_type_id":"4","last_reported":1702210332,"current_range_meters":12400,"station_id":"ce4bgqh2rcd13ifvqc4g","pricing_plan_id":"free"},{"bike_id":"7a12b14e-a5b9-4684-9375-1fa729d118a8","system_id":"levelo_inurba_marseille","lat":43.311125,"lon":5.377624,"is_reserved":false,"is_disabled":false,"rental_uris":{"android":"levelo://app?vid=7a12b14e-a5b9-4684-9375-1fa729d118a8","ios":"levelo://app?vid=7a12b14e-a5b9-4684-9375-1fa729d118a8"},"vehicle_type_id":"4","last_reported":1702210332,"current_range_meters":7200,"station_id":"ce4bgt92rcd13ifvqcg0","pricing_plan_id":"free"},{"bike_id":"9598e223-8219-4473-9424-65cb40184988","system_id":"levelo_inurba_marseille","lat":43.30304,"lon":5.368987,"is_reserved":false,"is_disabled":false,"rental_uris":{"android":"levelo://app?vid=9598e223-8219-4473-9424-65cb40184988","ios":"levelo://app?vid=9598e223-8219-4473-9424-65cb40184988"},"vehicle_type_id":"4","last_reported":1702210332,"current_range_meters":26400,"station_id":"ce4bgqh2rcd13ifvqc5g","pricing_plan_id":"free"},{"bike_id":"e384cef2-1e07-40af-bf93-66ae3e6b56e3","system_id":"levelo_inurba_marseille","lat":43.30799,"lon":5.38155,"is_reserved":false,"is_disabled":false,"rental_uris":{"android":"levelo://app?vid=e384cef2-1e07-40af-bf93-66ae3e6b56e3","ios":"levelo://app?vid=e384cef2-1e07-40af-bf93-66ae3e6b56e3"},"vehicle_type_id":"4","last_reported":1702210332,"current_range_meters":28000,"station_id":"ce4bgt12rcd13ifvqce0","pricing_plan_id":"free"},{"bike_id":"e606102b-a630-4793-8c67-412e6b33c3ae","system_id":"levelo_inurba_marseille","lat":43.31997,"lon":5.38155,"is_reserved":false,"is_disabled":false,"rental_uris":{"android":"levelo://app?vid=e606102b-a630-4793-8c67-412e6b33c3ae","ios":"levelo://app?vid=e606102b-a630-4793-8c67-412e6b33c3ae"},"vehicle_type_id":"4","last_reported":1702210332,"current_range_meters":10400,"station_id":"ce4bhr12rcd13ifvqhpg","pricing_plan_id":"free"},{"bike_id":"d8be298e-f4c0-4479-a66b-e307c680d7cc","system_id":"levelo_inurba_marseille","lat":43.31356,"lon":5.38493,"is_reserved":false,"is_disabled":false,"rental_uris":{"android":"levelo://app?vid=d8be298e-f4c0-4479-a66b-e307c680d7cc","ios":"levelo://app?vid=d8be298e-f4c0-4479-a66b-e307c680d7cc"},"vehicle_type_id":"4","last_reported":1702210332,"current_range_meters":20400,"station_id":"ce4bgt92rcd13ifvqcf0","pricing_plan_id":"free"},{"bike_id":"18479a15-fb47-485b-8d92-c996b691184c","system_id":"levelo_inurba_marseille","lat":43.313571,"lon":5.384829,"is_reserved":false,"is_disabled":false,"rental_uris":{"android":"levelo://app?vid=18479a15-fb47-485b-8d92-c996b691184c","ios":"levelo://app?vid=18479a15-fb47-485b-8d92-c996b691184c"},"vehicle_type_id":"4","last_reported":1702210332,"current_range_meters":29200,"station_id":"ce4bgt92rcd13ifvqcf0","pricing_plan_id":"free"},{"bike_id":"163f33b8-c9cb-4fd5-912d-7bfb438ab7dd","system_id":"levelo_inurba_marseille","lat":43.313673,"lon":5.384991,"is_reserved":false,"is_disabled":false,"rental_uris":{"android":"levelo://app?vid=163f33b8-c9cb-4fd5-912d-7bfb438ab7dd","ios":"levelo://app?vid=163f33b8-c9cb-4fd5-912d-7bfb438ab7dd"},"vehicle_type_id":"4","last_reported":1702210332,"current_range_meters":9200,"station_id":"ce4bgt92rcd13ifvqcf0","pricing_plan_id":"free"},{"bike_id":"fa0f6121-5666-4aa2-ba4b-b8713fbc9e2d","system_id":"levelo_inurba_marseille","lat":43.29937,"lon":5.36521,"is_reserved":false,"is_disabled":false,"rental_uris":{"android":"levelo://app?vid=fa0f6121-5666-4aa2-ba4b-b8713fbc9e2d","ios":"levelo://app?vid=fa0f6121-5666-4aa2-ba4b-b8713fbc9e2d"},"vehicle_type_id":"4","last_reported":1702210332,"current_range_meters":30400,"station_id":"ce4bgm92rcd13ifvqbr0","pricing_plan_id":"free"},{"bike_id":"51b6bafb-c2be-41f9-86d7-c7620f06c68c","system_id":"levelo_inurba_marseille","lat":43.29932,"lon":5.3655,"is_reserved":false,"is_disabled":false,"rental_uris":{"android":"levelo://app?vid=51b6bafb-c2be-41f9-86d7-c7620f06c68c","ios":"levelo://app?vid=51b6bafb-c2be-41f9-86d7-c7620f06c68c"},"vehicle_type_id":"4","last_reported":1702210332,"current_range_meters":18400,"station_id":"ce4bgm92rcd13ifvqbr0","pricing_plan_id":"free"},{"bike_id":"c0a64277-f5dd-4691-8acb-5c084fb0cfac","system_id":"levelo_inurba_marseille","lat":43.298433,"lon":5.362774,"is_reserved":false,"is_disabled":false,"rental_uris":{"android":"levelo://app?vid=c0a64277-f5dd-4691-8acb-5c084fb0cfac","ios":"levelo://app?vid=c0a64277-f5dd-4691-8acb-5c084fb0cfac"},"vehicle_type_id":"4","last_reported":1702210332,"current_range_meters":26400,"station_id":"ce4bgpp2rcd13ifvqc3g","pricing_plan_id":"free"},{"bike_id":"c5a05347-6979-42fa-97ad-1dd883847472","system_id":"levelo_inurba_marseille","lat":43.298433,"lon":5.362774,"is_reserved":false,"is_disabled":false,"rental_uris":{"android":"levelo://app?vid=c5a05347-6979-42fa-97ad-1dd883847472","ios":"levelo://app?vid=c5a05347-6979-42fa-97ad-1dd883847472"},"vehicle_type_id":"4","last_reported":1702210332,"current_range_meters":23200,"station_id":"ce4bgpp2rcd13ifvqc3g","pricing_plan_id":"free"},{"bike_id":"c83a0210-bd4d-48be-bfb1-022b033daf6b","system_id":"levelo_inurba_marseille","lat":43.298433,"lon":5.362774,"is_reserved":false,"is_disabled":false,"rental_uris":{"android":"levelo://app?vid=c83a0210-bd4d-48be-bfb1-022b033daf6b","ios":"levelo://app?vid=c83a0210-bd4d-48be-bfb1-022b033daf6b"},"vehicle_type_id":"4","last_reported":1702210332,"current_range_meters":25600,"station_id":"ce4bgpp2rcd13ifvqc3g","pricing_plan_id":"free"},{"bike_id":"b5bf9ac7-37c1-4dcf-a6ab-5f20f4514355","system_id":"levelo_inurba_marseille","lat":43.298433,"lon":5.362774,"is_reserved":false,"is_disabled":false,"rental_uris":{"android":"levelo://app?vid=b5bf9ac7-37c1-4dcf-a6ab-5f20f4514355","ios":"levelo://app?vid=b5bf9ac7-37c1-4dcf-a6ab-5f20f4514355"},"vehicle_type_id":"4","last_reported":1702210332,"current_range_meters":24800,"station_id":"ce4bgpp2rcd13ifvqc3g","pricing_plan_id":"free"},{"bike_id":"3fb272ad-b923-40ef-ad47-53fb17c945b4","system_id":"levelo_inurba_marseille","lat":43.298433,"lon":5.362774,"is_reserved":false,"is_disabled":false,"rental_uris":{"android":"levelo://app?vid=3fb272ad-b923-40ef-ad47-53fb17c945b4","ios":"levelo://app?vid=3fb272ad-b923-40ef-ad47-53fb17c945b4"},"vehicle_type_id":"4","last_reported":1702210332,"current_range_meters":28800,"station_id":"ce4bgpp2rcd13ifvqc3g","pricing_plan_id":"free"},{"bike_id":"c5b2d93e-b766-4c17-a19d-38980ca071a3","system_id":"levelo_inurba_marseille","lat":43.311722,"lon":5.387247,"is_reserved":false,"is_disabled":false,"rental_uris":{"android":"levelo://app?vid=c5b2d93e-b766-4c17-a19d-38980ca071a3","ios":"levelo://app?vid=c5b2d93e-b766-4c17-a19d-38980ca071a3"},"vehicle_type_id":"4","last_reported":1702210332,"current_range_meters":22800,"station_id":"ce4bgv12rcd13ifvqcp0","pricing_plan_id":"free"},{"bike_id":"e854c070-66ac-4d09-9c46-8628c53f6f89","system_id":"levelo_inurba_marseille","lat":43.311722,"lon":5.387247,"is_reserved":false,"is_disabled":false,"rental_uris":{"android":"levelo://app?vid=e854c070-66ac-4d09-9c46-8628c53f6f89","ios":"levelo://app?vid=e854c070-66ac-4d09-9c46-8628c53f6f89"},"vehicle_type_id":"4","last_reported":1702210332,"current_range_meters":27600,"station_id":"ce4bgv12rcd13ifvqcp0","pricing_plan_id":"free"},{"bike_id":"0370f0dd-02e1-44c3-b626-7cdd11d7ffac","system_id":"levelo_inurba_marseille","lat":43.32287,"lon":5.38266,"is_reserved":false,"is_disabled":false,"rental_uris":{"android":"levelo://app?vid=0370f0dd-02e1-44c3-b626-7cdd11d7ffac","ios":"levelo://app?vid=0370f0dd-02e1-44c3-b626-7cdd11d7ffac"},"vehicle_type_id":"4","last_reported":1702210332,"current_range_meters":30800,"station_id":"ce4bhr12rcd13ifvqhqg","pricing_plan_id":"free"},{"bike_id":"ccd4fbf7-a0c2-498b-8ecc-15a67004cff0","system_id":"levelo_inurba_marseille","lat":43.322872,"lon":5.382756,"is_reserved":false,"is_disabled":false,"rental_uris":{"android":"levelo://app?vid=ccd4fbf7-a0c2-498b-8ecc-15a67004cff0","ios":"levelo://app?vid=ccd4fbf7-a0c2-498b-8ecc-15a67004cff0"},"vehicle_type_id":"4","last_reported":1702210332,"current_range_meters":25200,"station_id":"ce4bhr12rcd13ifvqhqg","pricing_plan_id":"free"},{"bike_id":"9a75aac0-2e54-4ffe-8b56-07e48315b873","system_id":"levelo_inurba_marseille","lat":43.32825,"lon":5.36681,"is_reserved":false,"is_disabled":false,"rental_uris":{"android":"levelo://app?vid=9a75aac0-2e54-4ffe-8b56-07e48315b873","ios":"levelo://app?vid=9a75aac0-2e54-4ffe-8b56-07e48315b873"},"vehicle_type_id":"4","last_reported":1702210332,"current_range_meters":23600,"station_id":"ce4bhs92rcd13ifvqi0g","pricing_plan_id":"free"},{"bike_id":"6ac675f1-e0be-498c-ad2f-b742a949d4b0","system_id":"levelo_inurba_marseille","lat":43.298218,"lon":5.374416,"is_reserved":false,"is_disabled":false,"rental_uris":{"android":"levelo://app?vid=6ac675f1-e0be-498c-ad2f-b742a949d4b0","ios":"levelo://app?vid=6ac675f1-e0be-498c-ad2f-b742a949d4b0"},"vehicle_type_id":"4","last_reported":1702210332,"current_range_meters":0,"station_id":"","pricing_plan_id":"free"},{"bike_id":"4fd53a51-1795-4c2b-a8ad-7eba701cada9","system_id":"levelo_inurba_marseille","lat":43.32826,"lon":5.36685,"is_reserved":false,"is_disabled":false,"rental_uris":{"android":"levelo://app?vid=4fd53a51-1795-4c2b-a8ad-7eba701cada9","ios":"levelo://app?vid=4fd53a51-1795-4c2b-a8ad-7eba701cada9"},"vehicle_type_id":"4","last_reported":1702210332,"current_range_meters":14400,"station_id":"ce4bhs92rcd13ifvqi0g","pricing_plan_id":"free"},{"bike_id":"f61b677f-3973-45fb-b83e-f707a2caddc7","system_id":"levelo_inurba_marseille","lat":43.297163,"lon":5.365866,"is_reserved":false,"is_disabled":false,"rental_uris":{"android":"levelo://app?vid=f61b677f-3973-45fb-b83e-f707a2caddc7","ios":"levelo://app?vid=f61b677f-3973-45fb-b83e-f707a2caddc7"},"vehicle_type_id":"4","last_reported":1702210332,"current_range_meters":31200,"station_id":"ce4bgn12rcd13ifvqbt0","pricing_plan_id":"free"},{"bike_id":"92dc65d6-6823-4de3-93d4-056f738f090c","system_id":"levelo_inurba_marseille","lat":43.316538,"lon":5.38954,"is_reserved":false,"is_disabled":false,"rental_uris":{"android":"levelo://app?vid=92dc65d6-6823-4de3-93d4-056f738f090c","ios":"levelo://app?vid=92dc65d6-6823-4de3-93d4-056f738f090c"},"vehicle_type_id":"4","last_reported":1702210332,"current_range_meters":0,"station_id":"","pricing_plan_id":"free"},{"bike_id":"d4f67ebe-de20-4435-b9bc-ce040c8c88a4","system_id":"levelo_inurba_marseille","lat":43.299028,"lon":5.381509,"is_reserved":false,"is_disabled":false,"rental_uris":{"android":"levelo://app?vid=d4f67ebe-de20-4435-b9bc-ce040c8c88a4","ios":"levelo://app?vid=d4f67ebe-de20-4435-b9bc-ce040c8c88a4"},"vehicle_type_id":"4","last_reported":1702210332,"current_range_meters":26800,"station_id":"ce4bgj12rcd13ifvqbc0","pricing_plan_id":"free"},{"bike_id":"c8800a3c-cb55-4736-aeb2-d187c27e6193","system_id":"levelo_inurba_marseille","lat":43.309589,"lon":5.390258,"is_reserved":false,"is_disabled":false,"rental_uris":{"android":"levelo://app?vid=c8800a3c-cb55-4736-aeb2-d187c27e6193","ios":"levelo://app?vid=c8800a3c-cb55-4736-aeb2-d187c27e6193"},"vehicle_type_id":"4","last_reported":1702210332,"current_range_meters":21200,"station_id":"ce4bgup2rcd13ifvqco0","pricing_plan_id":"free"},{"bike_id":"0561788b-ad47-412a-aefa-7446d4ab5ef5","system_id":"levelo_inurba_marseille","lat":43.309589,"lon":5.390258,"is_reserved":false,"is_disabled":false,"rental_uris":{"android":"levelo://app?vid=0561788b-ad47-412a-aefa-7446d4ab5ef5","ios":"levelo://app?vid=0561788b-ad47-412a-aefa-7446d4ab5ef5"},"vehicle_type_id":"4","last_reported":1702210332,"current_range_meters":21600,"station_id":"ce4bgup2rcd13ifvqco0","pricing_plan_id":"free"},{"bike_id":"81caec1c-5d8c-4514-9a59-24771cfbb514","system_id":"levelo_inurba_marseille","lat":43.309589,"lon":5.390258,"is_reserved":false,"is_disabled":false,"rental_uris":{"android":"levelo://app?vid=81caec1c-5d8c-4514-9a59-24771cfbb514","ios":"levelo://app?vid=81caec1c-5d8c-4514-9a59-24771cfbb514"},"vehicle_type_id":"4","last_reported":1702210332,"current_range_meters":21200,"station_id":"ce4bgup2rcd13ifvqco0","pricing_plan_id":"free"},{"bike_id":"93ed1efe-4eff-4b43-9c54-d8aaa3548f7d","system_id":"levelo_inurba_marseille","lat":43.317557,"lon":5.390173,"is_reserved":false,"is_disabled":false,"rental_uris":{"android":"levelo://app?vid=93ed1efe-4eff-4b43-9c54-d8aaa3548f7d","ios":"levelo://app?vid=93ed1efe-4eff-4b43-9c54-d8aaa3548f7d"},"vehicle_type_id":"4","last_reported":1702210332,"current_range_meters":9200,"station_id":"ce4bhqp2rcd13ifvqhng","pricing_plan_id":"free"},{"bike_id":"aace46bb-0ac8-4fe7-901b-6760b464e14e","system_id":"levelo_inurba_marseille","lat":43.317557,"lon":5.390173,"is_reserved":false,"is_disabled":false,"rental_uris":{"android":"levelo://app?vid=aace46bb-0ac8-4fe7-901b-6760b464e14e","ios":"levelo://app?vid=aace46bb-0ac8-4fe7-901b-6760b464e14e"},"vehicle_type_id":"4","last_reported":1702210332,"current_range_meters":26400,"station_id":"ce4bhqp2rcd13ifvqhng","pricing_plan_id":"free"},{"bike_id":"3645c69d-f8f8-464e-ae16-015cbd7cc515","system_id":"levelo_inurba_marseille","lat":43.298108,"lon":5.381003,"is_reserved":false,"is_disabled":false,"rental_uris":{"android":"levelo://app?vid=3645c69d-f8f8-464e-ae16-015cbd7cc515","ios":"levelo://app?vid=3645c69d-f8f8-464e-ae16-015cbd7cc515"},"vehicle_type_id":"4","last_reported":1702210332,"current_range_meters":25200,"station_id":"","pricing_plan_id":"free"},{"bike_id":"27ca185e-a48f-4418-8bde-a0ab873dd02e","system_id":"levelo_inurba_marseille","lat":43.29802,"lon":5.380917,"is_reserved":false,"is_disabled":false,"rental_uris":{"android":"levelo://app?vid=27ca185e-a48f-4418-8bde-a0ab873dd02e","ios":"levelo://app?vid=27ca185e-a48f-4418-8bde-a0ab873dd02e"},"vehicle_type_id":"4","last_reported":1702210332,"current_range_meters":0,"station_id":"ce4bgip2rcd13ifvqbb0","pricing_plan_id":"free"},{"bike_id":"b73c8cdf-6b2e-4ae9-bd1c-f84ce4c9b6b3","system_id":"levelo_inurba_marseille","lat":43.295748,"lon":5.37522,"is_reserved":false,"is_disabled":false,"rental_uris":{"android":"levelo://app?vid=b73c8cdf-6b2e-4ae9-bd1c-f84ce4c9b6b3","ios":"levelo://app?vid=b73c8cdf-6b2e-4ae9-bd1c-f84ce4c9b6b3"},"vehicle_type_id":"4","last_reported":1702210332,"current_range_meters":22800,"station_id":"ce4bgh92rcd13ifvqb50","pricing_plan_id":"free"},{"bike_id":"f2ff00bb-9b91-4178-b669-d72392b4bc14","system_id":"levelo_inurba_marseille","lat":43.29601,"lon":5.381084,"is_reserved":false,"is_disabled":false,"rental_uris":{"android":"levelo://app?vid=f2ff00bb-9b91-4178-b669-d72392b4bc14","ios":"levelo://app?vid=f2ff00bb-9b91-4178-b669-d72392b4bc14"},"vehicle_type_id":"4","last_reported":1702210332,"current_range_meters":26000,"station_id":"ce4bgl12rcd13ifvqbo0","pricing_plan_id":"free"},{"bike_id":"9147266b-804a-4bd6-bd99-2f0136cf52e6","system_id":"levelo_inurba_marseille","lat":43.293259,"lon":5.371586,"is_reserved":false,"is_disabled":false,"rental_uris":{"android":"levelo://app?vid=9147266b-804a-4bd6-bd99-2f0136cf52e6","ios":"levelo://app?vid=9147266b-804a-4bd6-bd99-2f0136cf52e6"},"vehicle_type_id":"4","last_reported":1702210332,"current_range_meters":14000,"station_id":"ce4bgh92rcd13ifvqb40","pricing_plan_id":"free"},{"bike_id":"0b44998e-7597-4955-8402-6a2ecbfa7a8d","system_id":"levelo_inurba_marseille","lat":43.29271,"lon":5.36839,"is_reserved":false,"is_disabled":false,"rental_uris":{"android":"levelo://app?vid=0b44998e-7597-4955-8402-6a2ecbfa7a8d","ios":"levelo://app?vid=0b44998e-7597-4955-8402-6a2ecbfa7a8d"},"vehicle_type_id":"4","last_reported":1702210332,"current_range_meters":0,"station_id":"ce4bhbp2rcd13ifvqesg","pricing_plan_id":"free"},{"bike_id":"93b2f234-a348-45b5-82e2-40969d0f2149","system_id":"levelo_inurba_marseille","lat":43.305994,"lon":5.393687,"is_reserved":false,"is_disabled":false,"rental_uris":{"android":"levelo://app?vid=93b2f234-a348-45b5-82e2-40969d0f2149","ios":"levelo://app?vid=93b2f234-a348-45b5-82e2-40969d0f2149"},"vehicle_type_id":"4","last_reported":1702210332,"current_range_meters":29200,"station_id":"ce4bh0p2rcd13ifvqd80","pricing_plan_id":"free"},{"bike_id":"b80544f6-ce6d-4972-a107-b511717ab0a2","system_id":"levelo_inurba_marseille","lat":43.305994,"lon":5.393687,"is_reserved":false,"is_disabled":false,"rental_uris":{"android":"levelo://app?vid=b80544f6-ce6d-4972-a107-b511717ab0a2","ios":"levelo://app?vid=b80544f6-ce6d-4972-a107-b511717ab0a2"},"vehicle_type_id":"4","last_reported":1702210332,"current_range_meters":26000,"station_id":"ce4bh0p2rcd13ifvqd80","pricing_plan_id":"free"},{"bike_id":"6d16feaf-6d12-4d30-af84-18f9fcb08779","system_id":"levelo_inurba_marseille","lat":43.300852,"lon":5.390859,"is_reserved":false,"is_disabled":false,"rental_uris":{"android":"levelo://app?vid=6d16feaf-6d12-4d30-af84-18f9fcb08779","ios":"levelo://app?vid=6d16feaf-6d12-4d30-af84-18f9fcb08779"},"vehicle_type_id":"4","last_reported":1702210332,"current_range_meters":25200,"station_id":"ce4bh192rcd13ifvqdb0","pricing_plan_id":"free"},{"bike_id":"8a8f4032-9caa-4932-8f32-40793facb270","system_id":"levelo_inurba_marseille","lat":43.292663,"lon":5.376394,"is_reserved":false,"is_disabled":false,"rental_uris":{"android":"levelo://app?vid=8a8f4032-9caa-4932-8f32-40793facb270","ios":"levelo://app?vid=8a8f4032-9caa-4932-8f32-40793facb270"},"vehicle_type_id":"4","last_reported":1702210332,"current_range_meters":26800,"station_id":"ce4bgi12rcd13ifvqb80","pricing_plan_id":"free"},{"bike_id":"5c79bc93-8f13-4c40-8a8c-8f35d3902245","system_id":"levelo_inurba_marseille","lat":43.332226,"lon":5.37986,"is_reserved":false,"is_disabled":false,"rental_uris":{"android":"levelo://app?vid=5c79bc93-8f13-4c40-8a8c-8f35d3902245","ios":"levelo://app?vid=5c79bc93-8f13-4c40-8a8c-8f35d3902245"},"vehicle_type_id":"4","last_reported":1702210332,"current_range_meters":11200,"station_id":"","pricing_plan_id":"free"},{"bike_id":"5ed66215-e812-4934-8bd8-05fa06e2778c","system_id":"levelo_inurba_marseille","lat":43.332365,"lon":5.379648,"is_reserved":false,"is_disabled":false,"rental_uris":{"android":"levelo://app?vid=5ed66215-e812-4934-8bd8-05fa06e2778c","ios":"levelo://app?vid=5ed66215-e812-4934-8bd8-05fa06e2778c"},"vehicle_type_id":"4","last_reported":1702210332,"current_range_meters":26400,"station_id":"","pricing_plan_id":"free"},{"bike_id":"c1c996ea-222f-4a00-bcd9-436f0c41bcf1","system_id":"levelo_inurba_marseille","lat":43.284219,"lon":5.3497,"is_reserved":false,"is_disabled":false,"rental_uris":{"android":"levelo://app?vid=c1c996ea-222f-4a00-bcd9-436f0c41bcf1","ios":"levelo://app?vid=c1c996ea-222f-4a00-bcd9-436f0c41bcf1"},"vehicle_type_id":"4","last_reported":1702210332,"current_range_meters":2400,"station_id":"ce4bhbh2rcd13ifvqepg","pricing_plan_id":"free"},{"bike_id":"0d55287e-6324-4a21-96f1-2aa124f5d1a5","system_id":"levelo_inurba_marseille","lat":43.290161,"lon":5.375651,"is_reserved":false,"is_disabled":false,"rental_uris":{"android":"levelo://app?vid=0d55287e-6324-4a21-96f1-2aa124f5d1a5","ios":"levelo://app?vid=0d55287e-6324-4a21-96f1-2aa124f5d1a5"},"vehicle_type_id":"4","last_reported":1702210332,"current_range_meters":9600,"station_id":"","pricing_plan_id":"free"},{"bike_id":"a02a1b20-1fb1-4951-988a-77389649024d","system_id":"levelo_inurba_marseille","lat":43.289259,"lon":5.366364,"is_reserved":false,"is_disabled":false,"rental_uris":{"android":"levelo://app?vid=a02a1b20-1fb1-4951-988a-77389649024d","ios":"levelo://app?vid=a02a1b20-1fb1-4951-988a-77389649024d"},"vehicle_type_id":"4","last_reported":1702210332,"current_range_meters":8400,"station_id":"","pricing_plan_id":"free"},{"bike_id":"02c6768c-9ccc-4d83-bca4-44fa80f8b785","system_id":"levelo_inurba_marseille","lat":43.292644,"lon":5.384257,"is_reserved":false,"is_disabled":false,"rental_uris":{"android":"levelo://app?vid=02c6768c-9ccc-4d83-bca4-44fa80f8b785","ios":"levelo://app?vid=02c6768c-9ccc-4d83-bca4-44fa80f8b785"},"vehicle_type_id":"4","last_reported":1702210332,"current_range_meters":22000,"station_id":"ce4bh692rcd13ifvqea0","pricing_plan_id":"free"},{"bike_id":"77a6c46d-d898-4e4f-8846-efa91689c7f0","system_id":"levelo_inurba_marseille","lat":43.33045,"lon":5.38912,"is_reserved":false,"is_disabled":false,"rental_uris":{"android":"levelo://app?vid=77a6c46d-d898-4e4f-8846-efa91689c7f0","ios":"levelo://app?vid=77a6c46d-d898-4e4f-8846-efa91689c7f0"},"vehicle_type_id":"4","last_reported":1702210332,"current_range_meters":0,"station_id":"ce4bhr92rcd13ifvqhrg","pricing_plan_id":"free"},{"bike_id":"219bc899-c494-45a0-9110-9864ee09a794","system_id":"levelo_inurba_marseille","lat":43.290103,"lon":5.356114,"is_reserved":false,"is_disabled":false,"rental_uris":{"android":"levelo://app?vid=219bc899-c494-45a0-9110-9864ee09a794","ios":"levelo://app?vid=219bc899-c494-45a0-9110-9864ee09a794"},"vehicle_type_id":"4","last_reported":1702210332,"current_range_meters":20800,"station_id":"ce4bhb92rcd13ifvqen0","pricing_plan_id":"free"},{"bike_id":"64645af2-9978-417b-8de8-f815aef302ba","system_id":"levelo_inurba_marseille","lat":43.290104,"lon":5.356111,"is_reserved":false,"is_disabled":false,"rental_uris":{"android":"levelo://app?vid=64645af2-9978-417b-8de8-f815aef302ba","ios":"levelo://app?vid=64645af2-9978-417b-8de8-f815aef302ba"},"vehicle_type_id":"4","last_reported":1702210332,"current_range_meters":23200,"station_id":"ce4bhb92rcd13ifvqen0","pricing_plan_id":"free"},{"bike_id":"16a548ac-a264-4843-91b1-f67b9819a473","system_id":"levelo_inurba_marseille","lat":43.337361,"lon":5.374691,"is_reserved":false,"is_disabled":false,"rental_uris":{"android":"levelo://app?vid=16a548ac-a264-4843-91b1-f67b9819a473","ios":"levelo://app?vid=16a548ac-a264-4843-91b1-f67b9819a473"},"vehicle_type_id":"4","last_reported":1702210332,"current_range_meters":28800,"station_id":"","pricing_plan_id":"free"},{"bike_id":"2a764e27-7347-40d8-8784-623dbbe2f3d9","system_id":"levelo_inurba_marseille","lat":43.3127,"lon":5.40169,"is_reserved":false,"is_disabled":false,"rental_uris":{"android":"levelo://app?vid=2a764e27-7347-40d8-8784-623dbbe2f3d9","ios":"levelo://app?vid=2a764e27-7347-40d8-8784-623dbbe2f3d9"},"vehicle_type_id":"4","last_reported":1702210332,"current_range_meters":25600,"station_id":"ce4bh092rcd13ifvqd30","pricing_plan_id":"free"},{"bike_id":"d180fa77-1d4c-4d10-9b3c-25db40db0af2","system_id":"levelo_inurba_marseille","lat":43.309371,"lon":5.401449,"is_reserved":false,"is_disabled":false,"rental_uris":{"android":"levelo://app?vid=d180fa77-1d4c-4d10-9b3c-25db40db0af2","ios":"levelo://app?vid=d180fa77-1d4c-4d10-9b3c-25db40db0af2"},"vehicle_type_id":"4","last_reported":1702210332,"current_range_meters":12000,"station_id":"ce4bgvp2rcd13ifvqct0","pricing_plan_id":"free"},{"bike_id":"a5dc4e08-a9f3-4f34-8945-443e509b306f","system_id":"levelo_inurba_marseille","lat":43.30927,"lon":5.4015,"is_reserved":false,"is_disabled":false,"rental_uris":{"android":"levelo://app?vid=a5dc4e08-a9f3-4f34-8945-443e509b306f","ios":"levelo://app?vid=a5dc4e08-a9f3-4f34-8945-443e509b306f"},"vehicle_type_id":"4","last_reported":1702210332,"current_range_meters":0,"station_id":"ce4bgvp2rcd13ifvqct0","pricing_plan_id":"free"},{"bike_id":"047142c2-79d9-47db-aeb4-e1c703cd9abc","system_id":"levelo_inurba_marseille","lat":43.33757,"lon":5.37462,"is_reserved":false,"is_disabled":false,"rental_uris":{"android":"levelo://app?vid=047142c2-79d9-47db-aeb4-e1c703cd9abc","ios":"levelo://app?vid=047142c2-79d9-47db-aeb4-e1c703cd9abc"},"vehicle_type_id":"4","last_reported":1702210332,"current_range_meters":29200,"station_id":"","pricing_plan_id":"free"},{"bike_id":"1ab1042d-80bf-47b1-92a1-e5f5a51f3185","system_id":"levelo_inurba_marseille","lat":43.298681,"lon":5.397225,"is_reserved":false,"is_disabled":false,"rental_uris":{"android":"levelo://app?vid=1ab1042d-80bf-47b1-92a1-e5f5a51f3185","ios":"levelo://app?vid=1ab1042d-80bf-47b1-92a1-e5f5a51f3185"},"vehicle_type_id":"4","last_reported":1702210332,"current_range_meters":24000,"station_id":"ce4bh0h2rcd13ifvqd50","pricing_plan_id":"free"},{"bike_id":"764b305e-c734-4e7c-9698-39c9237fa866","system_id":"levelo_inurba_marseille","lat":43.302759,"lon":5.400793,"is_reserved":false,"is_disabled":false,"rental_uris":{"android":"levelo://app?vid=764b305e-c734-4e7c-9698-39c9237fa866","ios":"levelo://app?vid=764b305e-c734-4e7c-9698-39c9237fa866"},"vehicle_type_id":"4","last_reported":1702210332,"current_range_meters":15200,"station_id":"ce4bgvh2rcd13ifvqcs0","pricing_plan_id":"free"},{"bike_id":"61f9402e-9587-442a-9ff4-e1836ea8c35d","system_id":"levelo_inurba_marseille","lat":43.302585,"lon":5.40071,"is_reserved":false,"is_disabled":false,"rental_uris":{"android":"levelo://app?vid=61f9402e-9587-442a-9ff4-e1836ea8c35d","ios":"levelo://app?vid=61f9402e-9587-442a-9ff4-e1836ea8c35d"},"vehicle_type_id":"4","last_reported":1702210332,"current_range_meters":31200,"station_id":"","pricing_plan_id":"free"},{"bike_id":"345dd8c4-0c41-4123-95a2-458483cb0ecf","system_id":"levelo_inurba_marseille","lat":43.302759,"lon":5.400793,"is_reserved":false,"is_disabled":false,"rental_uris":{"android":"levelo://app?vid=345dd8c4-0c41-4123-95a2-458483cb0ecf","ios":"levelo://app?vid=345dd8c4-0c41-4123-95a2-458483cb0ecf"},"vehicle_type_id":"4","last_reported":1702210332,"current_range_meters":31600,"station_id":"ce4bgvh2rcd13ifvqcs0","pricing_plan_id":"free"},{"bike_id":"eea7d7f0-f550-4ba9-a067-3f8fa34aa6d7","system_id":"levelo_inurba_marseille","lat":43.28466,"lon":5.35884,"is_reserved":false,"is_disabled":false,"rental_uris":{"android":"levelo://app?vid=eea7d7f0-f550-4ba9-a067-3f8fa34aa6d7","ios":"levelo://app?vid=eea7d7f0-f550-4ba9-a067-3f8fa34aa6d7"},"vehicle_type_id":"4","last_reported":1702210332,"current_range_meters":17600,"station_id":"ce4bhah2rcd13ifvqei0","pricing_plan_id":"free"},{"bike_id":"b96de37b-5734-40f0-ad50-8b0eb4a9c435","system_id":"levelo_inurba_marseille","lat":43.284534,"lon":5.358662,"is_reserved":false,"is_disabled":false,"rental_uris":{"android":"levelo://app?vid=b96de37b-5734-40f0-ad50-8b0eb4a9c435","ios":"levelo://app?vid=b96de37b-5734-40f0-ad50-8b0eb4a9c435"},"vehicle_type_id":"4","last_reported":1702210332,"current_range_meters":16800,"station_id":"ce4bhah2rcd13ifvqei0","pricing_plan_id":"free"},{"bike_id":"17b65849-1d6a-4214-9cda-7146a0af0064","system_id":"levelo_inurba_marseille","lat":43.294314,"lon":5.397498,"is_reserved":false,"is_disabled":false,"rental_uris":{"android":"levelo://app?vid=17b65849-1d6a-4214-9cda-7146a0af0064","ios":"levelo://app?vid=17b65849-1d6a-4214-9cda-7146a0af0064"},"vehicle_type_id":"4","last_reported":1702210332,"current_range_meters":20400,"station_id":"ce4bh3h2rcd13ifvqdo0","pricing_plan_id":"free"},{"bike_id":"f15994af-14a6-4b0a-ba07-251f4b8a277a","system_id":"levelo_inurba_marseille","lat":43.286136,"lon":5.35106,"is_reserved":false,"is_disabled":false,"rental_uris":{"android":"levelo://app?vid=f15994af-14a6-4b0a-ba07-251f4b8a277a","ios":"levelo://app?vid=f15994af-14a6-4b0a-ba07-251f4b8a277a"},"vehicle_type_id":"4","last_reported":1702210332,"current_range_meters":800,"station_id":"ce4bhch2rcd13ifvqeug","pricing_plan_id":"free"},{"bike_id":"51a89d9f-517d-480f-9cfb-031ec19a6078","system_id":"levelo_inurba_marseille","lat":43.28742,"lon":5.3889,"is_reserved":false,"is_disabled":false,"rental_uris":{"android":"levelo://app?vid=51a89d9f-517d-480f-9cfb-031ec19a6078","ios":"levelo://app?vid=51a89d9f-517d-480f-9cfb-031ec19a6078"},"vehicle_type_id":"4","last_reported":1702210332,"current_range_meters":12800,"station_id":"","pricing_plan_id":"free"},{"bike_id":"5b358fd1-e3ea-4203-b15c-012de9df54e4","system_id":"levelo_inurba_marseille","lat":43.284217,"lon":5.349697,"is_reserved":false,"is_disabled":false,"rental_uris":{"android":"levelo://app?vid=5b358fd1-e3ea-4203-b15c-012de9df54e4","ios":"levelo://app?vid=5b358fd1-e3ea-4203-b15c-012de9df54e4"},"vehicle_type_id":"4","last_reported":1702210332,"current_range_meters":7600,"station_id":"ce4bhbh2rcd13ifvqepg","pricing_plan_id":"free"},{"bike_id":"7777fec2-5fa1-4725-a298-b8a0f4b2fc73","system_id":"levelo_inurba_marseille","lat":43.28039,"lon":5.369297,"is_reserved":false,"is_disabled":false,"rental_uris":{"android":"levelo://app?vid=7777fec2-5fa1-4725-a298-b8a0f4b2fc73","ios":"levelo://app?vid=7777fec2-5fa1-4725-a298-b8a0f4b2fc73"},"vehicle_type_id":"4","last_reported":1702210332,"current_range_meters":4400,"station_id":"ce4bha12rcd13ifvqef0","pricing_plan_id":"free"},{"bike_id":"65eae0ac-50f9-49c6-8718-19339ab1ac8c","system_id":"levelo_inurba_marseille","lat":43.280375,"lon":5.369477,"is_reserved":false,"is_disabled":false,"rental_uris":{"android":"levelo://app?vid=65eae0ac-50f9-49c6-8718-19339ab1ac8c","ios":"levelo://app?vid=65eae0ac-50f9-49c6-8718-19339ab1ac8c"},"vehicle_type_id":"4","last_reported":1702210332,"current_range_meters":23200,"station_id":"ce4bha12rcd13ifvqef0","pricing_plan_id":"free"},{"bike_id":"0e5b19db-c980-4c4f-84c5-5b2c25cd0b0f","system_id":"levelo_inurba_marseille","lat":43.281044,"lon":5.378308,"is_reserved":false,"is_disabled":false,"rental_uris":{"android":"levelo://app?vid=0e5b19db-c980-4c4f-84c5-5b2c25cd0b0f","ios":"levelo://app?vid=0e5b19db-c980-4c4f-84c5-5b2c25cd0b0f"},"vehicle_type_id":"4","last_reported":1702210332,"current_range_meters":29200,"station_id":"ce4bha12rcd13ifvqee0","pricing_plan_id":"free"},{"bike_id":"f2237d71-0f8d-4696-9260-b26da89babdb","system_id":"levelo_inurba_marseille","lat":43.296263,"lon":5.40601,"is_reserved":false,"is_disabled":false,"rental_uris":{"android":"levelo://app?vid=f2237d71-0f8d-4696-9260-b26da89babdb","ios":"levelo://app?vid=f2237d71-0f8d-4696-9260-b26da89babdb"},"vehicle_type_id":"4","last_reported":1702210332,"current_range_meters":26000,"station_id":"ce4bh0h2rcd13ifvqd60","pricing_plan_id":"free"},{"bike_id":"2f563e82-19e9-4d9e-832e-0aeb5f9c7e7c","system_id":"levelo_inurba_marseille","lat":43.28573,"lon":5.394992,"is_reserved":false,"is_disabled":false,"rental_uris":{"android":"levelo://app?vid=2f563e82-19e9-4d9e-832e-0aeb5f9c7e7c","ios":"levelo://app?vid=2f563e82-19e9-4d9e-832e-0aeb5f9c7e7c"},"vehicle_type_id":"4","last_reported":1702210332,"current_range_meters":26800,"station_id":"ce4bh292rcd13ifvqdg0","pricing_plan_id":"free"},{"bike_id":"b3378343-15f0-4dd1-924d-fc15a005eb3c","system_id":"levelo_inurba_marseille","lat":43.28573,"lon":5.394992,"is_reserved":false,"is_disabled":false,"rental_uris":{"android":"levelo://app?vid=b3378343-15f0-4dd1-924d-fc15a005eb3c","ios":"levelo://app?vid=b3378343-15f0-4dd1-924d-fc15a005eb3c"},"vehicle_type_id":"4","last_reported":1702210332,"current_range_meters":31600,"station_id":"ce4bh292rcd13ifvqdg0","pricing_plan_id":"free"},{"bike_id":"84967abc-9260-4305-bef4-15f176edc9e9","system_id":"levelo_inurba_marseille","lat":43.28573,"lon":5.394992,"is_reserved":false,"is_disabled":false,"rental_uris":{"android":"levelo://app?vid=84967abc-9260-4305-bef4-15f176edc9e9","ios":"levelo://app?vid=84967abc-9260-4305-bef4-15f176edc9e9"},"vehicle_type_id":"4","last_reported":1702210332,"current_range_meters":29600,"station_id":"ce4bh292rcd13ifvqdg0","pricing_plan_id":"free"},{"bike_id":"866d01e1-ecb6-4970-b300-74b95402245b","system_id":"levelo_inurba_marseille","lat":43.285742,"lon":5.395004,"is_reserved":false,"is_disabled":false,"rental_uris":{"android":"levelo://app?vid=866d01e1-ecb6-4970-b300-74b95402245b","ios":"levelo://app?vid=866d01e1-ecb6-4970-b300-74b95402245b"},"vehicle_type_id":"4","last_reported":1702210332,"current_range_meters":26800,"station_id":"ce4bh292rcd13ifvqdg0","pricing_plan_id":"free"},{"bike_id":"cd303504-a39b-4263-b5c2-51317c638b94","system_id":"levelo_inurba_marseille","lat":43.304188,"lon":5.412904,"is_reserved":false,"is_disabled":false,"rental_uris":{"android":"levelo://app?vid=cd303504-a39b-4263-b5c2-51317c638b94","ios":"levelo://app?vid=cd303504-a39b-4263-b5c2-51317c638b94"},"vehicle_type_id":"4","last_reported":1702210332,"current_range_meters":22400,"station_id":"ce4bhop2rcd13ifvqh8g","pricing_plan_id":"free"},{"bike_id":"138f2920-6d5e-4d3d-a857-00530a937055","system_id":"levelo_inurba_marseille","lat":43.320045,"lon":5.415046,"is_reserved":false,"is_disabled":false,"rental_uris":{"android":"levelo://app?vid=138f2920-6d5e-4d3d-a857-00530a937055","ios":"levelo://app?vid=138f2920-6d5e-4d3d-a857-00530a937055"},"vehicle_type_id":"4","last_reported":1702210332,"current_range_meters":22000,"station_id":"ce4bhq92rcd13ifvqhkg","pricing_plan_id":"free"},{"bike_id":"da3d95bb-6927-48a7-aa3a-72225e152e2e","system_id":"levelo_inurba_marseille","lat":43.292571,"lon":5.409107,"is_reserved":false,"is_disabled":false,"rental_uris":{"android":"levelo://app?vid=da3d95bb-6927-48a7-aa3a-72225e152e2e","ios":"levelo://app?vid=da3d95bb-6927-48a7-aa3a-72225e152e2e"},"vehicle_type_id":"4","last_reported":1702210332,"current_range_meters":31200,"station_id":"ce4bh192rcd13ifvqdc0","pricing_plan_id":"free"},{"bike_id":"c1d058bb-6c2a-4026-8a63-0049e796f275","system_id":"levelo_inurba_marseille","lat":43.27621,"lon":5.36106,"is_reserved":false,"is_disabled":false,"rental_uris":{"android":"levelo://app?vid=c1d058bb-6c2a-4026-8a63-0049e796f275","ios":"levelo://app?vid=c1d058bb-6c2a-4026-8a63-0049e796f275"},"vehicle_type_id":"4","last_reported":1702210332,"current_range_meters":15600,"station_id":"ce4bgj92rcd13ifvqbe0","pricing_plan_id":"free"},{"bike_id":"d5d0b37f-3bb5-4cc3-b9e9-78d65d591551","system_id":"levelo_inurba_marseille","lat":43.27614,"lon":5.36099,"is_reserved":false,"is_disabled":false,"rental_uris":{"android":"levelo://app?vid=d5d0b37f-3bb5-4cc3-b9e9-78d65d591551","ios":"levelo://app?vid=d5d0b37f-3bb5-4cc3-b9e9-78d65d591551"},"vehicle_type_id":"4","last_reported":1702210332,"current_range_meters":29200,"station_id":"ce4bgj92rcd13ifvqbe0","pricing_plan_id":"free"},{"bike_id":"e186e77d-ed40-4a01-a315-2f7340b27abf","system_id":"levelo_inurba_marseille","lat":43.27612,"lon":5.36104,"is_reserved":false,"is_disabled":false,"rental_uris":{"android":"levelo://app?vid=e186e77d-ed40-4a01-a315-2f7340b27abf","ios":"levelo://app?vid=e186e77d-ed40-4a01-a315-2f7340b27abf"},"vehicle_type_id":"4","last_reported":1702210332,"current_range_meters":19600,"station_id":"ce4bgj92rcd13ifvqbe0","pricing_plan_id":"free"},{"bike_id":"d5f282f9-a9c6-46ea-ba44-003a870eb2bf","system_id":"levelo_inurba_marseille","lat":43.278401,"lon":5.392152,"is_reserved":false,"is_disabled":false,"rental_uris":{"android":"levelo://app?vid=d5f282f9-a9c6-46ea-ba44-003a870eb2bf","ios":"levelo://app?vid=d5f282f9-a9c6-46ea-ba44-003a870eb2bf"},"vehicle_type_id":"4","last_reported":1702210332,"current_range_meters":9600,"station_id":"ce4bhjp2rcd13ifvqga0","pricing_plan_id":"free"},{"bike_id":"9cd558c4-23be-4546-934f-1f6ceb9436f2","system_id":"levelo_inurba_marseille","lat":43.280784,"lon":5.396622,"is_reserved":false,"is_disabled":false,"rental_uris":{"android":"levelo://app?vid=9cd558c4-23be-4546-934f-1f6ceb9436f2","ios":"levelo://app?vid=9cd558c4-23be-4546-934f-1f6ceb9436f2"},"vehicle_type_id":"4","last_reported":1702210332,"current_range_meters":30400,"station_id":"ce4bho12rcd13ifvqh2g","pricing_plan_id":"free"},{"bike_id":"3367ab66-69fe-4944-b4a7-94e6422d07bd","system_id":"levelo_inurba_marseille","lat":43.336148,"lon":5.410349,"is_reserved":false,"is_disabled":false,"rental_uris":{"android":"levelo://app?vid=3367ab66-69fe-4944-b4a7-94e6422d07bd","ios":"levelo://app?vid=3367ab66-69fe-4944-b4a7-94e6422d07bd"},"vehicle_type_id":"4","last_reported":1702210332,"current_range_meters":12400,"station_id":"ce4bhqh2rcd13ifvqhmg","pricing_plan_id":"free"},{"bike_id":"02791883-a925-42a0-9dd3-b7193f6a574b","system_id":"levelo_inurba_marseille","lat":43.31714,"lon":5.42401,"is_reserved":false,"is_disabled":false,"rental_uris":{"android":"levelo://app?vid=02791883-a925-42a0-9dd3-b7193f6a574b","ios":"levelo://app?vid=02791883-a925-42a0-9dd3-b7193f6a574b"},"vehicle_type_id":"4","last_reported":1702210332,"current_range_meters":26400,"station_id":"ce4bhp92rcd13ifvqhbg","pricing_plan_id":"free"},{"bike_id":"88e59060-d458-48a8-8abe-8a1913097d92","system_id":"levelo_inurba_marseille","lat":43.31714,"lon":5.42401,"is_reserved":false,"is_disabled":false,"rental_uris":{"android":"levelo://app?vid=88e59060-d458-48a8-8abe-8a1913097d92","ios":"levelo://app?vid=88e59060-d458-48a8-8abe-8a1913097d92"},"vehicle_type_id":"4","last_reported":1702210332,"current_range_meters":20400,"station_id":"ce4bhp92rcd13ifvqhbg","pricing_plan_id":"free"},{"bike_id":"e7bd1e73-4f86-473d-905c-a7b0f3d6ad8a","system_id":"levelo_inurba_marseille","lat":43.31723,"lon":5.42405,"is_reserved":false,"is_disabled":false,"rental_uris":{"android":"levelo://app?vid=e7bd1e73-4f86-473d-905c-a7b0f3d6ad8a","ios":"levelo://app?vid=e7bd1e73-4f86-473d-905c-a7b0f3d6ad8a"},"vehicle_type_id":"4","last_reported":1702210332,"current_range_meters":13600,"station_id":"ce4bhp92rcd13ifvqhbg","pricing_plan_id":"free"},{"bike_id":"223614b5-a85d-4112-a5d8-914e8ed423a8","system_id":"levelo_inurba_marseille","lat":43.340804,"lon":5.410219,"is_reserved":false,"is_disabled":false,"rental_uris":{"android":"levelo://app?vid=223614b5-a85d-4112-a5d8-914e8ed423a8","ios":"levelo://app?vid=223614b5-a85d-4112-a5d8-914e8ed423a8"},"vehicle_type_id":"4","last_reported":1702210332,"current_range_meters":30000,"station_id":"ce4bhqh2rcd13ifvqhlg","pricing_plan_id":"free"},{"bike_id":"63133364-316e-458e-b234-bbd4926c63fc","system_id":"levelo_inurba_marseille","lat":43.27583,"lon":5.39474,"is_reserved":false,"is_disabled":false,"rental_uris":{"android":"levelo://app?vid=63133364-316e-458e-b234-bbd4926c63fc","ios":"levelo://app?vid=63133364-316e-458e-b234-bbd4926c63fc"},"vehicle_type_id":"4","last_reported":1702210332,"current_range_meters":3600,"station_id":"","pricing_plan_id":"free"},{"bike_id":"efe12f5a-a46b-47b7-be5d-2a89a9228c6b","system_id":"levelo_inurba_marseille","lat":43.304096,"lon":5.425385,"is_reserved":false,"is_disabled":false,"rental_uris":{"android":"levelo://app?vid=efe12f5a-a46b-47b7-be5d-2a89a9228c6b","ios":"levelo://app?vid=efe12f5a-a46b-47b7-be5d-2a89a9228c6b"},"vehicle_type_id":"4","last_reported":1702210332,"current_range_meters":25600,"station_id":"ce4bhoh2rcd13ifvqh6g","pricing_plan_id":"free"},{"bike_id":"8d7773eb-8cfa-4695-aadd-d81486eca834","system_id":"levelo_inurba_marseille","lat":43.295523,"lon":5.422926,"is_reserved":false,"is_disabled":false,"rental_uris":{"android":"levelo://app?vid=8d7773eb-8cfa-4695-aadd-d81486eca834","ios":"levelo://app?vid=8d7773eb-8cfa-4695-aadd-d81486eca834"},"vehicle_type_id":"4","last_reported":1702210332,"current_range_meters":23600,"station_id":"ce4bhph2rcd13ifvqhdg","pricing_plan_id":"free"},{"bike_id":"a37c468d-8458-4519-8118-1a8ad4649fb7","system_id":"levelo_inurba_marseille","lat":43.272116,"lon":5.391763,"is_reserved":false,"is_disabled":false,"rental_uris":{"android":"levelo://app?vid=a37c468d-8458-4519-8118-1a8ad4649fb7","ios":"levelo://app?vid=a37c468d-8458-4519-8118-1a8ad4649fb7"},"vehicle_type_id":"4","last_reported":1702210332,"current_range_meters":20400,"station_id":"ce4bhhp2rcd13ifvqfm0","pricing_plan_id":"free"},{"bike_id":"2aaa4e7b-5534-4af9-956f-83a08faf3415","system_id":"levelo_inurba_marseille","lat":43.272118,"lon":5.391758,"is_reserved":false,"is_disabled":false,"rental_uris":{"android":"levelo://app?vid=2aaa4e7b-5534-4af9-956f-83a08faf3415","ios":"levelo://app?vid=2aaa4e7b-5534-4af9-956f-83a08faf3415"},"vehicle_type_id":"4","last_reported":1702210332,"current_range_meters":5600,"station_id":"ce4bhhp2rcd13ifvqfm0","pricing_plan_id":"free"},{"bike_id":"e7f4707a-7fca-4b6d-9632-64ff377b1c57","system_id":"levelo_inurba_marseille","lat":43.269467,"lon":5.386439,"is_reserved":false,"is_disabled":false,"rental_uris":{"android":"levelo://app?vid=e7f4707a-7fca-4b6d-9632-64ff377b1c57","ios":"levelo://app?vid=e7f4707a-7fca-4b6d-9632-64ff377b1c57"},"vehicle_type_id":"4","last_reported":1702210332,"current_range_meters":30800,"station_id":"ce4bhh92rcd13ifvqfh0","pricing_plan_id":"free"},{"bike_id":"7db2c9c1-cac3-4a72-8037-dbd6c23ca786","system_id":"levelo_inurba_marseille","lat":43.269467,"lon":5.386439,"is_reserved":false,"is_disabled":false,"rental_uris":{"android":"levelo://app?vid=7db2c9c1-cac3-4a72-8037-dbd6c23ca786","ios":"levelo://app?vid=7db2c9c1-cac3-4a72-8037-dbd6c23ca786"},"vehicle_type_id":"4","last_reported":1702210332,"current_range_meters":15200,"station_id":"ce4bhh92rcd13ifvqfh0","pricing_plan_id":"free"},{"bike_id":"2039a23a-daac-42ec-99ee-3baa9dd6dfb8","system_id":"levelo_inurba_marseille","lat":43.26681,"lon":5.382694,"is_reserved":false,"is_disabled":false,"rental_uris":{"android":"levelo://app?vid=2039a23a-daac-42ec-99ee-3baa9dd6dfb8","ios":"levelo://app?vid=2039a23a-daac-42ec-99ee-3baa9dd6dfb8"},"vehicle_type_id":"4","last_reported":1702210332,"current_range_meters":8000,"station_id":"ce4bhg92rcd13ifvqf90","pricing_plan_id":"free"},{"bike_id":"69d6842a-248d-44b0-841d-58e6cdead3f0","system_id":"levelo_inurba_marseille","lat":43.265714,"lon":5.372891,"is_reserved":false,"is_disabled":false,"rental_uris":{"android":"levelo://app?vid=69d6842a-248d-44b0-841d-58e6cdead3f0","ios":"levelo://app?vid=69d6842a-248d-44b0-841d-58e6cdead3f0"},"vehicle_type_id":"4","last_reported":1702210332,"current_range_meters":30800,"station_id":"ce4bhg12rcd13ifvqf70","pricing_plan_id":"free"},{"bike_id":"3e89c4d1-997f-47c1-a308-b2e0057716b1","system_id":"levelo_inurba_marseille","lat":43.26681,"lon":5.382694,"is_reserved":false,"is_disabled":false,"rental_uris":{"android":"levelo://app?vid=3e89c4d1-997f-47c1-a308-b2e0057716b1","ios":"levelo://app?vid=3e89c4d1-997f-47c1-a308-b2e0057716b1"},"vehicle_type_id":"4","last_reported":1702210332,"current_range_meters":25600,"station_id":"ce4bhg92rcd13ifvqf90","pricing_plan_id":"free"},{"bike_id":"d9905fd9-fc0a-4c9f-85fa-8aca947c9d38","system_id":"levelo_inurba_marseille","lat":43.30797,"lon":5.43515,"is_reserved":false,"is_disabled":false,"rental_uris":{"android":"levelo://app?vid=d9905fd9-fc0a-4c9f-85fa-8aca947c9d38","ios":"levelo://app?vid=d9905fd9-fc0a-4c9f-85fa-8aca947c9d38"},"vehicle_type_id":"4","last_reported":1702210332,"current_range_meters":25600,"station_id":"ce4bhph2rcd13ifvqheg","pricing_plan_id":"free"},{"bike_id":"983ed045-1f7b-4579-b9d1-f93588aba3b1","system_id":"levelo_inurba_marseille","lat":43.30799,"lon":5.43519,"is_reserved":false,"is_disabled":false,"rental_uris":{"android":"levelo://app?vid=983ed045-1f7b-4579-b9d1-f93588aba3b1","ios":"levelo://app?vid=983ed045-1f7b-4579-b9d1-f93588aba3b1"},"vehicle_type_id":"4","last_reported":1702210332,"current_range_meters":29600,"station_id":"ce4bhph2rcd13ifvqheg","pricing_plan_id":"free"},{"bike_id":"ddd5cc5c-290e-4c4f-9044-00d78bc24412","system_id":"levelo_inurba_marseille","lat":43.30803,"lon":5.43524,"is_reserved":false,"is_disabled":false,"rental_uris":{"android":"levelo://app?vid=ddd5cc5c-290e-4c4f-9044-00d78bc24412","ios":"levelo://app?vid=ddd5cc5c-290e-4c4f-9044-00d78bc24412"},"vehicle_type_id":"4","last_reported":1702210332,"current_range_meters":28000,"station_id":"ce4bhph2rcd13ifvqheg","pricing_plan_id":"free"},{"bike_id":"1594ab0c-8aba-4a4a-83ff-da41c83152d6","system_id":"levelo_inurba_marseille","lat":43.30798,"lon":5.43525,"is_reserved":false,"is_disabled":false,"rental_uris":{"android":"levelo://app?vid=1594ab0c-8aba-4a4a-83ff-da41c83152d6","ios":"levelo://app?vid=1594ab0c-8aba-4a4a-83ff-da41c83152d6"},"vehicle_type_id":"4","last_reported":1702210332,"current_range_meters":26000,"station_id":"ce4bhph2rcd13ifvqheg","pricing_plan_id":"free"},{"bike_id":"dbacbb4a-9e99-4a7a-9713-43dac221ae4c","system_id":"levelo_inurba_marseille","lat":43.317104,"lon":5.436818,"is_reserved":false,"is_disabled":false,"rental_uris":{"android":"levelo://app?vid=dbacbb4a-9e99-4a7a-9713-43dac221ae4c","ios":"levelo://app?vid=dbacbb4a-9e99-4a7a-9713-43dac221ae4c"},"vehicle_type_id":"4","last_reported":1702210332,"current_range_meters":31200,"station_id":"ce4bhp92rcd13ifvqhcg","pricing_plan_id":"free"},{"bike_id":"0341a2e7-04a4-4d8e-b96d-44e5882da047","system_id":"levelo_inurba_marseille","lat":43.275028,"lon":5.424534,"is_reserved":false,"is_disabled":false,"rental_uris":{"android":"levelo://app?vid=0341a2e7-04a4-4d8e-b96d-44e5882da047","ios":"levelo://app?vid=0341a2e7-04a4-4d8e-b96d-44e5882da047"},"vehicle_type_id":"4","last_reported":1702210332,"current_range_meters":27600,"station_id":"ce4bhn92rcd13ifvqgrg","pricing_plan_id":"free"},{"bike_id":"66514811-8795-43bc-8215-0a5f7fdb0cac","system_id":"levelo_inurba_marseille","lat":43.258224,"lon":5.394369,"is_reserved":false,"is_disabled":false,"rental_uris":{"android":"levelo://app?vid=66514811-8795-43bc-8215-0a5f7fdb0cac","ios":"levelo://app?vid=66514811-8795-43bc-8215-0a5f7fdb0cac"},"vehicle_type_id":"4","last_reported":1702210332,"current_range_meters":23600,"station_id":"ce4bhip2rcd13ifvqft0","pricing_plan_id":"free"},{"bike_id":"97576a41-4ff8-40b6-b452-6b36c154c994","system_id":"levelo_inurba_marseille","lat":43.255028,"lon":5.376472,"is_reserved":false,"is_disabled":false,"rental_uris":{"android":"levelo://app?vid=97576a41-4ff8-40b6-b452-6b36c154c994","ios":"levelo://app?vid=97576a41-4ff8-40b6-b452-6b36c154c994"},"vehicle_type_id":"4","last_reported":1702210332,"current_range_meters":15200,"station_id":"ce4bhh12rcd13ifvqff0","pricing_plan_id":"free"},{"bike_id":"7d504902-4bfc-4499-8f9d-cd23cd79818d","system_id":"levelo_inurba_marseille","lat":43.25502,"lon":5.37649,"is_reserved":false,"is_disabled":false,"rental_uris":{"android":"levelo://app?vid=7d504902-4bfc-4499-8f9d-cd23cd79818d","ios":"levelo://app?vid=7d504902-4bfc-4499-8f9d-cd23cd79818d"},"vehicle_type_id":"4","last_reported":1702210332,"current_range_meters":18000,"station_id":"ce4bhh12rcd13ifvqff0","pricing_plan_id":"free"},{"bike_id":"72747245-bf6a-4c91-b25d-7308b1f580ab","system_id":"levelo_inurba_marseille","lat":43.25498,"lon":5.37647,"is_reserved":false,"is_disabled":false,"rental_uris":{"android":"levelo://app?vid=72747245-bf6a-4c91-b25d-7308b1f580ab","ios":"levelo://app?vid=72747245-bf6a-4c91-b25d-7308b1f580ab"},"vehicle_type_id":"4","last_reported":1702210332,"current_range_meters":14800,"station_id":"ce4bhh12rcd13ifvqff0","pricing_plan_id":"free"},{"bike_id":"014e23d0-50a7-421e-b47f-816463a1ddc2","system_id":"levelo_inurba_marseille","lat":43.254947,"lon":5.376454,"is_reserved":false,"is_disabled":false,"rental_uris":{"android":"levelo://app?vid=014e23d0-50a7-421e-b47f-816463a1ddc2","ios":"levelo://app?vid=014e23d0-50a7-421e-b47f-816463a1ddc2"},"vehicle_type_id":"4","last_reported":1702210332,"current_range_meters":28800,"station_id":"ce4bhh12rcd13ifvqff0","pricing_plan_id":"free"},{"bike_id":"3eeea7cd-d7f9-4dfb-a6fb-3f4a724fbb8e","system_id":"levelo_inurba_marseille","lat":43.270721,"lon":5.422764,"is_reserved":false,"is_disabled":false,"rental_uris":{"android":"levelo://app?vid=3eeea7cd-d7f9-4dfb-a6fb-3f4a724fbb8e","ios":"levelo://app?vid=3eeea7cd-d7f9-4dfb-a6fb-3f4a724fbb8e"},"vehicle_type_id":"4","last_reported":1702210332,"current_range_meters":18000,"station_id":"ce4bhk92rcd13ifvqgb0","pricing_plan_id":"free"},{"bike_id":"90ad3358-cb3e-4f4b-a88e-62abf93928b6","system_id":"levelo_inurba_marseille","lat":43.270721,"lon":5.422764,"is_reserved":false,"is_disabled":false,"rental_uris":{"android":"levelo://app?vid=90ad3358-cb3e-4f4b-a88e-62abf93928b6","ios":"levelo://app?vid=90ad3358-cb3e-4f4b-a88e-62abf93928b6"},"vehicle_type_id":"4","last_reported":1702210332,"current_range_meters":20400,"station_id":"ce4bhk92rcd13ifvqgb0","pricing_plan_id":"free"},{"bike_id":"30d3f82a-168b-4bf8-954e-37e4bc406fab","system_id":"levelo_inurba_marseille","lat":43.270721,"lon":5.422764,"is_reserved":false,"is_disabled":false,"rental_uris":{"android":"levelo://app?vid=30d3f82a-168b-4bf8-954e-37e4bc406fab","ios":"levelo://app?vid=30d3f82a-168b-4bf8-954e-37e4bc406fab"},"vehicle_type_id":"4","last_reported":1702210332,"current_range_meters":16400,"station_id":"ce4bhk92rcd13ifvqgb0","pricing_plan_id":"free"},{"bike_id":"46488328-c339-4346-9280-ec5f809f328b","system_id":"levelo_inurba_marseille","lat":43.270721,"lon":5.422764,"is_reserved":false,"is_disabled":false,"rental_uris":{"android":"levelo://app?vid=46488328-c339-4346-9280-ec5f809f328b","ios":"levelo://app?vid=46488328-c339-4346-9280-ec5f809f328b"},"vehicle_type_id":"4","last_reported":1702210332,"current_range_meters":26400,"station_id":"ce4bhk92rcd13ifvqgb0","pricing_plan_id":"free"},{"bike_id":"d5c790f5-36b0-4304-9eef-51c6a14d355e","system_id":"levelo_inurba_marseille","lat":43.258658,"lon":5.398935,"is_reserved":false,"is_disabled":false,"rental_uris":{"android":"levelo://app?vid=d5c790f5-36b0-4304-9eef-51c6a14d355e","ios":"levelo://app?vid=d5c790f5-36b0-4304-9eef-51c6a14d355e"},"vehicle_type_id":"4","last_reported":1702210332,"current_range_meters":0,"station_id":"ce4bhl92rcd13ifvqghg","pricing_plan_id":"free"},{"bike_id":"23852011-45c0-4eb3-b521-fdccfcd75ec1","system_id":"levelo_inurba_marseille","lat":43.250009,"lon":5.389195,"is_reserved":false,"is_disabled":false,"rental_uris":{"android":"levelo://app?vid=23852011-45c0-4eb3-b521-fdccfcd75ec1","ios":"levelo://app?vid=23852011-45c0-4eb3-b521-fdccfcd75ec1"},"vehicle_type_id":"4","last_reported":1702210332,"current_range_meters":25600,"station_id":"ce4bhgp2rcd13ifvqfd0","pricing_plan_id":"free"},{"bike_id":"ba39318e-ee3a-48c1-a038-aebe87c96766","system_id":"levelo_inurba_marseille","lat":43.250009,"lon":5.389195,"is_reserved":false,"is_disabled":false,"rental_uris":{"android":"levelo://app?vid=ba39318e-ee3a-48c1-a038-aebe87c96766","ios":"levelo://app?vid=ba39318e-ee3a-48c1-a038-aebe87c96766"},"vehicle_type_id":"4","last_reported":1702210332,"current_range_meters":15200,"station_id":"ce4bhgp2rcd13ifvqfd0","pricing_plan_id":"free"},{"bike_id":"2491cda1-f957-4601-a66a-7b252f12146e","system_id":"levelo_inurba_marseille","lat":43.250009,"lon":5.389195,"is_reserved":false,"is_disabled":false,"rental_uris":{"android":"levelo://app?vid=2491cda1-f957-4601-a66a-7b252f12146e","ios":"levelo://app?vid=2491cda1-f957-4601-a66a-7b252f12146e"},"vehicle_type_id":"4","last_reported":1702210332,"current_range_meters":20800,"station_id":"ce4bhgp2rcd13ifvqfd0","pricing_plan_id":"free"},{"bike_id":"f0cd8283-3a66-420b-b121-3a34e0de1e04","system_id":"levelo_inurba_marseille","lat":43.2479,"lon":5.374457,"is_reserved":false,"is_disabled":false,"rental_uris":{"android":"levelo://app?vid=f0cd8283-3a66-420b-b121-3a34e0de1e04","ios":"levelo://app?vid=f0cd8283-3a66-420b-b121-3a34e0de1e04"},"vehicle_type_id":"4","last_reported":1702210332,"current_range_meters":27600,"station_id":"ce4bhgh2rcd13ifvqfb0","pricing_plan_id":"free"},{"bike_id":"211b3a3b-6ec6-48a6-941d-709caaf4bc83","system_id":"levelo_inurba_marseille","lat":43.2479,"lon":5.374457,"is_reserved":false,"is_disabled":false,"rental_uris":{"android":"levelo://app?vid=211b3a3b-6ec6-48a6-941d-709caaf4bc83","ios":"levelo://app?vid=211b3a3b-6ec6-48a6-941d-709caaf4bc83"},"vehicle_type_id":"4","last_reported":1702210332,"current_range_meters":31200,"station_id":"ce4bhgh2rcd13ifvqfb0","pricing_plan_id":"free"},{"bike_id":"88bc1a47-a576-4c2b-812d-f4eec21e8c6f","system_id":"levelo_inurba_marseille","lat":43.250023,"lon":5.38919,"is_reserved":false,"is_disabled":false,"rental_uris":{"android":"levelo://app?vid=88bc1a47-a576-4c2b-812d-f4eec21e8c6f","ios":"levelo://app?vid=88bc1a47-a576-4c2b-812d-f4eec21e8c6f"},"vehicle_type_id":"4","last_reported":1702210332,"current_range_meters":24400,"station_id":"ce4bhgp2rcd13ifvqfd0","pricing_plan_id":"free"},{"bike_id":"e4650e8e-afa3-4958-951e-6600a7dd4302","system_id":"levelo_inurba_marseille","lat":43.2479,"lon":5.374457,"is_reserved":false,"is_disabled":false,"rental_uris":{"android":"levelo://app?vid=e4650e8e-afa3-4958-951e-6600a7dd4302","ios":"levelo://app?vid=e4650e8e-afa3-4958-951e-6600a7dd4302"},"vehicle_type_id":"4","last_reported":1702210332,"current_range_meters":29600,"station_id":"ce4bhgh2rcd13ifvqfb0","pricing_plan_id":"free"},{"bike_id":"89f6b9c7-2e47-467d-a5da-27592e88272c","system_id":"levelo_inurba_marseille","lat":43.250966,"lon":5.395186,"is_reserved":false,"is_disabled":false,"rental_uris":{"android":"levelo://app?vid=89f6b9c7-2e47-467d-a5da-27592e88272c","ios":"levelo://app?vid=89f6b9c7-2e47-467d-a5da-27592e88272c"},"vehicle_type_id":"4","last_reported":1702210332,"current_range_meters":31200,"station_id":"ce4bhm12rcd13ifvqgkg","pricing_plan_id":"free"},{"bike_id":"0d1a6619-b30b-4394-bdf1-1c2b6878f5b5","system_id":"levelo_inurba_marseille","lat":43.25131,"lon":5.403052,"is_reserved":false,"is_disabled":false,"rental_uris":{"android":"levelo://app?vid=0d1a6619-b30b-4394-bdf1-1c2b6878f5b5","ios":"levelo://app?vid=0d1a6619-b30b-4394-bdf1-1c2b6878f5b5"},"vehicle_type_id":"4","last_reported":1702210332,"current_range_meters":20400,"station_id":"","pricing_plan_id":"free"},{"bike_id":"f8751423-247d-463f-84eb-c4492f784372","system_id":"levelo_inurba_marseille","lat":43.24693,"lon":5.382096,"is_reserved":false,"is_disabled":false,"rental_uris":{"android":"levelo://app?vid=f8751423-247d-463f-84eb-c4492f784372","ios":"levelo://app?vid=f8751423-247d-463f-84eb-c4492f784372"},"vehicle_type_id":"4","last_reported":1702210332,"current_range_meters":26800,"station_id":"ce4bhih2rcd13ifvqfr0","pricing_plan_id":"free"},{"bike_id":"7720c45a-16fd-468c-820d-244fcf7910db","system_id":"levelo_inurba_marseille","lat":43.24662,"lon":5.3817,"is_reserved":false,"is_disabled":false,"rental_uris":{"android":"levelo://app?vid=7720c45a-16fd-468c-820d-244fcf7910db","ios":"levelo://app?vid=7720c45a-16fd-468c-820d-244fcf7910db"},"vehicle_type_id":"4","last_reported":1702210332,"current_range_meters":30800,"station_id":"ce4bhih2rcd13ifvqfr0","pricing_plan_id":"free"},{"bike_id":"fd3f6665-316c-41dc-94ab-145c31afc58a","system_id":"levelo_inurba_marseille","lat":43.246461,"lon":5.389014,"is_reserved":false,"is_disabled":false,"rental_uris":{"android":"levelo://app?vid=fd3f6665-316c-41dc-94ab-145c31afc58a","ios":"levelo://app?vid=fd3f6665-316c-41dc-94ab-145c31afc58a"},"vehicle_type_id":"4","last_reported":1702210332,"current_range_meters":25600,"station_id":"ce4bhg12rcd13ifvqf60","pricing_plan_id":"free"},{"bike_id":"5e605dd7-7449-4197-aebf-bcb50d65c55f","system_id":"levelo_inurba_marseille","lat":43.246461,"lon":5.389014,"is_reserved":false,"is_disabled":false,"rental_uris":{"android":"levelo://app?vid=5e605dd7-7449-4197-aebf-bcb50d65c55f","ios":"levelo://app?vid=5e605dd7-7449-4197-aebf-bcb50d65c55f"},"vehicle_type_id":"4","last_reported":1702210332,"current_range_meters":27600,"station_id":"ce4bhg12rcd13ifvqf60","pricing_plan_id":"free"},{"bike_id":"58163e29-bd9c-4d87-b174-635d0562a1eb","system_id":"levelo_inurba_marseille","lat":43.246467,"lon":5.388984,"is_reserved":false,"is_disabled":false,"rental_uris":{"android":"levelo://app?vid=58163e29-bd9c-4d87-b174-635d0562a1eb","ios":"levelo://app?vid=58163e29-bd9c-4d87-b174-635d0562a1eb"},"vehicle_type_id":"4","last_reported":1702210332,"current_range_meters":7600,"station_id":"ce4bhg12rcd13ifvqf60","pricing_plan_id":"free"},{"bike_id":"1a23636c-273b-427e-ba3a-4cc57a24dce9","system_id":"levelo_inurba_marseille","lat":43.246467,"lon":5.388984,"is_reserved":false,"is_disabled":false,"rental_uris":{"android":"levelo://app?vid=1a23636c-273b-427e-ba3a-4cc57a24dce9","ios":"levelo://app?vid=1a23636c-273b-427e-ba3a-4cc57a24dce9"},"vehicle_type_id":"4","last_reported":1702210332,"current_range_meters":29600,"station_id":"ce4bhg12rcd13ifvqf60","pricing_plan_id":"free"},{"bike_id":"553c1e09-c1d9-4c9c-b07d-e3fceead420a","system_id":"levelo_inurba_marseille","lat":43.24388,"lon":5.37058,"is_reserved":false,"is_disabled":false,"rental_uris":{"android":"levelo://app?vid=553c1e09-c1d9-4c9c-b07d-e3fceead420a","ios":"levelo://app?vid=553c1e09-c1d9-4c9c-b07d-e3fceead420a"},"vehicle_type_id":"4","last_reported":1702210332,"current_range_meters":17600,"station_id":"ce4bhhh2rcd13ifvqfk0","pricing_plan_id":"free"},{"bike_id":"e0e73f13-d1f1-4fa1-9c94-14944708343d","system_id":"levelo_inurba_marseille","lat":43.243884,"lon":5.370736,"is_reserved":false,"is_disabled":false,"rental_uris":{"android":"levelo://app?vid=e0e73f13-d1f1-4fa1-9c94-14944708343d","ios":"levelo://app?vid=e0e73f13-d1f1-4fa1-9c94-14944708343d"},"vehicle_type_id":"4","last_reported":1702210332,"current_range_meters":9200,"station_id":"ce4bhhh2rcd13ifvqfk0","pricing_plan_id":"free"},{"bike_id":"d0cc3f9d-49bd-4a77-91c3-0c3157ce390f","system_id":"levelo_inurba_marseille","lat":43.243884,"lon":5.370736,"is_reserved":false,"is_disabled":false,"rental_uris":{"android":"levelo://app?vid=d0cc3f9d-49bd-4a77-91c3-0c3157ce390f","ios":"levelo://app?vid=d0cc3f9d-49bd-4a77-91c3-0c3157ce390f"},"vehicle_type_id":"4","last_reported":1702210332,"current_range_meters":28800,"station_id":"ce4bhhh2rcd13ifvqfk0","pricing_plan_id":"free"},{"bike_id":"4c3e1f43-73fd-4781-8e26-8e494293041b","system_id":"levelo_inurba_marseille","lat":43.24387,"lon":5.37055,"is_reserved":false,"is_disabled":false,"rental_uris":{"android":"levelo://app?vid=4c3e1f43-73fd-4781-8e26-8e494293041b","ios":"levelo://app?vid=4c3e1f43-73fd-4781-8e26-8e494293041b"},"vehicle_type_id":"4","last_reported":1702210332,"current_range_meters":23600,"station_id":"ce4bhhh2rcd13ifvqfk0","pricing_plan_id":"free"},{"bike_id":"0d64fad9-158a-4ce3-9a2d-c25b15c8ce69","system_id":"levelo_inurba_marseille","lat":43.243884,"lon":5.370736,"is_reserved":false,"is_disabled":false,"rental_uris":{"android":"levelo://app?vid=0d64fad9-158a-4ce3-9a2d-c25b15c8ce69","ios":"levelo://app?vid=0d64fad9-158a-4ce3-9a2d-c25b15c8ce69"},"vehicle_type_id":"4","last_reported":1702210332,"current_range_meters":0,"station_id":"ce4bhhh2rcd13ifvqfk0","pricing_plan_id":"free"},{"bike_id":"c0b5fb51-7841-4c6b-beb4-ceee6fc92abb","system_id":"levelo_inurba_marseille","lat":43.243884,"lon":5.370737,"is_reserved":false,"is_disabled":false,"rental_uris":{"android":"levelo://app?vid=c0b5fb51-7841-4c6b-beb4-ceee6fc92abb","ios":"levelo://app?vid=c0b5fb51-7841-4c6b-beb4-ceee6fc92abb"},"vehicle_type_id":"4","last_reported":1702210332,"current_range_meters":18800,"station_id":"ce4bhhh2rcd13ifvqfk0","pricing_plan_id":"free"},{"bike_id":"2189fc5b-972b-481a-8599-b7f74600c485","system_id":"levelo_inurba_marseille","lat":43.245581,"lon":5.395069,"is_reserved":false,"is_disabled":false,"rental_uris":{"android":"levelo://app?vid=2189fc5b-972b-481a-8599-b7f74600c485","ios":"levelo://app?vid=2189fc5b-972b-481a-8599-b7f74600c485"},"vehicle_type_id":"4","last_reported":1702210332,"current_range_meters":31200,"station_id":"ce4bhlp2rcd13ifvqgjg","pricing_plan_id":"free"},{"bike_id":"c88399f4-54c8-4f15-97b0-4d47ee4d0a9d","system_id":"levelo_inurba_marseille","lat":43.24546,"lon":5.3951,"is_reserved":false,"is_disabled":false,"rental_uris":{"android":"levelo://app?vid=c88399f4-54c8-4f15-97b0-4d47ee4d0a9d","ios":"levelo://app?vid=c88399f4-54c8-4f15-97b0-4d47ee4d0a9d"},"vehicle_type_id":"4","last_reported":1702210332,"current_range_meters":27200,"station_id":"ce4bhlp2rcd13ifvqgjg","pricing_plan_id":"free"},{"bike_id":"e0027151-3876-4e17-8b4a-b5c8f5b31988","system_id":"levelo_inurba_marseille","lat":43.240623,"lon":5.377642,"is_reserved":false,"is_disabled":false,"rental_uris":{"android":"levelo://app?vid=e0027151-3876-4e17-8b4a-b5c8f5b31988","ios":"levelo://app?vid=e0027151-3876-4e17-8b4a-b5c8f5b31988"},"vehicle_type_id":"4","last_reported":1702210332,"current_range_meters":14000,"station_id":"ce4bhnp2rcd13ifvqgvg","pricing_plan_id":"free"},{"bike_id":"e170ca68-b60c-43d9-9bf0-0dd7efa0f1b0","system_id":"levelo_inurba_marseille","lat":43.240623,"lon":5.377642,"is_reserved":false,"is_disabled":false,"rental_uris":{"android":"levelo://app?vid=e170ca68-b60c-43d9-9bf0-0dd7efa0f1b0","ios":"levelo://app?vid=e170ca68-b60c-43d9-9bf0-0dd7efa0f1b0"},"vehicle_type_id":"4","last_reported":1702210332,"current_range_meters":15200,"station_id":"ce4bhnp2rcd13ifvqgvg","pricing_plan_id":"free"},{"bike_id":"a4fbf616-94d5-44b6-955f-60acc6ccdefd","system_id":"levelo_inurba_marseille","lat":43.239588,"lon":5.366238,"is_reserved":false,"is_disabled":false,"rental_uris":{"android":"levelo://app?vid=a4fbf616-94d5-44b6-955f-60acc6ccdefd","ios":"levelo://app?vid=a4fbf616-94d5-44b6-955f-60acc6ccdefd"},"vehicle_type_id":"4","last_reported":1702210332,"current_range_meters":9200,"station_id":"ce4bhi12rcd13ifvqfp0","pricing_plan_id":"free"},{"bike_id":"cfc4a276-4a67-412c-8f70-0b8c1f09f05d","system_id":"levelo_inurba_marseille","lat":43.23197,"lon":5.35546,"is_reserved":false,"is_disabled":false,"rental_uris":{"android":"levelo://app?vid=cfc4a276-4a67-412c-8f70-0b8c1f09f05d","ios":"levelo://app?vid=cfc4a276-4a67-412c-8f70-0b8c1f09f05d"},"vehicle_type_id":"4","last_reported":1702210332,"current_range_meters":30400,"station_id":"ce4bhu92rcd13ifvqi70","pricing_plan_id":"free"},{"bike_id":"82f26454-9757-4cd7-a38a-2ee5545d6712","system_id":"levelo_inurba_marseille","lat":43.23195,"lon":5.3555,"is_reserved":false,"is_disabled":false,"rental_uris":{"android":"levelo://app?vid=82f26454-9757-4cd7-a38a-2ee5545d6712","ios":"levelo://app?vid=82f26454-9757-4cd7-a38a-2ee5545d6712"},"vehicle_type_id":"4","last_reported":1702210332,"current_range_meters":13200,"station_id":"ce4bhu92rcd13ifvqi70","pricing_plan_id":"free"},{"bike_id":"49a0496a-83dc-4a4a-9b3e-bdb93e24154d","system_id":"levelo_inurba_marseille","lat":43.231919,"lon":5.355532,"is_reserved":false,"is_disabled":false,"rental_uris":{"android":"levelo://app?vid=49a0496a-83dc-4a4a-9b3e-bdb93e24154d","ios":"levelo://app?vid=49a0496a-83dc-4a4a-9b3e-bdb93e24154d"},"vehicle_type_id":"4","last_reported":1702210332,"current_range_meters":18000,"station_id":"ce4bhu92rcd13ifvqi70","pricing_plan_id":"free"},{"bike_id":"ea5921a3-5778-42b1-9f19-8b22e7f0b654","system_id":"levelo_inurba_marseille","lat":43.23182,"lon":5.35545,"is_reserved":false,"is_disabled":false,"rental_uris":{"android":"levelo://app?vid=ea5921a3-5778-42b1-9f19-8b22e7f0b654","ios":"levelo://app?vid=ea5921a3-5778-42b1-9f19-8b22e7f0b654"},"vehicle_type_id":"4","last_reported":1702210332,"current_range_meters":10400,"station_id":"ce4bhu92rcd13ifvqi70","pricing_plan_id":"free"},{"bike_id":"16361938-cd84-482c-b289-23629786eb5c","system_id":"levelo_inurba_marseille","lat":43.231794,"lon":5.400052,"is_reserved":false,"is_disabled":false,"rental_uris":{"android":"levelo://app?vid=16361938-cd84-482c-b289-23629786eb5c","ios":"levelo://app?vid=16361938-cd84-482c-b289-23629786eb5c"},"vehicle_type_id":"4","last_reported":1702210332,"current_range_meters":20800,"station_id":"ce4bhn12rcd13ifvqgqg","pricing_plan_id":"free"},{"bike_id":"57272284-6b87-49f3-ac85-06f51f10d6bd","system_id":"levelo_inurba_marseille","lat":43.231794,"lon":5.400052,"is_reserved":false,"is_disabled":false,"rental_uris":{"android":"levelo://app?vid=57272284-6b87-49f3-ac85-06f51f10d6bd","ios":"levelo://app?vid=57272284-6b87-49f3-ac85-06f51f10d6bd"},"vehicle_type_id":"4","last_reported":1702210332,"current_range_meters":18000,"station_id":"ce4bhn12rcd13ifvqgqg","pricing_plan_id":"free"},{"bike_id":"fc61bc99-06a0-4d72-98c5-3fc6ad0ec772","system_id":"levelo_inurba_marseille","lat":43.231793,"lon":5.400044,"is_reserved":false,"is_disabled":false,"rental_uris":{"android":"levelo://app?vid=fc61bc99-06a0-4d72-98c5-3fc6ad0ec772","ios":"levelo://app?vid=fc61bc99-06a0-4d72-98c5-3fc6ad0ec772"},"vehicle_type_id":"4","last_reported":1702210332,"current_range_meters":26800,"station_id":"ce4bhn12rcd13ifvqgqg","pricing_plan_id":"free"},{"bike_id":"6eb7b3f7-824d-4f20-9887-ca5f3978e74b","system_id":"levelo_inurba_marseille","lat":43.231793,"lon":5.400044,"is_reserved":false,"is_disabled":false,"rental_uris":{"android":"levelo://app?vid=6eb7b3f7-824d-4f20-9887-ca5f3978e74b","ios":"levelo://app?vid=6eb7b3f7-824d-4f20-9887-ca5f3978e74b"},"vehicle_type_id":"4","last_reported":1702210332,"current_range_meters":8800,"station_id":"ce4bhn12rcd13ifvqgqg","pricing_plan_id":"free"},{"bike_id":"494d34db-69f2-4a2e-8fb3-72463506e3e1","system_id":"levelo_inurba_marseille","lat":43.231794,"lon":5.400052,"is_reserved":false,"is_disabled":false,"rental_uris":{"android":"levelo://app?vid=494d34db-69f2-4a2e-8fb3-72463506e3e1","ios":"levelo://app?vid=494d34db-69f2-4a2e-8fb3-72463506e3e1"},"vehicle_type_id":"4","last_reported":1702210332,"current_range_meters":12800,"station_id":"ce4bhn12rcd13ifvqgqg","pricing_plan_id":"free"},{"bike_id":"7f0539ae-2436-4db5-8f08-b9c6d1541f8b","system_id":"levelo_inurba_marseille","lat":43.231794,"lon":5.400052,"is_reserved":false,"is_disabled":false,"rental_uris":{"android":"levelo://app?vid=7f0539ae-2436-4db5-8f08-b9c6d1541f8b","ios":"levelo://app?vid=7f0539ae-2436-4db5-8f08-b9c6d1541f8b"},"vehicle_type_id":"4","last_reported":1702210332,"current_range_meters":8000,"station_id":"ce4bhn12rcd13ifvqgqg","pricing_plan_id":"free"},{"bike_id":"fa0780de-c86c-4b74-b4c3-98e25ebbb886","system_id":"levelo_inurba_marseille","lat":43.231794,"lon":5.400052,"is_reserved":false,"is_disabled":false,"rental_uris":{"android":"levelo://app?vid=fa0780de-c86c-4b74-b4c3-98e25ebbb886","ios":"levelo://app?vid=fa0780de-c86c-4b74-b4c3-98e25ebbb886"},"vehicle_type_id":"4","last_reported":1702210332,"current_range_meters":16000,"station_id":"ce4bhn12rcd13ifvqgqg","pricing_plan_id":"free"},{"bike_id":"90479f61-6418-4b50-a736-8e2b3eff7819","system_id":"levelo_inurba_marseille","lat":43.231562,"lon":5.436933,"is_reserved":false,"is_disabled":false,"rental_uris":{"android":"levelo://app?vid=90479f61-6418-4b50-a736-8e2b3eff7819","ios":"levelo://app?vid=90479f61-6418-4b50-a736-8e2b3eff7819"},"vehicle_type_id":"4","last_reported":1702210332,"current_range_meters":1200,"station_id":"ce4bhmp2rcd13ifvqgog","pricing_plan_id":"free"},{"bike_id":"cc815b0e-965f-49d1-82c7-7f4aad13e230","system_id":"levelo_inurba_marseille","lat":43.231562,"lon":5.436933,"is_reserved":false,"is_disabled":false,"rental_uris":{"android":"levelo://app?vid=cc815b0e-965f-49d1-82c7-7f4aad13e230","ios":"levelo://app?vid=cc815b0e-965f-49d1-82c7-7f4aad13e230"},"vehicle_type_id":"4","last_reported":1702210332,"current_range_meters":0,"station_id":"ce4bhmp2rcd13ifvqgog","pricing_plan_id":"free"},{"bike_id":"5151811e-acbd-4e1e-b5ce-091faff5b603","system_id":"levelo_inurba_marseille","lat":43.231562,"lon":5.436933,"is_reserved":false,"is_disabled":false,"rental_uris":{"android":"levelo://app?vid=5151811e-acbd-4e1e-b5ce-091faff5b603","ios":"levelo://app?vid=5151811e-acbd-4e1e-b5ce-091faff5b603"},"vehicle_type_id":"4","last_reported":1702210332,"current_range_meters":7200,"station_id":"ce4bhmp2rcd13ifvqgog","pricing_plan_id":"free"}]}}