{"last_updated":1738585020,"ttl":60,"version":"2.2","data":{"bikes":[{"bike_id":"0731d36f-35c9-460b-967c-3fbdf2d55c05","system_id":"levelo_inurba_marseille","lat":43.25129,"lon":5.40338,"is_reserved":false,"is_disabled":false,"rental_uris":{"android":"levelo://app?vid=0731d36f-35c9-460b-967c-3fbdf2d55c05","ios":"levelo://app?vid=0731d36f-35c9-460b-967c-3fbdf2d55c05"},"vehicle_type_id":"4","last_reported":1738585020,"current_range_meters":38800,"station_id":"ce4bhlh2rcd13ifvqgig","pricing_plan_id":"cebpf4jnsgd1na2vs0mg"},{"bike_id":"907bbec6-16a1-4bb3-8971-87a1610cb26b","system_id":"levelo_inurba_marseille","lat":43.26179,"lon":5.37456,"is_reserved":false,"is_disabled":false,"rental_uris":{"android":"levelo://app?vid=907bbec6-16a1-4bb3-8971-87a1610cb26b","ios":"levelo://app?vid=907bbec6-16a1-4bb3-8971-87a1610cb26b"},"vehicle_type_id":"4","last_reported":1738585020,"current_range_meters":30000,"station_id":"ce4bhgp2rcd13ifvqfc0","pricing_plan_id":"cebpf4jnsgd1na2vs0mg"},{"bike_id":"e91475a5-b081-4f06-b1dd-8358b8a295c8","system_id":"levelo_inurba_marseille","lat":43.29224,"lon":5.36063,"is_reserved":false,"is_disabled":false,"rental_uris":{"android":"levelo://app?vid=e91475a5-b081-4f06-b1dd-8358b8a295c8","ios":"levelo://app?vid=e91475a5-b081-4f06-b1dd-8358b8a295c8"},"vehicle_type_id":"4","last_reported":1738585020,"current_range_meters":30400,"station_id":"ce4bhbh2rcd13ifvqeqg","pricing_plan_id":"cebpf4jnsgd1na2vs0mg"},{"bike_id":"5395f373-04fd-4f6f-a544-5d84019c4562","system_id":"levelo_inurba_marseille","lat":43.29007,"lon":5.3561,"is_reserved":false,"is_disabled":false,"rental_uris":{"android":"levelo://app?vid=5395f373-04fd-4f6f-a544-5d84019c4562","ios":"levelo://app?vid=5395f373-04fd-4f6f-a544-5d84019c4562"},"vehicle_type_id":"4","last_reported":1738585020,"current_range_meters":14800,"station_id":"ce4bhb92rcd13ifvqen0","pricing_plan_id":"cebpf4jnsgd1na2vs0mg"},{"bike_id":"80dc2f71-f702-4d53-ba2b-bf89f26c9d76","system_id":"levelo_inurba_marseille","lat":43.24095,"lon":5.37751,"is_reserved":false,"is_disabled":false,"rental_uris":{"android":"levelo://app?vid=80dc2f71-f702-4d53-ba2b-bf89f26c9d76","ios":"levelo://app?vid=80dc2f71-f702-4d53-ba2b-bf89f26c9d76"},"vehicle_type_id":"4","last_reported":1738585020,"current_range_meters":38800,"station_id":"ce4bhnp2rcd13ifvqgvg","pricing_plan_id":"cebpf4jnsgd1na2vs0mg"},{"bike_id":"c8af4e29-0152-4305-bb24-fab9adb062a8","system_id":"levelo_inurba_marseille","lat":43.29965,"lon":5.38497,"is_reserved":false,"is_disabled":false,"rental_uris":{"android":"levelo://app?vid=c8af4e29-0152-4305-bb24-fab9adb062a8","ios":"levelo://app?vid=c8af4e29-0152-4305-bb24-fab9adb062a8"},"vehicle_type_id":"4","last_reported":1738585020,"current_range_meters":35600,"station_id":"ce4bgj92rcd13ifvqbd0","pricing_plan_id":"cebpf4jnsgd1na2vs0mg"},{"bike_id":"50825f5a-b4f5-4ec2-ad3d-5c94d8d08151","system_id":"levelo_inurba_marseille","lat":43.25815,"lon":5.39422,"is_reserved":false,"is_disabled":false,"rental_uris":{"android":"levelo://app?vid=50825f5a-b4f5-4ec2-ad3d-5c94d8d08151","ios":"levelo://app?vid=50825f5a-b4f5-4ec2-ad3d-5c94d8d08151"},"vehicle_type_id":"4","last_reported":1738585020,"current_range_meters":14000,"station_id":"ce4bhip2rcd13ifvqft0","pricing_plan_id":"cebpf4jnsgd1na2vs0mg"},{"bike_id":"59258afc-f3eb-4ab9-965a-c5067cac887a","system_id":"levelo_inurba_marseille","lat":43.28362,"lon":5.38104,"is_reserved":false,"is_disabled":false,"rental_uris":{"android":"levelo://app?vid=59258afc-f3eb-4ab9-965a-c5067cac887a","ios":"levelo://app?vid=59258afc-f3eb-4ab9-965a-c5067cac887a"},"vehicle_type_id":"4","last_reported":1738585020,"current_range_meters":36000,"station_id":"ce4bh412rcd13ifvqdr0","pricing_plan_id":"cebpf4jnsgd1na2vs0mg"},{"bike_id":"4d11b4e1-daa5-44ec-82ec-7ce0cbe19f20","system_id":"levelo_inurba_marseille","lat":43.25728,"lon":5.41108,"is_reserved":false,"is_disabled":false,"rental_uris":{"android":"levelo://app?vid=4d11b4e1-daa5-44ec-82ec-7ce0cbe19f20","ios":"levelo://app?vid=4d11b4e1-daa5-44ec-82ec-7ce0cbe19f20"},"vehicle_type_id":"4","last_reported":1738585020,"current_range_meters":22400,"station_id":"ce4bhkp2rcd13ifvqgd0","pricing_plan_id":"cebpf4jnsgd1na2vs0mg"},{"bike_id":"d4642035-dad0-4d6e-8d0c-888c683bfb3d","system_id":"levelo_inurba_marseille","lat":43.29042,"lon":5.37015,"is_reserved":false,"is_disabled":false,"rental_uris":{"android":"levelo://app?vid=d4642035-dad0-4d6e-8d0c-888c683bfb3d","ios":"levelo://app?vid=d4642035-dad0-4d6e-8d0c-888c683bfb3d"},"vehicle_type_id":"4","last_reported":1738585020,"current_range_meters":13600,"station_id":"ce4bh2h2rcd13ifvqdh0","pricing_plan_id":"cebpf4jnsgd1na2vs0mg"},{"bike_id":"e028bef9-de68-41b8-97d0-a5d118a020b1","system_id":"levelo_inurba_marseille","lat":43.27053,"lon":5.40296,"is_reserved":false,"is_disabled":false,"rental_uris":{"android":"levelo://app?vid=e028bef9-de68-41b8-97d0-a5d118a020b1","ios":"levelo://app?vid=e028bef9-de68-41b8-97d0-a5d118a020b1"},"vehicle_type_id":"4","last_reported":1738585020,"current_range_meters":8400,"station_id":"ce4bhk92rcd13ifvqgc0","pricing_plan_id":"cebpf4jnsgd1na2vs0mg"},{"bike_id":"a9701041-4785-45b6-94b9-7e78b2a3068e","system_id":"levelo_inurba_marseille","lat":43.25132,"lon":5.40343,"is_reserved":false,"is_disabled":false,"rental_uris":{"android":"levelo://app?vid=a9701041-4785-45b6-94b9-7e78b2a3068e","ios":"levelo://app?vid=a9701041-4785-45b6-94b9-7e78b2a3068e"},"vehicle_type_id":"4","last_reported":1738585020,"current_range_meters":28000,"station_id":"ce4bhlh2rcd13ifvqgig","pricing_plan_id":"cebpf4jnsgd1na2vs0mg"},{"bike_id":"39fe4d38-0e6b-4ea1-b4af-c92b785fbb3f","system_id":"levelo_inurba_marseille","lat":43.30542,"lon":5.36526,"is_reserved":false,"is_disabled":false,"rental_uris":{"android":"levelo://app?vid=39fe4d38-0e6b-4ea1-b4af-c92b785fbb3f","ios":"levelo://app?vid=39fe4d38-0e6b-4ea1-b4af-c92b785fbb3f"},"vehicle_type_id":"4","last_reported":1738585020,"current_range_meters":38800,"station_id":"ce4bgs12rcd13ifvqcag","pricing_plan_id":"cebpf4jnsgd1na2vs0mg"},{"bike_id":"1abd4c10-fb00-4948-9735-5c7e538916f7","system_id":"levelo_inurba_marseille","lat":43.32992,"lon":5.37984,"is_reserved":false,"is_disabled":false,"rental_uris":{"android":"levelo://app?vid=1abd4c10-fb00-4948-9735-5c7e538916f7","ios":"levelo://app?vid=1abd4c10-fb00-4948-9735-5c7e538916f7"},"vehicle_type_id":"4","last_reported":1738585020,"current_range_meters":38800,"station_id":"","pricing_plan_id":"cebpf4jnsgd1na2vs0mg"},{"bike_id":"be6fdc38-0117-4fef-86e8-d7394c1182e2","system_id":"levelo_inurba_marseille","lat":43.30517,"lon":5.36543,"is_reserved":false,"is_disabled":false,"rental_uris":{"android":"levelo://app?vid=be6fdc38-0117-4fef-86e8-d7394c1182e2","ios":"levelo://app?vid=be6fdc38-0117-4fef-86e8-d7394c1182e2"},"vehicle_type_id":"4","last_reported":1738585020,"current_range_meters":14800,"station_id":"ce4bgs12rcd13ifvqcag","pricing_plan_id":"cebpf4jnsgd1na2vs0mg"},{"bike_id":"46d57953-5a8b-4a73-a05f-e65f22d873c6","system_id":"levelo_inurba_marseille","lat":43.27065,"lon":5.40262,"is_reserved":false,"is_disabled":false,"rental_uris":{"android":"levelo://app?vid=46d57953-5a8b-4a73-a05f-e65f22d873c6","ios":"levelo://app?vid=46d57953-5a8b-4a73-a05f-e65f22d873c6"},"vehicle_type_id":"4","last_reported":1738585020,"current_range_meters":36800,"station_id":"ce4bhk92rcd13ifvqgc0","pricing_plan_id":"cebpf4jnsgd1na2vs0mg"},{"bike_id":"bf9b0700-4be0-4511-952e-44a7f644b272","system_id":"levelo_inurba_marseille","lat":43.28467,"lon":5.38423,"is_reserved":false,"is_disabled":false,"rental_uris":{"android":"levelo://app?vid=bf9b0700-4be0-4511-952e-44a7f644b272","ios":"levelo://app?vid=bf9b0700-4be0-4511-952e-44a7f644b272"},"vehicle_type_id":"4","last_reported":1738585020,"current_range_meters":28800,"station_id":"ce4bh512rcd13ifvqe3g","pricing_plan_id":"cebpf4jnsgd1na2vs0mg"},{"bike_id":"f946d9ad-857c-4442-b3b2-a3da40e13610","system_id":"levelo_inurba_marseille","lat":43.29532,"lon":5.38544,"is_reserved":false,"is_disabled":false,"rental_uris":{"android":"levelo://app?vid=f946d9ad-857c-4442-b3b2-a3da40e13610","ios":"levelo://app?vid=f946d9ad-857c-4442-b3b2-a3da40e13610"},"vehicle_type_id":"4","last_reported":1738585020,"current_range_meters":22400,"station_id":"ce4bgih2rcd13ifvqba0","pricing_plan_id":"cebpf4jnsgd1na2vs0mg"},{"bike_id":"3bb4c0ba-2d4b-4420-bb31-98e110657651","system_id":"levelo_inurba_marseille","lat":43.29703,"lon":5.37709,"is_reserved":false,"is_disabled":false,"rental_uris":{"android":"levelo://app?vid=3bb4c0ba-2d4b-4420-bb31-98e110657651","ios":"levelo://app?vid=3bb4c0ba-2d4b-4420-bb31-98e110657651"},"vehicle_type_id":"4","last_reported":1738585020,"current_range_meters":39200,"station_id":"ce4bgkh2rcd13ifvqbl0","pricing_plan_id":"cebpf4jnsgd1na2vs0mg"},{"bike_id":"fc2c2534-6b38-404c-91a0-095506c82e66","system_id":"levelo_inurba_marseille","lat":43.26945,"lon":5.40251,"is_reserved":false,"is_disabled":false,"rental_uris":{"android":"levelo://app?vid=fc2c2534-6b38-404c-91a0-095506c82e66","ios":"levelo://app?vid=fc2c2534-6b38-404c-91a0-095506c82e66"},"vehicle_type_id":"4","last_reported":1738585020,"current_range_meters":38000,"station_id":"cjm6bp8fraef2m0cb0m0","pricing_plan_id":"cebpf4jnsgd1na2vs0mg"},{"bike_id":"e251818a-7272-49e4-8fd8-978fec9fd5e4","system_id":"levelo_inurba_marseille","lat":43.30763,"lon":5.38119,"is_reserved":false,"is_disabled":false,"rental_uris":{"android":"levelo://app?vid=e251818a-7272-49e4-8fd8-978fec9fd5e4","ios":"levelo://app?vid=e251818a-7272-49e4-8fd8-978fec9fd5e4"},"vehicle_type_id":"4","last_reported":1738585020,"current_range_meters":19600,"station_id":"ce4bgt12rcd13ifvqce0","pricing_plan_id":"cebpf4jnsgd1na2vs0mg"},{"bike_id":"4255d86f-6cd2-4c78-b044-c18b3a57a600","system_id":"levelo_inurba_marseille","lat":43.26944,"lon":5.40252,"is_reserved":false,"is_disabled":false,"rental_uris":{"android":"levelo://app?vid=4255d86f-6cd2-4c78-b044-c18b3a57a600","ios":"levelo://app?vid=4255d86f-6cd2-4c78-b044-c18b3a57a600"},"vehicle_type_id":"4","last_reported":1738585020,"current_range_meters":38000,"station_id":"cjm6bp8fraef2m0cb0m0","pricing_plan_id":"cebpf4jnsgd1na2vs0mg"},{"bike_id":"49d702a3-2f94-4939-8d0c-bbe18c7c2959","system_id":"levelo_inurba_marseille","lat":43.30276,"lon":5.37718,"is_reserved":false,"is_disabled":false,"rental_uris":{"android":"levelo://app?vid=49d702a3-2f94-4939-8d0c-bbe18c7c2959","ios":"levelo://app?vid=49d702a3-2f94-4939-8d0c-bbe18c7c2959"},"vehicle_type_id":"4","last_reported":1738585020,"current_range_meters":39200,"station_id":"ce4bguh2rcd13ifvqcj0","pricing_plan_id":"cebpf4jnsgd1na2vs0mg"},{"bike_id":"2299b9ff-7498-486b-959b-1032bbdd6a20","system_id":"levelo_inurba_marseille","lat":43.32476,"lon":5.36566,"is_reserved":false,"is_disabled":false,"rental_uris":{"android":"levelo://app?vid=2299b9ff-7498-486b-959b-1032bbdd6a20","ios":"levelo://app?vid=2299b9ff-7498-486b-959b-1032bbdd6a20"},"vehicle_type_id":"4","last_reported":1738585020,"current_range_meters":21600,"station_id":"ce4bhs12rcd13ifvqhvg","pricing_plan_id":"cebpf4jnsgd1na2vs0mg"},{"bike_id":"3e574816-3754-460d-8072-f6ebe3757ea0","system_id":"levelo_inurba_marseille","lat":43.32369,"lon":5.36763,"is_reserved":false,"is_disabled":false,"rental_uris":{"android":"levelo://app?vid=3e574816-3754-460d-8072-f6ebe3757ea0","ios":"levelo://app?vid=3e574816-3754-460d-8072-f6ebe3757ea0"},"vehicle_type_id":"4","last_reported":1738585020,"current_range_meters":23200,"station_id":"ce4bhsh2rcd13ifvqi2g","pricing_plan_id":"cebpf4jnsgd1na2vs0mg"},{"bike_id":"73c5adb8-0998-4854-bb2c-683f7adc0ad5","system_id":"levelo_inurba_marseille","lat":43.32456,"lon":5.36582,"is_reserved":false,"is_disabled":false,"rental_uris":{"android":"levelo://app?vid=73c5adb8-0998-4854-bb2c-683f7adc0ad5","ios":"levelo://app?vid=73c5adb8-0998-4854-bb2c-683f7adc0ad5"},"vehicle_type_id":"4","last_reported":1738585020,"current_range_meters":27600,"station_id":"ce4bhs12rcd13ifvqhvg","pricing_plan_id":"cebpf4jnsgd1na2vs0mg"},{"bike_id":"572ac798-e882-4a8e-9dad-53cc794f05ee","system_id":"levelo_inurba_marseille","lat":43.25123,"lon":5.40334,"is_reserved":false,"is_disabled":false,"rental_uris":{"android":"levelo://app?vid=572ac798-e882-4a8e-9dad-53cc794f05ee","ios":"levelo://app?vid=572ac798-e882-4a8e-9dad-53cc794f05ee"},"vehicle_type_id":"4","last_reported":1738585020,"current_range_meters":26800,"station_id":"ce4bhlh2rcd13ifvqgig","pricing_plan_id":"cebpf4jnsgd1na2vs0mg"},{"bike_id":"a1a7079b-68b5-45ca-9af8-b6bc9f7cd559","system_id":"levelo_inurba_marseille","lat":43.22933,"lon":5.35372,"is_reserved":false,"is_disabled":false,"rental_uris":{"android":"levelo://app?vid=a1a7079b-68b5-45ca-9af8-b6bc9f7cd559","ios":"levelo://app?vid=a1a7079b-68b5-45ca-9af8-b6bc9f7cd559"},"vehicle_type_id":"4","last_reported":1738585020,"current_range_meters":37600,"station_id":"cpo3532slgdg3j2ikp40","pricing_plan_id":"cebpf4jnsgd1na2vs0mg"},{"bike_id":"921e8a23-ed2b-419f-a856-fc2e6d38a77b","system_id":"levelo_inurba_marseille","lat":43.27541,"lon":5.38434,"is_reserved":false,"is_disabled":false,"rental_uris":{"android":"levelo://app?vid=921e8a23-ed2b-419f-a856-fc2e6d38a77b","ios":"levelo://app?vid=921e8a23-ed2b-419f-a856-fc2e6d38a77b"},"vehicle_type_id":"4","last_reported":1738585020,"current_range_meters":37600,"station_id":"ce4bhh92rcd13ifvqfi0","pricing_plan_id":"cebpf4jnsgd1na2vs0mg"},{"bike_id":"5c3a12cc-7b7f-49a4-b163-8c4de536df91","system_id":"levelo_inurba_marseille","lat":43.31266,"lon":5.40166,"is_reserved":false,"is_disabled":false,"rental_uris":{"android":"levelo://app?vid=5c3a12cc-7b7f-49a4-b163-8c4de536df91","ios":"levelo://app?vid=5c3a12cc-7b7f-49a4-b163-8c4de536df91"},"vehicle_type_id":"4","last_reported":1738585020,"current_range_meters":37600,"station_id":"ce4bh092rcd13ifvqd30","pricing_plan_id":"cebpf4jnsgd1na2vs0mg"},{"bike_id":"91a36b23-3920-4ab3-a9bb-486f6c925024","system_id":"levelo_inurba_marseille","lat":43.28452,"lon":5.35891,"is_reserved":false,"is_disabled":false,"rental_uris":{"android":"levelo://app?vid=91a36b23-3920-4ab3-a9bb-486f6c925024","ios":"levelo://app?vid=91a36b23-3920-4ab3-a9bb-486f6c925024"},"vehicle_type_id":"4","last_reported":1738585020,"current_range_meters":14400,"station_id":"ce4bhah2rcd13ifvqei0","pricing_plan_id":"cebpf4jnsgd1na2vs0mg"},{"bike_id":"899e7357-2259-4c54-909a-456bdc9df4cf","system_id":"levelo_inurba_marseille","lat":43.28654,"lon":5.38559,"is_reserved":false,"is_disabled":false,"rental_uris":{"android":"levelo://app?vid=899e7357-2259-4c54-909a-456bdc9df4cf","ios":"levelo://app?vid=899e7357-2259-4c54-909a-456bdc9df4cf"},"vehicle_type_id":"4","last_reported":1738585020,"current_range_meters":27600,"station_id":"ce4bh312rcd13ifvqdk0","pricing_plan_id":"cebpf4jnsgd1na2vs0mg"},{"bike_id":"1e80229c-3730-4f6a-ad92-db35f7d75e3d","system_id":"levelo_inurba_marseille","lat":43.27169,"lon":5.40993,"is_reserved":false,"is_disabled":false,"rental_uris":{"android":"levelo://app?vid=1e80229c-3730-4f6a-ad92-db35f7d75e3d","ios":"levelo://app?vid=1e80229c-3730-4f6a-ad92-db35f7d75e3d"},"vehicle_type_id":"4","last_reported":1738585020,"current_range_meters":38800,"station_id":"ce4bhl12rcd13ifvqgf0","pricing_plan_id":"cebpf4jnsgd1na2vs0mg"},{"bike_id":"2f7e7ab7-598e-4a75-94a1-2be334ef22dc","system_id":"levelo_inurba_marseille","lat":43.29929,"lon":5.36555,"is_reserved":false,"is_disabled":false,"rental_uris":{"android":"levelo://app?vid=2f7e7ab7-598e-4a75-94a1-2be334ef22dc","ios":"levelo://app?vid=2f7e7ab7-598e-4a75-94a1-2be334ef22dc"},"vehicle_type_id":"4","last_reported":1738585020,"current_range_meters":37600,"station_id":"ce4bgm92rcd13ifvqbr0","pricing_plan_id":"cebpf4jnsgd1na2vs0mg"},{"bike_id":"b2a6436f-4c95-46dd-a3bd-6af91e9591d2","system_id":"levelo_inurba_marseille","lat":43.2558,"lon":5.38237,"is_reserved":false,"is_disabled":false,"rental_uris":{"android":"levelo://app?vid=b2a6436f-4c95-46dd-a3bd-6af91e9591d2","ios":"levelo://app?vid=b2a6436f-4c95-46dd-a3bd-6af91e9591d2"},"vehicle_type_id":"4","last_reported":1738585020,"current_range_meters":24400,"station_id":"ce4bhih2rcd13ifvqfs0","pricing_plan_id":"cebpf4jnsgd1na2vs0mg"},{"bike_id":"c5f983df-532f-41d0-9fae-6e40c9dc53ba","system_id":"levelo_inurba_marseille","lat":43.2798,"lon":5.4166,"is_reserved":false,"is_disabled":false,"rental_uris":{"android":"levelo://app?vid=c5f983df-532f-41d0-9fae-6e40c9dc53ba","ios":"levelo://app?vid=c5f983df-532f-41d0-9fae-6e40c9dc53ba"},"vehicle_type_id":"4","last_reported":1738585020,"current_range_meters":38800,"station_id":"ce4bho12rcd13ifvqh1g","pricing_plan_id":"cebpf4jnsgd1na2vs0mg"},{"bike_id":"af12c670-4118-4fab-a9c2-986fbe4fef34","system_id":"levelo_inurba_marseille","lat":43.289349,"lon":5.383959,"is_reserved":false,"is_disabled":false,"rental_uris":{"android":"levelo://app?vid=af12c670-4118-4fab-a9c2-986fbe4fef34","ios":"levelo://app?vid=af12c670-4118-4fab-a9c2-986fbe4fef34"},"vehicle_type_id":"4","last_reported":1738585020,"current_range_meters":27600,"station_id":"ce4bh612rcd13ifvqe6g","pricing_plan_id":"cebpf4jnsgd1na2vs0mg"},{"bike_id":"ad16720e-3a64-4135-85a8-0fbdd996475f","system_id":"levelo_inurba_marseille","lat":43.23294,"lon":5.3997,"is_reserved":false,"is_disabled":false,"rental_uris":{"android":"levelo://app?vid=ad16720e-3a64-4135-85a8-0fbdd996475f","ios":"levelo://app?vid=ad16720e-3a64-4135-85a8-0fbdd996475f"},"vehicle_type_id":"4","last_reported":1738585020,"current_range_meters":19600,"station_id":"","pricing_plan_id":"cebpf4jnsgd1na2vs0mg"},{"bike_id":"e3cfeb5a-9d21-412c-be20-0ee979654d92","system_id":"levelo_inurba_marseille","lat":43.25132,"lon":5.40315,"is_reserved":false,"is_disabled":false,"rental_uris":{"android":"levelo://app?vid=e3cfeb5a-9d21-412c-be20-0ee979654d92","ios":"levelo://app?vid=e3cfeb5a-9d21-412c-be20-0ee979654d92"},"vehicle_type_id":"4","last_reported":1738585020,"current_range_meters":17200,"station_id":"ce4bhlh2rcd13ifvqgig","pricing_plan_id":"cebpf4jnsgd1na2vs0mg"},{"bike_id":"5d51435c-d23e-42e7-a4c0-6e969e5d0e0c","system_id":"levelo_inurba_marseille","lat":43.23149,"lon":5.43719,"is_reserved":false,"is_disabled":false,"rental_uris":{"android":"levelo://app?vid=5d51435c-d23e-42e7-a4c0-6e969e5d0e0c","ios":"levelo://app?vid=5d51435c-d23e-42e7-a4c0-6e969e5d0e0c"},"vehicle_type_id":"4","last_reported":1738585020,"current_range_meters":28000,"station_id":"ce4bhmp2rcd13ifvqgog","pricing_plan_id":"cebpf4jnsgd1na2vs0mg"},{"bike_id":"1a794636-1de8-48ff-a1bf-f41557cb147d","system_id":"levelo_inurba_marseille","lat":43.34621,"lon":5.38056,"is_reserved":false,"is_disabled":false,"rental_uris":{"android":"levelo://app?vid=1a794636-1de8-48ff-a1bf-f41557cb147d","ios":"levelo://app?vid=1a794636-1de8-48ff-a1bf-f41557cb147d"},"vehicle_type_id":"4","last_reported":1738585020,"current_range_meters":18000,"station_id":"","pricing_plan_id":"cebpf4jnsgd1na2vs0mg"},{"bike_id":"a693ea90-744f-407b-8f5c-c2c84b819d4d","system_id":"levelo_inurba_marseille","lat":43.25871,"lon":5.39899,"is_reserved":false,"is_disabled":false,"rental_uris":{"android":"levelo://app?vid=a693ea90-744f-407b-8f5c-c2c84b819d4d","ios":"levelo://app?vid=a693ea90-744f-407b-8f5c-c2c84b819d4d"},"vehicle_type_id":"4","last_reported":1738585020,"current_range_meters":21600,"station_id":"ce4bhl92rcd13ifvqghg","pricing_plan_id":"cebpf4jnsgd1na2vs0mg"},{"bike_id":"0e082877-e8f4-497d-a415-62f204806335","system_id":"levelo_inurba_marseille","lat":43.29706,"lon":5.37695,"is_reserved":false,"is_disabled":false,"rental_uris":{"android":"levelo://app?vid=0e082877-e8f4-497d-a415-62f204806335","ios":"levelo://app?vid=0e082877-e8f4-497d-a415-62f204806335"},"vehicle_type_id":"4","last_reported":1738585020,"current_range_meters":38800,"station_id":"ce4bgkh2rcd13ifvqbl0","pricing_plan_id":"cebpf4jnsgd1na2vs0mg"},{"bike_id":"1072a59e-6a14-4a14-b356-7d5cf661bfb6","system_id":"levelo_inurba_marseille","lat":43.30135,"lon":5.37428,"is_reserved":false,"is_disabled":false,"rental_uris":{"android":"levelo://app?vid=1072a59e-6a14-4a14-b356-7d5cf661bfb6","ios":"levelo://app?vid=1072a59e-6a14-4a14-b356-7d5cf661bfb6"},"vehicle_type_id":"4","last_reported":1738585020,"current_range_meters":28400,"station_id":"ce4bgs92rcd13ifvqcc0","pricing_plan_id":"cebpf4jnsgd1na2vs0mg"},{"bike_id":"0df62ab4-7a82-4bdd-bb55-9793b6fbc878","system_id":"levelo_inurba_marseille","lat":43.28146,"lon":5.42653,"is_reserved":false,"is_disabled":false,"rental_uris":{"android":"levelo://app?vid=0df62ab4-7a82-4bdd-bb55-9793b6fbc878","ios":"levelo://app?vid=0df62ab4-7a82-4bdd-bb55-9793b6fbc878"},"vehicle_type_id":"4","last_reported":1738585020,"current_range_meters":9200,"station_id":"ce4bhnh2rcd13ifvqgug","pricing_plan_id":"cebpf4jnsgd1na2vs0mg"},{"bike_id":"9dc65d03-0a47-4f38-9046-abdeedf1079b","system_id":"levelo_inurba_marseille","lat":43.29733,"lon":5.37674,"is_reserved":false,"is_disabled":false,"rental_uris":{"android":"levelo://app?vid=9dc65d03-0a47-4f38-9046-abdeedf1079b","ios":"levelo://app?vid=9dc65d03-0a47-4f38-9046-abdeedf1079b"},"vehicle_type_id":"4","last_reported":1738585020,"current_range_meters":16400,"station_id":"ce4bgkh2rcd13ifvqbl0","pricing_plan_id":"cebpf4jnsgd1na2vs0mg"},{"bike_id":"70db77fa-5101-4cc3-b5ef-7ecd27e20697","system_id":"levelo_inurba_marseille","lat":43.23052,"lon":5.355,"is_reserved":false,"is_disabled":false,"rental_uris":{"android":"levelo://app?vid=70db77fa-5101-4cc3-b5ef-7ecd27e20697","ios":"levelo://app?vid=70db77fa-5101-4cc3-b5ef-7ecd27e20697"},"vehicle_type_id":"4","last_reported":1738585020,"current_range_meters":28000,"station_id":"cpo3342slgdg3j2ifvpg","pricing_plan_id":"cebpf4jnsgd1na2vs0mg"},{"bike_id":"88b4eaf4-81ef-4e40-952d-0796c3322a4a","system_id":"levelo_inurba_marseille","lat":43.25101,"lon":5.40316,"is_reserved":false,"is_disabled":false,"rental_uris":{"android":"levelo://app?vid=88b4eaf4-81ef-4e40-952d-0796c3322a4a","ios":"levelo://app?vid=88b4eaf4-81ef-4e40-952d-0796c3322a4a"},"vehicle_type_id":"4","last_reported":1738585020,"current_range_meters":11600,"station_id":"ce4bhlh2rcd13ifvqgig","pricing_plan_id":"cebpf4jnsgd1na2vs0mg"},{"bike_id":"e33c097b-83d0-40ec-9fbf-364e5b0a9ef8","system_id":"levelo_inurba_marseille","lat":43.23208,"lon":5.35552,"is_reserved":false,"is_disabled":false,"rental_uris":{"android":"levelo://app?vid=e33c097b-83d0-40ec-9fbf-364e5b0a9ef8","ios":"levelo://app?vid=e33c097b-83d0-40ec-9fbf-364e5b0a9ef8"},"vehicle_type_id":"4","last_reported":1738585020,"current_range_meters":38800,"station_id":"ce4bhu92rcd13ifvqi70","pricing_plan_id":"cebpf4jnsgd1na2vs0mg"},{"bike_id":"77581886-2b48-4244-8619-46e5ddf98f45","system_id":"levelo_inurba_marseille","lat":43.2795,"lon":5.41044,"is_reserved":false,"is_disabled":false,"rental_uris":{"android":"levelo://app?vid=77581886-2b48-4244-8619-46e5ddf98f45","ios":"levelo://app?vid=77581886-2b48-4244-8619-46e5ddf98f45"},"vehicle_type_id":"4","last_reported":1738585020,"current_range_meters":28000,"station_id":"ce4bhnp2rcd13ifvqh0g","pricing_plan_id":"cebpf4jnsgd1na2vs0mg"},{"bike_id":"cb152ba6-5bb3-4fe7-833a-2d39ccf76270","system_id":"levelo_inurba_marseille","lat":43.31223,"lon":5.36875,"is_reserved":false,"is_disabled":false,"rental_uris":{"android":"levelo://app?vid=cb152ba6-5bb3-4fe7-833a-2d39ccf76270","ios":"levelo://app?vid=cb152ba6-5bb3-4fe7-833a-2d39ccf76270"},"vehicle_type_id":"4","last_reported":1738585020,"current_range_meters":9200,"station_id":"ce4bgl92rcd13ifvqbq0","pricing_plan_id":"cebpf4jnsgd1na2vs0mg"},{"bike_id":"7c16b670-ddc2-4778-a9f2-bea7b0784479","system_id":"levelo_inurba_marseille","lat":43.28461,"lon":5.35892,"is_reserved":false,"is_disabled":false,"rental_uris":{"android":"levelo://app?vid=7c16b670-ddc2-4778-a9f2-bea7b0784479","ios":"levelo://app?vid=7c16b670-ddc2-4778-a9f2-bea7b0784479"},"vehicle_type_id":"4","last_reported":1738585020,"current_range_meters":30400,"station_id":"ce4bhah2rcd13ifvqei0","pricing_plan_id":"cebpf4jnsgd1na2vs0mg"},{"bike_id":"6bb9db73-bd19-4119-aa2c-941f0aa704ee","system_id":"levelo_inurba_marseille","lat":43.27998,"lon":5.4001,"is_reserved":false,"is_disabled":false,"rental_uris":{"android":"levelo://app?vid=6bb9db73-bd19-4119-aa2c-941f0aa704ee","ios":"levelo://app?vid=6bb9db73-bd19-4119-aa2c-941f0aa704ee"},"vehicle_type_id":"4","last_reported":1738585020,"current_range_meters":30800,"station_id":"ce4bho92rcd13ifvqh4g","pricing_plan_id":"cebpf4jnsgd1na2vs0mg"},{"bike_id":"88a9606f-57eb-4ada-bcd9-9d189bfeae6e","system_id":"levelo_inurba_marseille","lat":43.31336,"lon":5.36709,"is_reserved":false,"is_disabled":false,"rental_uris":{"android":"levelo://app?vid=88a9606f-57eb-4ada-bcd9-9d189bfeae6e","ios":"levelo://app?vid=88a9606f-57eb-4ada-bcd9-9d189bfeae6e"},"vehicle_type_id":"4","last_reported":1738585020,"current_range_meters":15200,"station_id":"ce4bgr92rcd13ifvqc6g","pricing_plan_id":"cebpf4jnsgd1na2vs0mg"},{"bike_id":"79350486-42a5-4412-ad61-1c973067a717","system_id":"levelo_inurba_marseille","lat":43.25723,"lon":5.41112,"is_reserved":false,"is_disabled":false,"rental_uris":{"android":"levelo://app?vid=79350486-42a5-4412-ad61-1c973067a717","ios":"levelo://app?vid=79350486-42a5-4412-ad61-1c973067a717"},"vehicle_type_id":"4","last_reported":1738585020,"current_range_meters":14400,"station_id":"ce4bhkp2rcd13ifvqgd0","pricing_plan_id":"cebpf4jnsgd1na2vs0mg"},{"bike_id":"ddc6d4a1-4ac8-4c2a-8407-9f341d5449fd","system_id":"levelo_inurba_marseille","lat":43.26782,"lon":5.39414,"is_reserved":false,"is_disabled":false,"rental_uris":{"android":"levelo://app?vid=ddc6d4a1-4ac8-4c2a-8407-9f341d5449fd","ios":"levelo://app?vid=ddc6d4a1-4ac8-4c2a-8407-9f341d5449fd"},"vehicle_type_id":"4","last_reported":1738585020,"current_range_meters":38400,"station_id":"ce4bhh12rcd13ifvqfg0","pricing_plan_id":"cebpf4jnsgd1na2vs0mg"},{"bike_id":"965eadaa-c150-4624-b3c2-7d3c174bc6b8","system_id":"levelo_inurba_marseille","lat":43.29222,"lon":5.36087,"is_reserved":false,"is_disabled":false,"rental_uris":{"android":"levelo://app?vid=965eadaa-c150-4624-b3c2-7d3c174bc6b8","ios":"levelo://app?vid=965eadaa-c150-4624-b3c2-7d3c174bc6b8"},"vehicle_type_id":"4","last_reported":1738585020,"current_range_meters":5600,"station_id":"ce4bhbh2rcd13ifvqeqg","pricing_plan_id":"cebpf4jnsgd1na2vs0mg"},{"bike_id":"de27dfc9-f2fb-4778-8226-69a993c0eb2e","system_id":"levelo_inurba_marseille","lat":43.24541,"lon":5.39517,"is_reserved":false,"is_disabled":false,"rental_uris":{"android":"levelo://app?vid=de27dfc9-f2fb-4778-8226-69a993c0eb2e","ios":"levelo://app?vid=de27dfc9-f2fb-4778-8226-69a993c0eb2e"},"vehicle_type_id":"4","last_reported":1738585020,"current_range_meters":38800,"station_id":"ce4bhlp2rcd13ifvqgjg","pricing_plan_id":"cebpf4jnsgd1na2vs0mg"},{"bike_id":"053b7c86-8fa2-42a0-8ea3-d5126e8cd464","system_id":"levelo_inurba_marseille","lat":43.28162,"lon":5.4264,"is_reserved":false,"is_disabled":false,"rental_uris":{"android":"levelo://app?vid=053b7c86-8fa2-42a0-8ea3-d5126e8cd464","ios":"levelo://app?vid=053b7c86-8fa2-42a0-8ea3-d5126e8cd464"},"vehicle_type_id":"4","last_reported":1738585020,"current_range_meters":29600,"station_id":"ce4bhnh2rcd13ifvqgug","pricing_plan_id":"cebpf4jnsgd1na2vs0mg"},{"bike_id":"761f8c7e-e88b-48dc-b0de-7607c12c337a","system_id":"levelo_inurba_marseille","lat":43.25,"lon":5.38917,"is_reserved":false,"is_disabled":false,"rental_uris":{"android":"levelo://app?vid=761f8c7e-e88b-48dc-b0de-7607c12c337a","ios":"levelo://app?vid=761f8c7e-e88b-48dc-b0de-7607c12c337a"},"vehicle_type_id":"4","last_reported":1738585020,"current_range_meters":13600,"station_id":"ce4bhgp2rcd13ifvqfd0","pricing_plan_id":"cebpf4jnsgd1na2vs0mg"},{"bike_id":"3929021d-3c3e-462c-b15f-7499dac3480c","system_id":"levelo_inurba_marseille","lat":43.27915,"lon":5.38007,"is_reserved":false,"is_disabled":false,"rental_uris":{"android":"levelo://app?vid=3929021d-3c3e-462c-b15f-7499dac3480c","ios":"levelo://app?vid=3929021d-3c3e-462c-b15f-7499dac3480c"},"vehicle_type_id":"4","last_reported":1738585020,"current_range_meters":32000,"station_id":"ce4bhf92rcd13ifvqf50","pricing_plan_id":"cebpf4jnsgd1na2vs0mg"},{"bike_id":"2852fe06-4fd0-4b90-b60b-75ab02359f10","system_id":"levelo_inurba_marseille","lat":43.33611,"lon":5.41019,"is_reserved":false,"is_disabled":false,"rental_uris":{"android":"levelo://app?vid=2852fe06-4fd0-4b90-b60b-75ab02359f10","ios":"levelo://app?vid=2852fe06-4fd0-4b90-b60b-75ab02359f10"},"vehicle_type_id":"4","last_reported":1738585020,"current_range_meters":17600,"station_id":"ce4bhqh2rcd13ifvqhmg","pricing_plan_id":"cebpf4jnsgd1na2vs0mg"},{"bike_id":"8a04d945-0ce1-4845-92c8-4bd99c5ff0e1","system_id":"levelo_inurba_marseille","lat":43.29634,"lon":5.40596,"is_reserved":false,"is_disabled":false,"rental_uris":{"android":"levelo://app?vid=8a04d945-0ce1-4845-92c8-4bd99c5ff0e1","ios":"levelo://app?vid=8a04d945-0ce1-4845-92c8-4bd99c5ff0e1"},"vehicle_type_id":"4","last_reported":1738585020,"current_range_meters":28800,"station_id":"ce4bh0h2rcd13ifvqd60","pricing_plan_id":"cebpf4jnsgd1na2vs0mg"},{"bike_id":"89887b4f-d13d-48c5-baf0-23a3ebf8279c","system_id":"levelo_inurba_marseille","lat":43.24138,"lon":5.37728,"is_reserved":false,"is_disabled":false,"rental_uris":{"android":"levelo://app?vid=89887b4f-d13d-48c5-baf0-23a3ebf8279c","ios":"levelo://app?vid=89887b4f-d13d-48c5-baf0-23a3ebf8279c"},"vehicle_type_id":"4","last_reported":1738585020,"current_range_meters":38000,"station_id":"","pricing_plan_id":"cebpf4jnsgd1na2vs0mg"},{"bike_id":"a7911a18-229e-4d36-a642-819a80f89d79","system_id":"levelo_inurba_marseille","lat":43.29298,"lon":5.37454,"is_reserved":false,"is_disabled":false,"rental_uris":{"android":"levelo://app?vid=a7911a18-229e-4d36-a642-819a80f89d79","ios":"levelo://app?vid=a7911a18-229e-4d36-a642-819a80f89d79"},"vehicle_type_id":"4","last_reported":1738585020,"current_range_meters":32400,"station_id":"ce4bgi12rcd13ifvqb70","pricing_plan_id":"cebpf4jnsgd1na2vs0mg"},{"bike_id":"deb31e46-8fc2-441f-8c5b-856c485bdb26","system_id":"levelo_inurba_marseille","lat":43.29009,"lon":5.35618,"is_reserved":false,"is_disabled":false,"rental_uris":{"android":"levelo://app?vid=deb31e46-8fc2-441f-8c5b-856c485bdb26","ios":"levelo://app?vid=deb31e46-8fc2-441f-8c5b-856c485bdb26"},"vehicle_type_id":"4","last_reported":1738585020,"current_range_meters":38000,"station_id":"ce4bhb92rcd13ifvqen0","pricing_plan_id":"cebpf4jnsgd1na2vs0mg"},{"bike_id":"e3cf64d0-682b-4edd-94b8-9d8572191ec9","system_id":"levelo_inurba_marseille","lat":43.30134,"lon":5.38792,"is_reserved":false,"is_disabled":false,"rental_uris":{"android":"levelo://app?vid=e3cf64d0-682b-4edd-94b8-9d8572191ec9","ios":"levelo://app?vid=e3cf64d0-682b-4edd-94b8-9d8572191ec9"},"vehicle_type_id":"4","last_reported":1738585020,"current_range_meters":9200,"station_id":"ce4bghh2rcd13ifvqb60","pricing_plan_id":"cebpf4jnsgd1na2vs0mg"},{"bike_id":"336ba170-f212-47ec-a8a9-236ae819b98c","system_id":"levelo_inurba_marseille","lat":43.30877,"lon":5.3718,"is_reserved":false,"is_disabled":false,"rental_uris":{"android":"levelo://app?vid=336ba170-f212-47ec-a8a9-236ae819b98c","ios":"levelo://app?vid=336ba170-f212-47ec-a8a9-236ae819b98c"},"vehicle_type_id":"4","last_reported":1738585020,"current_range_meters":28800,"station_id":"ce4bguh2rcd13ifvqckg","pricing_plan_id":"cebpf4jnsgd1na2vs0mg"},{"bike_id":"41d30d10-c454-494c-8bd4-c394fad5211c","system_id":"levelo_inurba_marseille","lat":43.3248,"lon":5.36583,"is_reserved":false,"is_disabled":false,"rental_uris":{"android":"levelo://app?vid=41d30d10-c454-494c-8bd4-c394fad5211c","ios":"levelo://app?vid=41d30d10-c454-494c-8bd4-c394fad5211c"},"vehicle_type_id":"4","last_reported":1738585020,"current_range_meters":13600,"station_id":"ce4bhs12rcd13ifvqhvg","pricing_plan_id":"cebpf4jnsgd1na2vs0mg"},{"bike_id":"8261f0c6-5745-419b-97b0-ff859095417b","system_id":"levelo_inurba_marseille","lat":43.26697,"lon":5.38279,"is_reserved":false,"is_disabled":false,"rental_uris":{"android":"levelo://app?vid=8261f0c6-5745-419b-97b0-ff859095417b","ios":"levelo://app?vid=8261f0c6-5745-419b-97b0-ff859095417b"},"vehicle_type_id":"4","last_reported":1738585020,"current_range_meters":10000,"station_id":"ce4bhg92rcd13ifvqf90","pricing_plan_id":"cebpf4jnsgd1na2vs0mg"},{"bike_id":"30a60464-4154-4294-86ad-099421500ae0","system_id":"levelo_inurba_marseille","lat":43.31203,"lon":5.36843,"is_reserved":false,"is_disabled":false,"rental_uris":{"android":"levelo://app?vid=30a60464-4154-4294-86ad-099421500ae0","ios":"levelo://app?vid=30a60464-4154-4294-86ad-099421500ae0"},"vehicle_type_id":"4","last_reported":1738585020,"current_range_meters":38800,"station_id":"ce4bgl92rcd13ifvqbq0","pricing_plan_id":"cebpf4jnsgd1na2vs0mg"},{"bike_id":"d84fcdca-c91f-4b90-96af-b490fd4b3889","system_id":"levelo_inurba_marseille","lat":43.2656,"lon":5.39032,"is_reserved":false,"is_disabled":true,"rental_uris":{"android":"levelo://app?vid=d84fcdca-c91f-4b90-96af-b490fd4b3889","ios":"levelo://app?vid=d84fcdca-c91f-4b90-96af-b490fd4b3889"},"vehicle_type_id":"4","last_reported":1738585020,"current_range_meters":38400,"station_id":"ce4bhe12rcd13ifvqf30","pricing_plan_id":"cebpf4jnsgd1na2vs0mg"},{"bike_id":"352f6f96-c126-463b-9a98-d0b9aac09f89","system_id":"levelo_inurba_marseille","lat":43.296,"lon":5.36733,"is_reserved":false,"is_disabled":false,"rental_uris":{"android":"levelo://app?vid=352f6f96-c126-463b-9a98-d0b9aac09f89","ios":"levelo://app?vid=352f6f96-c126-463b-9a98-d0b9aac09f89"},"vehicle_type_id":"4","last_reported":1738585020,"current_range_meters":38800,"station_id":"ce4bgph2rcd13ifvqc2g","pricing_plan_id":"cebpf4jnsgd1na2vs0mg"},{"bike_id":"fd3d96e7-ab9e-49b9-8fde-ad45645e97d7","system_id":"levelo_inurba_marseille","lat":43.3122,"lon":5.36864,"is_reserved":false,"is_disabled":false,"rental_uris":{"android":"levelo://app?vid=fd3d96e7-ab9e-49b9-8fde-ad45645e97d7","ios":"levelo://app?vid=fd3d96e7-ab9e-49b9-8fde-ad45645e97d7"},"vehicle_type_id":"4","last_reported":1738585020,"current_range_meters":23200,"station_id":"ce4bgl92rcd13ifvqbq0","pricing_plan_id":"cebpf4jnsgd1na2vs0mg"},{"bike_id":"ebd54e97-9be8-4143-840e-77c8786e8ad7","system_id":"levelo_inurba_marseille","lat":43.28209,"lon":5.35047,"is_reserved":false,"is_disabled":true,"rental_uris":{"android":"levelo://app?vid=ebd54e97-9be8-4143-840e-77c8786e8ad7","ios":"levelo://app?vid=ebd54e97-9be8-4143-840e-77c8786e8ad7"},"vehicle_type_id":"4","last_reported":1738585020,"current_range_meters":37600,"station_id":"ce4bhbp2rcd13ifvqerg","pricing_plan_id":"cebpf4jnsgd1na2vs0mg"},{"bike_id":"04c1ead7-1f66-46cf-b2ff-72fd2c9c8675","system_id":"levelo_inurba_marseille","lat":43.29942,"lon":5.36549,"is_reserved":false,"is_disabled":false,"rental_uris":{"android":"levelo://app?vid=04c1ead7-1f66-46cf-b2ff-72fd2c9c8675","ios":"levelo://app?vid=04c1ead7-1f66-46cf-b2ff-72fd2c9c8675"},"vehicle_type_id":"4","last_reported":1738585020,"current_range_meters":36400,"station_id":"ce4bgm92rcd13ifvqbr0","pricing_plan_id":"cebpf4jnsgd1na2vs0mg"},{"bike_id":"1061b300-42c6-40c5-863c-b15455188074","system_id":"levelo_inurba_marseille","lat":43.28352,"lon":5.38109,"is_reserved":false,"is_disabled":false,"rental_uris":{"android":"levelo://app?vid=1061b300-42c6-40c5-863c-b15455188074","ios":"levelo://app?vid=1061b300-42c6-40c5-863c-b15455188074"},"vehicle_type_id":"4","last_reported":1738585020,"current_range_meters":33200,"station_id":"ce4bh412rcd13ifvqdr0","pricing_plan_id":"cebpf4jnsgd1na2vs0mg"},{"bike_id":"42941068-8775-4fbe-b97c-a6badbfc56be","system_id":"levelo_inurba_marseille","lat":43.27498,"lon":5.42447,"is_reserved":false,"is_disabled":false,"rental_uris":{"android":"levelo://app?vid=42941068-8775-4fbe-b97c-a6badbfc56be","ios":"levelo://app?vid=42941068-8775-4fbe-b97c-a6badbfc56be"},"vehicle_type_id":"4","last_reported":1738585020,"current_range_meters":19200,"station_id":"ce4bhn92rcd13ifvqgrg","pricing_plan_id":"cebpf4jnsgd1na2vs0mg"},{"bike_id":"bc67551a-b72e-457e-97be-315288e8d718","system_id":"levelo_inurba_marseille","lat":43.30952,"lon":5.39043,"is_reserved":false,"is_disabled":false,"rental_uris":{"android":"levelo://app?vid=bc67551a-b72e-457e-97be-315288e8d718","ios":"levelo://app?vid=bc67551a-b72e-457e-97be-315288e8d718"},"vehicle_type_id":"4","last_reported":1738585020,"current_range_meters":17600,"station_id":"ce4bgup2rcd13ifvqco0","pricing_plan_id":"cebpf4jnsgd1na2vs0mg"},{"bike_id":"d956c0fa-8e81-4a5c-a819-66560ebeacd2","system_id":"levelo_inurba_marseille","lat":43.28163,"lon":5.42638,"is_reserved":false,"is_disabled":false,"rental_uris":{"android":"levelo://app?vid=d956c0fa-8e81-4a5c-a819-66560ebeacd2","ios":"levelo://app?vid=d956c0fa-8e81-4a5c-a819-66560ebeacd2"},"vehicle_type_id":"4","last_reported":1738585020,"current_range_meters":10000,"station_id":"ce4bhnh2rcd13ifvqgug","pricing_plan_id":"cebpf4jnsgd1na2vs0mg"},{"bike_id":"6e349888-fddd-4b81-8c18-298d91b75aa5","system_id":"levelo_inurba_marseille","lat":43.32484,"lon":5.36575,"is_reserved":false,"is_disabled":false,"rental_uris":{"android":"levelo://app?vid=6e349888-fddd-4b81-8c18-298d91b75aa5","ios":"levelo://app?vid=6e349888-fddd-4b81-8c18-298d91b75aa5"},"vehicle_type_id":"4","last_reported":1738585020,"current_range_meters":30000,"station_id":"ce4bhs12rcd13ifvqhvg","pricing_plan_id":"cebpf4jnsgd1na2vs0mg"},{"bike_id":"1fe8819b-7ab4-4e22-a0d2-b24e3e952e5d","system_id":"levelo_inurba_marseille","lat":43.32487,"lon":5.36571,"is_reserved":false,"is_disabled":false,"rental_uris":{"android":"levelo://app?vid=1fe8819b-7ab4-4e22-a0d2-b24e3e952e5d","ios":"levelo://app?vid=1fe8819b-7ab4-4e22-a0d2-b24e3e952e5d"},"vehicle_type_id":"4","last_reported":1738585020,"current_range_meters":39200,"station_id":"ce4bhs12rcd13ifvqhvg","pricing_plan_id":"cebpf4jnsgd1na2vs0mg"},{"bike_id":"2aa0e513-d6ea-4559-bfd6-c465864d429e","system_id":"levelo_inurba_marseille","lat":43.28935,"lon":5.3663,"is_reserved":false,"is_disabled":true,"rental_uris":{"android":"levelo://app?vid=2aa0e513-d6ea-4559-bfd6-c465864d429e","ios":"levelo://app?vid=2aa0e513-d6ea-4559-bfd6-c465864d429e"},"vehicle_type_id":"4","last_reported":1738585020,"current_range_meters":25200,"station_id":"ce4bhap2rcd13ifvqek0","pricing_plan_id":"cebpf4jnsgd1na2vs0mg"},{"bike_id":"120ab0c5-4a0e-4964-b46c-ea0a87d62b1f","system_id":"levelo_inurba_marseille","lat":43.28483,"lon":5.35865,"is_reserved":false,"is_disabled":false,"rental_uris":{"android":"levelo://app?vid=120ab0c5-4a0e-4964-b46c-ea0a87d62b1f","ios":"levelo://app?vid=120ab0c5-4a0e-4964-b46c-ea0a87d62b1f"},"vehicle_type_id":"4","last_reported":1738585020,"current_range_meters":38800,"station_id":"ce4bhah2rcd13ifvqei0","pricing_plan_id":"cebpf4jnsgd1na2vs0mg"},{"bike_id":"7e41b44b-247e-43f5-8fb5-eb6b4979acbd","system_id":"levelo_inurba_marseille","lat":43.2845,"lon":5.3845,"is_reserved":false,"is_disabled":false,"rental_uris":{"android":"levelo://app?vid=7e41b44b-247e-43f5-8fb5-eb6b4979acbd","ios":"levelo://app?vid=7e41b44b-247e-43f5-8fb5-eb6b4979acbd"},"vehicle_type_id":"4","last_reported":1738585020,"current_range_meters":30400,"station_id":"ce4bh512rcd13ifvqe3g","pricing_plan_id":"cebpf4jnsgd1na2vs0mg"},{"bike_id":"9852d283-9027-465c-82cf-12dda472aabb","system_id":"levelo_inurba_marseille","lat":43.30536,"lon":5.36683,"is_reserved":false,"is_disabled":false,"rental_uris":{"android":"levelo://app?vid=9852d283-9027-465c-82cf-12dda472aabb","ios":"levelo://app?vid=9852d283-9027-465c-82cf-12dda472aabb"},"vehicle_type_id":"4","last_reported":1738585020,"current_range_meters":34000,"station_id":"ce4bgrp2rcd13ifvqc9g","pricing_plan_id":"cebpf4jnsgd1na2vs0mg"},{"bike_id":"20e08c27-f0f9-4064-a833-9891dc0bf30e","system_id":"levelo_inurba_marseille","lat":43.28357,"lon":5.38116,"is_reserved":false,"is_disabled":false,"rental_uris":{"android":"levelo://app?vid=20e08c27-f0f9-4064-a833-9891dc0bf30e","ios":"levelo://app?vid=20e08c27-f0f9-4064-a833-9891dc0bf30e"},"vehicle_type_id":"4","last_reported":1738585020,"current_range_meters":2800,"station_id":"ce4bh412rcd13ifvqdr0","pricing_plan_id":"cebpf4jnsgd1na2vs0mg"},{"bike_id":"6f99bdd8-0664-4844-8e13-433c83a27ef2","system_id":"levelo_inurba_marseille","lat":43.26701,"lon":5.38282,"is_reserved":false,"is_disabled":false,"rental_uris":{"android":"levelo://app?vid=6f99bdd8-0664-4844-8e13-433c83a27ef2","ios":"levelo://app?vid=6f99bdd8-0664-4844-8e13-433c83a27ef2"},"vehicle_type_id":"4","last_reported":1738585020,"current_range_meters":38800,"station_id":"ce4bhg92rcd13ifvqf90","pricing_plan_id":"cebpf4jnsgd1na2vs0mg"},{"bike_id":"a64a476d-3484-4645-9c4c-08ee89631d7e","system_id":"levelo_inurba_marseille","lat":43.27059,"lon":5.40273,"is_reserved":false,"is_disabled":false,"rental_uris":{"android":"levelo://app?vid=a64a476d-3484-4645-9c4c-08ee89631d7e","ios":"levelo://app?vid=a64a476d-3484-4645-9c4c-08ee89631d7e"},"vehicle_type_id":"4","last_reported":1738585020,"current_range_meters":25200,"station_id":"ce4bhk92rcd13ifvqgc0","pricing_plan_id":"cebpf4jnsgd1na2vs0mg"},{"bike_id":"b8a10bf8-9efc-40f9-befa-1c1b083e6e8f","system_id":"levelo_inurba_marseille","lat":43.30142,"lon":5.37414,"is_reserved":false,"is_disabled":false,"rental_uris":{"android":"levelo://app?vid=b8a10bf8-9efc-40f9-befa-1c1b083e6e8f","ios":"levelo://app?vid=b8a10bf8-9efc-40f9-befa-1c1b083e6e8f"},"vehicle_type_id":"4","last_reported":1738585020,"current_range_meters":24800,"station_id":"ce4bgs92rcd13ifvqcc0","pricing_plan_id":"cebpf4jnsgd1na2vs0mg"},{"bike_id":"4922d910-738e-4c32-b977-abc56876919c","system_id":"levelo_inurba_marseille","lat":43.32467,"lon":5.36548,"is_reserved":false,"is_disabled":false,"rental_uris":{"android":"levelo://app?vid=4922d910-738e-4c32-b977-abc56876919c","ios":"levelo://app?vid=4922d910-738e-4c32-b977-abc56876919c"},"vehicle_type_id":"4","last_reported":1738585020,"current_range_meters":32000,"station_id":"ce4bhs12rcd13ifvqhvg","pricing_plan_id":"cebpf4jnsgd1na2vs0mg"},{"bike_id":"88f6ec14-1047-428a-bfc8-ed7564b679d3","system_id":"levelo_inurba_marseille","lat":43.24399,"lon":5.37067,"is_reserved":false,"is_disabled":false,"rental_uris":{"android":"levelo://app?vid=88f6ec14-1047-428a-bfc8-ed7564b679d3","ios":"levelo://app?vid=88f6ec14-1047-428a-bfc8-ed7564b679d3"},"vehicle_type_id":"4","last_reported":1738585020,"current_range_meters":8400,"station_id":"ce4bhhh2rcd13ifvqfk0","pricing_plan_id":"cebpf4jnsgd1na2vs0mg"},{"bike_id":"2c2a9490-2674-4529-baa0-aae73696b085","system_id":"levelo_inurba_marseille","lat":43.2929,"lon":5.36862,"is_reserved":false,"is_disabled":true,"rental_uris":{"android":"levelo://app?vid=2c2a9490-2674-4529-baa0-aae73696b085","ios":"levelo://app?vid=2c2a9490-2674-4529-baa0-aae73696b085"},"vehicle_type_id":"4","last_reported":1738585020,"current_range_meters":36400,"station_id":"ce4bhbp2rcd13ifvqesg","pricing_plan_id":"cebpf4jnsgd1na2vs0mg"},{"bike_id":"b238d109-7573-4ab1-97c7-ebb4220ae2eb","system_id":"levelo_inurba_marseille","lat":43.33737,"lon":5.3918,"is_reserved":false,"is_disabled":false,"rental_uris":{"android":"levelo://app?vid=b238d109-7573-4ab1-97c7-ebb4220ae2eb","ios":"levelo://app?vid=b238d109-7573-4ab1-97c7-ebb4220ae2eb"},"vehicle_type_id":"4","last_reported":1738585020,"current_range_meters":38800,"station_id":"ce4bhr92rcd13ifvqhsg","pricing_plan_id":"cebpf4jnsgd1na2vs0mg"},{"bike_id":"fad26299-4859-48d9-af16-461be31a4018","system_id":"levelo_inurba_marseille","lat":43.23205,"lon":5.40022,"is_reserved":false,"is_disabled":true,"rental_uris":{"android":"levelo://app?vid=fad26299-4859-48d9-af16-461be31a4018","ios":"levelo://app?vid=fad26299-4859-48d9-af16-461be31a4018"},"vehicle_type_id":"4","last_reported":1738585020,"current_range_meters":1600,"station_id":"ce4bhn12rcd13ifvqgqg","pricing_plan_id":"cebpf4jnsgd1na2vs0mg"},{"bike_id":"737292e1-4a7b-4742-800d-578ccd528124","system_id":"levelo_inurba_marseille","lat":43.24078,"lon":5.37744,"is_reserved":false,"is_disabled":false,"rental_uris":{"android":"levelo://app?vid=737292e1-4a7b-4742-800d-578ccd528124","ios":"levelo://app?vid=737292e1-4a7b-4742-800d-578ccd528124"},"vehicle_type_id":"4","last_reported":1738585020,"current_range_meters":37600,"station_id":"ce4bhnp2rcd13ifvqgvg","pricing_plan_id":"cebpf4jnsgd1na2vs0mg"},{"bike_id":"330b3d2d-d2cc-48ed-812f-2962ec3cf786","system_id":"levelo_inurba_marseille","lat":43.26548,"lon":5.39047,"is_reserved":false,"is_disabled":true,"rental_uris":{"android":"levelo://app?vid=330b3d2d-d2cc-48ed-812f-2962ec3cf786","ios":"levelo://app?vid=330b3d2d-d2cc-48ed-812f-2962ec3cf786"},"vehicle_type_id":"4","last_reported":1738585020,"current_range_meters":29600,"station_id":"ce4bhe12rcd13ifvqf30","pricing_plan_id":"cebpf4jnsgd1na2vs0mg"},{"bike_id":"303e4d28-92a5-40f0-84ab-0b370010d297","system_id":"levelo_inurba_marseille","lat":43.28154,"lon":5.42642,"is_reserved":false,"is_disabled":false,"rental_uris":{"android":"levelo://app?vid=303e4d28-92a5-40f0-84ab-0b370010d297","ios":"levelo://app?vid=303e4d28-92a5-40f0-84ab-0b370010d297"},"vehicle_type_id":"4","last_reported":1738585020,"current_range_meters":27200,"station_id":"ce4bhnh2rcd13ifvqgug","pricing_plan_id":"cebpf4jnsgd1na2vs0mg"},{"bike_id":"1fb30077-06c1-443f-ae4b-592c22714fbd","system_id":"levelo_inurba_marseille","lat":43.2963,"lon":5.37153,"is_reserved":false,"is_disabled":false,"rental_uris":{"android":"levelo://app?vid=1fb30077-06c1-443f-ae4b-592c22714fbd","ios":"levelo://app?vid=1fb30077-06c1-443f-ae4b-592c22714fbd"},"vehicle_type_id":"4","last_reported":1738585020,"current_range_meters":32400,"station_id":"ce4bgnh2rcd13ifvqc0g","pricing_plan_id":"cebpf4jnsgd1na2vs0mg"},{"bike_id":"c43f90a4-4b1f-4ce5-8387-2e03ffe8cd54","system_id":"levelo_inurba_marseille","lat":43.3013,"lon":5.38791,"is_reserved":false,"is_disabled":false,"rental_uris":{"android":"levelo://app?vid=c43f90a4-4b1f-4ce5-8387-2e03ffe8cd54","ios":"levelo://app?vid=c43f90a4-4b1f-4ce5-8387-2e03ffe8cd54"},"vehicle_type_id":"4","last_reported":1738585020,"current_range_meters":36400,"station_id":"ce4bghh2rcd13ifvqb60","pricing_plan_id":"cebpf4jnsgd1na2vs0mg"},{"bike_id":"a1cecde7-649f-4649-b593-274521c6fb10","system_id":"levelo_inurba_marseille","lat":43.32476,"lon":5.3657,"is_reserved":false,"is_disabled":false,"rental_uris":{"android":"levelo://app?vid=a1cecde7-649f-4649-b593-274521c6fb10","ios":"levelo://app?vid=a1cecde7-649f-4649-b593-274521c6fb10"},"vehicle_type_id":"4","last_reported":1738585020,"current_range_meters":36000,"station_id":"ce4bhs12rcd13ifvqhvg","pricing_plan_id":"cebpf4jnsgd1na2vs0mg"},{"bike_id":"649532be-fa76-4383-be23-503598f86cf3","system_id":"levelo_inurba_marseille","lat":43.24994,"lon":5.38938,"is_reserved":false,"is_disabled":false,"rental_uris":{"android":"levelo://app?vid=649532be-fa76-4383-be23-503598f86cf3","ios":"levelo://app?vid=649532be-fa76-4383-be23-503598f86cf3"},"vehicle_type_id":"4","last_reported":1738585020,"current_range_meters":28400,"station_id":"ce4bhgp2rcd13ifvqfd0","pricing_plan_id":"cebpf4jnsgd1na2vs0mg"},{"bike_id":"30e962a5-ed17-4781-966d-335d338660e0","system_id":"levelo_inurba_marseille","lat":43.30814,"lon":5.43502,"is_reserved":false,"is_disabled":false,"rental_uris":{"android":"levelo://app?vid=30e962a5-ed17-4781-966d-335d338660e0","ios":"levelo://app?vid=30e962a5-ed17-4781-966d-335d338660e0"},"vehicle_type_id":"4","last_reported":1738585020,"current_range_meters":18000,"station_id":"","pricing_plan_id":"cebpf4jnsgd1na2vs0mg"},{"bike_id":"43a7f4e1-4bdb-4c85-b96c-d7e2dbc90838","system_id":"levelo_inurba_marseille","lat":43.32105,"lon":5.36791,"is_reserved":false,"is_disabled":false,"rental_uris":{"android":"levelo://app?vid=43a7f4e1-4bdb-4c85-b96c-d7e2dbc90838","ios":"levelo://app?vid=43a7f4e1-4bdb-4c85-b96c-d7e2dbc90838"},"vehicle_type_id":"4","last_reported":1738585020,"current_range_meters":38800,"station_id":"ce4bhrh2rcd13ifvqhug","pricing_plan_id":"cebpf4jnsgd1na2vs0mg"},{"bike_id":"d88c47ab-9304-4160-8509-2cd8bedeb1d7","system_id":"levelo_inurba_marseille","lat":43.30285,"lon":5.37721,"is_reserved":false,"is_disabled":false,"rental_uris":{"android":"levelo://app?vid=d88c47ab-9304-4160-8509-2cd8bedeb1d7","ios":"levelo://app?vid=d88c47ab-9304-4160-8509-2cd8bedeb1d7"},"vehicle_type_id":"4","last_reported":1738585020,"current_range_meters":30400,"station_id":"ce4bguh2rcd13ifvqcj0","pricing_plan_id":"cebpf4jnsgd1na2vs0mg"},{"bike_id":"d08ca28b-23df-4eba-b7b5-7910c4aa69d2","system_id":"levelo_inurba_marseille","lat":43.32486,"lon":5.36563,"is_reserved":false,"is_disabled":false,"rental_uris":{"android":"levelo://app?vid=d08ca28b-23df-4eba-b7b5-7910c4aa69d2","ios":"levelo://app?vid=d08ca28b-23df-4eba-b7b5-7910c4aa69d2"},"vehicle_type_id":"4","last_reported":1738585020,"current_range_meters":38400,"station_id":"ce4bhs12rcd13ifvqhvg","pricing_plan_id":"cebpf4jnsgd1na2vs0mg"},{"bike_id":"15ef06a7-5052-435f-bab0-6c1a8820daa0","system_id":"levelo_inurba_marseille","lat":43.24983,"lon":5.38932,"is_reserved":false,"is_disabled":false,"rental_uris":{"android":"levelo://app?vid=15ef06a7-5052-435f-bab0-6c1a8820daa0","ios":"levelo://app?vid=15ef06a7-5052-435f-bab0-6c1a8820daa0"},"vehicle_type_id":"4","last_reported":1738585020,"current_range_meters":22800,"station_id":"ce4bhgp2rcd13ifvqfd0","pricing_plan_id":"cebpf4jnsgd1na2vs0mg"},{"bike_id":"0743b2ad-1d8d-4c13-8b00-57c9d01b1228","system_id":"levelo_inurba_marseille","lat":43.24151,"lon":5.36428,"is_reserved":false,"is_disabled":false,"rental_uris":{"android":"levelo://app?vid=0743b2ad-1d8d-4c13-8b00-57c9d01b1228","ios":"levelo://app?vid=0743b2ad-1d8d-4c13-8b00-57c9d01b1228"},"vehicle_type_id":"4","last_reported":1738585020,"current_range_meters":25600,"station_id":"cpo36qri1sfpv3e86is0","pricing_plan_id":"cebpf4jnsgd1na2vs0mg"},{"bike_id":"2cbd5193-ddde-4715-a2bf-e1cb8bb201c9","system_id":"levelo_inurba_marseille","lat":43.2849,"lon":5.38432,"is_reserved":false,"is_disabled":true,"rental_uris":{"android":"levelo://app?vid=2cbd5193-ddde-4715-a2bf-e1cb8bb201c9","ios":"levelo://app?vid=2cbd5193-ddde-4715-a2bf-e1cb8bb201c9"},"vehicle_type_id":"4","last_reported":1738585020,"current_range_meters":0,"station_id":"ce4bh512rcd13ifvqe3g","pricing_plan_id":"cebpf4jnsgd1na2vs0mg"},{"bike_id":"f3ad409c-406e-4da8-9f97-60c8fbb150d7","system_id":"levelo_inurba_marseille","lat":43.2678,"lon":5.39417,"is_reserved":false,"is_disabled":false,"rental_uris":{"android":"levelo://app?vid=f3ad409c-406e-4da8-9f97-60c8fbb150d7","ios":"levelo://app?vid=f3ad409c-406e-4da8-9f97-60c8fbb150d7"},"vehicle_type_id":"4","last_reported":1738585020,"current_range_meters":33200,"station_id":"ce4bhh12rcd13ifvqfg0","pricing_plan_id":"cebpf4jnsgd1na2vs0mg"},{"bike_id":"4a18fa25-a72b-4cad-ab40-77dc9d93d71e","system_id":"levelo_inurba_marseille","lat":43.28419,"lon":5.37499,"is_reserved":false,"is_disabled":true,"rental_uris":{"android":"levelo://app?vid=4a18fa25-a72b-4cad-ab40-77dc9d93d71e","ios":"levelo://app?vid=4a18fa25-a72b-4cad-ab40-77dc9d93d71e"},"vehicle_type_id":"4","last_reported":1738585020,"current_range_meters":0,"station_id":"ce4bh412rcd13ifvqds0","pricing_plan_id":"cebpf4jnsgd1na2vs0mg"},{"bike_id":"63e07253-0fb0-4d82-bd4b-95bc720848fe","system_id":"levelo_inurba_marseille","lat":43.27074,"lon":5.4228,"is_reserved":false,"is_disabled":false,"rental_uris":{"android":"levelo://app?vid=63e07253-0fb0-4d82-bd4b-95bc720848fe","ios":"levelo://app?vid=63e07253-0fb0-4d82-bd4b-95bc720848fe"},"vehicle_type_id":"4","last_reported":1738585020,"current_range_meters":37600,"station_id":"ce4bhk92rcd13ifvqgb0","pricing_plan_id":"cebpf4jnsgd1na2vs0mg"},{"bike_id":"7aa16bb2-4e7b-4c67-bac1-d59f57d66070","system_id":"levelo_inurba_marseille","lat":43.26681,"lon":5.38267,"is_reserved":false,"is_disabled":false,"rental_uris":{"android":"levelo://app?vid=7aa16bb2-4e7b-4c67-bac1-d59f57d66070","ios":"levelo://app?vid=7aa16bb2-4e7b-4c67-bac1-d59f57d66070"},"vehicle_type_id":"4","last_reported":1738585020,"current_range_meters":38000,"station_id":"ce4bhg92rcd13ifvqf90","pricing_plan_id":"cebpf4jnsgd1na2vs0mg"},{"bike_id":"30e2f64a-1993-4f6e-8293-e82a342923f7","system_id":"levelo_inurba_marseille","lat":43.28726,"lon":5.37934,"is_reserved":false,"is_disabled":false,"rental_uris":{"android":"levelo://app?vid=30e2f64a-1993-4f6e-8293-e82a342923f7","ios":"levelo://app?vid=30e2f64a-1993-4f6e-8293-e82a342923f7"},"vehicle_type_id":"4","last_reported":1738585020,"current_range_meters":28400,"station_id":"ce4bh9p2rcd13ifvqec0","pricing_plan_id":"cebpf4jnsgd1na2vs0mg"},{"bike_id":"a5895662-a2a0-45fe-9f28-0256c1c1f3cd","system_id":"levelo_inurba_marseille","lat":43.29616,"lon":5.37723,"is_reserved":false,"is_disabled":false,"rental_uris":{"android":"levelo://app?vid=a5895662-a2a0-45fe-9f28-0256c1c1f3cd","ios":"levelo://app?vid=a5895662-a2a0-45fe-9f28-0256c1c1f3cd"},"vehicle_type_id":"4","last_reported":1738585020,"current_range_meters":30400,"station_id":"ce4bgi92rcd13ifvqb90","pricing_plan_id":"cebpf4jnsgd1na2vs0mg"},{"bike_id":"2400e173-e992-4c8a-9c65-360a6aa3568c","system_id":"levelo_inurba_marseille","lat":43.2397,"lon":5.36632,"is_reserved":false,"is_disabled":false,"rental_uris":{"android":"levelo://app?vid=2400e173-e992-4c8a-9c65-360a6aa3568c","ios":"levelo://app?vid=2400e173-e992-4c8a-9c65-360a6aa3568c"},"vehicle_type_id":"4","last_reported":1738585020,"current_range_meters":38000,"station_id":"ce4bhi12rcd13ifvqfp0","pricing_plan_id":"cebpf4jnsgd1na2vs0mg"},{"bike_id":"5609a2f8-2fc6-4e4a-88fe-721e3e98729a","system_id":"levelo_inurba_marseille","lat":43.28644,"lon":5.35097,"is_reserved":false,"is_disabled":false,"rental_uris":{"android":"levelo://app?vid=5609a2f8-2fc6-4e4a-88fe-721e3e98729a","ios":"levelo://app?vid=5609a2f8-2fc6-4e4a-88fe-721e3e98729a"},"vehicle_type_id":"4","last_reported":1738585020,"current_range_meters":30000,"station_id":"ce4bhch2rcd13ifvqeug","pricing_plan_id":"cebpf4jnsgd1na2vs0mg"},{"bike_id":"3aed385c-1e80-4ac2-848e-7aa7423c10d8","system_id":"levelo_inurba_marseille","lat":43.2408,"lon":5.37778,"is_reserved":false,"is_disabled":false,"rental_uris":{"android":"levelo://app?vid=3aed385c-1e80-4ac2-848e-7aa7423c10d8","ios":"levelo://app?vid=3aed385c-1e80-4ac2-848e-7aa7423c10d8"},"vehicle_type_id":"4","last_reported":1738585020,"current_range_meters":10800,"station_id":"ce4bhnp2rcd13ifvqgvg","pricing_plan_id":"cebpf4jnsgd1na2vs0mg"},{"bike_id":"895b886d-f041-450f-bbc7-c95d89abf42f","system_id":"levelo_inurba_marseille","lat":43.31131,"lon":5.38048,"is_reserved":false,"is_disabled":false,"rental_uris":{"android":"levelo://app?vid=895b886d-f041-450f-bbc7-c95d89abf42f","ios":"levelo://app?vid=895b886d-f041-450f-bbc7-c95d89abf42f"},"vehicle_type_id":"4","last_reported":1738585020,"current_range_meters":30400,"station_id":"","pricing_plan_id":"cebpf4jnsgd1na2vs0mg"},{"bike_id":"72f041c0-9dd1-4889-acb7-a6df29397ade","system_id":"levelo_inurba_marseille","lat":43.28157,"lon":5.4263,"is_reserved":false,"is_disabled":false,"rental_uris":{"android":"levelo://app?vid=72f041c0-9dd1-4889-acb7-a6df29397ade","ios":"levelo://app?vid=72f041c0-9dd1-4889-acb7-a6df29397ade"},"vehicle_type_id":"4","last_reported":1738585020,"current_range_meters":30400,"station_id":"ce4bhnh2rcd13ifvqgug","pricing_plan_id":"cebpf4jnsgd1na2vs0mg"},{"bike_id":"428d75e2-39d8-469c-999e-be5c80142ac1","system_id":"levelo_inurba_marseille","lat":43.30159,"lon":5.38084,"is_reserved":false,"is_disabled":false,"rental_uris":{"android":"levelo://app?vid=428d75e2-39d8-469c-999e-be5c80142ac1","ios":"levelo://app?vid=428d75e2-39d8-469c-999e-be5c80142ac1"},"vehicle_type_id":"4","last_reported":1738585020,"current_range_meters":38800,"station_id":"ce4bgjp2rcd13ifvqbh0","pricing_plan_id":"cebpf4jnsgd1na2vs0mg"},{"bike_id":"99630b4f-d397-4cd1-b643-a51d074b76bb","system_id":"levelo_inurba_marseille","lat":43.28464,"lon":5.35891,"is_reserved":false,"is_disabled":false,"rental_uris":{"android":"levelo://app?vid=99630b4f-d397-4cd1-b643-a51d074b76bb","ios":"levelo://app?vid=99630b4f-d397-4cd1-b643-a51d074b76bb"},"vehicle_type_id":"4","last_reported":1738585020,"current_range_meters":38800,"station_id":"ce4bhah2rcd13ifvqei0","pricing_plan_id":"cebpf4jnsgd1na2vs0mg"},{"bike_id":"8d97698f-0779-4e6a-95f4-183fb5dfc5de","system_id":"levelo_inurba_marseille","lat":43.30886,"lon":5.39657,"is_reserved":false,"is_disabled":false,"rental_uris":{"android":"levelo://app?vid=8d97698f-0779-4e6a-95f4-183fb5dfc5de","ios":"levelo://app?vid=8d97698f-0779-4e6a-95f4-183fb5dfc5de"},"vehicle_type_id":"4","last_reported":1738585020,"current_range_meters":18000,"station_id":"ce4bh012rcd13ifvqcv0","pricing_plan_id":"cebpf4jnsgd1na2vs0mg"},{"bike_id":"dfca75c2-55e3-4e13-8b26-4b6ce664ebef","system_id":"levelo_inurba_marseille","lat":43.28413,"lon":5.34984,"is_reserved":false,"is_disabled":false,"rental_uris":{"android":"levelo://app?vid=dfca75c2-55e3-4e13-8b26-4b6ce664ebef","ios":"levelo://app?vid=dfca75c2-55e3-4e13-8b26-4b6ce664ebef"},"vehicle_type_id":"4","last_reported":1738585020,"current_range_meters":9600,"station_id":"ce4bhbh2rcd13ifvqepg","pricing_plan_id":"cebpf4jnsgd1na2vs0mg"},{"bike_id":"fa93e64e-1c03-4fca-b4dd-d80824f49ad3","system_id":"levelo_inurba_marseille","lat":43.31357,"lon":5.36722,"is_reserved":false,"is_disabled":false,"rental_uris":{"android":"levelo://app?vid=fa93e64e-1c03-4fca-b4dd-d80824f49ad3","ios":"levelo://app?vid=fa93e64e-1c03-4fca-b4dd-d80824f49ad3"},"vehicle_type_id":"4","last_reported":1738585020,"current_range_meters":21600,"station_id":"ce4bgr92rcd13ifvqc6g","pricing_plan_id":"cebpf4jnsgd1na2vs0mg"},{"bike_id":"339024e8-3d81-4c07-84dd-594593317646","system_id":"levelo_inurba_marseille","lat":43.30529,"lon":5.36709,"is_reserved":false,"is_disabled":false,"rental_uris":{"android":"levelo://app?vid=339024e8-3d81-4c07-84dd-594593317646","ios":"levelo://app?vid=339024e8-3d81-4c07-84dd-594593317646"},"vehicle_type_id":"4","last_reported":1738585020,"current_range_meters":18800,"station_id":"ce4bgrp2rcd13ifvqc9g","pricing_plan_id":"cebpf4jnsgd1na2vs0mg"},{"bike_id":"31eab966-deca-4b8d-8aa1-0cd7925ce34e","system_id":"levelo_inurba_marseille","lat":43.2319,"lon":5.3998,"is_reserved":false,"is_disabled":false,"rental_uris":{"android":"levelo://app?vid=31eab966-deca-4b8d-8aa1-0cd7925ce34e","ios":"levelo://app?vid=31eab966-deca-4b8d-8aa1-0cd7925ce34e"},"vehicle_type_id":"4","last_reported":1738585020,"current_range_meters":30000,"station_id":"ce4bhn12rcd13ifvqgqg","pricing_plan_id":"cebpf4jnsgd1na2vs0mg"},{"bike_id":"69ab4131-8e27-4dc2-a773-cc2c675545c9","system_id":"levelo_inurba_marseille","lat":43.30898,"lon":5.36856,"is_reserved":false,"is_disabled":false,"rental_uris":{"android":"levelo://app?vid=69ab4131-8e27-4dc2-a773-cc2c675545c9","ios":"levelo://app?vid=69ab4131-8e27-4dc2-a773-cc2c675545c9"},"vehicle_type_id":"4","last_reported":1738585020,"current_range_meters":30000,"station_id":"ce4bgn92rcd13ifvqbvg","pricing_plan_id":"cebpf4jnsgd1na2vs0mg"},{"bike_id":"6c6c726a-e693-48c2-a025-c3761e5c92dd","system_id":"levelo_inurba_marseille","lat":43.27805,"lon":5.40718,"is_reserved":false,"is_disabled":false,"rental_uris":{"android":"levelo://app?vid=6c6c726a-e693-48c2-a025-c3761e5c92dd","ios":"levelo://app?vid=6c6c726a-e693-48c2-a025-c3761e5c92dd"},"vehicle_type_id":"4","last_reported":1738585020,"current_range_meters":38800,"station_id":"ce4bhnh2rcd13ifvqgtg","pricing_plan_id":"cebpf4jnsgd1na2vs0mg"},{"bike_id":"432bc086-190c-49bd-9f0f-b7d592e08498","system_id":"levelo_inurba_marseille","lat":43.23161,"lon":5.43699,"is_reserved":false,"is_disabled":false,"rental_uris":{"android":"levelo://app?vid=432bc086-190c-49bd-9f0f-b7d592e08498","ios":"levelo://app?vid=432bc086-190c-49bd-9f0f-b7d592e08498"},"vehicle_type_id":"4","last_reported":1738585020,"current_range_meters":19600,"station_id":"ce4bhmp2rcd13ifvqgog","pricing_plan_id":"cebpf4jnsgd1na2vs0mg"},{"bike_id":"905522ef-d4d4-4a33-8994-defbf52775ca","system_id":"levelo_inurba_marseille","lat":43.26215,"lon":5.40427,"is_reserved":false,"is_disabled":true,"rental_uris":{"android":"levelo://app?vid=905522ef-d4d4-4a33-8994-defbf52775ca","ios":"levelo://app?vid=905522ef-d4d4-4a33-8994-defbf52775ca"},"vehicle_type_id":"4","last_reported":1738585020,"current_range_meters":0,"station_id":"ce4bhmh2rcd13ifvqgmg","pricing_plan_id":"cebpf4jnsgd1na2vs0mg"},{"bike_id":"89cf1a55-9242-4d8c-98f0-52f9fba8fecb","system_id":"levelo_inurba_marseille","lat":43.30465,"lon":5.37895,"is_reserved":false,"is_disabled":false,"rental_uris":{"android":"levelo://app?vid=89cf1a55-9242-4d8c-98f0-52f9fba8fecb","ios":"levelo://app?vid=89cf1a55-9242-4d8c-98f0-52f9fba8fecb"},"vehicle_type_id":"4","last_reported":1738585020,"current_range_meters":38800,"station_id":"ce4bgup2rcd13ifvqcn0","pricing_plan_id":"cebpf4jnsgd1na2vs0mg"},{"bike_id":"3034d64e-f78e-468c-b4d6-2520a053438f","system_id":"levelo_inurba_marseille","lat":43.23192,"lon":5.39992,"is_reserved":false,"is_disabled":true,"rental_uris":{"android":"levelo://app?vid=3034d64e-f78e-468c-b4d6-2520a053438f","ios":"levelo://app?vid=3034d64e-f78e-468c-b4d6-2520a053438f"},"vehicle_type_id":"4","last_reported":1738585020,"current_range_meters":16800,"station_id":"ce4bhn12rcd13ifvqgqg","pricing_plan_id":"cebpf4jnsgd1na2vs0mg"},{"bike_id":"d90e136c-19fb-4606-b68d-750f0f50132a","system_id":"levelo_inurba_marseille","lat":43.23148,"lon":5.43705,"is_reserved":false,"is_disabled":true,"rental_uris":{"android":"levelo://app?vid=d90e136c-19fb-4606-b68d-750f0f50132a","ios":"levelo://app?vid=d90e136c-19fb-4606-b68d-750f0f50132a"},"vehicle_type_id":"4","last_reported":1738585020,"current_range_meters":0,"station_id":"ce4bhmp2rcd13ifvqgog","pricing_plan_id":"cebpf4jnsgd1na2vs0mg"},{"bike_id":"3a2e06a7-2c9d-43ba-8210-1b3100957aaa","system_id":"levelo_inurba_marseille","lat":43.29007,"lon":5.35589,"is_reserved":false,"is_disabled":false,"rental_uris":{"android":"levelo://app?vid=3a2e06a7-2c9d-43ba-8210-1b3100957aaa","ios":"levelo://app?vid=3a2e06a7-2c9d-43ba-8210-1b3100957aaa"},"vehicle_type_id":"4","last_reported":1738585020,"current_range_meters":27600,"station_id":"ce4bhb92rcd13ifvqen0","pricing_plan_id":"cebpf4jnsgd1na2vs0mg"},{"bike_id":"451c5b81-bb70-420d-969f-f64a8bb875bb","system_id":"levelo_inurba_marseille","lat":43.25116,"lon":5.40322,"is_reserved":false,"is_disabled":false,"rental_uris":{"android":"levelo://app?vid=451c5b81-bb70-420d-969f-f64a8bb875bb","ios":"levelo://app?vid=451c5b81-bb70-420d-969f-f64a8bb875bb"},"vehicle_type_id":"4","last_reported":1738585020,"current_range_meters":19600,"station_id":"ce4bhlh2rcd13ifvqgig","pricing_plan_id":"cebpf4jnsgd1na2vs0mg"},{"bike_id":"8f810d5d-88f6-432c-ab7e-f7109c887e5b","system_id":"levelo_inurba_marseille","lat":43.28687,"lon":5.40007,"is_reserved":false,"is_disabled":false,"rental_uris":{"android":"levelo://app?vid=8f810d5d-88f6-432c-ab7e-f7109c887e5b","ios":"levelo://app?vid=8f810d5d-88f6-432c-ab7e-f7109c887e5b"},"vehicle_type_id":"4","last_reported":1738585020,"current_range_meters":25600,"station_id":"ce4bho92rcd13ifvqh3g","pricing_plan_id":"cebpf4jnsgd1na2vs0mg"},{"bike_id":"9e768907-2758-4663-849c-1bfedc158f31","system_id":"levelo_inurba_marseille","lat":43.279114,"lon":5.395864,"is_reserved":false,"is_disabled":true,"rental_uris":{"android":"levelo://app?vid=9e768907-2758-4663-849c-1bfedc158f31","ios":"levelo://app?vid=9e768907-2758-4663-849c-1bfedc158f31"},"vehicle_type_id":"4","last_reported":1738585020,"current_range_meters":0,"station_id":"ce4bhf92rcd13ifvqf40","pricing_plan_id":"cebpf4jnsgd1na2vs0mg"},{"bike_id":"aa9462c4-d8ab-474f-9e59-bd021459ce10","system_id":"levelo_inurba_marseille","lat":43.26058,"lon":5.39418,"is_reserved":false,"is_disabled":false,"rental_uris":{"android":"levelo://app?vid=aa9462c4-d8ab-474f-9e59-bd021459ce10","ios":"levelo://app?vid=aa9462c4-d8ab-474f-9e59-bd021459ce10"},"vehicle_type_id":"4","last_reported":1738585020,"current_range_meters":38800,"station_id":"ce4bhh92rcd13ifvqfj0","pricing_plan_id":"cebpf4jnsgd1na2vs0mg"},{"bike_id":"4de48d8b-dc2e-433c-8427-ccbe26fd4d06","system_id":"levelo_inurba_marseille","lat":43.33724,"lon":5.39184,"is_reserved":false,"is_disabled":false,"rental_uris":{"android":"levelo://app?vid=4de48d8b-dc2e-433c-8427-ccbe26fd4d06","ios":"levelo://app?vid=4de48d8b-dc2e-433c-8427-ccbe26fd4d06"},"vehicle_type_id":"4","last_reported":1738585020,"current_range_meters":38000,"station_id":"ce4bhr92rcd13ifvqhsg","pricing_plan_id":"cebpf4jnsgd1na2vs0mg"},{"bike_id":"cd9a2976-2f88-4ae0-8b31-782005b03ce4","system_id":"levelo_inurba_marseille","lat":43.29578,"lon":5.36763,"is_reserved":false,"is_disabled":false,"rental_uris":{"android":"levelo://app?vid=cd9a2976-2f88-4ae0-8b31-782005b03ce4","ios":"levelo://app?vid=cd9a2976-2f88-4ae0-8b31-782005b03ce4"},"vehicle_type_id":"4","last_reported":1738585020,"current_range_meters":38400,"station_id":"ce4bgph2rcd13ifvqc2g","pricing_plan_id":"cebpf4jnsgd1na2vs0mg"},{"bike_id":"942ee348-f601-4816-a32c-40a8d55d3f6b","system_id":"levelo_inurba_marseille","lat":43.337444,"lon":5.374475,"is_reserved":false,"is_disabled":true,"rental_uris":{"android":"levelo://app?vid=942ee348-f601-4816-a32c-40a8d55d3f6b","ios":"levelo://app?vid=942ee348-f601-4816-a32c-40a8d55d3f6b"},"vehicle_type_id":"4","last_reported":1738585020,"current_range_meters":0,"station_id":"","pricing_plan_id":"cebpf4jnsgd1na2vs0mg"},{"bike_id":"4732ec9f-8f2c-4d26-97c1-5f73fda6562e","system_id":"levelo_inurba_marseille","lat":43.29222,"lon":5.38458,"is_reserved":false,"is_disabled":false,"rental_uris":{"android":"levelo://app?vid=4732ec9f-8f2c-4d26-97c1-5f73fda6562e","ios":"levelo://app?vid=4732ec9f-8f2c-4d26-97c1-5f73fda6562e"},"vehicle_type_id":"4","last_reported":1738585020,"current_range_meters":24800,"station_id":"ce4bh692rcd13ifvqea0","pricing_plan_id":"cebpf4jnsgd1na2vs0mg"},{"bike_id":"a7d3b724-e07d-4e52-8cab-21bbc0e96cf8","system_id":"levelo_inurba_marseille","lat":43.26213,"lon":5.37438,"is_reserved":false,"is_disabled":false,"rental_uris":{"android":"levelo://app?vid=a7d3b724-e07d-4e52-8cab-21bbc0e96cf8","ios":"levelo://app?vid=a7d3b724-e07d-4e52-8cab-21bbc0e96cf8"},"vehicle_type_id":"4","last_reported":1738585020,"current_range_meters":18000,"station_id":"ce4bhgp2rcd13ifvqfc0","pricing_plan_id":"cebpf4jnsgd1na2vs0mg"},{"bike_id":"34281a28-ec24-4122-b5c0-f65d7607fdaf","system_id":"levelo_inurba_marseille","lat":43.25512,"lon":5.37657,"is_reserved":false,"is_disabled":false,"rental_uris":{"android":"levelo://app?vid=34281a28-ec24-4122-b5c0-f65d7607fdaf","ios":"levelo://app?vid=34281a28-ec24-4122-b5c0-f65d7607fdaf"},"vehicle_type_id":"4","last_reported":1738585020,"current_range_meters":38800,"station_id":"ce4bhh12rcd13ifvqff0","pricing_plan_id":"cebpf4jnsgd1na2vs0mg"},{"bike_id":"66f15300-679e-4d35-98b9-c007f2cbf86e","system_id":"levelo_inurba_marseille","lat":43.29262,"lon":5.38437,"is_reserved":false,"is_disabled":false,"rental_uris":{"android":"levelo://app?vid=66f15300-679e-4d35-98b9-c007f2cbf86e","ios":"levelo://app?vid=66f15300-679e-4d35-98b9-c007f2cbf86e"},"vehicle_type_id":"4","last_reported":1738585020,"current_range_meters":32000,"station_id":"ce4bh692rcd13ifvqea0","pricing_plan_id":"cebpf4jnsgd1na2vs0mg"},{"bike_id":"c8bd1d84-2291-473f-ab82-361f165fe1db","system_id":"levelo_inurba_marseille","lat":43.24178,"lon":5.36405,"is_reserved":false,"is_disabled":false,"rental_uris":{"android":"levelo://app?vid=c8bd1d84-2291-473f-ab82-361f165fe1db","ios":"levelo://app?vid=c8bd1d84-2291-473f-ab82-361f165fe1db"},"vehicle_type_id":"4","last_reported":1738585020,"current_range_meters":26800,"station_id":"cpo36qri1sfpv3e86is0","pricing_plan_id":"cebpf4jnsgd1na2vs0mg"},{"bike_id":"73f78c50-93ef-47d1-85e2-4d738dfb5cf5","system_id":"levelo_inurba_marseille","lat":43.29007,"lon":5.35612,"is_reserved":false,"is_disabled":false,"rental_uris":{"android":"levelo://app?vid=73f78c50-93ef-47d1-85e2-4d738dfb5cf5","ios":"levelo://app?vid=73f78c50-93ef-47d1-85e2-4d738dfb5cf5"},"vehicle_type_id":"4","last_reported":1738585020,"current_range_meters":8400,"station_id":"ce4bhb92rcd13ifvqen0","pricing_plan_id":"cebpf4jnsgd1na2vs0mg"},{"bike_id":"bb846df9-2969-480a-aed6-edbcf9c326fb","system_id":"levelo_inurba_marseille","lat":43.2482,"lon":5.37449,"is_reserved":false,"is_disabled":false,"rental_uris":{"android":"levelo://app?vid=bb846df9-2969-480a-aed6-edbcf9c326fb","ios":"levelo://app?vid=bb846df9-2969-480a-aed6-edbcf9c326fb"},"vehicle_type_id":"4","last_reported":1738585020,"current_range_meters":29600,"station_id":"ce4bhgh2rcd13ifvqfb0","pricing_plan_id":"cebpf4jnsgd1na2vs0mg"},{"bike_id":"48ebfd2e-3b3a-4da2-a76d-11ff63396ffb","system_id":"levelo_inurba_marseille","lat":43.27997,"lon":5.40006,"is_reserved":false,"is_disabled":true,"rental_uris":{"android":"levelo://app?vid=48ebfd2e-3b3a-4da2-a76d-11ff63396ffb","ios":"levelo://app?vid=48ebfd2e-3b3a-4da2-a76d-11ff63396ffb"},"vehicle_type_id":"4","last_reported":1738585020,"current_range_meters":20000,"station_id":"ce4bho92rcd13ifvqh4g","pricing_plan_id":"cebpf4jnsgd1na2vs0mg"},{"bike_id":"85e0a930-26fd-4edc-a536-795827c6b8db","system_id":"levelo_inurba_marseille","lat":43.28699,"lon":5.37392,"is_reserved":false,"is_disabled":false,"rental_uris":{"android":"levelo://app?vid=85e0a930-26fd-4edc-a536-795827c6b8db","ios":"levelo://app?vid=85e0a930-26fd-4edc-a536-795827c6b8db"},"vehicle_type_id":"4","last_reported":1738585020,"current_range_meters":18800,"station_id":"ce4bh3p2rcd13ifvqdq0","pricing_plan_id":"cebpf4jnsgd1na2vs0mg"},{"bike_id":"cd07e062-2af1-406e-bcb9-5f1ec4730937","system_id":"levelo_inurba_marseille","lat":43.23066,"lon":5.35502,"is_reserved":false,"is_disabled":false,"rental_uris":{"android":"levelo://app?vid=cd07e062-2af1-406e-bcb9-5f1ec4730937","ios":"levelo://app?vid=cd07e062-2af1-406e-bcb9-5f1ec4730937"},"vehicle_type_id":"4","last_reported":1738585020,"current_range_meters":14000,"station_id":"cpo3342slgdg3j2ifvpg","pricing_plan_id":"cebpf4jnsgd1na2vs0mg"},{"bike_id":"ef522ec1-733b-4526-883e-365a20f2baa8","system_id":"levelo_inurba_marseille","lat":43.306612,"lon":5.364511,"is_reserved":false,"is_disabled":false,"rental_uris":{"android":"levelo://app?vid=ef522ec1-733b-4526-883e-365a20f2baa8","ios":"levelo://app?vid=ef522ec1-733b-4526-883e-365a20f2baa8"},"vehicle_type_id":"4","last_reported":1738585020,"current_range_meters":38800,"station_id":"","pricing_plan_id":"cebpf4jnsgd1na2vs0mg"},{"bike_id":"96ffdb49-f6eb-4505-946f-e68b8afb4802","system_id":"levelo_inurba_marseille","lat":43.2408,"lon":5.37755,"is_reserved":false,"is_disabled":false,"rental_uris":{"android":"levelo://app?vid=96ffdb49-f6eb-4505-946f-e68b8afb4802","ios":"levelo://app?vid=96ffdb49-f6eb-4505-946f-e68b8afb4802"},"vehicle_type_id":"4","last_reported":1738585020,"current_range_meters":23200,"station_id":"ce4bhnp2rcd13ifvqgvg","pricing_plan_id":"cebpf4jnsgd1na2vs0mg"},{"bike_id":"52a58f27-af6d-48c6-a4a9-f9cc573dabc5","system_id":"levelo_inurba_marseille","lat":43.30907,"lon":5.36852,"is_reserved":false,"is_disabled":false,"rental_uris":{"android":"levelo://app?vid=52a58f27-af6d-48c6-a4a9-f9cc573dabc5","ios":"levelo://app?vid=52a58f27-af6d-48c6-a4a9-f9cc573dabc5"},"vehicle_type_id":"4","last_reported":1738585020,"current_range_meters":38000,"station_id":"ce4bgn92rcd13ifvqbvg","pricing_plan_id":"cebpf4jnsgd1na2vs0mg"},{"bike_id":"30ee44ad-fd52-4c0d-8773-c83e849de0a4","system_id":"levelo_inurba_marseille","lat":43.27505,"lon":5.42451,"is_reserved":false,"is_disabled":false,"rental_uris":{"android":"levelo://app?vid=30ee44ad-fd52-4c0d-8773-c83e849de0a4","ios":"levelo://app?vid=30ee44ad-fd52-4c0d-8773-c83e849de0a4"},"vehicle_type_id":"4","last_reported":1738585020,"current_range_meters":18000,"station_id":"ce4bhn92rcd13ifvqgrg","pricing_plan_id":"cebpf4jnsgd1na2vs0mg"},{"bike_id":"df12aafd-7ad8-4984-b1b3-b743b66b768d","system_id":"levelo_inurba_marseille","lat":43.32483,"lon":5.36571,"is_reserved":false,"is_disabled":false,"rental_uris":{"android":"levelo://app?vid=df12aafd-7ad8-4984-b1b3-b743b66b768d","ios":"levelo://app?vid=df12aafd-7ad8-4984-b1b3-b743b66b768d"},"vehicle_type_id":"4","last_reported":1738585020,"current_range_meters":38800,"station_id":"ce4bhs12rcd13ifvqhvg","pricing_plan_id":"cebpf4jnsgd1na2vs0mg"},{"bike_id":"99e09d33-f84a-4930-968e-f3052669a02c","system_id":"levelo_inurba_marseille","lat":43.27762,"lon":5.40736,"is_reserved":false,"is_disabled":false,"rental_uris":{"android":"levelo://app?vid=99e09d33-f84a-4930-968e-f3052669a02c","ios":"levelo://app?vid=99e09d33-f84a-4930-968e-f3052669a02c"},"vehicle_type_id":"4","last_reported":1738585020,"current_range_meters":28000,"station_id":"","pricing_plan_id":"cebpf4jnsgd1na2vs0mg"},{"bike_id":"4b8f445e-d4a3-436e-af35-fee03661f846","system_id":"levelo_inurba_marseille","lat":43.31346,"lon":5.36811,"is_reserved":false,"is_disabled":false,"rental_uris":{"android":"levelo://app?vid=4b8f445e-d4a3-436e-af35-fee03661f846","ios":"levelo://app?vid=4b8f445e-d4a3-436e-af35-fee03661f846"},"vehicle_type_id":"4","last_reported":1738585020,"current_range_meters":38800,"station_id":"","pricing_plan_id":"cebpf4jnsgd1na2vs0mg"},{"bike_id":"6680bef6-29dc-411f-98bd-c0592fd24b70","system_id":"levelo_inurba_marseille","lat":43.2707,"lon":5.40279,"is_reserved":false,"is_disabled":false,"rental_uris":{"android":"levelo://app?vid=6680bef6-29dc-411f-98bd-c0592fd24b70","ios":"levelo://app?vid=6680bef6-29dc-411f-98bd-c0592fd24b70"},"vehicle_type_id":"4","last_reported":1738585020,"current_range_meters":24400,"station_id":"ce4bhk92rcd13ifvqgc0","pricing_plan_id":"cebpf4jnsgd1na2vs0mg"},{"bike_id":"d99a1562-2d27-43a9-b8ae-c675dfd1d656","system_id":"levelo_inurba_marseille","lat":43.28724,"lon":5.37952,"is_reserved":false,"is_disabled":false,"rental_uris":{"android":"levelo://app?vid=d99a1562-2d27-43a9-b8ae-c675dfd1d656","ios":"levelo://app?vid=d99a1562-2d27-43a9-b8ae-c675dfd1d656"},"vehicle_type_id":"4","last_reported":1738585020,"current_range_meters":34000,"station_id":"ce4bh9p2rcd13ifvqec0","pricing_plan_id":"cebpf4jnsgd1na2vs0mg"},{"bike_id":"dc4418de-cc9c-4884-a926-958a5f8e274c","system_id":"levelo_inurba_marseille","lat":43.28622,"lon":5.35105,"is_reserved":false,"is_disabled":false,"rental_uris":{"android":"levelo://app?vid=dc4418de-cc9c-4884-a926-958a5f8e274c","ios":"levelo://app?vid=dc4418de-cc9c-4884-a926-958a5f8e274c"},"vehicle_type_id":"4","last_reported":1738585020,"current_range_meters":38800,"station_id":"ce4bhch2rcd13ifvqeug","pricing_plan_id":"cebpf4jnsgd1na2vs0mg"},{"bike_id":"710d575f-a84c-401c-a910-f04b3610e224","system_id":"levelo_inurba_marseille","lat":43.3014,"lon":5.37431,"is_reserved":false,"is_disabled":false,"rental_uris":{"android":"levelo://app?vid=710d575f-a84c-401c-a910-f04b3610e224","ios":"levelo://app?vid=710d575f-a84c-401c-a910-f04b3610e224"},"vehicle_type_id":"4","last_reported":1738585020,"current_range_meters":38800,"station_id":"ce4bgs92rcd13ifvqcc0","pricing_plan_id":"cebpf4jnsgd1na2vs0mg"},{"bike_id":"2edd9305-848f-45a7-989d-f83d93e513ea","system_id":"levelo_inurba_marseille","lat":43.24169,"lon":5.3973,"is_reserved":false,"is_disabled":false,"rental_uris":{"android":"levelo://app?vid=2edd9305-848f-45a7-989d-f83d93e513ea","ios":"levelo://app?vid=2edd9305-848f-45a7-989d-f83d93e513ea"},"vehicle_type_id":"4","last_reported":1738585020,"current_range_meters":16000,"station_id":"ce4bhn12rcd13ifvqgpg","pricing_plan_id":"cebpf4jnsgd1na2vs0mg"},{"bike_id":"aea619b9-7d74-45dd-a7df-e17e86e684a0","system_id":"levelo_inurba_marseille","lat":43.29913,"lon":5.37474,"is_reserved":false,"is_disabled":false,"rental_uris":{"android":"levelo://app?vid=aea619b9-7d74-45dd-a7df-e17e86e684a0","ios":"levelo://app?vid=aea619b9-7d74-45dd-a7df-e17e86e684a0"},"vehicle_type_id":"4","last_reported":1738585020,"current_range_meters":38400,"station_id":"ce4bgjh2rcd13ifvqbg0","pricing_plan_id":"cebpf4jnsgd1na2vs0mg"},{"bike_id":"987389a2-714b-4702-bea8-dab01f59e0c6","system_id":"levelo_inurba_marseille","lat":43.31386,"lon":5.36684,"is_reserved":false,"is_disabled":false,"rental_uris":{"android":"levelo://app?vid=987389a2-714b-4702-bea8-dab01f59e0c6","ios":"levelo://app?vid=987389a2-714b-4702-bea8-dab01f59e0c6"},"vehicle_type_id":"4","last_reported":1738585020,"current_range_meters":35600,"station_id":"","pricing_plan_id":"cebpf4jnsgd1na2vs0mg"},{"bike_id":"f5cee390-f714-414d-a343-4c04052a7d92","system_id":"levelo_inurba_marseille","lat":43.30158,"lon":5.38089,"is_reserved":false,"is_disabled":false,"rental_uris":{"android":"levelo://app?vid=f5cee390-f714-414d-a343-4c04052a7d92","ios":"levelo://app?vid=f5cee390-f714-414d-a343-4c04052a7d92"},"vehicle_type_id":"4","last_reported":1738585020,"current_range_meters":38800,"station_id":"ce4bgjp2rcd13ifvqbh0","pricing_plan_id":"cebpf4jnsgd1na2vs0mg"},{"bike_id":"8a653183-e798-4989-9420-3b59dc9fe118","system_id":"levelo_inurba_marseille","lat":43.29371,"lon":5.37833,"is_reserved":false,"is_disabled":false,"rental_uris":{"android":"levelo://app?vid=8a653183-e798-4989-9420-3b59dc9fe118","ios":"levelo://app?vid=8a653183-e798-4989-9420-3b59dc9fe118"},"vehicle_type_id":"4","last_reported":1738585020,"current_range_meters":32400,"station_id":"ce4bgjh2rcd13ifvqbf0","pricing_plan_id":"cebpf4jnsgd1na2vs0mg"},{"bike_id":"d7f4aa5e-40ed-4777-b516-f5779ff35ff8","system_id":"levelo_inurba_marseille","lat":43.26502,"lon":5.39544,"is_reserved":false,"is_disabled":false,"rental_uris":{"android":"levelo://app?vid=d7f4aa5e-40ed-4777-b516-f5779ff35ff8","ios":"levelo://app?vid=d7f4aa5e-40ed-4777-b516-f5779ff35ff8"},"vehicle_type_id":"4","last_reported":1738585020,"current_range_meters":38800,"station_id":"ce4bhi12rcd13ifvqfq0","pricing_plan_id":"cebpf4jnsgd1na2vs0mg"},{"bike_id":"fa48af50-f7f8-463b-8073-011bea7848cf","system_id":"levelo_inurba_marseille","lat":43.28084,"lon":5.39661,"is_reserved":false,"is_disabled":false,"rental_uris":{"android":"levelo://app?vid=fa48af50-f7f8-463b-8073-011bea7848cf","ios":"levelo://app?vid=fa48af50-f7f8-463b-8073-011bea7848cf"},"vehicle_type_id":"4","last_reported":1738585020,"current_range_meters":38800,"station_id":"ce4bho12rcd13ifvqh2g","pricing_plan_id":"cebpf4jnsgd1na2vs0mg"},{"bike_id":"bfae003a-1f54-4da6-abbe-05dfa356895f","system_id":"levelo_inurba_marseille","lat":43.28473,"lon":5.38415,"is_reserved":false,"is_disabled":false,"rental_uris":{"android":"levelo://app?vid=bfae003a-1f54-4da6-abbe-05dfa356895f","ios":"levelo://app?vid=bfae003a-1f54-4da6-abbe-05dfa356895f"},"vehicle_type_id":"4","last_reported":1738585020,"current_range_meters":17200,"station_id":"ce4bh512rcd13ifvqe3g","pricing_plan_id":"cebpf4jnsgd1na2vs0mg"},{"bike_id":"e0cbf8f2-4a92-439e-b08d-e0ad98caa80c","system_id":"levelo_inurba_marseille","lat":43.2962,"lon":5.37174,"is_reserved":false,"is_disabled":false,"rental_uris":{"android":"levelo://app?vid=e0cbf8f2-4a92-439e-b08d-e0ad98caa80c","ios":"levelo://app?vid=e0cbf8f2-4a92-439e-b08d-e0ad98caa80c"},"vehicle_type_id":"4","last_reported":1738585020,"current_range_meters":32000,"station_id":"ce4bgnh2rcd13ifvqc0g","pricing_plan_id":"cebpf4jnsgd1na2vs0mg"},{"bike_id":"dbdfa809-53c1-4aa6-8539-88b7e02d360b","system_id":"levelo_inurba_marseille","lat":43.30147,"lon":5.38092,"is_reserved":false,"is_disabled":false,"rental_uris":{"android":"levelo://app?vid=dbdfa809-53c1-4aa6-8539-88b7e02d360b","ios":"levelo://app?vid=dbdfa809-53c1-4aa6-8539-88b7e02d360b"},"vehicle_type_id":"4","last_reported":1738585020,"current_range_meters":38800,"station_id":"ce4bgjp2rcd13ifvqbh0","pricing_plan_id":"cebpf4jnsgd1na2vs0mg"},{"bike_id":"7bbd1ca9-5cb4-4750-a3f0-60560373cbff","system_id":"levelo_inurba_marseille","lat":43.25504,"lon":5.37642,"is_reserved":false,"is_disabled":false,"rental_uris":{"android":"levelo://app?vid=7bbd1ca9-5cb4-4750-a3f0-60560373cbff","ios":"levelo://app?vid=7bbd1ca9-5cb4-4750-a3f0-60560373cbff"},"vehicle_type_id":"4","last_reported":1738585020,"current_range_meters":36000,"station_id":"ce4bhh12rcd13ifvqff0","pricing_plan_id":"cebpf4jnsgd1na2vs0mg"},{"bike_id":"f893004d-b202-4625-9fc6-47a0e86868ae","system_id":"levelo_inurba_marseille","lat":43.32335,"lon":5.40623,"is_reserved":false,"is_disabled":false,"rental_uris":{"android":"levelo://app?vid=f893004d-b202-4625-9fc6-47a0e86868ae","ios":"levelo://app?vid=f893004d-b202-4625-9fc6-47a0e86868ae"},"vehicle_type_id":"4","last_reported":1738585020,"current_range_meters":11200,"station_id":"ce4bhq92rcd13ifvqhjg","pricing_plan_id":"cebpf4jnsgd1na2vs0mg"},{"bike_id":"20d78091-b743-478b-a12c-d5c9f2c24bc2","system_id":"levelo_inurba_marseille","lat":43.2695,"lon":5.38603,"is_reserved":false,"is_disabled":false,"rental_uris":{"android":"levelo://app?vid=20d78091-b743-478b-a12c-d5c9f2c24bc2","ios":"levelo://app?vid=20d78091-b743-478b-a12c-d5c9f2c24bc2"},"vehicle_type_id":"4","last_reported":1738585020,"current_range_meters":38800,"station_id":"ce4bhh92rcd13ifvqfh0","pricing_plan_id":"cebpf4jnsgd1na2vs0mg"},{"bike_id":"577383b2-bf58-4b25-8224-bf0cdd1be01d","system_id":"levelo_inurba_marseille","lat":43.24171,"lon":5.39722,"is_reserved":false,"is_disabled":false,"rental_uris":{"android":"levelo://app?vid=577383b2-bf58-4b25-8224-bf0cdd1be01d","ios":"levelo://app?vid=577383b2-bf58-4b25-8224-bf0cdd1be01d"},"vehicle_type_id":"4","last_reported":1738585020,"current_range_meters":25200,"station_id":"ce4bhn12rcd13ifvqgpg","pricing_plan_id":"cebpf4jnsgd1na2vs0mg"},{"bike_id":"53dcca2c-de0b-4e6f-bc87-3cd3a3a20447","system_id":"levelo_inurba_marseille","lat":43.34141,"lon":5.409,"is_reserved":false,"is_disabled":false,"rental_uris":{"android":"levelo://app?vid=53dcca2c-de0b-4e6f-bc87-3cd3a3a20447","ios":"levelo://app?vid=53dcca2c-de0b-4e6f-bc87-3cd3a3a20447"},"vehicle_type_id":"4","last_reported":1738585020,"current_range_meters":38000,"station_id":"ce4bhqh2rcd13ifvqhlg","pricing_plan_id":"cebpf4jnsgd1na2vs0mg"},{"bike_id":"6bb18b6b-35db-4080-8375-2a2e83c6fc4b","system_id":"levelo_inurba_marseille","lat":43.23153,"lon":5.43702,"is_reserved":false,"is_disabled":true,"rental_uris":{"android":"levelo://app?vid=6bb18b6b-35db-4080-8375-2a2e83c6fc4b","ios":"levelo://app?vid=6bb18b6b-35db-4080-8375-2a2e83c6fc4b"},"vehicle_type_id":"4","last_reported":1738585020,"current_range_meters":38800,"station_id":"ce4bhmp2rcd13ifvqgog","pricing_plan_id":"cebpf4jnsgd1na2vs0mg"},{"bike_id":"899ea6e0-60c2-4034-8546-b37f7572b554","system_id":"levelo_inurba_marseille","lat":43.28426,"lon":5.34996,"is_reserved":false,"is_disabled":false,"rental_uris":{"android":"levelo://app?vid=899ea6e0-60c2-4034-8546-b37f7572b554","ios":"levelo://app?vid=899ea6e0-60c2-4034-8546-b37f7572b554"},"vehicle_type_id":"4","last_reported":1738585020,"current_range_meters":37600,"station_id":"ce4bhbh2rcd13ifvqepg","pricing_plan_id":"cebpf4jnsgd1na2vs0mg"},{"bike_id":"ee02ba39-6dd1-464e-a055-c5b504c55947","system_id":"levelo_inurba_marseille","lat":43.31371,"lon":5.36744,"is_reserved":false,"is_disabled":false,"rental_uris":{"android":"levelo://app?vid=ee02ba39-6dd1-464e-a055-c5b504c55947","ios":"levelo://app?vid=ee02ba39-6dd1-464e-a055-c5b504c55947"},"vehicle_type_id":"4","last_reported":1738585020,"current_range_meters":22400,"station_id":"ce4bgr92rcd13ifvqc6g","pricing_plan_id":"cebpf4jnsgd1na2vs0mg"},{"bike_id":"43607b92-ddf1-4d22-a11f-9744a9fd84d4","system_id":"levelo_inurba_marseille","lat":43.24066,"lon":5.3777,"is_reserved":false,"is_disabled":false,"rental_uris":{"android":"levelo://app?vid=43607b92-ddf1-4d22-a11f-9744a9fd84d4","ios":"levelo://app?vid=43607b92-ddf1-4d22-a11f-9744a9fd84d4"},"vehicle_type_id":"4","last_reported":1738585020,"current_range_meters":25600,"station_id":"ce4bhnp2rcd13ifvqgvg","pricing_plan_id":"cebpf4jnsgd1na2vs0mg"},{"bike_id":"2fb85062-1158-465e-828e-3e87ffb49924","system_id":"levelo_inurba_marseille","lat":43.27615,"lon":5.36116,"is_reserved":false,"is_disabled":false,"rental_uris":{"android":"levelo://app?vid=2fb85062-1158-465e-828e-3e87ffb49924","ios":"levelo://app?vid=2fb85062-1158-465e-828e-3e87ffb49924"},"vehicle_type_id":"4","last_reported":1738585020,"current_range_meters":22800,"station_id":"ce4bgj92rcd13ifvqbe0","pricing_plan_id":"cebpf4jnsgd1na2vs0mg"},{"bike_id":"6594b6c1-7c6f-4d84-8dc2-9ea6d3bda34a","system_id":"levelo_inurba_marseille","lat":43.24831,"lon":5.37446,"is_reserved":false,"is_disabled":true,"rental_uris":{"android":"levelo://app?vid=6594b6c1-7c6f-4d84-8dc2-9ea6d3bda34a","ios":"levelo://app?vid=6594b6c1-7c6f-4d84-8dc2-9ea6d3bda34a"},"vehicle_type_id":"4","last_reported":1738585020,"current_range_meters":38800,"station_id":"ce4bhgh2rcd13ifvqfb0","pricing_plan_id":"cebpf4jnsgd1na2vs0mg"},{"bike_id":"27a1618b-ec0c-4b1b-9df1-d6544781bbc9","system_id":"levelo_inurba_marseille","lat":43.25574,"lon":5.38241,"is_reserved":false,"is_disabled":false,"rental_uris":{"android":"levelo://app?vid=27a1618b-ec0c-4b1b-9df1-d6544781bbc9","ios":"levelo://app?vid=27a1618b-ec0c-4b1b-9df1-d6544781bbc9"},"vehicle_type_id":"4","last_reported":1738585020,"current_range_meters":11600,"station_id":"ce4bhih2rcd13ifvqfs0","pricing_plan_id":"cebpf4jnsgd1na2vs0mg"},{"bike_id":"67e28628-4e88-4d22-9395-5aa2097ec3d5","system_id":"levelo_inurba_marseille","lat":43.2895,"lon":5.364,"is_reserved":false,"is_disabled":false,"rental_uris":{"android":"levelo://app?vid=67e28628-4e88-4d22-9395-5aa2097ec3d5","ios":"levelo://app?vid=67e28628-4e88-4d22-9395-5aa2097ec3d5"},"vehicle_type_id":"4","last_reported":1738585020,"current_range_meters":28400,"station_id":"ce4bhc92rcd13ifvqetg","pricing_plan_id":"cebpf4jnsgd1na2vs0mg"},{"bike_id":"1835d11e-5aeb-49c5-8332-a7f20203500d","system_id":"levelo_inurba_marseille","lat":43.31352,"lon":5.36712,"is_reserved":false,"is_disabled":false,"rental_uris":{"android":"levelo://app?vid=1835d11e-5aeb-49c5-8332-a7f20203500d","ios":"levelo://app?vid=1835d11e-5aeb-49c5-8332-a7f20203500d"},"vehicle_type_id":"4","last_reported":1738585020,"current_range_meters":38800,"station_id":"ce4bgr92rcd13ifvqc6g","pricing_plan_id":"cebpf4jnsgd1na2vs0mg"},{"bike_id":"6fa29cff-d8fa-4fb1-b5d9-4a419f3f6115","system_id":"levelo_inurba_marseille","lat":43.2594,"lon":5.40906,"is_reserved":false,"is_disabled":false,"rental_uris":{"android":"levelo://app?vid=6fa29cff-d8fa-4fb1-b5d9-4a419f3f6115","ios":"levelo://app?vid=6fa29cff-d8fa-4fb1-b5d9-4a419f3f6115"},"vehicle_type_id":"4","last_reported":1738585020,"current_range_meters":14800,"station_id":"ce4bhm92rcd13ifvqglg","pricing_plan_id":"cebpf4jnsgd1na2vs0mg"},{"bike_id":"443a4f24-1f44-44b3-92e2-5d344bf02aa7","system_id":"levelo_inurba_marseille","lat":43.30001,"lon":5.37202,"is_reserved":false,"is_disabled":false,"rental_uris":{"android":"levelo://app?vid=443a4f24-1f44-44b3-92e2-5d344bf02aa7","ios":"levelo://app?vid=443a4f24-1f44-44b3-92e2-5d344bf02aa7"},"vehicle_type_id":"4","last_reported":1738585020,"current_range_meters":38400,"station_id":"ce4bgr92rcd13ifvqc7g","pricing_plan_id":"cebpf4jnsgd1na2vs0mg"},{"bike_id":"8925b961-77ea-4fcf-8f2b-d895cd86bc19","system_id":"levelo_inurba_marseille","lat":43.23157,"lon":5.43714,"is_reserved":false,"is_disabled":false,"rental_uris":{"android":"levelo://app?vid=8925b961-77ea-4fcf-8f2b-d895cd86bc19","ios":"levelo://app?vid=8925b961-77ea-4fcf-8f2b-d895cd86bc19"},"vehicle_type_id":"4","last_reported":1738585020,"current_range_meters":14000,"station_id":"ce4bhmp2rcd13ifvqgog","pricing_plan_id":"cebpf4jnsgd1na2vs0mg"},{"bike_id":"6e96992e-e0e6-4329-a80c-6528444b4b6f","system_id":"levelo_inurba_marseille","lat":43.28162,"lon":5.42633,"is_reserved":false,"is_disabled":true,"rental_uris":{"android":"levelo://app?vid=6e96992e-e0e6-4329-a80c-6528444b4b6f","ios":"levelo://app?vid=6e96992e-e0e6-4329-a80c-6528444b4b6f"},"vehicle_type_id":"4","last_reported":1738585020,"current_range_meters":1200,"station_id":"ce4bhnh2rcd13ifvqgug","pricing_plan_id":"cebpf4jnsgd1na2vs0mg"},{"bike_id":"eb9c859e-ef39-446e-afa7-9063d5540a2c","system_id":"levelo_inurba_marseille","lat":43.32923,"lon":5.36697,"is_reserved":false,"is_disabled":false,"rental_uris":{"android":"levelo://app?vid=eb9c859e-ef39-446e-afa7-9063d5540a2c","ios":"levelo://app?vid=eb9c859e-ef39-446e-afa7-9063d5540a2c"},"vehicle_type_id":"4","last_reported":1738585020,"current_range_meters":33200,"station_id":"","pricing_plan_id":"cebpf4jnsgd1na2vs0mg"},{"bike_id":"30ee17e3-d6b7-44ae-8100-6a928666b898","system_id":"levelo_inurba_marseille","lat":43.2862,"lon":5.37061,"is_reserved":false,"is_disabled":false,"rental_uris":{"android":"levelo://app?vid=30ee17e3-d6b7-44ae-8100-6a928666b898","ios":"levelo://app?vid=30ee17e3-d6b7-44ae-8100-6a928666b898"},"vehicle_type_id":"4","last_reported":1738585020,"current_range_meters":38800,"station_id":"ce4bht12rcd13ifvqi60","pricing_plan_id":"cebpf4jnsgd1na2vs0mg"},{"bike_id":"3c12d71f-fdf6-47c7-8762-9a25ac4bcc24","system_id":"levelo_inurba_marseille","lat":43.26204,"lon":5.37923,"is_reserved":false,"is_disabled":true,"rental_uris":{"android":"levelo://app?vid=3c12d71f-fdf6-47c7-8762-9a25ac4bcc24","ios":"levelo://app?vid=3c12d71f-fdf6-47c7-8762-9a25ac4bcc24"},"vehicle_type_id":"4","last_reported":1738585020,"current_range_meters":25200,"station_id":"ce4bhjp2rcd13ifvqg90","pricing_plan_id":"cebpf4jnsgd1na2vs0mg"},{"bike_id":"42c5a1c4-fa81-451e-9aca-6c434ec39c24","system_id":"levelo_inurba_marseille","lat":43.31217,"lon":5.36849,"is_reserved":false,"is_disabled":false,"rental_uris":{"android":"levelo://app?vid=42c5a1c4-fa81-451e-9aca-6c434ec39c24","ios":"levelo://app?vid=42c5a1c4-fa81-451e-9aca-6c434ec39c24"},"vehicle_type_id":"4","last_reported":1738585020,"current_range_meters":38800,"station_id":"ce4bgl92rcd13ifvqbq0","pricing_plan_id":"cebpf4jnsgd1na2vs0mg"},{"bike_id":"5688ac17-5443-4dac-8fe6-c32fce7d33ec","system_id":"levelo_inurba_marseille","lat":43.27373,"lon":5.36268,"is_reserved":false,"is_disabled":false,"rental_uris":{"android":"levelo://app?vid=5688ac17-5443-4dac-8fe6-c32fce7d33ec","ios":"levelo://app?vid=5688ac17-5443-4dac-8fe6-c32fce7d33ec"},"vehicle_type_id":"4","last_reported":1738585020,"current_range_meters":7200,"station_id":"ce4bhbh2rcd13ifvqeo0","pricing_plan_id":"cebpf4jnsgd1na2vs0mg"},{"bike_id":"bd8fce10-db60-4637-88ad-07a5a938f039","system_id":"levelo_inurba_marseille","lat":43.28604,"lon":5.37066,"is_reserved":false,"is_disabled":true,"rental_uris":{"android":"levelo://app?vid=bd8fce10-db60-4637-88ad-07a5a938f039","ios":"levelo://app?vid=bd8fce10-db60-4637-88ad-07a5a938f039"},"vehicle_type_id":"4","last_reported":1738585020,"current_range_meters":2800,"station_id":"ce4bht12rcd13ifvqi60","pricing_plan_id":"cebpf4jnsgd1na2vs0mg"},{"bike_id":"aca7f856-95b0-4e97-8a0a-cf9d567272bd","system_id":"levelo_inurba_marseille","lat":43.23057,"lon":5.35489,"is_reserved":false,"is_disabled":false,"rental_uris":{"android":"levelo://app?vid=aca7f856-95b0-4e97-8a0a-cf9d567272bd","ios":"levelo://app?vid=aca7f856-95b0-4e97-8a0a-cf9d567272bd"},"vehicle_type_id":"4","last_reported":1738585020,"current_range_meters":36800,"station_id":"cpo3342slgdg3j2ifvpg","pricing_plan_id":"cebpf4jnsgd1na2vs0mg"},{"bike_id":"3a29443a-a040-438d-869b-5653ca007777","system_id":"levelo_inurba_marseille","lat":43.30554,"lon":5.36667,"is_reserved":false,"is_disabled":false,"rental_uris":{"android":"levelo://app?vid=3a29443a-a040-438d-869b-5653ca007777","ios":"levelo://app?vid=3a29443a-a040-438d-869b-5653ca007777"},"vehicle_type_id":"4","last_reported":1738585020,"current_range_meters":14000,"station_id":"","pricing_plan_id":"cebpf4jnsgd1na2vs0mg"},{"bike_id":"9d9e6714-036c-4151-8a5d-515ad00cd54b","system_id":"levelo_inurba_marseille","lat":43.23197,"lon":5.35541,"is_reserved":false,"is_disabled":false,"rental_uris":{"android":"levelo://app?vid=9d9e6714-036c-4151-8a5d-515ad00cd54b","ios":"levelo://app?vid=9d9e6714-036c-4151-8a5d-515ad00cd54b"},"vehicle_type_id":"4","last_reported":1738585020,"current_range_meters":22400,"station_id":"ce4bhu92rcd13ifvqi70","pricing_plan_id":"cebpf4jnsgd1na2vs0mg"},{"bike_id":"a0a9ff7c-65bc-459c-b1ae-c94d1bfe3e15","system_id":"levelo_inurba_marseille","lat":43.32474,"lon":5.36565,"is_reserved":false,"is_disabled":false,"rental_uris":{"android":"levelo://app?vid=a0a9ff7c-65bc-459c-b1ae-c94d1bfe3e15","ios":"levelo://app?vid=a0a9ff7c-65bc-459c-b1ae-c94d1bfe3e15"},"vehicle_type_id":"4","last_reported":1738585020,"current_range_meters":38800,"station_id":"ce4bhs12rcd13ifvqhvg","pricing_plan_id":"cebpf4jnsgd1na2vs0mg"},{"bike_id":"1eaf05ca-4b4b-4a42-a618-d0eb43050acc","system_id":"levelo_inurba_marseille","lat":43.31379,"lon":5.38502,"is_reserved":false,"is_disabled":false,"rental_uris":{"android":"levelo://app?vid=1eaf05ca-4b4b-4a42-a618-d0eb43050acc","ios":"levelo://app?vid=1eaf05ca-4b4b-4a42-a618-d0eb43050acc"},"vehicle_type_id":"4","last_reported":1738585020,"current_range_meters":18800,"station_id":"ce4bgt92rcd13ifvqcf0","pricing_plan_id":"cebpf4jnsgd1na2vs0mg"},{"bike_id":"7663e811-56c1-4a57-b38f-5bd67c06ab7a","system_id":"levelo_inurba_marseille","lat":43.30138,"lon":5.39872,"is_reserved":false,"is_disabled":false,"rental_uris":{"android":"levelo://app?vid=7663e811-56c1-4a57-b38f-5bd67c06ab7a","ios":"levelo://app?vid=7663e811-56c1-4a57-b38f-5bd67c06ab7a"},"vehicle_type_id":"4","last_reported":1738585020,"current_range_meters":28400,"station_id":"ce4bh0h2rcd13ifvqd40","pricing_plan_id":"cebpf4jnsgd1na2vs0mg"},{"bike_id":"fa86509c-c01b-48ea-b21a-3e978d1c54d5","system_id":"levelo_inurba_marseille","lat":43.30351,"lon":5.41882,"is_reserved":false,"is_disabled":true,"rental_uris":{"android":"levelo://app?vid=fa86509c-c01b-48ea-b21a-3e978d1c54d5","ios":"levelo://app?vid=fa86509c-c01b-48ea-b21a-3e978d1c54d5"},"vehicle_type_id":"4","last_reported":1738585020,"current_range_meters":37600,"station_id":"ce4bhop2rcd13ifvqh7g","pricing_plan_id":"cebpf4jnsgd1na2vs0mg"},{"bike_id":"f8245ac1-055c-4956-9505-c34c84a2fb02","system_id":"levelo_inurba_marseille","lat":43.33183,"lon":5.39601,"is_reserved":false,"is_disabled":true,"rental_uris":{"android":"levelo://app?vid=f8245ac1-055c-4956-9505-c34c84a2fb02","ios":"levelo://app?vid=f8245ac1-055c-4956-9505-c34c84a2fb02"},"vehicle_type_id":"4","last_reported":1738585020,"current_range_meters":34000,"station_id":"","pricing_plan_id":"cebpf4jnsgd1na2vs0mg"},{"bike_id":"348266a7-4f39-419d-a868-725c2c2020b7","system_id":"levelo_inurba_marseille","lat":43.30138,"lon":5.39859,"is_reserved":false,"is_disabled":false,"rental_uris":{"android":"levelo://app?vid=348266a7-4f39-419d-a868-725c2c2020b7","ios":"levelo://app?vid=348266a7-4f39-419d-a868-725c2c2020b7"},"vehicle_type_id":"4","last_reported":1738585020,"current_range_meters":13600,"station_id":"ce4bh0h2rcd13ifvqd40","pricing_plan_id":"cebpf4jnsgd1na2vs0mg"},{"bike_id":"69031904-28de-4fb5-89cb-e2203a303110","system_id":"levelo_inurba_marseille","lat":43.30922,"lon":5.36885,"is_reserved":false,"is_disabled":false,"rental_uris":{"android":"levelo://app?vid=69031904-28de-4fb5-89cb-e2203a303110","ios":"levelo://app?vid=69031904-28de-4fb5-89cb-e2203a303110"},"vehicle_type_id":"4","last_reported":1738585020,"current_range_meters":11200,"station_id":"ce4bgn92rcd13ifvqbvg","pricing_plan_id":"cebpf4jnsgd1na2vs0mg"},{"bike_id":"08eb866f-d146-425b-ad2c-b7dcf4f5fc3a","system_id":"levelo_inurba_marseille","lat":43.28937,"lon":5.38401,"is_reserved":false,"is_disabled":false,"rental_uris":{"android":"levelo://app?vid=08eb866f-d146-425b-ad2c-b7dcf4f5fc3a","ios":"levelo://app?vid=08eb866f-d146-425b-ad2c-b7dcf4f5fc3a"},"vehicle_type_id":"4","last_reported":1738585020,"current_range_meters":38000,"station_id":"ce4bh612rcd13ifvqe6g","pricing_plan_id":"cebpf4jnsgd1na2vs0mg"},{"bike_id":"22bdb955-b817-45d3-9dcc-7f208b208760","system_id":"levelo_inurba_marseille","lat":43.31379,"lon":5.36709,"is_reserved":false,"is_disabled":false,"rental_uris":{"android":"levelo://app?vid=22bdb955-b817-45d3-9dcc-7f208b208760","ios":"levelo://app?vid=22bdb955-b817-45d3-9dcc-7f208b208760"},"vehicle_type_id":"4","last_reported":1738585020,"current_range_meters":27600,"station_id":"ce4bgr92rcd13ifvqc6g","pricing_plan_id":"cebpf4jnsgd1na2vs0mg"},{"bike_id":"7b39ed00-86df-4303-bda1-bfc0fee1e7e2","system_id":"levelo_inurba_marseille","lat":43.32454,"lon":5.45555,"is_reserved":false,"is_disabled":false,"rental_uris":{"android":"levelo://app?vid=7b39ed00-86df-4303-bda1-bfc0fee1e7e2","ios":"levelo://app?vid=7b39ed00-86df-4303-bda1-bfc0fee1e7e2"},"vehicle_type_id":"4","last_reported":1738585020,"current_range_meters":28400,"station_id":"","pricing_plan_id":"cebpf4jnsgd1na2vs0mg"},{"bike_id":"ff0aaf77-55e7-46b4-91a7-1ad3f23ce5de","system_id":"levelo_inurba_marseille","lat":43.30464,"lon":5.3791,"is_reserved":false,"is_disabled":false,"rental_uris":{"android":"levelo://app?vid=ff0aaf77-55e7-46b4-91a7-1ad3f23ce5de","ios":"levelo://app?vid=ff0aaf77-55e7-46b4-91a7-1ad3f23ce5de"},"vehicle_type_id":"4","last_reported":1738585020,"current_range_meters":17600,"station_id":"ce4bgup2rcd13ifvqcn0","pricing_plan_id":"cebpf4jnsgd1na2vs0mg"},{"bike_id":"27965b13-db93-44ae-be4a-77a8d97c3b7e","system_id":"levelo_inurba_marseille","lat":43.26936,"lon":5.40263,"is_reserved":false,"is_disabled":false,"rental_uris":{"android":"levelo://app?vid=27965b13-db93-44ae-be4a-77a8d97c3b7e","ios":"levelo://app?vid=27965b13-db93-44ae-be4a-77a8d97c3b7e"},"vehicle_type_id":"4","last_reported":1738585020,"current_range_meters":38800,"station_id":"cjm6bp8fraef2m0cb0m0","pricing_plan_id":"cebpf4jnsgd1na2vs0mg"},{"bike_id":"78c6ad5f-ce80-4a37-86a4-a3d9ef223112","system_id":"levelo_inurba_marseille","lat":43.25569,"lon":5.38252,"is_reserved":false,"is_disabled":false,"rental_uris":{"android":"levelo://app?vid=78c6ad5f-ce80-4a37-86a4-a3d9ef223112","ios":"levelo://app?vid=78c6ad5f-ce80-4a37-86a4-a3d9ef223112"},"vehicle_type_id":"4","last_reported":1738585020,"current_range_meters":28000,"station_id":"ce4bhih2rcd13ifvqfs0","pricing_plan_id":"cebpf4jnsgd1na2vs0mg"},{"bike_id":"9baf002a-51e8-4d48-8fc3-946cc72fcdd7","system_id":"levelo_inurba_marseille","lat":43.27373,"lon":5.36255,"is_reserved":false,"is_disabled":false,"rental_uris":{"android":"levelo://app?vid=9baf002a-51e8-4d48-8fc3-946cc72fcdd7","ios":"levelo://app?vid=9baf002a-51e8-4d48-8fc3-946cc72fcdd7"},"vehicle_type_id":"4","last_reported":1738585020,"current_range_meters":38800,"station_id":"ce4bhbh2rcd13ifvqeo0","pricing_plan_id":"cebpf4jnsgd1na2vs0mg"},{"bike_id":"324c2be5-1d25-4100-9086-8cdc99db60dc","system_id":"levelo_inurba_marseille","lat":43.25929,"lon":5.40911,"is_reserved":false,"is_disabled":true,"rental_uris":{"android":"levelo://app?vid=324c2be5-1d25-4100-9086-8cdc99db60dc","ios":"levelo://app?vid=324c2be5-1d25-4100-9086-8cdc99db60dc"},"vehicle_type_id":"4","last_reported":1738585020,"current_range_meters":1600,"station_id":"ce4bhm92rcd13ifvqglg","pricing_plan_id":"cebpf4jnsgd1na2vs0mg"},{"bike_id":"2bf09fb3-a364-479f-a5ab-31279fd345da","system_id":"levelo_inurba_marseille","lat":43.27653,"lon":5.38899,"is_reserved":false,"is_disabled":false,"rental_uris":{"android":"levelo://app?vid=2bf09fb3-a364-479f-a5ab-31279fd345da","ios":"levelo://app?vid=2bf09fb3-a364-479f-a5ab-31279fd345da"},"vehicle_type_id":"4","last_reported":1738585020,"current_range_meters":38800,"station_id":"ce4bhi12rcd13ifvqfo0","pricing_plan_id":"cebpf4jnsgd1na2vs0mg"},{"bike_id":"96bbeead-3a3a-450d-96ed-a33e7c3e3a82","system_id":"levelo_inurba_marseille","lat":43.29194,"lon":5.35796,"is_reserved":false,"is_disabled":false,"rental_uris":{"android":"levelo://app?vid=96bbeead-3a3a-450d-96ed-a33e7c3e3a82","ios":"levelo://app?vid=96bbeead-3a3a-450d-96ed-a33e7c3e3a82"},"vehicle_type_id":"4","last_reported":1738585020,"current_range_meters":36800,"station_id":"ce4bhb12rcd13ifvqel0","pricing_plan_id":"cebpf4jnsgd1na2vs0mg"},{"bike_id":"626dbbe9-bed2-452d-9804-2c14caa0fe80","system_id":"levelo_inurba_marseille","lat":43.26027,"lon":5.37553,"is_reserved":false,"is_disabled":false,"rental_uris":{"android":"levelo://app?vid=626dbbe9-bed2-452d-9804-2c14caa0fe80","ios":"levelo://app?vid=626dbbe9-bed2-452d-9804-2c14caa0fe80"},"vehicle_type_id":"4","last_reported":1738585020,"current_range_meters":0,"station_id":"ce4bhgh2rcd13ifvqfa0","pricing_plan_id":"cebpf4jnsgd1na2vs0mg"},{"bike_id":"439c2536-2abe-4087-b8ca-646055d51509","system_id":"levelo_inurba_marseille","lat":43.270445,"lon":5.402718,"is_reserved":false,"is_disabled":false,"rental_uris":{"android":"levelo://app?vid=439c2536-2abe-4087-b8ca-646055d51509","ios":"levelo://app?vid=439c2536-2abe-4087-b8ca-646055d51509"},"vehicle_type_id":"4","last_reported":1738585020,"current_range_meters":26000,"station_id":"ce4bhk92rcd13ifvqgc0","pricing_plan_id":"cebpf4jnsgd1na2vs0mg"},