{"last_updated":1777155911,"ttl":60,"version":"2.2","data":{"bikes":[{"bike_id":"c4730870-3e9f-404f-89cb-02356e6f259a","system_id":"levelo_inurba_marseille","lat":43.29705,"lon":5.36608,"is_reserved":false,"is_disabled":false,"rental_uris":{"android":"levelo://app?vid=c4730870-3e9f-404f-89cb-02356e6f259a","ios":"levelo://app?vid=c4730870-3e9f-404f-89cb-02356e6f259a"},"vehicle_type_id":"4","last_reported":1777155911,"current_range_meters":2800,"station_id":"ce4bgn12rcd13ifvqbt0","pricing_plan_id":"cebpf4jnsgd1na2vs0mg"},{"bike_id":"b38d89b8-c3c9-4fae-b6f2-09980d89f2e9","system_id":"levelo_inurba_marseille","lat":43.28475,"lon":5.48409,"is_reserved":false,"is_disabled":false,"rental_uris":{"android":"levelo://app?vid=b38d89b8-c3c9-4fae-b6f2-09980d89f2e9","ios":"levelo://app?vid=b38d89b8-c3c9-4fae-b6f2-09980d89f2e9"},"vehicle_type_id":"4","last_reported":1777155911,"current_range_meters":2800,"station_id":"","pricing_plan_id":"cebpf4jnsgd1na2vs0mg"},{"bike_id":"05fc231b-c398-4e00-a1ad-8667138b69ec","system_id":"levelo_inurba_marseille","lat":43.29504,"lon":5.43313,"is_reserved":false,"is_disabled":false,"rental_uris":{"android":"levelo://app?vid=05fc231b-c398-4e00-a1ad-8667138b69ec","ios":"levelo://app?vid=05fc231b-c398-4e00-a1ad-8667138b69ec"},"vehicle_type_id":"4","last_reported":1777155911,"current_range_meters":2800,"station_id":"st_d3j5ugp08ojc73fj9d10","pricing_plan_id":"cebpf4jnsgd1na2vs0mg"},{"bike_id":"06c87354-567d-4fe6-be97-0a1802481b30","system_id":"levelo_inurba_marseille","lat":43.31682,"lon":5.40474,"is_reserved":false,"is_disabled":false,"rental_uris":{"android":"levelo://app?vid=06c87354-567d-4fe6-be97-0a1802481b30","ios":"levelo://app?vid=06c87354-567d-4fe6-be97-0a1802481b30"},"vehicle_type_id":"4","last_reported":1777155911,"current_range_meters":2800,"station_id":"ce4bh012rcd13ifvqd00","pricing_plan_id":"cebpf4jnsgd1na2vs0mg"},{"bike_id":"b3501539-b5de-408f-b188-98a169c9f395","system_id":"levelo_inurba_marseille","lat":43.28079,"lon":5.39657,"is_reserved":false,"is_disabled":false,"rental_uris":{"android":"levelo://app?vid=b3501539-b5de-408f-b188-98a169c9f395","ios":"levelo://app?vid=b3501539-b5de-408f-b188-98a169c9f395"},"vehicle_type_id":"4","last_reported":1777155911,"current_range_meters":2800,"station_id":"ce4bho12rcd13ifvqh2g","pricing_plan_id":"cebpf4jnsgd1na2vs0mg"},{"bike_id":"a83f7498-5991-4a97-9320-6c087be8320d","system_id":"levelo_inurba_marseille","lat":43.32008,"lon":5.38157,"is_reserved":false,"is_disabled":false,"rental_uris":{"android":"levelo://app?vid=a83f7498-5991-4a97-9320-6c087be8320d","ios":"levelo://app?vid=a83f7498-5991-4a97-9320-6c087be8320d"},"vehicle_type_id":"4","last_reported":1777155911,"current_range_meters":2800,"station_id":"ce4bhr12rcd13ifvqhpg","pricing_plan_id":"cebpf4jnsgd1na2vs0mg"},{"bike_id":"7ab9e9d2-55c6-492f-8e60-126c7a6965ab","system_id":"levelo_inurba_marseille","lat":43.27978,"lon":5.37022,"is_reserved":false,"is_disabled":false,"rental_uris":{"android":"levelo://app?vid=7ab9e9d2-55c6-492f-8e60-126c7a6965ab","ios":"levelo://app?vid=7ab9e9d2-55c6-492f-8e60-126c7a6965ab"},"vehicle_type_id":"4","last_reported":1777155911,"current_range_meters":2800,"station_id":"","pricing_plan_id":"cebpf4jnsgd1na2vs0mg"},{"bike_id":"30ae163a-44ad-49ad-bf51-c1f54df5559c","system_id":"levelo_inurba_marseille","lat":43.28869,"lon":5.42512,"is_reserved":false,"is_disabled":false,"rental_uris":{"android":"levelo://app?vid=30ae163a-44ad-49ad-bf51-c1f54df5559c","ios":"levelo://app?vid=30ae163a-44ad-49ad-bf51-c1f54df5559c"},"vehicle_type_id":"4","last_reported":1777155911,"current_range_meters":2800,"station_id":"st_d3b462108ojc7389ooeg","pricing_plan_id":"cebpf4jnsgd1na2vs0mg"},{"bike_id":"75525d3f-e50a-493e-ad5c-35eb3b83e487","system_id":"levelo_inurba_marseille","lat":43.31977,"lon":5.38141,"is_reserved":false,"is_disabled":false,"rental_uris":{"android":"levelo://app?vid=75525d3f-e50a-493e-ad5c-35eb3b83e487","ios":"levelo://app?vid=75525d3f-e50a-493e-ad5c-35eb3b83e487"},"vehicle_type_id":"4","last_reported":1777155911,"current_range_meters":2800,"station_id":"ce4bhr12rcd13ifvqhpg","pricing_plan_id":"cebpf4jnsgd1na2vs0mg"},{"bike_id":"01cc38eb-420b-4f54-b5bf-e23efb2a175c","system_id":"levelo_inurba_marseille","lat":43.29505,"lon":5.43297,"is_reserved":false,"is_disabled":false,"rental_uris":{"android":"levelo://app?vid=01cc38eb-420b-4f54-b5bf-e23efb2a175c","ios":"levelo://app?vid=01cc38eb-420b-4f54-b5bf-e23efb2a175c"},"vehicle_type_id":"4","last_reported":1777155911,"current_range_meters":2800,"station_id":"st_d3j5ugp08ojc73fj9d10","pricing_plan_id":"cebpf4jnsgd1na2vs0mg"},{"bike_id":"713cd2eb-1541-4c48-b922-a89d313c612d","system_id":"levelo_inurba_marseille","lat":43.29882,"lon":5.39717,"is_reserved":false,"is_disabled":true,"rental_uris":{"android":"levelo://app?vid=713cd2eb-1541-4c48-b922-a89d313c612d","ios":"levelo://app?vid=713cd2eb-1541-4c48-b922-a89d313c612d"},"vehicle_type_id":"4","last_reported":1777155911,"current_range_meters":3200,"station_id":"ce4bh0h2rcd13ifvqd50","pricing_plan_id":"cebpf4jnsgd1na2vs0mg"},{"bike_id":"32a11a22-5629-4442-8312-d682f044d8ca","system_id":"levelo_inurba_marseille","lat":43.23715,"lon":5.36122,"is_reserved":false,"is_disabled":false,"rental_uris":{"android":"levelo://app?vid=32a11a22-5629-4442-8312-d682f044d8ca","ios":"levelo://app?vid=32a11a22-5629-4442-8312-d682f044d8ca"},"vehicle_type_id":"4","last_reported":1777155911,"current_range_meters":3200,"station_id":"","pricing_plan_id":"cebpf4jnsgd1na2vs0mg"},{"bike_id":"4af5f932-71ad-4954-ac3b-fecb2a352994","system_id":"levelo_inurba_marseille","lat":43.32352,"lon":5.36733,"is_reserved":false,"is_disabled":false,"rental_uris":{"android":"levelo://app?vid=4af5f932-71ad-4954-ac3b-fecb2a352994","ios":"levelo://app?vid=4af5f932-71ad-4954-ac3b-fecb2a352994"},"vehicle_type_id":"4","last_reported":1777155911,"current_range_meters":3600,"station_id":"ce4bhsh2rcd13ifvqi2g","pricing_plan_id":"cebpf4jnsgd1na2vs0mg"},{"bike_id":"1370c3f0-6074-43de-a93b-f7f87c829b3b","system_id":"levelo_inurba_marseille","lat":43.2912,"lon":5.39985,"is_reserved":false,"is_disabled":false,"rental_uris":{"android":"levelo://app?vid=1370c3f0-6074-43de-a93b-f7f87c829b3b","ios":"levelo://app?vid=1370c3f0-6074-43de-a93b-f7f87c829b3b"},"vehicle_type_id":"4","last_reported":1777155911,"current_range_meters":3600,"station_id":"","pricing_plan_id":"cebpf4jnsgd1na2vs0mg"},{"bike_id":"d4a43af0-440c-4662-a440-af0c31ef8ba9","system_id":"levelo_inurba_marseille","lat":43.29787,"lon":5.38096,"is_reserved":false,"is_disabled":false,"rental_uris":{"android":"levelo://app?vid=d4a43af0-440c-4662-a440-af0c31ef8ba9","ios":"levelo://app?vid=d4a43af0-440c-4662-a440-af0c31ef8ba9"},"vehicle_type_id":"4","last_reported":1777155911,"current_range_meters":3600,"station_id":"ce4bgip2rcd13ifvqbb0","pricing_plan_id":"cebpf4jnsgd1na2vs0mg"},{"bike_id":"2819c843-5932-40f6-8bae-f669751e2d4f","system_id":"levelo_inurba_marseille","lat":43.24833,"lon":5.3744,"is_reserved":false,"is_disabled":false,"rental_uris":{"android":"levelo://app?vid=2819c843-5932-40f6-8bae-f669751e2d4f","ios":"levelo://app?vid=2819c843-5932-40f6-8bae-f669751e2d4f"},"vehicle_type_id":"4","last_reported":1777155911,"current_range_meters":3600,"station_id":"ce4bhgh2rcd13ifvqfb0","pricing_plan_id":"cebpf4jnsgd1na2vs0mg"},{"bike_id":"4d5b4915-5fc0-4782-a3a4-e445cc2cf470","system_id":"levelo_inurba_marseille","lat":43.29871,"lon":5.42101,"is_reserved":false,"is_disabled":false,"rental_uris":{"android":"levelo://app?vid=4d5b4915-5fc0-4782-a3a4-e445cc2cf470","ios":"levelo://app?vid=4d5b4915-5fc0-4782-a3a4-e445cc2cf470"},"vehicle_type_id":"4","last_reported":1777155911,"current_range_meters":3600,"station_id":"st_d6tc004otcvc738tfe70","pricing_plan_id":"cebpf4jnsgd1na2vs0mg"},{"bike_id":"661352ad-320f-4fec-900e-52bef15be9f8","system_id":"levelo_inurba_marseille","lat":43.3089,"lon":5.39654,"is_reserved":false,"is_disabled":false,"rental_uris":{"android":"levelo://app?vid=661352ad-320f-4fec-900e-52bef15be9f8","ios":"levelo://app?vid=661352ad-320f-4fec-900e-52bef15be9f8"},"vehicle_type_id":"4","last_reported":1777155911,"current_range_meters":3600,"station_id":"ce4bh012rcd13ifvqcv0","pricing_plan_id":"cebpf4jnsgd1na2vs0mg"},{"bike_id":"c7ac0306-6afc-4781-8692-f962ddfe1a23","system_id":"levelo_inurba_marseille","lat":43.32349,"lon":5.36727,"is_reserved":false,"is_disabled":false,"rental_uris":{"android":"levelo://app?vid=c7ac0306-6afc-4781-8692-f962ddfe1a23","ios":"levelo://app?vid=c7ac0306-6afc-4781-8692-f962ddfe1a23"},"vehicle_type_id":"4","last_reported":1777155911,"current_range_meters":3600,"station_id":"ce4bhsh2rcd13ifvqi2g","pricing_plan_id":"cebpf4jnsgd1na2vs0mg"},{"bike_id":"e0b2eaa7-8916-4723-a416-cd7c59fb6f32","system_id":"levelo_inurba_marseille","lat":43.29334,"lon":5.37411,"is_reserved":false,"is_disabled":false,"rental_uris":{"android":"levelo://app?vid=e0b2eaa7-8916-4723-a416-cd7c59fb6f32","ios":"levelo://app?vid=e0b2eaa7-8916-4723-a416-cd7c59fb6f32"},"vehicle_type_id":"4","last_reported":1777155911,"current_range_meters":3600,"station_id":"","pricing_plan_id":"cebpf4jnsgd1na2vs0mg"},{"bike_id":"f8b71621-9ee0-4284-b9b2-be8fa047ba8a","system_id":"levelo_inurba_marseille","lat":43.30123,"lon":5.43119,"is_reserved":false,"is_disabled":false,"rental_uris":{"android":"levelo://app?vid=f8b71621-9ee0-4284-b9b2-be8fa047ba8a","ios":"levelo://app?vid=f8b71621-9ee0-4284-b9b2-be8fa047ba8a"},"vehicle_type_id":"4","last_reported":1777155911,"current_range_meters":3600,"station_id":"st_d3js3co5814s73ftftug","pricing_plan_id":"cebpf4jnsgd1na2vs0mg"},{"bike_id":"284bb20f-7bbf-450c-9c94-2dc57069e2bf","system_id":"levelo_inurba_marseille","lat":43.271,"lon":5.42259,"is_reserved":false,"is_disabled":false,"rental_uris":{"android":"levelo://app?vid=284bb20f-7bbf-450c-9c94-2dc57069e2bf","ios":"levelo://app?vid=284bb20f-7bbf-450c-9c94-2dc57069e2bf"},"vehicle_type_id":"4","last_reported":1777155911,"current_range_meters":3600,"station_id":"ce4bhk92rcd13ifvqgb0","pricing_plan_id":"cebpf4jnsgd1na2vs0mg"},{"bike_id":"77c42c67-1c0c-4f50-8a8b-8bc130b53e9b","system_id":"levelo_inurba_marseille","lat":43.31406,"lon":5.37249,"is_reserved":false,"is_disabled":false,"rental_uris":{"android":"levelo://app?vid=77c42c67-1c0c-4f50-8a8b-8bc130b53e9b","ios":"levelo://app?vid=77c42c67-1c0c-4f50-8a8b-8bc130b53e9b"},"vehicle_type_id":"4","last_reported":1777155911,"current_range_meters":4000,"station_id":"","pricing_plan_id":"cebpf4jnsgd1na2vs0mg"},{"bike_id":"1d368fe1-0c8f-4a40-864c-b54082c58fa1","system_id":"levelo_inurba_marseille","lat":43.33534,"lon":5.37448,"is_reserved":false,"is_disabled":false,"rental_uris":{"android":"levelo://app?vid=1d368fe1-0c8f-4a40-864c-b54082c58fa1","ios":"levelo://app?vid=1d368fe1-0c8f-4a40-864c-b54082c58fa1"},"vehicle_type_id":"4","last_reported":1777155911,"current_range_meters":4000,"station_id":"st_d46tts09ee8s73dlu43g","pricing_plan_id":"cebpf4jnsgd1na2vs0mg"},{"bike_id":"229e4557-384d-4a68-9d9c-a426b264692f","system_id":"levelo_inurba_marseille","lat":43.26026,"lon":5.37546,"is_reserved":false,"is_disabled":false,"rental_uris":{"android":"levelo://app?vid=229e4557-384d-4a68-9d9c-a426b264692f","ios":"levelo://app?vid=229e4557-384d-4a68-9d9c-a426b264692f"},"vehicle_type_id":"4","last_reported":1777155911,"current_range_meters":4000,"station_id":"ce4bhgh2rcd13ifvqfa0","pricing_plan_id":"cebpf4jnsgd1na2vs0mg"},{"bike_id":"a3dee876-3af2-46d4-9131-1dd0997e500a","system_id":"levelo_inurba_marseille","lat":43.24423,"lon":5.3706,"is_reserved":false,"is_disabled":true,"rental_uris":{"android":"levelo://app?vid=a3dee876-3af2-46d4-9131-1dd0997e500a","ios":"levelo://app?vid=a3dee876-3af2-46d4-9131-1dd0997e500a"},"vehicle_type_id":"4","last_reported":1777155911,"current_range_meters":4000,"station_id":"ce4bhhh2rcd13ifvqfk0","pricing_plan_id":"cebpf4jnsgd1na2vs0mg"},{"bike_id":"09dca68d-a96e-4c7c-8c93-084a9274aaf6","system_id":"levelo_inurba_marseille","lat":43.22526,"lon":5.34827,"is_reserved":false,"is_disabled":false,"rental_uris":{"android":"levelo://app?vid=09dca68d-a96e-4c7c-8c93-084a9274aaf6","ios":"levelo://app?vid=09dca68d-a96e-4c7c-8c93-084a9274aaf6"},"vehicle_type_id":"4","last_reported":1777155911,"current_range_meters":4000,"station_id":"st_cvj5dfep6f1abm77gieg","pricing_plan_id":"cebpf4jnsgd1na2vs0mg"},{"bike_id":"021c3599-d960-4255-bf18-8b3b47549997","system_id":"levelo_inurba_marseille","lat":43.30182,"lon":5.43074,"is_reserved":false,"is_disabled":false,"rental_uris":{"android":"levelo://app?vid=021c3599-d960-4255-bf18-8b3b47549997","ios":"levelo://app?vid=021c3599-d960-4255-bf18-8b3b47549997"},"vehicle_type_id":"4","last_reported":1777155911,"current_range_meters":4000,"station_id":"","pricing_plan_id":"cebpf4jnsgd1na2vs0mg"},{"bike_id":"2378e1f0-5689-4487-9679-7d71c7865159","system_id":"levelo_inurba_marseille","lat":43.2583,"lon":5.39417,"is_reserved":false,"is_disabled":false,"rental_uris":{"android":"levelo://app?vid=2378e1f0-5689-4487-9679-7d71c7865159","ios":"levelo://app?vid=2378e1f0-5689-4487-9679-7d71c7865159"},"vehicle_type_id":"4","last_reported":1777155911,"current_range_meters":4000,"station_id":"ce4bhip2rcd13ifvqft0","pricing_plan_id":"cebpf4jnsgd1na2vs0mg"},{"bike_id":"2f73692a-0883-40b9-a746-623079b32f2b","system_id":"levelo_inurba_marseille","lat":43.29254,"lon":5.40903,"is_reserved":false,"is_disabled":false,"rental_uris":{"android":"levelo://app?vid=2f73692a-0883-40b9-a746-623079b32f2b","ios":"levelo://app?vid=2f73692a-0883-40b9-a746-623079b32f2b"},"vehicle_type_id":"4","last_reported":1777155911,"current_range_meters":4000,"station_id":"ce4bh192rcd13ifvqdc0","pricing_plan_id":"cebpf4jnsgd1na2vs0mg"},{"bike_id":"261b4d20-3fce-4a9a-b1df-f7d9447249df","system_id":"levelo_inurba_marseille","lat":43.28492,"lon":5.48368,"is_reserved":false,"is_disabled":false,"rental_uris":{"android":"levelo://app?vid=261b4d20-3fce-4a9a-b1df-f7d9447249df","ios":"levelo://app?vid=261b4d20-3fce-4a9a-b1df-f7d9447249df"},"vehicle_type_id":"4","last_reported":1777155911,"current_range_meters":4000,"station_id":"st_d3svhcjqgbts73a3dn0g","pricing_plan_id":"cebpf4jnsgd1na2vs0mg"},{"bike_id":"931d703e-4043-4cf3-8b49-a4394f33276a","system_id":"levelo_inurba_marseille","lat":43.27815,"lon":5.40724,"is_reserved":false,"is_disabled":false,"rental_uris":{"android":"levelo://app?vid=931d703e-4043-4cf3-8b49-a4394f33276a","ios":"levelo://app?vid=931d703e-4043-4cf3-8b49-a4394f33276a"},"vehicle_type_id":"4","last_reported":1777155911,"current_range_meters":4000,"station_id":"ce4bhnh2rcd13ifvqgtg","pricing_plan_id":"cebpf4jnsgd1na2vs0mg"},{"bike_id":"a0ec993b-b970-4d98-8934-efa5a4e0a2e5","system_id":"levelo_inurba_marseille","lat":43.29198,"lon":5.37128,"is_reserved":false,"is_disabled":false,"rental_uris":{"android":"levelo://app?vid=a0ec993b-b970-4d98-8934-efa5a4e0a2e5","ios":"levelo://app?vid=a0ec993b-b970-4d98-8934-efa5a4e0a2e5"},"vehicle_type_id":"4","last_reported":1777155911,"current_range_meters":4000,"station_id":"ce4bha92rcd13ifvqeh0","pricing_plan_id":"cebpf4jnsgd1na2vs0mg"},{"bike_id":"e243155c-2775-42d9-9d4e-ad6e7e6fab95","system_id":"levelo_inurba_marseille","lat":43.23894,"lon":5.37448,"is_reserved":false,"is_disabled":false,"rental_uris":{"android":"levelo://app?vid=e243155c-2775-42d9-9d4e-ad6e7e6fab95","ios":"levelo://app?vid=e243155c-2775-42d9-9d4e-ad6e7e6fab95"},"vehicle_type_id":"4","last_reported":1777155911,"current_range_meters":4000,"station_id":"","pricing_plan_id":"cebpf4jnsgd1na2vs0mg"},{"bike_id":"8c8d3a1e-3e2c-407c-b8ad-af868cc54226","system_id":"levelo_inurba_marseille","lat":43.294882,"lon":5.393907,"is_reserved":false,"is_disabled":false,"rental_uris":{"android":"levelo://app?vid=8c8d3a1e-3e2c-407c-b8ad-af868cc54226","ios":"levelo://app?vid=8c8d3a1e-3e2c-407c-b8ad-af868cc54226"},"vehicle_type_id":"4","last_reported":1777155911,"current_range_meters":4400,"station_id":"","pricing_plan_id":"cebpf4jnsgd1na2vs0mg"},{"bike_id":"f645e30b-5616-45b3-a17d-faf4a49d971d","system_id":"levelo_inurba_marseille","lat":43.31,"lon":5.37533,"is_reserved":false,"is_disabled":false,"rental_uris":{"android":"levelo://app?vid=f645e30b-5616-45b3-a17d-faf4a49d971d","ios":"levelo://app?vid=f645e30b-5616-45b3-a17d-faf4a49d971d"},"vehicle_type_id":"4","last_reported":1777155911,"current_range_meters":4400,"station_id":"","pricing_plan_id":"cebpf4jnsgd1na2vs0mg"},{"bike_id":"45ad0d0e-efdd-4c05-bbcd-19b309dc3892","system_id":"levelo_inurba_marseille","lat":43.28064,"lon":5.41723,"is_reserved":false,"is_disabled":false,"rental_uris":{"android":"levelo://app?vid=45ad0d0e-efdd-4c05-bbcd-19b309dc3892","ios":"levelo://app?vid=45ad0d0e-efdd-4c05-bbcd-19b309dc3892"},"vehicle_type_id":"4","last_reported":1777155911,"current_range_meters":4400,"station_id":"","pricing_plan_id":"cebpf4jnsgd1na2vs0mg"},{"bike_id":"75471a09-e4ee-4438-b4e9-ebcc3c66f359","system_id":"levelo_inurba_marseille","lat":43.21196,"lon":5.35068,"is_reserved":false,"is_disabled":false,"rental_uris":{"android":"levelo://app?vid=75471a09-e4ee-4438-b4e9-ebcc3c66f359","ios":"levelo://app?vid=75471a09-e4ee-4438-b4e9-ebcc3c66f359"},"vehicle_type_id":"4","last_reported":1777155911,"current_range_meters":4400,"station_id":"st_cvj6sg6p6f1abm77japg","pricing_plan_id":"cebpf4jnsgd1na2vs0mg"},{"bike_id":"ac3d2c63-2999-4be2-be4f-3dd33ab0cbcd","system_id":"levelo_inurba_marseille","lat":43.28337,"lon":5.38067,"is_reserved":false,"is_disabled":false,"rental_uris":{"android":"levelo://app?vid=ac3d2c63-2999-4be2-be4f-3dd33ab0cbcd","ios":"levelo://app?vid=ac3d2c63-2999-4be2-be4f-3dd33ab0cbcd"},"vehicle_type_id":"4","last_reported":1777155911,"current_range_meters":4400,"station_id":"ce4bh412rcd13ifvqdr0","pricing_plan_id":"cebpf4jnsgd1na2vs0mg"},{"bike_id":"4f81052a-376c-4dec-a1c7-95196629e642","system_id":"levelo_inurba_marseille","lat":43.30941,"lon":5.39012,"is_reserved":false,"is_disabled":false,"rental_uris":{"android":"levelo://app?vid=4f81052a-376c-4dec-a1c7-95196629e642","ios":"levelo://app?vid=4f81052a-376c-4dec-a1c7-95196629e642"},"vehicle_type_id":"4","last_reported":1777155911,"current_range_meters":4400,"station_id":"ce4bgup2rcd13ifvqco0","pricing_plan_id":"cebpf4jnsgd1na2vs0mg"},{"bike_id":"6b498e23-233c-44e7-bdf2-4e8481886ee3","system_id":"levelo_inurba_marseille","lat":43.25551,"lon":5.37618,"is_reserved":false,"is_disabled":false,"rental_uris":{"android":"levelo://app?vid=6b498e23-233c-44e7-bdf2-4e8481886ee3","ios":"levelo://app?vid=6b498e23-233c-44e7-bdf2-4e8481886ee3"},"vehicle_type_id":"4","last_reported":1777155911,"current_range_meters":4400,"station_id":"","pricing_plan_id":"cebpf4jnsgd1na2vs0mg"},{"bike_id":"9e736a24-151b-4861-9d3c-68515cd11e0f","system_id":"levelo_inurba_marseille","lat":43.32087,"lon":5.36776,"is_reserved":false,"is_disabled":false,"rental_uris":{"android":"levelo://app?vid=9e736a24-151b-4861-9d3c-68515cd11e0f","ios":"levelo://app?vid=9e736a24-151b-4861-9d3c-68515cd11e0f"},"vehicle_type_id":"4","last_reported":1777155911,"current_range_meters":4400,"station_id":"ce4bhrh2rcd13ifvqhug","pricing_plan_id":"cebpf4jnsgd1na2vs0mg"},{"bike_id":"26588d92-9c0a-4e9d-9c77-864123119f50","system_id":"levelo_inurba_marseille","lat":43.2439,"lon":5.37051,"is_reserved":false,"is_disabled":false,"rental_uris":{"android":"levelo://app?vid=26588d92-9c0a-4e9d-9c77-864123119f50","ios":"levelo://app?vid=26588d92-9c0a-4e9d-9c77-864123119f50"},"vehicle_type_id":"4","last_reported":1777155911,"current_range_meters":4400,"station_id":"ce4bhhh2rcd13ifvqfk0","pricing_plan_id":"cebpf4jnsgd1na2vs0mg"},{"bike_id":"7e231511-ccf9-46fc-9fdd-c87720e6ebd9","system_id":"levelo_inurba_marseille","lat":43.28342,"lon":5.3808,"is_reserved":false,"is_disabled":false,"rental_uris":{"android":"levelo://app?vid=7e231511-ccf9-46fc-9fdd-c87720e6ebd9","ios":"levelo://app?vid=7e231511-ccf9-46fc-9fdd-c87720e6ebd9"},"vehicle_type_id":"4","last_reported":1777155911,"current_range_meters":4400,"station_id":"ce4bh412rcd13ifvqdr0","pricing_plan_id":"cebpf4jnsgd1na2vs0mg"},{"bike_id":"5091d3df-140a-4a96-ba1e-f44ab742c57b","system_id":"levelo_inurba_marseille","lat":43.23205,"lon":5.39993,"is_reserved":false,"is_disabled":true,"rental_uris":{"android":"levelo://app?vid=5091d3df-140a-4a96-ba1e-f44ab742c57b","ios":"levelo://app?vid=5091d3df-140a-4a96-ba1e-f44ab742c57b"},"vehicle_type_id":"4","last_reported":1777155911,"current_range_meters":4400,"station_id":"ce4bhn12rcd13ifvqgqg","pricing_plan_id":"cebpf4jnsgd1na2vs0mg"},{"bike_id":"36083d0d-36eb-4ce6-bb81-4eee378f0183","system_id":"levelo_inurba_marseille","lat":43.30216,"lon":5.3945,"is_reserved":false,"is_disabled":false,"rental_uris":{"android":"levelo://app?vid=36083d0d-36eb-4ce6-bb81-4eee378f0183","ios":"levelo://app?vid=36083d0d-36eb-4ce6-bb81-4eee378f0183"},"vehicle_type_id":"4","last_reported":1777155911,"current_range_meters":4400,"station_id":"ce4bh0p2rcd13ifvqd70","pricing_plan_id":"cebpf4jnsgd1na2vs0mg"},{"bike_id":"5e5d4e4b-0a64-4c38-b136-030f74f3d6a8","system_id":"levelo_inurba_marseille","lat":43.29537,"lon":5.38529,"is_reserved":false,"is_disabled":false,"rental_uris":{"android":"levelo://app?vid=5e5d4e4b-0a64-4c38-b136-030f74f3d6a8","ios":"levelo://app?vid=5e5d4e4b-0a64-4c38-b136-030f74f3d6a8"},"vehicle_type_id":"4","last_reported":1777155911,"current_range_meters":4800,"station_id":"ce4bgih2rcd13ifvqba0","pricing_plan_id":"cebpf4jnsgd1na2vs0mg"},{"bike_id":"0ce641a1-ca62-4f05-b894-4a72f77b98f2","system_id":"levelo_inurba_marseille","lat":43.32345,"lon":5.36749,"is_reserved":false,"is_disabled":false,"rental_uris":{"android":"levelo://app?vid=0ce641a1-ca62-4f05-b894-4a72f77b98f2","ios":"levelo://app?vid=0ce641a1-ca62-4f05-b894-4a72f77b98f2"},"vehicle_type_id":"4","last_reported":1777155911,"current_range_meters":4800,"station_id":"ce4bhsh2rcd13ifvqi2g","pricing_plan_id":"cebpf4jnsgd1na2vs0mg"},{"bike_id":"54dd0309-49d2-49f6-bbb2-520a1e5622f4","system_id":"levelo_inurba_marseille","lat":43.24174,"lon":5.36382,"is_reserved":false,"is_disabled":false,"rental_uris":{"android":"levelo://app?vid=54dd0309-49d2-49f6-bbb2-520a1e5622f4","ios":"levelo://app?vid=54dd0309-49d2-49f6-bbb2-520a1e5622f4"},"vehicle_type_id":"4","last_reported":1777155911,"current_range_meters":4800,"station_id":"cpo36qri1sfpv3e86is0","pricing_plan_id":"cebpf4jnsgd1na2vs0mg"},{"bike_id":"5d7b6c7d-f22f-484b-83d6-21f3ffbc3000","system_id":"levelo_inurba_marseille","lat":43.29506,"lon":5.37436,"is_reserved":false,"is_disabled":false,"rental_uris":{"android":"levelo://app?vid=5d7b6c7d-f22f-484b-83d6-21f3ffbc3000","ios":"levelo://app?vid=5d7b6c7d-f22f-484b-83d6-21f3ffbc3000"},"vehicle_type_id":"4","last_reported":1777155911,"current_range_meters":4800,"station_id":"","pricing_plan_id":"cebpf4jnsgd1na2vs0mg"},{"bike_id":"3347d5c2-8027-4949-a6c2-e60763a6d92c","system_id":"levelo_inurba_marseille","lat":43.2939,"lon":5.38821,"is_reserved":false,"is_disabled":false,"rental_uris":{"android":"levelo://app?vid=3347d5c2-8027-4949-a6c2-e60763a6d92c","ios":"levelo://app?vid=3347d5c2-8027-4949-a6c2-e60763a6d92c"},"vehicle_type_id":"4","last_reported":1777155911,"current_range_meters":4800,"station_id":"","pricing_plan_id":"cebpf4jnsgd1na2vs0mg"},{"bike_id":"0cbeaa0c-266a-4582-b93c-4868a95e4d25","system_id":"levelo_inurba_marseille","lat":43.279162,"lon":5.395739,"is_reserved":false,"is_disabled":false,"rental_uris":{"android":"levelo://app?vid=0cbeaa0c-266a-4582-b93c-4868a95e4d25","ios":"levelo://app?vid=0cbeaa0c-266a-4582-b93c-4868a95e4d25"},"vehicle_type_id":"4","last_reported":1777155911,"current_range_meters":4800,"station_id":"ce4bhf92rcd13ifvqf40","pricing_plan_id":"cebpf4jnsgd1na2vs0mg"},{"bike_id":"ab6f758a-3eca-407e-a136-980b0d3ef21b","system_id":"levelo_inurba_marseille","lat":43.29888,"lon":5.39732,"is_reserved":false,"is_disabled":false,"rental_uris":{"android":"levelo://app?vid=ab6f758a-3eca-407e-a136-980b0d3ef21b","ios":"levelo://app?vid=ab6f758a-3eca-407e-a136-980b0d3ef21b"},"vehicle_type_id":"4","last_reported":1777155911,"current_range_meters":4800,"station_id":"ce4bh0h2rcd13ifvqd50","pricing_plan_id":"cebpf4jnsgd1na2vs0mg"},{"bike_id":"c6e7d3cb-7e19-483f-a191-0c88543be223","system_id":"levelo_inurba_marseille","lat":43.30103,"lon":5.3906,"is_reserved":false,"is_disabled":false,"rental_uris":{"android":"levelo://app?vid=c6e7d3cb-7e19-483f-a191-0c88543be223","ios":"levelo://app?vid=c6e7d3cb-7e19-483f-a191-0c88543be223"},"vehicle_type_id":"4","last_reported":1777155911,"current_range_meters":4800,"station_id":"ce4bh192rcd13ifvqdb0","pricing_plan_id":"cebpf4jnsgd1na2vs0mg"},{"bike_id":"318b0f19-64fa-4af9-92a2-6b5d9e2e4a7b","system_id":"levelo_inurba_marseille","lat":43.21185,"lon":5.35073,"is_reserved":false,"is_disabled":false,"rental_uris":{"android":"levelo://app?vid=318b0f19-64fa-4af9-92a2-6b5d9e2e4a7b","ios":"levelo://app?vid=318b0f19-64fa-4af9-92a2-6b5d9e2e4a7b"},"vehicle_type_id":"4","last_reported":1777155911,"current_range_meters":4800,"station_id":"st_cvj6sg6p6f1abm77japg","pricing_plan_id":"cebpf4jnsgd1na2vs0mg"},{"bike_id":"966ef0e5-90f1-4e04-8246-10b11ced4715","system_id":"levelo_inurba_marseille","lat":43.31164,"lon":5.38715,"is_reserved":false,"is_disabled":false,"rental_uris":{"android":"levelo://app?vid=966ef0e5-90f1-4e04-8246-10b11ced4715","ios":"levelo://app?vid=966ef0e5-90f1-4e04-8246-10b11ced4715"},"vehicle_type_id":"4","last_reported":1777155911,"current_range_meters":4800,"station_id":"ce4bgv12rcd13ifvqcp0","pricing_plan_id":"cebpf4jnsgd1na2vs0mg"},{"bike_id":"c0126e79-e455-4033-aa6f-9cd2537e8b04","system_id":"levelo_inurba_marseille","lat":43.287,"lon":5.46679,"is_reserved":false,"is_disabled":false,"rental_uris":{"android":"levelo://app?vid=c0126e79-e455-4033-aa6f-9cd2537e8b04","ios":"levelo://app?vid=c0126e79-e455-4033-aa6f-9cd2537e8b04"},"vehicle_type_id":"4","last_reported":1777155911,"current_range_meters":5600,"station_id":"st_d6tc3vkotcvc738tfjhg","pricing_plan_id":"cebpf4jnsgd1na2vs0mg"},{"bike_id":"d70320f1-5e83-436f-822f-c8457a777236","system_id":"levelo_inurba_marseille","lat":43.26216,"lon":5.40455,"is_reserved":false,"is_disabled":false,"rental_uris":{"android":"levelo://app?vid=d70320f1-5e83-436f-822f-c8457a777236","ios":"levelo://app?vid=d70320f1-5e83-436f-822f-c8457a777236"},"vehicle_type_id":"4","last_reported":1777155911,"current_range_meters":5600,"station_id":"ce4bhmh2rcd13ifvqgmg","pricing_plan_id":"cebpf4jnsgd1na2vs0mg"},{"bike_id":"9bcb5bad-dbb2-431c-9005-5d79941461cd","system_id":"levelo_inurba_marseille","lat":43.24405,"lon":5.37054,"is_reserved":false,"is_disabled":false,"rental_uris":{"android":"levelo://app?vid=9bcb5bad-dbb2-431c-9005-5d79941461cd","ios":"levelo://app?vid=9bcb5bad-dbb2-431c-9005-5d79941461cd"},"vehicle_type_id":"4","last_reported":1777155911,"current_range_meters":5600,"station_id":"ce4bhhh2rcd13ifvqfk0","pricing_plan_id":"cebpf4jnsgd1na2vs0mg"},{"bike_id":"3c21f0ef-7f78-49a9-8bbf-12a3b7f18f2e","system_id":"levelo_inurba_marseille","lat":43.27507,"lon":5.42462,"is_reserved":false,"is_disabled":false,"rental_uris":{"android":"levelo://app?vid=3c21f0ef-7f78-49a9-8bbf-12a3b7f18f2e","ios":"levelo://app?vid=3c21f0ef-7f78-49a9-8bbf-12a3b7f18f2e"},"vehicle_type_id":"4","last_reported":1777155911,"current_range_meters":5600,"station_id":"ce4bhn92rcd13ifvqgrg","pricing_plan_id":"cebpf4jnsgd1na2vs0mg"},{"bike_id":"8bb46b33-a5fc-4d6e-b210-c3fa60de6a89","system_id":"levelo_inurba_marseille","lat":43.25517,"lon":5.37642,"is_reserved":false,"is_disabled":false,"rental_uris":{"android":"levelo://app?vid=8bb46b33-a5fc-4d6e-b210-c3fa60de6a89","ios":"levelo://app?vid=8bb46b33-a5fc-4d6e-b210-c3fa60de6a89"},"vehicle_type_id":"4","last_reported":1777155911,"current_range_meters":5600,"station_id":"ce4bhh12rcd13ifvqff0","pricing_plan_id":"cebpf4jnsgd1na2vs0mg"},{"bike_id":"724d0869-017c-4e7e-9911-705be0df09b1","system_id":"levelo_inurba_marseille","lat":43.24597,"lon":5.41819,"is_reserved":false,"is_disabled":false,"rental_uris":{"android":"levelo://app?vid=724d0869-017c-4e7e-9911-705be0df09b1","ios":"levelo://app?vid=724d0869-017c-4e7e-9911-705be0df09b1"},"vehicle_type_id":"4","last_reported":1777155911,"current_range_meters":5600,"station_id":"","pricing_plan_id":"cebpf4jnsgd1na2vs0mg"},{"bike_id":"eeebb936-b5b7-45d3-a735-157ee3ffcadc","system_id":"levelo_inurba_marseille","lat":43.27512,"lon":5.42438,"is_reserved":false,"is_disabled":false,"rental_uris":{"android":"levelo://app?vid=eeebb936-b5b7-45d3-a735-157ee3ffcadc","ios":"levelo://app?vid=eeebb936-b5b7-45d3-a735-157ee3ffcadc"},"vehicle_type_id":"4","last_reported":1777155911,"current_range_meters":5600,"station_id":"ce4bhn92rcd13ifvqgrg","pricing_plan_id":"cebpf4jnsgd1na2vs0mg"},{"bike_id":"e5708470-62e9-4d64-a45f-a0cac4d1b2a0","system_id":"levelo_inurba_marseille","lat":43.262094,"lon":5.374404,"is_reserved":false,"is_disabled":true,"rental_uris":{"android":"levelo://app?vid=e5708470-62e9-4d64-a45f-a0cac4d1b2a0","ios":"levelo://app?vid=e5708470-62e9-4d64-a45f-a0cac4d1b2a0"},"vehicle_type_id":"4","last_reported":1777155911,"current_range_meters":5600,"station_id":"ce4bhgp2rcd13ifvqfc0","pricing_plan_id":"cebpf4jnsgd1na2vs0mg"},{"bike_id":"ef222834-ba7f-45e1-871b-751389caebfe","system_id":"levelo_inurba_marseille","lat":43.29388,"lon":5.37853,"is_reserved":false,"is_disabled":false,"rental_uris":{"android":"levelo://app?vid=ef222834-ba7f-45e1-871b-751389caebfe","ios":"levelo://app?vid=ef222834-ba7f-45e1-871b-751389caebfe"},"vehicle_type_id":"4","last_reported":1777155911,"current_range_meters":5600,"station_id":"ce4bgjh2rcd13ifvqbf0","pricing_plan_id":"cebpf4jnsgd1na2vs0mg"},{"bike_id":"56365307-f337-4264-b14d-be5d1ec17d1e","system_id":"levelo_inurba_marseille","lat":43.28919,"lon":5.38397,"is_reserved":false,"is_disabled":false,"rental_uris":{"android":"levelo://app?vid=56365307-f337-4264-b14d-be5d1ec17d1e","ios":"levelo://app?vid=56365307-f337-4264-b14d-be5d1ec17d1e"},"vehicle_type_id":"4","last_reported":1777155911,"current_range_meters":5600,"station_id":"","pricing_plan_id":"cebpf4jnsgd1na2vs0mg"},{"bike_id":"c639e9dd-379a-46f8-b469-b2b3bc25eac4","system_id":"levelo_inurba_marseille","lat":43.29006,"lon":5.35609,"is_reserved":false,"is_disabled":true,"rental_uris":{"android":"levelo://app?vid=c639e9dd-379a-46f8-b469-b2b3bc25eac4","ios":"levelo://app?vid=c639e9dd-379a-46f8-b469-b2b3bc25eac4"},"vehicle_type_id":"4","last_reported":1777155911,"current_range_meters":6000,"station_id":"ce4bhb92rcd13ifvqen0","pricing_plan_id":"cebpf4jnsgd1na2vs0mg"},{"bike_id":"a18a394f-a610-42d7-b58a-6d9e4023733d","system_id":"levelo_inurba_marseille","lat":43.30596,"lon":5.39353,"is_reserved":false,"is_disabled":false,"rental_uris":{"android":"levelo://app?vid=a18a394f-a610-42d7-b58a-6d9e4023733d","ios":"levelo://app?vid=a18a394f-a610-42d7-b58a-6d9e4023733d"},"vehicle_type_id":"4","last_reported":1777155911,"current_range_meters":6000,"station_id":"ce4bh0p2rcd13ifvqd80","pricing_plan_id":"cebpf4jnsgd1na2vs0mg"},{"bike_id":"008d0ebd-86b1-42a9-92a3-bd520d96b1d4","system_id":"levelo_inurba_marseille","lat":43.26941,"lon":5.38641,"is_reserved":false,"is_disabled":false,"rental_uris":{"android":"levelo://app?vid=008d0ebd-86b1-42a9-92a3-bd520d96b1d4","ios":"levelo://app?vid=008d0ebd-86b1-42a9-92a3-bd520d96b1d4"},"vehicle_type_id":"4","last_reported":1777155911,"current_range_meters":6000,"station_id":"ce4bhh92rcd13ifvqfh0","pricing_plan_id":"cebpf4jnsgd1na2vs0mg"},{"bike_id":"8d087c60-78e6-40f1-847c-41984b3a6f63","system_id":"levelo_inurba_marseille","lat":43.24816,"lon":5.37459,"is_reserved":false,"is_disabled":false,"rental_uris":{"android":"levelo://app?vid=8d087c60-78e6-40f1-847c-41984b3a6f63","ios":"levelo://app?vid=8d087c60-78e6-40f1-847c-41984b3a6f63"},"vehicle_type_id":"4","last_reported":1777155911,"current_range_meters":6000,"station_id":"ce4bhgh2rcd13ifvqfb0","pricing_plan_id":"cebpf4jnsgd1na2vs0mg"},{"bike_id":"b7cd0aad-b7d3-4c8e-9b62-0e258383a294","system_id":"levelo_inurba_marseille","lat":43.30948,"lon":5.39076,"is_reserved":false,"is_disabled":false,"rental_uris":{"android":"levelo://app?vid=b7cd0aad-b7d3-4c8e-9b62-0e258383a294","ios":"levelo://app?vid=b7cd0aad-b7d3-4c8e-9b62-0e258383a294"},"vehicle_type_id":"4","last_reported":1777155911,"current_range_meters":6000,"station_id":"ce4bgup2rcd13ifvqco0","pricing_plan_id":"cebpf4jnsgd1na2vs0mg"},{"bike_id":"90610949-5042-40f1-8252-076aeddd7d81","system_id":"levelo_inurba_marseille","lat":43.3192,"lon":5.36765,"is_reserved":false,"is_disabled":false,"rental_uris":{"android":"levelo://app?vid=90610949-5042-40f1-8252-076aeddd7d81","ios":"levelo://app?vid=90610949-5042-40f1-8252-076aeddd7d81"},"vehicle_type_id":"4","last_reported":1777155911,"current_range_meters":6000,"station_id":"st_d6o2h0d0559c73evc1b0","pricing_plan_id":"cebpf4jnsgd1na2vs0mg"},{"bike_id":"15815817-f529-4745-88e8-c2811e1eae5e","system_id":"levelo_inurba_marseille","lat":43.3128,"lon":5.40172,"is_reserved":false,"is_disabled":false,"rental_uris":{"android":"levelo://app?vid=15815817-f529-4745-88e8-c2811e1eae5e","ios":"levelo://app?vid=15815817-f529-4745-88e8-c2811e1eae5e"},"vehicle_type_id":"4","last_reported":1777155911,"current_range_meters":6000,"station_id":"ce4bh092rcd13ifvqd30","pricing_plan_id":"cebpf4jnsgd1na2vs0mg"},{"bike_id":"47cdfd85-c850-4193-aaa5-b5a23a2b2f3d","system_id":"levelo_inurba_marseille","lat":43.31096,"lon":5.37235,"is_reserved":false,"is_disabled":false,"rental_uris":{"android":"levelo://app?vid=47cdfd85-c850-4193-aaa5-b5a23a2b2f3d","ios":"levelo://app?vid=47cdfd85-c850-4193-aaa5-b5a23a2b2f3d"},"vehicle_type_id":"4","last_reported":1777155911,"current_range_meters":6000,"station_id":"st_d4kl2rp97mjs73e7tdfg","pricing_plan_id":"cebpf4jnsgd1na2vs0mg"},{"bike_id":"085eefc3-42b6-4e5f-8fa3-5e096f60ac23","system_id":"levelo_inurba_marseille","lat":43.21757,"lon":5.34591,"is_reserved":false,"is_disabled":true,"rental_uris":{"android":"levelo://app?vid=085eefc3-42b6-4e5f-8fa3-5e096f60ac23","ios":"levelo://app?vid=085eefc3-42b6-4e5f-8fa3-5e096f60ac23"},"vehicle_type_id":"4","last_reported":1777155911,"current_range_meters":6000,"station_id":"st_cvj6r9ubvosntc0bgbag","pricing_plan_id":"cebpf4jnsgd1na2vs0mg"},{"bike_id":"36fe2575-22d8-45fc-b110-398032622606","system_id":"levelo_inurba_marseille","lat":43.28492,"lon":5.38426,"is_reserved":false,"is_disabled":true,"rental_uris":{"android":"levelo://app?vid=36fe2575-22d8-45fc-b110-398032622606","ios":"levelo://app?vid=36fe2575-22d8-45fc-b110-398032622606"},"vehicle_type_id":"4","last_reported":1777155911,"current_range_meters":6000,"station_id":"ce4bh512rcd13ifvqe3g","pricing_plan_id":"cebpf4jnsgd1na2vs0mg"},{"bike_id":"f45c6cef-0c24-46b7-81bc-53822d8483bd","system_id":"levelo_inurba_marseille","lat":43.31368,"lon":5.38507,"is_reserved":false,"is_disabled":false,"rental_uris":{"android":"levelo://app?vid=f45c6cef-0c24-46b7-81bc-53822d8483bd","ios":"levelo://app?vid=f45c6cef-0c24-46b7-81bc-53822d8483bd"},"vehicle_type_id":"4","last_reported":1777155911,"current_range_meters":6000,"station_id":"ce4bgt92rcd13ifvqcf0","pricing_plan_id":"cebpf4jnsgd1na2vs0mg"},{"bike_id":"b7808ecd-7c49-495a-ae8b-eadddd23df3d","system_id":"levelo_inurba_marseille","lat":43.291,"lon":5.37178,"is_reserved":false,"is_disabled":false,"rental_uris":{"android":"levelo://app?vid=b7808ecd-7c49-495a-ae8b-eadddd23df3d","ios":"levelo://app?vid=b7808ecd-7c49-495a-ae8b-eadddd23df3d"},"vehicle_type_id":"4","last_reported":1777155911,"current_range_meters":6000,"station_id":"ce4bh5p2rcd13ifvqe4g","pricing_plan_id":"cebpf4jnsgd1na2vs0mg"},{"bike_id":"5764bbec-ad28-443f-ba05-86ed46bc41bf","system_id":"levelo_inurba_marseille","lat":43.24837,"lon":5.3744,"is_reserved":false,"is_disabled":false,"rental_uris":{"android":"levelo://app?vid=5764bbec-ad28-443f-ba05-86ed46bc41bf","ios":"levelo://app?vid=5764bbec-ad28-443f-ba05-86ed46bc41bf"},"vehicle_type_id":"4","last_reported":1777155911,"current_range_meters":6000,"station_id":"","pricing_plan_id":"cebpf4jnsgd1na2vs0mg"},{"bike_id":"3ed46481-d0f3-4a06-aa3b-b4f6f86755ef","system_id":"levelo_inurba_marseille","lat":43.30945,"lon":5.39019,"is_reserved":false,"is_disabled":false,"rental_uris":{"android":"levelo://app?vid=3ed46481-d0f3-4a06-aa3b-b4f6f86755ef","ios":"levelo://app?vid=3ed46481-d0f3-4a06-aa3b-b4f6f86755ef"},"vehicle_type_id":"4","last_reported":1777155911,"current_range_meters":6000,"station_id":"ce4bgup2rcd13ifvqco0","pricing_plan_id":"cebpf4jnsgd1na2vs0mg"},{"bike_id":"e6d41d3d-70fe-4d53-9c1a-113d50efa6af","system_id":"levelo_inurba_marseille","lat":43.29868,"lon":5.38907,"is_reserved":false,"is_disabled":false,"rental_uris":{"android":"levelo://app?vid=e6d41d3d-70fe-4d53-9c1a-113d50efa6af","ios":"levelo://app?vid=e6d41d3d-70fe-4d53-9c1a-113d50efa6af"},"vehicle_type_id":"4","last_reported":1777155911,"current_range_meters":6000,"station_id":"ce4bh392rcd13ifvqdl0","pricing_plan_id":"cebpf4jnsgd1na2vs0mg"},{"bike_id":"beb35a66-2a0b-4c30-9c87-55becd2d8005","system_id":"levelo_inurba_marseille","lat":43.285,"lon":5.3843,"is_reserved":false,"is_disabled":false,"rental_uris":{"android":"levelo://app?vid=beb35a66-2a0b-4c30-9c87-55becd2d8005","ios":"levelo://app?vid=beb35a66-2a0b-4c30-9c87-55becd2d8005"},"vehicle_type_id":"4","last_reported":1777155911,"current_range_meters":6000,"station_id":"ce4bh512rcd13ifvqe3g","pricing_plan_id":"cebpf4jnsgd1na2vs0mg"},{"bike_id":"8af7cc4d-787c-4a52-85ef-58bed94c7550","system_id":"levelo_inurba_marseille","lat":43.26222,"lon":5.40447,"is_reserved":false,"is_disabled":false,"rental_uris":{"android":"levelo://app?vid=8af7cc4d-787c-4a52-85ef-58bed94c7550","ios":"levelo://app?vid=8af7cc4d-787c-4a52-85ef-58bed94c7550"},"vehicle_type_id":"4","last_reported":1777155911,"current_range_meters":6000,"station_id":"ce4bhmh2rcd13ifvqgmg","pricing_plan_id":"cebpf4jnsgd1na2vs0mg"},{"bike_id":"51a019a4-0213-4b2c-b314-0b0c512b2b82","system_id":"levelo_inurba_marseille","lat":43.23959,"lon":5.36624,"is_reserved":false,"is_disabled":false,"rental_uris":{"android":"levelo://app?vid=51a019a4-0213-4b2c-b314-0b0c512b2b82","ios":"levelo://app?vid=51a019a4-0213-4b2c-b314-0b0c512b2b82"},"vehicle_type_id":"4","last_reported":1777155911,"current_range_meters":6400,"station_id":"ce4bhi12rcd13ifvqfp0","pricing_plan_id":"cebpf4jnsgd1na2vs0mg"},{"bike_id":"26e0dd1a-6bd2-4e67-8cf2-08eb21d2ed24","system_id":"levelo_inurba_marseille","lat":43.26568,"lon":5.38992,"is_reserved":false,"is_disabled":false,"rental_uris":{"android":"levelo://app?vid=26e0dd1a-6bd2-4e67-8cf2-08eb21d2ed24","ios":"levelo://app?vid=26e0dd1a-6bd2-4e67-8cf2-08eb21d2ed24"},"vehicle_type_id":"4","last_reported":1777155911,"current_range_meters":6400,"station_id":"ce4bhe12rcd13ifvqf30","pricing_plan_id":"cebpf4jnsgd1na2vs0mg"},{"bike_id":"548e4a82-32b2-49d2-a8d0-a6b1676f8a48","system_id":"levelo_inurba_marseille","lat":43.32502,"lon":5.36593,"is_reserved":false,"is_disabled":false,"rental_uris":{"android":"levelo://app?vid=548e4a82-32b2-49d2-a8d0-a6b1676f8a48","ios":"levelo://app?vid=548e4a82-32b2-49d2-a8d0-a6b1676f8a48"},"vehicle_type_id":"4","last_reported":1777155911,"current_range_meters":6400,"station_id":"ce4bhs12rcd13ifvqhvg","pricing_plan_id":"cebpf4jnsgd1na2vs0mg"},{"bike_id":"67fbfeb1-1dbe-466b-93b6-53ea7bb383b4","system_id":"levelo_inurba_marseille","lat":43.29454,"lon":5.37929,"is_reserved":false,"is_disabled":false,"rental_uris":{"android":"levelo://app?vid=67fbfeb1-1dbe-466b-93b6-53ea7bb383b4","ios":"levelo://app?vid=67fbfeb1-1dbe-466b-93b6-53ea7bb383b4"},"vehicle_type_id":"4","last_reported":1777155911,"current_range_meters":6400,"station_id":"","pricing_plan_id":"cebpf4jnsgd1na2vs0mg"},{"bike_id":"c0c5f549-d55a-40a7-bb49-6eb0b1139cc6","system_id":"levelo_inurba_marseille","lat":43.31292,"lon":5.37145,"is_reserved":false,"is_disabled":false,"rental_uris":{"android":"levelo://app?vid=c0c5f549-d55a-40a7-bb49-6eb0b1139cc6","ios":"levelo://app?vid=c0c5f549-d55a-40a7-bb49-6eb0b1139cc6"},"vehicle_type_id":"4","last_reported":1777155911,"current_range_meters":6400,"station_id":"","pricing_plan_id":"cebpf4jnsgd1na2vs0mg"},{"bike_id":"a394f16d-59df-4cc2-a01a-ed77984e8d75","system_id":"levelo_inurba_marseille","lat":43.31134,"lon":5.38654,"is_reserved":false,"is_disabled":false,"rental_uris":{"android":"levelo://app?vid=a394f16d-59df-4cc2-a01a-ed77984e8d75","ios":"levelo://app?vid=a394f16d-59df-4cc2-a01a-ed77984e8d75"},"vehicle_type_id":"4","last_reported":1777155911,"current_range_meters":6400,"station_id":"","pricing_plan_id":"cebpf4jnsgd1na2vs0mg"},{"bike_id":"40d69b45-a292-4d7d-b8e6-837b8b5a9d0c","system_id":"levelo_inurba_marseille","lat":43.28482,"lon":5.48404,"is_reserved":false,"is_disabled":false,"rental_uris":{"android":"levelo://app?vid=40d69b45-a292-4d7d-b8e6-837b8b5a9d0c","ios":"levelo://app?vid=40d69b45-a292-4d7d-b8e6-837b8b5a9d0c"},"vehicle_type_id":"4","last_reported":1777155911,"current_range_meters":6400,"station_id":"","pricing_plan_id":"cebpf4jnsgd1na2vs0mg"},{"bike_id":"00cadce8-7903-4092-8b5c-5695ce27b5b2","system_id":"levelo_inurba_marseille","lat":43.29538,"lon":5.38549,"is_reserved":false,"is_disabled":true,"rental_uris":{"android":"levelo://app?vid=00cadce8-7903-4092-8b5c-5695ce27b5b2","ios":"levelo://app?vid=00cadce8-7903-4092-8b5c-5695ce27b5b2"},"vehicle_type_id":"4","last_reported":1777155911,"current_range_meters":6400,"station_id":"ce4bgih2rcd13ifvqba0","pricing_plan_id":"cebpf4jnsgd1na2vs0mg"},{"bike_id":"0d8ff8cb-e834-49f6-bea0-613f71047a09","system_id":"levelo_inurba_marseille","lat":43.29534,"lon":5.37499,"is_reserved":false,"is_disabled":false,"rental_uris":{"android":"levelo://app?vid=0d8ff8cb-e834-49f6-bea0-613f71047a09","ios":"levelo://app?vid=0d8ff8cb-e834-49f6-bea0-613f71047a09"},"vehicle_type_id":"4","last_reported":1777155911,"current_range_meters":6400,"station_id":"ce4bgkp2rcd13ifvqbmg","pricing_plan_id":"cebpf4jnsgd1na2vs0mg"},{"bike_id":"541dbded-315f-4ca8-ac49-47fcb4294bb7","system_id":"levelo_inurba_marseille","lat":43.33538,"lon":5.37484,"is_reserved":false,"is_disabled":false,"rental_uris":{"android":"levelo://app?vid=541dbded-315f-4ca8-ac49-47fcb4294bb7","ios":"levelo://app?vid=541dbded-315f-4ca8-ac49-47fcb4294bb7"},"vehicle_type_id":"4","last_reported":1777155911,"current_range_meters":6400,"station_id":"st_d46tts09ee8s73dlu43g","pricing_plan_id":"cebpf4jnsgd1na2vs0mg"},{"bike_id":"28dc652e-391e-4daa-a243-946582e83158","system_id":"levelo_inurba_marseille","lat":43.31742,"lon":5.40451,"is_reserved":false,"is_disabled":false,"rental_uris":{"android":"levelo://app?vid=28dc652e-391e-4daa-a243-946582e83158","ios":"levelo://app?vid=28dc652e-391e-4daa-a243-946582e83158"},"vehicle_type_id":"4","last_reported":1777155911,"current_range_meters":6400,"station_id":"","pricing_plan_id":"cebpf4jnsgd1na2vs0mg"},{"bike_id":"0852722a-7690-41d8-85ee-3e7c6221932f","system_id":"levelo_inurba_marseille","lat":43.24551,"lon":5.39529,"is_reserved":false,"is_disabled":false,"rental_uris":{"android":"levelo://app?vid=0852722a-7690-41d8-85ee-3e7c6221932f","ios":"levelo://app?vid=0852722a-7690-41d8-85ee-3e7c6221932f"},"vehicle_type_id":"4","last_reported":1777155911,"current_range_meters":6400,"station_id":"ce4bhlp2rcd13ifvqgjg","pricing_plan_id":"cebpf4jnsgd1na2vs0mg"},{"bike_id":"e150a8cf-4efe-40af-9467-f24e18330374","system_id":"levelo_inurba_marseille","lat":43.25507,"lon":5.37649,"is_reserved":false,"is_disabled":false,"rental_uris":{"android":"levelo://app?vid=e150a8cf-4efe-40af-9467-f24e18330374","ios":"levelo://app?vid=e150a8cf-4efe-40af-9467-f24e18330374"},"vehicle_type_id":"4","last_reported":1777155911,"current_range_meters":6400,"station_id":"ce4bhh12rcd13ifvqff0","pricing_plan_id":"cebpf4jnsgd1na2vs0mg"},{"bike_id":"e5390aed-003c-44bd-b281-4a45cff082d3","system_id":"levelo_inurba_marseille","lat":43.30543,"lon":5.38411,"is_reserved":false,"is_disabled":false,"rental_uris":{"android":"levelo://app?vid=e5390aed-003c-44bd-b281-4a45cff082d3","ios":"levelo://app?vid=e5390aed-003c-44bd-b281-4a45cff082d3"},"vehicle_type_id":"4","last_reported":1777155911,"current_range_meters":6400,"station_id":"ce4bgg92rcd13ifvqb30","pricing_plan_id":"cebpf4jnsgd1na2vs0mg"},{"bike_id":"408ef33a-f995-4732-9be5-641e135ce6e4","system_id":"levelo_inurba_marseille","lat":43.30601,"lon":5.39352,"is_reserved":false,"is_disabled":false,"rental_uris":{"android":"levelo://app?vid=408ef33a-f995-4732-9be5-641e135ce6e4","ios":"levelo://app?vid=408ef33a-f995-4732-9be5-641e135ce6e4"},"vehicle_type_id":"4","last_reported":1777155911,"current_range_meters":6400,"station_id":"ce4bh0p2rcd13ifvqd80","pricing_plan_id":"cebpf4jnsgd1na2vs0mg"},{"bike_id":"27cd71a7-0940-4415-a67f-21597fbf1cd9","system_id":"levelo_inurba_marseille","lat":43.3486,"lon":5.37375,"is_reserved":false,"is_disabled":false,"rental_uris":{"android":"levelo://app?vid=27cd71a7-0940-4415-a67f-21597fbf1cd9","ios":"levelo://app?vid=27cd71a7-0940-4415-a67f-21597fbf1cd9"},"vehicle_type_id":"4","last_reported":1777155911,"current_range_meters":6800,"station_id":"","pricing_plan_id":"cebpf4jnsgd1na2vs0mg"},{"bike_id":"e5bab3d4-51df-40f4-acb7-898a38cfd436","system_id":"levelo_inurba_marseille","lat":43.21202,"lon":5.35058,"is_reserved":false,"is_disabled":false,"rental_uris":{"android":"levelo://app?vid=e5bab3d4-51df-40f4-acb7-898a38cfd436","ios":"levelo://app?vid=e5bab3d4-51df-40f4-acb7-898a38cfd436"},"vehicle_type_id":"4","last_reported":1777155911,"current_range_meters":6800,"station_id":"st_cvj6sg6p6f1abm77japg","pricing_plan_id":"cebpf4jnsgd1na2vs0mg"},{"bike_id":"17fe3f56-b486-40dd-ac6a-710ede14c97d","system_id":"levelo_inurba_marseille","lat":43.314869,"lon":5.373029,"is_reserved":false,"is_disabled":false,"rental_uris":{"android":"levelo://app?vid=17fe3f56-b486-40dd-ac6a-710ede14c97d","ios":"levelo://app?vid=17fe3f56-b486-40dd-ac6a-710ede14c97d"},"vehicle_type_id":"4","last_reported":1777155911,"current_range_meters":6800,"station_id":"","pricing_plan_id":"cebpf4jnsgd1na2vs0mg"},{"bike_id":"25524946-f75a-4ff3-a7e0-4a6cdf5be097","system_id":"levelo_inurba_marseille","lat":43.30643,"lon":5.40083,"is_reserved":false,"is_disabled":false,"rental_uris":{"android":"levelo://app?vid=25524946-f75a-4ff3-a7e0-4a6cdf5be097","ios":"levelo://app?vid=25524946-f75a-4ff3-a7e0-4a6cdf5be097"},"vehicle_type_id":"4","last_reported":1777155911,"current_range_meters":6800,"station_id":"ce4bh112rcd13ifvqda0","pricing_plan_id":"cebpf4jnsgd1na2vs0mg"},{"bike_id":"a4b333a0-7fa7-42c6-a7d4-7b2b56a0efa1","system_id":"levelo_inurba_marseille","lat":43.28979,"lon":5.38571,"is_reserved":false,"is_disabled":false,"rental_uris":{"android":"levelo://app?vid=a4b333a0-7fa7-42c6-a7d4-7b2b56a0efa1","ios":"levelo://app?vid=a4b333a0-7fa7-42c6-a7d4-7b2b56a0efa1"},"vehicle_type_id":"4","last_reported":1777155911,"current_range_meters":6800,"station_id":"","pricing_plan_id":"cebpf4jnsgd1na2vs0mg"},{"bike_id":"475140f4-b583-4984-8b03-5ba0e4640098","system_id":"levelo_inurba_marseille","lat":43.29528,"lon":5.38526,"is_reserved":false,"is_disabled":false,"rental_uris":{"android":"levelo://app?vid=475140f4-b583-4984-8b03-5ba0e4640098","ios":"levelo://app?vid=475140f4-b583-4984-8b03-5ba0e4640098"},"vehicle_type_id":"4","last_reported":1777155911,"current_range_meters":6800,"station_id":"ce4bgih2rcd13ifvqba0","pricing_plan_id":"cebpf4jnsgd1na2vs0mg"},{"bike_id":"d1d5c7cf-8e64-4123-ad8a-ccd792fc4d10","system_id":"levelo_inurba_marseille","lat":43.29361,"lon":5.39865,"is_reserved":false,"is_disabled":false,"rental_uris":{"android":"levelo://app?vid=d1d5c7cf-8e64-4123-ad8a-ccd792fc4d10","ios":"levelo://app?vid=d1d5c7cf-8e64-4123-ad8a-ccd792fc4d10"},"vehicle_type_id":"4","last_reported":1777155911,"current_range_meters":6800,"station_id":"","pricing_plan_id":"cebpf4jnsgd1na2vs0mg"},{"bike_id":"16aa83f8-4d89-4ef2-997f-2c30dcf90e59","system_id":"levelo_inurba_marseille","lat":43.30925,"lon":5.40142,"is_reserved":false,"is_disabled":false,"rental_uris":{"android":"levelo://app?vid=16aa83f8-4d89-4ef2-997f-2c30dcf90e59","ios":"levelo://app?vid=16aa83f8-4d89-4ef2-997f-2c30dcf90e59"},"vehicle_type_id":"4","last_reported":1777155911,"current_range_meters":6800,"station_id":"ce4bgvp2rcd13ifvqct0","pricing_plan_id":"cebpf4jnsgd1na2vs0mg"},{"bike_id":"7f14f307-ed9b-4bde-a995-2c9126a5e681","system_id":"levelo_inurba_marseille","lat":43.30471,"lon":5.37897,"is_reserved":false,"is_disabled":true,"rental_uris":{"android":"levelo://app?vid=7f14f307-ed9b-4bde-a995-2c9126a5e681","ios":"levelo://app?vid=7f14f307-ed9b-4bde-a995-2c9126a5e681"},"vehicle_type_id":"4","last_reported":1777155911,"current_range_meters":6800,"station_id":"ce4bgup2rcd13ifvqcn0","pricing_plan_id":"cebpf4jnsgd1na2vs0mg"},{"bike_id":"3deb095f-0346-4d9f-aae1-8d59d80b3d6e","system_id":"levelo_inurba_marseille","lat":43.244,"lon":5.37068,"is_reserved":false,"is_disabled":false,"rental_uris":{"android":"levelo://app?vid=3deb095f-0346-4d9f-aae1-8d59d80b3d6e","ios":"levelo://app?vid=3deb095f-0346-4d9f-aae1-8d59d80b3d6e"},"vehicle_type_id":"4","last_reported":1777155911,"current_range_meters":6800,"station_id":"ce4bhhh2rcd13ifvqfk0","pricing_plan_id":"cebpf4jnsgd1na2vs0mg"},{"bike_id":"90fac789-06e9-4c33-94b9-e82543e03c21","system_id":"levelo_inurba_marseille","lat":43.22552,"lon":5.41577,"is_reserved":false,"is_disabled":true,"rental_uris":{"android":"levelo://app?vid=90fac789-06e9-4c33-94b9-e82543e03c21","ios":"levelo://app?vid=90fac789-06e9-4c33-94b9-e82543e03c21"},"vehicle_type_id":"4","last_reported":1777155911,"current_range_meters":6800,"station_id":"st_d2o4gvlbi1j2169b742g","pricing_plan_id":"cebpf4jnsgd1na2vs0mg"},{"bike_id":"55ab88c6-7693-4f53-b061-009fb06e1411","system_id":"levelo_inurba_marseille","lat":43.29532,"lon":5.3853,"is_reserved":false,"is_disabled":false,"rental_uris":{"android":"levelo://app?vid=55ab88c6-7693-4f53-b061-009fb06e1411","ios":"levelo://app?vid=55ab88c6-7693-4f53-b061-009fb06e1411"},"vehicle_type_id":"4","last_reported":1777155911,"current_range_meters":6800,"station_id":"ce4bgih2rcd13ifvqba0","pricing_plan_id":"cebpf4jnsgd1na2vs0mg"},{"bike_id":"755f6191-bb5c-4668-927c-cdb1bb937c71","system_id":"levelo_inurba_marseille","lat":43.29259,"lon":5.38442,"is_reserved":false,"is_disabled":false,"rental_uris":{"android":"levelo://app?vid=755f6191-bb5c-4668-927c-cdb1bb937c71","ios":"levelo://app?vid=755f6191-bb5c-4668-927c-cdb1bb937c71"},"vehicle_type_id":"4","last_reported":1777155911,"current_range_meters":6800,"station_id":"ce4bh692rcd13ifvqea0","pricing_plan_id":"cebpf4jnsgd1na2vs0mg"},{"bike_id":"c2810576-67c9-4731-86bb-40c8e2d9b72e","system_id":"levelo_inurba_marseille","lat":43.30936,"lon":5.38948,"is_reserved":false,"is_disabled":false,"rental_uris":{"android":"levelo://app?vid=c2810576-67c9-4731-86bb-40c8e2d9b72e","ios":"levelo://app?vid=c2810576-67c9-4731-86bb-40c8e2d9b72e"},"vehicle_type_id":"4","last_reported":1777155911,"current_range_meters":7200,"station_id":"","pricing_plan_id":"cebpf4jnsgd1na2vs0mg"},{"bike_id":"413e4623-e4a6-44c0-8fe0-f06c3e224af8","system_id":"levelo_inurba_marseille","lat":43.31896,"lon":5.36817,"is_reserved":false,"is_disabled":false,"rental_uris":{"android":"levelo://app?vid=413e4623-e4a6-44c0-8fe0-f06c3e224af8","ios":"levelo://app?vid=413e4623-e4a6-44c0-8fe0-f06c3e224af8"},"vehicle_type_id":"4","last_reported":1777155911,"current_range_meters":7200,"station_id":"st_d6o2h0d0559c73evc1b0","pricing_plan_id":"cebpf4jnsgd1na2vs0mg"},{"bike_id":"0cd2fd7c-6402-466e-aa1b-fa186d7a7ed3","system_id":"levelo_inurba_marseille","lat":43.33194,"lon":5.37792,"is_reserved":false,"is_disabled":false,"rental_uris":{"android":"levelo://app?vid=0cd2fd7c-6402-466e-aa1b-fa186d7a7ed3","ios":"levelo://app?vid=0cd2fd7c-6402-466e-aa1b-fa186d7a7ed3"},"vehicle_type_id":"4","last_reported":1777155911,"current_range_meters":7200,"station_id":"","pricing_plan_id":"cebpf4jnsgd1na2vs0mg"},{"bike_id":"cd5ae753-0ce4-45ab-886c-3f79fabdb3b1","system_id":"levelo_inurba_marseille","lat":43.24794,"lon":5.37395,"is_reserved":false,"is_disabled":false,"rental_uris":{"android":"levelo://app?vid=cd5ae753-0ce4-45ab-886c-3f79fabdb3b1","ios":"levelo://app?vid=cd5ae753-0ce4-45ab-886c-3f79fabdb3b1"},"vehicle_type_id":"4","last_reported":1777155911,"current_range_meters":7200,"station_id":"ce4bhgh2rcd13ifvqfb0","pricing_plan_id":"cebpf4jnsgd1na2vs0mg"},{"bike_id":"044ce3d4-5f89-49a7-a22e-6dad240318c7","system_id":"levelo_inurba_marseille","lat":43.31278,"lon":5.4014,"is_reserved":false,"is_disabled":false,"rental_uris":{"android":"levelo://app?vid=044ce3d4-5f89-49a7-a22e-6dad240318c7","ios":"levelo://app?vid=044ce3d4-5f89-49a7-a22e-6dad240318c7"},"vehicle_type_id":"4","last_reported":1777155911,"current_range_meters":7200,"station_id":"ce4bh092rcd13ifvqd30","pricing_plan_id":"cebpf4jnsgd1na2vs0mg"},{"bike_id":"06b05cc0-d183-4b11-a482-70bcb0df65be","system_id":"levelo_inurba_marseille","lat":43.29512,"lon":5.39383,"is_reserved":false,"is_disabled":false,"rental_uris":{"android":"levelo://app?vid=06b05cc0-d183-4b11-a482-70bcb0df65be","ios":"levelo://app?vid=06b05cc0-d183-4b11-a482-70bcb0df65be"},"vehicle_type_id":"4","last_reported":1777155911,"current_range_meters":7200,"station_id":"ce4bh292rcd13ifvqdf0","pricing_plan_id":"cebpf4jnsgd1na2vs0mg"},{"bike_id":"a03ce919-3949-4c06-bbb8-c0f13ba943b2","system_id":"levelo_inurba_marseille","lat":43.25528,"lon":5.37647,"is_reserved":false,"is_disabled":true,"rental_uris":{"android":"levelo://app?vid=a03ce919-3949-4c06-bbb8-c0f13ba943b2","ios":"levelo://app?vid=a03ce919-3949-4c06-bbb8-c0f13ba943b2"},"vehicle_type_id":"4","last_reported":1777155911,"current_range_meters":7200,"station_id":"ce4bhh12rcd13ifvqff0","pricing_plan_id":"cebpf4jnsgd1na2vs0mg"},{"bike_id":"ace34436-51fe-4536-a1f6-cfa009f56977","system_id":"levelo_inurba_marseille","lat":43.3354,"lon":5.37465,"is_reserved":false,"is_disabled":false,"rental_uris":{"android":"levelo://app?vid=ace34436-51fe-4536-a1f6-cfa009f56977","ios":"levelo://app?vid=ace34436-51fe-4536-a1f6-cfa009f56977"},"vehicle_type_id":"4","last_reported":1777155911,"current_range_meters":7200,"station_id":"st_d46tts09ee8s73dlu43g","pricing_plan_id":"cebpf4jnsgd1na2vs0mg"},{"bike_id":"871ecb18-5038-45b5-986d-ba284857ca11","system_id":"levelo_inurba_marseille","lat":43.29216,"lon":5.39326,"is_reserved":false,"is_disabled":false,"rental_uris":{"android":"levelo://app?vid=871ecb18-5038-45b5-986d-ba284857ca11","ios":"levelo://app?vid=871ecb18-5038-45b5-986d-ba284857ca11"},"vehicle_type_id":"4","last_reported":1777155911,"current_range_meters":7200,"station_id":"ce4bh192rcd13ifvqdd0","pricing_plan_id":"cebpf4jnsgd1na2vs0mg"},{"bike_id":"754e2c22-c5c7-459c-9895-553b8dcb0fab","system_id":"levelo_inurba_marseille","lat":43.29049,"lon":5.37559,"is_reserved":false,"is_disabled":false,"rental_uris":{"android":"levelo://app?vid=754e2c22-c5c7-459c-9895-553b8dcb0fab","ios":"levelo://app?vid=754e2c22-c5c7-459c-9895-553b8dcb0fab"},"vehicle_type_id":"4","last_reported":1777155911,"current_range_meters":7200,"station_id":"ce4bh692rcd13ifvqe90","pricing_plan_id":"cebpf4jnsgd1na2vs0mg"},{"bike_id":"06558e5b-846f-4e20-b375-c8972d75dc5a","system_id":"levelo_inurba_marseille","lat":43.2734,"lon":5.43126,"is_reserved":false,"is_disabled":false,"rental_uris":{"android":"levelo://app?vid=06558e5b-846f-4e20-b375-c8972d75dc5a","ios":"levelo://app?vid=06558e5b-846f-4e20-b375-c8972d75dc5a"},"vehicle_type_id":"4","last_reported":1777155911,"current_range_meters":7200,"station_id":"","pricing_plan_id":"cebpf4jnsgd1na2vs0mg"},{"bike_id":"04163211-e7a8-48d9-b759-0d540a1eacf6","system_id":"levelo_inurba_marseille","lat":43.29253,"lon":5.38428,"is_reserved":false,"is_disabled":false,"rental_uris":{"android":"levelo://app?vid=04163211-e7a8-48d9-b759-0d540a1eacf6","ios":"levelo://app?vid=04163211-e7a8-48d9-b759-0d540a1eacf6"},"vehicle_type_id":"4","last_reported":1777155911,"current_range_meters":7200,"station_id":"ce4bh692rcd13ifvqea0","pricing_plan_id":"cebpf4jnsgd1na2vs0mg"},{"bike_id":"648bc781-8e68-4ccd-aedc-987a153e904f","system_id":"levelo_inurba_marseille","lat":43.29265,"lon":5.38457,"is_reserved":false,"is_disabled":false,"rental_uris":{"android":"levelo://app?vid=648bc781-8e68-4ccd-aedc-987a153e904f","ios":"levelo://app?vid=648bc781-8e68-4ccd-aedc-987a153e904f"},"vehicle_type_id":"4","last_reported":1777155911,"current_range_meters":7200,"station_id":"ce4bh692rcd13ifvqea0","pricing_plan_id":"cebpf4jnsgd1na2vs0mg"},{"bike_id":"73b29586-6035-4b17-8f89-10c778399a16","system_id":"levelo_inurba_marseille","lat":43.31975,"lon":5.38117,"is_reserved":false,"is_disabled":false,"rental_uris":{"android":"levelo://app?vid=73b29586-6035-4b17-8f89-10c778399a16","ios":"levelo://app?vid=73b29586-6035-4b17-8f89-10c778399a16"},"vehicle_type_id":"4","last_reported":1777155911,"current_range_meters":7200,"station_id":"ce4bhr12rcd13ifvqhpg","pricing_plan_id":"cebpf4jnsgd1na2vs0mg"},{"bike_id":"f88506b1-e3ef-4794-837e-a02121988ac1","system_id":"levelo_inurba_marseille","lat":43.2928,"lon":5.36847,"is_reserved":false,"is_disabled":false,"rental_uris":{"android":"levelo://app?vid=f88506b1-e3ef-4794-837e-a02121988ac1","ios":"levelo://app?vid=f88506b1-e3ef-4794-837e-a02121988ac1"},"vehicle_type_id":"4","last_reported":1777155911,"current_range_meters":7200,"station_id":"ce4bhbp2rcd13ifvqesg","pricing_plan_id":"cebpf4jnsgd1na2vs0mg"},{"bike_id":"8d1cc07a-c87d-4a7b-8797-cd61ba104d31","system_id":"levelo_inurba_marseille","lat":43.29531,"lon":5.39016,"is_reserved":false,"is_disabled":true,"rental_uris":{"android":"levelo://app?vid=8d1cc07a-c87d-4a7b-8797-cd61ba104d31","ios":"levelo://app?vid=8d1cc07a-c87d-4a7b-8797-cd61ba104d31"},"vehicle_type_id":"4","last_reported":1777155911,"current_range_meters":7200,"station_id":"ce4bh3p2rcd13ifvqdp0","pricing_plan_id":"cebpf4jnsgd1na2vs0mg"},{"bike_id":"a8efdf94-3910-4fe8-9ec0-bdf906b9c60c","system_id":"levelo_inurba_marseille","lat":43.30959,"lon":5.3902,"is_reserved":false,"is_disabled":false,"rental_uris":{"android":"levelo://app?vid=a8efdf94-3910-4fe8-9ec0-bdf906b9c60c","ios":"levelo://app?vid=a8efdf94-3910-4fe8-9ec0-bdf906b9c60c"},"vehicle_type_id":"4","last_reported":1777155911,"current_range_meters":7200,"station_id":"ce4bgup2rcd13ifvqco0","pricing_plan_id":"cebpf4jnsgd1na2vs0mg"},{"bike_id":"6c2f22b6-367a-49b4-aa6e-f4cde028ffca","system_id":"levelo_inurba_marseille","lat":43.28361,"lon":5.38598,"is_reserved":false,"is_disabled":false,"rental_uris":{"android":"levelo://app?vid=6c2f22b6-367a-49b4-aa6e-f4cde028ffca","ios":"levelo://app?vid=6c2f22b6-367a-49b4-aa6e-f4cde028ffca"},"vehicle_type_id":"4","last_reported":1777155911,"current_range_meters":7200,"station_id":"ce4bh492rcd13ifvqdvg","pricing_plan_id":"cebpf4jnsgd1na2vs0mg"},{"bike_id":"3ba1478b-abeb-4ad1-83b7-36b5bf0ef775","system_id":"levelo_inurba_marseille","lat":43.29537,"lon":5.38528,"is_reserved":false,"is_disabled":false,"rental_uris":{"android":"levelo://app?vid=3ba1478b-abeb-4ad1-83b7-36b5bf0ef775","ios":"levelo://app?vid=3ba1478b-abeb-4ad1-83b7-36b5bf0ef775"},"vehicle_type_id":"4","last_reported":1777155911,"current_range_meters":7200,"station_id":"ce4bgih2rcd13ifvqba0","pricing_plan_id":"cebpf4jnsgd1na2vs0mg"},{"bike_id":"4504a775-1946-4aac-92b5-5d484d4b09a6","system_id":"levelo_inurba_marseille","lat":43.29523,"lon":5.39024,"is_reserved":false,"is_disabled":false,"rental_uris":{"android":"levelo://app?vid=4504a775-1946-4aac-92b5-5d484d4b09a6","ios":"levelo://app?vid=4504a775-1946-4aac-92b5-5d484d4b09a6"},"vehicle_type_id":"4","last_reported":1777155911,"current_range_meters":7200,"station_id":"ce4bh3p2rcd13ifvqdp0","pricing_plan_id":"cebpf4jnsgd1na2vs0mg"},{"bike_id":"a9fede3f-8571-4c94-a0d6-ea7d5bf6cfe5","system_id":"levelo_inurba_marseille","lat":43.27988,"lon":5.41661,"is_reserved":false,"is_disabled":false,"rental_uris":{"android":"levelo://app?vid=a9fede3f-8571-4c94-a0d6-ea7d5bf6cfe5","ios":"levelo://app?vid=a9fede3f-8571-4c94-a0d6-ea7d5bf6cfe5"},"vehicle_type_id":"4","last_reported":1777155911,"current_range_meters":7200,"station_id":"ce4bho12rcd13ifvqh1g","pricing_plan_id":"cebpf4jnsgd1na2vs0mg"},{"bike_id":"f59c1d5f-cb00-4b2b-85d7-e7937af76e14","system_id":"levelo_inurba_marseille","lat":43.2954,"lon":5.38542,"is_reserved":false,"is_disabled":false,"rental_uris":{"android":"levelo://app?vid=f59c1d5f-cb00-4b2b-85d7-e7937af76e14","ios":"levelo://app?vid=f59c1d5f-cb00-4b2b-85d7-e7937af76e14"},"vehicle_type_id":"4","last_reported":1777155911,"current_range_meters":7200,"station_id":"ce4bgih2rcd13ifvqba0","pricing_plan_id":"cebpf4jnsgd1na2vs0mg"},{"bike_id":"c51f55b8-c43d-42d0-a39d-88d6708f636e","system_id":"levelo_inurba_marseille","lat":43.31327,"lon":5.39689,"is_reserved":false,"is_disabled":false,"rental_uris":{"android":"levelo://app?vid=c51f55b8-c43d-42d0-a39d-88d6708f636e","ios":"levelo://app?vid=c51f55b8-c43d-42d0-a39d-88d6708f636e"},"vehicle_type_id":"4","last_reported":1777155911,"current_range_meters":7200,"station_id":"ce4bgvp2rcd13ifvqcu0","pricing_plan_id":"cebpf4jnsgd1na2vs0mg"},{"bike_id":"1a53a67e-9022-4580-83c0-fc3f72c9ef8d","system_id":"levelo_inurba_marseille","lat":43.29587,"lon":5.38092,"is_reserved":false,"is_disabled":false,"rental_uris":{"android":"levelo://app?vid=1a53a67e-9022-4580-83c0-fc3f72c9ef8d","ios":"levelo://app?vid=1a53a67e-9022-4580-83c0-fc3f72c9ef8d"},"vehicle_type_id":"4","last_reported":1777155911,"current_range_meters":7200,"station_id":"ce4bgl12rcd13ifvqbo0","pricing_plan_id":"cebpf4jnsgd1na2vs0mg"},{"bike_id":"84c8a771-33c9-421f-a5d6-bf9791123e26","system_id":"levelo_inurba_marseille","lat":43.31993,"lon":5.38129,"is_reserved":false,"is_disabled":false,"rental_uris":{"android":"levelo://app?vid=84c8a771-33c9-421f-a5d6-bf9791123e26","ios":"levelo://app?vid=84c8a771-33c9-421f-a5d6-bf9791123e26"},"vehicle_type_id":"4","last_reported":1777155911,"current_range_meters":8000,"station_id":"ce4bhr12rcd13ifvqhpg","pricing_plan_id":"cebpf4jnsgd1na2vs0mg"},{"bike_id":"9a7c39d8-ef30-4694-b180-b6fe0a089530","system_id":"levelo_inurba_marseille","lat":43.30153,"lon":5.43106,"is_reserved":false,"is_disabled":false,"rental_uris":{"android":"levelo://app?vid=9a7c39d8-ef30-4694-b180-b6fe0a089530","ios":"levelo://app?vid=9a7c39d8-ef30-4694-b180-b6fe0a089530"},"vehicle_type_id":"4","last_reported":1777155911,"current_range_meters":8000,"station_id":"st_d3js3co5814s73ftftug","pricing_plan_id":"cebpf4jnsgd1na2vs0mg"},{"bike_id":"cdd270f0-5f2f-4bbf-9ea6-e320df8433a0","system_id":"levelo_inurba_marseille","lat":43.29869,"lon":5.38897,"is_reserved":false,"is_disabled":false,"rental_uris":{"android":"levelo://app?vid=cdd270f0-5f2f-4bbf-9ea6-e320df8433a0","ios":"levelo://app?vid=cdd270f0-5f2f-4bbf-9ea6-e320df8433a0"},"vehicle_type_id":"4","last_reported":1777155911,"current_range_meters":8000,"station_id":"ce4bh392rcd13ifvqdl0","pricing_plan_id":"cebpf4jnsgd1na2vs0mg"},{"bike_id":"e7760414-c99e-4edb-8d77-254918982c51","system_id":"levelo_inurba_marseille","lat":43.280813,"lon":5.396654,"is_reserved":false,"is_disabled":false,"rental_uris":{"android":"levelo://app?vid=e7760414-c99e-4edb-8d77-254918982c51","ios":"levelo://app?vid=e7760414-c99e-4edb-8d77-254918982c51"},"vehicle_type_id":"4","last_reported":1777155911,"current_range_meters":8000,"station_id":"ce4bho12rcd13ifvqh2g","pricing_plan_id":"cebpf4jnsgd1na2vs0mg"},{"bike_id":"5687bcf3-d7dc-457c-91e4-c37491638fcd","system_id":"levelo_inurba_marseille","lat":43.24172,"lon":5.36382,"is_reserved":false,"is_disabled":false,"rental_uris":{"android":"levelo://app?vid=5687bcf3-d7dc-457c-91e4-c37491638fcd","ios":"levelo://app?vid=5687bcf3-d7dc-457c-91e4-c37491638fcd"},"vehicle_type_id":"4","last_reported":1777155911,"current_range_meters":8000,"station_id":"cpo36qri1sfpv3e86is0","pricing_plan_id":"cebpf4jnsgd1na2vs0mg"},{"bike_id":"bf79c585-92c4-4180-bf4d-de82ff559306","system_id":"levelo_inurba_marseille","lat":43.30575,"lon":5.39339,"is_reserved":false,"is_disabled":false,"rental_uris":{"android":"levelo://app?vid=bf79c585-92c4-4180-bf4d-de82ff559306","ios":"levelo://app?vid=bf79c585-92c4-4180-bf4d-de82ff559306"},"vehicle_type_id":"4","last_reported":1777155911,"current_range_meters":8000,"station_id":"ce4bh0p2rcd13ifvqd80","pricing_plan_id":"cebpf4jnsgd1na2vs0mg"},{"bike_id":"62bde582-a935-433c-991e-650c3253ecca","system_id":"levelo_inurba_marseille","lat":43.29293,"lon":5.38417,"is_reserved":false,"is_disabled":false,"rental_uris":{"android":"levelo://app?vid=62bde582-a935-433c-991e-650c3253ecca","ios":"levelo://app?vid=62bde582-a935-433c-991e-650c3253ecca"},"vehicle_type_id":"4","last_reported":1777155911,"current_range_meters":8000,"station_id":"ce4bh692rcd13ifvqea0","pricing_plan_id":"cebpf4jnsgd1na2vs0mg"},{"bike_id":"b708bead-177f-4be3-b103-475501a83e9c","system_id":"levelo_inurba_marseille","lat":43.30594,"lon":5.3717,"is_reserved":false,"is_disabled":false,"rental_uris":{"android":"levelo://app?vid=b708bead-177f-4be3-b103-475501a83e9c","ios":"levelo://app?vid=b708bead-177f-4be3-b103-475501a83e9c"},"vehicle_type_id":"4","last_reported":1777155911,"current_range_meters":8000,"station_id":"ce4bgqh2rcd13ifvqc4g","pricing_plan_id":"cebpf4jnsgd1na2vs0mg"},{"bike_id":"70c7e508-dee8-4c48-84ef-dd92c8416275","system_id":"levelo_inurba_marseille","lat":43.24165,"lon":5.36389,"is_reserved":false,"is_disabled":false,"rental_uris":{"android":"levelo://app?vid=70c7e508-dee8-4c48-84ef-dd92c8416275","ios":"levelo://app?vid=70c7e508-dee8-4c48-84ef-dd92c8416275"},"vehicle_type_id":"4","last_reported":1777155911,"current_range_meters":8000,"station_id":"cpo36qri1sfpv3e86is0","pricing_plan_id":"cebpf4jnsgd1na2vs0mg"},{"bike_id":"81df374b-78e5-4afd-9272-8119b942b935","system_id":"levelo_inurba_marseille","lat":43.24178,"lon":5.36377,"is_reserved":false,"is_disabled":false,"rental_uris":{"android":"levelo://app?vid=81df374b-78e5-4afd-9272-8119b942b935","ios":"levelo://app?vid=81df374b-78e5-4afd-9272-8119b942b935"},"vehicle_type_id":"4","last_reported":1777155911,"current_range_meters":8000,"station_id":"cpo36qri1sfpv3e86is0","pricing_plan_id":"cebpf4jnsgd1na2vs0mg"},{"bike_id":"9cee4e90-2861-42ab-8f88-f2f3c8ba8048","system_id":"levelo_inurba_marseille","lat":43.31537,"lon":5.38034,"is_reserved":false,"is_disabled":false,"rental_uris":{"android":"levelo://app?vid=9cee4e90-2861-42ab-8f88-f2f3c8ba8048","ios":"levelo://app?vid=9cee4e90-2861-42ab-8f88-f2f3c8ba8048"},"vehicle_type_id":"4","last_reported":1777155911,"current_range_meters":8000,"station_id":"ce4bhsp2rcd13ifvqi50","pricing_plan_id":"cebpf4jnsgd1na2vs0mg"},{"bike_id":"2ac72f42-4414-46dd-8ec4-bd5b970d98e0","system_id":"levelo_inurba_marseille","lat":43.30955,"lon":5.39035,"is_reserved":false,"is_disabled":false,"rental_uris":{"android":"levelo://app?vid=2ac72f42-4414-46dd-8ec4-bd5b970d98e0","ios":"levelo://app?vid=2ac72f42-4414-46dd-8ec4-bd5b970d98e0"},"vehicle_type_id":"4","last_reported":1777155911,"current_range_meters":8000,"station_id":"ce4bgup2rcd13ifvqco0","pricing_plan_id":"cebpf4jnsgd1na2vs0mg"},{"bike_id":"fea5a28c-0167-4a62-9062-e629ed9b3e8f","system_id":"levelo_inurba_marseille","lat":43.28475,"lon":5.48402,"is_reserved":false,"is_disabled":false,"rental_uris":{"android":"levelo://app?vid=fea5a28c-0167-4a62-9062-e629ed9b3e8f","ios":"levelo://app?vid=fea5a28c-0167-4a62-9062-e629ed9b3e8f"},"vehicle_type_id":"4","last_reported":1777155911,"current_range_meters":8000,"station_id":"st_d3svhcjqgbts73a3dn0g","pricing_plan_id":"cebpf4jnsgd1na2vs0mg"},{"bike_id":"5e9dd8bd-c336-4145-931e-48777f76060b","system_id":"levelo_inurba_marseille","lat":43.30542,"lon":5.38407,"is_reserved":false,"is_disabled":false,"rental_uris":{"android":"levelo://app?vid=5e9dd8bd-c336-4145-931e-48777f76060b","ios":"levelo://app?vid=5e9dd8bd-c336-4145-931e-48777f76060b"},"vehicle_type_id":"4","last_reported":1777155911,"current_range_meters":8000,"station_id":"ce4bgg92rcd13ifvqb30","pricing_plan_id":"cebpf4jnsgd1na2vs0mg"},{"bike_id":"e79bde01-2f2e-4687-9114-2908a926683e","system_id":"levelo_inurba_marseille","lat":43.33544,"lon":5.37463,"is_reserved":false,"is_disabled":false,"rental_uris":{"android":"levelo://app?vid=e79bde01-2f2e-4687-9114-2908a926683e","ios":"levelo://app?vid=e79bde01-2f2e-4687-9114-2908a926683e"},"vehicle_type_id":"4","last_reported":1777155911,"current_range_meters":8000,"station_id":"st_d46tts09ee8s73dlu43g","pricing_plan_id":"cebpf4jnsgd1na2vs0mg"},{"bike_id":"2b011dfd-b31a-42cc-be3f-96f7ba6133ca","system_id":"levelo_inurba_marseille","lat":43.3096,"lon":5.39027,"is_reserved":false,"is_disabled":false,"rental_uris":{"android":"levelo://app?vid=2b011dfd-b31a-42cc-be3f-96f7ba6133ca","ios":"levelo://app?vid=2b011dfd-b31a-42cc-be3f-96f7ba6133ca"},"vehicle_type_id":"4","last_reported":1777155911,"current_range_meters":8000,"station_id":"ce4bgup2rcd13ifvqco0","pricing_plan_id":"cebpf4jnsgd1na2vs0mg"},{"bike_id":"0e385029-f21e-4196-be6e-7feb5fd87d07","system_id":"levelo_inurba_marseille","lat":43.31905,"lon":5.36801,"is_reserved":false,"is_disabled":false,"rental_uris":{"android":"levelo://app?vid=0e385029-f21e-4196-be6e-7feb5fd87d07","ios":"levelo://app?vid=0e385029-f21e-4196-be6e-7feb5fd87d07"},"vehicle_type_id":"4","last_reported":1777155911,"current_range_meters":8000,"station_id":"st_d6o2h0d0559c73evc1b0","pricing_plan_id":"cebpf4jnsgd1na2vs0mg"},{"bike_id":"c56120d4-f47e-4ef5-9b26-6a85ea57d7ac","system_id":"levelo_inurba_marseille","lat":43.28391,"lon":5.35736,"is_reserved":false,"is_disabled":false,"rental_uris":{"android":"levelo://app?vid=c56120d4-f47e-4ef5-9b26-6a85ea57d7ac","ios":"levelo://app?vid=c56120d4-f47e-4ef5-9b26-6a85ea57d7ac"},"vehicle_type_id":"4","last_reported":1777155911,"current_range_meters":8000,"station_id":"ce4bhah2rcd13ifvqei0","pricing_plan_id":"cebpf4jnsgd1na2vs0mg"},{"bike_id":"256c2e91-2821-4902-baa2-5092b60664e5","system_id":"levelo_inurba_marseille","lat":43.24812,"lon":5.3746,"is_reserved":false,"is_disabled":false,"rental_uris":{"android":"levelo://app?vid=256c2e91-2821-4902-baa2-5092b60664e5","ios":"levelo://app?vid=256c2e91-2821-4902-baa2-5092b60664e5"},"vehicle_type_id":"4","last_reported":1777155911,"current_range_meters":8000,"station_id":"ce4bhgh2rcd13ifvqfb0","pricing_plan_id":"cebpf4jnsgd1na2vs0mg"},{"bike_id":"e5cde18f-11fd-4bba-9f22-8e6ee9593bdd","system_id":"levelo_inurba_marseille","lat":43.2867,"lon":5.36359,"is_reserved":false,"is_disabled":false,"rental_uris":{"android":"levelo://app?vid=e5cde18f-11fd-4bba-9f22-8e6ee9593bdd","ios":"levelo://app?vid=e5cde18f-11fd-4bba-9f22-8e6ee9593bdd"},"vehicle_type_id":"4","last_reported":1777155911,"current_range_meters":8000,"station_id":"ce4bhah2rcd13ifvqej0","pricing_plan_id":"cebpf4jnsgd1na2vs0mg"},{"bike_id":"05a33fd5-e436-4ad0-a907-865e546c41d5","system_id":"levelo_inurba_marseille","lat":43.22554,"lon":5.41613,"is_reserved":false,"is_disabled":true,"rental_uris":{"android":"levelo://app?vid=05a33fd5-e436-4ad0-a907-865e546c41d5","ios":"levelo://app?vid=05a33fd5-e436-4ad0-a907-865e546c41d5"},"vehicle_type_id":"4","last_reported":1777155911,"current_range_meters":8000,"station_id":"","pricing_plan_id":"cebpf4jnsgd1na2vs0mg"},{"bike_id":"867e4efb-03e8-466f-a027-d873140a375d","system_id":"levelo_inurba_marseille","lat":43.24801,"lon":5.37455,"is_reserved":false,"is_disabled":false,"rental_uris":{"android":"levelo://app?vid=867e4efb-03e8-466f-a027-d873140a375d","ios":"levelo://app?vid=867e4efb-03e8-466f-a027-d873140a375d"},"vehicle_type_id":"4","last_reported":1777155911,"current_range_meters":8000,"station_id":"ce4bhgh2rcd13ifvqfb0","pricing_plan_id":"cebpf4jnsgd1na2vs0mg"},{"bike_id":"bfa7c1d6-71d5-4139-8708-a911840c9801","system_id":"levelo_inurba_marseille","lat":43.28498,"lon":5.38521,"is_reserved":false,"is_disabled":true,"rental_uris":{"android":"levelo://app?vid=bfa7c1d6-71d5-4139-8708-a911840c9801","ios":"levelo://app?vid=bfa7c1d6-71d5-4139-8708-a911840c9801"},"vehicle_type_id":"4","last_reported":1777155911,"current_range_meters":8400,"station_id":"ce4bh8p2rcd13ifvqeb0","pricing_plan_id":"cebpf4jnsgd1na2vs0mg"},{"bike_id":"ebe14430-f2d8-411d-9873-e6bf000e24ed","system_id":"levelo_inurba_marseille","lat":43.29589,"lon":5.38058,"is_reserved":false,"is_disabled":false,"rental_uris":{"android":"levelo://app?vid=ebe14430-f2d8-411d-9873-e6bf000e24ed","ios":"levelo://app?vid=ebe14430-f2d8-411d-9873-e6bf000e24ed"},"vehicle_type_id":"4","last_reported":1777155911,"current_range_meters":8400,"station_id":"ce4bgl12rcd13ifvqbo0","pricing_plan_id":"cebpf4jnsgd1na2vs0mg"},{"bike_id":"70578acc-b935-4f77-be23-bcde1db99b26","system_id":"levelo_inurba_marseille","lat":43.29794,"lon":5.38155,"is_reserved":false,"is_disabled":false,"rental_uris":{"android":"levelo://app?vid=70578acc-b935-4f77-be23-bcde1db99b26","ios":"levelo://app?vid=70578acc-b935-4f77-be23-bcde1db99b26"},"vehicle_type_id":"4","last_reported":1777155911,"current_range_meters":8400,"station_id":"ce4bgip2rcd13ifvqbb0","pricing_plan_id":"cebpf4jnsgd1na2vs0mg"},{"bike_id":"9a179763-1687-4b2b-8886-1b18924799ad","system_id":"levelo_inurba_marseille","lat":43.25892,"lon":5.39892,"is_reserved":false,"is_disabled":false,"rental_uris":{"android":"levelo://app?vid=9a179763-1687-4b2b-8886-1b18924799ad","ios":"levelo://app?vid=9a179763-1687-4b2b-8886-1b18924799ad"},"vehicle_type_id":"4","last_reported":1777155911,"current_range_meters":8400,"station_id":"ce4bhl92rcd13ifvqghg","pricing_plan_id":"cebpf4jnsgd1na2vs0mg"},{"bike_id":"e6e0181d-d51b-42d7-93b1-7e8f4d00629c","system_id":"levelo_inurba_marseille","lat":43.29843,"lon":5.41997,"is_reserved":false,"is_disabled":true,"rental_uris":{"android":"levelo://app?vid=e6e0181d-d51b-42d7-93b1-7e8f4d00629c","ios":"levelo://app?vid=e6e0181d-d51b-42d7-93b1-7e8f4d00629c"},"vehicle_type_id":"4","last_reported":1777155911,"current_range_meters":8400,"station_id":"","pricing_plan_id":"cebpf4jnsgd1na2vs0mg"},{"bike_id":"d635b6a9-26d7-4024-944b-3b30f7178297","system_id":"levelo_inurba_marseille","lat":43.24049,"lon":5.36252,"is_reserved":false,"is_disabled":false,"rental_uris":{"android":"levelo://app?vid=d635b6a9-26d7-4024-944b-3b30f7178297","ios":"levelo://app?vid=d635b6a9-26d7-4024-944b-3b30f7178297"},"vehicle_type_id":"4","last_reported":1777155911,"current_range_meters":8400,"station_id":"","pricing_plan_id":"cebpf4jnsgd1na2vs0mg"},{"bike_id":"0fb5bdad-cf89-4b49-8199-c24f462ae13f","system_id":"levelo_inurba_marseille","lat":43.29871,"lon":5.38912,"is_reserved":false,"is_disabled":false,"rental_uris":{"android":"levelo://app?vid=0fb5bdad-cf89-4b49-8199-c24f462ae13f","ios":"levelo://app?vid=0fb5bdad-cf89-4b49-8199-c24f462ae13f"},"vehicle_type_id":"4","last_reported":1777155911,"current_range_meters":8400,"station_id":"ce4bh392rcd13ifvqdl0","pricing_plan_id":"cebpf4jnsgd1na2vs0mg"},{"bike_id":"488bf401-74f7-4dcc-8384-b9d2ae512400","system_id":"levelo_inurba_marseille","lat":43.27998,"lon":5.3873,"is_reserved":false,"is_disabled":false,"rental_uris":{"android":"levelo://app?vid=488bf401-74f7-4dcc-8384-b9d2ae512400","ios":"levelo://app?vid=488bf401-74f7-4dcc-8384-b9d2ae512400"},"vehicle_type_id":"4","last_reported":1777155911,"current_range_meters":8400,"station_id":"ce4bhg12rcd13ifvqf80","pricing_plan_id":"cebpf4jnsgd1na2vs0mg"},{"bike_id":"833d7be3-421b-4c5f-bc44-1a51dc01aed7","system_id":"levelo_inurba_marseille","lat":43.29692,"lon":5.37294,"is_reserved":false,"is_disabled":true,"rental_uris":{"android":"levelo://app?vid=833d7be3-421b-4c5f-bc44-1a51dc01aed7","ios":"levelo://app?vid=833d7be3-421b-4c5f-bc44-1a51dc01aed7"},"vehicle_type_id":"4","last_reported":1777155911,"current_range_meters":8400,"station_id":"ce4bgk12rcd13ifvqbj0","pricing_plan_id":"cebpf4jnsgd1na2vs0mg"},{"bike_id":"f33c6c9d-346a-4c73-9b31-f3ca6fe92254","system_id":"levelo_inurba_marseille","lat":43.29607,"lon":5.3773,"is_reserved":false,"is_disabled":true,"rental_uris":{"android":"levelo://app?vid=f33c6c9d-346a-4c73-9b31-f3ca6fe92254","ios":"levelo://app?vid=f33c6c9d-346a-4c73-9b31-f3ca6fe92254"},"vehicle_type_id":"4","last_reported":1777155911,"current_range_meters":8400,"station_id":"ce4bgi92rcd13ifvqb90","pricing_plan_id":"cebpf4jnsgd1na2vs0mg"},{"bike_id":"89f8435a-8f74-41a7-a78d-90d1d9bd4779","system_id":"levelo_inurba_marseille","lat":43.27819,"lon":5.40681,"is_reserved":false,"is_disabled":false,"rental_uris":{"android":"levelo://app?vid=89f8435a-8f74-41a7-a78d-90d1d9bd4779","ios":"levelo://app?vid=89f8435a-8f74-41a7-a78d-90d1d9bd4779"},"vehicle_type_id":"4","last_reported":1777155911,"current_range_meters":8400,"station_id":"ce4bhnh2rcd13ifvqgtg","pricing_plan_id":"cebpf4jnsgd1na2vs0mg"},{"bike_id":"566d96b8-5e9f-424c-a211-21ad768be894","system_id":"levelo_inurba_marseille","lat":43.28537,"lon":5.44104,"is_reserved":false,"is_disabled":false,"rental_uris":{"android":"levelo://app?vid=566d96b8-5e9f-424c-a211-21ad768be894","ios":"levelo://app?vid=566d96b8-5e9f-424c-a211-21ad768be894"},"vehicle_type_id":"4","last_reported":1777155911,"current_range_meters":8800,"station_id":"st_d3j3df2ikq2c7380ej80","pricing_plan_id":"cebpf4jnsgd1na2vs0mg"},{"bike_id":"5fdff1d7-b2d7-4e39-ad7f-00ed09411d1d","system_id":"levelo_inurba_marseille","lat":43.28495,"lon":5.48342,"is_reserved":false,"is_disabled":false,"rental_uris":{"android":"levelo://app?vid=5fdff1d7-b2d7-4e39-ad7f-00ed09411d1d","ios":"levelo://app?vid=5fdff1d7-b2d7-4e39-ad7f-00ed09411d1d"},"vehicle_type_id":"4","last_reported":1777155911,"current_range_meters":8800,"station_id":"st_d3svhcjqgbts73a3dn0g","pricing_plan_id":"cebpf4jnsgd1na2vs0mg"},{"bike_id":"535bbcc4-1add-4820-8030-66835d0247f6","system_id":"levelo_inurba_marseille","lat":43.30953,"lon":5.39022,"is_reserved":false,"is_disabled":false,"rental_uris":{"android":"levelo://app?vid=535bbcc4-1add-4820-8030-66835d0247f6","ios":"levelo://app?vid=535bbcc4-1add-4820-8030-66835d0247f6"},"vehicle_type_id":"4","last_reported":1777155911,"current_range_meters":8800,"station_id":"ce4bgup2rcd13ifvqco0","pricing_plan_id":"cebpf4jnsgd1na2vs0mg"},{"bike_id":"757fdfcb-45d7-4c45-8e18-f9ab346e8260","system_id":"levelo_inurba_marseille","lat":43.24706,"lon":5.39786,"is_reserved":false,"is_disabled":false,"rental_uris":{"android":"levelo://app?vid=757fdfcb-45d7-4c45-8e18-f9ab346e8260","ios":"levelo://app?vid=757fdfcb-45d7-4c45-8e18-f9ab346e8260"},"vehicle_type_id":"4","last_reported":1777155911,"current_range_meters":8800,"station_id":"","pricing_plan_id":"cebpf4jnsgd1na2vs0mg"},{"bike_id":"f1986b7d-1c9a-4323-bf87-5e9576d20808","system_id":"levelo_inurba_marseille","lat":43.30947,"lon":5.39026,"is_reserved":false,"is_disabled":false,"rental_uris":{"android":"levelo://app?vid=f1986b7d-1c9a-4323-bf87-5e9576d20808","ios":"levelo://app?vid=f1986b7d-1c9a-4323-bf87-5e9576d20808"},"vehicle_type_id":"4","last_reported":1777155911,"current_range_meters":8800,"station_id":"ce4bgup2rcd13ifvqco0","pricing_plan_id":"cebpf4jnsgd1na2vs0mg"},{"bike_id":"26d26955-b302-4311-88a8-057f7b19117a","system_id":"levelo_inurba_marseille","lat":43.29652,"lon":5.36063,"is_reserved":false,"is_disabled":false,"rental_uris":{"android":"levelo://app?vid=26d26955-b302-4311-88a8-057f7b19117a","ios":"levelo://app?vid=26d26955-b302-4311-88a8-057f7b19117a"},"vehicle_type_id":"4","last_reported":1777155911,"current_range_meters":8800,"station_id":"","pricing_plan_id":"cebpf4jnsgd1na2vs0mg"},{"bike_id":"57bdf52e-642c-479f-997b-3a8c1a868f32","system_id":"levelo_inurba_marseille","lat":43.29797,"lon":5.40391,"is_reserved":false,"is_disabled":false,"rental_uris":{"android":"levelo://app?vid=57bdf52e-642c-479f-997b-3a8c1a868f32","ios":"levelo://app?vid=57bdf52e-642c-479f-997b-3a8c1a868f32"},"vehicle_type_id":"4","last_reported":1777155911,"current_range_meters":8800,"station_id":"ce4bh112rcd13ifvqd90","pricing_plan_id":"cebpf4jnsgd1na2vs0mg"},{"bike_id":"5825174c-c54d-48a7-9e86-0435e1df6c1c","system_id":"levelo_inurba_marseille","lat":43.29199,"lon":5.39309,"is_reserved":false,"is_disabled":false,"rental_uris":{"android":"levelo://app?vid=5825174c-c54d-48a7-9e86-0435e1df6c1c","ios":"levelo://app?vid=5825174c-c54d-48a7-9e86-0435e1df6c1c"},"vehicle_type_id":"4","last_reported":1777155911,"current_range_meters":8800,"station_id":"ce4bh192rcd13ifvqdd0","pricing_plan_id":"cebpf4jnsgd1na2vs0mg"},{"bike_id":"f3121592-9e16-4c43-87b9-7b7a53cd3086","system_id":"levelo_inurba_marseille","lat":43.29266,"lon":5.3844,"is_reserved":false,"is_disabled":false,"rental_uris":{"android":"levelo://app?vid=f3121592-9e16-4c43-87b9-7b7a53cd3086","ios":"levelo://app?vid=f3121592-9e16-4c43-87b9-7b7a53cd3086"},"vehicle_type_id":"4","last_reported":1777155911,"current_range_meters":8800,"station_id":"ce4bh692rcd13ifvqea0","pricing_plan_id":"cebpf4jnsgd1na2vs0mg"},{"bike_id":"20f503f9-18b5-45a4-99e5-ca711997be2b","system_id":"levelo_inurba_marseille","lat":43.29527,"lon":5.38542,"is_reserved":false,"is_disabled":false,"rental_uris":{"android":"levelo://app?vid=20f503f9-18b5-45a4-99e5-ca711997be2b","ios":"levelo://app?vid=20f503f9-18b5-45a4-99e5-ca711997be2b"},"vehicle_type_id":"4","last_reported":1777155911,"current_range_meters":8800,"station_id":"ce4bgih2rcd13ifvqba0","pricing_plan_id":"cebpf4jnsgd1na2vs0mg"},{"bike_id":"6b60b3c8-da35-492c-9411-418199a97ad7","system_id":"levelo_inurba_marseille","lat":43.28476,"lon":5.48383,"is_reserved":false,"is_disabled":false,"rental_uris":{"android":"levelo://app?vid=6b60b3c8-da35-492c-9411-418199a97ad7","ios":"levelo://app?vid=6b60b3c8-da35-492c-9411-418199a97ad7"},"vehicle_type_id":"4","last_reported":1777155911,"current_range_meters":8800,"station_id":"","pricing_plan_id":"cebpf4jnsgd1na2vs0mg"},{"bike_id":"a8f6a395-f3d0-4eae-9bed-61bd91606632","system_id":"levelo_inurba_marseille","lat":43.30955,"lon":5.3902,"is_reserved":false,"is_disabled":false,"rental_uris":{"android":"levelo://app?vid=a8f6a395-f3d0-4eae-9bed-61bd91606632","ios":"levelo://app?vid=a8f6a395-f3d0-4eae-9bed-61bd91606632"},"vehicle_type_id":"4","last_reported":1777155911,"current_range_meters":8800,"station_id":"ce4bgup2rcd13ifvqco0","pricing_plan_id":"cebpf4jnsgd1na2vs0mg"},{"bike_id":"f54ccc15-12bb-43a9-bcae-01eb62b17984","system_id":"levelo_inurba_marseille","lat":43.24803,"lon":5.37456,"is_reserved":false,"is_disabled":false,"rental_uris":{"android":"levelo://app?vid=f54ccc15-12bb-43a9-bcae-01eb62b17984","ios":"levelo://app?vid=f54ccc15-12bb-43a9-bcae-01eb62b17984"},"vehicle_type_id":"4","last_reported":1777155911,"current_range_meters":8800,"station_id":"ce4bhgh2rcd13ifvqfb0","pricing_plan_id":"cebpf4jnsgd1na2vs0mg"},{"bike_id":"fb350924-3b39-4197-a891-8208914eef37","system_id":"levelo_inurba_marseille","lat":43.24827,"lon":5.37458,"is_reserved":false,"is_disabled":false,"rental_uris":{"android":"levelo://app?vid=fb350924-3b39-4197-a891-8208914eef37","ios":"levelo://app?vid=fb350924-3b39-4197-a891-8208914eef37"},"vehicle_type_id":"4","last_reported":1777155911,"current_range_meters":8800,"station_id":"ce4bhgh2rcd13ifvqfb0","pricing_plan_id":"cebpf4jnsgd1na2vs0mg"},{"bike_id":"9a379160-5370-465d-860e-01e07373ee69","system_id":"levelo_inurba_marseille","lat":43.29531,"lon":5.38547,"is_reserved":false,"is_disabled":false,"rental_uris":{"android":"levelo://app?vid=9a379160-5370-465d-860e-01e07373ee69","ios":"levelo://app?vid=9a379160-5370-465d-860e-01e07373ee69"},"vehicle_type_id":"4","last_reported":1777155911,"current_range_meters":8800,"station_id":"ce4bgih2rcd13ifvqba0","pricing_plan_id":"cebpf4jnsgd1na2vs0mg"},{"bike_id":"a77b3325-6a6a-467c-be82-cfe80f068baa","system_id":"levelo_inurba_marseille","lat":43.29164,"lon":5.37172,"is_reserved":false,"is_disabled":false,"rental_uris":{"android":"levelo://app?vid=a77b3325-6a6a-467c-be82-cfe80f068baa","ios":"levelo://app?vid=a77b3325-6a6a-467c-be82-cfe80f068baa"},"vehicle_type_id":"4","last_reported":1777155911,"current_range_meters":8800,"station_id":"ce4bha92rcd13ifvqeh0","pricing_plan_id":"cebpf4jnsgd1na2vs0mg"},{"bike_id":"d0d29561-5aac-4540-9fd8-4ef61a6610e0","system_id":"levelo_inurba_marseille","lat":43.29209,"lon":5.36042,"is_reserved":false,"is_disabled":true,"rental_uris":{"android":"levelo://app?vid=d0d29561-5aac-4540-9fd8-4ef61a6610e0","ios":"levelo://app?vid=d0d29561-5aac-4540-9fd8-4ef61a6610e0"},"vehicle_type_id":"4","last_reported":1777155911,"current_range_meters":8800,"station_id":"ce4bhbh2rcd13ifvqeqg","pricing_plan_id":"cebpf4jnsgd1na2vs0mg"},{"bike_id":"fda983b3-301e-40f3-bb07-e5c67ab620e4","system_id":"levelo_inurba_marseille","lat":43.25079,"lon":5.40467,"is_reserved":false,"is_disabled":false,"rental_uris":{"android":"levelo://app?vid=fda983b3-301e-40f3-bb07-e5c67ab620e4","ios":"levelo://app?vid=fda983b3-301e-40f3-bb07-e5c67ab620e4"},"vehicle_type_id":"4","last_reported":1777155911,"current_range_meters":8800,"station_id":"","pricing_plan_id":"cebpf4jnsgd1na2vs0mg"},{"bike_id":"04738930-2dad-49de-b4d0-afcceb33843b","system_id":"levelo_inurba_marseille","lat":43.26226,"lon":5.40447,"is_reserved":false,"is_disabled":false,"rental_uris":{"android":"levelo://app?vid=04738930-2dad-49de-b4d0-afcceb33843b","ios":"levelo://app?vid=04738930-2dad-49de-b4d0-afcceb33843b"},"vehicle_type_id":"4","last_reported":1777155911,"current_range_meters":8800,"station_id":"ce4bhmh2rcd13ifvqgmg","pricing_plan_id":"cebpf4jnsgd1na2vs0mg"},{"bike_id":"b7166d00-058e-4f8a-ac08-8d7664362d9a","system_id":"levelo_inurba_marseille","lat":43.26588,"lon":5.37273,"is_reserved":false,"is_disabled":true,"rental_uris":{"android":"levelo://app?vid=b7166d00-058e-4f8a-ac08-8d7664362d9a","ios":"levelo://app?vid=b7166d00-058e-4f8a-ac08-8d7664362d9a"},"vehicle_type_id":"4","last_reported":1777155911,"current_range_meters":8800,"station_id":"ce4bhg12rcd13ifvqf70","pricing_plan_id":"cebpf4jnsgd1na2vs0mg"},{"bike_id":"5ba8ec37-02ae-45f0-b89d-bf74900781e1","system_id":"levelo_inurba_marseille","lat":43.30934,"lon":5.40141,"is_reserved":false,"is_disabled":false,"rental_uris":{"android":"levelo://app?vid=5ba8ec37-02ae-45f0-b89d-bf74900781e1","ios":"levelo://app?vid=5ba8ec37-02ae-45f0-b89d-bf74900781e1"},"vehicle_type_id":"4","last_reported":1777155911,"current_range_meters":8800,"station_id":"ce4bgvp2rcd13ifvqct0","pricing_plan_id":"cebpf4jnsgd1na2vs0mg"},{"bike_id":"5e2c924d-4925-4620-9644-807ef3bda283","system_id":"levelo_inurba_marseille","lat":43.31365,"lon":5.38504,"is_reserved":false,"is_disabled":false,"rental_uris":{"android":"levelo://app?vid=5e2c924d-4925-4620-9644-807ef3bda283","ios":"levelo://app?vid=5e2c924d-4925-4620-9644-807ef3bda283"},"vehicle_type_id":"4","last_reported":1777155911,"current_range_meters":8800,"station_id":"ce4bgt92rcd13ifvqcf0","pricing_plan_id":"cebpf4jnsgd1na2vs0mg"},{"bike_id":"f7716b3d-5dc6-4c1f-94ea-dd8b69d23a22","system_id":"levelo_inurba_marseille","lat":43.27485,"lon":5.43505,"is_reserved":false,"is_disabled":false,"rental_uris":{"android":"levelo://app?vid=f7716b3d-5dc6-4c1f-94ea-dd8b69d23a22","ios":"levelo://app?vid=f7716b3d-5dc6-4c1f-94ea-dd8b69d23a22"},"vehicle_type_id":"4","last_reported":1777155911,"current_range_meters":8800,"station_id":"","pricing_plan_id":"cebpf4jnsgd1na2vs0mg"},{"bike_id":"6136aabe-fee7-4e87-a559-d039ae291216","system_id":"levelo_inurba_marseille","lat":43.29368,"lon":5.37837,"is_reserved":false,"is_disabled":false,"rental_uris":{"android":"levelo://app?vid=6136aabe-fee7-4e87-a559-d039ae291216","ios":"levelo://app?vid=6136aabe-fee7-4e87-a559-d039ae291216"},"vehicle_type_id":"4","last_reported":1777155911,"current_range_meters":8800,"station_id":"ce4bgjh2rcd13ifvqbf0","pricing_plan_id":"cebpf4jnsgd1na2vs0mg"},{"bike_id":"9ed79d15-8163-4691-940c-f05eced27ce3","system_id":"levelo_inurba_marseille","lat":43.29575,"lon":5.39965,"is_reserved":false,"is_disabled":false,"rental_uris":{"android":"levelo://app?vid=9ed79d15-8163-4691-940c-f05eced27ce3","ios":"levelo://app?vid=9ed79d15-8163-4691-940c-f05eced27ce3"},"vehicle_type_id":"4","last_reported":1777155911,"current_range_meters":9200,"station_id":"ce4bh312rcd13ifvqdj0","pricing_plan_id":"cebpf4jnsgd1na2vs0mg"},{"bike_id":"cc7486f3-323f-4bb4-b00b-6ae21e90c2a1","system_id":"levelo_inurba_marseille","lat":43.30301,"lon":5.36895,"is_reserved":false,"is_disabled":false,"rental_uris":{"android":"levelo://app?vid=cc7486f3-323f-4bb4-b00b-6ae21e90c2a1","ios":"levelo://app?vid=cc7486f3-323f-4bb4-b00b-6ae21e90c2a1"},"vehicle_type_id":"4","last_reported":1777155911,"current_range_meters":9200,"station_id":"ce4bgqh2rcd13ifvqc5g","pricing_plan_id":"cebpf4jnsgd1na2vs0mg"},{"bike_id":"494fd0fc-3b39-4504-a26b-321afbf22977","system_id":"levelo_inurba_marseille","lat":43.23836,"lon":5.38591,"is_reserved":false,"is_disabled":false,"rental_uris":{"android":"levelo://app?vid=494fd0fc-3b39-4504-a26b-321afbf22977","ios":"levelo://app?vid=494fd0fc-3b39-4504-a26b-321afbf22977"},"vehicle_type_id":"4","last_reported":1777155911,"current_range_meters":9200,"station_id":"","pricing_plan_id":"cebpf4jnsgd1na2vs0mg"},{"bike_id":"cc669c14-e113-475d-b2d6-ea664fba9dd0","system_id":"levelo_inurba_marseille","lat":43.28938,"lon":5.39629,"is_reserved":false,"is_disabled":false,"rental_uris":{"android":"levelo://app?vid=cc669c14-e113-475d-b2d6-ea664fba9dd0","ios":"levelo://app?vid=cc669c14-e113-475d-b2d6-ea664fba9dd0"},"vehicle_type_id":"4","last_reported":1777155911,"current_range_meters":9200,"station_id":"ce4bh3h2rcd13ifvqdn0","pricing_plan_id":"cebpf4jnsgd1na2vs0mg"},{"bike_id":"bee91535-8fd4-46d9-82b4-d1ffaa22017e","system_id":"levelo_inurba_marseille","lat":43.2833,"lon":5.38089,"is_reserved":false,"is_disabled":true,"rental_uris":{"android":"levelo://app?vid=bee91535-8fd4-46d9-82b4-d1ffaa22017e","ios":"levelo://app?vid=bee91535-8fd4-46d9-82b4-d1ffaa22017e"},"vehicle_type_id":"4","last_reported":1777155911,"current_range_meters":9200,"station_id":"ce4bh412rcd13ifvqdr0","pricing_plan_id":"cebpf4jnsgd1na2vs0mg"},{"bike_id":"d84dad1f-3355-427c-a81e-a3f872caa973","system_id":"levelo_inurba_marseille","lat":43.28705,"lon":5.46671,"is_reserved":false,"is_disabled":false,"rental_uris":{"android":"levelo://app?vid=d84dad1f-3355-427c-a81e-a3f872caa973","ios":"levelo://app?vid=d84dad1f-3355-427c-a81e-a3f872caa973"},"vehicle_type_id":"4","last_reported":1777155911,"current_range_meters":9200,"station_id":"st_d6tc3vkotcvc738tfjhg","pricing_plan_id":"cebpf4jnsgd1na2vs0mg"},{"bike_id":"c5db332d-ac74-4e30-b4a0-7e38e91fc4f9","system_id":"levelo_inurba_marseille","lat":43.27953,"lon":5.41046,"is_reserved":false,"is_disabled":false,"rental_uris":{"android":"levelo://app?vid=c5db332d-ac74-4e30-b4a0-7e38e91fc4f9","ios":"levelo://app?vid=c5db332d-ac74-4e30-b4a0-7e38e91fc4f9"},"vehicle_type_id":"4","last_reported":1777155911,"current_range_meters":9200,"station_id":"ce4bhnp2rcd13ifvqh0g","pricing_plan_id":"cebpf4jnsgd1na2vs0mg"},{"bike_id":"1fa7c290-baf4-43ed-aa99-7181dabef99e","system_id":"levelo_inurba_marseille","lat":43.3355,"lon":5.3746,"is_reserved":false,"is_disabled":false,"rental_uris":{"android":"levelo://app?vid=1fa7c290-baf4-43ed-aa99-7181dabef99e","ios":"levelo://app?vid=1fa7c290-baf4-43ed-aa99-7181dabef99e"},"vehicle_type_id":"4","last_reported":1777155911,"current_range_meters":9200,"station_id":"st_d46tts09ee8s73dlu43g","pricing_plan_id":"cebpf4jnsgd1na2vs0mg"},{"bike_id":"bb7e8b34-29dc-4233-a471-666210872040","system_id":"levelo_inurba_marseille","lat":43.28944,"lon":5.3664,"is_reserved":false,"is_disabled":true,"rental_uris":{"android":"levelo://app?vid=bb7e8b34-29dc-4233-a471-666210872040","ios":"levelo://app?vid=bb7e8b34-29dc-4233-a471-666210872040"},"vehicle_type_id":"4","last_reported":1777155911,"current_range_meters":9200,"station_id":"ce4bhap2rcd13ifvqek0","pricing_plan_id":"cebpf4jnsgd1na2vs0mg"},{"bike_id":"b88e78bf-d930-4595-a07d-749e043ddd96","system_id":"levelo_inurba_marseille","lat":43.31118,"lon":5.37768,"is_reserved":false,"is_disabled":false,"rental_uris":{"android":"levelo://app?vid=b88e78bf-d930-4595-a07d-749e043ddd96","ios":"levelo://app?vid=b88e78bf-d930-4595-a07d-749e043ddd96"},"vehicle_type_id":"4","last_reported":1777155911,"current_range_meters":9200,"station_id":"ce4bgt92rcd13ifvqcg0","pricing_plan_id":"cebpf4jnsgd1na2vs0mg"},{"bike_id":"4912220f-bde9-4f1a-8257-86d5258a1f19","system_id":"levelo_inurba_marseille","lat":43.2846,"lon":5.35888,"is_reserved":false,"is_disabled":false,"rental_uris":{"android":"levelo://app?vid=4912220f-bde9-4f1a-8257-86d5258a1f19","ios":"levelo://app?vid=4912220f-bde9-4f1a-8257-86d5258a1f19"},"vehicle_type_id":"4","last_reported":1777155911,"current_range_meters":9200,"station_id":"ce4bhah2rcd13ifvqei0","pricing_plan_id":"cebpf4jnsgd1na2vs0mg"},{"bike_id":"1b29a20c-4f44-47dd-b788-8946c2e7b1b5","system_id":"levelo_inurba_marseille","lat":43.31168,"lon":5.38684,"is_reserved":false,"is_disabled":false,"rental_uris":{"android":"levelo://app?vid=1b29a20c-4f44-47dd-b788-8946c2e7b1b5","ios":"levelo://app?vid=1b29a20c-4f44-47dd-b788-8946c2e7b1b5"},"vehicle_type_id":"4","last_reported":1777155911,"current_range_meters":9200,"station_id":"ce4bgv12rcd13ifvqcp0","pricing_plan_id":"cebpf4jnsgd1na2vs0mg"},{"bike_id":"24b354a2-30e7-4b1b-beab-a761a56440e9","system_id":"levelo_inurba_marseille","lat":43.25476,"lon":5.3765,"is_reserved":false,"is_disabled":false,"rental_uris":{"android":"levelo://app?vid=24b354a2-30e7-4b1b-beab-a761a56440e9","ios":"levelo://app?vid=24b354a2-30e7-4b1b-beab-a761a56440e9"},"vehicle_type_id":"4","last_reported":1777155911,"current_range_meters":9200,"station_id":"ce4bhh12rcd13ifvqff0","pricing_plan_id":"cebpf4jnsgd1na2vs0mg"},{"bike_id":"8382b8e2-42a0-4cae-8f3d-d1af83bab971","system_id":"levelo_inurba_marseille","lat":43.24647,"lon":5.38867,"is_reserved":false,"is_disabled":false,"rental_uris":{"android":"levelo://app?vid=8382b8e2-42a0-4cae-8f3d-d1af83bab971","ios":"levelo://app?vid=8382b8e2-42a0-4cae-8f3d-d1af83bab971"},"vehicle_type_id":"4","last_reported":1777155911,"current_range_meters":9200,"station_id":"ce4bhg12rcd13ifvqf60","pricing_plan_id":"cebpf4jnsgd1na2vs0mg"},{"bike_id":"a5d1c5f8-e551-41de-b7f3-a52119a1050b","system_id":"levelo_inurba_marseille","lat":43.27826,"lon":5.37462,"is_reserved":false,"is_disabled":false,"rental_uris":{"android":"levelo://app?vid=a5d1c5f8-e551-41de-b7f3-a52119a1050b","ios":"levelo://app?vid=a5d1c5f8-e551-41de-b7f3-a52119a1050b"},"vehicle_type_id":"4","last_reported":1777155911,"current_range_meters":9200,"station_id":"","pricing_plan_id":"cebpf4jnsgd1na2vs0mg"},{"bike_id":"7fda4e76-4d16-41e6-8883-1545539b8b8b","system_id":"levelo_inurba_marseille","lat":43.301736,"lon":5.381398,"is_reserved":false,"is_disabled":false,"rental_uris":{"android":"levelo://app?vid=7fda4e76-4d16-41e6-8883-1545539b8b8b","ios":"levelo://app?vid=7fda4e76-4d16-41e6-8883-1545539b8b8b"},"vehicle_type_id":"4","last_reported":1777155911,"current_range_meters":9200,"station_id":"ce4bgjp2rcd13ifvqbh0","pricing_plan_id":"cebpf4jnsgd1na2vs0mg"},{"bike_id":"9096d725-a365-4ad7-8ff9-a7f2a5190902","system_id":"levelo_inurba_marseille","lat":43.26937,"lon":5.38628,"is_reserved":false,"is_disabled":true,"rental_uris":{"android":"levelo://app?vid=9096d725-a365-4ad7-8ff9-a7f2a5190902","ios":"levelo://app?vid=9096d725-a365-4ad7-8ff9-a7f2a5190902"},"vehicle_type_id":"4","last_reported":1777155911,"current_range_meters":9200,"station_id":"ce4bhh92rcd13ifvqfh0","pricing_plan_id":"cebpf4jnsgd1na2vs0mg"},{"bike_id":"183da5e2-5fc9-4333-84a2-319d8cae886d","system_id":"levelo_inurba_marseille","lat":43.286716,"lon":5.386639,"is_reserved":false,"is_disabled":false,"rental_uris":{"android":"levelo://app?vid=183da5e2-5fc9-4333-84a2-319d8cae886d","ios":"levelo://app?vid=183da5e2-5fc9-4333-84a2-319d8cae886d"},"vehicle_type_id":"4","last_reported":1777155911,"current_range_meters":9200,"station_id":"ce4bh492rcd13ifvqdug","pricing_plan_id":"cebpf4jnsgd1na2vs0mg"},{"bike_id":"c62da509-a268-4e04-91e9-7632ab965974","system_id":"levelo_inurba_marseille","lat":43.277686,"lon":5.406912,"is_reserved":false,"is_disabled":false,"rental_uris":{"android":"levelo://app?vid=c62da509-a268-4e04-91e9-7632ab965974","ios":"levelo://app?vid=c62da509-a268-4e04-91e9-7632ab965974"},"vehicle_type_id":"4","last_reported":1777155911,"current_range_meters":9200,"station_id":"ce4bhnh2rcd13ifvqgtg","pricing_plan_id":"cebpf4jnsgd1na2vs0mg"},{"bike_id":"4b49ab9b-eeca-4117-b1e9-4b53277a58b0","system_id":"levelo_inurba_marseille","lat":43.23196,"lon":5.35557,"is_reserved":false,"is_disabled":true,"rental_uris":{"android":"levelo://app?vid=4b49ab9b-eeca-4117-b1e9-4b53277a58b0","ios":"levelo://app?vid=4b49ab9b-eeca-4117-b1e9-4b53277a58b0"},"vehicle_type_id":"4","last_reported":1777155911,"current_range_meters":9200,"station_id":"ce4bhu92rcd13ifvqi70","pricing_plan_id":"cebpf4jnsgd1na2vs0mg"},{"bike_id":"458e4529-0a40-412a-9549-d5fc897c9e6e","system_id":"levelo_inurba_marseille","lat":43.28455,"lon":5.39199,"is_reserved":false,"is_disabled":false,"rental_uris":{"android":"levelo://app?vid=458e4529-0a40-412a-9549-d5fc897c9e6e","ios":"levelo://app?vid=458e4529-0a40-412a-9549-d5fc897c9e6e"},"vehicle_type_id":"4","last_reported":1777155911,"current_range_meters":9200,"station_id":"ce4bhoh2rcd13ifvqh5g","pricing_plan_id":"cebpf4jnsgd1na2vs0mg"},{"bike_id":"452a27a7-4742-4a75-a90f-adbec51bbe80","system_id":"levelo_inurba_marseille","lat":43.30883,"lon":5.39619,"is_reserved":false,"is_disabled":false,"rental_uris":{"android":"levelo://app?vid=452a27a7-4742-4a75-a90f-adbec51bbe80","ios":"levelo://app?vid=452a27a7-4742-4a75-a90f-adbec51bbe80"},"vehicle_type_id":"4","last_reported":1777155911,"current_range_meters":9200,"station_id":"ce4bh012rcd13ifvqcv0","pricing_plan_id":"cebpf4jnsgd1na2vs0mg"},{"bike_id":"7823ad82-47ee-4874-a221-0f59ad06630d","system_id":"levelo_inurba_marseille","lat":43.29868,"lon":5.38895,"is_reserved":false,"is_disabled":false,"rental_uris":{"android":"levelo://app?vid=7823ad82-47ee-4874-a221-0f59ad06630d","ios":"levelo://app?vid=7823ad82-47ee-4874-a221-0f59ad06630d"},"vehicle_type_id":"4","last_reported":1777155911,"current_range_meters":9200,"station_id":"ce4bh392rcd13ifvqdl0","pricing_plan_id":"cebpf4jnsgd1na2vs0mg"},{"bike_id":"2adb3f11-4ac7-43c6-b235-f35a9f24ecb7","system_id":"levelo_inurba_marseille","lat":43.24852,"lon":5.3744,"is_reserved":false,"is_disabled":false,"rental_uris":{"android":"levelo://app?vid=2adb3f11-4ac7-43c6-b235-f35a9f24ecb7","ios":"levelo://app?vid=2adb3f11-4ac7-43c6-b235-f35a9f24ecb7"},"vehicle_type_id":"4","last_reported":1777155911,"current_range_meters":9200,"station_id":"","pricing_plan_id":"cebpf4jnsgd1na2vs0mg"},{"bike_id":"80021212-dba6-417e-988a-d6d170a5b1df","system_id":"levelo_inurba_marseille","lat":43.29854,"lon":5.36286,"is_reserved":false,"is_disabled":false,"rental_uris":{"android":"levelo://app?vid=80021212-dba6-417e-988a-d6d170a5b1df","ios":"levelo://app?vid=80021212-dba6-417e-988a-d6d170a5b1df"},"vehicle_type_id":"4","last_reported":1777155911,"current_range_meters":9600,"station_id":"","pricing_plan_id":"cebpf4jnsgd1na2vs0mg"},{"bike_id":"c3f56438-50d4-49f5-8cb0-4e8633dbea49","system_id":"levelo_inurba_marseille","lat":43.2812,"lon":5.39736,"is_reserved":false,"is_disabled":false,"rental_uris":{"android":"levelo://app?vid=c3f56438-50d4-49f5-8cb0-4e8633dbea49","ios":"levelo://app?vid=c3f56438-50d4-49f5-8cb0-4e8633dbea49"},"vehicle_type_id":"4","last_reported":1777155911,"current_range_meters":9600,"station_id":"","pricing_plan_id":"cebpf4jnsgd1na2vs0mg"},{"bike_id":"df75676a-7c3f-4d29-80c0-260795f2c62d","system_id":"levelo_inurba_marseille","lat":43.2797,"lon":5.40789,"is_reserved":false,"is_disabled":false,"rental_uris":{"android":"levelo://app?vid=df75676a-7c3f-4d29-80c0-260795f2c62d","ios":"levelo://app?vid=df75676a-7c3f-4d29-80c0-260795f2c62d"},"vehicle_type_id":"4","last_reported":1777155911,"current_range_meters":9600,"station_id":"","pricing_plan_id":"cebpf4jnsgd1na2vs0mg"},{"bike_id":"acc43cd0-68ad-48c2-bac0-06fac0cec35e","system_id":"levelo_inurba_marseille","lat":43.225198,"lon":5.348323,"is_reserved":false,"is_disabled":false,"rental_uris":{"android":"levelo://app?vid=acc43cd0-68ad-48c2-bac0-06fac0cec35e","ios":"levelo://app?vid=acc43cd0-68ad-48c2-bac0-06fac0cec35e"},"vehicle_type_id":"4","last_reported":1777155911,"current_range_meters":9600,"station_id":"st_cvj5dfep6f1abm77gieg","pricing_plan_id":"cebpf4jnsgd1na2vs0mg"},{"bike_id":"b647feea-7bba-42b5-97bb-f6550e5560ce","system_id":"levelo_inurba_marseille","lat":43.24186,"lon":5.36365,"is_reserved":false,"is_disabled":false,"rental_uris":{"android":"levelo://app?vid=b647feea-7bba-42b5-97bb-f6550e5560ce","ios":"levelo://app?vid=b647feea-7bba-42b5-97bb-f6550e5560ce"},