{"last_updated":1739416400,"ttl":60,"version":"2.2","data":{"bikes":[{"bike_id":"9ae4959d-6de9-4c98-bb63-3a430a52595d","system_id":"levelo_inurba_marseille","lat":43.31375,"lon":5.36723,"is_reserved":false,"is_disabled":false,"rental_uris":{"android":"levelo://app?vid=9ae4959d-6de9-4c98-bb63-3a430a52595d","ios":"levelo://app?vid=9ae4959d-6de9-4c98-bb63-3a430a52595d"},"vehicle_type_id":"4","last_reported":1739416400,"current_range_meters":14400,"station_id":"ce4bgr92rcd13ifvqc6g","pricing_plan_id":"cebpf4jnsgd1na2vs0mg"},{"bike_id":"289ba408-0ff9-43d7-b093-e374a42c046c","system_id":"levelo_inurba_marseille","lat":43.28948,"lon":5.36408,"is_reserved":false,"is_disabled":false,"rental_uris":{"android":"levelo://app?vid=289ba408-0ff9-43d7-b093-e374a42c046c","ios":"levelo://app?vid=289ba408-0ff9-43d7-b093-e374a42c046c"},"vehicle_type_id":"4","last_reported":1739416400,"current_range_meters":35600,"station_id":"ce4bhc92rcd13ifvqetg","pricing_plan_id":"cebpf4jnsgd1na2vs0mg"},{"bike_id":"7803dd1a-a242-4883-848b-e4cbfccf197b","system_id":"levelo_inurba_marseille","lat":43.313233,"lon":5.367123,"is_reserved":false,"is_disabled":true,"rental_uris":{"android":"levelo://app?vid=7803dd1a-a242-4883-848b-e4cbfccf197b","ios":"levelo://app?vid=7803dd1a-a242-4883-848b-e4cbfccf197b"},"vehicle_type_id":"4","last_reported":1739416400,"current_range_meters":6400,"station_id":"ce4bgr92rcd13ifvqc6g","pricing_plan_id":"cebpf4jnsgd1na2vs0mg"},{"bike_id":"c9c9a869-bd7d-4ee7-bbff-01e591f7c427","system_id":"levelo_inurba_marseille","lat":43.31686,"lon":5.40475,"is_reserved":false,"is_disabled":false,"rental_uris":{"android":"levelo://app?vid=c9c9a869-bd7d-4ee7-bbff-01e591f7c427","ios":"levelo://app?vid=c9c9a869-bd7d-4ee7-bbff-01e591f7c427"},"vehicle_type_id":"4","last_reported":1739416400,"current_range_meters":37600,"station_id":"ce4bh012rcd13ifvqd00","pricing_plan_id":"cebpf4jnsgd1na2vs0mg"},{"bike_id":"e11340e9-76ba-4ced-a17e-46beb5acb69f","system_id":"levelo_inurba_marseille","lat":43.251453,"lon":5.39491,"is_reserved":false,"is_disabled":false,"rental_uris":{"android":"levelo://app?vid=e11340e9-76ba-4ced-a17e-46beb5acb69f","ios":"levelo://app?vid=e11340e9-76ba-4ced-a17e-46beb5acb69f"},"vehicle_type_id":"4","last_reported":1739416400,"current_range_meters":12000,"station_id":"ce4bhh92rcd13ifvqfh0","pricing_plan_id":"cebpf4jnsgd1na2vs0mg"},{"bike_id":"9c9e6dfa-122e-4154-8057-4016db8e7671","system_id":"levelo_inurba_marseille","lat":43.33725,"lon":5.392,"is_reserved":false,"is_disabled":false,"rental_uris":{"android":"levelo://app?vid=9c9e6dfa-122e-4154-8057-4016db8e7671","ios":"levelo://app?vid=9c9e6dfa-122e-4154-8057-4016db8e7671"},"vehicle_type_id":"4","last_reported":1739416400,"current_range_meters":39200,"station_id":"ce4bhr92rcd13ifvqhsg","pricing_plan_id":"cebpf4jnsgd1na2vs0mg"},{"bike_id":"35c96b0b-eb3c-4787-a379-c8c27196e8bc","system_id":"levelo_inurba_marseille","lat":43.324793,"lon":5.365801,"is_reserved":false,"is_disabled":false,"rental_uris":{"android":"levelo://app?vid=35c96b0b-eb3c-4787-a379-c8c27196e8bc","ios":"levelo://app?vid=35c96b0b-eb3c-4787-a379-c8c27196e8bc"},"vehicle_type_id":"4","last_reported":1739416400,"current_range_meters":39200,"station_id":"ce4bhs12rcd13ifvqhvg","pricing_plan_id":"cebpf4jnsgd1na2vs0mg"},{"bike_id":"1d4165b9-e8af-42e7-8e88-54a0f84b4f26","system_id":"levelo_inurba_marseille","lat":43.23193,"lon":5.39975,"is_reserved":false,"is_disabled":false,"rental_uris":{"android":"levelo://app?vid=1d4165b9-e8af-42e7-8e88-54a0f84b4f26","ios":"levelo://app?vid=1d4165b9-e8af-42e7-8e88-54a0f84b4f26"},"vehicle_type_id":"4","last_reported":1739416400,"current_range_meters":36800,"station_id":"ce4bhn12rcd13ifvqgqg","pricing_plan_id":"cebpf4jnsgd1na2vs0mg"},{"bike_id":"f6ef4f9a-c914-4d4b-a06e-00485b64285e","system_id":"levelo_inurba_marseille","lat":43.32473,"lon":5.36568,"is_reserved":false,"is_disabled":false,"rental_uris":{"android":"levelo://app?vid=f6ef4f9a-c914-4d4b-a06e-00485b64285e","ios":"levelo://app?vid=f6ef4f9a-c914-4d4b-a06e-00485b64285e"},"vehicle_type_id":"4","last_reported":1739416400,"current_range_meters":39200,"station_id":"ce4bhs12rcd13ifvqhvg","pricing_plan_id":"cebpf4jnsgd1na2vs0mg"},{"bike_id":"8ea73ef8-d9e5-432d-a3a9-b2da33c877eb","system_id":"levelo_inurba_marseille","lat":43.31542,"lon":5.38018,"is_reserved":false,"is_disabled":false,"rental_uris":{"android":"levelo://app?vid=8ea73ef8-d9e5-432d-a3a9-b2da33c877eb","ios":"levelo://app?vid=8ea73ef8-d9e5-432d-a3a9-b2da33c877eb"},"vehicle_type_id":"4","last_reported":1739416400,"current_range_meters":8000,"station_id":"ce4bhsp2rcd13ifvqi50","pricing_plan_id":"cebpf4jnsgd1na2vs0mg"},{"bike_id":"92b0e20b-bdc1-4235-9279-2766910a7620","system_id":"levelo_inurba_marseille","lat":43.30668,"lon":5.4005,"is_reserved":false,"is_disabled":false,"rental_uris":{"android":"levelo://app?vid=92b0e20b-bdc1-4235-9279-2766910a7620","ios":"levelo://app?vid=92b0e20b-bdc1-4235-9279-2766910a7620"},"vehicle_type_id":"4","last_reported":1739416400,"current_range_meters":38800,"station_id":"ce4bh112rcd13ifvqda0","pricing_plan_id":"cebpf4jnsgd1na2vs0mg"},{"bike_id":"9a810e7f-f4d3-4692-9027-c552af7c0f96","system_id":"levelo_inurba_marseille","lat":43.290259,"lon":5.359234,"is_reserved":false,"is_disabled":true,"rental_uris":{"android":"levelo://app?vid=9a810e7f-f4d3-4692-9027-c552af7c0f96","ios":"levelo://app?vid=9a810e7f-f4d3-4692-9027-c552af7c0f96"},"vehicle_type_id":"4","last_reported":1739416400,"current_range_meters":36400,"station_id":"ce4bha92rcd13ifvqeg0","pricing_plan_id":"cebpf4jnsgd1na2vs0mg"},{"bike_id":"4c4891db-fb43-4fcc-aed3-6542b2bf0dbf","system_id":"levelo_inurba_marseille","lat":43.274504,"lon":5.410456,"is_reserved":false,"is_disabled":false,"rental_uris":{"android":"levelo://app?vid=4c4891db-fb43-4fcc-aed3-6542b2bf0dbf","ios":"levelo://app?vid=4c4891db-fb43-4fcc-aed3-6542b2bf0dbf"},"vehicle_type_id":"4","last_reported":1739416400,"current_range_meters":28000,"station_id":"","pricing_plan_id":"cebpf4jnsgd1na2vs0mg"},{"bike_id":"8390feee-0735-4b8f-90c8-f81c741ca7d5","system_id":"levelo_inurba_marseille","lat":43.24838,"lon":5.37442,"is_reserved":false,"is_disabled":false,"rental_uris":{"android":"levelo://app?vid=8390feee-0735-4b8f-90c8-f81c741ca7d5","ios":"levelo://app?vid=8390feee-0735-4b8f-90c8-f81c741ca7d5"},"vehicle_type_id":"4","last_reported":1739416400,"current_range_meters":38800,"station_id":"","pricing_plan_id":"cebpf4jnsgd1na2vs0mg"},{"bike_id":"0e32f314-de1c-43d6-9735-aad0bdcd1c6f","system_id":"levelo_inurba_marseille","lat":43.28613,"lon":5.35092,"is_reserved":false,"is_disabled":false,"rental_uris":{"android":"levelo://app?vid=0e32f314-de1c-43d6-9735-aad0bdcd1c6f","ios":"levelo://app?vid=0e32f314-de1c-43d6-9735-aad0bdcd1c6f"},"vehicle_type_id":"4","last_reported":1739416400,"current_range_meters":38400,"station_id":"ce4bhch2rcd13ifvqeug","pricing_plan_id":"cebpf4jnsgd1na2vs0mg"},{"bike_id":"9e4564f0-0519-46c9-beea-73f529a3ce6a","system_id":"levelo_inurba_marseille","lat":43.24809,"lon":5.37451,"is_reserved":false,"is_disabled":false,"rental_uris":{"android":"levelo://app?vid=9e4564f0-0519-46c9-beea-73f529a3ce6a","ios":"levelo://app?vid=9e4564f0-0519-46c9-beea-73f529a3ce6a"},"vehicle_type_id":"4","last_reported":1739416400,"current_range_meters":26000,"station_id":"ce4bhgh2rcd13ifvqfb0","pricing_plan_id":"cebpf4jnsgd1na2vs0mg"},{"bike_id":"cfd2d3a3-9312-4c23-b021-1df9771ecac5","system_id":"levelo_inurba_marseille","lat":43.305374,"lon":5.384378,"is_reserved":false,"is_disabled":false,"rental_uris":{"android":"levelo://app?vid=cfd2d3a3-9312-4c23-b021-1df9771ecac5","ios":"levelo://app?vid=cfd2d3a3-9312-4c23-b021-1df9771ecac5"},"vehicle_type_id":"4","last_reported":1739416400,"current_range_meters":38800,"station_id":"ce4bgg92rcd13ifvqb30","pricing_plan_id":"cebpf4jnsgd1na2vs0mg"},{"bike_id":"5f72a820-1d02-49bc-8a87-8183592cb3a9","system_id":"levelo_inurba_marseille","lat":43.29774,"lon":5.37115,"is_reserved":false,"is_disabled":false,"rental_uris":{"android":"levelo://app?vid=5f72a820-1d02-49bc-8a87-8183592cb3a9","ios":"levelo://app?vid=5f72a820-1d02-49bc-8a87-8183592cb3a9"},"vehicle_type_id":"4","last_reported":1739416400,"current_range_meters":32000,"station_id":"ce4bgop2rcd13ifvqc1g","pricing_plan_id":"cebpf4jnsgd1na2vs0mg"},{"bike_id":"d61f1a82-a9af-4cb4-b60e-a1bdf8706c13","system_id":"levelo_inurba_marseille","lat":43.27812,"lon":5.40721,"is_reserved":false,"is_disabled":false,"rental_uris":{"android":"levelo://app?vid=d61f1a82-a9af-4cb4-b60e-a1bdf8706c13","ios":"levelo://app?vid=d61f1a82-a9af-4cb4-b60e-a1bdf8706c13"},"vehicle_type_id":"4","last_reported":1739416400,"current_range_meters":38800,"station_id":"ce4bhnh2rcd13ifvqgtg","pricing_plan_id":"cebpf4jnsgd1na2vs0mg"},{"bike_id":"55cf1004-3cb6-473a-b63c-a5fabeeb598e","system_id":"levelo_inurba_marseille","lat":43.32337,"lon":5.4062,"is_reserved":false,"is_disabled":false,"rental_uris":{"android":"levelo://app?vid=55cf1004-3cb6-473a-b63c-a5fabeeb598e","ios":"levelo://app?vid=55cf1004-3cb6-473a-b63c-a5fabeeb598e"},"vehicle_type_id":"4","last_reported":1739416400,"current_range_meters":11200,"station_id":"ce4bhq92rcd13ifvqhjg","pricing_plan_id":"cebpf4jnsgd1na2vs0mg"},{"bike_id":"56bc7c1b-51a3-4197-99ff-21720caa162f","system_id":"levelo_inurba_marseille","lat":43.29922,"lon":5.37479,"is_reserved":false,"is_disabled":false,"rental_uris":{"android":"levelo://app?vid=56bc7c1b-51a3-4197-99ff-21720caa162f","ios":"levelo://app?vid=56bc7c1b-51a3-4197-99ff-21720caa162f"},"vehicle_type_id":"4","last_reported":1739416400,"current_range_meters":39200,"station_id":"ce4bgjh2rcd13ifvqbg0","pricing_plan_id":"cebpf4jnsgd1na2vs0mg"},{"bike_id":"8261cc28-9194-4f8e-aad8-e14b07d6756d","system_id":"levelo_inurba_marseille","lat":43.295214,"lon":5.394071,"is_reserved":false,"is_disabled":false,"rental_uris":{"android":"levelo://app?vid=8261cc28-9194-4f8e-aad8-e14b07d6756d","ios":"levelo://app?vid=8261cc28-9194-4f8e-aad8-e14b07d6756d"},"vehicle_type_id":"4","last_reported":1739416400,"current_range_meters":27600,"station_id":"ce4bh292rcd13ifvqdf0","pricing_plan_id":"cebpf4jnsgd1na2vs0mg"},{"bike_id":"224dce56-c44e-4b91-bb45-919ca8990be5","system_id":"levelo_inurba_marseille","lat":43.29034,"lon":5.35918,"is_reserved":false,"is_disabled":false,"rental_uris":{"android":"levelo://app?vid=224dce56-c44e-4b91-bb45-919ca8990be5","ios":"levelo://app?vid=224dce56-c44e-4b91-bb45-919ca8990be5"},"vehicle_type_id":"4","last_reported":1739416400,"current_range_meters":39200,"station_id":"ce4bha92rcd13ifvqeg0","pricing_plan_id":"cebpf4jnsgd1na2vs0mg"},{"bike_id":"45794646-8ec2-4f0d-b829-7c35a7e99dd3","system_id":"levelo_inurba_marseille","lat":43.28704,"lon":5.37382,"is_reserved":false,"is_disabled":false,"rental_uris":{"android":"levelo://app?vid=45794646-8ec2-4f0d-b829-7c35a7e99dd3","ios":"levelo://app?vid=45794646-8ec2-4f0d-b829-7c35a7e99dd3"},"vehicle_type_id":"4","last_reported":1739416400,"current_range_meters":22000,"station_id":"ce4bh3p2rcd13ifvqdq0","pricing_plan_id":"cebpf4jnsgd1na2vs0mg"},{"bike_id":"5f7e6b83-a51b-46d4-afdf-e2a1f0a5a01e","system_id":"levelo_inurba_marseille","lat":43.30676,"lon":5.40062,"is_reserved":false,"is_disabled":false,"rental_uris":{"android":"levelo://app?vid=5f7e6b83-a51b-46d4-afdf-e2a1f0a5a01e","ios":"levelo://app?vid=5f7e6b83-a51b-46d4-afdf-e2a1f0a5a01e"},"vehicle_type_id":"4","last_reported":1739416400,"current_range_meters":36400,"station_id":"","pricing_plan_id":"cebpf4jnsgd1na2vs0mg"},{"bike_id":"39e55a90-fe76-4904-bf9c-9841fe168f13","system_id":"levelo_inurba_marseille","lat":43.337312,"lon":5.391791,"is_reserved":false,"is_disabled":false,"rental_uris":{"android":"levelo://app?vid=39e55a90-fe76-4904-bf9c-9841fe168f13","ios":"levelo://app?vid=39e55a90-fe76-4904-bf9c-9841fe168f13"},"vehicle_type_id":"4","last_reported":1739416400,"current_range_meters":38800,"station_id":"ce4bhr92rcd13ifvqhsg","pricing_plan_id":"cebpf4jnsgd1na2vs0mg"},{"bike_id":"119cd2f0-3430-4357-aeef-13265d224c68","system_id":"levelo_inurba_marseille","lat":43.30313,"lon":5.36914,"is_reserved":false,"is_disabled":false,"rental_uris":{"android":"levelo://app?vid=119cd2f0-3430-4357-aeef-13265d224c68","ios":"levelo://app?vid=119cd2f0-3430-4357-aeef-13265d224c68"},"vehicle_type_id":"4","last_reported":1739416400,"current_range_meters":29600,"station_id":"ce4bgqh2rcd13ifvqc5g","pricing_plan_id":"cebpf4jnsgd1na2vs0mg"},{"bike_id":"e9b1e2c3-4aa6-4f91-a44a-25404004ade1","system_id":"levelo_inurba_marseille","lat":43.30545,"lon":5.38413,"is_reserved":false,"is_disabled":false,"rental_uris":{"android":"levelo://app?vid=e9b1e2c3-4aa6-4f91-a44a-25404004ade1","ios":"levelo://app?vid=e9b1e2c3-4aa6-4f91-a44a-25404004ade1"},"vehicle_type_id":"4","last_reported":1739416400,"current_range_meters":23200,"station_id":"ce4bgg92rcd13ifvqb30","pricing_plan_id":"cebpf4jnsgd1na2vs0mg"},{"bike_id":"93854add-961e-4643-a587-7986d2df48aa","system_id":"levelo_inurba_marseille","lat":43.231935,"lon":5.399873,"is_reserved":false,"is_disabled":false,"rental_uris":{"android":"levelo://app?vid=93854add-961e-4643-a587-7986d2df48aa","ios":"levelo://app?vid=93854add-961e-4643-a587-7986d2df48aa"},"vehicle_type_id":"4","last_reported":1739416400,"current_range_meters":16000,"station_id":"ce4bhn12rcd13ifvqgqg","pricing_plan_id":"cebpf4jnsgd1na2vs0mg"},{"bike_id":"2a5c1b07-7008-4f6d-9a02-f1ed29550b44","system_id":"levelo_inurba_marseille","lat":43.324761,"lon":5.365638,"is_reserved":false,"is_disabled":false,"rental_uris":{"android":"levelo://app?vid=2a5c1b07-7008-4f6d-9a02-f1ed29550b44","ios":"levelo://app?vid=2a5c1b07-7008-4f6d-9a02-f1ed29550b44"},"vehicle_type_id":"4","last_reported":1739416400,"current_range_meters":27600,"station_id":"ce4bhs12rcd13ifvqhvg","pricing_plan_id":"cebpf4jnsgd1na2vs0mg"},{"bike_id":"95d5b9b7-9577-47af-ae42-5b0d03d8ee92","system_id":"levelo_inurba_marseille","lat":43.29795,"lon":5.39332,"is_reserved":false,"is_disabled":false,"rental_uris":{"android":"levelo://app?vid=95d5b9b7-9577-47af-ae42-5b0d03d8ee92","ios":"levelo://app?vid=95d5b9b7-9577-47af-ae42-5b0d03d8ee92"},"vehicle_type_id":"4","last_reported":1739416400,"current_range_meters":38800,"station_id":"chh1huq6cuj3fo74tm60","pricing_plan_id":"cebpf4jnsgd1na2vs0mg"},{"bike_id":"8fe5944e-f2e2-479a-9327-afb9c4418807","system_id":"levelo_inurba_marseille","lat":43.30928,"lon":5.40157,"is_reserved":false,"is_disabled":false,"rental_uris":{"android":"levelo://app?vid=8fe5944e-f2e2-479a-9327-afb9c4418807","ios":"levelo://app?vid=8fe5944e-f2e2-479a-9327-afb9c4418807"},"vehicle_type_id":"4","last_reported":1739416400,"current_range_meters":34000,"station_id":"ce4bgvp2rcd13ifvqct0","pricing_plan_id":"cebpf4jnsgd1na2vs0mg"},{"bike_id":"b74401c3-60d8-4468-ab29-59994cc16423","system_id":"levelo_inurba_marseille","lat":43.3189,"lon":5.40713,"is_reserved":false,"is_disabled":false,"rental_uris":{"android":"levelo://app?vid=b74401c3-60d8-4468-ab29-59994cc16423","ios":"levelo://app?vid=b74401c3-60d8-4468-ab29-59994cc16423"},"vehicle_type_id":"4","last_reported":1739416400,"current_range_meters":38000,"station_id":"ce4bhq12rcd13ifvqhig","pricing_plan_id":"cebpf4jnsgd1na2vs0mg"},{"bike_id":"b737ae82-c86e-4ede-80b2-31fc6f755e14","system_id":"levelo_inurba_marseille","lat":43.29536,"lon":5.3856,"is_reserved":false,"is_disabled":true,"rental_uris":{"android":"levelo://app?vid=b737ae82-c86e-4ede-80b2-31fc6f755e14","ios":"levelo://app?vid=b737ae82-c86e-4ede-80b2-31fc6f755e14"},"vehicle_type_id":"4","last_reported":1739416400,"current_range_meters":38800,"station_id":"ce4bgih2rcd13ifvqba0","pricing_plan_id":"cebpf4jnsgd1na2vs0mg"},{"bike_id":"25c671e0-0402-4bec-957d-62e6fc533515","system_id":"levelo_inurba_marseille","lat":43.280298,"lon":5.369367,"is_reserved":false,"is_disabled":false,"rental_uris":{"android":"levelo://app?vid=25c671e0-0402-4bec-957d-62e6fc533515","ios":"levelo://app?vid=25c671e0-0402-4bec-957d-62e6fc533515"},"vehicle_type_id":"4","last_reported":1739416400,"current_range_meters":22400,"station_id":"ce4bha12rcd13ifvqef0","pricing_plan_id":"cebpf4jnsgd1na2vs0mg"},{"bike_id":"320c6d7f-a9f7-4782-81ee-96f6215fd52d","system_id":"levelo_inurba_marseille","lat":43.27826,"lon":5.39202,"is_reserved":false,"is_disabled":false,"rental_uris":{"android":"levelo://app?vid=320c6d7f-a9f7-4782-81ee-96f6215fd52d","ios":"levelo://app?vid=320c6d7f-a9f7-4782-81ee-96f6215fd52d"},"vehicle_type_id":"4","last_reported":1739416400,"current_range_meters":6800,"station_id":"ce4bhjp2rcd13ifvqga0","pricing_plan_id":"cebpf4jnsgd1na2vs0mg"},{"bike_id":"4d31b1f4-e38f-4f3a-b332-0c052385a104","system_id":"levelo_inurba_marseille","lat":43.25881,"lon":5.399,"is_reserved":false,"is_disabled":false,"rental_uris":{"android":"levelo://app?vid=4d31b1f4-e38f-4f3a-b332-0c052385a104","ios":"levelo://app?vid=4d31b1f4-e38f-4f3a-b332-0c052385a104"},"vehicle_type_id":"4","last_reported":1739416400,"current_range_meters":38800,"station_id":"ce4bhl92rcd13ifvqghg","pricing_plan_id":"cebpf4jnsgd1na2vs0mg"},{"bike_id":"55fa0fd1-4793-4372-94cc-c9ee5bd4ca87","system_id":"levelo_inurba_marseille","lat":43.28686,"lon":5.38656,"is_reserved":false,"is_disabled":true,"rental_uris":{"android":"levelo://app?vid=55fa0fd1-4793-4372-94cc-c9ee5bd4ca87","ios":"levelo://app?vid=55fa0fd1-4793-4372-94cc-c9ee5bd4ca87"},"vehicle_type_id":"4","last_reported":1739416400,"current_range_meters":34800,"station_id":"ce4bh492rcd13ifvqdug","pricing_plan_id":"cebpf4jnsgd1na2vs0mg"},{"bike_id":"d5364b95-6d01-4193-ba79-92f54481b69d","system_id":"levelo_inurba_marseille","lat":43.30157,"lon":5.38777,"is_reserved":false,"is_disabled":false,"rental_uris":{"android":"levelo://app?vid=d5364b95-6d01-4193-ba79-92f54481b69d","ios":"levelo://app?vid=d5364b95-6d01-4193-ba79-92f54481b69d"},"vehicle_type_id":"4","last_reported":1739416400,"current_range_meters":38800,"station_id":"ce4bhoh2rcd13ifvqh6g","pricing_plan_id":"cebpf4jnsgd1na2vs0mg"},{"bike_id":"379a5608-bae7-4073-bc0d-fd88bf86b5be","system_id":"levelo_inurba_marseille","lat":43.25704,"lon":5.41119,"is_reserved":false,"is_disabled":false,"rental_uris":{"android":"levelo://app?vid=379a5608-bae7-4073-bc0d-fd88bf86b5be","ios":"levelo://app?vid=379a5608-bae7-4073-bc0d-fd88bf86b5be"},"vehicle_type_id":"4","last_reported":1739416400,"current_range_meters":38000,"station_id":"ce4bhkp2rcd13ifvqgd0","pricing_plan_id":"cebpf4jnsgd1na2vs0mg"},{"bike_id":"679b51a7-0864-4c79-a75b-8b937ab8b8fc","system_id":"levelo_inurba_marseille","lat":43.24579,"lon":5.39526,"is_reserved":false,"is_disabled":false,"rental_uris":{"android":"levelo://app?vid=679b51a7-0864-4c79-a75b-8b937ab8b8fc","ios":"levelo://app?vid=679b51a7-0864-4c79-a75b-8b937ab8b8fc"},"vehicle_type_id":"4","last_reported":1739416400,"current_range_meters":33600,"station_id":"ce4bhlp2rcd13ifvqgjg","pricing_plan_id":"cebpf4jnsgd1na2vs0mg"},{"bike_id":"d2090b16-1da9-4170-8973-962616ace04b","system_id":"levelo_inurba_marseille","lat":43.2846,"lon":5.39184,"is_reserved":false,"is_disabled":true,"rental_uris":{"android":"levelo://app?vid=d2090b16-1da9-4170-8973-962616ace04b","ios":"levelo://app?vid=d2090b16-1da9-4170-8973-962616ace04b"},"vehicle_type_id":"4","last_reported":1739416400,"current_range_meters":28800,"station_id":"ce4bhoh2rcd13ifvqh5g","pricing_plan_id":"cebpf4jnsgd1na2vs0mg"},{"bike_id":"10de4a70-f442-4ea5-8328-39f22bc1819f","system_id":"levelo_inurba_marseille","lat":43.29055,"lon":5.37167,"is_reserved":false,"is_disabled":false,"rental_uris":{"android":"levelo://app?vid=10de4a70-f442-4ea5-8328-39f22bc1819f","ios":"levelo://app?vid=10de4a70-f442-4ea5-8328-39f22bc1819f"},"vehicle_type_id":"4","last_reported":1739416400,"current_range_meters":9600,"station_id":"ce4bh5p2rcd13ifvqe4g","pricing_plan_id":"cebpf4jnsgd1na2vs0mg"},{"bike_id":"6c956ae1-e540-4fc7-9455-5729ac7f892e","system_id":"levelo_inurba_marseille","lat":43.29862,"lon":5.36251,"is_reserved":false,"is_disabled":false,"rental_uris":{"android":"levelo://app?vid=6c956ae1-e540-4fc7-9455-5729ac7f892e","ios":"levelo://app?vid=6c956ae1-e540-4fc7-9455-5729ac7f892e"},"vehicle_type_id":"4","last_reported":1739416400,"current_range_meters":16000,"station_id":"ce4bgpp2rcd13ifvqc3g","pricing_plan_id":"cebpf4jnsgd1na2vs0mg"},{"bike_id":"3425a89b-f60c-4d0e-aca5-29bd2e04eccc","system_id":"levelo_inurba_marseille","lat":43.289471,"lon":5.366289,"is_reserved":false,"is_disabled":false,"rental_uris":{"android":"levelo://app?vid=3425a89b-f60c-4d0e-aca5-29bd2e04eccc","ios":"levelo://app?vid=3425a89b-f60c-4d0e-aca5-29bd2e04eccc"},"vehicle_type_id":"4","last_reported":1739416400,"current_range_meters":26000,"station_id":"ce4bhap2rcd13ifvqek0","pricing_plan_id":"cebpf4jnsgd1na2vs0mg"},{"bike_id":"afab657c-f010-460e-9dd2-84e36d509c29","system_id":"levelo_inurba_marseille","lat":43.30872,"lon":5.39633,"is_reserved":false,"is_disabled":false,"rental_uris":{"android":"levelo://app?vid=afab657c-f010-460e-9dd2-84e36d509c29","ios":"levelo://app?vid=afab657c-f010-460e-9dd2-84e36d509c29"},"vehicle_type_id":"4","last_reported":1739416400,"current_range_meters":38800,"station_id":"ce4bh012rcd13ifvqcv0","pricing_plan_id":"cebpf4jnsgd1na2vs0mg"},{"bike_id":"83f86852-939d-4ba2-8006-31400717194c","system_id":"levelo_inurba_marseille","lat":43.27849,"lon":5.40675,"is_reserved":false,"is_disabled":false,"rental_uris":{"android":"levelo://app?vid=83f86852-939d-4ba2-8006-31400717194c","ios":"levelo://app?vid=83f86852-939d-4ba2-8006-31400717194c"},"vehicle_type_id":"4","last_reported":1739416400,"current_range_meters":28000,"station_id":"ce4bhnh2rcd13ifvqgtg","pricing_plan_id":"cebpf4jnsgd1na2vs0mg"},{"bike_id":"326899e9-f699-49bd-bdf1-ccad0eec0f13","system_id":"levelo_inurba_marseille","lat":43.286233,"lon":5.35099,"is_reserved":false,"is_disabled":false,"rental_uris":{"android":"levelo://app?vid=326899e9-f699-49bd-bdf1-ccad0eec0f13","ios":"levelo://app?vid=326899e9-f699-49bd-bdf1-ccad0eec0f13"},"vehicle_type_id":"4","last_reported":1739416400,"current_range_meters":11200,"station_id":"ce4bhch2rcd13ifvqeug","pricing_plan_id":"cebpf4jnsgd1na2vs0mg"},{"bike_id":"ccdae001-9573-4b87-92dd-6c043d86e6c5","system_id":"levelo_inurba_marseille","lat":43.31293,"lon":5.40157,"is_reserved":false,"is_disabled":false,"rental_uris":{"android":"levelo://app?vid=ccdae001-9573-4b87-92dd-6c043d86e6c5","ios":"levelo://app?vid=ccdae001-9573-4b87-92dd-6c043d86e6c5"},"vehicle_type_id":"4","last_reported":1739416400,"current_range_meters":38800,"station_id":"ce4bh092rcd13ifvqd30","pricing_plan_id":"cebpf4jnsgd1na2vs0mg"},{"bike_id":"704ec19d-e7c0-4858-a423-dcfa560220a5","system_id":"levelo_inurba_marseille","lat":43.23179,"lon":5.39974,"is_reserved":false,"is_disabled":false,"rental_uris":{"android":"levelo://app?vid=704ec19d-e7c0-4858-a423-dcfa560220a5","ios":"levelo://app?vid=704ec19d-e7c0-4858-a423-dcfa560220a5"},"vehicle_type_id":"4","last_reported":1739416400,"current_range_meters":37600,"station_id":"ce4bhn12rcd13ifvqgqg","pricing_plan_id":"cebpf4jnsgd1na2vs0mg"},{"bike_id":"6aa1eeb5-b35e-43ad-992b-ddcb7e868893","system_id":"levelo_inurba_marseille","lat":43.266814,"lon":5.382581,"is_reserved":false,"is_disabled":false,"rental_uris":{"android":"levelo://app?vid=6aa1eeb5-b35e-43ad-992b-ddcb7e868893","ios":"levelo://app?vid=6aa1eeb5-b35e-43ad-992b-ddcb7e868893"},"vehicle_type_id":"4","last_reported":1739416400,"current_range_meters":38800,"station_id":"ce4bhg92rcd13ifvqf90","pricing_plan_id":"cebpf4jnsgd1na2vs0mg"},{"bike_id":"5d9e7b95-19f6-4aaf-a1cd-a73cb46e7992","system_id":"levelo_inurba_marseille","lat":43.32056,"lon":5.41551,"is_reserved":false,"is_disabled":false,"rental_uris":{"android":"levelo://app?vid=5d9e7b95-19f6-4aaf-a1cd-a73cb46e7992","ios":"levelo://app?vid=5d9e7b95-19f6-4aaf-a1cd-a73cb46e7992"},"vehicle_type_id":"4","last_reported":1739416400,"current_range_meters":38000,"station_id":"ce4bhq92rcd13ifvqhkg","pricing_plan_id":"cebpf4jnsgd1na2vs0mg"},{"bike_id":"7f922148-2ec9-4ffb-81da-2699ff8cc00b","system_id":"levelo_inurba_marseille","lat":43.231876,"lon":5.399792,"is_reserved":false,"is_disabled":false,"rental_uris":{"android":"levelo://app?vid=7f922148-2ec9-4ffb-81da-2699ff8cc00b","ios":"levelo://app?vid=7f922148-2ec9-4ffb-81da-2699ff8cc00b"},"vehicle_type_id":"4","last_reported":1739416400,"current_range_meters":9200,"station_id":"ce4bhn12rcd13ifvqgqg","pricing_plan_id":"cebpf4jnsgd1na2vs0mg"},{"bike_id":"8b301010-c1b7-4bf5-be73-26b4bca92fe7","system_id":"levelo_inurba_marseille","lat":43.24809,"lon":5.37458,"is_reserved":false,"is_disabled":false,"rental_uris":{"android":"levelo://app?vid=8b301010-c1b7-4bf5-be73-26b4bca92fe7","ios":"levelo://app?vid=8b301010-c1b7-4bf5-be73-26b4bca92fe7"},"vehicle_type_id":"4","last_reported":1739416400,"current_range_meters":22800,"station_id":"ce4bhgh2rcd13ifvqfb0","pricing_plan_id":"cebpf4jnsgd1na2vs0mg"},{"bike_id":"f5140a58-b137-4968-80ec-951b81687f9e","system_id":"levelo_inurba_marseille","lat":43.28437,"lon":5.39179,"is_reserved":false,"is_disabled":false,"rental_uris":{"android":"levelo://app?vid=f5140a58-b137-4968-80ec-951b81687f9e","ios":"levelo://app?vid=f5140a58-b137-4968-80ec-951b81687f9e"},"vehicle_type_id":"4","last_reported":1739416400,"current_range_meters":38800,"station_id":"ce4bhoh2rcd13ifvqh5g","pricing_plan_id":"cebpf4jnsgd1na2vs0mg"},{"bike_id":"4beae72e-7b08-4d41-bfb2-43df948d2dd7","system_id":"levelo_inurba_marseille","lat":43.27185,"lon":5.40991,"is_reserved":false,"is_disabled":false,"rental_uris":{"android":"levelo://app?vid=4beae72e-7b08-4d41-bfb2-43df948d2dd7","ios":"levelo://app?vid=4beae72e-7b08-4d41-bfb2-43df948d2dd7"},"vehicle_type_id":"4","last_reported":1739416400,"current_range_meters":37600,"station_id":"ce4bhl12rcd13ifvqgf0","pricing_plan_id":"cebpf4jnsgd1na2vs0mg"},{"bike_id":"9cf8e6d9-67b8-441b-8ab4-08ef8560d2b0","system_id":"levelo_inurba_marseille","lat":43.33193,"lon":5.35574,"is_reserved":false,"is_disabled":false,"rental_uris":{"android":"levelo://app?vid=9cf8e6d9-67b8-441b-8ab4-08ef8560d2b0","ios":"levelo://app?vid=9cf8e6d9-67b8-441b-8ab4-08ef8560d2b0"},"vehicle_type_id":"4","last_reported":1739416400,"current_range_meters":8400,"station_id":"","pricing_plan_id":"cebpf4jnsgd1na2vs0mg"},{"bike_id":"f61f0289-db11-4f78-af36-f70fd4404161","system_id":"levelo_inurba_marseille","lat":43.290051,"lon":5.356176,"is_reserved":false,"is_disabled":true,"rental_uris":{"android":"levelo://app?vid=f61f0289-db11-4f78-af36-f70fd4404161","ios":"levelo://app?vid=f61f0289-db11-4f78-af36-f70fd4404161"},"vehicle_type_id":"4","last_reported":1739416400,"current_range_meters":32000,"station_id":"","pricing_plan_id":"cebpf4jnsgd1na2vs0mg"},{"bike_id":"6e66bdbe-f512-4add-8da3-6838bcdad896","system_id":"levelo_inurba_marseille","lat":43.268054,"lon":5.402646,"is_reserved":false,"is_disabled":false,"rental_uris":{"android":"levelo://app?vid=6e66bdbe-f512-4add-8da3-6838bcdad896","ios":"levelo://app?vid=6e66bdbe-f512-4add-8da3-6838bcdad896"},"vehicle_type_id":"4","last_reported":1739416400,"current_range_meters":38000,"station_id":"ce501612rcd8frsf0b60","pricing_plan_id":"cebpf4jnsgd1na2vs0mg"},{"bike_id":"a5c13995-307a-42ad-8d2a-b93e85ee0799","system_id":"levelo_inurba_marseille","lat":43.28367,"lon":5.38634,"is_reserved":false,"is_disabled":false,"rental_uris":{"android":"levelo://app?vid=a5c13995-307a-42ad-8d2a-b93e85ee0799","ios":"levelo://app?vid=a5c13995-307a-42ad-8d2a-b93e85ee0799"},"vehicle_type_id":"4","last_reported":1739416400,"current_range_meters":38000,"station_id":"ce4bh492rcd13ifvqdvg","pricing_plan_id":"cebpf4jnsgd1na2vs0mg"},{"bike_id":"d06fb2b2-c3c2-4116-87f0-f0d5ad8f7bab","system_id":"levelo_inurba_marseille","lat":43.28941,"lon":5.36405,"is_reserved":false,"is_disabled":false,"rental_uris":{"android":"levelo://app?vid=d06fb2b2-c3c2-4116-87f0-f0d5ad8f7bab","ios":"levelo://app?vid=d06fb2b2-c3c2-4116-87f0-f0d5ad8f7bab"},"vehicle_type_id":"4","last_reported":1739416400,"current_range_meters":38800,"station_id":"ce4bhc92rcd13ifvqetg","pricing_plan_id":"cebpf4jnsgd1na2vs0mg"},{"bike_id":"bc235a4c-617d-46ba-8c7a-21502f4b2aaf","system_id":"levelo_inurba_marseille","lat":43.23186,"lon":5.39977,"is_reserved":false,"is_disabled":false,"rental_uris":{"android":"levelo://app?vid=bc235a4c-617d-46ba-8c7a-21502f4b2aaf","ios":"levelo://app?vid=bc235a4c-617d-46ba-8c7a-21502f4b2aaf"},"vehicle_type_id":"4","last_reported":1739416400,"current_range_meters":18000,"station_id":"ce4bhn12rcd13ifvqgqg","pricing_plan_id":"cebpf4jnsgd1na2vs0mg"},{"bike_id":"7e4baaff-43df-45ac-ba99-60d4ee3b5a14","system_id":"levelo_inurba_marseille","lat":43.3249,"lon":5.36547,"is_reserved":false,"is_disabled":false,"rental_uris":{"android":"levelo://app?vid=7e4baaff-43df-45ac-ba99-60d4ee3b5a14","ios":"levelo://app?vid=7e4baaff-43df-45ac-ba99-60d4ee3b5a14"},"vehicle_type_id":"4","last_reported":1739416400,"current_range_meters":38000,"station_id":"ce4bhs12rcd13ifvqhvg","pricing_plan_id":"cebpf4jnsgd1na2vs0mg"},{"bike_id":"9e1feb3a-7196-4a53-a575-a01cb88ca190","system_id":"levelo_inurba_marseille","lat":43.296299,"lon":5.405995,"is_reserved":false,"is_disabled":false,"rental_uris":{"android":"levelo://app?vid=9e1feb3a-7196-4a53-a575-a01cb88ca190","ios":"levelo://app?vid=9e1feb3a-7196-4a53-a575-a01cb88ca190"},"vehicle_type_id":"4","last_reported":1739416400,"current_range_meters":38800,"station_id":"ce4bh0h2rcd13ifvqd60","pricing_plan_id":"cebpf4jnsgd1na2vs0mg"},{"bike_id":"5bf7b31a-f643-4d39-ac8f-028588cb3b5d","system_id":"levelo_inurba_marseille","lat":43.240781,"lon":5.377616,"is_reserved":false,"is_disabled":false,"rental_uris":{"android":"levelo://app?vid=5bf7b31a-f643-4d39-ac8f-028588cb3b5d","ios":"levelo://app?vid=5bf7b31a-f643-4d39-ac8f-028588cb3b5d"},"vehicle_type_id":"4","last_reported":1739416400,"current_range_meters":38400,"station_id":"ce4bhnp2rcd13ifvqgvg","pricing_plan_id":"cebpf4jnsgd1na2vs0mg"},{"bike_id":"b03fd7e9-5604-4ddf-8507-029c6e1eb1c8","system_id":"levelo_inurba_marseille","lat":43.25929,"lon":5.40892,"is_reserved":false,"is_disabled":false,"rental_uris":{"android":"levelo://app?vid=b03fd7e9-5604-4ddf-8507-029c6e1eb1c8","ios":"levelo://app?vid=b03fd7e9-5604-4ddf-8507-029c6e1eb1c8"},"vehicle_type_id":"4","last_reported":1739416400,"current_range_meters":38800,"station_id":"ce4bhm92rcd13ifvqglg","pricing_plan_id":"cebpf4jnsgd1na2vs0mg"},{"bike_id":"51ab7186-5043-4bed-baca-73708608a302","system_id":"levelo_inurba_marseille","lat":43.29584,"lon":5.37026,"is_reserved":false,"is_disabled":true,"rental_uris":{"android":"levelo://app?vid=51ab7186-5043-4bed-baca-73708608a302","ios":"levelo://app?vid=51ab7186-5043-4bed-baca-73708608a302"},"vehicle_type_id":"4","last_reported":1739416400,"current_range_meters":400,"station_id":"","pricing_plan_id":"cebpf4jnsgd1na2vs0mg"},{"bike_id":"601c5491-42f1-4202-a963-fdfe4692ed5e","system_id":"levelo_inurba_marseille","lat":43.3033,"lon":5.39201,"is_reserved":false,"is_disabled":true,"rental_uris":{"android":"levelo://app?vid=601c5491-42f1-4202-a963-fdfe4692ed5e","ios":"levelo://app?vid=601c5491-42f1-4202-a963-fdfe4692ed5e"},"vehicle_type_id":"4","last_reported":1739416400,"current_range_meters":38800,"station_id":"ce4bgkh2rcd13ifvqbk0","pricing_plan_id":"cebpf4jnsgd1na2vs0mg"},{"bike_id":"3a6545aa-16b6-4902-b0e8-66d739ac070d","system_id":"levelo_inurba_marseille","lat":43.295747,"lon":5.399693,"is_reserved":false,"is_disabled":false,"rental_uris":{"android":"levelo://app?vid=3a6545aa-16b6-4902-b0e8-66d739ac070d","ios":"levelo://app?vid=3a6545aa-16b6-4902-b0e8-66d739ac070d"},"vehicle_type_id":"4","last_reported":1739416400,"current_range_meters":38800,"station_id":"ce4bh312rcd13ifvqdj0","pricing_plan_id":"cebpf4jnsgd1na2vs0mg"},{"bike_id":"be3a2991-17b8-4c20-966d-3ace1c24cd5b","system_id":"levelo_inurba_marseille","lat":43.28425,"lon":5.34996,"is_reserved":false,"is_disabled":false,"rental_uris":{"android":"levelo://app?vid=be3a2991-17b8-4c20-966d-3ace1c24cd5b","ios":"levelo://app?vid=be3a2991-17b8-4c20-966d-3ace1c24cd5b"},"vehicle_type_id":"4","last_reported":1739416400,"current_range_meters":34000,"station_id":"ce4bhbh2rcd13ifvqepg","pricing_plan_id":"cebpf4jnsgd1na2vs0mg"},{"bike_id":"d3fc5f7e-9983-4343-a9af-f36df7d45f29","system_id":"levelo_inurba_marseille","lat":43.23192,"lon":5.39975,"is_reserved":false,"is_disabled":false,"rental_uris":{"android":"levelo://app?vid=d3fc5f7e-9983-4343-a9af-f36df7d45f29","ios":"levelo://app?vid=d3fc5f7e-9983-4343-a9af-f36df7d45f29"},"vehicle_type_id":"4","last_reported":1739416400,"current_range_meters":25600,"station_id":"ce4bhn12rcd13ifvqgqg","pricing_plan_id":"cebpf4jnsgd1na2vs0mg"},{"bike_id":"7e2037ba-d8da-4a44-a25b-f35749aa1add","system_id":"levelo_inurba_marseille","lat":43.30651,"lon":5.400846,"is_reserved":false,"is_disabled":false,"rental_uris":{"android":"levelo://app?vid=7e2037ba-d8da-4a44-a25b-f35749aa1add","ios":"levelo://app?vid=7e2037ba-d8da-4a44-a25b-f35749aa1add"},"vehicle_type_id":"4","last_reported":1739416400,"current_range_meters":37600,"station_id":"ce4bh112rcd13ifvqda0","pricing_plan_id":"cebpf4jnsgd1na2vs0mg"},{"bike_id":"cc713c57-2903-47c4-b3c3-50b1ca8a922c","system_id":"levelo_inurba_marseille","lat":43.286616,"lon":5.363541,"is_reserved":false,"is_disabled":false,"rental_uris":{"android":"levelo://app?vid=cc713c57-2903-47c4-b3c3-50b1ca8a922c","ios":"levelo://app?vid=cc713c57-2903-47c4-b3c3-50b1ca8a922c"},"vehicle_type_id":"4","last_reported":1739416400,"current_range_meters":38800,"station_id":"ce4bhah2rcd13ifvqej0","pricing_plan_id":"cebpf4jnsgd1na2vs0mg"},{"bike_id":"fa635d7a-83cc-4e81-97e0-91248a5d9a30","system_id":"levelo_inurba_marseille","lat":43.297,"lon":5.37697,"is_reserved":false,"is_disabled":false,"rental_uris":{"android":"levelo://app?vid=fa635d7a-83cc-4e81-97e0-91248a5d9a30","ios":"levelo://app?vid=fa635d7a-83cc-4e81-97e0-91248a5d9a30"},"vehicle_type_id":"4","last_reported":1739416400,"current_range_meters":38800,"station_id":"ce4bgkh2rcd13ifvqbl0","pricing_plan_id":"cebpf4jnsgd1na2vs0mg"},{"bike_id":"6bd4f803-1f3e-4190-90ca-5126bf5f811a","system_id":"levelo_inurba_marseille","lat":43.30429,"lon":5.38879,"is_reserved":false,"is_disabled":false,"rental_uris":{"android":"levelo://app?vid=6bd4f803-1f3e-4190-90ca-5126bf5f811a","ios":"levelo://app?vid=6bd4f803-1f3e-4190-90ca-5126bf5f811a"},"vehicle_type_id":"4","last_reported":1739416400,"current_range_meters":25600,"station_id":"ce4bgk12rcd13ifvqbi0","pricing_plan_id":"cebpf4jnsgd1na2vs0mg"},{"bike_id":"7aa515be-8be7-442e-86a0-73cbbced111f","system_id":"levelo_inurba_marseille","lat":43.29446,"lon":5.3974,"is_reserved":false,"is_disabled":false,"rental_uris":{"android":"levelo://app?vid=7aa515be-8be7-442e-86a0-73cbbced111f","ios":"levelo://app?vid=7aa515be-8be7-442e-86a0-73cbbced111f"},"vehicle_type_id":"4","last_reported":1739416400,"current_range_meters":38800,"station_id":"ce4bh3h2rcd13ifvqdo0","pricing_plan_id":"cebpf4jnsgd1na2vs0mg"},{"bike_id":"2086d930-70f1-451b-b9d5-af7dbdc6b4a2","system_id":"levelo_inurba_marseille","lat":43.273227,"lon":5.390655,"is_reserved":false,"is_disabled":false,"rental_uris":{"android":"levelo://app?vid=2086d930-70f1-451b-b9d5-af7dbdc6b4a2","ios":"levelo://app?vid=2086d930-70f1-451b-b9d5-af7dbdc6b4a2"},"vehicle_type_id":"4","last_reported":1739416400,"current_range_meters":25200,"station_id":"ce4bhgp2rcd13ifvqfe0","pricing_plan_id":"cebpf4jnsgd1na2vs0mg"},{"bike_id":"bc0ff9a9-308e-46fc-b95f-d1b75b502cb5","system_id":"levelo_inurba_marseille","lat":43.24702,"lon":5.38151,"is_reserved":false,"is_disabled":false,"rental_uris":{"android":"levelo://app?vid=bc0ff9a9-308e-46fc-b95f-d1b75b502cb5","ios":"levelo://app?vid=bc0ff9a9-308e-46fc-b95f-d1b75b502cb5"},"vehicle_type_id":"4","last_reported":1739416400,"current_range_meters":28400,"station_id":"ce4bhih2rcd13ifvqfr0","pricing_plan_id":"cebpf4jnsgd1na2vs0mg"},{"bike_id":"31f90b97-4de2-4aec-84ff-0a8305902b31","system_id":"levelo_inurba_marseille","lat":43.28734,"lon":5.36082,"is_reserved":false,"is_disabled":false,"rental_uris":{"android":"levelo://app?vid=31f90b97-4de2-4aec-84ff-0a8305902b31","ios":"levelo://app?vid=31f90b97-4de2-4aec-84ff-0a8305902b31"},"vehicle_type_id":"4","last_reported":1739416400,"current_range_meters":36800,"station_id":"cki0cbj6b192h4jlfktg","pricing_plan_id":"cebpf4jnsgd1na2vs0mg"},{"bike_id":"de77abfa-6f74-40e9-8131-b7884eda37eb","system_id":"levelo_inurba_marseille","lat":43.29905,"lon":5.39397,"is_reserved":false,"is_disabled":false,"rental_uris":{"android":"levelo://app?vid=de77abfa-6f74-40e9-8131-b7884eda37eb","ios":"levelo://app?vid=de77abfa-6f74-40e9-8131-b7884eda37eb"},"vehicle_type_id":"4","last_reported":1739416400,"current_range_meters":24000,"station_id":"","pricing_plan_id":"cebpf4jnsgd1na2vs0mg"},{"bike_id":"20647b06-82a2-4cc3-966a-8ee4ecd4082a","system_id":"levelo_inurba_marseille","lat":43.29012,"lon":5.35602,"is_reserved":false,"is_disabled":false,"rental_uris":{"android":"levelo://app?vid=20647b06-82a2-4cc3-966a-8ee4ecd4082a","ios":"levelo://app?vid=20647b06-82a2-4cc3-966a-8ee4ecd4082a"},"vehicle_type_id":"4","last_reported":1739416400,"current_range_meters":38000,"station_id":"ce4bhb92rcd13ifvqen0","pricing_plan_id":"cebpf4jnsgd1na2vs0mg"},{"bike_id":"feec7be1-582c-4c37-9de0-5e113c8741a3","system_id":"levelo_inurba_marseille","lat":43.30347,"lon":5.40425,"is_reserved":false,"is_disabled":false,"rental_uris":{"android":"levelo://app?vid=feec7be1-582c-4c37-9de0-5e113c8741a3","ios":"levelo://app?vid=feec7be1-582c-4c37-9de0-5e113c8741a3"},"vehicle_type_id":"4","last_reported":1739416400,"current_range_meters":38000,"station_id":"ce4bh012rcd13ifvqd10","pricing_plan_id":"cebpf4jnsgd1na2vs0mg"},{"bike_id":"ee079ffa-4416-4a91-bc98-3bd665acea3b","system_id":"levelo_inurba_marseille","lat":43.33731,"lon":5.39186,"is_reserved":false,"is_disabled":false,"rental_uris":{"android":"levelo://app?vid=ee079ffa-4416-4a91-bc98-3bd665acea3b","ios":"levelo://app?vid=ee079ffa-4416-4a91-bc98-3bd665acea3b"},"vehicle_type_id":"4","last_reported":1739416400,"current_range_meters":38400,"station_id":"ce4bhr92rcd13ifvqhsg","pricing_plan_id":"cebpf4jnsgd1na2vs0mg"},{"bike_id":"1fa82dc6-47d4-4356-bbca-393bf4461726","system_id":"levelo_inurba_marseille","lat":43.23962,"lon":5.36623,"is_reserved":false,"is_disabled":false,"rental_uris":{"android":"levelo://app?vid=1fa82dc6-47d4-4356-bbca-393bf4461726","ios":"levelo://app?vid=1fa82dc6-47d4-4356-bbca-393bf4461726"},"vehicle_type_id":"4","last_reported":1739416400,"current_range_meters":10000,"station_id":"ce4bhi12rcd13ifvqfp0","pricing_plan_id":"cebpf4jnsgd1na2vs0mg"},{"bike_id":"2355c6e5-09c3-4950-a7a8-dbebf456e6b5","system_id":"levelo_inurba_marseille","lat":43.30799,"lon":5.36641,"is_reserved":false,"is_disabled":false,"rental_uris":{"android":"levelo://app?vid=2355c6e5-09c3-4950-a7a8-dbebf456e6b5","ios":"levelo://app?vid=2355c6e5-09c3-4950-a7a8-dbebf456e6b5"},"vehicle_type_id":"4","last_reported":1739416400,"current_range_meters":24400,"station_id":"","pricing_plan_id":"cebpf4jnsgd1na2vs0mg"},{"bike_id":"0c236953-fa85-4107-b794-04c5d553375e","system_id":"levelo_inurba_marseille","lat":43.24812,"lon":5.37453,"is_reserved":false,"is_disabled":false,"rental_uris":{"android":"levelo://app?vid=0c236953-fa85-4107-b794-04c5d553375e","ios":"levelo://app?vid=0c236953-fa85-4107-b794-04c5d553375e"},"vehicle_type_id":"4","last_reported":1739416400,"current_range_meters":16400,"station_id":"ce4bhgh2rcd13ifvqfb0","pricing_plan_id":"cebpf4jnsgd1na2vs0mg"},{"bike_id":"7d9757c0-933f-48d2-9445-c4b04ae0089a","system_id":"levelo_inurba_marseille","lat":43.304415,"lon":5.389059,"is_reserved":false,"is_disabled":false,"rental_uris":{"android":"levelo://app?vid=7d9757c0-933f-48d2-9445-c4b04ae0089a","ios":"levelo://app?vid=7d9757c0-933f-48d2-9445-c4b04ae0089a"},"vehicle_type_id":"4","last_reported":1739416400,"current_range_meters":38800,"station_id":"ce4bgk12rcd13ifvqbi0","pricing_plan_id":"cebpf4jnsgd1na2vs0mg"},{"bike_id":"73204b29-ec32-4146-8fea-bcca13682a2a","system_id":"levelo_inurba_marseille","lat":43.2481,"lon":5.37453,"is_reserved":false,"is_disabled":false,"rental_uris":{"android":"levelo://app?vid=73204b29-ec32-4146-8fea-bcca13682a2a","ios":"levelo://app?vid=73204b29-ec32-4146-8fea-bcca13682a2a"},"vehicle_type_id":"4","last_reported":1739416400,"current_range_meters":24000,"station_id":"ce4bhgh2rcd13ifvqfb0","pricing_plan_id":"cebpf4jnsgd1na2vs0mg"},{"bike_id":"3adb6699-f719-4456-92ab-1968693e97fb","system_id":"levelo_inurba_marseille","lat":43.2416,"lon":5.36395,"is_reserved":false,"is_disabled":false,"rental_uris":{"android":"levelo://app?vid=3adb6699-f719-4456-92ab-1968693e97fb","ios":"levelo://app?vid=3adb6699-f719-4456-92ab-1968693e97fb"},"vehicle_type_id":"4","last_reported":1739416400,"current_range_meters":24800,"station_id":"cpo36qri1sfpv3e86is0","pricing_plan_id":"cebpf4jnsgd1na2vs0mg"},{"bike_id":"04e82eae-1243-4f87-97ae-c2b403027eb5","system_id":"levelo_inurba_marseille","lat":43.28166,"lon":5.42655,"is_reserved":false,"is_disabled":true,"rental_uris":{"android":"levelo://app?vid=04e82eae-1243-4f87-97ae-c2b403027eb5","ios":"levelo://app?vid=04e82eae-1243-4f87-97ae-c2b403027eb5"},"vehicle_type_id":"4","last_reported":1739416400,"current_range_meters":0,"station_id":"ce4bhnh2rcd13ifvqgug","pricing_plan_id":"cebpf4jnsgd1na2vs0mg"},{"bike_id":"476efa06-ff76-4710-9c45-8a07585e8d77","system_id":"levelo_inurba_marseille","lat":43.29552,"lon":5.42284,"is_reserved":false,"is_disabled":true,"rental_uris":{"android":"levelo://app?vid=476efa06-ff76-4710-9c45-8a07585e8d77","ios":"levelo://app?vid=476efa06-ff76-4710-9c45-8a07585e8d77"},"vehicle_type_id":"4","last_reported":1739416400,"current_range_meters":26800,"station_id":"ce4bhph2rcd13ifvqhdg","pricing_plan_id":"cebpf4jnsgd1na2vs0mg"},{"bike_id":"f4e27078-58c7-45ad-b824-62c248250bd4","system_id":"levelo_inurba_marseille","lat":43.299373,"lon":5.365369,"is_reserved":false,"is_disabled":false,"rental_uris":{"android":"levelo://app?vid=f4e27078-58c7-45ad-b824-62c248250bd4","ios":"levelo://app?vid=f4e27078-58c7-45ad-b824-62c248250bd4"},"vehicle_type_id":"4","last_reported":1739416400,"current_range_meters":34000,"station_id":"ce4bgm92rcd13ifvqbr0","pricing_plan_id":"cebpf4jnsgd1na2vs0mg"},{"bike_id":"a43b8534-1f7d-4016-b81a-d6ab195d0275","system_id":"levelo_inurba_marseille","lat":43.28412,"lon":5.37516,"is_reserved":false,"is_disabled":false,"rental_uris":{"android":"levelo://app?vid=a43b8534-1f7d-4016-b81a-d6ab195d0275","ios":"levelo://app?vid=a43b8534-1f7d-4016-b81a-d6ab195d0275"},"vehicle_type_id":"4","last_reported":1739416400,"current_range_meters":25600,"station_id":"ce4bh412rcd13ifvqds0","pricing_plan_id":"cebpf4jnsgd1na2vs0mg"},{"bike_id":"41fce667-761b-4607-94ca-d49d64c0bdaa","system_id":"levelo_inurba_marseille","lat":43.28005,"lon":5.40013,"is_reserved":false,"is_disabled":false,"rental_uris":{"android":"levelo://app?vid=41fce667-761b-4607-94ca-d49d64c0bdaa","ios":"levelo://app?vid=41fce667-761b-4607-94ca-d49d64c0bdaa"},"vehicle_type_id":"4","last_reported":1739416400,"current_range_meters":24400,"station_id":"ce4bho92rcd13ifvqh4g","pricing_plan_id":"cebpf4jnsgd1na2vs0mg"},{"bike_id":"c9b96d2c-c7dd-495d-82e8-da1c9e8afb24","system_id":"levelo_inurba_marseille","lat":43.28029,"lon":5.36943,"is_reserved":false,"is_disabled":false,"rental_uris":{"android":"levelo://app?vid=c9b96d2c-c7dd-495d-82e8-da1c9e8afb24","ios":"levelo://app?vid=c9b96d2c-c7dd-495d-82e8-da1c9e8afb24"},"vehicle_type_id":"4","last_reported":1739416400,"current_range_meters":21600,"station_id":"ce4bha12rcd13ifvqef0","pricing_plan_id":"cebpf4jnsgd1na2vs0mg"},{"bike_id":"7f235817-6ec4-48bb-a2d9-29e50766056b","system_id":"levelo_inurba_marseille","lat":43.311693,"lon":5.387151,"is_reserved":false,"is_disabled":false,"rental_uris":{"android":"levelo://app?vid=7f235817-6ec4-48bb-a2d9-29e50766056b","ios":"levelo://app?vid=7f235817-6ec4-48bb-a2d9-29e50766056b"},"vehicle_type_id":"4","last_reported":1739416400,"current_range_meters":37600,"station_id":"ce4bgv12rcd13ifvqcp0","pricing_plan_id":"cebpf4jnsgd1na2vs0mg"},{"bike_id":"d674d394-04ab-4838-a267-bcdd8affd803","system_id":"levelo_inurba_marseille","lat":43.30816,"lon":5.43514,"is_reserved":false,"is_disabled":false,"rental_uris":{"android":"levelo://app?vid=d674d394-04ab-4838-a267-bcdd8affd803","ios":"levelo://app?vid=d674d394-04ab-4838-a267-bcdd8affd803"},"vehicle_type_id":"4","last_reported":1739416400,"current_range_meters":38800,"station_id":"ce4bhph2rcd13ifvqheg","pricing_plan_id":"cebpf4jnsgd1na2vs0mg"},{"bike_id":"913e0512-8d5e-417e-a1c8-28b2a58a5297","system_id":"levelo_inurba_marseille","lat":43.30459,"lon":5.37902,"is_reserved":false,"is_disabled":false,"rental_uris":{"android":"levelo://app?vid=913e0512-8d5e-417e-a1c8-28b2a58a5297","ios":"levelo://app?vid=913e0512-8d5e-417e-a1c8-28b2a58a5297"},"vehicle_type_id":"4","last_reported":1739416400,"current_range_meters":33200,"station_id":"ce4bgup2rcd13ifvqcn0","pricing_plan_id":"cebpf4jnsgd1na2vs0mg"},{"bike_id":"032d1edd-812d-4276-bb8f-bf1b6a339fcf","system_id":"levelo_inurba_marseille","lat":43.231929,"lon":5.355564,"is_reserved":false,"is_disabled":false,"rental_uris":{"android":"levelo://app?vid=032d1edd-812d-4276-bb8f-bf1b6a339fcf","ios":"levelo://app?vid=032d1edd-812d-4276-bb8f-bf1b6a339fcf"},"vehicle_type_id":"4","last_reported":1739416400,"current_range_meters":13600,"station_id":"ce4bhu92rcd13ifvqi70","pricing_plan_id":"cebpf4jnsgd1na2vs0mg"},{"bike_id":"612f6c11-0877-4a24-86da-31e6e855eb2d","system_id":"levelo_inurba_marseille","lat":43.288484,"lon":5.358425,"is_reserved":false,"is_disabled":false,"rental_uris":{"android":"levelo://app?vid=612f6c11-0877-4a24-86da-31e6e855eb2d","ios":"levelo://app?vid=612f6c11-0877-4a24-86da-31e6e855eb2d"},"vehicle_type_id":"4","last_reported":1739416400,"current_range_meters":34000,"station_id":"ce4bhb12rcd13ifvqem0","pricing_plan_id":"cebpf4jnsgd1na2vs0mg"},{"bike_id":"7140356e-acc1-4683-9f7a-ba5330d14dc0","system_id":"levelo_inurba_marseille","lat":43.30546,"lon":5.36512,"is_reserved":false,"is_disabled":true,"rental_uris":{"android":"levelo://app?vid=7140356e-acc1-4683-9f7a-ba5330d14dc0","ios":"levelo://app?vid=7140356e-acc1-4683-9f7a-ba5330d14dc0"},"vehicle_type_id":"4","last_reported":1739416400,"current_range_meters":30400,"station_id":"ce4bgs12rcd13ifvqcag","pricing_plan_id":"cebpf4jnsgd1na2vs0mg"},{"bike_id":"c07ffd3b-1b45-4f4f-af96-2b31373f9d65","system_id":"levelo_inurba_marseille","lat":43.241635,"lon":5.364081,"is_reserved":false,"is_disabled":false,"rental_uris":{"android":"levelo://app?vid=c07ffd3b-1b45-4f4f-af96-2b31373f9d65","ios":"levelo://app?vid=c07ffd3b-1b45-4f4f-af96-2b31373f9d65"},"vehicle_type_id":"4","last_reported":1739416400,"current_range_meters":25600,"station_id":"cpo36qri1sfpv3e86is0","pricing_plan_id":"cebpf4jnsgd1na2vs0mg"},{"bike_id":"76ed4e97-7fa9-4836-bcd3-e52753ef31b4","system_id":"levelo_inurba_marseille","lat":43.29859,"lon":5.36266,"is_reserved":false,"is_disabled":false,"rental_uris":{"android":"levelo://app?vid=76ed4e97-7fa9-4836-bcd3-e52753ef31b4","ios":"levelo://app?vid=76ed4e97-7fa9-4836-bcd3-e52753ef31b4"},"vehicle_type_id":"4","last_reported":1739416400,"current_range_meters":38400,"station_id":"ce4bgpp2rcd13ifvqc3g","pricing_plan_id":"cebpf4jnsgd1na2vs0mg"},{"bike_id":"08a86ebb-b290-4f14-9520-6a5a716f26bd","system_id":"levelo_inurba_marseille","lat":43.23969,"lon":5.36621,"is_reserved":false,"is_disabled":false,"rental_uris":{"android":"levelo://app?vid=08a86ebb-b290-4f14-9520-6a5a716f26bd","ios":"levelo://app?vid=08a86ebb-b290-4f14-9520-6a5a716f26bd"},"vehicle_type_id":"4","last_reported":1739416400,"current_range_meters":6400,"station_id":"ce4bhi12rcd13ifvqfp0","pricing_plan_id":"cebpf4jnsgd1na2vs0mg"},{"bike_id":"60a53aa1-c3fc-4d44-9250-2f1552d66749","system_id":"levelo_inurba_marseille","lat":43.30463,"lon":5.37914,"is_reserved":false,"is_disabled":false,"rental_uris":{"android":"levelo://app?vid=60a53aa1-c3fc-4d44-9250-2f1552d66749","ios":"levelo://app?vid=60a53aa1-c3fc-4d44-9250-2f1552d66749"},"vehicle_type_id":"4","last_reported":1739416400,"current_range_meters":37600,"station_id":"ce4bgup2rcd13ifvqcn0","pricing_plan_id":"cebpf4jnsgd1na2vs0mg"},{"bike_id":"d32849cf-4c14-4032-9063-172d06d3f04f","system_id":"levelo_inurba_marseille","lat":43.231942,"lon":5.355523,"is_reserved":false,"is_disabled":false,"rental_uris":{"android":"levelo://app?vid=d32849cf-4c14-4032-9063-172d06d3f04f","ios":"levelo://app?vid=d32849cf-4c14-4032-9063-172d06d3f04f"},"vehicle_type_id":"4","last_reported":1739416400,"current_range_meters":28800,"station_id":"ce4bhu92rcd13ifvqi70","pricing_plan_id":"cebpf4jnsgd1na2vs0mg"},{"bike_id":"2ff86c0c-69fd-4294-8842-114f3593748f","system_id":"levelo_inurba_marseille","lat":43.31348,"lon":5.36733,"is_reserved":false,"is_disabled":false,"rental_uris":{"android":"levelo://app?vid=2ff86c0c-69fd-4294-8842-114f3593748f","ios":"levelo://app?vid=2ff86c0c-69fd-4294-8842-114f3593748f"},"vehicle_type_id":"4","last_reported":1739416400,"current_range_meters":34000,"station_id":"ce4bgr92rcd13ifvqc6g","pricing_plan_id":"cebpf4jnsgd1na2vs0mg"},{"bike_id":"77e60b2f-ce6b-4aae-a0a0-d5666429a96e","system_id":"levelo_inurba_marseille","lat":43.2905,"lon":5.37152,"is_reserved":false,"is_disabled":true,"rental_uris":{"android":"levelo://app?vid=77e60b2f-ce6b-4aae-a0a0-d5666429a96e","ios":"levelo://app?vid=77e60b2f-ce6b-4aae-a0a0-d5666429a96e"},"vehicle_type_id":"4","last_reported":1739416400,"current_range_meters":22400,"station_id":"ce4bh5p2rcd13ifvqe4g","pricing_plan_id":"cebpf4jnsgd1na2vs0mg"},{"bike_id":"f629f9c4-3906-4076-adcd-446a52afc195","system_id":"levelo_inurba_marseille","lat":43.32107,"lon":5.367788,"is_reserved":false,"is_disabled":false,"rental_uris":{"android":"levelo://app?vid=f629f9c4-3906-4076-adcd-446a52afc195","ios":"levelo://app?vid=f629f9c4-3906-4076-adcd-446a52afc195"},"vehicle_type_id":"4","last_reported":1739416400,"current_range_meters":38800,"station_id":"ce4bhrh2rcd13ifvqhug","pricing_plan_id":"cebpf4jnsgd1na2vs0mg"},{"bike_id":"89b847eb-8b72-48a7-8017-2936b33a5c9b","system_id":"levelo_inurba_marseille","lat":43.27824,"lon":5.40728,"is_reserved":false,"is_disabled":false,"rental_uris":{"android":"levelo://app?vid=89b847eb-8b72-48a7-8017-2936b33a5c9b","ios":"levelo://app?vid=89b847eb-8b72-48a7-8017-2936b33a5c9b"},"vehicle_type_id":"4","last_reported":1739416400,"current_range_meters":22000,"station_id":"ce4bhnh2rcd13ifvqgtg","pricing_plan_id":"cebpf4jnsgd1na2vs0mg"},{"bike_id":"829dfc32-0a2d-4e22-85bc-281e51118898","system_id":"levelo_inurba_marseille","lat":43.32994,"lon":5.39042,"is_reserved":false,"is_disabled":false,"rental_uris":{"android":"levelo://app?vid=829dfc32-0a2d-4e22-85bc-281e51118898","ios":"levelo://app?vid=829dfc32-0a2d-4e22-85bc-281e51118898"},"vehicle_type_id":"4","last_reported":1739416400,"current_range_meters":37600,"station_id":"ce4bhr92rcd13ifvqhrg","pricing_plan_id":"cebpf4jnsgd1na2vs0mg"},{"bike_id":"0720224f-bce1-4028-8166-c7cf581646dc","system_id":"levelo_inurba_marseille","lat":43.313616,"lon":5.384951,"is_reserved":false,"is_disabled":false,"rental_uris":{"android":"levelo://app?vid=0720224f-bce1-4028-8166-c7cf581646dc","ios":"levelo://app?vid=0720224f-bce1-4028-8166-c7cf581646dc"},"vehicle_type_id":"4","last_reported":1739416400,"current_range_meters":38400,"station_id":"ce4bgt92rcd13ifvqcf0","pricing_plan_id":"cebpf4jnsgd1na2vs0mg"},{"bike_id":"280a6051-95ab-4183-8c70-acd1a1df3fe5","system_id":"levelo_inurba_marseille","lat":43.24404,"lon":5.37061,"is_reserved":false,"is_disabled":false,"rental_uris":{"android":"levelo://app?vid=280a6051-95ab-4183-8c70-acd1a1df3fe5","ios":"levelo://app?vid=280a6051-95ab-4183-8c70-acd1a1df3fe5"},"vehicle_type_id":"4","last_reported":1739416400,"current_range_meters":37600,"station_id":"ce4bhhh2rcd13ifvqfk0","pricing_plan_id":"cebpf4jnsgd1na2vs0mg"},{"bike_id":"24d2a29b-fa24-4c85-a726-541b11d56bc0","system_id":"levelo_inurba_marseille","lat":43.31367,"lon":5.36712,"is_reserved":false,"is_disabled":false,"rental_uris":{"android":"levelo://app?vid=24d2a29b-fa24-4c85-a726-541b11d56bc0","ios":"levelo://app?vid=24d2a29b-fa24-4c85-a726-541b11d56bc0"},"vehicle_type_id":"4","last_reported":1739416400,"current_range_meters":38800,"station_id":"ce4bgr92rcd13ifvqc6g","pricing_plan_id":"cebpf4jnsgd1na2vs0mg"},{"bike_id":"a2f9b997-eedd-4c0f-bea6-8a149bad7884","system_id":"levelo_inurba_marseille","lat":43.28325,"lon":5.38107,"is_reserved":false,"is_disabled":false,"rental_uris":{"android":"levelo://app?vid=a2f9b997-eedd-4c0f-bea6-8a149bad7884","ios":"levelo://app?vid=a2f9b997-eedd-4c0f-bea6-8a149bad7884"},"vehicle_type_id":"4","last_reported":1739416400,"current_range_meters":37600,"station_id":"ce4bh412rcd13ifvqdr0","pricing_plan_id":"cebpf4jnsgd1na2vs0mg"},{"bike_id":"7aedee12-1549-453d-ac51-f3f4b677e0ec","system_id":"levelo_inurba_marseille","lat":43.32272,"lon":5.38226,"is_reserved":false,"is_disabled":false,"rental_uris":{"android":"levelo://app?vid=7aedee12-1549-453d-ac51-f3f4b677e0ec","ios":"levelo://app?vid=7aedee12-1549-453d-ac51-f3f4b677e0ec"},"vehicle_type_id":"4","last_reported":1739416400,"current_range_meters":33200,"station_id":"ce4bhr12rcd13ifvqhqg","pricing_plan_id":"cebpf4jnsgd1na2vs0mg"},{"bike_id":"1df2f929-54d9-4900-80f3-6e104df2b726","system_id":"levelo_inurba_marseille","lat":43.29768,"lon":5.39363,"is_reserved":false,"is_disabled":false,"rental_uris":{"android":"levelo://app?vid=1df2f929-54d9-4900-80f3-6e104df2b726","ios":"levelo://app?vid=1df2f929-54d9-4900-80f3-6e104df2b726"},"vehicle_type_id":"4","last_reported":1739416400,"current_range_meters":36800,"station_id":"chh1huq6cuj3fo74tm60","pricing_plan_id":"cebpf4jnsgd1na2vs0mg"},{"bike_id":"14b2070b-6ddc-42e3-b1e8-9c0cbc081f72","system_id":"levelo_inurba_marseille","lat":43.33715,"lon":5.39184,"is_reserved":false,"is_disabled":false,"rental_uris":{"android":"levelo://app?vid=14b2070b-6ddc-42e3-b1e8-9c0cbc081f72","ios":"levelo://app?vid=14b2070b-6ddc-42e3-b1e8-9c0cbc081f72"},"vehicle_type_id":"4","last_reported":1739416400,"current_range_meters":39200,"station_id":"ce4bhr92rcd13ifvqhsg","pricing_plan_id":"cebpf4jnsgd1na2vs0mg"},{"bike_id":"f54959e9-af99-48a6-964a-33208f144f76","system_id":"levelo_inurba_marseille","lat":43.26497,"lon":5.3954,"is_reserved":false,"is_disabled":false,"rental_uris":{"android":"levelo://app?vid=f54959e9-af99-48a6-964a-33208f144f76","ios":"levelo://app?vid=f54959e9-af99-48a6-964a-33208f144f76"},"vehicle_type_id":"4","last_reported":1739416400,"current_range_meters":38000,"station_id":"ce4bhi12rcd13ifvqfq0","pricing_plan_id":"cebpf4jnsgd1na2vs0mg"},{"bike_id":"1c3c5356-feb2-4139-a8f5-3ebd188579ce","system_id":"levelo_inurba_marseille","lat":43.303244,"lon":5.40446,"is_reserved":false,"is_disabled":false,"rental_uris":{"android":"levelo://app?vid=1c3c5356-feb2-4139-a8f5-3ebd188579ce","ios":"levelo://app?vid=1c3c5356-feb2-4139-a8f5-3ebd188579ce"},"vehicle_type_id":"4","last_reported":1739416400,"current_range_meters":37600,"station_id":"ce4bh012rcd13ifvqd10","pricing_plan_id":"cebpf4jnsgd1na2vs0mg"},{"bike_id":"90069231-8d02-46fd-ba3f-d8e7e83900ee","system_id":"levelo_inurba_marseille","lat":43.28844,"lon":5.43804,"is_reserved":false,"is_disabled":true,"rental_uris":{"android":"levelo://app?vid=90069231-8d02-46fd-ba3f-d8e7e83900ee","ios":"levelo://app?vid=90069231-8d02-46fd-ba3f-d8e7e83900ee"},"vehicle_type_id":"4","last_reported":1739416400,"current_range_meters":0,"station_id":"","pricing_plan_id":"cebpf4jnsgd1na2vs0mg"},{"bike_id":"1d8c702f-66fc-4c2c-aeb8-5511cfc219f7","system_id":"levelo_inurba_marseille","lat":43.292589,"lon":5.40903,"is_reserved":false,"is_disabled":false,"rental_uris":{"android":"levelo://app?vid=1d8c702f-66fc-4c2c-aeb8-5511cfc219f7","ios":"levelo://app?vid=1d8c702f-66fc-4c2c-aeb8-5511cfc219f7"},"vehicle_type_id":"4","last_reported":1739416400,"current_range_meters":8800,"station_id":"ce4bh192rcd13ifvqdc0","pricing_plan_id":"cebpf4jnsgd1na2vs0mg"},{"bike_id":"02d4d811-6e8e-4705-b31c-397c1d3dc54e","system_id":"levelo_inurba_marseille","lat":43.27104,"lon":5.42259,"is_reserved":false,"is_disabled":false,"rental_uris":{"android":"levelo://app?vid=02d4d811-6e8e-4705-b31c-397c1d3dc54e","ios":"levelo://app?vid=02d4d811-6e8e-4705-b31c-397c1d3dc54e"},"vehicle_type_id":"4","last_reported":1739416400,"current_range_meters":38000,"station_id":"ce4bhk92rcd13ifvqgb0","pricing_plan_id":"cebpf4jnsgd1na2vs0mg"},{"bike_id":"2dfdea24-56fa-4a81-9f58-476b82c852cc","system_id":"levelo_inurba_marseille","lat":43.31116,"lon":5.37759,"is_reserved":false,"is_disabled":false,"rental_uris":{"android":"levelo://app?vid=2dfdea24-56fa-4a81-9f58-476b82c852cc","ios":"levelo://app?vid=2dfdea24-56fa-4a81-9f58-476b82c852cc"},"vehicle_type_id":"4","last_reported":1739416400,"current_range_meters":21600,"station_id":"ce4bgt92rcd13ifvqcg0","pricing_plan_id":"cebpf4jnsgd1na2vs0mg"},{"bike_id":"7f3d4923-dfe9-4502-b696-54c6ec6c6459","system_id":"levelo_inurba_marseille","lat":43.279018,"lon":5.379978,"is_reserved":false,"is_disabled":false,"rental_uris":{"android":"levelo://app?vid=7f3d4923-dfe9-4502-b696-54c6ec6c6459","ios":"levelo://app?vid=7f3d4923-dfe9-4502-b696-54c6ec6c6459"},"vehicle_type_id":"4","last_reported":1739416400,"current_range_meters":38800,"station_id":"ce4bhf92rcd13ifvqf50","pricing_plan_id":"cebpf4jnsgd1na2vs0mg"},{"bike_id":"00053a72-9207-4b4c-b59b-20606453610f","system_id":"levelo_inurba_marseille","lat":43.32462,"lon":5.36541,"is_reserved":false,"is_disabled":false,"rental_uris":{"android":"levelo://app?vid=00053a72-9207-4b4c-b59b-20606453610f","ios":"levelo://app?vid=00053a72-9207-4b4c-b59b-20606453610f"},"vehicle_type_id":"4","last_reported":1739416400,"current_range_meters":33200,"station_id":"ce4bhs12rcd13ifvqhvg","pricing_plan_id":"cebpf4jnsgd1na2vs0mg"},{"bike_id":"8ff427a1-606b-4198-a2f7-57265a0c505e","system_id":"levelo_inurba_marseille","lat":43.27575,"lon":5.3841,"is_reserved":false,"is_disabled":false,"rental_uris":{"android":"levelo://app?vid=8ff427a1-606b-4198-a2f7-57265a0c505e","ios":"levelo://app?vid=8ff427a1-606b-4198-a2f7-57265a0c505e"},"vehicle_type_id":"4","last_reported":1739416400,"current_range_meters":38800,"station_id":"ce4bhh92rcd13ifvqfi0","pricing_plan_id":"cebpf4jnsgd1na2vs0mg"},{"bike_id":"acd088e7-dc82-4cb8-8e19-47754c61567c","system_id":"levelo_inurba_marseille","lat":43.31354,"lon":5.36703,"is_reserved":false,"is_disabled":false,"rental_uris":{"android":"levelo://app?vid=acd088e7-dc82-4cb8-8e19-47754c61567c","ios":"levelo://app?vid=acd088e7-dc82-4cb8-8e19-47754c61567c"},"vehicle_type_id":"4","last_reported":1739416400,"current_range_meters":31200,"station_id":"ce4bgr92rcd13ifvqc6g","pricing_plan_id":"cebpf4jnsgd1na2vs0mg"},{"bike_id":"c829289f-b01a-4105-8680-3c8722f02eb6","system_id":"levelo_inurba_marseille","lat":43.29897,"lon":5.37512,"is_reserved":false,"is_disabled":false,"rental_uris":{"android":"levelo://app?vid=c829289f-b01a-4105-8680-3c8722f02eb6","ios":"levelo://app?vid=c829289f-b01a-4105-8680-3c8722f02eb6"},"vehicle_type_id":"4","last_reported":1739416400,"current_range_meters":38800,"station_id":"ce4bgjh2rcd13ifvqbg0","pricing_plan_id":"cebpf4jnsgd1na2vs0mg"},{"bike_id":"3cf23bae-3059-47fc-afd9-a77520d4d04a","system_id":"levelo_inurba_marseille","lat":43.31419,"lon":5.39381,"is_reserved":false,"is_disabled":false,"rental_uris":{"android":"levelo://app?vid=3cf23bae-3059-47fc-afd9-a77520d4d04a","ios":"levelo://app?vid=3cf23bae-3059-47fc-afd9-a77520d4d04a"},"vehicle_type_id":"4","last_reported":1739416400,"current_range_meters":3600,"station_id":"","pricing_plan_id":"cebpf4jnsgd1na2vs0mg"},{"bike_id":"40bf5f30-6fc3-4b92-a250-6bccfeae3212","system_id":"levelo_inurba_marseille","lat":43.3112,"lon":5.37766,"is_reserved":false,"is_disabled":false,"rental_uris":{"android":"levelo://app?vid=40bf5f30-6fc3-4b92-a250-6bccfeae3212","ios":"levelo://app?vid=40bf5f30-6fc3-4b92-a250-6bccfeae3212"},"vehicle_type_id":"4","last_reported":1739416400,"current_range_meters":38800,"station_id":"ce4bgt92rcd13ifvqcg0","pricing_plan_id":"cebpf4jnsgd1na2vs0mg"},{"bike_id":"70617585-289d-477e-b3bd-01213e273ed0","system_id":"levelo_inurba_marseille","lat":43.24812,"lon":5.37456,"is_reserved":false,"is_disabled":false,"rental_uris":{"android":"levelo://app?vid=70617585-289d-477e-b3bd-01213e273ed0","ios":"levelo://app?vid=70617585-289d-477e-b3bd-01213e273ed0"},"vehicle_type_id":"4","last_reported":1739416400,"current_range_meters":38400,"station_id":"ce4bhgh2rcd13ifvqfb0","pricing_plan_id":"cebpf4jnsgd1na2vs0mg"},{"bike_id":"7b35ec91-75d0-476a-8303-ae83c6d3cb50","system_id":"levelo_inurba_marseille","lat":43.24809,"lon":5.37455,"is_reserved":false,"is_disabled":false,"rental_uris":{"android":"levelo://app?vid=7b35ec91-75d0-476a-8303-ae83c6d3cb50","ios":"levelo://app?vid=7b35ec91-75d0-476a-8303-ae83c6d3cb50"},"vehicle_type_id":"4","last_reported":1739416400,"current_range_meters":5600,"station_id":"ce4bhgh2rcd13ifvqfb0","pricing_plan_id":"cebpf4jnsgd1na2vs0mg"},{"bike_id":"94a1fe7e-a459-4400-9162-bfbba846c26a","system_id":"levelo_inurba_marseille","lat":43.271868,"lon":5.409825,"is_reserved":false,"is_disabled":false,"rental_uris":{"android":"levelo://app?vid=94a1fe7e-a459-4400-9162-bfbba846c26a","ios":"levelo://app?vid=94a1fe7e-a459-4400-9162-bfbba846c26a"},"vehicle_type_id":"4","last_reported":1739416400,"current_range_meters":38800,"station_id":"ce4bhl12rcd13ifvqgf0","pricing_plan_id":"cebpf4jnsgd1na2vs0mg"},{"bike_id":"f79dfbe4-4eb6-47b7-a82e-4ab6b90b5740","system_id":"levelo_inurba_marseille","lat":43.308826,"lon":5.396425,"is_reserved":false,"is_disabled":false,"rental_uris":{"android":"levelo://app?vid=f79dfbe4-4eb6-47b7-a82e-4ab6b90b5740","ios":"levelo://app?vid=f79dfbe4-4eb6-47b7-a82e-4ab6b90b5740"},"vehicle_type_id":"4","last_reported":1739416400,"current_range_meters":38800,"station_id":"ce4bh012rcd13ifvqcv0","pricing_plan_id":"cebpf4jnsgd1na2vs0mg"},{"bike_id":"0bb74977-bdfe-4159-ba67-be7e22ae2761","system_id":"levelo_inurba_marseille","lat":43.29513,"lon":5.38121,"is_reserved":false,"is_disabled":true,"rental_uris":{"android":"levelo://app?vid=0bb74977-bdfe-4159-ba67-be7e22ae2761","ios":"levelo://app?vid=0bb74977-bdfe-4159-ba67-be7e22ae2761"},"vehicle_type_id":"4","last_reported":1739416400,"current_range_meters":38000,"station_id":"","pricing_plan_id":"cebpf4jnsgd1na2vs0mg"},{"bike_id":"ea8553d4-a05f-4ab5-aec1-a299bca735ae","system_id":"levelo_inurba_marseille","lat":43.28826,"lon":5.35839,"is_reserved":false,"is_disabled":false,"rental_uris":{"android":"levelo://app?vid=ea8553d4-a05f-4ab5-aec1-a299bca735ae","ios":"levelo://app?vid=ea8553d4-a05f-4ab5-aec1-a299bca735ae"},"vehicle_type_id":"4","last_reported":1739416400,"current_range_meters":24000,"station_id":"ce4bhb12rcd13ifvqem0","pricing_plan_id":"cebpf4jnsgd1na2vs0mg"},{"bike_id":"746bd82f-b444-4f0e-bbcf-06757cdf85d8","system_id":"levelo_inurba_marseille","lat":43.24652,"lon":5.38162,"is_reserved":false,"is_disabled":false,"rental_uris":{"android":"levelo://app?vid=746bd82f-b444-4f0e-bbcf-06757cdf85d8","ios":"levelo://app?vid=746bd82f-b444-4f0e-bbcf-06757cdf85d8"},"vehicle_type_id":"4","last_reported":1739416400,"current_range_meters":32800,"station_id":"ce4bhih2rcd13ifvqfr0","pricing_plan_id":"cebpf4jnsgd1na2vs0mg"},{"bike_id":"c2250f20-2283-4e17-b7ce-382f2f740aa1","system_id":"levelo_inurba_marseille","lat":43.24809,"lon":5.37456,"is_reserved":false,"is_disabled":false,"rental_uris":{"android":"levelo://app?vid=c2250f20-2283-4e17-b7ce-382f2f740aa1","ios":"levelo://app?vid=c2250f20-2283-4e17-b7ce-382f2f740aa1"},"vehicle_type_id":"4","last_reported":1739416400,"current_range_meters":38800,"station_id":"ce4bhgh2rcd13ifvqfb0","pricing_plan_id":"cebpf4jnsgd1na2vs0mg"},{"bike_id":"cae753ae-2904-4959-a53a-5c8306d07841","system_id":"levelo_inurba_marseille","lat":43.24837,"lon":5.37438,"is_reserved":false,"is_disabled":false,"rental_uris":{"android":"levelo://app?vid=cae753ae-2904-4959-a53a-5c8306d07841","ios":"levelo://app?vid=cae753ae-2904-4959-a53a-5c8306d07841"},"vehicle_type_id":"4","last_reported":1739416400,"current_range_meters":30800,"station_id":"","pricing_plan_id":"cebpf4jnsgd1na2vs0mg"},{"bike_id":"cd096ddb-573a-4851-828d-bbba685c2967","system_id":"levelo_inurba_marseille","lat":43.28436,"lon":5.37517,"is_reserved":false,"is_disabled":false,"rental_uris":{"android":"levelo://app?vid=cd096ddb-573a-4851-828d-bbba685c2967","ios":"levelo://app?vid=cd096ddb-573a-4851-828d-bbba685c2967"},"vehicle_type_id":"4","last_reported":1739416400,"current_range_meters":25600,"station_id":"ce4bh412rcd13ifvqds0","pricing_plan_id":"cebpf4jnsgd1na2vs0mg"},{"bike_id":"a32f863f-2847-45c8-9bf5-84302eee9bef","system_id":"levelo_inurba_marseille","lat":43.286617,"lon":5.363525,"is_reserved":false,"is_disabled":false,"rental_uris":{"android":"levelo://app?vid=a32f863f-2847-45c8-9bf5-84302eee9bef","ios":"levelo://app?vid=a32f863f-2847-45c8-9bf5-84302eee9bef"},"vehicle_type_id":"4","last_reported":1739416400,"current_range_meters":24000,"station_id":"ce4bhah2rcd13ifvqej0","pricing_plan_id":"cebpf4jnsgd1na2vs0mg"},{"bike_id":"ab7bda7a-118a-4bff-9e36-2e7622b1fe23","system_id":"levelo_inurba_marseille","lat":43.286982,"lon":5.399808,"is_reserved":false,"is_disabled":false,"rental_uris":{"android":"levelo://app?vid=ab7bda7a-118a-4bff-9e36-2e7622b1fe23","ios":"levelo://app?vid=ab7bda7a-118a-4bff-9e36-2e7622b1fe23"},"vehicle_type_id":"4","last_reported":1739416400,"current_range_meters":25200,"station_id":"ce4bho92rcd13ifvqh3g","pricing_plan_id":"cebpf4jnsgd1na2vs0mg"},{"bike_id":"492e558b-0ce5-4984-b6b1-1d33f225a96b","system_id":"levelo_inurba_marseille","lat":43.24164,"lon":5.36391,"is_reserved":false,"is_disabled":false,"rental_uris":{"android":"levelo://app?vid=492e558b-0ce5-4984-b6b1-1d33f225a96b","ios":"levelo://app?vid=492e558b-0ce5-4984-b6b1-1d33f225a96b"},"vehicle_type_id":"4","last_reported":1739416400,"current_range_meters":8400,"station_id":"cpo36qri1sfpv3e86is0","pricing_plan_id":"cebpf4jnsgd1na2vs0mg"},{"bike_id":"4ef1556a-9445-4856-8c3c-4481ce7a30dc","system_id":"levelo_inurba_marseille","lat":43.30818,"lon":5.38159,"is_reserved":false,"is_disabled":false,"rental_uris":{"android":"levelo://app?vid=4ef1556a-9445-4856-8c3c-4481ce7a30dc","ios":"levelo://app?vid=4ef1556a-9445-4856-8c3c-4481ce7a30dc"},"vehicle_type_id":"4","last_reported":1739416400,"current_range_meters":24400,"station_id":"ce4bgt12rcd13ifvqce0","pricing_plan_id":"cebpf4jnsgd1na2vs0mg"},{"bike_id":"c6ab2079-aa0d-4c6d-8608-a1cea0571a2d","system_id":"levelo_inurba_marseille","lat":43.326737,"lon":5.430809,"is_reserved":false,"is_disabled":false,"rental_uris":{"android":"levelo://app?vid=c6ab2079-aa0d-4c6d-8608-a1cea0571a2d","ios":"levelo://app?vid=c6ab2079-aa0d-4c6d-8608-a1cea0571a2d"},"vehicle_type_id":"4","last_reported":1739416400,"current_range_meters":38400,"station_id":"","pricing_plan_id":"cebpf4jnsgd1na2vs0mg"},{"bike_id":"40bc8b89-4b89-4043-9794-12c16f3c0836","system_id":"levelo_inurba_marseille","lat":43.31488,"lon":5.37299,"is_reserved":false,"is_disabled":false,"rental_uris":{"android":"levelo://app?vid=40bc8b89-4b89-4043-9794-12c16f3c0836","ios":"levelo://app?vid=40bc8b89-4b89-4043-9794-12c16f3c0836"},"vehicle_type_id":"4","last_reported":1739416400,"current_range_meters":20400,"station_id":"ce4bgt12rcd13ifvqcd0","pricing_plan_id":"cebpf4jnsgd1na2vs0mg"},{"bike_id":"30b76049-e41b-4adb-862f-755fe2524e05","system_id":"levelo_inurba_marseille","lat":43.288513,"lon":5.393247,"is_reserved":false,"is_disabled":true,"rental_uris":{"android":"levelo://app?vid=30b76049-e41b-4adb-862f-755fe2524e05","ios":"levelo://app?vid=30b76049-e41b-4adb-862f-755fe2524e05"},"vehicle_type_id":"4","last_reported":1739416400,"current_range_meters":33600,"station_id":"","pricing_plan_id":"cebpf4jnsgd1na2vs0mg"},{"bike_id":"837686c6-9ebd-419b-a578-a995281012ca","system_id":"levelo_inurba_marseille","lat":43.28035,"lon":5.36943,"is_reserved":false,"is_disabled":false,"rental_uris":{"android":"levelo://app?vid=837686c6-9ebd-419b-a578-a995281012ca","ios":"levelo://app?vid=837686c6-9ebd-419b-a578-a995281012ca"},"vehicle_type_id":"4","last_reported":1739416400,"current_range_meters":35600,"station_id":"ce4bha12rcd13ifvqef0","pricing_plan_id":"cebpf4jnsgd1na2vs0mg"},{"bike_id":"084550d1-0260-4e97-97a5-5804dceb22a6","system_id":"levelo_inurba_marseille","lat":43.30878,"lon":5.39631,"is_reserved":false,"is_disabled":false,"rental_uris":{"android":"levelo://app?vid=084550d1-0260-4e97-97a5-5804dceb22a6","ios":"levelo://app?vid=084550d1-0260-4e97-97a5-5804dceb22a6"},"vehicle_type_id":"4","last_reported":1739416400,"current_range_meters":38800,"station_id":"ce4bh012rcd13ifvqcv0","pricing_plan_id":"cebpf4jnsgd1na2vs0mg"},{"bike_id":"8529453e-6164-4c2d-9aea-7bc04425d635","system_id":"levelo_inurba_marseille","lat":43.28728,"lon":5.3996,"is_reserved":false,"is_disabled":false,"rental_uris":{"android":"levelo://app?vid=8529453e-6164-4c2d-9aea-7bc04425d635","ios":"levelo://app?vid=8529453e-6164-4c2d-9aea-7bc04425d635"},"vehicle_type_id":"4","last_reported":1739416400,"current_range_meters":14000,"station_id":"ce4bho92rcd13ifvqh3g","pricing_plan_id":"cebpf4jnsgd1na2vs0mg"},{"bike_id":"ebaf1afe-6793-4830-8b43-689bbe41f293","system_id":"levelo_inurba_marseille","lat":43.30447,"lon":5.389,"is_reserved":false,"is_disabled":false,"rental_uris":{"android":"levelo://app?vid=ebaf1afe-6793-4830-8b43-689bbe41f293","ios":"levelo://app?vid=ebaf1afe-6793-4830-8b43-689bbe41f293"},"vehicle_type_id":"4","last_reported":1739416400,"current_range_meters":38800,"station_id":"ce4bgk12rcd13ifvqbi0","pricing_plan_id":"cebpf4jnsgd1na2vs0mg"},{"bike_id":"2c7e9a1a-f41b-4230-ad31-fa1174cac54e","system_id":"levelo_inurba_marseille","lat":43.322891,"lon":5.390405,"is_reserved":false,"is_disabled":false,"rental_uris":{"android":"levelo://app?vid=2c7e9a1a-f41b-4230-ad31-fa1174cac54e","ios":"levelo://app?vid=2c7e9a1a-f41b-4230-ad31-fa1174cac54e"},"vehicle_type_id":"4","last_reported":1739416400,"current_range_meters":11600,"station_id":"","pricing_plan_id":"cebpf4jnsgd1na2vs0mg"},{"bike_id":"ca3411ed-a02c-4230-a75b-02b01b14999b","system_id":"levelo_inurba_marseille","lat":43.306459,"lon":5.400967,"is_reserved":false,"is_disabled":false,"rental_uris":{"android":"levelo://app?vid=ca3411ed-a02c-4230-a75b-02b01b14999b","ios":"levelo://app?vid=ca3411ed-a02c-4230-a75b-02b01b14999b"},"vehicle_type_id":"4","last_reported":1739416400,"current_range_meters":14400,"station_id":"ce4bh112rcd13ifvqda0","pricing_plan_id":"cebpf4jnsgd1na2vs0mg"},{"bike_id":"786687c7-e4ff-4ff9-8656-9627b4ede65e","system_id":"levelo_inurba_marseille","lat":43.266768,"lon":5.382789,"is_reserved":false,"is_disabled":false,"rental_uris":{"android":"levelo://app?vid=786687c7-e4ff-4ff9-8656-9627b4ede65e","ios":"levelo://app?vid=786687c7-e4ff-4ff9-8656-9627b4ede65e"},"vehicle_type_id":"4","last_reported":1739416400,"current_range_meters":38800,"station_id":"ce4bhg92rcd13ifvqf90","pricing_plan_id":"cebpf4jnsgd1na2vs0mg"},{"bike_id":"231dc78f-0948-40eb-a50a-3b32494ea3af","system_id":"levelo_inurba_marseille","lat":43.30185,"lon":5.36605,"is_reserved":false,"is_disabled":false,"rental_uris":{"android":"levelo://app?vid=231dc78f-0948-40eb-a50a-3b32494ea3af","ios":"levelo://app?vid=231dc78f-0948-40eb-a50a-3b32494ea3af"},"vehicle_type_id":"4","last_reported":1739416400,"current_range_meters":30800,"station_id":"ce4bgrh2rcd13ifvqc8g","pricing_plan_id":"cebpf4jnsgd1na2vs0mg"},{"bike_id":"21933e2d-e5b1-4d5c-88c5-0169486a92ff","system_id":"levelo_inurba_marseille","lat":43.26802,"lon":5.3942,"is_reserved":false,"is_disabled":false,"rental_uris":{"android":"levelo://app?vid=21933e2d-e5b1-4d5c-88c5-0169486a92ff","ios":"levelo://app?vid=21933e2d-e5b1-4d5c-88c5-0169486a92ff"},"vehicle_type_id":"4","last_reported":1739416400,"current_range_meters":38800,"station_id":"ce4bhh12rcd13ifvqfg0","pricing_plan_id":"cebpf4jnsgd1na2vs0mg"},{"bike_id":"bb007639-63f2-4069-ac85-e4fdb7a6d78f","system_id":"levelo_inurba_marseille","lat":43.27976,"lon":5.4103,"is_reserved":false,"is_disabled":false,"rental_uris":{"android":"levelo://app?vid=bb007639-63f2-4069-ac85-e4fdb7a6d78f","ios":"levelo://app?vid=bb007639-63f2-4069-ac85-e4fdb7a6d78f"},"vehicle_type_id":"4","last_reported":1739416400,"current_range_meters":17600,"station_id":"ce4bhnp2rcd13ifvqh0g","pricing_plan_id":"cebpf4jnsgd1na2vs0mg"},{"bike_id":"55780c50-6a84-4e88-bef1-f348e4c19a48","system_id":"levelo_inurba_marseille","lat":43.311791,"lon":5.387203,"is_reserved":false,"is_disabled":true,"rental_uris":{"android":"levelo://app?vid=55780c50-6a84-4e88-bef1-f348e4c19a48","ios":"levelo://app?vid=55780c50-6a84-4e88-bef1-f348e4c19a48"},"vehicle_type_id":"4","last_reported":1739416400,"current_range_meters":35200,"station_id":"ce4bgv12rcd13ifvqcp0","pricing_plan_id":"cebpf4jnsgd1na2vs0mg"},{"bike_id":"7335b564-6dbe-4484-93db-55ac8075f374","system_id":"levelo_inurba_marseille","lat":43.284573,"lon":5.358914,"is_reserved":false,"is_disabled":false,"rental_uris":{"android":"levelo://app?vid=7335b564-6dbe-4484-93db-55ac8075f374","ios":"levelo://app?vid=7335b564-6dbe-4484-93db-55ac8075f374"},"vehicle_type_id":"4","last_reported":1739416400,"current_range_meters":20000,"station_id":"ce4bhah2rcd13ifvqei0","pricing_plan_id":"cebpf4jnsgd1na2vs0mg"},{"bike_id":"e5efd828-eef1-418b-b92d-690982123ea2","system_id":"levelo_inurba_marseille","lat":43.25581,"lon":5.38246,"is_reserved":false,"is_disabled":false,"rental_uris":{"android":"levelo://app?vid=e5efd828-eef1-418b-b92d-690982123ea2","ios":"levelo://app?vid=e5efd828-eef1-418b-b92d-690982123ea2"},"vehicle_type_id":"4","last_reported":1739416400,"current_range_meters":9200,"station_id":"ce4bhih2rcd13ifvqfs0","pricing_plan_id":"cebpf4jnsgd1na2vs0mg"},{"bike_id":"b1b93a49-25bc-4589-b584-866c5f20cedd","system_id":"levelo_inurba_marseille","lat":43.31618,"lon":5.37663,"is_reserved":false,"is_disabled":false,"rental_uris":{"android":"levelo://app?vid=b1b93a49-25bc-4589-b584-866c5f20cedd","ios":"levelo://app?vid=b1b93a49-25bc-4589-b584-866c5f20cedd"},"vehicle_type_id":"4","last_reported":1739416400,"current_range_meters":6000,"station_id":"","pricing_plan_id":"cebpf4jnsgd1na2vs0mg"},{"bike_id":"e72933b5-9c55-4371-b54e-521ef3bd97b6","system_id":"levelo_inurba_marseille","lat":43.29057,"lon":5.35914,"is_reserved":false,"is_disabled":false,"rental_uris":{"android":"levelo://app?vid=e72933b5-9c55-4371-b54e-521ef3bd97b6","ios":"levelo://app?vid=e72933b5-9c55-4371-b54e-521ef3bd97b6"},"vehicle_type_id":"4","last_reported":1739416400,"current_range_meters":32800,"station_id":"ce4bha92rcd13ifvqeg0","pricing_plan_id":"cebpf4jnsgd1na2vs0mg"},{"bike_id":"f1013731-d9d0-43ac-a11d-8c2c06babf9c","system_id":"levelo_inurba_marseille","lat":43.24061,"lon":5.37716,"is_reserved":false,"is_disabled":false,"rental_uris":{"android":"levelo://app?vid=f1013731-d9d0-43ac-a11d-8c2c06babf9c","ios":"levelo://app?vid=f1013731-d9d0-43ac-a11d-8c2c06babf9c"},"vehicle_type_id":"4","last_reported":1739416400,"current_range_meters":37600,"station_id":"ce4bhnp2rcd13ifvqgvg","pricing_plan_id":"cebpf4jnsgd1na2vs0mg"},{"bike_id":"975bd8a5-8f21-44ae-a027-a7bf539ff1a7","system_id":"levelo_inurba_marseille","lat":43.286631,"lon":5.363524,"is_reserved":false,"is_disabled":false,"rental_uris":{"android":"levelo://app?vid=975bd8a5-8f21-44ae-a027-a7bf539ff1a7","ios":"levelo://app?vid=975bd8a5-8f21-44ae-a027-a7bf539ff1a7"},"vehicle_type_id":"4","last_reported":1739416400,"current_range_meters":26800,"station_id":"ce4bhah2rcd13ifvqej0","pricing_plan_id":"cebpf4jnsgd1na2vs0mg"},{"bike_id":"04d4b8ab-1d4d-44ab-9d49-e10f569c0553","system_id":"levelo_inurba_marseille","lat":43.29852,"lon":5.36253,"is_reserved":false,"is_disabled":false,"rental_uris":{"android":"levelo://app?vid=04d4b8ab-1d4d-44ab-9d49-e10f569c0553","ios":"levelo://app?vid=04d4b8ab-1d4d-44ab-9d49-e10f569c0553"},"vehicle_type_id":"4","last_reported":1739416400,"current_range_meters":28800,"station_id":"ce4bgpp2rcd13ifvqc3g","pricing_plan_id":"cebpf4jnsgd1na2vs0mg"},{"bike_id":"1e27a57f-c848-41af-a2d3-5d053a440eb3","system_id":"levelo_inurba_marseille","lat":43.32568,"lon":5.43047,"is_reserved":false,"is_disabled":false,"rental_uris":{"android":"levelo://app?vid=1e27a57f-c848-41af-a2d3-5d053a440eb3","ios":"levelo://app?vid=1e27a57f-c848-41af-a2d3-5d053a440eb3"},"vehicle_type_id":"4","last_reported":1739416400,"current_range_meters":12800,"station_id":"","pricing_plan_id":"cebpf4jnsgd1na2vs0mg"},{"bike_id":"e0e88e32-cb96-4b9b-ae72-a756accf51b3","system_id":"levelo_inurba_marseille","lat":43.258226,"lon":5.394226,"is_reserved":false,"is_disabled":false,"rental_uris":{"android":"levelo://app?vid=e0e88e32-cb96-4b9b-ae72-a756accf51b3","ios":"levelo://app?vid=e0e88e32-cb96-4b9b-ae72-a756accf51b3"},"vehicle_type_id":"4","last_reported":1739416400,"current_range_meters":6800,"station_id":"ce4bhip2rcd13ifvqft0","pricing_plan_id":"cebpf4jnsgd1na2vs0mg"},{"bike_id":"c62b1faa-f28b-40b9-b32d-c145fe962623","system_id":"levelo_inurba_marseille","lat":43.32628,"lon":5.40974,"is_reserved":false,"is_disabled":false,"rental_uris":{"android":"levelo://app?vid=c62b1faa-f28b-40b9-b32d-c145fe962623","ios":"levelo://app?vid=c62b1faa-f28b-40b9-b32d-c145fe962623"},"vehicle_type_id":"4","last_reported":1739416400,"current_range_meters":37600,"station_id":"ce4bhpp2rcd13ifvqhgg","pricing_plan_id":"cebpf4jnsgd1na2vs0mg"},{"bike_id":"60b283a1-229b-4adb-83f1-d1d7d9987d23","system_id":"levelo_inurba_marseille","lat":43.290386,"lon":5.359191,"is_reserved":false,"is_disabled":false,"rental_uris":{"android":"levelo://app?vid=60b283a1-229b-4adb-83f1-d1d7d9987d23","ios":"levelo://app?vid=60b283a1-229b-4adb-83f1-d1d7d9987d23"},"vehicle_type_id":"4","last_reported":1739416400,"current_range_meters":23200,"station_id":"ce4bha92rcd13ifvqeg0","pricing_plan_id":"cebpf4jnsgd1na2vs0mg"},{"bike_id":"c4813b27-4250-43ea-8be5-ccd7321d2af3","system_id":"levelo_inurba_marseille","lat":43.282227,"lon":5.370077,"is_reserved":false,"is_disabled":false,"rental_uris":{"android":"levelo://app?vid=c4813b27-4250-43ea-8be5-ccd7321d2af3","ios":"levelo://app?vid=c4813b27-4250-43ea-8be5-ccd7321d2af3"},"vehicle_type_id":"4","last_reported":1739416400,"current_range_meters":14800,"station_id":"","pricing_plan_id":"cebpf4jnsgd1na2vs0mg"},{"bike_id":"d512d5c3-1e35-400e-b056-e39353266f26","system_id":"levelo_inurba_marseille","lat":43.294418,"lon":5.397478,"is_reserved":false,"is_disabled":false,"rental_uris":{"android":"levelo://app?vid=d512d5c3-1e35-400e-b056-e39353266f26","ios":"levelo://app?vid=d512d5c3-1e35-400e-b056-e39353266f26"},"vehicle_type_id":"4","last_reported":1739416400,"current_range_meters":34000,"station_id":"ce4bh3h2rcd13ifvqdo0","pricing_plan_id":"cebpf4jnsgd1na2vs0mg"},{"bike_id":"bc36e09f-a8a9-425b-943a-324d66098d3d","system_id":"levelo_inurba_marseille","lat":43.28716,"lon":5.37373,"is_reserved":false,"is_disabled":false,"rental_uris":{"android":"levelo://app?vid=bc36e09f-a8a9-425b-943a-324d66098d3d","ios":"levelo://app?vid=bc36e09f-a8a9-425b-943a-324d66098d3d"},"vehicle_type_id":"4","last_reported":1739416400,"current_range_meters":38800,"station_id":"ce4bh3p2rcd13ifvqdq0","pricing_plan_id":"cebpf4jnsgd1na2vs0mg"},{"bike_id":"971f9951-cad8-4d64-aee1-30948583f711","system_id":"levelo_inurba_marseille","lat":43.32481,"lon":5.3657,"is_reserved":false,"is_disabled":false,"rental_uris":{"android":"levelo://app?vid=971f9951-cad8-4d64-aee1-30948583f711","ios":"levelo://app?vid=971f9951-cad8-4d64-aee1-30948583f711"},"vehicle_type_id":"4","last_reported":1739416400,"current_range_meters":38000,"station_id":"ce4bhs12rcd13ifvqhvg","pricing_plan_id":"cebpf4jnsgd1na2vs0mg"},{"bike_id":"59e11627-5bbc-415d-a4d4-28a6bf979ca3","system_id":"levelo_inurba_marseille","lat":43.295691,"lon":5.399697,"is_reserved":false,"is_disabled":false,"rental_uris":{"android":"levelo://app?vid=59e11627-5bbc-415d-a4d4-28a6bf979ca3","ios":"levelo://app?vid=59e11627-5bbc-415d-a4d4-28a6bf979ca3"},"vehicle_type_id":"4","last_reported":1739416400,"current_range_meters":38800,"station_id":"ce4bh312rcd13ifvqdj0","pricing_plan_id":"cebpf4jnsgd1na2vs0mg"},{"bike_id":"821060ad-a93f-40bd-8b2b-865e04f259c9","system_id":"levelo_inurba_marseille","lat":43.30448,"lon":5.38902,"is_reserved":false,"is_disabled":false,"rental_uris":{"android":"levelo://app?vid=821060ad-a93f-40bd-8b2b-865e04f259c9","ios":"levelo://app?vid=821060ad-a93f-40bd-8b2b-865e04f259c9"},"vehicle_type_id":"4","last_reported":1739416400,"current_range_meters":37600,"station_id":"ce4bgk12rcd13ifvqbi0","pricing_plan_id":"cebpf4jnsgd1na2vs0mg"},{"bike_id":"1b458121-6cd7-478a-89b8-458176cc39f8","system_id":"levelo_inurba_marseille","lat":43.294465,"lon":5.397518,"is_reserved":false,"is_disabled":false,"rental_uris":{"android":"levelo://app?vid=1b458121-6cd7-478a-89b8-458176cc39f8","ios":"levelo://app?vid=1b458121-6cd7-478a-89b8-458176cc39f8"},"vehicle_type_id":"4","last_reported":1739416400,"current_range_meters":26000,"station_id":"ce4bh3h2rcd13ifvqdo0","pricing_plan_id":"cebpf4jnsgd1na2vs0mg"},{"bike_id":"897d91d7-9c0a-4119-9ad5-8a9a1cc57b43","system_id":"levelo_inurba_marseille","lat":43.28461,"lon":5.35895,"is_reserved":false,"is_disabled":false,"rental_uris":{"android":"levelo://app?vid=897d91d7-9c0a-4119-9ad5-8a9a1cc57b43","ios":"levelo://app?vid=897d91d7-9c0a-4119-9ad5-8a9a1cc57b43"},"vehicle_type_id":"4","last_reported":1739416400,"current_range_meters":38000,"station_id":"ce4bhah2rcd13ifvqei0","pricing_plan_id":"cebpf4jnsgd1na2vs0mg"},{"bike_id":"994637bb-caf9-4055-9838-7c7f8d59209f","system_id":"levelo_inurba_marseille","lat":43.29566,"lon":5.42277,"is_reserved":false,"is_disabled":false,"rental_uris":{"android":"levelo://app?vid=994637bb-caf9-4055-9838-7c7f8d59209f","ios":"levelo://app?vid=994637bb-caf9-4055-9838-7c7f8d59209f"},"vehicle_type_id":"4","last_reported":1739416400,"current_range_meters":26800,"station_id":"ce4bhph2rcd13ifvqhdg","pricing_plan_id":"cebpf4jnsgd1na2vs0mg"},{"bike_id":"339a67aa-e0bc-44df-8ab9-52d7ee4c3441","system_id":"levelo_inurba_marseille","lat":43.30433,"lon":5.39721,"is_reserved":false,"is_disabled":false,"rental_uris":{"android":"levelo://app?vid=339a67aa-e0bc-44df-8ab9-52d7ee4c3441","ios":"levelo://app?vid=339a67aa-e0bc-44df-8ab9-52d7ee4c3441"},"vehicle_type_id":"4","last_reported":1739416400,"current_range_meters":38800,"station_id":"ce4bh092rcd13ifvqd20","pricing_plan_id":"cebpf4jnsgd1na2vs0mg"},{"bike_id":"eb74081f-8035-495f-a073-abb8444b5eb2","system_id":"levelo_inurba_marseille","lat":43.239571,"lon":5.366309,"is_reserved":false,"is_disabled":false,"rental_uris":{"android":"levelo://app?vid=eb74081f-8035-495f-a073-abb8444b5eb2","ios":"levelo://app?vid=eb74081f-8035-495f-a073-abb8444b5eb2"},"vehicle_type_id":"4","last_reported":1739416400,"current_range_meters":17600,"station_id":"ce4bhi12rcd13ifvqfp0","pricing_plan_id":"cebpf4jnsgd1na2vs0mg"},{"bike_id":"ee5d5274-250a-42e4-8b17-389c8ba80df0","system_id":"levelo_inurba_marseille","lat":43.29509,"lon":5.39416,"is_reserved":false,"is_disabled":false,"rental_uris":{"android":"levelo://app?vid=ee5d5274-250a-42e4-8b17-389c8ba80df0","ios":"levelo://app?vid=ee5d5274-250a-42e4-8b17-389c8ba80df0"},"vehicle_type_id":"4","last_reported":1739416400,"current_range_meters":6000,"station_id":"ce4bh292rcd13ifvqdf0","pricing_plan_id":"cebpf4jnsgd1na2vs0mg"},{"bike_id":"c2efea4b-ec5b-4288-9409-142cf8677638","system_id":"levelo_inurba_marseille","lat":43.24689,"lon":5.38145,"is_reserved":false,"is_disabled":false,"rental_uris":{"android":"levelo://app?vid=c2efea4b-ec5b-4288-9409-142cf8677638","ios":"levelo://app?vid=c2efea4b-ec5b-4288-9409-142cf8677638"},"vehicle_type_id":"4","last_reported":1739416400,"current_range_meters":27200,"station_id":"ce4bhih2rcd13ifvqfr0","pricing_plan_id":"cebpf4jnsgd1na2vs0mg"},{"bike_id":"5a144cb3-a695-4ed6-b4c2-98bf7d7f99fa","system_id":"levelo_inurba_marseille","lat":43.282639,"lon":5.350722,"is_reserved":false,"is_disabled":false,"rental_uris":{"android":"levelo://app?vid=5a144cb3-a695-4ed6-b4c2-98bf7d7f99fa","ios":"levelo://app?vid=5a144cb3-a695-4ed6-b4c2-98bf7d7f99fa"},"vehicle_type_id":"4","last_reported":1739416400,"current_range_meters":38400,"station_id":"ce4bhbp2rcd13ifvqerg","pricing_plan_id":"cebpf4jnsgd1na2vs0mg"},{"bike_id":"a0342144-2bd7-40e3-80bf-df0c5ec04fde","system_id":"levelo_inurba_marseille","lat":43.24814,"lon":5.37446,"is_reserved":false,"is_disabled":false,"rental_uris":{"android":"levelo://app?vid=a0342144-2bd7-40e3-80bf-df0c5ec04fde","ios":"levelo://app?vid=a0342144-2bd7-40e3-80bf-df0c5ec04fde"},"vehicle_type_id":"4","last_reported":1739416400,"current_range_meters":28000,"station_id":"ce4bhgh2rcd13ifvqfb0","pricing_plan_id":"cebpf4jnsgd1na2vs0mg"},{"bike_id":"4ca24f42-da8d-4f4c-b599-4aab66b77cbc","system_id":"levelo_inurba_marseille","lat":43.28736,"lon":5.36075,"is_reserved":false,"is_disabled":false,"rental_uris":{"android":"levelo://app?vid=4ca24f42-da8d-4f4c-b599-4aab66b77cbc","ios":"levelo://app?vid=4ca24f42-da8d-4f4c-b599-4aab66b77cbc"},"vehicle_type_id":"4","last_reported":1739416400,"current_range_meters":36800,"station_id":"cki0cbj6b192h4jlfktg","pricing_plan_id":"cebpf4jnsgd1na2vs0mg"},{"bike_id":"8d2d4012-ff69-4800-927a-45caff6cd054","system_id":"levelo_inurba_marseille","lat":43.23144,"lon":5.43692,"is_reserved":false,"is_disabled":false,"rental_uris":{"android":"levelo://app?vid=8d2d4012-ff69-4800-927a-45caff6cd054","ios":"levelo://app?vid=8d2d4012-ff69-4800-927a-45caff6cd054"},"vehicle_type_id":"4","last_reported":1739416400,"current_range_meters":12000,"station_id":"ce4bhmp2rcd13ifvqgog","pricing_plan_id":"cebpf4jnsgd1na2vs0mg"},{"bike_id":"1ec14052-2d33-4aa1-9ab8-58cc71db74d1","system_id":"levelo_inurba_marseille","lat":43.24169,"lon":5.36402,"is_reserved":false,"is_disabled":false,"rental_uris":{"android":"levelo://app?vid=1ec14052-2d33-4aa1-9ab8-58cc71db74d1","ios":"levelo://app?vid=1ec14052-2d33-4aa1-9ab8-58cc71db74d1"},"vehicle_type_id":"4","last_reported":1739416400,"current_range_meters":8000,"station_id":"cpo36qri1sfpv3e86is0","pricing_plan_id":"cebpf4jnsgd1na2vs0mg"},{"bike_id":"6e58a69c-2a4e-4c49-840d-6e728a603acb","system_id":"levelo_inurba_marseille","lat":43.23067,"lon":5.35491,"is_reserved":false,"is_disabled":false,"rental_uris":{"android":"levelo://app?vid=6e58a69c-2a4e-4c49-840d-6e728a603acb","ios":"levelo://app?vid=6e58a69c-2a4e-4c49-840d-6e728a603acb"},"vehicle_type_id":"4","last_reported":1739416400,"current_range_meters":7200,"station_id":"cpo3342slgdg3j2ifvpg","pricing_plan_id":"cebpf4jnsgd1na2vs0mg"},{"bike_id":"add7e1b7-46d4-4b7f-bf50-34281873e788","system_id":"levelo_inurba_marseille","lat":43.312396,"lon":5.368738,"is_reserved":false,"is_disabled":true,"rental_uris":{"android":"levelo://app?vid=add7e1b7-46d4-4b7f-bf50-34281873e788","ios":"levelo://app?vid=add7e1b7-46d4-4b7f-bf50-34281873e788"},"vehicle_type_id":"4","last_reported":1739416400,"current_range_meters":30000,"station_id":"ce4bgl92rcd13ifvqbq0","pricing_plan_id":"cebpf4jnsgd1na2vs0mg"},{"bike_id":"aaf5d84c-409c-4cea-a87d-9adf5073cc96","system_id":"levelo_inurba_marseille","lat":43.2586,"lon":5.39914,"is_reserved":false,"is_disabled":false,"rental_uris":{"android":"levelo://app?vid=aaf5d84c-409c-4cea-a87d-9adf5073cc96","ios":"levelo://app?vid=aaf5d84c-409c-4cea-a87d-9adf5073cc96"},"vehicle_type_id":"4","last_reported":1739416400,"current_range_meters":19600,"station_id":"ce4bhl92rcd13ifvqghg","pricing_plan_id":"cebpf4jnsgd1na2vs0mg"},{"bike_id":"487b84c5-8809-479a-969a-47f572f8c420","system_id":"levelo_inurba_marseille","lat":43.291919,"lon":5.358026,"is_reserved":false,"is_disabled":false,"rental_uris":{"android":"levelo://app?vid=487b84c5-8809-479a-969a-47f572f8c420","ios":"levelo://app?vid=487b84c5-8809-479a-969a-47f572f8c420"},"vehicle_type_id":"4","last_reported":1739416400,"current_range_meters":37600,"station_id":"ce4bhb12rcd13ifvqel0","pricing_plan_id":"cebpf4jnsgd1na2vs0mg"},{"bike_id":"bb8d4545-1dfa-4929-b03f-e7a6dbc7e511","system_id":"levelo_inurba_marseille","lat":43.30438,"lon":5.38896,"is_reserved":false,"is_disabled":false,"rental_uris":{"android":"levelo://app?vid=bb8d4545-1dfa-4929-b03f-e7a6dbc7e511","ios":"levelo://app?vid=bb8d4545-1dfa-4929-b03f-e7a6dbc7e511"},"vehicle_type_id":"4","last_reported":1739416400,"current_range_meters":38800,"station_id":"ce4bgk12rcd13ifvqbi0","pricing_plan_id":"cebpf4jnsgd1na2vs0mg"},{"bike_id":"1b3eb435-3a2a-4540-9213-d8bec842fbee","system_id":"levelo_inurba_marseille","lat":43.284174,"lon":5.375112,"is_reserved":false,"is_disabled":false,"rental_uris":{"android":"levelo://app?vid=1b3eb435-3a2a-4540-9213-d8bec842fbee","ios":"levelo://app?vid=1b3eb435-3a2a-4540-9213-d8bec842fbee"},"vehicle_type_id":"4","last_reported":1739416400,"current_range_meters":17600,"station_id":"ce4bh412rcd13ifvqds0","pricing_plan_id":"cebpf4jnsgd1na2vs0mg"},{"bike_id":"17b8e592-efce-4113-ba0a-d316b99f2a2f","system_id":"levelo_inurba_marseille","lat":43.3015,"lon":5.39872,"is_reserved":false,"is_disabled":true,"rental_uris":{"android":"levelo://app?vid=17b8e592-efce-4113-ba0a-d316b99f2a2f","ios":"levelo://app?vid=17b8e592-efce-4113-ba0a-d316b99f2a2f"},"vehicle_type_id":"4","last_reported":1739416400,"current_range_meters":24800,"station_id":"ce4bh0h2rcd13ifvqd40","pricing_plan_id":"cebpf4jnsgd1na2vs0mg"},{"bike_id":"4450d397-c7c4-4c68-aed9-fa811598c082","system_id":"levelo_inurba_marseille","lat":43.32478,"lon":5.36416,"is_reserved":false,"is_disabled":false,"rental_uris":{"android":"levelo://app?vid=4450d397-c7c4-4c68-aed9-fa811598c082","ios":"levelo://app?vid=4450d397-c7c4-4c68-aed9-fa811598c082"},"vehicle_type_id":"4","last_reported":1739416400,"current_range_meters":38400,"station_id":"","pricing_plan_id":"cebpf4jnsgd1na2vs0mg"},{"bike_id":"09547f9c-45f1-4555-8052-ac255ca0188d","system_id":"levelo_inurba_marseille","lat":43.283632,"lon":5.386176,"is_reserved":false,"is_disabled":false,"rental_uris":{"android":"levelo://app?vid=09547f9c-45f1-4555-8052-ac255ca0188d","ios":"levelo://app?vid=09547f9c-45f1-4555-8052-ac255ca0188d"},"vehicle_type_id":"4","last_reported":1739416400,"current_range_meters":17600,"station_id":"ce4bh492rcd13ifvqdvg","pricing_plan_id":"cebpf4jnsgd1na2vs0mg"},{"bike_id":"06a3d1ba-24d8-4216-a4f0-3953752034fc","system_id":"levelo_inurba_marseille","lat":43.28558,"lon":5.39491,"is_reserved":false,"is_disabled":false,"rental_uris":{"android":"levelo://app?vid=06a3d1ba-24d8-4216-a4f0-3953752034fc","ios":"levelo://app?vid=06a3d1ba-24d8-4216-a4f0-3953752034fc"},"vehicle_type_id":"4","last_reported":1739416400,"current_range_meters":38800,"station_id":"ce4bh292rcd13ifvqdg0","pricing_plan_id":"cebpf4jnsgd1na2vs0mg"},{"bike_id":"eec9b7cd-8fd0-45f8-b096-6a24dea65c34","system_id":"levelo_inurba_marseille","lat":43.28652,"lon":5.36353,"is_reserved":false,"is_disabled":false,"rental_uris":{"android":"levelo://app?vid=eec9b7cd-8fd0-45f8-b096-6a24dea65c34","ios":"levelo://app?vid=eec9b7cd-8fd0-45f8-b096-6a24dea65c34"},"vehicle_type_id":"4","last_reported":1739416400,"current_range_meters":28400,"station_id":"ce4bhah2rcd13ifvqej0","pricing_plan_id":"cebpf4jnsgd1na2vs0mg"},{"bike_id":"798acdb1-8d9f-4801-97b1-742c0a0da568","system_id":"levelo_inurba_marseille","lat":43.3056,"lon":5.36509,"is_reserved":false,"is_disabled":false,"rental_uris":{"android":"levelo://app?vid=798acdb1-8d9f-4801-97b1-742c0a0da568","ios":"levelo://app?vid=798acdb1-8d9f-4801-97b1-742c0a0da568"},"vehicle_type_id":"4","last_reported":1739416400,"current_range_meters":38000,"station_id":"ce4bgs12rcd13ifvqcag","pricing_plan_id":"cebpf4jnsgd1na2vs0mg"},{"bike_id":"04e79b02-26b7-408e-8d07-a04361b8a27a","system_id":"levelo_inurba_marseille","lat":43.23183,"lon":5.39982,"is_reserved":false,"is_disabled":false,"rental_uris":{"android":"levelo://app?vid=04e79b02-26b7-408e-8d07-a04361b8a27a","ios":"levelo://app?vid=04e79b02-26b7-408e-8d07-a04361b8a27a"},"vehicle_type_id":"4","last_reported":1739416400,"current_range_meters":38800,"station_id":"ce4bhn12rcd13ifvqgqg","pricing_plan_id":"cebpf4jnsgd1na2vs0mg"},{"bike_id":"e5cdca79-abf5-48f7-8c9b-556247bc65ab","system_id":"levelo_inurba_marseille","lat":43.28701,"lon":5.38657,"is_reserved":false,"is_disabled":false,"rental_uris":{"android":"levelo://app?vid=e5cdca79-abf5-48f7-8c9b-556247bc65ab","ios":"levelo://app?vid=e5cdca79-abf5-48f7-8c9b-556247bc65ab"},"vehicle_type_id":"4","last_reported":1739416400,"current_range_meters":37600,"station_id":"ce4bh492rcd13ifvqdug","pricing_plan_id":"cebpf4jnsgd1na2vs0mg"},{"bike_id":"131035c0-e0e9-48c0-bc5c-112eadec296e","system_id":"levelo_inurba_marseille","lat":43.25503,"lon":5.37646,"is_reserved":false,"is_disabled":false,"rental_uris":{"android":"levelo://app?vid=131035c0-e0e9-48c0-bc5c-112eadec296e","ios":"levelo://app?vid=131035c0-e0e9-48c0-bc5c-112eadec296e"},"vehicle_type_id":"4","last_reported":1739416400,"current_range_meters":38800,"station_id":"ce4bhh12rcd13ifvqff0","pricing_plan_id":"cebpf4jnsgd1na2vs0mg"},{"bike_id":"32f04204-a566-4580-80b6-dfcc4e03003b","system_id":"levelo_inurba_marseille","lat":43.29183,"lon":5.35801,"is_reserved":false,"is_disabled":false,"rental_uris":{"android":"levelo://app?vid=32f04204-a566-4580-80b6-dfcc4e03003b","ios":"levelo://app?vid=32f04204-a566-4580-80b6-dfcc4e03003b"},"vehicle_type_id":"4","last_reported":1739416400,"current_range_meters":38800,"station_id":"ce4bhb12rcd13ifvqel0","pricing_plan_id":"cebpf4jnsgd1na2vs0mg"},{"bike_id":"0af6ce70-a73d-4e15-ae66-afdf903dbe27","system_id":"levelo_inurba_marseille","lat":43.24812,"lon":5.37461,"is_reserved":false,"is_disabled":true,"rental_uris":{"android":"levelo://app?vid=0af6ce70-a73d-4e15-ae66-afdf903dbe27","ios":"levelo://app?vid=0af6ce70-a73d-4e15-ae66-afdf903dbe27"},"vehicle_type_id":"4","last_reported":1739416400,"current_range_meters":6400,"station_id":"ce4bhgh2rcd13ifvqfb0","pricing_plan_id":"cebpf4jnsgd1na2vs0mg"},{"bike_id":"d8981250-8625-4c10-aed1-00e88c58cfab","system_id":"levelo_inurba_marseille","lat":43.30452,"lon":5.37908,"is_reserved":false,"is_disabled":false,"rental_uris":{"android":"levelo://app?vid=d8981250-8625-4c10-aed1-00e88c58cfab","ios":"levelo://app?vid=d8981250-8625-4c10-aed1-00e88c58cfab"},"vehicle_type_id":"4","last_reported":1739416400,"current_range_meters":38800,"station_id":"ce4bgup2rcd13ifvqcn0","pricing_plan_id":"cebpf4jnsgd1na2vs0mg"},{"bike_id":"60923f03-cd8c-4bea-9d11-b983eb3ea13e","system_id":"levelo_inurba_marseille","lat":43.28457,"lon":5.35886,"is_reserved":false,"is_disabled":false,"rental_uris":{"android":"levelo://app?vid=60923f03-cd8c-4bea-9d11-b983eb3ea13e","ios":"levelo://app?vid=60923f03-cd8c-4bea-9d11-b983eb3ea13e"},"vehicle_type_id":"4","last_reported":1739416400,"current_range_meters":8000,"station_id":"ce4bhah2rcd13ifvqei0","pricing_plan_id":"cebpf4jnsgd1na2vs0mg"},{"bike_id":"8626de95-6231-4d7a-af5a-b0a2d3ce1819","system_id":"levelo_inurba_marseille","lat":43.264984,"lon":5.39546,"is_reserved":false,"is_disabled":false,"rental_uris":{"android":"levelo://app?vid=8626de95-6231-4d7a-af5a-b0a2d3ce1819","ios":"levelo://app?vid=8626de95-6231-4d7a-af5a-b0a2d3ce1819"},"vehicle_type_id":"4","last_reported":1739416400,"current_range_meters":35600,"station_id":"ce4bhi12rcd13ifvqfq0","pricing_plan_id":"cebpf4jnsgd1na2vs0mg"},{"bike_id":"c7cd5159-81f5-4ce5-b57a-694f486e5871","system_id":"levelo_inurba_marseille","lat":43.311738,"lon":5.387039,"is_reserved":false,"is_disabled":false,"rental_uris":{"android":"levelo://app?vid=c7cd5159-81f5-4ce5-b57a-694f486e5871","ios":"levelo://app?vid=c7cd5159-81f5-4ce5-b57a-694f486e5871"},"vehicle_type_id":"4","last_reported":1739416400,"current_range_meters":38800,"station_id":"ce4bgv12rcd13ifvqcp0","pricing_plan_id":"cebpf4jnsgd1na2vs0mg"},{"bike_id":"95238438-aee1-472d-8c03-6f5da0f062d1","system_id":"levelo_inurba_marseille","lat":43.31354,"lon":5.36728,"is_reserved":false,"is_disabled":false,"rental_uris":{"android":"levelo://app?vid=95238438-aee1-472d-8c03-6f5da0f062d1","ios":"levelo://app?vid=95238438-aee1-472d-8c03-6f5da0f062d1"},"vehicle_type_id":"4","last_reported":1739416400,"current_range_meters":35600,"station_id":"ce4bgr92rcd13ifvqc6g","pricing_plan_id":"cebpf4jnsgd1na2vs0mg"},{"bike_id":"10efc08b-72f2-4be3-b832-44bd8ddd8d9e","system_id":"levelo_inurba_marseille","lat":43.24674,"lon":5.38157,"is_reserved":false,"is_disabled":false,"rental_uris":{"android":"levelo://app?vid=10efc08b-72f2-4be3-b832-44bd8ddd8d9e","ios":"levelo://app?vid=10efc08b-72f2-4be3-b832-44bd8ddd8d9e"},"vehicle_type_id":"4","last_reported":1739416400,"current_range_meters":11200,"station_id":"ce4bhih2rcd13ifvqfr0","pricing_plan_id":"cebpf4jnsgd1na2vs0mg"},{"bike_id":"e8b8ccca-84f8-4c50-900b-fa9a0a2d218e","system_id":"levelo_inurba_marseille","lat":43.27917,"lon":5.3801,"is_reserved":false,"is_disabled":false,"rental_uris":{"android":"levelo://app?vid=e8b8ccca-84f8-4c50-900b-fa9a0a2d218e","ios":"levelo://app?vid=e8b8ccca-84f8-4c50-900b-fa9a0a2d218e"},"vehicle_type_id":"4","last_reported":1739416400,"current_range_meters":38800,"station_id":"ce4bhf92rcd13ifvqf50","pricing_plan_id":"cebpf4jnsgd1na2vs0mg"},{"bike_id":"f2185b37-47f5-4e5a-a34a-6fff3a1d30ec","system_id":"levelo_inurba_marseille","lat":43.23961,"lon":5.36631,"is_reserved":false,"is_disabled":false,"rental_uris":{"android":"levelo://app?vid=f2185b37-47f5-4e5a-a34a-6fff3a1d30ec","ios":"levelo://app?vid=f2185b37-47f5-4e5a-a34a-6fff3a1d30ec"},"vehicle_type_id":"4","last_reported":1739416400,"current_range_meters":32400,"station_id":"ce4bhi12rcd13ifvqfp0","pricing_plan_id":"cebpf4jnsgd1na2vs0mg"},{"bike_id":"7705324e-dd3d-4a92-a560-9ff863a19382","system_id":"levelo_inurba_marseille","lat":43.30124,"lon":5.37427,"is_reserved":false,"is_disabled":false,"rental_uris":{"android":"levelo://app?vid=7705324e-dd3d-4a92-a560-9ff863a19382","ios":"levelo://app?vid=7705324e-dd3d-4a92-a560-9ff863a19382"},"vehicle_type_id":"4","last_reported":1739416400,"current_range_meters":38800,"station_id":"ce4bgs92rcd13ifvqcc0","pricing_plan_id":"cebpf4jnsgd1na2vs0mg"},{"bike_id":"4e3ec424-711f-41cd-a254-773fde6b9d74","system_id":"levelo_inurba_marseille","lat":43.28723,"lon":5.36075,"is_reserved":false,"is_disabled":false,"rental_uris":{"android":"levelo://app?vid=4e3ec424-711f-41cd-a254-773fde6b9d74","ios":"levelo://app?vid=4e3ec424-711f-41cd-a254-773fde6b9d74"},"vehicle_type_id":"4","last_reported":1739416400,"current_range_meters":10000,"station_id":"cki0cbj6b192h4jlfktg","pricing_plan_id":"cebpf4jnsgd1na2vs0mg"},{"bike_id":"52591901-7075-4154-8ec9-0dfca05a1446","system_id":"levelo_inurba_marseille","lat":43.32477,"lon":5.3656,"is_reserved":false,"is_disabled":false,"rental_uris":{"android":"levelo://app?vid=52591901-7075-4154-8ec9-0dfca05a1446","ios":"levelo://app?vid=52591901-7075-4154-8ec9-0dfca05a1446"},"vehicle_type_id":"4","last_reported":1739416400,"current_range_meters":39200,"station_id":"ce4bhs12rcd13ifvqhvg","pricing_plan_id":"cebpf4jnsgd1na2vs0mg"},{"bike_id":"3661bdb9-5fee-450a-923e-1549e8560ef0","system_id":"levelo_inurba_marseille","lat":43.31274,"lon":5.40167,"is_reserved":false,"is_disabled":false,"rental_uris":{"android":"levelo://app?vid=3661bdb9-5fee-450a-923e-1549e8560ef0","ios":"levelo://app?vid=3661bdb9-5fee-450a-923e-1549e8560ef0"},"vehicle_type_id":"4","last_reported":1739416400,"current_range_meters":38800,"station_id":"ce4bh092rcd13ifvqd30","pricing_plan_id":"cebpf4jnsgd1na2vs0mg"},{"bike_id":"5a0ece6a-9834-4a9d-9004-e9f99b262c99","system_id":"levelo_inurba_marseille","lat":43.28944,"lon":5.36633,"is_reserved":false,"is_disabled":false,"rental_uris":{"android":"levelo://app?vid=5a0ece6a-9834-4a9d-9004-e9f99b262c99","ios":"levelo://app?vid=5a0ece6a-9834-4a9d-9004-e9f99b262c99"},"vehicle_type_id":"4","last_reported":1739416400,"current_range_meters":38800,"station_id":"ce4bhap2rcd13ifvqek0","pricing_plan_id":"cebpf4jnsgd1na2vs0mg"},{"bike_id":"ffe72486-5c26-4671-a4b2-3589518be5f5","system_id":"levelo_inurba_marseille","lat":43.30121,"lon":5.37435,"is_reserved":false,"is_disabled":false,"rental_uris":{"android":"levelo://app?vid=ffe72486-5c26-4671-a4b2-3589518be5f5","ios":"levelo://app?vid=ffe72486-5c26-4671-a4b2-3589518be5f5"},"vehicle_type_id":"4","last_reported":1739416400,"current_range_meters":32000,"station_id":"ce4bgs92rcd13ifvqcc0","pricing_plan_id":"cebpf4jnsgd1na2vs0mg"},