{"last_updated":1702753500,"ttl":30,"version":"2.2","data":{"bikes":[{"bike_id":"b446ea97-68c3-4b76-a3d0-a9a8c94cb963","system_id":"levelo_inurba_marseille","lat":43.313391,"lon":5.36706,"is_reserved":false,"is_disabled":false,"rental_uris":{"android":"levelo://app?vid=b446ea97-68c3-4b76-a3d0-a9a8c94cb963","ios":"levelo://app?vid=b446ea97-68c3-4b76-a3d0-a9a8c94cb963"},"vehicle_type_id":"4","last_reported":1702753500,"current_range_meters":11600,"station_id":"ce4bgr92rcd13ifvqc6g","pricing_plan_id":"free"},{"bike_id":"bb546dfe-d51d-457e-a4e0-e9a3020c8d00","system_id":"levelo_inurba_marseille","lat":43.312239,"lon":5.368562,"is_reserved":false,"is_disabled":false,"rental_uris":{"android":"levelo://app?vid=bb546dfe-d51d-457e-a4e0-e9a3020c8d00","ios":"levelo://app?vid=bb546dfe-d51d-457e-a4e0-e9a3020c8d00"},"vehicle_type_id":"4","last_reported":1702753500,"current_range_meters":24800,"station_id":"ce4bgl92rcd13ifvqbq0","pricing_plan_id":"free"},{"bike_id":"fcc93ceb-e117-45e7-9e7d-f69e476e28da","system_id":"levelo_inurba_marseille","lat":43.312239,"lon":5.368562,"is_reserved":false,"is_disabled":false,"rental_uris":{"android":"levelo://app?vid=fcc93ceb-e117-45e7-9e7d-f69e476e28da","ios":"levelo://app?vid=fcc93ceb-e117-45e7-9e7d-f69e476e28da"},"vehicle_type_id":"4","last_reported":1702753500,"current_range_meters":0,"station_id":"ce4bgl92rcd13ifvqbq0","pricing_plan_id":"free"},{"bike_id":"873874ef-fbf6-4b69-bc87-7d7abf9a487d","system_id":"levelo_inurba_marseille","lat":43.309076,"lon":5.368465,"is_reserved":false,"is_disabled":false,"rental_uris":{"android":"levelo://app?vid=873874ef-fbf6-4b69-bc87-7d7abf9a487d","ios":"levelo://app?vid=873874ef-fbf6-4b69-bc87-7d7abf9a487d"},"vehicle_type_id":"4","last_reported":1702753500,"current_range_meters":29600,"station_id":"ce4bgn92rcd13ifvqbvg","pricing_plan_id":"free"},{"bike_id":"a161f9ca-e8b1-4c13-9017-2e4a1213644a","system_id":"levelo_inurba_marseille","lat":43.314811,"lon":5.373103,"is_reserved":false,"is_disabled":false,"rental_uris":{"android":"levelo://app?vid=a161f9ca-e8b1-4c13-9017-2e4a1213644a","ios":"levelo://app?vid=a161f9ca-e8b1-4c13-9017-2e4a1213644a"},"vehicle_type_id":"4","last_reported":1702753500,"current_range_meters":14000,"station_id":"ce4bgt12rcd13ifvqcd0","pricing_plan_id":"free"},{"bike_id":"7fd1463a-e7b1-4fc3-b49e-29766eea832b","system_id":"levelo_inurba_marseille","lat":43.314811,"lon":5.373104,"is_reserved":false,"is_disabled":false,"rental_uris":{"android":"levelo://app?vid=7fd1463a-e7b1-4fc3-b49e-29766eea832b","ios":"levelo://app?vid=7fd1463a-e7b1-4fc3-b49e-29766eea832b"},"vehicle_type_id":"4","last_reported":1702753500,"current_range_meters":13600,"station_id":"ce4bgt12rcd13ifvqcd0","pricing_plan_id":"free"},{"bike_id":"3f8b821f-e430-4a35-bf14-f8b6e777ea11","system_id":"levelo_inurba_marseille","lat":43.313939,"lon":5.375306,"is_reserved":false,"is_disabled":false,"rental_uris":{"android":"levelo://app?vid=3f8b821f-e430-4a35-bf14-f8b6e777ea11","ios":"levelo://app?vid=3f8b821f-e430-4a35-bf14-f8b6e777ea11"},"vehicle_type_id":"4","last_reported":1702753500,"current_range_meters":0,"station_id":"","pricing_plan_id":"free"},{"bike_id":"622b851b-4d7c-4d97-bfb6-3b4102102a6b","system_id":"levelo_inurba_marseille","lat":43.305714,"lon":5.365633,"is_reserved":false,"is_disabled":false,"rental_uris":{"android":"levelo://app?vid=622b851b-4d7c-4d97-bfb6-3b4102102a6b","ios":"levelo://app?vid=622b851b-4d7c-4d97-bfb6-3b4102102a6b"},"vehicle_type_id":"4","last_reported":1702753500,"current_range_meters":15200,"station_id":"ce4bgs12rcd13ifvqcag","pricing_plan_id":"free"},{"bike_id":"7cd19db3-ea79-439c-ad7d-f77455491cc9","system_id":"levelo_inurba_marseille","lat":43.305714,"lon":5.365633,"is_reserved":false,"is_disabled":false,"rental_uris":{"android":"levelo://app?vid=7cd19db3-ea79-439c-ad7d-f77455491cc9","ios":"levelo://app?vid=7cd19db3-ea79-439c-ad7d-f77455491cc9"},"vehicle_type_id":"4","last_reported":1702753500,"current_range_meters":17200,"station_id":"ce4bgs12rcd13ifvqcag","pricing_plan_id":"free"},{"bike_id":"955e4ab2-16e5-44e8-a986-a2f50ff96c06","system_id":"levelo_inurba_marseille","lat":43.305382,"lon":5.365389,"is_reserved":false,"is_disabled":false,"rental_uris":{"android":"levelo://app?vid=955e4ab2-16e5-44e8-a986-a2f50ff96c06","ios":"levelo://app?vid=955e4ab2-16e5-44e8-a986-a2f50ff96c06"},"vehicle_type_id":"4","last_reported":1702753500,"current_range_meters":14400,"station_id":"","pricing_plan_id":"free"},{"bike_id":"58750522-7536-408b-9d49-4ddc2aca7622","system_id":"levelo_inurba_marseille","lat":43.30529,"lon":5.36717,"is_reserved":false,"is_disabled":false,"rental_uris":{"android":"levelo://app?vid=58750522-7536-408b-9d49-4ddc2aca7622","ios":"levelo://app?vid=58750522-7536-408b-9d49-4ddc2aca7622"},"vehicle_type_id":"4","last_reported":1702753500,"current_range_meters":9600,"station_id":"ce4bgrp2rcd13ifvqc9g","pricing_plan_id":"free"},{"bike_id":"8c9c16c8-515a-4bf4-87ed-ff01c875ca1d","system_id":"levelo_inurba_marseille","lat":43.301939,"lon":5.366286,"is_reserved":false,"is_disabled":false,"rental_uris":{"android":"levelo://app?vid=8c9c16c8-515a-4bf4-87ed-ff01c875ca1d","ios":"levelo://app?vid=8c9c16c8-515a-4bf4-87ed-ff01c875ca1d"},"vehicle_type_id":"4","last_reported":1702753500,"current_range_meters":4400,"station_id":"ce4bgrh2rcd13ifvqc8g","pricing_plan_id":"free"},{"bike_id":"42d697b7-d53b-4cfb-91bd-aca5973f613a","system_id":"levelo_inurba_marseille","lat":43.301939,"lon":5.366286,"is_reserved":false,"is_disabled":false,"rental_uris":{"android":"levelo://app?vid=42d697b7-d53b-4cfb-91bd-aca5973f613a","ios":"levelo://app?vid=42d697b7-d53b-4cfb-91bd-aca5973f613a"},"vehicle_type_id":"4","last_reported":1702753500,"current_range_meters":5200,"station_id":"ce4bgrh2rcd13ifvqc8g","pricing_plan_id":"free"},{"bike_id":"52fe12d3-0543-458a-9652-7e8bf136670b","system_id":"levelo_inurba_marseille","lat":43.308053,"lon":5.38145,"is_reserved":false,"is_disabled":false,"rental_uris":{"android":"levelo://app?vid=52fe12d3-0543-458a-9652-7e8bf136670b","ios":"levelo://app?vid=52fe12d3-0543-458a-9652-7e8bf136670b"},"vehicle_type_id":"4","last_reported":1702753500,"current_range_meters":0,"station_id":"ce4bgt12rcd13ifvqce0","pricing_plan_id":"free"},{"bike_id":"2fe94b49-3aa9-40f5-bda9-87dee4a08a06","system_id":"levelo_inurba_marseille","lat":43.30801,"lon":5.38143,"is_reserved":false,"is_disabled":false,"rental_uris":{"android":"levelo://app?vid=2fe94b49-3aa9-40f5-bda9-87dee4a08a06","ios":"levelo://app?vid=2fe94b49-3aa9-40f5-bda9-87dee4a08a06"},"vehicle_type_id":"4","last_reported":1702753500,"current_range_meters":26400,"station_id":"ce4bgt12rcd13ifvqce0","pricing_plan_id":"free"},{"bike_id":"683322a1-756b-4194-9cbd-cff6bad310d0","system_id":"levelo_inurba_marseille","lat":43.308012,"lon":5.381511,"is_reserved":false,"is_disabled":false,"rental_uris":{"android":"levelo://app?vid=683322a1-756b-4194-9cbd-cff6bad310d0","ios":"levelo://app?vid=683322a1-756b-4194-9cbd-cff6bad310d0"},"vehicle_type_id":"4","last_reported":1702753500,"current_range_meters":6400,"station_id":"ce4bgt12rcd13ifvqce0","pricing_plan_id":"free"},{"bike_id":"bd0db7a9-eac0-4f54-92c2-dd7c367587b7","system_id":"levelo_inurba_marseille","lat":43.308012,"lon":5.381511,"is_reserved":false,"is_disabled":false,"rental_uris":{"android":"levelo://app?vid=bd0db7a9-eac0-4f54-92c2-dd7c367587b7","ios":"levelo://app?vid=bd0db7a9-eac0-4f54-92c2-dd7c367587b7"},"vehicle_type_id":"4","last_reported":1702753500,"current_range_meters":5600,"station_id":"ce4bgt12rcd13ifvqce0","pricing_plan_id":"free"},{"bike_id":"a7c54412-499c-4256-b44a-6a19b66d6375","system_id":"levelo_inurba_marseille","lat":43.304606,"lon":5.379026,"is_reserved":false,"is_disabled":false,"rental_uris":{"android":"levelo://app?vid=a7c54412-499c-4256-b44a-6a19b66d6375","ios":"levelo://app?vid=a7c54412-499c-4256-b44a-6a19b66d6375"},"vehicle_type_id":"4","last_reported":1702753500,"current_range_meters":2400,"station_id":"ce4bgup2rcd13ifvqcn0","pricing_plan_id":"free"},{"bike_id":"44c8b40c-0afe-48d3-8480-d4dfd6b81af3","system_id":"levelo_inurba_marseille","lat":43.324783,"lon":5.365607,"is_reserved":false,"is_disabled":false,"rental_uris":{"android":"levelo://app?vid=44c8b40c-0afe-48d3-8480-d4dfd6b81af3","ios":"levelo://app?vid=44c8b40c-0afe-48d3-8480-d4dfd6b81af3"},"vehicle_type_id":"4","last_reported":1702753500,"current_range_meters":25600,"station_id":"ce4bhs12rcd13ifvqhvg","pricing_plan_id":"free"},{"bike_id":"dfe62985-6f65-471f-8bdb-4e96693a7937","system_id":"levelo_inurba_marseille","lat":43.324771,"lon":5.36557,"is_reserved":false,"is_disabled":false,"rental_uris":{"android":"levelo://app?vid=dfe62985-6f65-471f-8bdb-4e96693a7937","ios":"levelo://app?vid=dfe62985-6f65-471f-8bdb-4e96693a7937"},"vehicle_type_id":"4","last_reported":1702753500,"current_range_meters":16800,"station_id":"ce4bhs12rcd13ifvqhvg","pricing_plan_id":"free"},{"bike_id":"88f7ea2a-62f7-4a88-9e9d-900940b4d7e5","system_id":"levelo_inurba_marseille","lat":43.324771,"lon":5.36557,"is_reserved":false,"is_disabled":false,"rental_uris":{"android":"levelo://app?vid=88f7ea2a-62f7-4a88-9e9d-900940b4d7e5","ios":"levelo://app?vid=88f7ea2a-62f7-4a88-9e9d-900940b4d7e5"},"vehicle_type_id":"4","last_reported":1702753500,"current_range_meters":14000,"station_id":"ce4bhs12rcd13ifvqhvg","pricing_plan_id":"free"},{"bike_id":"aed4fc5d-3367-4ad5-bc22-2c913ed30e91","system_id":"levelo_inurba_marseille","lat":43.302784,"lon":5.377158,"is_reserved":false,"is_disabled":false,"rental_uris":{"android":"levelo://app?vid=aed4fc5d-3367-4ad5-bc22-2c913ed30e91","ios":"levelo://app?vid=aed4fc5d-3367-4ad5-bc22-2c913ed30e91"},"vehicle_type_id":"4","last_reported":1702753500,"current_range_meters":7600,"station_id":"ce4bguh2rcd13ifvqcj0","pricing_plan_id":"free"},{"bike_id":"1d7a7aa0-4e0c-47c4-ac2a-74dccf9aaccb","system_id":"levelo_inurba_marseille","lat":43.301429,"lon":5.37413,"is_reserved":false,"is_disabled":false,"rental_uris":{"android":"levelo://app?vid=1d7a7aa0-4e0c-47c4-ac2a-74dccf9aaccb","ios":"levelo://app?vid=1d7a7aa0-4e0c-47c4-ac2a-74dccf9aaccb"},"vehicle_type_id":"4","last_reported":1702753500,"current_range_meters":6800,"station_id":"ce4bgs92rcd13ifvqcc0","pricing_plan_id":"free"},{"bike_id":"dd62cb3a-3f08-44cf-8561-0c89ff17ac35","system_id":"levelo_inurba_marseille","lat":43.31359,"lon":5.38459,"is_reserved":false,"is_disabled":false,"rental_uris":{"android":"levelo://app?vid=dd62cb3a-3f08-44cf-8561-0c89ff17ac35","ios":"levelo://app?vid=dd62cb3a-3f08-44cf-8561-0c89ff17ac35"},"vehicle_type_id":"4","last_reported":1702753500,"current_range_meters":20000,"station_id":"ce4bgt92rcd13ifvqcf0","pricing_plan_id":"free"},{"bike_id":"5ded10ce-c8ac-4cc5-84a3-31a5f3c8b305","system_id":"levelo_inurba_marseille","lat":43.299724,"lon":5.371829,"is_reserved":false,"is_disabled":false,"rental_uris":{"android":"levelo://app?vid=5ded10ce-c8ac-4cc5-84a3-31a5f3c8b305","ios":"levelo://app?vid=5ded10ce-c8ac-4cc5-84a3-31a5f3c8b305"},"vehicle_type_id":"4","last_reported":1702753500,"current_range_meters":7200,"station_id":"ce4bgr92rcd13ifvqc7g","pricing_plan_id":"free"},{"bike_id":"9304263a-e5a6-403a-bb08-aa98eb346fb6","system_id":"levelo_inurba_marseille","lat":43.299222,"lon":5.365554,"is_reserved":false,"is_disabled":false,"rental_uris":{"android":"levelo://app?vid=9304263a-e5a6-403a-bb08-aa98eb346fb6","ios":"levelo://app?vid=9304263a-e5a6-403a-bb08-aa98eb346fb6"},"vehicle_type_id":"4","last_reported":1702753500,"current_range_meters":4400,"station_id":"ce4bgm92rcd13ifvqbr0","pricing_plan_id":"free"},{"bike_id":"1b3518bc-1e5e-488c-8afb-a12909879389","system_id":"levelo_inurba_marseille","lat":43.30531,"lon":5.38418,"is_reserved":false,"is_disabled":false,"rental_uris":{"android":"levelo://app?vid=1b3518bc-1e5e-488c-8afb-a12909879389","ios":"levelo://app?vid=1b3518bc-1e5e-488c-8afb-a12909879389"},"vehicle_type_id":"4","last_reported":1702753500,"current_range_meters":14400,"station_id":"ce4bgg92rcd13ifvqb30","pricing_plan_id":"free"},{"bike_id":"c4e77394-aef9-4077-b745-e99148625344","system_id":"levelo_inurba_marseille","lat":43.32733,"lon":5.36707,"is_reserved":false,"is_disabled":false,"rental_uris":{"android":"levelo://app?vid=c4e77394-aef9-4077-b745-e99148625344","ios":"levelo://app?vid=c4e77394-aef9-4077-b745-e99148625344"},"vehicle_type_id":"4","last_reported":1702753500,"current_range_meters":21600,"station_id":"","pricing_plan_id":"free"},{"bike_id":"bcdabe37-086f-4e6a-a6c7-864d9093887e","system_id":"levelo_inurba_marseille","lat":43.305364,"lon":5.384119,"is_reserved":false,"is_disabled":false,"rental_uris":{"android":"levelo://app?vid=bcdabe37-086f-4e6a-a6c7-864d9093887e","ios":"levelo://app?vid=bcdabe37-086f-4e6a-a6c7-864d9093887e"},"vehicle_type_id":"4","last_reported":1702753500,"current_range_meters":0,"station_id":"ce4bgg92rcd13ifvqb30","pricing_plan_id":"free"},{"bike_id":"ec9fb461-ceb3-4c56-afd3-19d6c4402d83","system_id":"levelo_inurba_marseille","lat":43.305364,"lon":5.384119,"is_reserved":false,"is_disabled":false,"rental_uris":{"android":"levelo://app?vid=ec9fb461-ceb3-4c56-afd3-19d6c4402d83","ios":"levelo://app?vid=ec9fb461-ceb3-4c56-afd3-19d6c4402d83"},"vehicle_type_id":"4","last_reported":1702753500,"current_range_meters":18800,"station_id":"ce4bgg92rcd13ifvqb30","pricing_plan_id":"free"},{"bike_id":"819cb438-2e9c-4e0b-902b-5e19ef554d5c","system_id":"levelo_inurba_marseille","lat":43.305502,"lon":5.384494,"is_reserved":false,"is_disabled":false,"rental_uris":{"android":"levelo://app?vid=819cb438-2e9c-4e0b-902b-5e19ef554d5c","ios":"levelo://app?vid=819cb438-2e9c-4e0b-902b-5e19ef554d5c"},"vehicle_type_id":"4","last_reported":1702753500,"current_range_meters":15200,"station_id":"ce4bgg92rcd13ifvqb30","pricing_plan_id":"free"},{"bike_id":"0658637c-10b9-40c1-86a7-78d5e933179a","system_id":"levelo_inurba_marseille","lat":43.322872,"lon":5.382756,"is_reserved":false,"is_disabled":false,"rental_uris":{"android":"levelo://app?vid=0658637c-10b9-40c1-86a7-78d5e933179a","ios":"levelo://app?vid=0658637c-10b9-40c1-86a7-78d5e933179a"},"vehicle_type_id":"4","last_reported":1702753500,"current_range_meters":2800,"station_id":"ce4bhr12rcd13ifvqhqg","pricing_plan_id":"free"},{"bike_id":"0317716b-b225-4fe1-b41f-9cca65b7d464","system_id":"levelo_inurba_marseille","lat":43.298433,"lon":5.362774,"is_reserved":false,"is_disabled":false,"rental_uris":{"android":"levelo://app?vid=0317716b-b225-4fe1-b41f-9cca65b7d464","ios":"levelo://app?vid=0317716b-b225-4fe1-b41f-9cca65b7d464"},"vehicle_type_id":"4","last_reported":1702753500,"current_range_meters":0,"station_id":"ce4bgpp2rcd13ifvqc3g","pricing_plan_id":"free"},{"bike_id":"a6a40609-fcbf-4a81-ad30-d3348257e8a2","system_id":"levelo_inurba_marseille","lat":43.29573,"lon":5.367355,"is_reserved":false,"is_disabled":false,"rental_uris":{"android":"levelo://app?vid=a6a40609-fcbf-4a81-ad30-d3348257e8a2","ios":"levelo://app?vid=a6a40609-fcbf-4a81-ad30-d3348257e8a2"},"vehicle_type_id":"4","last_reported":1702753500,"current_range_meters":27600,"station_id":"ce4bgph2rcd13ifvqc2g","pricing_plan_id":"free"},{"bike_id":"b00f56fe-e86b-453b-b8e7-19b4382d27d7","system_id":"levelo_inurba_marseille","lat":43.29573,"lon":5.367355,"is_reserved":false,"is_disabled":false,"rental_uris":{"android":"levelo://app?vid=b00f56fe-e86b-453b-b8e7-19b4382d27d7","ios":"levelo://app?vid=b00f56fe-e86b-453b-b8e7-19b4382d27d7"},"vehicle_type_id":"4","last_reported":1702753500,"current_range_meters":5600,"station_id":"ce4bgph2rcd13ifvqc2g","pricing_plan_id":"free"},{"bike_id":"2e4327a4-5c68-42c9-a75e-2a5f9b2ba77b","system_id":"levelo_inurba_marseille","lat":43.317557,"lon":5.390173,"is_reserved":false,"is_disabled":false,"rental_uris":{"android":"levelo://app?vid=2e4327a4-5c68-42c9-a75e-2a5f9b2ba77b","ios":"levelo://app?vid=2e4327a4-5c68-42c9-a75e-2a5f9b2ba77b"},"vehicle_type_id":"4","last_reported":1702753500,"current_range_meters":8800,"station_id":"ce4bhqp2rcd13ifvqhng","pricing_plan_id":"free"},{"bike_id":"4fe68cb0-ef05-4f1c-919b-7a2b0e3c1f89","system_id":"levelo_inurba_marseille","lat":43.317557,"lon":5.390173,"is_reserved":false,"is_disabled":false,"rental_uris":{"android":"levelo://app?vid=4fe68cb0-ef05-4f1c-919b-7a2b0e3c1f89","ios":"levelo://app?vid=4fe68cb0-ef05-4f1c-919b-7a2b0e3c1f89"},"vehicle_type_id":"4","last_reported":1702753500,"current_range_meters":29600,"station_id":"ce4bhqp2rcd13ifvqhng","pricing_plan_id":"free"},{"bike_id":"689941d4-9baa-45a7-9a05-8f9b441b60ae","system_id":"levelo_inurba_marseille","lat":43.298,"lon":5.38095,"is_reserved":false,"is_disabled":false,"rental_uris":{"android":"levelo://app?vid=689941d4-9baa-45a7-9a05-8f9b441b60ae","ios":"levelo://app?vid=689941d4-9baa-45a7-9a05-8f9b441b60ae"},"vehicle_type_id":"4","last_reported":1702753500,"current_range_meters":0,"station_id":"","pricing_plan_id":"free"},{"bike_id":"da477938-aeca-49da-be02-f664cf1c78f8","system_id":"levelo_inurba_marseille","lat":43.29579,"lon":5.37508,"is_reserved":false,"is_disabled":false,"rental_uris":{"android":"levelo://app?vid=da477938-aeca-49da-be02-f664cf1c78f8","ios":"levelo://app?vid=da477938-aeca-49da-be02-f664cf1c78f8"},"vehicle_type_id":"4","last_reported":1702753500,"current_range_meters":0,"station_id":"ce4bgh92rcd13ifvqb50","pricing_plan_id":"free"},{"bike_id":"cbbe1c07-e052-407f-b23e-991724a44bc3","system_id":"levelo_inurba_marseille","lat":43.304274,"lon":5.388873,"is_reserved":false,"is_disabled":false,"rental_uris":{"android":"levelo://app?vid=cbbe1c07-e052-407f-b23e-991724a44bc3","ios":"levelo://app?vid=cbbe1c07-e052-407f-b23e-991724a44bc3"},"vehicle_type_id":"4","last_reported":1702753500,"current_range_meters":0,"station_id":"ce4bgk12rcd13ifvqbi0","pricing_plan_id":"free"},{"bike_id":"770df555-cda8-496e-97c0-c79f4341383d","system_id":"levelo_inurba_marseille","lat":43.299707,"lon":5.384859,"is_reserved":false,"is_disabled":false,"rental_uris":{"android":"levelo://app?vid=770df555-cda8-496e-97c0-c79f4341383d","ios":"levelo://app?vid=770df555-cda8-496e-97c0-c79f4341383d"},"vehicle_type_id":"4","last_reported":1702753500,"current_range_meters":16000,"station_id":"ce4bgj92rcd13ifvqbd0","pricing_plan_id":"free"},{"bike_id":"dcd93e18-0233-4541-b13a-be582aa8abac","system_id":"levelo_inurba_marseille","lat":43.299717,"lon":5.384845,"is_reserved":false,"is_disabled":false,"rental_uris":{"android":"levelo://app?vid=dcd93e18-0233-4541-b13a-be582aa8abac","ios":"levelo://app?vid=dcd93e18-0233-4541-b13a-be582aa8abac"},"vehicle_type_id":"4","last_reported":1702753500,"current_range_meters":12000,"station_id":"ce4bgj92rcd13ifvqbd0","pricing_plan_id":"free"},{"bike_id":"5bfb89e9-a085-4011-b8a9-3bbd540e4073","system_id":"levelo_inurba_marseille","lat":43.299724,"lon":5.384848,"is_reserved":false,"is_disabled":false,"rental_uris":{"android":"levelo://app?vid=5bfb89e9-a085-4011-b8a9-3bbd540e4073","ios":"levelo://app?vid=5bfb89e9-a085-4011-b8a9-3bbd540e4073"},"vehicle_type_id":"4","last_reported":1702753500,"current_range_meters":0,"station_id":"ce4bgj92rcd13ifvqbd0","pricing_plan_id":"free"},{"bike_id":"fabbc543-bd76-4562-a2e2-bb440e06507f","system_id":"levelo_inurba_marseille","lat":43.299383,"lon":5.3852,"is_reserved":false,"is_disabled":false,"rental_uris":{"android":"levelo://app?vid=fabbc543-bd76-4562-a2e2-bb440e06507f","ios":"levelo://app?vid=fabbc543-bd76-4562-a2e2-bb440e06507f"},"vehicle_type_id":"4","last_reported":1702753500,"current_range_meters":0,"station_id":"ce4bgj92rcd13ifvqbd0","pricing_plan_id":"free"},{"bike_id":"2d339ccb-9fe7-4132-b39e-b9bd4a932749","system_id":"levelo_inurba_marseille","lat":43.32358,"lon":5.3887,"is_reserved":false,"is_disabled":false,"rental_uris":{"android":"levelo://app?vid=2d339ccb-9fe7-4132-b39e-b9bd4a932749","ios":"levelo://app?vid=2d339ccb-9fe7-4132-b39e-b9bd4a932749"},"vehicle_type_id":"4","last_reported":1702753500,"current_range_meters":15200,"station_id":"ce4bhqp2rcd13ifvqhog","pricing_plan_id":"free"},{"bike_id":"31954c81-37ea-46a3-a087-7d824ac76191","system_id":"levelo_inurba_marseille","lat":43.32361,"lon":5.38871,"is_reserved":false,"is_disabled":false,"rental_uris":{"android":"levelo://app?vid=31954c81-37ea-46a3-a087-7d824ac76191","ios":"levelo://app?vid=31954c81-37ea-46a3-a087-7d824ac76191"},"vehicle_type_id":"4","last_reported":1702753500,"current_range_meters":6000,"station_id":"ce4bhqp2rcd13ifvqhog","pricing_plan_id":"free"},{"bike_id":"c4499257-e1b4-4958-b945-6490224ab63c","system_id":"levelo_inurba_marseille","lat":43.293024,"lon":5.371629,"is_reserved":false,"is_disabled":false,"rental_uris":{"android":"levelo://app?vid=c4499257-e1b4-4958-b945-6490224ab63c","ios":"levelo://app?vid=c4499257-e1b4-4958-b945-6490224ab63c"},"vehicle_type_id":"4","last_reported":1702753500,"current_range_meters":12400,"station_id":"","pricing_plan_id":"free"},{"bike_id":"d33d5133-12c1-4c33-a1cb-ec9209fe24cc","system_id":"levelo_inurba_marseille","lat":43.293259,"lon":5.371586,"is_reserved":false,"is_disabled":false,"rental_uris":{"android":"levelo://app?vid=d33d5133-12c1-4c33-a1cb-ec9209fe24cc","ios":"levelo://app?vid=d33d5133-12c1-4c33-a1cb-ec9209fe24cc"},"vehicle_type_id":"4","last_reported":1702753500,"current_range_meters":17200,"station_id":"ce4bgh92rcd13ifvqb40","pricing_plan_id":"free"},{"bike_id":"569c2ac3-a02f-429b-ba12-8f37b0499548","system_id":"levelo_inurba_marseille","lat":43.2927,"lon":5.36842,"is_reserved":false,"is_disabled":false,"rental_uris":{"android":"levelo://app?vid=569c2ac3-a02f-429b-ba12-8f37b0499548","ios":"levelo://app?vid=569c2ac3-a02f-429b-ba12-8f37b0499548"},"vehicle_type_id":"4","last_reported":1702753500,"current_range_meters":12400,"station_id":"ce4bhbp2rcd13ifvqesg","pricing_plan_id":"free"},{"bike_id":"ce0b6f16-8989-4188-8289-44b0e23fd660","system_id":"levelo_inurba_marseille","lat":43.293009,"lon":5.374584,"is_reserved":false,"is_disabled":false,"rental_uris":{"android":"levelo://app?vid=ce0b6f16-8989-4188-8289-44b0e23fd660","ios":"levelo://app?vid=ce0b6f16-8989-4188-8289-44b0e23fd660"},"vehicle_type_id":"4","last_reported":1702753500,"current_range_meters":2800,"station_id":"ce4bgi12rcd13ifvqb70","pricing_plan_id":"free"},{"bike_id":"2b559067-5b5d-4cac-8c13-15d5416574cb","system_id":"levelo_inurba_marseille","lat":43.303002,"lon":5.392142,"is_reserved":false,"is_disabled":false,"rental_uris":{"android":"levelo://app?vid=2b559067-5b5d-4cac-8c13-15d5416574cb","ios":"levelo://app?vid=2b559067-5b5d-4cac-8c13-15d5416574cb"},"vehicle_type_id":"4","last_reported":1702753500,"current_range_meters":0,"station_id":"ce4bgkh2rcd13ifvqbk0","pricing_plan_id":"free"},{"bike_id":"18368cf9-74f9-4fb1-b72b-a9cc3e415235","system_id":"levelo_inurba_marseille","lat":43.303002,"lon":5.392142,"is_reserved":false,"is_disabled":false,"rental_uris":{"android":"levelo://app?vid=18368cf9-74f9-4fb1-b72b-a9cc3e415235","ios":"levelo://app?vid=18368cf9-74f9-4fb1-b72b-a9cc3e415235"},"vehicle_type_id":"4","last_reported":1702753500,"current_range_meters":0,"station_id":"ce4bgkh2rcd13ifvqbk0","pricing_plan_id":"free"},{"bike_id":"147aee94-f921-4bda-94ce-d85b8c157d85","system_id":"levelo_inurba_marseille","lat":43.30085,"lon":5.390856,"is_reserved":false,"is_disabled":false,"rental_uris":{"android":"levelo://app?vid=147aee94-f921-4bda-94ce-d85b8c157d85","ios":"levelo://app?vid=147aee94-f921-4bda-94ce-d85b8c157d85"},"vehicle_type_id":"4","last_reported":1702753500,"current_range_meters":2400,"station_id":"ce4bh192rcd13ifvqdb0","pricing_plan_id":"free"},{"bike_id":"39e8898d-84bf-456d-b359-ba73b5eacf10","system_id":"levelo_inurba_marseille","lat":43.30085,"lon":5.390856,"is_reserved":false,"is_disabled":false,"rental_uris":{"android":"levelo://app?vid=39e8898d-84bf-456d-b359-ba73b5eacf10","ios":"levelo://app?vid=39e8898d-84bf-456d-b359-ba73b5eacf10"},"vehicle_type_id":"4","last_reported":1702753500,"current_range_meters":28000,"station_id":"ce4bh192rcd13ifvqdb0","pricing_plan_id":"free"},{"bike_id":"309c51f6-c02c-4e0f-9ad2-760d02b9271f","system_id":"levelo_inurba_marseille","lat":43.2917,"lon":5.3716,"is_reserved":false,"is_disabled":false,"rental_uris":{"android":"levelo://app?vid=309c51f6-c02c-4e0f-9ad2-760d02b9271f","ios":"levelo://app?vid=309c51f6-c02c-4e0f-9ad2-760d02b9271f"},"vehicle_type_id":"4","last_reported":1702753500,"current_range_meters":0,"station_id":"ce4bha92rcd13ifvqeh0","pricing_plan_id":"free"},{"bike_id":"54521fa5-ca51-484e-8e80-a6651b78538c","system_id":"levelo_inurba_marseille","lat":43.291994,"lon":5.357886,"is_reserved":false,"is_disabled":false,"rental_uris":{"android":"levelo://app?vid=54521fa5-ca51-484e-8e80-a6651b78538c","ios":"levelo://app?vid=54521fa5-ca51-484e-8e80-a6651b78538c"},"vehicle_type_id":"4","last_reported":1702753500,"current_range_meters":0,"station_id":"ce4bhb12rcd13ifvqel0","pricing_plan_id":"free"},{"bike_id":"3167fb69-218e-4cb4-8d3d-8d6765fb6a8d","system_id":"levelo_inurba_marseille","lat":43.309047,"lon":5.396551,"is_reserved":false,"is_disabled":false,"rental_uris":{"android":"levelo://app?vid=3167fb69-218e-4cb4-8d3d-8d6765fb6a8d","ios":"levelo://app?vid=3167fb69-218e-4cb4-8d3d-8d6765fb6a8d"},"vehicle_type_id":"4","last_reported":1702753500,"current_range_meters":2800,"station_id":"ce4bh012rcd13ifvqcv0","pricing_plan_id":"free"},{"bike_id":"90c9becb-dd81-4f30-9864-b565ebf83206","system_id":"levelo_inurba_marseille","lat":43.309038,"lon":5.396546,"is_reserved":false,"is_disabled":false,"rental_uris":{"android":"levelo://app?vid=90c9becb-dd81-4f30-9864-b565ebf83206","ios":"levelo://app?vid=90c9becb-dd81-4f30-9864-b565ebf83206"},"vehicle_type_id":"4","last_reported":1702753500,"current_range_meters":12000,"station_id":"ce4bh012rcd13ifvqcv0","pricing_plan_id":"free"},{"bike_id":"a465c7d4-1183-44ca-9e96-534ec460dc79","system_id":"levelo_inurba_marseille","lat":43.29529,"lon":5.385581,"is_reserved":false,"is_disabled":false,"rental_uris":{"android":"levelo://app?vid=a465c7d4-1183-44ca-9e96-534ec460dc79","ios":"levelo://app?vid=a465c7d4-1183-44ca-9e96-534ec460dc79"},"vehicle_type_id":"4","last_reported":1702753500,"current_range_meters":400,"station_id":"ce4bgih2rcd13ifvqba0","pricing_plan_id":"free"},{"bike_id":"42fe8652-c3ec-4d37-a20e-f454bacf0d93","system_id":"levelo_inurba_marseille","lat":43.29529,"lon":5.385581,"is_reserved":false,"is_disabled":false,"rental_uris":{"android":"levelo://app?vid=42fe8652-c3ec-4d37-a20e-f454bacf0d93","ios":"levelo://app?vid=42fe8652-c3ec-4d37-a20e-f454bacf0d93"},"vehicle_type_id":"4","last_reported":1702753500,"current_range_meters":21200,"station_id":"ce4bgih2rcd13ifvqba0","pricing_plan_id":"free"},{"bike_id":"ef8cc0f7-56b3-40ec-91d1-c42c859fe689","system_id":"levelo_inurba_marseille","lat":43.29529,"lon":5.385581,"is_reserved":false,"is_disabled":false,"rental_uris":{"android":"levelo://app?vid=ef8cc0f7-56b3-40ec-91d1-c42c859fe689","ios":"levelo://app?vid=ef8cc0f7-56b3-40ec-91d1-c42c859fe689"},"vehicle_type_id":"4","last_reported":1702753500,"current_range_meters":5200,"station_id":"ce4bgih2rcd13ifvqba0","pricing_plan_id":"free"},{"bike_id":"11655958-f068-4462-8ffd-5f3667af8c0f","system_id":"levelo_inurba_marseille","lat":43.29529,"lon":5.385581,"is_reserved":false,"is_disabled":false,"rental_uris":{"android":"levelo://app?vid=11655958-f068-4462-8ffd-5f3667af8c0f","ios":"levelo://app?vid=11655958-f068-4462-8ffd-5f3667af8c0f"},"vehicle_type_id":"4","last_reported":1702753500,"current_range_meters":14400,"station_id":"ce4bgih2rcd13ifvqba0","pricing_plan_id":"free"},{"bike_id":"5eefd149-e8e9-48a9-8aad-564ff4f95c62","system_id":"levelo_inurba_marseille","lat":43.290779,"lon":5.371482,"is_reserved":false,"is_disabled":false,"rental_uris":{"android":"levelo://app?vid=5eefd149-e8e9-48a9-8aad-564ff4f95c62","ios":"levelo://app?vid=5eefd149-e8e9-48a9-8aad-564ff4f95c62"},"vehicle_type_id":"4","last_reported":1702753500,"current_range_meters":14800,"station_id":"ce4bh5p2rcd13ifvqe4g","pricing_plan_id":"free"},{"bike_id":"c3dee460-2071-407b-ba11-6c152e6ed989","system_id":"levelo_inurba_marseille","lat":43.290327,"lon":5.375711,"is_reserved":false,"is_disabled":false,"rental_uris":{"android":"levelo://app?vid=c3dee460-2071-407b-ba11-6c152e6ed989","ios":"levelo://app?vid=c3dee460-2071-407b-ba11-6c152e6ed989"},"vehicle_type_id":"4","last_reported":1702753500,"current_range_meters":23200,"station_id":"ce4bh692rcd13ifvqe90","pricing_plan_id":"free"},{"bike_id":"40ed181d-284c-46b1-8420-c3fa66758b2f","system_id":"levelo_inurba_marseille","lat":43.29418,"lon":5.38623,"is_reserved":false,"is_disabled":false,"rental_uris":{"android":"levelo://app?vid=40ed181d-284c-46b1-8420-c3fa66758b2f","ios":"levelo://app?vid=40ed181d-284c-46b1-8420-c3fa66758b2f"},"vehicle_type_id":"4","last_reported":1702753500,"current_range_meters":2400,"station_id":"ce4bh2h2rcd13ifvqdh0","pricing_plan_id":"free"},{"bike_id":"c3bf6d6a-cf41-4971-84bf-af51ba82f37c","system_id":"levelo_inurba_marseille","lat":43.29414,"lon":5.38626,"is_reserved":false,"is_disabled":false,"rental_uris":{"android":"levelo://app?vid=c3bf6d6a-cf41-4971-84bf-af51ba82f37c","ios":"levelo://app?vid=c3bf6d6a-cf41-4971-84bf-af51ba82f37c"},"vehicle_type_id":"4","last_reported":1702753500,"current_range_meters":1200,"station_id":"ce4bh2h2rcd13ifvqdh0","pricing_plan_id":"free"},{"bike_id":"d11b49d7-8b01-4796-ad2d-b76b18e5479a","system_id":"levelo_inurba_marseille","lat":43.289184,"lon":5.366408,"is_reserved":false,"is_disabled":false,"rental_uris":{"android":"levelo://app?vid=d11b49d7-8b01-4796-ad2d-b76b18e5479a","ios":"levelo://app?vid=d11b49d7-8b01-4796-ad2d-b76b18e5479a"},"vehicle_type_id":"4","last_reported":1702753500,"current_range_meters":3600,"station_id":"ce4bhap2rcd13ifvqek0","pricing_plan_id":"free"},{"bike_id":"773d5365-2126-423e-8615-a96dd6fcf631","system_id":"levelo_inurba_marseille","lat":43.294162,"lon":5.386292,"is_reserved":false,"is_disabled":false,"rental_uris":{"android":"levelo://app?vid=773d5365-2126-423e-8615-a96dd6fcf631","ios":"levelo://app?vid=773d5365-2126-423e-8615-a96dd6fcf631"},"vehicle_type_id":"4","last_reported":1702753500,"current_range_meters":31200,"station_id":"ce4bh2h2rcd13ifvqdh0","pricing_plan_id":"free"},{"bike_id":"918cd7a0-178c-48f2-9c49-91a6632c8791","system_id":"levelo_inurba_marseille","lat":43.289184,"lon":5.366408,"is_reserved":false,"is_disabled":false,"rental_uris":{"android":"levelo://app?vid=918cd7a0-178c-48f2-9c49-91a6632c8791","ios":"levelo://app?vid=918cd7a0-178c-48f2-9c49-91a6632c8791"},"vehicle_type_id":"4","last_reported":1702753500,"current_range_meters":4400,"station_id":"ce4bhap2rcd13ifvqek0","pricing_plan_id":"free"},{"bike_id":"e061b1b3-5cf6-4485-9953-4a77a59d047c","system_id":"levelo_inurba_marseille","lat":43.289184,"lon":5.366408,"is_reserved":false,"is_disabled":false,"rental_uris":{"android":"levelo://app?vid=e061b1b3-5cf6-4485-9953-4a77a59d047c","ios":"levelo://app?vid=e061b1b3-5cf6-4485-9953-4a77a59d047c"},"vehicle_type_id":"4","last_reported":1702753500,"current_range_meters":17200,"station_id":"ce4bhap2rcd13ifvqek0","pricing_plan_id":"free"},{"bike_id":"bf609917-b63b-469a-80bc-679ef40e3039","system_id":"levelo_inurba_marseille","lat":43.304296,"lon":5.397513,"is_reserved":false,"is_disabled":false,"rental_uris":{"android":"levelo://app?vid=bf609917-b63b-469a-80bc-679ef40e3039","ios":"levelo://app?vid=bf609917-b63b-469a-80bc-679ef40e3039"},"vehicle_type_id":"4","last_reported":1702753500,"current_range_meters":3600,"station_id":"ce4bh092rcd13ifvqd20","pricing_plan_id":"free"},{"bike_id":"982d38db-79f8-4cfb-89be-adb3bf850b0a","system_id":"levelo_inurba_marseille","lat":43.292644,"lon":5.384257,"is_reserved":false,"is_disabled":false,"rental_uris":{"android":"levelo://app?vid=982d38db-79f8-4cfb-89be-adb3bf850b0a","ios":"levelo://app?vid=982d38db-79f8-4cfb-89be-adb3bf850b0a"},"vehicle_type_id":"4","last_reported":1702753500,"current_range_meters":17600,"station_id":"ce4bh692rcd13ifvqea0","pricing_plan_id":"free"},{"bike_id":"7869065b-ba9c-4e14-a6e0-075a72b86610","system_id":"levelo_inurba_marseille","lat":43.33043,"lon":5.38919,"is_reserved":false,"is_disabled":false,"rental_uris":{"android":"levelo://app?vid=7869065b-ba9c-4e14-a6e0-075a72b86610","ios":"levelo://app?vid=7869065b-ba9c-4e14-a6e0-075a72b86610"},"vehicle_type_id":"4","last_reported":1702753500,"current_range_meters":7200,"station_id":"ce4bhr92rcd13ifvqhrg","pricing_plan_id":"free"},{"bike_id":"0019cc72-50a3-4298-937a-c3025a814462","system_id":"levelo_inurba_marseille","lat":43.33042,"lon":5.38922,"is_reserved":false,"is_disabled":false,"rental_uris":{"android":"levelo://app?vid=0019cc72-50a3-4298-937a-c3025a814462","ios":"levelo://app?vid=0019cc72-50a3-4298-937a-c3025a814462"},"vehicle_type_id":"4","last_reported":1702753500,"current_range_meters":6800,"station_id":"ce4bhr92rcd13ifvqhrg","pricing_plan_id":"free"},{"bike_id":"bded1918-006c-4ca1-9d19-5220764fb629","system_id":"levelo_inurba_marseille","lat":43.295169,"lon":5.390426,"is_reserved":false,"is_disabled":false,"rental_uris":{"android":"levelo://app?vid=bded1918-006c-4ca1-9d19-5220764fb629","ios":"levelo://app?vid=bded1918-006c-4ca1-9d19-5220764fb629"},"vehicle_type_id":"4","last_reported":1702753500,"current_range_meters":6800,"station_id":"ce4bh3p2rcd13ifvqdp0","pricing_plan_id":"free"},{"bike_id":"97d4c352-25a9-4fd5-9bda-21bb5e9bd149","system_id":"levelo_inurba_marseille","lat":43.295169,"lon":5.390426,"is_reserved":false,"is_disabled":false,"rental_uris":{"android":"levelo://app?vid=97d4c352-25a9-4fd5-9bda-21bb5e9bd149","ios":"levelo://app?vid=97d4c352-25a9-4fd5-9bda-21bb5e9bd149"},"vehicle_type_id":"4","last_reported":1702753500,"current_range_meters":0,"station_id":"ce4bh3p2rcd13ifvqdp0","pricing_plan_id":"free"},{"bike_id":"2733717c-7bad-494d-b56d-07aef36d4698","system_id":"levelo_inurba_marseille","lat":43.295169,"lon":5.390426,"is_reserved":false,"is_disabled":false,"rental_uris":{"android":"levelo://app?vid=2733717c-7bad-494d-b56d-07aef36d4698","ios":"levelo://app?vid=2733717c-7bad-494d-b56d-07aef36d4698"},"vehicle_type_id":"4","last_reported":1702753500,"current_range_meters":26000,"station_id":"ce4bh3p2rcd13ifvqdp0","pricing_plan_id":"free"},{"bike_id":"f0cd831c-cfb9-44c7-9487-103b6df223ca","system_id":"levelo_inurba_marseille","lat":43.337445,"lon":5.374592,"is_reserved":false,"is_disabled":false,"rental_uris":{"android":"levelo://app?vid=f0cd831c-cfb9-44c7-9487-103b6df223ca","ios":"levelo://app?vid=f0cd831c-cfb9-44c7-9487-103b6df223ca"},"vehicle_type_id":"4","last_reported":1702753500,"current_range_meters":28400,"station_id":"","pricing_plan_id":"free"},{"bike_id":"ef80ceab-dc9f-4b6c-8f52-707d5177f481","system_id":"levelo_inurba_marseille","lat":43.33752,"lon":5.37466,"is_reserved":false,"is_disabled":false,"rental_uris":{"android":"levelo://app?vid=ef80ceab-dc9f-4b6c-8f52-707d5177f481","ios":"levelo://app?vid=ef80ceab-dc9f-4b6c-8f52-707d5177f481"},"vehicle_type_id":"4","last_reported":1702753500,"current_range_meters":27600,"station_id":"","pricing_plan_id":"free"},{"bike_id":"3534ea2f-3b62-4512-94da-f26f746aedc2","system_id":"levelo_inurba_marseille","lat":43.3066,"lon":5.4009,"is_reserved":false,"is_disabled":false,"rental_uris":{"android":"levelo://app?vid=3534ea2f-3b62-4512-94da-f26f746aedc2","ios":"levelo://app?vid=3534ea2f-3b62-4512-94da-f26f746aedc2"},"vehicle_type_id":"4","last_reported":1702753500,"current_range_meters":3200,"station_id":"ce4bh112rcd13ifvqda0","pricing_plan_id":"free"},{"bike_id":"94fb1ae4-0263-41d2-96e6-2e16811eedac","system_id":"levelo_inurba_marseille","lat":43.30641,"lon":5.40096,"is_reserved":false,"is_disabled":false,"rental_uris":{"android":"levelo://app?vid=94fb1ae4-0263-41d2-96e6-2e16811eedac","ios":"levelo://app?vid=94fb1ae4-0263-41d2-96e6-2e16811eedac"},"vehicle_type_id":"4","last_reported":1702753500,"current_range_meters":14000,"station_id":"ce4bh112rcd13ifvqda0","pricing_plan_id":"free"},{"bike_id":"26db3da3-29a8-47ad-8eef-ee397dacd4fd","system_id":"levelo_inurba_marseille","lat":43.30133,"lon":5.39865,"is_reserved":false,"is_disabled":false,"rental_uris":{"android":"levelo://app?vid=26db3da3-29a8-47ad-8eef-ee397dacd4fd","ios":"levelo://app?vid=26db3da3-29a8-47ad-8eef-ee397dacd4fd"},"vehicle_type_id":"4","last_reported":1702753500,"current_range_meters":0,"station_id":"ce4bh0h2rcd13ifvqd40","pricing_plan_id":"free"},{"bike_id":"0a6347a3-6aed-4591-ba89-15a27aa3668c","system_id":"levelo_inurba_marseille","lat":43.287074,"lon":5.373839,"is_reserved":false,"is_disabled":false,"rental_uris":{"android":"levelo://app?vid=0a6347a3-6aed-4591-ba89-15a27aa3668c","ios":"levelo://app?vid=0a6347a3-6aed-4591-ba89-15a27aa3668c"},"vehicle_type_id":"4","last_reported":1702753500,"current_range_meters":4000,"station_id":"ce4bh3p2rcd13ifvqdq0","pricing_plan_id":"free"},{"bike_id":"9c4d5c4a-6b01-47bb-b1cc-20f44cd7df31","system_id":"levelo_inurba_marseille","lat":43.286591,"lon":5.363346,"is_reserved":false,"is_disabled":false,"rental_uris":{"android":"levelo://app?vid=9c4d5c4a-6b01-47bb-b1cc-20f44cd7df31","ios":"levelo://app?vid=9c4d5c4a-6b01-47bb-b1cc-20f44cd7df31"},"vehicle_type_id":"4","last_reported":1702753500,"current_range_meters":16400,"station_id":"ce4bhah2rcd13ifvqej0","pricing_plan_id":"free"},{"bike_id":"9de7fe6b-2b83-4447-9f36-8d653e85334f","system_id":"levelo_inurba_marseille","lat":43.286591,"lon":5.363346,"is_reserved":false,"is_disabled":false,"rental_uris":{"android":"levelo://app?vid=9de7fe6b-2b83-4447-9f36-8d653e85334f","ios":"levelo://app?vid=9de7fe6b-2b83-4447-9f36-8d653e85334f"},"vehicle_type_id":"4","last_reported":1702753500,"current_range_meters":27600,"station_id":"ce4bhah2rcd13ifvqej0","pricing_plan_id":"free"},{"bike_id":"d8a83183-8f10-458c-a37d-bea39bf817d3","system_id":"levelo_inurba_marseille","lat":43.295194,"lon":5.39397,"is_reserved":false,"is_disabled":false,"rental_uris":{"android":"levelo://app?vid=d8a83183-8f10-458c-a37d-bea39bf817d3","ios":"levelo://app?vid=d8a83183-8f10-458c-a37d-bea39bf817d3"},"vehicle_type_id":"4","last_reported":1702753500,"current_range_meters":13600,"station_id":"ce4bh292rcd13ifvqdf0","pricing_plan_id":"free"},{"bike_id":"32f66348-f2d6-4cee-a1bb-4ca5c8fae9ba","system_id":"levelo_inurba_marseille","lat":43.290345,"lon":5.38646,"is_reserved":false,"is_disabled":false,"rental_uris":{"android":"levelo://app?vid=32f66348-f2d6-4cee-a1bb-4ca5c8fae9ba","ios":"levelo://app?vid=32f66348-f2d6-4cee-a1bb-4ca5c8fae9ba"},"vehicle_type_id":"4","last_reported":1702753500,"current_range_meters":17600,"station_id":"ce4bh4p2rcd13ifvqe0g","pricing_plan_id":"free"},{"bike_id":"99eeac8e-7741-4429-8756-3c5a64a2a4ef","system_id":"levelo_inurba_marseille","lat":43.290345,"lon":5.38646,"is_reserved":false,"is_disabled":false,"rental_uris":{"android":"levelo://app?vid=99eeac8e-7741-4429-8756-3c5a64a2a4ef","ios":"levelo://app?vid=99eeac8e-7741-4429-8756-3c5a64a2a4ef"},"vehicle_type_id":"4","last_reported":1702753500,"current_range_meters":400,"station_id":"ce4bh4p2rcd13ifvqe0g","pricing_plan_id":"free"},{"bike_id":"e5b03ddd-8176-486e-a402-e2970ab8165a","system_id":"levelo_inurba_marseille","lat":43.289307,"lon":5.38406,"is_reserved":false,"is_disabled":false,"rental_uris":{"android":"levelo://app?vid=e5b03ddd-8176-486e-a402-e2970ab8165a","ios":"levelo://app?vid=e5b03ddd-8176-486e-a402-e2970ab8165a"},"vehicle_type_id":"4","last_reported":1702753500,"current_range_meters":5200,"station_id":"ce4bh612rcd13ifvqe6g","pricing_plan_id":"free"},{"bike_id":"d2374ddb-c34d-4fda-86b1-554f6f50859a","system_id":"levelo_inurba_marseille","lat":43.290345,"lon":5.38646,"is_reserved":false,"is_disabled":false,"rental_uris":{"android":"levelo://app?vid=d2374ddb-c34d-4fda-86b1-554f6f50859a","ios":"levelo://app?vid=d2374ddb-c34d-4fda-86b1-554f6f50859a"},"vehicle_type_id":"4","last_reported":1702753500,"current_range_meters":19200,"station_id":"ce4bh4p2rcd13ifvqe0g","pricing_plan_id":"free"},{"bike_id":"920a2a36-453c-48fa-aab6-a4b0e10df01d","system_id":"levelo_inurba_marseille","lat":43.286039,"lon":5.370679,"is_reserved":false,"is_disabled":false,"rental_uris":{"android":"levelo://app?vid=920a2a36-453c-48fa-aab6-a4b0e10df01d","ios":"levelo://app?vid=920a2a36-453c-48fa-aab6-a4b0e10df01d"},"vehicle_type_id":"4","last_reported":1702753500,"current_range_meters":26400,"station_id":"ce4bht12rcd13ifvqi60","pricing_plan_id":"free"},{"bike_id":"24a81706-44d2-4577-8612-23722d3952f1","system_id":"levelo_inurba_marseille","lat":43.287185,"lon":5.379373,"is_reserved":false,"is_disabled":false,"rental_uris":{"android":"levelo://app?vid=24a81706-44d2-4577-8612-23722d3952f1","ios":"levelo://app?vid=24a81706-44d2-4577-8612-23722d3952f1"},"vehicle_type_id":"4","last_reported":1702753500,"current_range_meters":9600,"station_id":"ce4bh9p2rcd13ifvqec0","pricing_plan_id":"free"},{"bike_id":"32900425-1ca3-4461-83b6-0e4a74dc8916","system_id":"levelo_inurba_marseille","lat":43.316828,"lon":5.404723,"is_reserved":false,"is_disabled":false,"rental_uris":{"android":"levelo://app?vid=32900425-1ca3-4461-83b6-0e4a74dc8916","ios":"levelo://app?vid=32900425-1ca3-4461-83b6-0e4a74dc8916"},"vehicle_type_id":"4","last_reported":1702753500,"current_range_meters":3600,"station_id":"ce4bh012rcd13ifvqd00","pricing_plan_id":"free"},{"bike_id":"451b6bab-0444-4e4b-b949-5e6ff1258e86","system_id":"levelo_inurba_marseille","lat":43.316828,"lon":5.404723,"is_reserved":false,"is_disabled":false,"rental_uris":{"android":"levelo://app?vid=451b6bab-0444-4e4b-b949-5e6ff1258e86","ios":"levelo://app?vid=451b6bab-0444-4e4b-b949-5e6ff1258e86"},"vehicle_type_id":"4","last_reported":1702753500,"current_range_meters":6800,"station_id":"ce4bh012rcd13ifvqd00","pricing_plan_id":"free"},{"bike_id":"8658d281-8453-4bbc-ac83-275c68c5d875","system_id":"levelo_inurba_marseille","lat":43.29193,"lon":5.39328,"is_reserved":false,"is_disabled":false,"rental_uris":{"android":"levelo://app?vid=8658d281-8453-4bbc-ac83-275c68c5d875","ios":"levelo://app?vid=8658d281-8453-4bbc-ac83-275c68c5d875"},"vehicle_type_id":"4","last_reported":1702753500,"current_range_meters":21600,"station_id":"ce4bh192rcd13ifvqdd0","pricing_plan_id":"free"},{"bike_id":"0651dd5f-7899-41ac-a62e-971de9f6b389","system_id":"levelo_inurba_marseille","lat":43.29182,"lon":5.39321,"is_reserved":false,"is_disabled":false,"rental_uris":{"android":"levelo://app?vid=0651dd5f-7899-41ac-a62e-971de9f6b389","ios":"levelo://app?vid=0651dd5f-7899-41ac-a62e-971de9f6b389"},"vehicle_type_id":"4","last_reported":1702753500,"current_range_meters":0,"station_id":"ce4bh192rcd13ifvqdd0","pricing_plan_id":"free"},{"bike_id":"f242a942-61a1-4b14-92e0-1cf7b79fab3f","system_id":"levelo_inurba_marseille","lat":43.283998,"lon":5.375062,"is_reserved":false,"is_disabled":false,"rental_uris":{"android":"levelo://app?vid=f242a942-61a1-4b14-92e0-1cf7b79fab3f","ios":"levelo://app?vid=f242a942-61a1-4b14-92e0-1cf7b79fab3f"},"vehicle_type_id":"4","last_reported":1702753500,"current_range_meters":0,"station_id":"ce4bh412rcd13ifvqds0","pricing_plan_id":"free"},{"bike_id":"516d73ef-b38e-43de-b948-f54a45f7e9a9","system_id":"levelo_inurba_marseille","lat":43.29571,"lon":5.39981,"is_reserved":false,"is_disabled":false,"rental_uris":{"android":"levelo://app?vid=516d73ef-b38e-43de-b948-f54a45f7e9a9","ios":"levelo://app?vid=516d73ef-b38e-43de-b948-f54a45f7e9a9"},"vehicle_type_id":"4","last_reported":1702753500,"current_range_meters":400,"station_id":"ce4bh312rcd13ifvqdj0","pricing_plan_id":"free"},{"bike_id":"2dfa5049-0e1b-4839-b5c3-156910a65dbd","system_id":"levelo_inurba_marseille","lat":43.33177,"lon":5.39828,"is_reserved":false,"is_disabled":false,"rental_uris":{"android":"levelo://app?vid=2dfa5049-0e1b-4839-b5c3-156910a65dbd","ios":"levelo://app?vid=2dfa5049-0e1b-4839-b5c3-156910a65dbd"},"vehicle_type_id":"4","last_reported":1702753500,"current_range_meters":8000,"station_id":"","pricing_plan_id":"free"},{"bike_id":"5919ce3b-bfd5-4a51-827f-a10aed14228c","system_id":"levelo_inurba_marseille","lat":43.286595,"lon":5.386795,"is_reserved":false,"is_disabled":false,"rental_uris":{"android":"levelo://app?vid=5919ce3b-bfd5-4a51-827f-a10aed14228c","ios":"levelo://app?vid=5919ce3b-bfd5-4a51-827f-a10aed14228c"},"vehicle_type_id":"4","last_reported":1702753500,"current_range_meters":14000,"station_id":"ce4bh492rcd13ifvqdug","pricing_plan_id":"free"},{"bike_id":"74c5cf30-49f6-42f3-835f-9c531e7566b4","system_id":"levelo_inurba_marseille","lat":43.319179,"lon":5.407725,"is_reserved":false,"is_disabled":false,"rental_uris":{"android":"levelo://app?vid=74c5cf30-49f6-42f3-835f-9c531e7566b4","ios":"levelo://app?vid=74c5cf30-49f6-42f3-835f-9c531e7566b4"},"vehicle_type_id":"4","last_reported":1702753500,"current_range_meters":28400,"station_id":"ce4bhq12rcd13ifvqhig","pricing_plan_id":"free"},{"bike_id":"a7cfab14-9ed1-42f3-a7ee-c13ab4fbe736","system_id":"levelo_inurba_marseille","lat":43.323464,"lon":5.406297,"is_reserved":false,"is_disabled":false,"rental_uris":{"android":"levelo://app?vid=a7cfab14-9ed1-42f3-a7ee-c13ab4fbe736","ios":"levelo://app?vid=a7cfab14-9ed1-42f3-a7ee-c13ab4fbe736"},"vehicle_type_id":"4","last_reported":1702753500,"current_range_meters":3600,"station_id":"ce4bhq92rcd13ifvqhjg","pricing_plan_id":"free"},{"bike_id":"37e9402e-91f4-4ab1-8bba-5a76ea1059e6","system_id":"levelo_inurba_marseille","lat":43.283494,"lon":5.380945,"is_reserved":false,"is_disabled":false,"rental_uris":{"android":"levelo://app?vid=37e9402e-91f4-4ab1-8bba-5a76ea1059e6","ios":"levelo://app?vid=37e9402e-91f4-4ab1-8bba-5a76ea1059e6"},"vehicle_type_id":"4","last_reported":1702753500,"current_range_meters":16400,"station_id":"ce4bh412rcd13ifvqdr0","pricing_plan_id":"free"},{"bike_id":"6ad07a1b-0596-42d5-9e5a-6e9d6d093dbf","system_id":"levelo_inurba_marseille","lat":43.289363,"lon":5.396322,"is_reserved":false,"is_disabled":false,"rental_uris":{"android":"levelo://app?vid=6ad07a1b-0596-42d5-9e5a-6e9d6d093dbf","ios":"levelo://app?vid=6ad07a1b-0596-42d5-9e5a-6e9d6d093dbf"},"vehicle_type_id":"4","last_reported":1702753500,"current_range_meters":2800,"station_id":"ce4bh3h2rcd13ifvqdn0","pricing_plan_id":"free"},{"bike_id":"cb07ba9c-6f61-439f-9226-6fd5dcf1f99a","system_id":"levelo_inurba_marseille","lat":43.289363,"lon":5.396322,"is_reserved":false,"is_disabled":false,"rental_uris":{"android":"levelo://app?vid=cb07ba9c-6f61-439f-9226-6fd5dcf1f99a","ios":"levelo://app?vid=cb07ba9c-6f61-439f-9226-6fd5dcf1f99a"},"vehicle_type_id":"4","last_reported":1702753500,"current_range_meters":29200,"station_id":"ce4bh3h2rcd13ifvqdn0","pricing_plan_id":"free"},{"bike_id":"a399da3b-63d9-4191-a1db-b40aad818367","system_id":"levelo_inurba_marseille","lat":43.292724,"lon":5.401131,"is_reserved":false,"is_disabled":false,"rental_uris":{"android":"levelo://app?vid=a399da3b-63d9-4191-a1db-b40aad818367","ios":"levelo://app?vid=a399da3b-63d9-4191-a1db-b40aad818367"},"vehicle_type_id":"4","last_reported":1702753500,"current_range_meters":18000,"station_id":"ce4bh312rcd13ifvqdk0","pricing_plan_id":"free"},{"bike_id":"869124b3-00c9-4bb2-8dde-c3cb7f8f4b23","system_id":"levelo_inurba_marseille","lat":43.292724,"lon":5.401131,"is_reserved":false,"is_disabled":false,"rental_uris":{"android":"levelo://app?vid=869124b3-00c9-4bb2-8dde-c3cb7f8f4b23","ios":"levelo://app?vid=869124b3-00c9-4bb2-8dde-c3cb7f8f4b23"},"vehicle_type_id":"4","last_reported":1702753500,"current_range_meters":14800,"station_id":"ce4bh312rcd13ifvqdk0","pricing_plan_id":"free"},{"bike_id":"9b5c1629-2fa4-494a-9185-69df038f9043","system_id":"levelo_inurba_marseille","lat":43.280382,"lon":5.369291,"is_reserved":false,"is_disabled":false,"rental_uris":{"android":"levelo://app?vid=9b5c1629-2fa4-494a-9185-69df038f9043","ios":"levelo://app?vid=9b5c1629-2fa4-494a-9185-69df038f9043"},"vehicle_type_id":"4","last_reported":1702753500,"current_range_meters":0,"station_id":"ce4bha12rcd13ifvqef0","pricing_plan_id":"free"},{"bike_id":"3cccad1c-7f70-4571-a4d1-80a646560df5","system_id":"levelo_inurba_marseille","lat":43.283502,"lon":5.386471,"is_reserved":false,"is_disabled":false,"rental_uris":{"android":"levelo://app?vid=3cccad1c-7f70-4571-a4d1-80a646560df5","ios":"levelo://app?vid=3cccad1c-7f70-4571-a4d1-80a646560df5"},"vehicle_type_id":"4","last_reported":1702753500,"current_range_meters":2400,"station_id":"ce4bh492rcd13ifvqdvg","pricing_plan_id":"free"},{"bike_id":"46c7d869-0254-4fd8-b482-55d1617f5416","system_id":"levelo_inurba_marseille","lat":43.28023,"lon":5.36931,"is_reserved":false,"is_disabled":false,"rental_uris":{"android":"levelo://app?vid=46c7d869-0254-4fd8-b482-55d1617f5416","ios":"levelo://app?vid=46c7d869-0254-4fd8-b482-55d1617f5416"},"vehicle_type_id":"4","last_reported":1702753500,"current_range_meters":2000,"station_id":"ce4bha12rcd13ifvqef0","pricing_plan_id":"free"},{"bike_id":"a39e6855-3ba6-4745-bdac-a2a473ed3906","system_id":"levelo_inurba_marseille","lat":43.281044,"lon":5.378308,"is_reserved":false,"is_disabled":false,"rental_uris":{"android":"levelo://app?vid=a39e6855-3ba6-4745-bdac-a2a473ed3906","ios":"levelo://app?vid=a39e6855-3ba6-4745-bdac-a2a473ed3906"},"vehicle_type_id":"4","last_reported":1702753500,"current_range_meters":9200,"station_id":"ce4bha12rcd13ifvqee0","pricing_plan_id":"free"},{"bike_id":"cc41ff2b-f5f0-4406-9181-4ed8087eaf55","system_id":"levelo_inurba_marseille","lat":43.28449,"lon":5.392001,"is_reserved":false,"is_disabled":false,"rental_uris":{"android":"levelo://app?vid=cc41ff2b-f5f0-4406-9181-4ed8087eaf55","ios":"levelo://app?vid=cc41ff2b-f5f0-4406-9181-4ed8087eaf55"},"vehicle_type_id":"4","last_reported":1702753500,"current_range_meters":0,"station_id":"ce4bhoh2rcd13ifvqh5g","pricing_plan_id":"free"},{"bike_id":"fd38bf83-c6c8-4584-99c6-568f23717249","system_id":"levelo_inurba_marseille","lat":43.30421,"lon":5.41272,"is_reserved":false,"is_disabled":false,"rental_uris":{"android":"levelo://app?vid=fd38bf83-c6c8-4584-99c6-568f23717249","ios":"levelo://app?vid=fd38bf83-c6c8-4584-99c6-568f23717249"},"vehicle_type_id":"4","last_reported":1702753500,"current_range_meters":0,"station_id":"ce4bhop2rcd13ifvqh8g","pricing_plan_id":"free"},{"bike_id":"8c53da4c-26d5-41a3-ad4d-884692197f05","system_id":"levelo_inurba_marseille","lat":43.279087,"lon":5.380114,"is_reserved":false,"is_disabled":false,"rental_uris":{"android":"levelo://app?vid=8c53da4c-26d5-41a3-ad4d-884692197f05","ios":"levelo://app?vid=8c53da4c-26d5-41a3-ad4d-884692197f05"},"vehicle_type_id":"4","last_reported":1702753500,"current_range_meters":0,"station_id":"ce4bhf92rcd13ifvqf50","pricing_plan_id":"free"},{"bike_id":"755bb8f7-adf6-4f96-a53e-4e1dad6d220e","system_id":"levelo_inurba_marseille","lat":43.287154,"lon":5.399979,"is_reserved":false,"is_disabled":false,"rental_uris":{"android":"levelo://app?vid=755bb8f7-adf6-4f96-a53e-4e1dad6d220e","ios":"levelo://app?vid=755bb8f7-adf6-4f96-a53e-4e1dad6d220e"},"vehicle_type_id":"4","last_reported":1702753500,"current_range_meters":23200,"station_id":"ce4bho92rcd13ifvqh3g","pricing_plan_id":"free"},{"bike_id":"d458e774-448d-435c-b9a3-bfc35df844e1","system_id":"levelo_inurba_marseille","lat":43.287154,"lon":5.399979,"is_reserved":false,"is_disabled":false,"rental_uris":{"android":"levelo://app?vid=d458e774-448d-435c-b9a3-bfc35df844e1","ios":"levelo://app?vid=d458e774-448d-435c-b9a3-bfc35df844e1"},"vehicle_type_id":"4","last_reported":1702753500,"current_range_meters":17200,"station_id":"ce4bho92rcd13ifvqh3g","pricing_plan_id":"free"},{"bike_id":"b20b997c-e71c-4908-ab85-2e82e1ac7d9c","system_id":"levelo_inurba_marseille","lat":43.299579,"lon":5.413255,"is_reserved":false,"is_disabled":false,"rental_uris":{"android":"levelo://app?vid=b20b997c-e71c-4908-ab85-2e82e1ac7d9c","ios":"levelo://app?vid=b20b997c-e71c-4908-ab85-2e82e1ac7d9c"},"vehicle_type_id":"4","last_reported":1702753500,"current_range_meters":24800,"station_id":"ce4bhp12rcd13ifvqh9g","pricing_plan_id":"free"},{"bike_id":"afe69227-7a3c-48cd-ad3c-a17e4e74446c","system_id":"levelo_inurba_marseille","lat":43.320045,"lon":5.415048,"is_reserved":false,"is_disabled":false,"rental_uris":{"android":"levelo://app?vid=afe69227-7a3c-48cd-ad3c-a17e4e74446c","ios":"levelo://app?vid=afe69227-7a3c-48cd-ad3c-a17e4e74446c"},"vehicle_type_id":"4","last_reported":1702753500,"current_range_meters":12000,"station_id":"ce4bhq92rcd13ifvqhkg","pricing_plan_id":"free"},{"bike_id":"52b3070a-f8dc-4ce0-bb0f-cd5abfd8243a","system_id":"levelo_inurba_marseille","lat":43.320045,"lon":5.415048,"is_reserved":false,"is_disabled":false,"rental_uris":{"android":"levelo://app?vid=52b3070a-f8dc-4ce0-bb0f-cd5abfd8243a","ios":"levelo://app?vid=52b3070a-f8dc-4ce0-bb0f-cd5abfd8243a"},"vehicle_type_id":"4","last_reported":1702753500,"current_range_meters":24400,"station_id":"ce4bhq92rcd13ifvqhkg","pricing_plan_id":"free"},{"bike_id":"5b439f2e-1976-40e7-b3b5-86e43561d9c4","system_id":"levelo_inurba_marseille","lat":43.279742,"lon":5.38744,"is_reserved":false,"is_disabled":false,"rental_uris":{"android":"levelo://app?vid=5b439f2e-1976-40e7-b3b5-86e43561d9c4","ios":"levelo://app?vid=5b439f2e-1976-40e7-b3b5-86e43561d9c4"},"vehicle_type_id":"4","last_reported":1702753500,"current_range_meters":7200,"station_id":"ce4bhg12rcd13ifvqf80","pricing_plan_id":"free"},{"bike_id":"53af31f3-89da-49e8-9a0b-abd317f8acd2","system_id":"levelo_inurba_marseille","lat":43.292569,"lon":5.409107,"is_reserved":false,"is_disabled":false,"rental_uris":{"android":"levelo://app?vid=53af31f3-89da-49e8-9a0b-abd317f8acd2","ios":"levelo://app?vid=53af31f3-89da-49e8-9a0b-abd317f8acd2"},"vehicle_type_id":"4","last_reported":1702753500,"current_range_meters":3600,"station_id":"ce4bh192rcd13ifvqdc0","pricing_plan_id":"free"},{"bike_id":"3ce965d1-e55d-4149-97d8-bc280e6391d6","system_id":"levelo_inurba_marseille","lat":43.276237,"lon":5.361098,"is_reserved":false,"is_disabled":false,"rental_uris":{"android":"levelo://app?vid=3ce965d1-e55d-4149-97d8-bc280e6391d6","ios":"levelo://app?vid=3ce965d1-e55d-4149-97d8-bc280e6391d6"},"vehicle_type_id":"4","last_reported":1702753500,"current_range_meters":17600,"station_id":"","pricing_plan_id":"free"},{"bike_id":"7905dc6e-b2af-44e7-9f04-d54f13a39370","system_id":"levelo_inurba_marseille","lat":43.276179,"lon":5.361009,"is_reserved":false,"is_disabled":false,"rental_uris":{"android":"levelo://app?vid=7905dc6e-b2af-44e7-9f04-d54f13a39370","ios":"levelo://app?vid=7905dc6e-b2af-44e7-9f04-d54f13a39370"},"vehicle_type_id":"4","last_reported":1702753500,"current_range_meters":0,"station_id":"ce4bgj92rcd13ifvqbe0","pricing_plan_id":"free"},{"bike_id":"8b220f23-8f16-4cf6-95d1-588d8e40908d","system_id":"levelo_inurba_marseille","lat":43.2836,"lon":5.40015,"is_reserved":false,"is_disabled":false,"rental_uris":{"android":"levelo://app?vid=8b220f23-8f16-4cf6-95d1-588d8e40908d","ios":"levelo://app?vid=8b220f23-8f16-4cf6-95d1-588d8e40908d"},"vehicle_type_id":"4","last_reported":1702753500,"current_range_meters":0,"station_id":"","pricing_plan_id":"free"},{"bike_id":"e7fcdeca-090d-491e-a8ea-4f6571be908d","system_id":"levelo_inurba_marseille","lat":43.280784,"lon":5.396622,"is_reserved":false,"is_disabled":false,"rental_uris":{"android":"levelo://app?vid=e7fcdeca-090d-491e-a8ea-4f6571be908d","ios":"levelo://app?vid=e7fcdeca-090d-491e-a8ea-4f6571be908d"},"vehicle_type_id":"4","last_reported":1702753500,"current_range_meters":21200,"station_id":"ce4bho12rcd13ifvqh2g","pricing_plan_id":"free"},{"bike_id":"7156ad5f-854d-45aa-98b0-3513e5efea40","system_id":"levelo_inurba_marseille","lat":43.303837,"lon":5.418724,"is_reserved":false,"is_disabled":false,"rental_uris":{"android":"levelo://app?vid=7156ad5f-854d-45aa-98b0-3513e5efea40","ios":"levelo://app?vid=7156ad5f-854d-45aa-98b0-3513e5efea40"},"vehicle_type_id":"4","last_reported":1702753500,"current_range_meters":27200,"station_id":"ce4bhop2rcd13ifvqh7g","pricing_plan_id":"free"},{"bike_id":"93ca6c44-29a3-4551-adac-ffee33969bb5","system_id":"levelo_inurba_marseille","lat":43.278401,"lon":5.392152,"is_reserved":false,"is_disabled":false,"rental_uris":{"android":"levelo://app?vid=93ca6c44-29a3-4551-adac-ffee33969bb5","ios":"levelo://app?vid=93ca6c44-29a3-4551-adac-ffee33969bb5"},"vehicle_type_id":"4","last_reported":1702753500,"current_range_meters":3600,"station_id":"ce4bhjp2rcd13ifvqga0","pricing_plan_id":"free"},{"bike_id":"ea3d35f6-b07e-4308-ae51-5376e9d8e7cc","system_id":"levelo_inurba_marseille","lat":43.273513,"lon":5.364564,"is_reserved":false,"is_disabled":false,"rental_uris":{"android":"levelo://app?vid=ea3d35f6-b07e-4308-ae51-5376e9d8e7cc","ios":"levelo://app?vid=ea3d35f6-b07e-4308-ae51-5376e9d8e7cc"},"vehicle_type_id":"4","last_reported":1702753500,"current_range_meters":15600,"station_id":"","pricing_plan_id":"free"},{"bike_id":"f9503be0-e80c-4170-860e-7c5e36f78009","system_id":"levelo_inurba_marseille","lat":43.275625,"lon":5.384392,"is_reserved":false,"is_disabled":false,"rental_uris":{"android":"levelo://app?vid=f9503be0-e80c-4170-860e-7c5e36f78009","ios":"levelo://app?vid=f9503be0-e80c-4170-860e-7c5e36f78009"},"vehicle_type_id":"4","last_reported":1702753500,"current_range_meters":10400,"station_id":"ce4bhh92rcd13ifvqfi0","pricing_plan_id":"free"},{"bike_id":"dd100710-f13f-4f6d-b6b7-8bc6b1d00b8c","system_id":"levelo_inurba_marseille","lat":43.279952,"lon":5.400085,"is_reserved":false,"is_disabled":false,"rental_uris":{"android":"levelo://app?vid=dd100710-f13f-4f6d-b6b7-8bc6b1d00b8c","ios":"levelo://app?vid=dd100710-f13f-4f6d-b6b7-8bc6b1d00b8c"},"vehicle_type_id":"4","last_reported":1702753500,"current_range_meters":16000,"station_id":"ce4bho92rcd13ifvqh4g","pricing_plan_id":"free"},{"bike_id":"2069f7ce-d397-4cc3-800b-fa9681334a84","system_id":"levelo_inurba_marseille","lat":43.279952,"lon":5.400085,"is_reserved":false,"is_disabled":false,"rental_uris":{"android":"levelo://app?vid=2069f7ce-d397-4cc3-800b-fa9681334a84","ios":"levelo://app?vid=2069f7ce-d397-4cc3-800b-fa9681334a84"},"vehicle_type_id":"4","last_reported":1702753500,"current_range_meters":29600,"station_id":"ce4bho92rcd13ifvqh4g","pricing_plan_id":"free"},{"bike_id":"12fe1f05-318a-4237-b44e-c7521e9a0831","system_id":"levelo_inurba_marseille","lat":43.279975,"lon":5.40009,"is_reserved":false,"is_disabled":false,"rental_uris":{"android":"levelo://app?vid=12fe1f05-318a-4237-b44e-c7521e9a0831","ios":"levelo://app?vid=12fe1f05-318a-4237-b44e-c7521e9a0831"},"vehicle_type_id":"4","last_reported":1702753500,"current_range_meters":24800,"station_id":"ce4bho92rcd13ifvqh4g","pricing_plan_id":"free"},{"bike_id":"87cc8c4f-8ecf-420c-bac2-ed05f14f8c04","system_id":"levelo_inurba_marseille","lat":43.2761,"lon":5.39493,"is_reserved":false,"is_disabled":false,"rental_uris":{"android":"levelo://app?vid=87cc8c4f-8ecf-420c-bac2-ed05f14f8c04","ios":"levelo://app?vid=87cc8c4f-8ecf-420c-bac2-ed05f14f8c04"},"vehicle_type_id":"4","last_reported":1702753500,"current_range_meters":14800,"station_id":"","pricing_plan_id":"free"},{"bike_id":"0856b6c7-e99b-4315-9eab-30f444139e56","system_id":"levelo_inurba_marseille","lat":43.340804,"lon":5.410219,"is_reserved":false,"is_disabled":false,"rental_uris":{"android":"levelo://app?vid=0856b6c7-e99b-4315-9eab-30f444139e56","ios":"levelo://app?vid=0856b6c7-e99b-4315-9eab-30f444139e56"},"vehicle_type_id":"4","last_reported":1702753500,"current_range_meters":25200,"station_id":"ce4bhqh2rcd13ifvqhlg","pricing_plan_id":"free"},{"bike_id":"3ca2c2d2-99b0-4aa6-a05d-e30f02e6a7fb","system_id":"levelo_inurba_marseille","lat":43.276092,"lon":5.395289,"is_reserved":false,"is_disabled":false,"rental_uris":{"android":"levelo://app?vid=3ca2c2d2-99b0-4aa6-a05d-e30f02e6a7fb","ios":"levelo://app?vid=3ca2c2d2-99b0-4aa6-a05d-e30f02e6a7fb"},"vehicle_type_id":"4","last_reported":1702753500,"current_range_meters":21600,"station_id":"","pricing_plan_id":"free"},{"bike_id":"bf39cdd6-5b84-4a52-ae59-c069fec5a89b","system_id":"levelo_inurba_marseille","lat":43.295523,"lon":5.422926,"is_reserved":false,"is_disabled":false,"rental_uris":{"android":"levelo://app?vid=bf39cdd6-5b84-4a52-ae59-c069fec5a89b","ios":"levelo://app?vid=bf39cdd6-5b84-4a52-ae59-c069fec5a89b"},"vehicle_type_id":"4","last_reported":1702753500,"current_range_meters":22800,"station_id":"ce4bhph2rcd13ifvqhdg","pricing_plan_id":"free"},{"bike_id":"7c5e5a9a-9f39-4a14-9573-d5b8ab599dd5","system_id":"levelo_inurba_marseille","lat":43.27191,"lon":5.392298,"is_reserved":false,"is_disabled":false,"rental_uris":{"android":"levelo://app?vid=7c5e5a9a-9f39-4a14-9573-d5b8ab599dd5","ios":"levelo://app?vid=7c5e5a9a-9f39-4a14-9573-d5b8ab599dd5"},"vehicle_type_id":"4","last_reported":1702753500,"current_range_meters":18000,"station_id":"ce4bhhp2rcd13ifvqfm0","pricing_plan_id":"free"},{"bike_id":"73132501-e2ad-4895-a867-adf04071342f","system_id":"levelo_inurba_marseille","lat":43.278128,"lon":5.407195,"is_reserved":false,"is_disabled":false,"rental_uris":{"android":"levelo://app?vid=73132501-e2ad-4895-a867-adf04071342f","ios":"levelo://app?vid=73132501-e2ad-4895-a867-adf04071342f"},"vehicle_type_id":"4","last_reported":1702753500,"current_range_meters":12800,"station_id":"ce4bhnh2rcd13ifvqgtg","pricing_plan_id":"free"},{"bike_id":"6b6237ce-3ec0-4a87-8161-2a514908defb","system_id":"levelo_inurba_marseille","lat":43.278128,"lon":5.407195,"is_reserved":false,"is_disabled":false,"rental_uris":{"android":"levelo://app?vid=6b6237ce-3ec0-4a87-8161-2a514908defb","ios":"levelo://app?vid=6b6237ce-3ec0-4a87-8161-2a514908defb"},"vehicle_type_id":"4","last_reported":1702753500,"current_range_meters":3600,"station_id":"ce4bhnh2rcd13ifvqgtg","pricing_plan_id":"free"},{"bike_id":"bb9fb611-a9a7-41a5-ab77-8f48e43869d4","system_id":"levelo_inurba_marseille","lat":43.269467,"lon":5.386439,"is_reserved":false,"is_disabled":false,"rental_uris":{"android":"levelo://app?vid=bb9fb611-a9a7-41a5-ab77-8f48e43869d4","ios":"levelo://app?vid=bb9fb611-a9a7-41a5-ab77-8f48e43869d4"},"vehicle_type_id":"4","last_reported":1702753500,"current_range_meters":2000,"station_id":"ce4bhh92rcd13ifvqfh0","pricing_plan_id":"free"},{"bike_id":"db774753-4382-453e-a138-c32d538f9839","system_id":"levelo_inurba_marseille","lat":43.35867,"lon":5.35674,"is_reserved":false,"is_disabled":false,"rental_uris":{"android":"levelo://app?vid=db774753-4382-453e-a138-c32d538f9839","ios":"levelo://app?vid=db774753-4382-453e-a138-c32d538f9839"},"vehicle_type_id":"4","last_reported":1702753500,"current_range_meters":9200,"station_id":"","pricing_plan_id":"free"},{"bike_id":"2082cbd1-3919-463c-8353-87c1fde7c0e1","system_id":"levelo_inurba_marseille","lat":43.26681,"lon":5.382694,"is_reserved":false,"is_disabled":false,"rental_uris":{"android":"levelo://app?vid=2082cbd1-3919-463c-8353-87c1fde7c0e1","ios":"levelo://app?vid=2082cbd1-3919-463c-8353-87c1fde7c0e1"},"vehicle_type_id":"4","last_reported":1702753500,"current_range_meters":13600,"station_id":"ce4bhg92rcd13ifvqf90","pricing_plan_id":"free"},{"bike_id":"52de8be1-9ba2-4c7e-ab8f-715d3a87692c","system_id":"levelo_inurba_marseille","lat":43.26554,"lon":5.37284,"is_reserved":false,"is_disabled":false,"rental_uris":{"android":"levelo://app?vid=52de8be1-9ba2-4c7e-ab8f-715d3a87692c","ios":"levelo://app?vid=52de8be1-9ba2-4c7e-ab8f-715d3a87692c"},"vehicle_type_id":"4","last_reported":1702753500,"current_range_meters":2800,"station_id":"ce4bhg12rcd13ifvqf70","pricing_plan_id":"free"},{"bike_id":"e5425772-f843-49fe-b869-a52f2462f4b8","system_id":"levelo_inurba_marseille","lat":43.26552,"lon":5.37286,"is_reserved":false,"is_disabled":false,"rental_uris":{"android":"levelo://app?vid=e5425772-f843-49fe-b869-a52f2462f4b8","ios":"levelo://app?vid=e5425772-f843-49fe-b869-a52f2462f4b8"},"vehicle_type_id":"4","last_reported":1702753500,"current_range_meters":20000,"station_id":"ce4bhg12rcd13ifvqf70","pricing_plan_id":"free"},{"bike_id":"c89857c3-0733-4570-9756-5a6591e4d31f","system_id":"levelo_inurba_marseille","lat":43.27996,"lon":5.416624,"is_reserved":false,"is_disabled":false,"rental_uris":{"android":"levelo://app?vid=c89857c3-0733-4570-9756-5a6591e4d31f","ios":"levelo://app?vid=c89857c3-0733-4570-9756-5a6591e4d31f"},"vehicle_type_id":"4","last_reported":1702753500,"current_range_meters":2400,"station_id":"ce4bho12rcd13ifvqh1g","pricing_plan_id":"free"},{"bike_id":"8a74afc9-c8ee-428c-95f4-83fc1e519239","system_id":"levelo_inurba_marseille","lat":43.27996,"lon":5.416624,"is_reserved":false,"is_disabled":false,"rental_uris":{"android":"levelo://app?vid=8a74afc9-c8ee-428c-95f4-83fc1e519239","ios":"levelo://app?vid=8a74afc9-c8ee-428c-95f4-83fc1e519239"},"vehicle_type_id":"4","last_reported":1702753500,"current_range_meters":1600,"station_id":"ce4bho12rcd13ifvqh1g","pricing_plan_id":"free"},{"bike_id":"4e5fa13c-797e-4b2b-9a7c-88c2a22fc530","system_id":"levelo_inurba_marseille","lat":43.27996,"lon":5.416624,"is_reserved":false,"is_disabled":false,"rental_uris":{"android":"levelo://app?vid=4e5fa13c-797e-4b2b-9a7c-88c2a22fc530","ios":"levelo://app?vid=4e5fa13c-797e-4b2b-9a7c-88c2a22fc530"},"vehicle_type_id":"4","last_reported":1702753500,"current_range_meters":31200,"station_id":"ce4bho12rcd13ifvqh1g","pricing_plan_id":"free"},{"bike_id":"63a5be26-ca79-42ce-b963-ff2f251917d4","system_id":"levelo_inurba_marseille","lat":43.26558,"lon":5.39,"is_reserved":false,"is_disabled":false,"rental_uris":{"android":"levelo://app?vid=63a5be26-ca79-42ce-b963-ff2f251917d4","ios":"levelo://app?vid=63a5be26-ca79-42ce-b963-ff2f251917d4"},"vehicle_type_id":"4","last_reported":1702753500,"current_range_meters":0,"station_id":"ce4bhe12rcd13ifvqf30","pricing_plan_id":"free"},{"bike_id":"fdeb981e-628e-4be9-ad6e-68754a7a8586","system_id":"levelo_inurba_marseille","lat":43.26187,"lon":5.37435,"is_reserved":false,"is_disabled":false,"rental_uris":{"android":"levelo://app?vid=fdeb981e-628e-4be9-ad6e-68754a7a8586","ios":"levelo://app?vid=fdeb981e-628e-4be9-ad6e-68754a7a8586"},"vehicle_type_id":"4","last_reported":1702753500,"current_range_meters":1200,"station_id":"ce4bhgp2rcd13ifvqfc0","pricing_plan_id":"free"},{"bike_id":"9b148fe7-0ffd-4931-8c29-6e6064af2347","system_id":"levelo_inurba_marseille","lat":43.317104,"lon":5.436818,"is_reserved":false,"is_disabled":false,"rental_uris":{"android":"levelo://app?vid=9b148fe7-0ffd-4931-8c29-6e6064af2347","ios":"levelo://app?vid=9b148fe7-0ffd-4931-8c29-6e6064af2347"},"vehicle_type_id":"4","last_reported":1702753500,"current_range_meters":18000,"station_id":"ce4bhp92rcd13ifvqhcg","pricing_plan_id":"free"},{"bike_id":"cd508d17-ee53-4f00-89f2-1854417d27a3","system_id":"levelo_inurba_marseille","lat":43.317104,"lon":5.436818,"is_reserved":false,"is_disabled":false,"rental_uris":{"android":"levelo://app?vid=cd508d17-ee53-4f00-89f2-1854417d27a3","ios":"levelo://app?vid=cd508d17-ee53-4f00-89f2-1854417d27a3"},"vehicle_type_id":"4","last_reported":1702753500,"current_range_meters":400,"station_id":"ce4bhp92rcd13ifvqhcg","pricing_plan_id":"free"},{"bike_id":"1178483c-0d1a-47b4-85ee-c550971cda20","system_id":"levelo_inurba_marseille","lat":43.317104,"lon":5.436818,"is_reserved":false,"is_disabled":false,"rental_uris":{"android":"levelo://app?vid=1178483c-0d1a-47b4-85ee-c550971cda20","ios":"levelo://app?vid=1178483c-0d1a-47b4-85ee-c550971cda20"},"vehicle_type_id":"4","last_reported":1702753500,"current_range_meters":24000,"station_id":"ce4bhp92rcd13ifvqhcg","pricing_plan_id":"free"},{"bike_id":"6bca7f14-330c-412a-9432-6438f3451c27","system_id":"levelo_inurba_marseille","lat":43.317104,"lon":5.436818,"is_reserved":false,"is_disabled":false,"rental_uris":{"android":"levelo://app?vid=6bca7f14-330c-412a-9432-6438f3451c27","ios":"levelo://app?vid=6bca7f14-330c-412a-9432-6438f3451c27"},"vehicle_type_id":"4","last_reported":1702753500,"current_range_meters":15200,"station_id":"ce4bhp92rcd13ifvqhcg","pricing_plan_id":"free"},{"bike_id":"fe1ec802-ae5b-406d-a6e5-80d478223c7d","system_id":"levelo_inurba_marseille","lat":43.271368,"lon":5.40928,"is_reserved":false,"is_disabled":false,"rental_uris":{"android":"levelo://app?vid=fe1ec802-ae5b-406d-a6e5-80d478223c7d","ios":"levelo://app?vid=fe1ec802-ae5b-406d-a6e5-80d478223c7d"},"vehicle_type_id":"4","last_reported":1702753500,"current_range_meters":16400,"station_id":"ce4bhl12rcd13ifvqgf0","pricing_plan_id":"free"},{"bike_id":"23548543-36f6-4965-81bf-9f36ee9d1298","system_id":"levelo_inurba_marseille","lat":43.267959,"lon":5.402687,"is_reserved":false,"is_disabled":false,"rental_uris":{"android":"levelo://app?vid=23548543-36f6-4965-81bf-9f36ee9d1298","ios":"levelo://app?vid=23548543-36f6-4965-81bf-9f36ee9d1298"},"vehicle_type_id":"4","last_reported":1702753500,"current_range_meters":23600,"station_id":"ce501612rcd8frsf0b60","pricing_plan_id":"free"},{"bike_id":"d084d587-4b27-4e47-8734-14f6d302ab83","system_id":"levelo_inurba_marseille","lat":43.298768,"lon":5.43643,"is_reserved":false,"is_disabled":false,"rental_uris":{"android":"levelo://app?vid=d084d587-4b27-4e47-8734-14f6d302ab83","ios":"levelo://app?vid=d084d587-4b27-4e47-8734-14f6d302ab83"},"vehicle_type_id":"4","last_reported":1702753500,"current_range_meters":28400,"station_id":"ce4bhpp2rcd13ifvqhfg","pricing_plan_id":"free"},{"bike_id":"e26792ce-4f9c-47df-8537-3fa8963ccdce","system_id":"levelo_inurba_marseille","lat":43.260225,"lon":5.375455,"is_reserved":false,"is_disabled":false,"rental_uris":{"android":"levelo://app?vid=e26792ce-4f9c-47df-8537-3fa8963ccdce","ios":"levelo://app?vid=e26792ce-4f9c-47df-8537-3fa8963ccdce"},"vehicle_type_id":"4","last_reported":1702753500,"current_range_meters":14800,"station_id":"ce4bhgh2rcd13ifvqfa0","pricing_plan_id":"free"},{"bike_id":"05e9a8db-94f6-45d6-92f2-2fefe3fabef8","system_id":"levelo_inurba_marseille","lat":43.281548,"lon":5.42643,"is_reserved":false,"is_disabled":false,"rental_uris":{"android":"levelo://app?vid=05e9a8db-94f6-45d6-92f2-2fefe3fabef8","ios":"levelo://app?vid=05e9a8db-94f6-45d6-92f2-2fefe3fabef8"},"vehicle_type_id":"4","last_reported":1702753500,"current_range_meters":14800,"station_id":"ce4bhnh2rcd13ifvqgug","pricing_plan_id":"free"},{"bike_id":"4dd764f6-774c-4512-8b0e-1beb34d8f863","system_id":"levelo_inurba_marseille","lat":43.281548,"lon":5.42643,"is_reserved":false,"is_disabled":false,"rental_uris":{"android":"levelo://app?vid=4dd764f6-774c-4512-8b0e-1beb34d8f863","ios":"levelo://app?vid=4dd764f6-774c-4512-8b0e-1beb34d8f863"},"vehicle_type_id":"4","last_reported":1702753500,"current_range_meters":10800,"station_id":"ce4bhnh2rcd13ifvqgug","pricing_plan_id":"free"},{"bike_id":"c6022e0d-d429-4a21-9eb9-10d07b3888ba","system_id":"levelo_inurba_marseille","lat":43.281548,"lon":5.42643,"is_reserved":false,"is_disabled":false,"rental_uris":{"android":"levelo://app?vid=c6022e0d-d429-4a21-9eb9-10d07b3888ba","ios":"levelo://app?vid=c6022e0d-d429-4a21-9eb9-10d07b3888ba"},"vehicle_type_id":"4","last_reported":1702753500,"current_range_meters":5200,"station_id":"ce4bhnh2rcd13ifvqgug","pricing_plan_id":"free"},{"bike_id":"db9d9aee-b6eb-44e3-9707-f193d311c7b0","system_id":"levelo_inurba_marseille","lat":43.2607,"lon":5.393983,"is_reserved":false,"is_disabled":false,"rental_uris":{"android":"levelo://app?vid=db9d9aee-b6eb-44e3-9707-f193d311c7b0","ios":"levelo://app?vid=db9d9aee-b6eb-44e3-9707-f193d311c7b0"},"vehicle_type_id":"4","last_reported":1702753500,"current_range_meters":5200,"station_id":"ce4bhh92rcd13ifvqfj0","pricing_plan_id":"free"},{"bike_id":"eb72cf00-5b74-4aac-948c-e470339f3e4d","system_id":"levelo_inurba_marseille","lat":43.2607,"lon":5.393983,"is_reserved":false,"is_disabled":false,"rental_uris":{"android":"levelo://app?vid=eb72cf00-5b74-4aac-948c-e470339f3e4d","ios":"levelo://app?vid=eb72cf00-5b74-4aac-948c-e470339f3e4d"},"vehicle_type_id":"4","last_reported":1702753500,"current_range_meters":4400,"station_id":"ce4bhh92rcd13ifvqfj0","pricing_plan_id":"free"},{"bike_id":"e67adb0b-4217-4b03-8657-2f9486792d7e","system_id":"levelo_inurba_marseille","lat":43.2607,"lon":5.393983,"is_reserved":false,"is_disabled":false,"rental_uris":{"android":"levelo://app?vid=e67adb0b-4217-4b03-8657-2f9486792d7e","ios":"levelo://app?vid=e67adb0b-4217-4b03-8657-2f9486792d7e"},"vehicle_type_id":"4","last_reported":1702753500,"current_range_meters":25600,"station_id":"ce4bhh92rcd13ifvqfj0","pricing_plan_id":"free"},{"bike_id":"6dbc8f93-6570-4633-897a-2b2a5f2a4aac","system_id":"levelo_inurba_marseille","lat":43.25826,"lon":5.39426,"is_reserved":false,"is_disabled":false,"rental_uris":{"android":"levelo://app?vid=6dbc8f93-6570-4633-897a-2b2a5f2a4aac","ios":"levelo://app?vid=6dbc8f93-6570-4633-897a-2b2a5f2a4aac"},"vehicle_type_id":"4","last_reported":1702753500,"current_range_meters":30000,"station_id":"ce4bhip2rcd13ifvqft0","pricing_plan_id":"free"},{"bike_id":"015d1bdd-8436-4e32-9689-46fc9fa5e8e3","system_id":"levelo_inurba_marseille","lat":43.25577,"lon":5.382254,"is_reserved":false,"is_disabled":false,"rental_uris":{"android":"levelo://app?vid=015d1bdd-8436-4e32-9689-46fc9fa5e8e3","ios":"levelo://app?vid=015d1bdd-8436-4e32-9689-46fc9fa5e8e3"},"vehicle_type_id":"4","last_reported":1702753500,"current_range_meters":400,"station_id":"ce4bhih2rcd13ifvqfs0","pricing_plan_id":"free"},{"bike_id":"2b7cab0a-463b-4d1b-8ca7-f6f8d1e91967","system_id":"levelo_inurba_marseille","lat":43.258205,"lon":5.394369,"is_reserved":false,"is_disabled":false,"rental_uris":{"android":"levelo://app?vid=2b7cab0a-463b-4d1b-8ca7-f6f8d1e91967","ios":"levelo://app?vid=2b7cab0a-463b-4d1b-8ca7-f6f8d1e91967"},"vehicle_type_id":"4","last_reported":1702753500,"current_range_meters":5600,"station_id":"ce4bhip2rcd13ifvqft0","pricing_plan_id":"free"},{"bike_id":"bacfe1e7-350e-4ee2-b919-71adf6442a86","system_id":"levelo_inurba_marseille","lat":43.25497,"lon":5.3765,"is_reserved":false,"is_disabled":false,"rental_uris":{"android":"levelo://app?vid=bacfe1e7-350e-4ee2-b919-71adf6442a86","ios":"levelo://app?vid=bacfe1e7-350e-4ee2-b919-71adf6442a86"},"vehicle_type_id":"4","last_reported":1702753500,"current_range_meters":6000,"station_id":"ce4bhh12rcd13ifvqff0","pricing_plan_id":"free"},{"bike_id":"7a47a71b-315e-4a6b-aec6-3d24641c898b","system_id":"levelo_inurba_marseille","lat":43.25494,"lon":5.3765,"is_reserved":false,"is_disabled":false,"rental_uris":{"android":"levelo://app?vid=7a47a71b-315e-4a6b-aec6-3d24641c898b","ios":"levelo://app?vid=7a47a71b-315e-4a6b-aec6-3d24641c898b"},"vehicle_type_id":"4","last_reported":1702753500,"current_range_meters":400,"station_id":"ce4bhh12rcd13ifvqff0","pricing_plan_id":"free"},{"bike_id":"f5a8fbea-f33a-4da1-926f-44d2ecea28ea","system_id":"levelo_inurba_marseille","lat":43.25492,"lon":5.37649,"is_reserved":false,"is_disabled":false,"rental_uris":{"android":"levelo://app?vid=f5a8fbea-f33a-4da1-926f-44d2ecea28ea","ios":"levelo://app?vid=f5a8fbea-f33a-4da1-926f-44d2ecea28ea"},"vehicle_type_id":"4","last_reported":1702753500,"current_range_meters":1200,"station_id":"ce4bhh12rcd13ifvqff0","pricing_plan_id":"free"},{"bike_id":"26954362-f19b-4ce0-ad65-e308ed4d326d","system_id":"levelo_inurba_marseille","lat":43.27072,"lon":5.42281,"is_reserved":false,"is_disabled":false,"rental_uris":{"android":"levelo://app?vid=26954362-f19b-4ce0-ad65-e308ed4d326d","ios":"levelo://app?vid=26954362-f19b-4ce0-ad65-e308ed4d326d"},"vehicle_type_id":"4","last_reported":1702753500,"current_range_meters":27600,"station_id":"ce4bhk92rcd13ifvqgb0","pricing_plan_id":"free"},{"bike_id":"5f30c6e4-1bf4-49a4-b131-860d5b6ae54b","system_id":"levelo_inurba_marseille","lat":43.250009,"lon":5.389195,"is_reserved":false,"is_disabled":false,"rental_uris":{"android":"levelo://app?vid=5f30c6e4-1bf4-49a4-b131-860d5b6ae54b","ios":"levelo://app?vid=5f30c6e4-1bf4-49a4-b131-860d5b6ae54b"},"vehicle_type_id":"4","last_reported":1702753500,"current_range_meters":28000,"station_id":"ce4bhgp2rcd13ifvqfd0","pricing_plan_id":"free"},{"bike_id":"448471ab-9356-485e-81ba-dceb5359d400","system_id":"levelo_inurba_marseille","lat":43.250009,"lon":5.389195,"is_reserved":false,"is_disabled":false,"rental_uris":{"android":"levelo://app?vid=448471ab-9356-485e-81ba-dceb5359d400","ios":"levelo://app?vid=448471ab-9356-485e-81ba-dceb5359d400"},"vehicle_type_id":"4","last_reported":1702753500,"current_range_meters":28000,"station_id":"ce4bhgp2rcd13ifvqfd0","pricing_plan_id":"free"},{"bike_id":"e0c92d68-5ac6-467a-a76e-ccc45eae5eb1","system_id":"levelo_inurba_marseille","lat":43.24807,"lon":5.37456,"is_reserved":false,"is_disabled":false,"rental_uris":{"android":"levelo://app?vid=e0c92d68-5ac6-467a-a76e-ccc45eae5eb1","ios":"levelo://app?vid=e0c92d68-5ac6-467a-a76e-ccc45eae5eb1"},"vehicle_type_id":"4","last_reported":1702753500,"current_range_meters":11600,"station_id":"ce4bhgh2rcd13ifvqfb0","pricing_plan_id":"free"},{"bike_id":"cda151f2-9ad2-46c9-9115-b73ba9a06619","system_id":"levelo_inurba_marseille","lat":43.25221,"lon":5.4064,"is_reserved":false,"is_disabled":false,"rental_uris":{"android":"levelo://app?vid=cda151f2-9ad2-46c9-9115-b73ba9a06619","ios":"levelo://app?vid=cda151f2-9ad2-46c9-9115-b73ba9a06619"},"vehicle_type_id":"4","last_reported":1702753500,"current_range_meters":3200,"station_id":"","pricing_plan_id":"free"},{"bike_id":"528d7f17-46e8-4a2f-98a3-4cb92ce35113","system_id":"levelo_inurba_marseille","lat":43.25102,"lon":5.403214,"is_reserved":false,"is_disabled":false,"rental_uris":{"android":"levelo://app?vid=528d7f17-46e8-4a2f-98a3-4cb92ce35113","ios":"levelo://app?vid=528d7f17-46e8-4a2f-98a3-4cb92ce35113"},"vehicle_type_id":"4","last_reported":1702753500,"current_range_meters":16800,"station_id":"ce4bhlh2rcd13ifvqgig","pricing_plan_id":"free"},{"bike_id":"b24708d4-79e7-4dea-a62a-eecbeea57365","system_id":"levelo_inurba_marseille","lat":43.25102,"lon":5.403214,"is_reserved":false,"is_disabled":false,"rental_uris":{"android":"levelo://app?vid=b24708d4-79e7-4dea-a62a-eecbeea57365","ios":"levelo://app?vid=b24708d4-79e7-4dea-a62a-eecbeea57365"},"vehicle_type_id":"4","last_reported":1702753500,"current_range_meters":400,"station_id":"ce4bhlh2rcd13ifvqgig","pricing_plan_id":"free"},{"bike_id":"3626885e-e4a8-4b95-b95d-d8c15eee3c9b","system_id":"levelo_inurba_marseille","lat":43.25102,"lon":5.403214,"is_reserved":false,"is_disabled":false,"rental_uris":{"android":"levelo://app?vid=3626885e-e4a8-4b95-b95d-d8c15eee3c9b","ios":"levelo://app?vid=3626885e-e4a8-4b95-b95d-d8c15eee3c9b"},"vehicle_type_id":"4","last_reported":1702753500,"current_range_meters":3600,"station_id":"ce4bhlh2rcd13ifvqgig","pricing_plan_id":"free"},{"bike_id":"ed2c4b9b-5f0b-4998-86b3-4a83f36d191b","system_id":"levelo_inurba_marseille","lat":43.25102,"lon":5.403214,"is_reserved":false,"is_disabled":false,"rental_uris":{"android":"levelo://app?vid=ed2c4b9b-5f0b-4998-86b3-4a83f36d191b","ios":"levelo://app?vid=ed2c4b9b-5f0b-4998-86b3-4a83f36d191b"},"vehicle_type_id":"4","last_reported":1702753500,"current_range_meters":21200,"station_id":"ce4bhlh2rcd13ifvqgig","pricing_plan_id":"free"},{"bike_id":"b35e49f7-2d7c-42c5-bdb1-1b9bc960b21b","system_id":"levelo_inurba_marseille","lat":43.24391,"lon":5.37069,"is_reserved":false,"is_disabled":false,"rental_uris":{"android":"levelo://app?vid=b35e49f7-2d7c-42c5-bdb1-1b9bc960b21b","ios":"levelo://app?vid=b35e49f7-2d7c-42c5-bdb1-1b9bc960b21b"},"vehicle_type_id":"4","last_reported":1702753500,"current_range_meters":0,"station_id":"ce4bhhh2rcd13ifvqfk0","pricing_plan_id":"free"},{"bike_id":"2913b0e3-c44c-49f1-ba84-d9d46d3f68b0","system_id":"levelo_inurba_marseille","lat":43.2487,"lon":5.41002,"is_reserved":false,"is_disabled":false,"rental_uris":{"android":"levelo://app?vid=2913b0e3-c44c-49f1-ba84-d9d46d3f68b0","ios":"levelo://app?vid=2913b0e3-c44c-49f1-ba84-d9d46d3f68b0"},"vehicle_type_id":"4","last_reported":1702753500,"current_range_meters":18000,"station_id":"","pricing_plan_id":"free"},{"bike_id":"ee83fd25-65b9-414e-935b-7e3d2531a0b9","system_id":"levelo_inurba_marseille","lat":43.24134,"lon":5.37028,"is_reserved":false,"is_disabled":false,"rental_uris":{"android":"levelo://app?vid=ee83fd25-65b9-414e-935b-7e3d2531a0b9","ios":"levelo://app?vid=ee83fd25-65b9-414e-935b-7e3d2531a0b9"},"vehicle_type_id":"4","last_reported":1702753500,"current_range_meters":400,"station_id":"","pricing_plan_id":"free"},{"bike_id":"8bde1f20-3114-431c-b2df-22d6e7b7655a","system_id":"levelo_inurba_marseille","lat":43.23199,"lon":5.35553,"is_reserved":false,"is_disabled":false,"rental_uris":{"android":"levelo://app?vid=8bde1f20-3114-431c-b2df-22d6e7b7655a","ios":"levelo://app?vid=8bde1f20-3114-431c-b2df-22d6e7b7655a"},"vehicle_type_id":"4","last_reported":1702753500,"current_range_meters":9200,"station_id":"ce4bhu92rcd13ifvqi70","pricing_plan_id":"free"},{"bike_id":"85d4097c-b8fb-47e3-9b73-ba49b70e33d8","system_id":"levelo_inurba_marseille","lat":43.23197,"lon":5.35552,"is_reserved":false,"is_disabled":false,"rental_uris":{"android":"levelo://app?vid=85d4097c-b8fb-47e3-9b73-ba49b70e33d8","ios":"levelo://app?vid=85d4097c-b8fb-47e3-9b73-ba49b70e33d8"},"vehicle_type_id":"4","last_reported":1702753500,"current_range_meters":23200,"station_id":"ce4bhu92rcd13ifvqi70","pricing_plan_id":"free"},{"bike_id":"90458881-97e2-4d19-a7dd-597c18dc1844","system_id":"levelo_inurba_marseille","lat":43.23196,"lon":5.35557,"is_reserved":false,"is_disabled":false,"rental_uris":{"android":"levelo://app?vid=90458881-97e2-4d19-a7dd-597c18dc1844","ios":"levelo://app?vid=90458881-97e2-4d19-a7dd-597c18dc1844"},"vehicle_type_id":"4","last_reported":1702753500,"current_range_meters":21600,"station_id":"ce4bhu92rcd13ifvqi70","pricing_plan_id":"free"},{"bike_id":"760219ab-0887-48ce-b49e-5a40cc3afc6e","system_id":"levelo_inurba_marseille","lat":43.23196,"lon":5.35547,"is_reserved":false,"is_disabled":false,"rental_uris":{"android":"levelo://app?vid=760219ab-0887-48ce-b49e-5a40cc3afc6e","ios":"levelo://app?vid=760219ab-0887-48ce-b49e-5a40cc3afc6e"},"vehicle_type_id":"4","last_reported":1702753500,"current_range_meters":21200,"station_id":"ce4bhu92rcd13ifvqi70","pricing_plan_id":"free"},{"bike_id":"d3de5ca6-d559-43d0-8ed6-c46c756ed81c","system_id":"levelo_inurba_marseille","lat":43.23196,"lon":5.35544,"is_reserved":false,"is_disabled":false,"rental_uris":{"android":"levelo://app?vid=d3de5ca6-d559-43d0-8ed6-c46c756ed81c","ios":"levelo://app?vid=d3de5ca6-d559-43d0-8ed6-c46c756ed81c"},"vehicle_type_id":"4","last_reported":1702753500,"current_range_meters":1600,"station_id":"ce4bhu92rcd13ifvqi70","pricing_plan_id":"free"},{"bike_id":"0914bc04-89c8-46f4-bf04-78aea5230869","system_id":"levelo_inurba_marseille","lat":43.23194,"lon":5.35549,"is_reserved":false,"is_disabled":false,"rental_uris":{"android":"levelo://app?vid=0914bc04-89c8-46f4-bf04-78aea5230869","ios":"levelo://app?vid=0914bc04-89c8-46f4-bf04-78aea5230869"},"vehicle_type_id":"4","last_reported":1702753500,"current_range_meters":29200,"station_id":"ce4bhu92rcd13ifvqi70","pricing_plan_id":"free"},{"bike_id":"c0509687-6622-44dd-a042-9b19ef27d0ea","system_id":"levelo_inurba_marseille","lat":43.231927,"lon":5.355563,"is_reserved":false,"is_disabled":false,"rental_uris":{"android":"levelo://app?vid=c0509687-6622-44dd-a042-9b19ef27d0ea","ios":"levelo://app?vid=c0509687-6622-44dd-a042-9b19ef27d0ea"},"vehicle_type_id":"4","last_reported":1702753500,"current_range_meters":31200,"station_id":"ce4bhu92rcd13ifvqi70","pricing_plan_id":"free"},{"bike_id":"c58c2105-152a-4be3-96b7-ef7d8114d5d4","system_id":"levelo_inurba_marseille","lat":43.23192,"lon":5.35554,"is_reserved":false,"is_disabled":false,"rental_uris":{"android":"levelo://app?vid=c58c2105-152a-4be3-96b7-ef7d8114d5d4","ios":"levelo://app?vid=c58c2105-152a-4be3-96b7-ef7d8114d5d4"},"vehicle_type_id":"4","last_reported":1702753500,"current_range_meters":16800,"station_id":"ce4bhu92rcd13ifvqi70","pricing_plan_id":"free"},{"bike_id":"9b13ea6e-561a-4716-a516-c5aead357a46","system_id":"levelo_inurba_marseille","lat":43.23191,"lon":5.35549,"is_reserved":false,"is_disabled":false,"rental_uris":{"android":"levelo://app?vid=9b13ea6e-561a-4716-a516-c5aead357a46","ios":"levelo://app?vid=9b13ea6e-561a-4716-a516-c5aead357a46"},"vehicle_type_id":"4","last_reported":1702753500,"current_range_meters":18800,"station_id":"ce4bhu92rcd13ifvqi70","pricing_plan_id":"free"},{"bike_id":"be641546-dcea-4309-ad5a-32c7507f146a","system_id":"levelo_inurba_marseille","lat":43.2319,"lon":5.35553,"is_reserved":false,"is_disabled":false,"rental_uris":{"android":"levelo://app?vid=be641546-dcea-4309-ad5a-32c7507f146a","ios":"levelo://app?vid=be641546-dcea-4309-ad5a-32c7507f146a"},"vehicle_type_id":"4","last_reported":1702753500,"current_range_meters":13600,"station_id":"ce4bhu92rcd13ifvqi70","pricing_plan_id":"free"},{"bike_id":"e4f94050-aae1-4821-b78a-030e7070af2a","system_id":"levelo_inurba_marseille","lat":43.231893,"lon":5.355563,"is_reserved":false,"is_disabled":false,"rental_uris":{"android":"levelo://app?vid=e4f94050-aae1-4821-b78a-030e7070af2a","ios":"levelo://app?vid=e4f94050-aae1-4821-b78a-030e7070af2a"},"vehicle_type_id":"4","last_reported":1702753500,"current_range_meters":19200,"station_id":"ce4bhu92rcd13ifvqi70","pricing_plan_id":"free"}]}}