{"last_updated":1727042924,"ttl":30,"version":"2.2","data":{"bikes":[{"bike_id":"9402f513-d027-480d-a171-50f5e6861e88","system_id":"levelo_inurba_marseille","lat":43.23962,"lon":5.36632,"is_reserved":false,"is_disabled":false,"rental_uris":{"android":"levelo://app?vid=9402f513-d027-480d-a171-50f5e6861e88","ios":"levelo://app?vid=9402f513-d027-480d-a171-50f5e6861e88"},"vehicle_type_id":"4","last_reported":1727042924,"current_range_meters":38800,"station_id":"ce4bhi12rcd13ifvqfp0","pricing_plan_id":"cebpf4jnsgd1na2vs0mg"},{"bike_id":"fd84f170-c075-4570-a556-c5e617e29406","system_id":"levelo_inurba_marseille","lat":43.28288,"lon":5.40893,"is_reserved":false,"is_disabled":false,"rental_uris":{"android":"levelo://app?vid=fd84f170-c075-4570-a556-c5e617e29406","ios":"levelo://app?vid=fd84f170-c075-4570-a556-c5e617e29406"},"vehicle_type_id":"4","last_reported":1727042924,"current_range_meters":17600,"station_id":"","pricing_plan_id":"cebpf4jnsgd1na2vs0mg"},{"bike_id":"65f0aedc-51a0-41ca-a8da-042dc75a3233","system_id":"levelo_inurba_marseille","lat":43.31494,"lon":5.37309,"is_reserved":false,"is_disabled":false,"rental_uris":{"android":"levelo://app?vid=65f0aedc-51a0-41ca-a8da-042dc75a3233","ios":"levelo://app?vid=65f0aedc-51a0-41ca-a8da-042dc75a3233"},"vehicle_type_id":"4","last_reported":1727042924,"current_range_meters":28000,"station_id":"ce4bgt12rcd13ifvqcd0","pricing_plan_id":"cebpf4jnsgd1na2vs0mg"},{"bike_id":"c3092ca8-ae64-4d17-8b92-19e1ce991720","system_id":"levelo_inurba_marseille","lat":43.26062,"lon":5.394,"is_reserved":false,"is_disabled":false,"rental_uris":{"android":"levelo://app?vid=c3092ca8-ae64-4d17-8b92-19e1ce991720","ios":"levelo://app?vid=c3092ca8-ae64-4d17-8b92-19e1ce991720"},"vehicle_type_id":"4","last_reported":1727042924,"current_range_meters":31200,"station_id":"ce4bhh92rcd13ifvqfj0","pricing_plan_id":"cebpf4jnsgd1na2vs0mg"},{"bike_id":"d7ac5f77-1333-4b77-afc8-a0ac1683b9c1","system_id":"levelo_inurba_marseille","lat":43.30591,"lon":5.37211,"is_reserved":false,"is_disabled":false,"rental_uris":{"android":"levelo://app?vid=d7ac5f77-1333-4b77-afc8-a0ac1683b9c1","ios":"levelo://app?vid=d7ac5f77-1333-4b77-afc8-a0ac1683b9c1"},"vehicle_type_id":"4","last_reported":1727042924,"current_range_meters":39200,"station_id":"ce4bgqh2rcd13ifvqc4g","pricing_plan_id":"cebpf4jnsgd1na2vs0mg"},{"bike_id":"d7e56aa3-747f-4f88-904f-52d503b8a4b3","system_id":"levelo_inurba_marseille","lat":43.30634,"lon":5.40086,"is_reserved":false,"is_disabled":false,"rental_uris":{"android":"levelo://app?vid=d7e56aa3-747f-4f88-904f-52d503b8a4b3","ios":"levelo://app?vid=d7e56aa3-747f-4f88-904f-52d503b8a4b3"},"vehicle_type_id":"4","last_reported":1727042924,"current_range_meters":8000,"station_id":"ce4bh112rcd13ifvqda0","pricing_plan_id":"cebpf4jnsgd1na2vs0mg"},{"bike_id":"184b35f6-f4a6-413f-818e-4fcb736211a1","system_id":"levelo_inurba_marseille","lat":43.32657,"lon":5.40999,"is_reserved":false,"is_disabled":false,"rental_uris":{"android":"levelo://app?vid=184b35f6-f4a6-413f-818e-4fcb736211a1","ios":"levelo://app?vid=184b35f6-f4a6-413f-818e-4fcb736211a1"},"vehicle_type_id":"4","last_reported":1727042924,"current_range_meters":27600,"station_id":"ce4bhpp2rcd13ifvqhgg","pricing_plan_id":"cebpf4jnsgd1na2vs0mg"},{"bike_id":"70f31ad7-b57f-4170-a83d-5873b2a1f7f2","system_id":"levelo_inurba_marseille","lat":43.313281,"lon":5.396883,"is_reserved":false,"is_disabled":false,"rental_uris":{"android":"levelo://app?vid=70f31ad7-b57f-4170-a83d-5873b2a1f7f2","ios":"levelo://app?vid=70f31ad7-b57f-4170-a83d-5873b2a1f7f2"},"vehicle_type_id":"4","last_reported":1727042924,"current_range_meters":32000,"station_id":"ce4bgvp2rcd13ifvqcu0","pricing_plan_id":"cebpf4jnsgd1na2vs0mg"},{"bike_id":"036ab996-f6bf-4c60-9b33-c9580ef44614","system_id":"levelo_inurba_marseille","lat":43.32366,"lon":5.38884,"is_reserved":false,"is_disabled":false,"rental_uris":{"android":"levelo://app?vid=036ab996-f6bf-4c60-9b33-c9580ef44614","ios":"levelo://app?vid=036ab996-f6bf-4c60-9b33-c9580ef44614"},"vehicle_type_id":"4","last_reported":1727042924,"current_range_meters":35200,"station_id":"ce4bhqp2rcd13ifvqhog","pricing_plan_id":"cebpf4jnsgd1na2vs0mg"},{"bike_id":"adbcb13b-1d6e-44b3-b317-bd8e6ba5c8c5","system_id":"levelo_inurba_marseille","lat":43.31709,"lon":5.37754,"is_reserved":false,"is_disabled":false,"rental_uris":{"android":"levelo://app?vid=adbcb13b-1d6e-44b3-b317-bd8e6ba5c8c5","ios":"levelo://app?vid=adbcb13b-1d6e-44b3-b317-bd8e6ba5c8c5"},"vehicle_type_id":"4","last_reported":1727042924,"current_range_meters":12000,"station_id":"ce4bgth2rcd13ifvqch0","pricing_plan_id":"cebpf4jnsgd1na2vs0mg"},{"bike_id":"2375269c-1ee0-4177-a574-bcc26e16eb27","system_id":"levelo_inurba_marseille","lat":43.31712,"lon":5.43716,"is_reserved":false,"is_disabled":false,"rental_uris":{"android":"levelo://app?vid=2375269c-1ee0-4177-a574-bcc26e16eb27","ios":"levelo://app?vid=2375269c-1ee0-4177-a574-bcc26e16eb27"},"vehicle_type_id":"4","last_reported":1727042924,"current_range_meters":19200,"station_id":"ce4bhp92rcd13ifvqhcg","pricing_plan_id":"cebpf4jnsgd1na2vs0mg"},{"bike_id":"26928311-73e0-4a04-a1f4-c5d8a6b46043","system_id":"levelo_inurba_marseille","lat":43.28669,"lon":5.36345,"is_reserved":false,"is_disabled":false,"rental_uris":{"android":"levelo://app?vid=26928311-73e0-4a04-a1f4-c5d8a6b46043","ios":"levelo://app?vid=26928311-73e0-4a04-a1f4-c5d8a6b46043"},"vehicle_type_id":"4","last_reported":1727042924,"current_range_meters":19600,"station_id":"ce4bhah2rcd13ifvqej0","pricing_plan_id":"cebpf4jnsgd1na2vs0mg"},{"bike_id":"92b0e5ad-a7f8-432d-9dda-c8ade8173e42","system_id":"levelo_inurba_marseille","lat":43.29621,"lon":5.37165,"is_reserved":false,"is_disabled":false,"rental_uris":{"android":"levelo://app?vid=92b0e5ad-a7f8-432d-9dda-c8ade8173e42","ios":"levelo://app?vid=92b0e5ad-a7f8-432d-9dda-c8ade8173e42"},"vehicle_type_id":"4","last_reported":1727042924,"current_range_meters":30800,"station_id":"ce4bgnh2rcd13ifvqc0g","pricing_plan_id":"cebpf4jnsgd1na2vs0mg"},{"bike_id":"3088b933-0eb0-44a5-81e7-422b8bfe6707","system_id":"levelo_inurba_marseille","lat":43.2407,"lon":5.37756,"is_reserved":false,"is_disabled":false,"rental_uris":{"android":"levelo://app?vid=3088b933-0eb0-44a5-81e7-422b8bfe6707","ios":"levelo://app?vid=3088b933-0eb0-44a5-81e7-422b8bfe6707"},"vehicle_type_id":"4","last_reported":1727042924,"current_range_meters":18000,"station_id":"ce4bhnp2rcd13ifvqgvg","pricing_plan_id":"cebpf4jnsgd1na2vs0mg"},{"bike_id":"c5a75e30-0283-4bf4-aba8-39ccae5f427b","system_id":"levelo_inurba_marseille","lat":43.29254,"lon":5.40907,"is_reserved":false,"is_disabled":false,"rental_uris":{"android":"levelo://app?vid=c5a75e30-0283-4bf4-aba8-39ccae5f427b","ios":"levelo://app?vid=c5a75e30-0283-4bf4-aba8-39ccae5f427b"},"vehicle_type_id":"4","last_reported":1727042924,"current_range_meters":32000,"station_id":"ce4bh192rcd13ifvqdc0","pricing_plan_id":"cebpf4jnsgd1na2vs0mg"},{"bike_id":"438c0a02-fbc2-474b-8c9b-ba0e9de58540","system_id":"levelo_inurba_marseille","lat":43.2849,"lon":5.38415,"is_reserved":false,"is_disabled":false,"rental_uris":{"android":"levelo://app?vid=438c0a02-fbc2-474b-8c9b-ba0e9de58540","ios":"levelo://app?vid=438c0a02-fbc2-474b-8c9b-ba0e9de58540"},"vehicle_type_id":"4","last_reported":1727042924,"current_range_meters":36000,"station_id":"ce4bh512rcd13ifvqe3g","pricing_plan_id":"cebpf4jnsgd1na2vs0mg"},{"bike_id":"57e929c2-8009-41e6-a843-5ee23c88dbe0","system_id":"levelo_inurba_marseille","lat":43.3031,"lon":5.36893,"is_reserved":false,"is_disabled":false,"rental_uris":{"android":"levelo://app?vid=57e929c2-8009-41e6-a843-5ee23c88dbe0","ios":"levelo://app?vid=57e929c2-8009-41e6-a843-5ee23c88dbe0"},"vehicle_type_id":"4","last_reported":1727042924,"current_range_meters":38000,"station_id":"ce4bgqh2rcd13ifvqc5g","pricing_plan_id":"cebpf4jnsgd1na2vs0mg"},{"bike_id":"7828679a-6f47-4232-b39f-50ef00ac344a","system_id":"levelo_inurba_marseille","lat":43.28668,"lon":5.38665,"is_reserved":false,"is_disabled":false,"rental_uris":{"android":"levelo://app?vid=7828679a-6f47-4232-b39f-50ef00ac344a","ios":"levelo://app?vid=7828679a-6f47-4232-b39f-50ef00ac344a"},"vehicle_type_id":"4","last_reported":1727042924,"current_range_meters":33200,"station_id":"ce4bh492rcd13ifvqdug","pricing_plan_id":"cebpf4jnsgd1na2vs0mg"},{"bike_id":"20a042f1-81aa-4cde-8548-4f002e395336","system_id":"levelo_inurba_marseille","lat":43.30166,"lon":5.3986,"is_reserved":false,"is_disabled":false,"rental_uris":{"android":"levelo://app?vid=20a042f1-81aa-4cde-8548-4f002e395336","ios":"levelo://app?vid=20a042f1-81aa-4cde-8548-4f002e395336"},"vehicle_type_id":"4","last_reported":1727042924,"current_range_meters":36000,"station_id":"ce4bgvp2rcd13ifvqct0","pricing_plan_id":"cebpf4jnsgd1na2vs0mg"},{"bike_id":"a6c10d51-6eba-4149-97af-7fb12d950cfe","system_id":"levelo_inurba_marseille","lat":43.31134,"lon":5.378136,"is_reserved":false,"is_disabled":false,"rental_uris":{"android":"levelo://app?vid=a6c10d51-6eba-4149-97af-7fb12d950cfe","ios":"levelo://app?vid=a6c10d51-6eba-4149-97af-7fb12d950cfe"},"vehicle_type_id":"4","last_reported":1727042924,"current_range_meters":27600,"station_id":"ce4bgt92rcd13ifvqcg0","pricing_plan_id":"cebpf4jnsgd1na2vs0mg"},{"bike_id":"eba66bb8-485a-4a36-900e-7a7af5e48d0c","system_id":"levelo_inurba_marseille","lat":43.27985,"lon":5.41661,"is_reserved":false,"is_disabled":false,"rental_uris":{"android":"levelo://app?vid=eba66bb8-485a-4a36-900e-7a7af5e48d0c","ios":"levelo://app?vid=eba66bb8-485a-4a36-900e-7a7af5e48d0c"},"vehicle_type_id":"4","last_reported":1727042924,"current_range_meters":31200,"station_id":"ce4bho12rcd13ifvqh1g","pricing_plan_id":"cebpf4jnsgd1na2vs0mg"},{"bike_id":"afb6b3a2-c7d1-4a95-9989-a7fa467728ea","system_id":"levelo_inurba_marseille","lat":43.30797,"lon":5.4352,"is_reserved":false,"is_disabled":false,"rental_uris":{"android":"levelo://app?vid=afb6b3a2-c7d1-4a95-9989-a7fa467728ea","ios":"levelo://app?vid=afb6b3a2-c7d1-4a95-9989-a7fa467728ea"},"vehicle_type_id":"4","last_reported":1727042924,"current_range_meters":38800,"station_id":"ce4bhph2rcd13ifvqheg","pricing_plan_id":"cebpf4jnsgd1na2vs0mg"},{"bike_id":"cbe1d532-4808-44ee-b9d0-83fa9f257b96","system_id":"levelo_inurba_marseille","lat":43.26058,"lon":5.39395,"is_reserved":false,"is_disabled":false,"rental_uris":{"android":"levelo://app?vid=cbe1d532-4808-44ee-b9d0-83fa9f257b96","ios":"levelo://app?vid=cbe1d532-4808-44ee-b9d0-83fa9f257b96"},"vehicle_type_id":"4","last_reported":1727042924,"current_range_meters":29600,"station_id":"ce4bhh92rcd13ifvqfj0","pricing_plan_id":"cebpf4jnsgd1na2vs0mg"},{"bike_id":"8ee66d5b-9ad1-4208-b852-5a56750158ee","system_id":"levelo_inurba_marseille","lat":43.29976,"lon":5.38476,"is_reserved":false,"is_disabled":false,"rental_uris":{"android":"levelo://app?vid=8ee66d5b-9ad1-4208-b852-5a56750158ee","ios":"levelo://app?vid=8ee66d5b-9ad1-4208-b852-5a56750158ee"},"vehicle_type_id":"4","last_reported":1727042924,"current_range_meters":22400,"station_id":"ce4bgj92rcd13ifvqbd0","pricing_plan_id":"cebpf4jnsgd1na2vs0mg"},{"bike_id":"5fc51d81-7c31-488f-a947-5cc71eb132e8","system_id":"levelo_inurba_marseille","lat":43.25,"lon":5.38925,"is_reserved":false,"is_disabled":false,"rental_uris":{"android":"levelo://app?vid=5fc51d81-7c31-488f-a947-5cc71eb132e8","ios":"levelo://app?vid=5fc51d81-7c31-488f-a947-5cc71eb132e8"},"vehicle_type_id":"4","last_reported":1727042924,"current_range_meters":22000,"station_id":"ce4bhgp2rcd13ifvqfd0","pricing_plan_id":"cebpf4jnsgd1na2vs0mg"},{"bike_id":"edb07fa4-2803-41ce-a1b1-e797d8236b53","system_id":"levelo_inurba_marseille","lat":43.28843,"lon":5.3585,"is_reserved":false,"is_disabled":false,"rental_uris":{"android":"levelo://app?vid=edb07fa4-2803-41ce-a1b1-e797d8236b53","ios":"levelo://app?vid=edb07fa4-2803-41ce-a1b1-e797d8236b53"},"vehicle_type_id":"4","last_reported":1727042924,"current_range_meters":30400,"station_id":"ce4bhb12rcd13ifvqem0","pricing_plan_id":"cebpf4jnsgd1na2vs0mg"},{"bike_id":"97b7499d-11e3-48e1-94b6-68f637f3e323","system_id":"levelo_inurba_marseille","lat":43.265042,"lon":5.395454,"is_reserved":false,"is_disabled":false,"rental_uris":{"android":"levelo://app?vid=97b7499d-11e3-48e1-94b6-68f637f3e323","ios":"levelo://app?vid=97b7499d-11e3-48e1-94b6-68f637f3e323"},"vehicle_type_id":"4","last_reported":1727042924,"current_range_meters":10800,"station_id":"ce4bhi12rcd13ifvqfq0","pricing_plan_id":"cebpf4jnsgd1na2vs0mg"},{"bike_id":"8c174498-b846-405d-a78b-746976f46acb","system_id":"levelo_inurba_marseille","lat":43.31486,"lon":5.37306,"is_reserved":false,"is_disabled":false,"rental_uris":{"android":"levelo://app?vid=8c174498-b846-405d-a78b-746976f46acb","ios":"levelo://app?vid=8c174498-b846-405d-a78b-746976f46acb"},"vehicle_type_id":"4","last_reported":1727042924,"current_range_meters":39200,"station_id":"ce4bgt12rcd13ifvqcd0","pricing_plan_id":"cebpf4jnsgd1na2vs0mg"},{"bike_id":"09294207-06dc-4376-b148-2c0fb3b38409","system_id":"levelo_inurba_marseille","lat":43.25579,"lon":5.38236,"is_reserved":false,"is_disabled":false,"rental_uris":{"android":"levelo://app?vid=09294207-06dc-4376-b148-2c0fb3b38409","ios":"levelo://app?vid=09294207-06dc-4376-b148-2c0fb3b38409"},"vehicle_type_id":"4","last_reported":1727042924,"current_range_meters":8800,"station_id":"ce4bhih2rcd13ifvqfs0","pricing_plan_id":"cebpf4jnsgd1na2vs0mg"},{"bike_id":"55371f94-6b8f-44c9-aebe-3d4ed6530093","system_id":"levelo_inurba_marseille","lat":43.28613,"lon":5.37061,"is_reserved":false,"is_disabled":false,"rental_uris":{"android":"levelo://app?vid=55371f94-6b8f-44c9-aebe-3d4ed6530093","ios":"levelo://app?vid=55371f94-6b8f-44c9-aebe-3d4ed6530093"},"vehicle_type_id":"4","last_reported":1727042924,"current_range_meters":25600,"station_id":"ce4bht12rcd13ifvqi60","pricing_plan_id":"cebpf4jnsgd1na2vs0mg"},{"bike_id":"baa9e3ba-a317-4c5a-937b-63c24c256bd8","system_id":"levelo_inurba_marseille","lat":43.32657,"lon":5.40995,"is_reserved":false,"is_disabled":false,"rental_uris":{"android":"levelo://app?vid=baa9e3ba-a317-4c5a-937b-63c24c256bd8","ios":"levelo://app?vid=baa9e3ba-a317-4c5a-937b-63c24c256bd8"},"vehicle_type_id":"4","last_reported":1727042924,"current_range_meters":38800,"station_id":"ce4bhpp2rcd13ifvqhgg","pricing_plan_id":"cebpf4jnsgd1na2vs0mg"},{"bike_id":"6fb5c5d3-6aa9-4d3c-a0e6-f1f095d5520e","system_id":"levelo_inurba_marseille","lat":43.28667,"lon":5.36346,"is_reserved":false,"is_disabled":false,"rental_uris":{"android":"levelo://app?vid=6fb5c5d3-6aa9-4d3c-a0e6-f1f095d5520e","ios":"levelo://app?vid=6fb5c5d3-6aa9-4d3c-a0e6-f1f095d5520e"},"vehicle_type_id":"4","last_reported":1727042924,"current_range_meters":27600,"station_id":"ce4bhah2rcd13ifvqej0","pricing_plan_id":"cebpf4jnsgd1na2vs0mg"},{"bike_id":"bf9495db-1220-4cb4-9d3f-7433d3b4f386","system_id":"levelo_inurba_marseille","lat":43.28271,"lon":5.35067,"is_reserved":false,"is_disabled":false,"rental_uris":{"android":"levelo://app?vid=bf9495db-1220-4cb4-9d3f-7433d3b4f386","ios":"levelo://app?vid=bf9495db-1220-4cb4-9d3f-7433d3b4f386"},"vehicle_type_id":"4","last_reported":1727042924,"current_range_meters":38800,"station_id":"ce4bhbp2rcd13ifvqerg","pricing_plan_id":"cebpf4jnsgd1na2vs0mg"},{"bike_id":"16d4bd0d-6e6e-43a3-8409-201ee974ca78","system_id":"levelo_inurba_marseille","lat":43.28585,"lon":5.39474,"is_reserved":false,"is_disabled":false,"rental_uris":{"android":"levelo://app?vid=16d4bd0d-6e6e-43a3-8409-201ee974ca78","ios":"levelo://app?vid=16d4bd0d-6e6e-43a3-8409-201ee974ca78"},"vehicle_type_id":"4","last_reported":1727042924,"current_range_meters":25200,"station_id":"ce4bh292rcd13ifvqdg0","pricing_plan_id":"cebpf4jnsgd1na2vs0mg"},{"bike_id":"e35f0e97-2b9f-438d-b1bc-2da44bc851c0","system_id":"levelo_inurba_marseille","lat":43.31711,"lon":5.43708,"is_reserved":false,"is_disabled":false,"rental_uris":{"android":"levelo://app?vid=e35f0e97-2b9f-438d-b1bc-2da44bc851c0","ios":"levelo://app?vid=e35f0e97-2b9f-438d-b1bc-2da44bc851c0"},"vehicle_type_id":"4","last_reported":1727042924,"current_range_meters":40000,"station_id":"ce4bhp92rcd13ifvqhcg","pricing_plan_id":"cebpf4jnsgd1na2vs0mg"},{"bike_id":"1f9b60ca-1533-4152-ab34-e0e723e13f55","system_id":"levelo_inurba_marseille","lat":43.310814,"lon":5.383534,"is_reserved":false,"is_disabled":false,"rental_uris":{"android":"levelo://app?vid=1f9b60ca-1533-4152-ab34-e0e723e13f55","ios":"levelo://app?vid=1f9b60ca-1533-4152-ab34-e0e723e13f55"},"vehicle_type_id":"4","last_reported":1727042924,"current_range_meters":38000,"station_id":"ce4bgqh2rcd13ifvqc4g","pricing_plan_id":"cebpf4jnsgd1na2vs0mg"},{"bike_id":"b51ce446-611a-42c6-8797-bda05e34d07b","system_id":"levelo_inurba_marseille","lat":43.31328,"lon":5.39691,"is_reserved":false,"is_disabled":false,"rental_uris":{"android":"levelo://app?vid=b51ce446-611a-42c6-8797-bda05e34d07b","ios":"levelo://app?vid=b51ce446-611a-42c6-8797-bda05e34d07b"},"vehicle_type_id":"4","last_reported":1727042924,"current_range_meters":35200,"station_id":"ce4bgvp2rcd13ifvqcu0","pricing_plan_id":"cebpf4jnsgd1na2vs0mg"},{"bike_id":"3ce59b6f-7686-4b2b-8d52-a069173b32ca","system_id":"levelo_inurba_marseille","lat":43.31165,"lon":5.38715,"is_reserved":false,"is_disabled":false,"rental_uris":{"android":"levelo://app?vid=3ce59b6f-7686-4b2b-8d52-a069173b32ca","ios":"levelo://app?vid=3ce59b6f-7686-4b2b-8d52-a069173b32ca"},"vehicle_type_id":"4","last_reported":1727042924,"current_range_meters":39200,"station_id":"ce4bgv12rcd13ifvqcp0","pricing_plan_id":"cebpf4jnsgd1na2vs0mg"},{"bike_id":"52df1d85-3291-428a-925f-cee2a58e073e","system_id":"levelo_inurba_marseille","lat":43.28298,"lon":5.38093,"is_reserved":false,"is_disabled":false,"rental_uris":{"android":"levelo://app?vid=52df1d85-3291-428a-925f-cee2a58e073e","ios":"levelo://app?vid=52df1d85-3291-428a-925f-cee2a58e073e"},"vehicle_type_id":"4","last_reported":1727042924,"current_range_meters":8400,"station_id":"ce4bh412rcd13ifvqdr0","pricing_plan_id":"cebpf4jnsgd1na2vs0mg"},{"bike_id":"468dec7e-4f89-473d-ab2e-61ee7d247c61","system_id":"levelo_inurba_marseille","lat":43.24183,"lon":5.3974,"is_reserved":false,"is_disabled":false,"rental_uris":{"android":"levelo://app?vid=468dec7e-4f89-473d-ab2e-61ee7d247c61","ios":"levelo://app?vid=468dec7e-4f89-473d-ab2e-61ee7d247c61"},"vehicle_type_id":"4","last_reported":1727042924,"current_range_meters":27600,"station_id":"ce4bhn12rcd13ifvqgpg","pricing_plan_id":"cebpf4jnsgd1na2vs0mg"},{"bike_id":"6199a244-b71a-41f1-bbd6-cb8f6854e607","system_id":"levelo_inurba_marseille","lat":43.30256,"lon":5.40084,"is_reserved":false,"is_disabled":false,"rental_uris":{"android":"levelo://app?vid=6199a244-b71a-41f1-bbd6-cb8f6854e607","ios":"levelo://app?vid=6199a244-b71a-41f1-bbd6-cb8f6854e607"},"vehicle_type_id":"4","last_reported":1727042924,"current_range_meters":39200,"station_id":"ce4bgvh2rcd13ifvqcs0","pricing_plan_id":"cebpf4jnsgd1na2vs0mg"},{"bike_id":"bf1b2103-b792-4830-9ce1-52d19f810b0b","system_id":"levelo_inurba_marseille","lat":43.30793,"lon":5.43519,"is_reserved":false,"is_disabled":false,"rental_uris":{"android":"levelo://app?vid=bf1b2103-b792-4830-9ce1-52d19f810b0b","ios":"levelo://app?vid=bf1b2103-b792-4830-9ce1-52d19f810b0b"},"vehicle_type_id":"4","last_reported":1727042924,"current_range_meters":9200,"station_id":"ce4bhph2rcd13ifvqheg","pricing_plan_id":"cebpf4jnsgd1na2vs0mg"},{"bike_id":"30b8e9c3-5723-4a20-84bd-68900eaadaa7","system_id":"levelo_inurba_marseille","lat":43.31182,"lon":5.3871,"is_reserved":false,"is_disabled":false,"rental_uris":{"android":"levelo://app?vid=30b8e9c3-5723-4a20-84bd-68900eaadaa7","ios":"levelo://app?vid=30b8e9c3-5723-4a20-84bd-68900eaadaa7"},"vehicle_type_id":"4","last_reported":1727042924,"current_range_meters":30800,"station_id":"ce4bgv12rcd13ifvqcp0","pricing_plan_id":"cebpf4jnsgd1na2vs0mg"},{"bike_id":"7ea6f11e-bb74-4722-bd77-c4a2c92da2c7","system_id":"levelo_inurba_marseille","lat":43.2586,"lon":5.39899,"is_reserved":false,"is_disabled":false,"rental_uris":{"android":"levelo://app?vid=7ea6f11e-bb74-4722-bd77-c4a2c92da2c7","ios":"levelo://app?vid=7ea6f11e-bb74-4722-bd77-c4a2c92da2c7"},"vehicle_type_id":"4","last_reported":1727042924,"current_range_meters":9200,"station_id":"ce4bhl92rcd13ifvqghg","pricing_plan_id":"cebpf4jnsgd1na2vs0mg"},{"bike_id":"5bf4fa55-561d-41a9-ac75-043f452ea403","system_id":"levelo_inurba_marseille","lat":43.28079,"lon":5.39661,"is_reserved":false,"is_disabled":false,"rental_uris":{"android":"levelo://app?vid=5bf4fa55-561d-41a9-ac75-043f452ea403","ios":"levelo://app?vid=5bf4fa55-561d-41a9-ac75-043f452ea403"},"vehicle_type_id":"4","last_reported":1727042924,"current_range_meters":39200,"station_id":"ce4bho12rcd13ifvqh2g","pricing_plan_id":"cebpf4jnsgd1na2vs0mg"},{"bike_id":"e68b94cf-f394-4560-9c0b-52865583d26a","system_id":"levelo_inurba_marseille","lat":43.23185,"lon":5.39976,"is_reserved":false,"is_disabled":false,"rental_uris":{"android":"levelo://app?vid=e68b94cf-f394-4560-9c0b-52865583d26a","ios":"levelo://app?vid=e68b94cf-f394-4560-9c0b-52865583d26a"},"vehicle_type_id":"4","last_reported":1727042924,"current_range_meters":17200,"station_id":"ce4bhn12rcd13ifvqgqg","pricing_plan_id":"cebpf4jnsgd1na2vs0mg"},{"bike_id":"59ef8af9-5faf-4cf8-b630-4a07ff51688b","system_id":"levelo_inurba_marseille","lat":43.3108,"lon":5.4243,"is_reserved":false,"is_disabled":false,"rental_uris":{"android":"levelo://app?vid=59ef8af9-5faf-4cf8-b630-4a07ff51688b","ios":"levelo://app?vid=59ef8af9-5faf-4cf8-b630-4a07ff51688b"},"vehicle_type_id":"4","last_reported":1727042924,"current_range_meters":37600,"station_id":"ce4bhp92rcd13ifvqhag","pricing_plan_id":"cebpf4jnsgd1na2vs0mg"},{"bike_id":"1a25ca21-21da-4895-b0d1-5c5690fe7fd5","system_id":"levelo_inurba_marseille","lat":43.28564,"lon":5.39494,"is_reserved":false,"is_disabled":false,"rental_uris":{"android":"levelo://app?vid=1a25ca21-21da-4895-b0d1-5c5690fe7fd5","ios":"levelo://app?vid=1a25ca21-21da-4895-b0d1-5c5690fe7fd5"},"vehicle_type_id":"4","last_reported":1727042924,"current_range_meters":36800,"station_id":"ce4bh292rcd13ifvqdg0","pricing_plan_id":"cebpf4jnsgd1na2vs0mg"},{"bike_id":"c3c75fe1-eb7c-4fd3-8288-5a707dbf6005","system_id":"levelo_inurba_marseille","lat":43.32052,"lon":5.41565,"is_reserved":false,"is_disabled":false,"rental_uris":{"android":"levelo://app?vid=c3c75fe1-eb7c-4fd3-8288-5a707dbf6005","ios":"levelo://app?vid=c3c75fe1-eb7c-4fd3-8288-5a707dbf6005"},"vehicle_type_id":"4","last_reported":1727042924,"current_range_meters":36000,"station_id":"ce4bhq92rcd13ifvqhkg","pricing_plan_id":"cebpf4jnsgd1na2vs0mg"},{"bike_id":"7207895e-9dd8-4467-8302-3e1e932b376c","system_id":"levelo_inurba_marseille","lat":43.30555,"lon":5.36699,"is_reserved":false,"is_disabled":false,"rental_uris":{"android":"levelo://app?vid=7207895e-9dd8-4467-8302-3e1e932b376c","ios":"levelo://app?vid=7207895e-9dd8-4467-8302-3e1e932b376c"},"vehicle_type_id":"4","last_reported":1727042924,"current_range_meters":36400,"station_id":"ce4bgrp2rcd13ifvqc9g","pricing_plan_id":"cebpf4jnsgd1na2vs0mg"},{"bike_id":"e4d543d8-a48b-426c-bf4e-54b5d4e9a4f3","system_id":"levelo_inurba_marseille","lat":43.28713,"lon":5.37938,"is_reserved":false,"is_disabled":false,"rental_uris":{"android":"levelo://app?vid=e4d543d8-a48b-426c-bf4e-54b5d4e9a4f3","ios":"levelo://app?vid=e4d543d8-a48b-426c-bf4e-54b5d4e9a4f3"},"vehicle_type_id":"4","last_reported":1727042924,"current_range_meters":22000,"station_id":"ce4bh9p2rcd13ifvqec0","pricing_plan_id":"cebpf4jnsgd1na2vs0mg"},{"bike_id":"959147eb-b90e-422c-9e06-fd10a43765c1","system_id":"levelo_inurba_marseille","lat":43.28669,"lon":5.36343,"is_reserved":false,"is_disabled":false,"rental_uris":{"android":"levelo://app?vid=959147eb-b90e-422c-9e06-fd10a43765c1","ios":"levelo://app?vid=959147eb-b90e-422c-9e06-fd10a43765c1"},"vehicle_type_id":"4","last_reported":1727042924,"current_range_meters":32000,"station_id":"ce4bhah2rcd13ifvqej0","pricing_plan_id":"cebpf4jnsgd1na2vs0mg"},{"bike_id":"90890cf4-4c81-4003-ba44-9a9a23207e3d","system_id":"levelo_inurba_marseille","lat":43.25856,"lon":5.39901,"is_reserved":false,"is_disabled":false,"rental_uris":{"android":"levelo://app?vid=90890cf4-4c81-4003-ba44-9a9a23207e3d","ios":"levelo://app?vid=90890cf4-4c81-4003-ba44-9a9a23207e3d"},"vehicle_type_id":"4","last_reported":1727042924,"current_range_meters":38800,"station_id":"ce4bhl92rcd13ifvqghg","pricing_plan_id":"cebpf4jnsgd1na2vs0mg"},{"bike_id":"0d0197e5-71fa-4eab-b5d7-b223cb6deb25","system_id":"levelo_inurba_marseille","lat":43.30283,"lon":5.37703,"is_reserved":false,"is_disabled":false,"rental_uris":{"android":"levelo://app?vid=0d0197e5-71fa-4eab-b5d7-b223cb6deb25","ios":"levelo://app?vid=0d0197e5-71fa-4eab-b5d7-b223cb6deb25"},"vehicle_type_id":"4","last_reported":1727042924,"current_range_meters":24400,"station_id":"ce4bguh2rcd13ifvqcj0","pricing_plan_id":"cebpf4jnsgd1na2vs0mg"},{"bike_id":"a3108788-6dbe-4135-a9c6-12d545d1be39","system_id":"levelo_inurba_marseille","lat":43.25578,"lon":5.38244,"is_reserved":false,"is_disabled":false,"rental_uris":{"android":"levelo://app?vid=a3108788-6dbe-4135-a9c6-12d545d1be39","ios":"levelo://app?vid=a3108788-6dbe-4135-a9c6-12d545d1be39"},"vehicle_type_id":"4","last_reported":1727042924,"current_range_meters":38800,"station_id":"ce4bhih2rcd13ifvqfs0","pricing_plan_id":"cebpf4jnsgd1na2vs0mg"},{"bike_id":"bfbe047e-5d05-4c55-b710-84245f400681","system_id":"levelo_inurba_marseille","lat":43.28831,"lon":5.39327,"is_reserved":false,"is_disabled":false,"rental_uris":{"android":"levelo://app?vid=bfbe047e-5d05-4c55-b710-84245f400681","ios":"levelo://app?vid=bfbe047e-5d05-4c55-b710-84245f400681"},"vehicle_type_id":"4","last_reported":1727042924,"current_range_meters":13600,"station_id":"ce4bh2p2rcd13ifvqdi0","pricing_plan_id":"cebpf4jnsgd1na2vs0mg"},{"bike_id":"36c416da-9158-44af-aa3a-06b103bea7bf","system_id":"levelo_inurba_marseille","lat":43.337444,"lon":5.374475,"is_reserved":false,"is_disabled":false,"rental_uris":{"android":"levelo://app?vid=36c416da-9158-44af-aa3a-06b103bea7bf","ios":"levelo://app?vid=36c416da-9158-44af-aa3a-06b103bea7bf"},"vehicle_type_id":"4","last_reported":1727042924,"current_range_meters":26000,"station_id":"","pricing_plan_id":"cebpf4jnsgd1na2vs0mg"},{"bike_id":"3ad8999c-8bbb-4cc4-8d18-4437b8fa64c7","system_id":"levelo_inurba_marseille","lat":43.25583,"lon":5.38245,"is_reserved":false,"is_disabled":false,"rental_uris":{"android":"levelo://app?vid=3ad8999c-8bbb-4cc4-8d18-4437b8fa64c7","ios":"levelo://app?vid=3ad8999c-8bbb-4cc4-8d18-4437b8fa64c7"},"vehicle_type_id":"4","last_reported":1727042924,"current_range_meters":22800,"station_id":"ce4bhih2rcd13ifvqfs0","pricing_plan_id":"cebpf4jnsgd1na2vs0mg"},{"bike_id":"b4a0f177-d5ec-4c9c-8105-902c1b585992","system_id":"levelo_inurba_marseille","lat":43.31063,"lon":5.38352,"is_reserved":false,"is_disabled":false,"rental_uris":{"android":"levelo://app?vid=b4a0f177-d5ec-4c9c-8105-902c1b585992","ios":"levelo://app?vid=b4a0f177-d5ec-4c9c-8105-902c1b585992"},"vehicle_type_id":"4","last_reported":1727042924,"current_range_meters":15200,"station_id":"ce4bgv92rcd13ifvqcr0","pricing_plan_id":"cebpf4jnsgd1na2vs0mg"},{"bike_id":"e7ba8be8-bb54-4ee1-83ab-ce479a272181","system_id":"levelo_inurba_marseille","lat":43.31328,"lon":5.39692,"is_reserved":false,"is_disabled":false,"rental_uris":{"android":"levelo://app?vid=e7ba8be8-bb54-4ee1-83ab-ce479a272181","ios":"levelo://app?vid=e7ba8be8-bb54-4ee1-83ab-ce479a272181"},"vehicle_type_id":"4","last_reported":1727042924,"current_range_meters":39200,"station_id":"ce4bgvp2rcd13ifvqcu0","pricing_plan_id":"cebpf4jnsgd1na2vs0mg"},{"bike_id":"558c76b0-215a-4a84-9e10-663662edc353","system_id":"levelo_inurba_marseille","lat":43.31066,"lon":5.38359,"is_reserved":false,"is_disabled":false,"rental_uris":{"android":"levelo://app?vid=558c76b0-215a-4a84-9e10-663662edc353","ios":"levelo://app?vid=558c76b0-215a-4a84-9e10-663662edc353"},"vehicle_type_id":"4","last_reported":1727042924,"current_range_meters":9600,"station_id":"ce4bgv92rcd13ifvqcr0","pricing_plan_id":"cebpf4jnsgd1na2vs0mg"},{"bike_id":"dcf3d7bc-c35f-4647-a9ab-733122a04faf","system_id":"levelo_inurba_marseille","lat":43.25101,"lon":5.40328,"is_reserved":false,"is_disabled":false,"rental_uris":{"android":"levelo://app?vid=dcf3d7bc-c35f-4647-a9ab-733122a04faf","ios":"levelo://app?vid=dcf3d7bc-c35f-4647-a9ab-733122a04faf"},"vehicle_type_id":"4","last_reported":1727042924,"current_range_meters":38800,"station_id":"ce4bhlh2rcd13ifvqgig","pricing_plan_id":"cebpf4jnsgd1na2vs0mg"},{"bike_id":"bc08d377-8934-49f9-a16b-d231e67a2261","system_id":"levelo_inurba_marseille","lat":43.28151,"lon":5.42652,"is_reserved":false,"is_disabled":false,"rental_uris":{"android":"levelo://app?vid=bc08d377-8934-49f9-a16b-d231e67a2261","ios":"levelo://app?vid=bc08d377-8934-49f9-a16b-d231e67a2261"},"vehicle_type_id":"4","last_reported":1727042924,"current_range_meters":24000,"station_id":"ce4bhnh2rcd13ifvqgug","pricing_plan_id":"cebpf4jnsgd1na2vs0mg"},{"bike_id":"a946714b-2b93-4282-8940-2934c541cd65","system_id":"levelo_inurba_marseille","lat":43.29556,"lon":5.42288,"is_reserved":false,"is_disabled":false,"rental_uris":{"android":"levelo://app?vid=a946714b-2b93-4282-8940-2934c541cd65","ios":"levelo://app?vid=a946714b-2b93-4282-8940-2934c541cd65"},"vehicle_type_id":"4","last_reported":1727042924,"current_range_meters":39200,"station_id":"ce4bhph2rcd13ifvqhdg","pricing_plan_id":"cebpf4jnsgd1na2vs0mg"},{"bike_id":"f72b4ee5-3b6a-4bba-8e4b-bc24bda6e341","system_id":"levelo_inurba_marseille","lat":43.28571,"lon":5.39489,"is_reserved":false,"is_disabled":false,"rental_uris":{"android":"levelo://app?vid=f72b4ee5-3b6a-4bba-8e4b-bc24bda6e341","ios":"levelo://app?vid=f72b4ee5-3b6a-4bba-8e4b-bc24bda6e341"},"vehicle_type_id":"4","last_reported":1727042924,"current_range_meters":27600,"station_id":"ce4bh292rcd13ifvqdg0","pricing_plan_id":"cebpf4jnsgd1na2vs0mg"},{"bike_id":"d6391691-de65-45d3-b374-0c65a866bbce","system_id":"levelo_inurba_marseille","lat":43.31696,"lon":5.40479,"is_reserved":false,"is_disabled":false,"rental_uris":{"android":"levelo://app?vid=d6391691-de65-45d3-b374-0c65a866bbce","ios":"levelo://app?vid=d6391691-de65-45d3-b374-0c65a866bbce"},"vehicle_type_id":"4","last_reported":1727042924,"current_range_meters":36000,"station_id":"ce4bh012rcd13ifvqd00","pricing_plan_id":"cebpf4jnsgd1na2vs0mg"},{"bike_id":"fee847b2-684e-4f0f-b3c3-0910bdb1f06e","system_id":"levelo_inurba_marseille","lat":43.28154,"lon":5.42645,"is_reserved":false,"is_disabled":false,"rental_uris":{"android":"levelo://app?vid=fee847b2-684e-4f0f-b3c3-0910bdb1f06e","ios":"levelo://app?vid=fee847b2-684e-4f0f-b3c3-0910bdb1f06e"},"vehicle_type_id":"4","last_reported":1727042924,"current_range_meters":11600,"station_id":"ce4bhnh2rcd13ifvqgug","pricing_plan_id":"cebpf4jnsgd1na2vs0mg"},{"bike_id":"d894223a-4e7a-4950-afa3-fc457a96210b","system_id":"levelo_inurba_marseille","lat":43.23179,"lon":5.39986,"is_reserved":false,"is_disabled":false,"rental_uris":{"android":"levelo://app?vid=d894223a-4e7a-4950-afa3-fc457a96210b","ios":"levelo://app?vid=d894223a-4e7a-4950-afa3-fc457a96210b"},"vehicle_type_id":"4","last_reported":1727042924,"current_range_meters":40000,"station_id":"ce4bhn12rcd13ifvqgqg","pricing_plan_id":"cebpf4jnsgd1na2vs0mg"},{"bike_id":"41c90b48-de93-4d56-a965-3b11fc010bd5","system_id":"levelo_inurba_marseille","lat":43.24648,"lon":5.38902,"is_reserved":false,"is_disabled":false,"rental_uris":{"android":"levelo://app?vid=41c90b48-de93-4d56-a965-3b11fc010bd5","ios":"levelo://app?vid=41c90b48-de93-4d56-a965-3b11fc010bd5"},"vehicle_type_id":"4","last_reported":1727042924,"current_range_meters":39200,"station_id":"ce4bhg12rcd13ifvqf60","pricing_plan_id":"cebpf4jnsgd1na2vs0mg"},{"bike_id":"64d36b39-3926-4d5a-ae51-58ad3357ea33","system_id":"levelo_inurba_marseille","lat":43.23177,"lon":5.39994,"is_reserved":false,"is_disabled":false,"rental_uris":{"android":"levelo://app?vid=64d36b39-3926-4d5a-ae51-58ad3357ea33","ios":"levelo://app?vid=64d36b39-3926-4d5a-ae51-58ad3357ea33"},"vehicle_type_id":"4","last_reported":1727042924,"current_range_meters":19600,"station_id":"ce4bhn12rcd13ifvqgqg","pricing_plan_id":"cebpf4jnsgd1na2vs0mg"},{"bike_id":"05cfe6f3-b07f-4f5d-bad3-9f31a71c2e22","system_id":"levelo_inurba_marseille","lat":43.28698,"lon":5.39976,"is_reserved":false,"is_disabled":false,"rental_uris":{"android":"levelo://app?vid=05cfe6f3-b07f-4f5d-bad3-9f31a71c2e22","ios":"levelo://app?vid=05cfe6f3-b07f-4f5d-bad3-9f31a71c2e22"},"vehicle_type_id":"4","last_reported":1727042924,"current_range_meters":32800,"station_id":"ce4bho92rcd13ifvqh3g","pricing_plan_id":"cebpf4jnsgd1na2vs0mg"},{"bike_id":"dd11883b-cf73-4dcc-a3f9-86037763b5de","system_id":"levelo_inurba_marseille","lat":43.28843,"lon":5.35841,"is_reserved":false,"is_disabled":false,"rental_uris":{"android":"levelo://app?vid=dd11883b-cf73-4dcc-a3f9-86037763b5de","ios":"levelo://app?vid=dd11883b-cf73-4dcc-a3f9-86037763b5de"},"vehicle_type_id":"4","last_reported":1727042924,"current_range_meters":8000,"station_id":"ce4bhb12rcd13ifvqem0","pricing_plan_id":"cebpf4jnsgd1na2vs0mg"},{"bike_id":"149779fc-bc45-458a-857f-33707eedaf6a","system_id":"levelo_inurba_marseille","lat":43.23195,"lon":5.35548,"is_reserved":false,"is_disabled":false,"rental_uris":{"android":"levelo://app?vid=149779fc-bc45-458a-857f-33707eedaf6a","ios":"levelo://app?vid=149779fc-bc45-458a-857f-33707eedaf6a"},"vehicle_type_id":"4","last_reported":1727042924,"current_range_meters":12400,"station_id":"ce4bhu92rcd13ifvqi70","pricing_plan_id":"cebpf4jnsgd1na2vs0mg"},{"bike_id":"05d61e99-a636-4f01-8ac5-817c0ae4d87e","system_id":"levelo_inurba_marseille","lat":43.2996,"lon":5.41315,"is_reserved":false,"is_disabled":false,"rental_uris":{"android":"levelo://app?vid=05d61e99-a636-4f01-8ac5-817c0ae4d87e","ios":"levelo://app?vid=05d61e99-a636-4f01-8ac5-817c0ae4d87e"},"vehicle_type_id":"4","last_reported":1727042924,"current_range_meters":38400,"station_id":"ce4bhp12rcd13ifvqh9g","pricing_plan_id":"cebpf4jnsgd1na2vs0mg"},{"bike_id":"43df60f0-901e-45e8-a739-2918ae0ece83","system_id":"levelo_inurba_marseille","lat":43.2467,"lon":5.38158,"is_reserved":false,"is_disabled":false,"rental_uris":{"android":"levelo://app?vid=43df60f0-901e-45e8-a739-2918ae0ece83","ios":"levelo://app?vid=43df60f0-901e-45e8-a739-2918ae0ece83"},"vehicle_type_id":"4","last_reported":1727042924,"current_range_meters":38800,"station_id":"ce4bhih2rcd13ifvqfr0","pricing_plan_id":"cebpf4jnsgd1na2vs0mg"},{"bike_id":"912ae138-dc06-4bf0-9015-0aababb7e10a","system_id":"levelo_inurba_marseille","lat":43.299255,"lon":5.397239,"is_reserved":false,"is_disabled":false,"rental_uris":{"android":"levelo://app?vid=912ae138-dc06-4bf0-9015-0aababb7e10a","ios":"levelo://app?vid=912ae138-dc06-4bf0-9015-0aababb7e10a"},"vehicle_type_id":"4","last_reported":1727042924,"current_range_meters":38000,"station_id":"","pricing_plan_id":"cebpf4jnsgd1na2vs0mg"},{"bike_id":"f15597c2-6b4f-4dd0-ad0d-6d3ae5595ede","system_id":"levelo_inurba_marseille","lat":43.25819,"lon":5.39429,"is_reserved":false,"is_disabled":false,"rental_uris":{"android":"levelo://app?vid=f15597c2-6b4f-4dd0-ad0d-6d3ae5595ede","ios":"levelo://app?vid=f15597c2-6b4f-4dd0-ad0d-6d3ae5595ede"},"vehicle_type_id":"4","last_reported":1727042924,"current_range_meters":38000,"station_id":"ce4bhip2rcd13ifvqft0","pricing_plan_id":"cebpf4jnsgd1na2vs0mg"},{"bike_id":"70dd97d8-c4ac-43bf-8e44-5962519a633a","system_id":"levelo_inurba_marseille","lat":43.31745,"lon":5.39023,"is_reserved":false,"is_disabled":false,"rental_uris":{"android":"levelo://app?vid=70dd97d8-c4ac-43bf-8e44-5962519a633a","ios":"levelo://app?vid=70dd97d8-c4ac-43bf-8e44-5962519a633a"},"vehicle_type_id":"4","last_reported":1727042924,"current_range_meters":38800,"station_id":"ce4bhqp2rcd13ifvqhng","pricing_plan_id":"cebpf4jnsgd1na2vs0mg"},{"bike_id":"2eb59fce-4b09-45e1-8472-de3ef262d301","system_id":"levelo_inurba_marseille","lat":43.31539,"lon":5.38036,"is_reserved":false,"is_disabled":false,"rental_uris":{"android":"levelo://app?vid=2eb59fce-4b09-45e1-8472-de3ef262d301","ios":"levelo://app?vid=2eb59fce-4b09-45e1-8472-de3ef262d301"},"vehicle_type_id":"4","last_reported":1727042924,"current_range_meters":10800,"station_id":"ce4bhsp2rcd13ifvqi50","pricing_plan_id":"cebpf4jnsgd1na2vs0mg"},{"bike_id":"a5487fcd-e8c9-4379-b683-ed5f5657469c","system_id":"levelo_inurba_marseille","lat":43.3118,"lon":5.38711,"is_reserved":false,"is_disabled":false,"rental_uris":{"android":"levelo://app?vid=a5487fcd-e8c9-4379-b683-ed5f5657469c","ios":"levelo://app?vid=a5487fcd-e8c9-4379-b683-ed5f5657469c"},"vehicle_type_id":"4","last_reported":1727042924,"current_range_meters":38400,"station_id":"ce4bgv12rcd13ifvqcp0","pricing_plan_id":"cebpf4jnsgd1na2vs0mg"},{"bike_id":"88652ec3-2459-4db5-982c-12577594f1fa","system_id":"levelo_inurba_marseille","lat":43.31882,"lon":5.40731,"is_reserved":false,"is_disabled":false,"rental_uris":{"android":"levelo://app?vid=88652ec3-2459-4db5-982c-12577594f1fa","ios":"levelo://app?vid=88652ec3-2459-4db5-982c-12577594f1fa"},"vehicle_type_id":"4","last_reported":1727042924,"current_range_meters":40000,"station_id":"ce4bhq12rcd13ifvqhig","pricing_plan_id":"cebpf4jnsgd1na2vs0mg"},{"bike_id":"6b1f2750-9e55-4db5-bc9d-9d8b4db451a0","system_id":"levelo_inurba_marseille","lat":43.29251,"lon":5.40909,"is_reserved":false,"is_disabled":false,"rental_uris":{"android":"levelo://app?vid=6b1f2750-9e55-4db5-bc9d-9d8b4db451a0","ios":"levelo://app?vid=6b1f2750-9e55-4db5-bc9d-9d8b4db451a0"},"vehicle_type_id":"4","last_reported":1727042924,"current_range_meters":39200,"station_id":"ce4bh192rcd13ifvqdc0","pricing_plan_id":"cebpf4jnsgd1na2vs0mg"},{"bike_id":"36da88d1-8b0b-4bd7-adaa-b10272d512a5","system_id":"levelo_inurba_marseille","lat":43.2928,"lon":5.4013,"is_reserved":false,"is_disabled":false,"rental_uris":{"android":"levelo://app?vid=36da88d1-8b0b-4bd7-adaa-b10272d512a5","ios":"levelo://app?vid=36da88d1-8b0b-4bd7-adaa-b10272d512a5"},"vehicle_type_id":"4","last_reported":1727042924,"current_range_meters":39200,"station_id":"ce4bh312rcd13ifvqdk0","pricing_plan_id":"cebpf4jnsgd1na2vs0mg"},{"bike_id":"76ac7a00-1538-40b8-9656-611a15972685","system_id":"levelo_inurba_marseille","lat":43.28435,"lon":5.39212,"is_reserved":false,"is_disabled":false,"rental_uris":{"android":"levelo://app?vid=76ac7a00-1538-40b8-9656-611a15972685","ios":"levelo://app?vid=76ac7a00-1538-40b8-9656-611a15972685"},"vehicle_type_id":"4","last_reported":1727042924,"current_range_meters":36000,"station_id":"ce4bhoh2rcd13ifvqh5g","pricing_plan_id":"cebpf4jnsgd1na2vs0mg"},{"bike_id":"cafc1892-d38a-400e-9753-0536b0eb5bd7","system_id":"levelo_inurba_marseille","lat":43.27493,"lon":5.42463,"is_reserved":false,"is_disabled":false,"rental_uris":{"android":"levelo://app?vid=cafc1892-d38a-400e-9753-0536b0eb5bd7","ios":"levelo://app?vid=cafc1892-d38a-400e-9753-0536b0eb5bd7"},"vehicle_type_id":"4","last_reported":1727042924,"current_range_meters":14000,"station_id":"ce4bhn92rcd13ifvqgrg","pricing_plan_id":"cebpf4jnsgd1na2vs0mg"},{"bike_id":"713ec55e-a149-425c-958b-533f2eb580db","system_id":"levelo_inurba_marseille","lat":43.29674,"lon":5.37289,"is_reserved":false,"is_disabled":false,"rental_uris":{"android":"levelo://app?vid=713ec55e-a149-425c-958b-533f2eb580db","ios":"levelo://app?vid=713ec55e-a149-425c-958b-533f2eb580db"},"vehicle_type_id":"4","last_reported":1727042924,"current_range_meters":38000,"station_id":"ce4bgk12rcd13ifvqbj0","pricing_plan_id":"cebpf4jnsgd1na2vs0mg"},{"bike_id":"ab53795f-5404-4f9e-b16e-6b273164588e","system_id":"levelo_inurba_marseille","lat":43.33023,"lon":5.39039,"is_reserved":false,"is_disabled":false,"rental_uris":{"android":"levelo://app?vid=ab53795f-5404-4f9e-b16e-6b273164588e","ios":"levelo://app?vid=ab53795f-5404-4f9e-b16e-6b273164588e"},"vehicle_type_id":"4","last_reported":1727042924,"current_range_meters":24800,"station_id":"ce4bhr92rcd13ifvqhrg","pricing_plan_id":"cebpf4jnsgd1na2vs0mg"},{"bike_id":"a1130285-14c1-471d-a411-fb2eed577eff","system_id":"levelo_inurba_marseille","lat":43.23158,"lon":5.43719,"is_reserved":false,"is_disabled":false,"rental_uris":{"android":"levelo://app?vid=a1130285-14c1-471d-a411-fb2eed577eff","ios":"levelo://app?vid=a1130285-14c1-471d-a411-fb2eed577eff"},"vehicle_type_id":"4","last_reported":1727042924,"current_range_meters":30000,"station_id":"ce4bhmp2rcd13ifvqgog","pricing_plan_id":"cebpf4jnsgd1na2vs0mg"},{"bike_id":"6ea9348a-376a-4865-b15d-1cc34e14a9e7","system_id":"levelo_inurba_marseille","lat":43.3059,"lon":5.3935,"is_reserved":false,"is_disabled":false,"rental_uris":{"android":"levelo://app?vid=6ea9348a-376a-4865-b15d-1cc34e14a9e7","ios":"levelo://app?vid=6ea9348a-376a-4865-b15d-1cc34e14a9e7"},"vehicle_type_id":"4","last_reported":1727042924,"current_range_meters":38800,"station_id":"ce4bh0p2rcd13ifvqd80","pricing_plan_id":"cebpf4jnsgd1na2vs0mg"},{"bike_id":"d71aaa7a-c83f-4f2e-9c67-cd373eea6523","system_id":"levelo_inurba_marseille","lat":43.32657,"lon":5.40993,"is_reserved":false,"is_disabled":false,"rental_uris":{"android":"levelo://app?vid=d71aaa7a-c83f-4f2e-9c67-cd373eea6523","ios":"levelo://app?vid=d71aaa7a-c83f-4f2e-9c67-cd373eea6523"},"vehicle_type_id":"4","last_reported":1727042924,"current_range_meters":38800,"station_id":"ce4bhpp2rcd13ifvqhgg","pricing_plan_id":"cebpf4jnsgd1na2vs0mg"},{"bike_id":"d4cd02a2-8196-45a0-ade7-083f2b1cddee","system_id":"levelo_inurba_marseille","lat":43.24181,"lon":5.39726,"is_reserved":false,"is_disabled":false,"rental_uris":{"android":"levelo://app?vid=d4cd02a2-8196-45a0-ade7-083f2b1cddee","ios":"levelo://app?vid=d4cd02a2-8196-45a0-ade7-083f2b1cddee"},"vehicle_type_id":"4","last_reported":1727042924,"current_range_meters":36800,"station_id":"ce4bhn12rcd13ifvqgpg","pricing_plan_id":"cebpf4jnsgd1na2vs0mg"},{"bike_id":"c77d3159-d214-4bf3-9cdb-392138c35ac1","system_id":"levelo_inurba_marseille","lat":43.34141,"lon":5.409,"is_reserved":false,"is_disabled":false,"rental_uris":{"android":"levelo://app?vid=c77d3159-d214-4bf3-9cdb-392138c35ac1","ios":"levelo://app?vid=c77d3159-d214-4bf3-9cdb-392138c35ac1"},"vehicle_type_id":"4","last_reported":1727042924,"current_range_meters":14800,"station_id":"ce4bhqh2rcd13ifvqhlg","pricing_plan_id":"cebpf4jnsgd1na2vs0mg"},{"bike_id":"745165ca-2557-4cbf-840f-706713e329dd","system_id":"levelo_inurba_marseille","lat":43.23958,"lon":5.36627,"is_reserved":false,"is_disabled":false,"rental_uris":{"android":"levelo://app?vid=745165ca-2557-4cbf-840f-706713e329dd","ios":"levelo://app?vid=745165ca-2557-4cbf-840f-706713e329dd"},"vehicle_type_id":"4","last_reported":1727042924,"current_range_meters":9600,"station_id":"ce4bhi12rcd13ifvqfp0","pricing_plan_id":"cebpf4jnsgd1na2vs0mg"},{"bike_id":"fb3f4093-9422-43c2-a0cb-5d6da8e76d3b","system_id":"levelo_inurba_marseille","lat":43.31683,"lon":5.37764,"is_reserved":false,"is_disabled":false,"rental_uris":{"android":"levelo://app?vid=fb3f4093-9422-43c2-a0cb-5d6da8e76d3b","ios":"levelo://app?vid=fb3f4093-9422-43c2-a0cb-5d6da8e76d3b"},"vehicle_type_id":"4","last_reported":1727042924,"current_range_meters":36000,"station_id":"ce4bgth2rcd13ifvqch0","pricing_plan_id":"cebpf4jnsgd1na2vs0mg"},{"bike_id":"cc2a8612-1eed-42a9-8e8e-b3f912a66af0","system_id":"levelo_inurba_marseille","lat":43.295708,"lon":5.399844,"is_reserved":false,"is_disabled":false,"rental_uris":{"android":"levelo://app?vid=cc2a8612-1eed-42a9-8e8e-b3f912a66af0","ios":"levelo://app?vid=cc2a8612-1eed-42a9-8e8e-b3f912a66af0"},"vehicle_type_id":"4","last_reported":1727042924,"current_range_meters":19600,"station_id":"ce4bh292rcd13ifvqdf0","pricing_plan_id":"cebpf4jnsgd1na2vs0mg"},{"bike_id":"6fe1cbeb-b95e-4907-8bc9-5622e3103893","system_id":"levelo_inurba_marseille","lat":43.287,"lon":5.39986,"is_reserved":false,"is_disabled":false,"rental_uris":{"android":"levelo://app?vid=6fe1cbeb-b95e-4907-8bc9-5622e3103893","ios":"levelo://app?vid=6fe1cbeb-b95e-4907-8bc9-5622e3103893"},"vehicle_type_id":"4","last_reported":1727042924,"current_range_meters":30800,"station_id":"ce4bho92rcd13ifvqh3g","pricing_plan_id":"cebpf4jnsgd1na2vs0mg"},{"bike_id":"44b50cd5-9fec-40b7-88e0-c89ccba3762c","system_id":"levelo_inurba_marseille","lat":43.23151,"lon":5.4371,"is_reserved":false,"is_disabled":false,"rental_uris":{"android":"levelo://app?vid=44b50cd5-9fec-40b7-88e0-c89ccba3762c","ios":"levelo://app?vid=44b50cd5-9fec-40b7-88e0-c89ccba3762c"},"vehicle_type_id":"4","last_reported":1727042924,"current_range_meters":38000,"station_id":"ce4bhmp2rcd13ifvqgog","pricing_plan_id":"cebpf4jnsgd1na2vs0mg"},{"bike_id":"4dd07110-cbcd-496a-8e6a-0c34472dfa8e","system_id":"levelo_inurba_marseille","lat":43.27494,"lon":5.42454,"is_reserved":false,"is_disabled":false,"rental_uris":{"android":"levelo://app?vid=4dd07110-cbcd-496a-8e6a-0c34472dfa8e","ios":"levelo://app?vid=4dd07110-cbcd-496a-8e6a-0c34472dfa8e"},"vehicle_type_id":"4","last_reported":1727042924,"current_range_meters":3200,"station_id":"ce4bhn92rcd13ifvqgrg","pricing_plan_id":"cebpf4jnsgd1na2vs0mg"},{"bike_id":"a9fbe5c6-9416-4266-8b17-344d4952648e","system_id":"levelo_inurba_marseille","lat":43.30433,"lon":5.38889,"is_reserved":false,"is_disabled":false,"rental_uris":{"android":"levelo://app?vid=a9fbe5c6-9416-4266-8b17-344d4952648e","ios":"levelo://app?vid=a9fbe5c6-9416-4266-8b17-344d4952648e"},"vehicle_type_id":"4","last_reported":1727042924,"current_range_meters":27600,"station_id":"ce4bgk12rcd13ifvqbi0","pricing_plan_id":"cebpf4jnsgd1na2vs0mg"},{"bike_id":"48452f50-63af-4cd0-8824-2230a94962bf","system_id":"levelo_inurba_marseille","lat":43.25941,"lon":5.40906,"is_reserved":false,"is_disabled":false,"rental_uris":{"android":"levelo://app?vid=48452f50-63af-4cd0-8824-2230a94962bf","ios":"levelo://app?vid=48452f50-63af-4cd0-8824-2230a94962bf"},"vehicle_type_id":"4","last_reported":1727042924,"current_range_meters":38800,"station_id":"ce4bhm92rcd13ifvqglg","pricing_plan_id":"cebpf4jnsgd1na2vs0mg"},{"bike_id":"2823eae7-0480-4214-8c1f-396feb105876","system_id":"levelo_inurba_marseille","lat":43.30093,"lon":5.39078,"is_reserved":false,"is_disabled":false,"rental_uris":{"android":"levelo://app?vid=2823eae7-0480-4214-8c1f-396feb105876","ios":"levelo://app?vid=2823eae7-0480-4214-8c1f-396feb105876"},"vehicle_type_id":"4","last_reported":1727042924,"current_range_meters":8400,"station_id":"ce4bh192rcd13ifvqdb0","pricing_plan_id":"cebpf4jnsgd1na2vs0mg"},{"bike_id":"6cbc2fdc-96a1-4bca-b822-56394ecb85a1","system_id":"levelo_inurba_marseille","lat":43.29559,"lon":5.42278,"is_reserved":false,"is_disabled":false,"rental_uris":{"android":"levelo://app?vid=6cbc2fdc-96a1-4bca-b822-56394ecb85a1","ios":"levelo://app?vid=6cbc2fdc-96a1-4bca-b822-56394ecb85a1"},"vehicle_type_id":"4","last_reported":1727042924,"current_range_meters":38800,"station_id":"ce4bhph2rcd13ifvqhdg","pricing_plan_id":"cebpf4jnsgd1na2vs0mg"},{"bike_id":"a7a2630d-54d4-495a-8506-d0472b9b9a1a","system_id":"levelo_inurba_marseille","lat":43.29561,"lon":5.4228,"is_reserved":false,"is_disabled":false,"rental_uris":{"android":"levelo://app?vid=a7a2630d-54d4-495a-8506-d0472b9b9a1a","ios":"levelo://app?vid=a7a2630d-54d4-495a-8506-d0472b9b9a1a"},"vehicle_type_id":"4","last_reported":1727042924,"current_range_meters":37600,"station_id":"ce4bhph2rcd13ifvqhdg","pricing_plan_id":"cebpf4jnsgd1na2vs0mg"},{"bike_id":"2f2b1929-b699-467b-9772-662c41c4eaec","system_id":"levelo_inurba_marseille","lat":43.287,"lon":5.39982,"is_reserved":false,"is_disabled":false,"rental_uris":{"android":"levelo://app?vid=2f2b1929-b699-467b-9772-662c41c4eaec","ios":"levelo://app?vid=2f2b1929-b699-467b-9772-662c41c4eaec"},"vehicle_type_id":"4","last_reported":1727042924,"current_range_meters":30400,"station_id":"ce4bho92rcd13ifvqh3g","pricing_plan_id":"cebpf4jnsgd1na2vs0mg"},{"bike_id":"0d023c1b-9f44-4ee0-b2d1-cd2095ae7c82","system_id":"levelo_inurba_marseille","lat":43.27972,"lon":5.38746,"is_reserved":false,"is_disabled":false,"rental_uris":{"android":"levelo://app?vid=0d023c1b-9f44-4ee0-b2d1-cd2095ae7c82","ios":"levelo://app?vid=0d023c1b-9f44-4ee0-b2d1-cd2095ae7c82"},"vehicle_type_id":"4","last_reported":1727042924,"current_range_meters":2800,"station_id":"ce4bhg12rcd13ifvqf80","pricing_plan_id":"cebpf4jnsgd1na2vs0mg"},{"bike_id":"cb20367d-1ab1-4914-91c5-3f3b398b1ba5","system_id":"levelo_inurba_marseille","lat":43.29873,"lon":5.38905,"is_reserved":false,"is_disabled":false,"rental_uris":{"android":"levelo://app?vid=cb20367d-1ab1-4914-91c5-3f3b398b1ba5","ios":"levelo://app?vid=cb20367d-1ab1-4914-91c5-3f3b398b1ba5"},"vehicle_type_id":"4","last_reported":1727042924,"current_range_meters":34000,"station_id":"ce4bh392rcd13ifvqdl0","pricing_plan_id":"cebpf4jnsgd1na2vs0mg"},{"bike_id":"b3fe4bec-b2fe-4a34-b15e-8221ab767f22","system_id":"levelo_inurba_marseille","lat":43.23225,"lon":5.35527,"is_reserved":false,"is_disabled":false,"rental_uris":{"android":"levelo://app?vid=b3fe4bec-b2fe-4a34-b15e-8221ab767f22","ios":"levelo://app?vid=b3fe4bec-b2fe-4a34-b15e-8221ab767f22"},"vehicle_type_id":"4","last_reported":1727042924,"current_range_meters":39200,"station_id":"ce4bhu92rcd13ifvqi70","pricing_plan_id":"cebpf4jnsgd1na2vs0mg"},{"bike_id":"ed54be99-fc57-4d5a-a64d-283a09df8194","system_id":"levelo_inurba_marseille","lat":43.27424,"lon":5.36189,"is_reserved":false,"is_disabled":false,"rental_uris":{"android":"levelo://app?vid=ed54be99-fc57-4d5a-a64d-283a09df8194","ios":"levelo://app?vid=ed54be99-fc57-4d5a-a64d-283a09df8194"},"vehicle_type_id":"4","last_reported":1727042924,"current_range_meters":38800,"station_id":"ce4bhbh2rcd13ifvqeo0","pricing_plan_id":"cebpf4jnsgd1na2vs0mg"},{"bike_id":"37733b1d-1f93-451c-9353-89fb5821cbba","system_id":"levelo_inurba_marseille","lat":43.31114,"lon":5.37766,"is_reserved":false,"is_disabled":false,"rental_uris":{"android":"levelo://app?vid=37733b1d-1f93-451c-9353-89fb5821cbba","ios":"levelo://app?vid=37733b1d-1f93-451c-9353-89fb5821cbba"},"vehicle_type_id":"4","last_reported":1727042924,"current_range_meters":28400,"station_id":"ce4bgt92rcd13ifvqcg0","pricing_plan_id":"cebpf4jnsgd1na2vs0mg"},{"bike_id":"b52d2e5c-a05c-409f-8fee-a8cb641ddcf0","system_id":"levelo_inurba_marseille","lat":43.2928,"lon":5.40118,"is_reserved":false,"is_disabled":false,"rental_uris":{"android":"levelo://app?vid=b52d2e5c-a05c-409f-8fee-a8cb641ddcf0","ios":"levelo://app?vid=b52d2e5c-a05c-409f-8fee-a8cb641ddcf0"},"vehicle_type_id":"4","last_reported":1727042924,"current_range_meters":39200,"station_id":"ce4bh312rcd13ifvqdk0","pricing_plan_id":"cebpf4jnsgd1na2vs0mg"},{"bike_id":"8ea3ea29-5c01-4016-a590-e853cf837830","system_id":"levelo_inurba_marseille","lat":43.24652,"lon":5.38897,"is_reserved":false,"is_disabled":false,"rental_uris":{"android":"levelo://app?vid=8ea3ea29-5c01-4016-a590-e853cf837830","ios":"levelo://app?vid=8ea3ea29-5c01-4016-a590-e853cf837830"},"vehicle_type_id":"4","last_reported":1727042924,"current_range_meters":38800,"station_id":"ce4bhg12rcd13ifvqf60","pricing_plan_id":"cebpf4jnsgd1na2vs0mg"},{"bike_id":"3b2b32b1-081b-464a-b5e2-ce0b7792839b","system_id":"levelo_inurba_marseille","lat":43.2669,"lon":5.38424,"is_reserved":false,"is_disabled":false,"rental_uris":{"android":"levelo://app?vid=3b2b32b1-081b-464a-b5e2-ce0b7792839b","ios":"levelo://app?vid=3b2b32b1-081b-464a-b5e2-ce0b7792839b"},"vehicle_type_id":"4","last_reported":1727042924,"current_range_meters":28800,"station_id":"","pricing_plan_id":"cebpf4jnsgd1na2vs0mg"},{"bike_id":"71aa8592-ddf7-4343-aed4-c00d3433340f","system_id":"levelo_inurba_marseille","lat":43.337444,"lon":5.374475,"is_reserved":false,"is_disabled":false,"rental_uris":{"android":"levelo://app?vid=71aa8592-ddf7-4343-aed4-c00d3433340f","ios":"levelo://app?vid=71aa8592-ddf7-4343-aed4-c00d3433340f"},"vehicle_type_id":"4","last_reported":1727042924,"current_range_meters":30000,"station_id":"","pricing_plan_id":"cebpf4jnsgd1na2vs0mg"},{"bike_id":"3740c6df-06cd-419b-9ae6-b8d9e5eff548","system_id":"levelo_inurba_marseille","lat":43.2753,"lon":5.40935,"is_reserved":false,"is_disabled":false,"rental_uris":{"android":"levelo://app?vid=3740c6df-06cd-419b-9ae6-b8d9e5eff548","ios":"levelo://app?vid=3740c6df-06cd-419b-9ae6-b8d9e5eff548"},"vehicle_type_id":"4","last_reported":1727042924,"current_range_meters":11600,"station_id":"","pricing_plan_id":"cebpf4jnsgd1na2vs0mg"},{"bike_id":"29d7ab3c-43b3-4b3f-9c8a-d73e5bafd264","system_id":"levelo_inurba_marseille","lat":43.30782,"lon":5.37655,"is_reserved":false,"is_disabled":false,"rental_uris":{"android":"levelo://app?vid=29d7ab3c-43b3-4b3f-9c8a-d73e5bafd264","ios":"levelo://app?vid=29d7ab3c-43b3-4b3f-9c8a-d73e5bafd264"},"vehicle_type_id":"4","last_reported":1727042924,"current_range_meters":36400,"station_id":"ce4bgv92rcd13ifvqcq0","pricing_plan_id":"cebpf4jnsgd1na2vs0mg"},{"bike_id":"11853cff-45ce-43ef-91ca-ab98ed0f6845","system_id":"levelo_inurba_marseille","lat":43.31069,"lon":5.38361,"is_reserved":false,"is_disabled":false,"rental_uris":{"android":"levelo://app?vid=11853cff-45ce-43ef-91ca-ab98ed0f6845","ios":"levelo://app?vid=11853cff-45ce-43ef-91ca-ab98ed0f6845"},"vehicle_type_id":"4","last_reported":1727042924,"current_range_meters":36400,"station_id":"ce4bgv92rcd13ifvqcr0","pricing_plan_id":"cebpf4jnsgd1na2vs0mg"},{"bike_id":"37cfea08-a4a9-4194-96d9-f325f70d9e4d","system_id":"levelo_inurba_marseille","lat":43.25581,"lon":5.38243,"is_reserved":false,"is_disabled":false,"rental_uris":{"android":"levelo://app?vid=37cfea08-a4a9-4194-96d9-f325f70d9e4d","ios":"levelo://app?vid=37cfea08-a4a9-4194-96d9-f325f70d9e4d"},"vehicle_type_id":"4","last_reported":1727042924,"current_range_meters":10000,"station_id":"ce4bhih2rcd13ifvqfs0","pricing_plan_id":"cebpf4jnsgd1na2vs0mg"},{"bike_id":"37129aa8-05a3-4467-8fa1-1fc6f7f9028c","system_id":"levelo_inurba_marseille","lat":43.30957,"lon":5.39046,"is_reserved":false,"is_disabled":false,"rental_uris":{"android":"levelo://app?vid=37129aa8-05a3-4467-8fa1-1fc6f7f9028c","ios":"levelo://app?vid=37129aa8-05a3-4467-8fa1-1fc6f7f9028c"},"vehicle_type_id":"4","last_reported":1727042924,"current_range_meters":40000,"station_id":"ce4bgup2rcd13ifvqco0","pricing_plan_id":"cebpf4jnsgd1na2vs0mg"},{"bike_id":"6b1bfc7c-4a19-4e40-a1e6-7bc55c265373","system_id":"levelo_inurba_marseille","lat":43.28786,"lon":5.39164,"is_reserved":false,"is_disabled":false,"rental_uris":{"android":"levelo://app?vid=6b1bfc7c-4a19-4e40-a1e6-7bc55c265373","ios":"levelo://app?vid=6b1bfc7c-4a19-4e40-a1e6-7bc55c265373"},"vehicle_type_id":"4","last_reported":1727042924,"current_range_meters":36400,"station_id":"","pricing_plan_id":"cebpf4jnsgd1na2vs0mg"},{"bike_id":"38e55ba7-c26c-4b9c-8404-9f7cec825759","system_id":"levelo_inurba_marseille","lat":43.22928,"lon":5.35377,"is_reserved":false,"is_disabled":false,"rental_uris":{"android":"levelo://app?vid=38e55ba7-c26c-4b9c-8404-9f7cec825759","ios":"levelo://app?vid=38e55ba7-c26c-4b9c-8404-9f7cec825759"},"vehicle_type_id":"4","last_reported":1727042924,"current_range_meters":38400,"station_id":"cpo3532slgdg3j2ikp40","pricing_plan_id":"cebpf4jnsgd1na2vs0mg"},{"bike_id":"80ef7279-b375-4587-b39b-77c91fd7500b","system_id":"levelo_inurba_marseille","lat":43.33604,"lon":5.41037,"is_reserved":false,"is_disabled":false,"rental_uris":{"android":"levelo://app?vid=80ef7279-b375-4587-b39b-77c91fd7500b","ios":"levelo://app?vid=80ef7279-b375-4587-b39b-77c91fd7500b"},"vehicle_type_id":"4","last_reported":1727042924,"current_range_meters":40000,"station_id":"ce4bhqh2rcd13ifvqhmg","pricing_plan_id":"cebpf4jnsgd1na2vs0mg"},{"bike_id":"4f9e9b1f-e826-448a-912b-700a95196389","system_id":"levelo_inurba_marseille","lat":43.31492,"lon":5.37305,"is_reserved":false,"is_disabled":false,"rental_uris":{"android":"levelo://app?vid=4f9e9b1f-e826-448a-912b-700a95196389","ios":"levelo://app?vid=4f9e9b1f-e826-448a-912b-700a95196389"},"vehicle_type_id":"4","last_reported":1727042924,"current_range_meters":40000,"station_id":"ce4bgt12rcd13ifvqcd0","pricing_plan_id":"cebpf4jnsgd1na2vs0mg"},{"bike_id":"e882edc9-e217-405a-976e-f1ddf5b1ff69","system_id":"levelo_inurba_marseille","lat":43.30203,"lon":5.39461,"is_reserved":false,"is_disabled":false,"rental_uris":{"android":"levelo://app?vid=e882edc9-e217-405a-976e-f1ddf5b1ff69","ios":"levelo://app?vid=e882edc9-e217-405a-976e-f1ddf5b1ff69"},"vehicle_type_id":"4","last_reported":1727042924,"current_range_meters":17200,"station_id":"ce4bh0p2rcd13ifvqd70","pricing_plan_id":"cebpf4jnsgd1na2vs0mg"},{"bike_id":"c11ed82c-1d9e-425d-9840-8ef40b737a69","system_id":"levelo_inurba_marseille","lat":43.26061,"lon":5.394,"is_reserved":false,"is_disabled":false,"rental_uris":{"android":"levelo://app?vid=c11ed82c-1d9e-425d-9840-8ef40b737a69","ios":"levelo://app?vid=c11ed82c-1d9e-425d-9840-8ef40b737a69"},"vehicle_type_id":"4","last_reported":1727042924,"current_range_meters":22400,"station_id":"ce4bhh92rcd13ifvqfj0","pricing_plan_id":"cebpf4jnsgd1na2vs0mg"},{"bike_id":"ccdda738-7250-47e2-aa71-d13ea93d8b99","system_id":"levelo_inurba_marseille","lat":43.31065,"lon":5.38359,"is_reserved":false,"is_disabled":false,"rental_uris":{"android":"levelo://app?vid=ccdda738-7250-47e2-aa71-d13ea93d8b99","ios":"levelo://app?vid=ccdda738-7250-47e2-aa71-d13ea93d8b99"},"vehicle_type_id":"4","last_reported":1727042924,"current_range_meters":28000,"station_id":"ce4bgv92rcd13ifvqcr0","pricing_plan_id":"cebpf4jnsgd1na2vs0mg"},{"bike_id":"d89ded94-41e2-4e05-b6b9-19c937306b58","system_id":"levelo_inurba_marseille","lat":43.33023,"lon":5.39037,"is_reserved":false,"is_disabled":false,"rental_uris":{"android":"levelo://app?vid=d89ded94-41e2-4e05-b6b9-19c937306b58","ios":"levelo://app?vid=d89ded94-41e2-4e05-b6b9-19c937306b58"},"vehicle_type_id":"4","last_reported":1727042924,"current_range_meters":39200,"station_id":"ce4bhr92rcd13ifvqhrg","pricing_plan_id":"cebpf4jnsgd1na2vs0mg"},{"bike_id":"f2c752a1-56a8-478a-bfde-d550e6225907","system_id":"levelo_inurba_marseille","lat":43.31266,"lon":5.40176,"is_reserved":false,"is_disabled":false,"rental_uris":{"android":"levelo://app?vid=f2c752a1-56a8-478a-bfde-d550e6225907","ios":"levelo://app?vid=f2c752a1-56a8-478a-bfde-d550e6225907"},"vehicle_type_id":"4","last_reported":1727042924,"current_range_meters":40000,"station_id":"ce4bh092rcd13ifvqd30","pricing_plan_id":"cebpf4jnsgd1na2vs0mg"},{"bike_id":"e68923eb-9d1a-4a01-8786-5cb089bf8e8f","system_id":"levelo_inurba_marseille","lat":43.33021,"lon":5.39043,"is_reserved":false,"is_disabled":false,"rental_uris":{"android":"levelo://app?vid=e68923eb-9d1a-4a01-8786-5cb089bf8e8f","ios":"levelo://app?vid=e68923eb-9d1a-4a01-8786-5cb089bf8e8f"},"vehicle_type_id":"4","last_reported":1727042924,"current_range_meters":38000,"station_id":"ce4bhr92rcd13ifvqhrg","pricing_plan_id":"cebpf4jnsgd1na2vs0mg"},{"bike_id":"b6be7281-305f-4cff-b5d9-59ddfbbdef54","system_id":"levelo_inurba_marseille","lat":43.28269,"lon":5.35071,"is_reserved":false,"is_disabled":false,"rental_uris":{"android":"levelo://app?vid=b6be7281-305f-4cff-b5d9-59ddfbbdef54","ios":"levelo://app?vid=b6be7281-305f-4cff-b5d9-59ddfbbdef54"},"vehicle_type_id":"4","last_reported":1727042924,"current_range_meters":23200,"station_id":"ce4bhbp2rcd13ifvqerg","pricing_plan_id":"cebpf4jnsgd1na2vs0mg"},{"bike_id":"34bac9de-afcc-485f-a901-124a385dd441","system_id":"levelo_inurba_marseille","lat":43.24538,"lon":5.39515,"is_reserved":false,"is_disabled":false,"rental_uris":{"android":"levelo://app?vid=34bac9de-afcc-485f-a901-124a385dd441","ios":"levelo://app?vid=34bac9de-afcc-485f-a901-124a385dd441"},"vehicle_type_id":"4","last_reported":1727042924,"current_range_meters":37600,"station_id":"ce4bhlp2rcd13ifvqgjg","pricing_plan_id":"cebpf4jnsgd1na2vs0mg"},{"bike_id":"2ee07ada-3085-496d-98ef-ceb76f26f88d","system_id":"levelo_inurba_marseille","lat":43.2465,"lon":5.38893,"is_reserved":false,"is_disabled":false,"rental_uris":{"android":"levelo://app?vid=2ee07ada-3085-496d-98ef-ceb76f26f88d","ios":"levelo://app?vid=2ee07ada-3085-496d-98ef-ceb76f26f88d"},"vehicle_type_id":"4","last_reported":1727042924,"current_range_meters":9200,"station_id":"ce4bhg12rcd13ifvqf60","pricing_plan_id":"cebpf4jnsgd1na2vs0mg"},{"bike_id":"a53869a3-1513-403b-a98d-4b025ee2b884","system_id":"levelo_inurba_marseille","lat":43.2827,"lon":5.35077,"is_reserved":false,"is_disabled":false,"rental_uris":{"android":"levelo://app?vid=a53869a3-1513-403b-a98d-4b025ee2b884","ios":"levelo://app?vid=a53869a3-1513-403b-a98d-4b025ee2b884"},"vehicle_type_id":"4","last_reported":1727042924,"current_range_meters":38800,"station_id":"ce4bhbp2rcd13ifvqerg","pricing_plan_id":"cebpf4jnsgd1na2vs0mg"},{"bike_id":"4fa34960-decf-4eb1-8010-8d4d7c9724e5","system_id":"levelo_inurba_marseille","lat":43.27375,"lon":5.36259,"is_reserved":false,"is_disabled":false,"rental_uris":{"android":"levelo://app?vid=4fa34960-decf-4eb1-8010-8d4d7c9724e5","ios":"levelo://app?vid=4fa34960-decf-4eb1-8010-8d4d7c9724e5"},"vehicle_type_id":"4","last_reported":1727042924,"current_range_meters":38000,"station_id":"ce4bhbh2rcd13ifvqeo0","pricing_plan_id":"cebpf4jnsgd1na2vs0mg"},{"bike_id":"1575e777-51f8-479e-bd95-714cef91a125","system_id":"levelo_inurba_marseille","lat":43.24181,"lon":5.39719,"is_reserved":false,"is_disabled":false,"rental_uris":{"android":"levelo://app?vid=1575e777-51f8-479e-bd95-714cef91a125","ios":"levelo://app?vid=1575e777-51f8-479e-bd95-714cef91a125"},"vehicle_type_id":"4","last_reported":1727042924,"current_range_meters":24800,"station_id":"ce4bhn12rcd13ifvqgpg","pricing_plan_id":"cebpf4jnsgd1na2vs0mg"},{"bike_id":"493351e3-2673-4fea-86d7-dbb5ef4ffae6","system_id":"levelo_inurba_marseille","lat":43.29553,"lon":5.42274,"is_reserved":false,"is_disabled":false,"rental_uris":{"android":"levelo://app?vid=493351e3-2673-4fea-86d7-dbb5ef4ffae6","ios":"levelo://app?vid=493351e3-2673-4fea-86d7-dbb5ef4ffae6"},"vehicle_type_id":"4","last_reported":1727042924,"current_range_meters":4000,"station_id":"ce4bhph2rcd13ifvqhdg","pricing_plan_id":"cebpf4jnsgd1na2vs0mg"},{"bike_id":"83c8f2ac-76da-43d1-b697-b4eea819e0ce","system_id":"levelo_inurba_marseille","lat":43.25718,"lon":5.41116,"is_reserved":false,"is_disabled":false,"rental_uris":{"android":"levelo://app?vid=83c8f2ac-76da-43d1-b697-b4eea819e0ce","ios":"levelo://app?vid=83c8f2ac-76da-43d1-b697-b4eea819e0ce"},"vehicle_type_id":"4","last_reported":1727042924,"current_range_meters":33600,"station_id":"ce4bhkp2rcd13ifvqgd0","pricing_plan_id":"cebpf4jnsgd1na2vs0mg"},{"bike_id":"c33a9dfd-362d-4397-bf1b-119544630f02","system_id":"levelo_inurba_marseille","lat":43.27313,"lon":5.39083,"is_reserved":false,"is_disabled":false,"rental_uris":{"android":"levelo://app?vid=c33a9dfd-362d-4397-bf1b-119544630f02","ios":"levelo://app?vid=c33a9dfd-362d-4397-bf1b-119544630f02"},"vehicle_type_id":"4","last_reported":1727042924,"current_range_meters":36400,"station_id":"ce4bhgp2rcd13ifvqfe0","pricing_plan_id":"cebpf4jnsgd1na2vs0mg"},{"bike_id":"8d9038f2-7784-4d9c-82cd-834726cb1d16","system_id":"levelo_inurba_marseille","lat":43.27564,"lon":5.38416,"is_reserved":false,"is_disabled":false,"rental_uris":{"android":"levelo://app?vid=8d9038f2-7784-4d9c-82cd-834726cb1d16","ios":"levelo://app?vid=8d9038f2-7784-4d9c-82cd-834726cb1d16"},"vehicle_type_id":"4","last_reported":1727042924,"current_range_meters":3600,"station_id":"ce4bhh92rcd13ifvqfi0","pricing_plan_id":"cebpf4jnsgd1na2vs0mg"},{"bike_id":"c92db725-6c08-4bad-a265-5d68ad5ce6a2","system_id":"levelo_inurba_marseille","lat":43.2467,"lon":5.38164,"is_reserved":false,"is_disabled":false,"rental_uris":{"android":"levelo://app?vid=c92db725-6c08-4bad-a265-5d68ad5ce6a2","ios":"levelo://app?vid=c92db725-6c08-4bad-a265-5d68ad5ce6a2"},"vehicle_type_id":"4","last_reported":1727042924,"current_range_meters":28000,"station_id":"ce4bhih2rcd13ifvqfr0","pricing_plan_id":"cebpf4jnsgd1na2vs0mg"},{"bike_id":"3722c61d-e05c-4ceb-aa29-986ba2623a8f","system_id":"levelo_inurba_marseille","lat":43.30417,"lon":5.41284,"is_reserved":false,"is_disabled":false,"rental_uris":{"android":"levelo://app?vid=3722c61d-e05c-4ceb-aa29-986ba2623a8f","ios":"levelo://app?vid=3722c61d-e05c-4ceb-aa29-986ba2623a8f"},"vehicle_type_id":"4","last_reported":1727042924,"current_range_meters":39200,"station_id":"ce4bhop2rcd13ifvqh8g","pricing_plan_id":"cebpf4jnsgd1na2vs0mg"},{"bike_id":"d38f29ac-483f-4615-8611-042a55d41219","system_id":"levelo_inurba_marseille","lat":43.27412,"lon":5.39399,"is_reserved":false,"is_disabled":false,"rental_uris":{"android":"levelo://app?vid=d38f29ac-483f-4615-8611-042a55d41219","ios":"levelo://app?vid=d38f29ac-483f-4615-8611-042a55d41219"},"vehicle_type_id":"4","last_reported":1727042924,"current_range_meters":14400,"station_id":"ce4bhdp2rcd13ifvqf20","pricing_plan_id":"cebpf4jnsgd1na2vs0mg"},{"bike_id":"f3ad7f27-7b4f-46d2-8c13-ba5faf3e4338","system_id":"levelo_inurba_marseille","lat":43.28696,"lon":5.39989,"is_reserved":false,"is_disabled":false,"rental_uris":{"android":"levelo://app?vid=f3ad7f27-7b4f-46d2-8c13-ba5faf3e4338","ios":"levelo://app?vid=f3ad7f27-7b4f-46d2-8c13-ba5faf3e4338"},"vehicle_type_id":"4","last_reported":1727042924,"current_range_meters":36400,"station_id":"ce4bho92rcd13ifvqh3g","pricing_plan_id":"cebpf4jnsgd1na2vs0mg"},{"bike_id":"1452c4a9-61ae-4e36-80bc-305f2209f473","system_id":"levelo_inurba_marseille","lat":43.25937,"lon":5.409,"is_reserved":false,"is_disabled":false,"rental_uris":{"android":"levelo://app?vid=1452c4a9-61ae-4e36-80bc-305f2209f473","ios":"levelo://app?vid=1452c4a9-61ae-4e36-80bc-305f2209f473"},"vehicle_type_id":"4","last_reported":1727042924,"current_range_meters":5600,"station_id":"ce4bhm92rcd13ifvqglg","pricing_plan_id":"cebpf4jnsgd1na2vs0mg"},{"bike_id":"eb180e3f-798f-45ba-b557-391f0bdfd2af","system_id":"levelo_inurba_marseille","lat":43.28673,"lon":5.38666,"is_reserved":false,"is_disabled":false,"rental_uris":{"android":"levelo://app?vid=eb180e3f-798f-45ba-b557-391f0bdfd2af","ios":"levelo://app?vid=eb180e3f-798f-45ba-b557-391f0bdfd2af"},"vehicle_type_id":"4","last_reported":1727042924,"current_range_meters":4800,"station_id":"ce4bh492rcd13ifvqdug","pricing_plan_id":"cebpf4jnsgd1na2vs0mg"},{"bike_id":"00ae1b17-88f8-48b7-8807-f536d4cda117","system_id":"levelo_inurba_marseille","lat":43.30263,"lon":5.4008,"is_reserved":false,"is_disabled":false,"rental_uris":{"android":"levelo://app?vid=00ae1b17-88f8-48b7-8807-f536d4cda117","ios":"levelo://app?vid=00ae1b17-88f8-48b7-8807-f536d4cda117"},"vehicle_type_id":"4","last_reported":1727042924,"current_range_meters":22000,"station_id":"ce4bgvh2rcd13ifvqcs0","pricing_plan_id":"cebpf4jnsgd1na2vs0mg"},{"bike_id":"8f234d07-88cf-4b46-a0f1-cb37492ad8ff","system_id":"levelo_inurba_marseille","lat":43.31531,"lon":5.38021,"is_reserved":false,"is_disabled":false,"rental_uris":{"android":"levelo://app?vid=8f234d07-88cf-4b46-a0f1-cb37492ad8ff","ios":"levelo://app?vid=8f234d07-88cf-4b46-a0f1-cb37492ad8ff"},"vehicle_type_id":"4","last_reported":1727042924,"current_range_meters":39200,"station_id":"ce4bhsp2rcd13ifvqi50","pricing_plan_id":"cebpf4jnsgd1na2vs0mg"},{"bike_id":"d765ecc6-f24e-4e18-aeb0-429ef33b50a7","system_id":"levelo_inurba_marseille","lat":43.23181,"lon":5.39981,"is_reserved":false,"is_disabled":false,"rental_uris":{"android":"levelo://app?vid=d765ecc6-f24e-4e18-aeb0-429ef33b50a7","ios":"levelo://app?vid=d765ecc6-f24e-4e18-aeb0-429ef33b50a7"},"vehicle_type_id":"4","last_reported":1727042924,"current_range_meters":40000,"station_id":"ce4bhn12rcd13ifvqgqg","pricing_plan_id":"cebpf4jnsgd1na2vs0mg"},{"bike_id":"f24912e7-8c07-40b1-88fd-efcfbe09f13a","system_id":"levelo_inurba_marseille","lat":43.27987,"lon":5.41665,"is_reserved":false,"is_disabled":false,"rental_uris":{"android":"levelo://app?vid=f24912e7-8c07-40b1-88fd-efcfbe09f13a","ios":"levelo://app?vid=f24912e7-8c07-40b1-88fd-efcfbe09f13a"},"vehicle_type_id":"4","last_reported":1727042924,"current_range_meters":27200,"station_id":"ce4bho12rcd13ifvqh1g","pricing_plan_id":"cebpf4jnsgd1na2vs0mg"},{"bike_id":"a98e76af-5abd-4ef8-b85b-8d00fcafc2a8","system_id":"levelo_inurba_marseille","lat":43.26805,"lon":5.40269,"is_reserved":false,"is_disabled":false,"rental_uris":{"android":"levelo://app?vid=a98e76af-5abd-4ef8-b85b-8d00fcafc2a8","ios":"levelo://app?vid=a98e76af-5abd-4ef8-b85b-8d00fcafc2a8"},"vehicle_type_id":"4","last_reported":1727042924,"current_range_meters":3600,"station_id":"ce501612rcd8frsf0b60","pricing_plan_id":"cebpf4jnsgd1na2vs0mg"},{"bike_id":"feb42740-c719-4916-9efa-d99f861e0e6d","system_id":"levelo_inurba_marseille","lat":43.32478,"lon":5.36582,"is_reserved":false,"is_disabled":false,"rental_uris":{"android":"levelo://app?vid=feb42740-c719-4916-9efa-d99f861e0e6d","ios":"levelo://app?vid=feb42740-c719-4916-9efa-d99f861e0e6d"},"vehicle_type_id":"4","last_reported":1727042924,"current_range_meters":33600,"station_id":"ce4bhs12rcd13ifvqhvg","pricing_plan_id":"cebpf4jnsgd1na2vs0mg"},{"bike_id":"c5ffc1c0-381a-458f-a127-016acbeaf92f","system_id":"levelo_inurba_marseille","lat":43.27899,"lon":5.37997,"is_reserved":false,"is_disabled":false,"rental_uris":{"android":"levelo://app?vid=c5ffc1c0-381a-458f-a127-016acbeaf92f","ios":"levelo://app?vid=c5ffc1c0-381a-458f-a127-016acbeaf92f"},"vehicle_type_id":"4","last_reported":1727042924,"current_range_meters":40000,"station_id":"ce4bhf92rcd13ifvqf50","pricing_plan_id":"cebpf4jnsgd1na2vs0mg"},{"bike_id":"7be2642d-43fa-44b8-a183-a7739d50d2a3","system_id":"levelo_inurba_marseille","lat":43.304169,"lon":5.385293,"is_reserved":false,"is_disabled":false,"rental_uris":{"android":"levelo://app?vid=7be2642d-43fa-44b8-a183-a7739d50d2a3","ios":"levelo://app?vid=7be2642d-43fa-44b8-a183-a7739d50d2a3"},"vehicle_type_id":"4","last_reported":1727042924,"current_range_meters":39200,"station_id":"ce4bgg92rcd13ifvqb30","pricing_plan_id":"cebpf4jnsgd1na2vs0mg"},{"bike_id":"ffb3eff3-3eab-4aee-8214-41780d8a8a9e","system_id":"levelo_inurba_marseille","lat":43.26058,"lon":5.39398,"is_reserved":false,"is_disabled":false,"rental_uris":{"android":"levelo://app?vid=ffb3eff3-3eab-4aee-8214-41780d8a8a9e","ios":"levelo://app?vid=ffb3eff3-3eab-4aee-8214-41780d8a8a9e"},"vehicle_type_id":"4","last_reported":1727042924,"current_range_meters":30400,"station_id":"ce4bhh92rcd13ifvqfj0","pricing_plan_id":"cebpf4jnsgd1na2vs0mg"},{"bike_id":"d88c04c9-5e62-4d5d-851d-643f064c8972","system_id":"levelo_inurba_marseille","lat":43.26566,"lon":5.3902,"is_reserved":false,"is_disabled":false,"rental_uris":{"android":"levelo://app?vid=d88c04c9-5e62-4d5d-851d-643f064c8972","ios":"levelo://app?vid=d88c04c9-5e62-4d5d-851d-643f064c8972"},"vehicle_type_id":"4","last_reported":1727042924,"current_range_meters":38800,"station_id":"ce4bhe12rcd13ifvqf30","pricing_plan_id":"cebpf4jnsgd1na2vs0mg"},{"bike_id":"4cacd935-5555-4a6a-8c81-0dedc9ca3581","system_id":"levelo_inurba_marseille","lat":43.25115,"lon":5.40321,"is_reserved":false,"is_disabled":false,"rental_uris":{"android":"levelo://app?vid=4cacd935-5555-4a6a-8c81-0dedc9ca3581","ios":"levelo://app?vid=4cacd935-5555-4a6a-8c81-0dedc9ca3581"},"vehicle_type_id":"4","last_reported":1727042924,"current_range_meters":3600,"station_id":"ce4bhlh2rcd13ifvqgig","pricing_plan_id":"cebpf4jnsgd1na2vs0mg"},{"bike_id":"51223c2a-5e34-4b0d-8824-3f9cbd3a8c00","system_id":"levelo_inurba_marseille","lat":43.28714,"lon":5.37921,"is_reserved":false,"is_disabled":false,"rental_uris":{"android":"levelo://app?vid=51223c2a-5e34-4b0d-8824-3f9cbd3a8c00","ios":"levelo://app?vid=51223c2a-5e34-4b0d-8824-3f9cbd3a8c00"},"vehicle_type_id":"4","last_reported":1727042924,"current_range_meters":27600,"station_id":"ce4bh9p2rcd13ifvqec0","pricing_plan_id":"cebpf4jnsgd1na2vs0mg"},{"bike_id":"fce734b4-6c36-4cb6-983c-c95238702258","system_id":"levelo_inurba_marseille","lat":43.31081,"lon":5.38112,"is_reserved":false,"is_disabled":false,"rental_uris":{"android":"levelo://app?vid=fce734b4-6c36-4cb6-983c-c95238702258","ios":"levelo://app?vid=fce734b4-6c36-4cb6-983c-c95238702258"},"vehicle_type_id":"4","last_reported":1727042924,"current_range_meters":10000,"station_id":"","pricing_plan_id":"cebpf4jnsgd1na2vs0mg"},{"bike_id":"e8f8ab27-f77d-4bf9-8271-d23d8528a026","system_id":"levelo_inurba_marseille","lat":43.2797,"lon":5.38705,"is_reserved":false,"is_disabled":false,"rental_uris":{"android":"levelo://app?vid=e8f8ab27-f77d-4bf9-8271-d23d8528a026","ios":"levelo://app?vid=e8f8ab27-f77d-4bf9-8271-d23d8528a026"},"vehicle_type_id":"4","last_reported":1727042924,"current_range_meters":36400,"station_id":"ce4bhg12rcd13ifvqf80","pricing_plan_id":"cebpf4jnsgd1na2vs0mg"},{"bike_id":"0aad668c-a68c-4aff-9d2b-fb504672b4d9","system_id":"levelo_inurba_marseille","lat":43.290253,"lon":5.372515,"is_reserved":false,"is_disabled":false,"rental_uris":{"android":"levelo://app?vid=0aad668c-a68c-4aff-9d2b-fb504672b4d9","ios":"levelo://app?vid=0aad668c-a68c-4aff-9d2b-fb504672b4d9"},"vehicle_type_id":"4","last_reported":1727042924,"current_range_meters":8400,"station_id":"ce4bgi92rcd13ifvqb90","pricing_plan_id":"cebpf4jnsgd1na2vs0mg"},{"bike_id":"0f08bb21-cbbd-4eab-b6b5-6eba8e91ec1b","system_id":"levelo_inurba_marseille","lat":43.31883,"lon":5.40733,"is_reserved":false,"is_disabled":false,"rental_uris":{"android":"levelo://app?vid=0f08bb21-cbbd-4eab-b6b5-6eba8e91ec1b","ios":"levelo://app?vid=0f08bb21-cbbd-4eab-b6b5-6eba8e91ec1b"},"vehicle_type_id":"4","last_reported":1727042924,"current_range_meters":38800,"station_id":"ce4bhq12rcd13ifvqhig","pricing_plan_id":"cebpf4jnsgd1na2vs0mg"},{"bike_id":"4c3e92e3-3d2a-4b80-8f64-9e0ca57de5c6","system_id":"levelo_inurba_marseille","lat":43.31492,"lon":5.37309,"is_reserved":false,"is_disabled":false,"rental_uris":{"android":"levelo://app?vid=4c3e92e3-3d2a-4b80-8f64-9e0ca57de5c6","ios":"levelo://app?vid=4c3e92e3-3d2a-4b80-8f64-9e0ca57de5c6"},"vehicle_type_id":"4","last_reported":1727042924,"current_range_meters":35600,"station_id":"ce4bgt12rcd13ifvqcd0","pricing_plan_id":"cebpf4jnsgd1na2vs0mg"},{"bike_id":"e9ff8a04-d08a-4e53-ba15-13ed3974ebbf","system_id":"levelo_inurba_marseille","lat":43.299,"lon":5.4366,"is_reserved":false,"is_disabled":false,"rental_uris":{"android":"levelo://app?vid=e9ff8a04-d08a-4e53-ba15-13ed3974ebbf","ios":"levelo://app?vid=e9ff8a04-d08a-4e53-ba15-13ed3974ebbf"},"vehicle_type_id":"4","last_reported":1727042924,"current_range_meters":12800,"station_id":"ce4bhpp2rcd13ifvqhfg","pricing_plan_id":"cebpf4jnsgd1na2vs0mg"},{"bike_id":"d0b13778-a7e3-482d-8599-6f8ea9d93aa3","system_id":"levelo_inurba_marseille","lat":43.27421,"lon":5.39417,"is_reserved":false,"is_disabled":false,"rental_uris":{"android":"levelo://app?vid=d0b13778-a7e3-482d-8599-6f8ea9d93aa3","ios":"levelo://app?vid=d0b13778-a7e3-482d-8599-6f8ea9d93aa3"},"vehicle_type_id":"4","last_reported":1727042924,"current_range_meters":38800,"station_id":"ce4bhdp2rcd13ifvqf20","pricing_plan_id":"cebpf4jnsgd1na2vs0mg"},{"bike_id":"b8901bf2-fc56-49ba-8703-896e1e8b899c","system_id":"levelo_inurba_marseille","lat":43.31325,"lon":5.39696,"is_reserved":false,"is_disabled":false,"rental_uris":{"android":"levelo://app?vid=b8901bf2-fc56-49ba-8703-896e1e8b899c","ios":"levelo://app?vid=b8901bf2-fc56-49ba-8703-896e1e8b899c"},"vehicle_type_id":"4","last_reported":1727042924,"current_range_meters":15200,"station_id":"ce4bgvp2rcd13ifvqcu0","pricing_plan_id":"cebpf4jnsgd1na2vs0mg"},{"bike_id":"372bfd1b-c960-4eea-832a-a45e5215a4c5","system_id":"levelo_inurba_marseille","lat":43.23175,"lon":5.39992,"is_reserved":false,"is_disabled":false,"rental_uris":{"android":"levelo://app?vid=372bfd1b-c960-4eea-832a-a45e5215a4c5","ios":"levelo://app?vid=372bfd1b-c960-4eea-832a-a45e5215a4c5"},"vehicle_type_id":"4","last_reported":1727042924,"current_range_meters":36000,"station_id":"ce4bhn12rcd13ifvqgqg","pricing_plan_id":"cebpf4jnsgd1na2vs0mg"},{"bike_id":"96cdf3d4-51e4-484c-b4a5-a5fb6c0d77b8","system_id":"levelo_inurba_marseille","lat":43.25106,"lon":5.40325,"is_reserved":false,"is_disabled":false,"rental_uris":{"android":"levelo://app?vid=96cdf3d4-51e4-484c-b4a5-a5fb6c0d77b8","ios":"levelo://app?vid=96cdf3d4-51e4-484c-b4a5-a5fb6c0d77b8"},"vehicle_type_id":"4","last_reported":1727042924,"current_range_meters":31200,"station_id":"ce4bhlh2rcd13ifvqgig","pricing_plan_id":"cebpf4jnsgd1na2vs0mg"},{"bike_id":"c9b26236-5875-48d6-bad4-28e61e651f87","system_id":"levelo_inurba_marseille","lat":43.33719,"lon":5.39177,"is_reserved":false,"is_disabled":false,"rental_uris":{"android":"levelo://app?vid=c9b26236-5875-48d6-bad4-28e61e651f87","ios":"levelo://app?vid=c9b26236-5875-48d6-bad4-28e61e651f87"},"vehicle_type_id":"4","last_reported":1727042924,"current_range_meters":22400,"station_id":"ce4bhr92rcd13ifvqhsg","pricing_plan_id":"cebpf4jnsgd1na2vs0mg"},{"bike_id":"b39ebe60-aa4e-4957-9785-7cdebbf1ef23","system_id":"levelo_inurba_marseille","lat":43.28346,"lon":5.381,"is_reserved":false,"is_disabled":false,"rental_uris":{"android":"levelo://app?vid=b39ebe60-aa4e-4957-9785-7cdebbf1ef23","ios":"levelo://app?vid=b39ebe60-aa4e-4957-9785-7cdebbf1ef23"},"vehicle_type_id":"4","last_reported":1727042924,"current_range_meters":34800,"station_id":"ce4bh412rcd13ifvqdr0","pricing_plan_id":"cebpf4jnsgd1na2vs0mg"},{"bike_id":"509b148d-0503-40c2-a2c5-19db187c5f80","system_id":"levelo_inurba_marseille","lat":43.24667,"lon":5.38157,"is_reserved":false,"is_disabled":false,"rental_uris":{"android":"levelo://app?vid=509b148d-0503-40c2-a2c5-19db187c5f80","ios":"levelo://app?vid=509b148d-0503-40c2-a2c5-19db187c5f80"},"vehicle_type_id":"4","last_reported":1727042924,"current_range_meters":10000,"station_id":"ce4bhih2rcd13ifvqfr0","pricing_plan_id":"cebpf4jnsgd1na2vs0mg"},{"bike_id":"80417826-0fa5-4ddb-a448-776c2aec83c1","system_id":"levelo_inurba_marseille","lat":43.25937,"lon":5.40904,"is_reserved":false,"is_disabled":false,"rental_uris":{"android":"levelo://app?vid=80417826-0fa5-4ddb-a448-776c2aec83c1","ios":"levelo://app?vid=80417826-0fa5-4ddb-a448-776c2aec83c1"},"vehicle_type_id":"4","last_reported":1727042924,"current_range_meters":38800,"station_id":"ce4bhm92rcd13ifvqglg","pricing_plan_id":"cebpf4jnsgd1na2vs0mg"},{"bike_id":"b8551345-00a8-413b-a6da-b44b1e50d1de","system_id":"levelo_inurba_marseille","lat":43.27499,"lon":5.42453,"is_reserved":false,"is_disabled":false,"rental_uris":{"android":"levelo://app?vid=b8551345-00a8-413b-a6da-b44b1e50d1de","ios":"levelo://app?vid=b8551345-00a8-413b-a6da-b44b1e50d1de"},"vehicle_type_id":"4","last_reported":1727042924,"current_range_meters":38400,"station_id":"ce4bhn92rcd13ifvqgrg","pricing_plan_id":"cebpf4jnsgd1na2vs0mg"},{"bike_id":"13ab3718-9783-4db8-97e8-46509ea5f5da","system_id":"levelo_inurba_marseille","lat":43.28711,"lon":5.37922,"is_reserved":false,"is_disabled":false,"rental_uris":{"android":"levelo://app?vid=13ab3718-9783-4db8-97e8-46509ea5f5da","ios":"levelo://app?vid=13ab3718-9783-4db8-97e8-46509ea5f5da"},"vehicle_type_id":"4","last_reported":1727042924,"current_range_meters":4000,"station_id":"ce4bh9p2rcd13ifvqec0","pricing_plan_id":"cebpf4jnsgd1na2vs0mg"},{"bike_id":"e43e6310-a348-41cd-8943-af09fa3133d4","system_id":"levelo_inurba_marseille","lat":43.25858,"lon":5.39899,"is_reserved":false,"is_disabled":false,"rental_uris":{"android":"levelo://app?vid=e43e6310-a348-41cd-8943-af09fa3133d4","ios":"levelo://app?vid=e43e6310-a348-41cd-8943-af09fa3133d4"},"vehicle_type_id":"4","last_reported":1727042924,"current_range_meters":26000,"station_id":"ce4bhl92rcd13ifvqghg","pricing_plan_id":"cebpf4jnsgd1na2vs0mg"},{"bike_id":"b1b730e5-d886-4df1-a799-9883809c0631","system_id":"levelo_inurba_marseille","lat":43.28673,"lon":5.36332,"is_reserved":false,"is_disabled":false,"rental_uris":{"android":"levelo://app?vid=b1b730e5-d886-4df1-a799-9883809c0631","ios":"levelo://app?vid=b1b730e5-d886-4df1-a799-9883809c0631"},"vehicle_type_id":"4","last_reported":1727042924,"current_range_meters":9200,"station_id":"ce4bhah2rcd13ifvqej0","pricing_plan_id":"cebpf4jnsgd1na2vs0mg"},{"bike_id":"8894d1c4-7629-42cd-af56-0c399c8afe45","system_id":"levelo_inurba_marseille","lat":43.29065,"lon":5.37169,"is_reserved":false,"is_disabled":false,"rental_uris":{"android":"levelo://app?vid=8894d1c4-7629-42cd-af56-0c399c8afe45","ios":"levelo://app?vid=8894d1c4-7629-42cd-af56-0c399c8afe45"},"vehicle_type_id":"4","last_reported":1727042924,"current_range_meters":38400,"station_id":"ce4bh5p2rcd13ifvqe4g","pricing_plan_id":"cebpf4jnsgd1na2vs0mg"},{"bike_id":"113b10fb-1b14-408a-97a3-970b058150a0","system_id":"levelo_inurba_marseille","lat":43.25859,"lon":5.39902,"is_reserved":false,"is_disabled":false,"rental_uris":{"android":"levelo://app?vid=113b10fb-1b14-408a-97a3-970b058150a0","ios":"levelo://app?vid=113b10fb-1b14-408a-97a3-970b058150a0"},"vehicle_type_id":"4","last_reported":1727042924,"current_range_meters":38800,"station_id":"ce4bhl92rcd13ifvqghg","pricing_plan_id":"cebpf4jnsgd1na2vs0mg"},{"bike_id":"37449279-2a9d-4c8e-986a-14e23da64700","system_id":"levelo_inurba_marseille","lat":43.3088,"lon":5.3963,"is_reserved":false,"is_disabled":false,"rental_uris":{"android":"levelo://app?vid=37449279-2a9d-4c8e-986a-14e23da64700","ios":"levelo://app?vid=37449279-2a9d-4c8e-986a-14e23da64700"},"vehicle_type_id":"4","last_reported":1727042924,"current_range_meters":40000,"station_id":"ce4bh012rcd13ifvqcv0","pricing_plan_id":"cebpf4jnsgd1na2vs0mg"},{"bike_id":"1b2633c7-3231-4e7d-89e9-a2c8e8cd897a","system_id":"levelo_inurba_marseille","lat":43.28116,"lon":5.35175,"is_reserved":false,"is_disabled":false,"rental_uris":{"android":"levelo://app?vid=1b2633c7-3231-4e7d-89e9-a2c8e8cd897a","ios":"levelo://app?vid=1b2633c7-3231-4e7d-89e9-a2c8e8cd897a"},"vehicle_type_id":"4","last_reported":1727042924,"current_range_meters":8800,"station_id":"","pricing_plan_id":"cebpf4jnsgd1na2vs0mg"},{"bike_id":"f7688db0-7471-4d4e-b422-1be278cf68ac","system_id":"levelo_inurba_marseille","lat":43.3026,"lon":5.40077,"is_reserved":false,"is_disabled":false,"rental_uris":{"android":"levelo://app?vid=f7688db0-7471-4d4e-b422-1be278cf68ac","ios":"levelo://app?vid=f7688db0-7471-4d4e-b422-1be278cf68ac"},"vehicle_type_id":"4","last_reported":1727042924,"current_range_meters":38400,"station_id":"ce4bgvh2rcd13ifvqcs0","pricing_plan_id":"cebpf4jnsgd1na2vs0mg"},{"bike_id":"6fdfc26d-204f-41df-8c69-757bbbdf58dc","system_id":"levelo_inurba_marseille","lat":43.31332,"lon":5.39699,"is_reserved":false,"is_disabled":false,"rental_uris":{"android":"levelo://app?vid=6fdfc26d-204f-41df-8c69-757bbbdf58dc","ios":"levelo://app?vid=6fdfc26d-204f-41df-8c69-757bbbdf58dc"},"vehicle_type_id":"4","last_reported":1727042924,"current_range_meters":38800,"station_id":"ce4bgvp2rcd13ifvqcu0","pricing_plan_id":"cebpf4jnsgd1na2vs0mg"},{"bike_id":"4fbb5250-9647-470b-8d93-052750ba4685","system_id":"levelo_inurba_marseille","lat":43.287806,"lon":5.373697,"is_reserved":false,"is_disabled":false,"rental_uris":{"android":"levelo://app?vid=4fbb5250-9647-470b-8d93-052750ba4685","ios":"levelo://app?vid=4fbb5250-9647-470b-8d93-052750ba4685"},"vehicle_type_id":"4","last_reported":1727042924,"current_range_meters":24400,"station_id":"ce4bh692rcd13ifvqe90","pricing_plan_id":"cebpf4jnsgd1na2vs0mg"},{"bike_id":"0eb217a3-5ed2-45df-ad80-b3daa128f04c","system_id":"levelo_inurba_marseille","lat":43.33024,"lon":5.39044,"is_reserved":false,"is_disabled":false,"rental_uris":{"android":"levelo://app?vid=0eb217a3-5ed2-45df-ad80-b3daa128f04c","ios":"levelo://app?vid=0eb217a3-5ed2-45df-ad80-b3daa128f04c"},"vehicle_type_id":"4","last_reported":1727042924,"current_range_meters":37600,"station_id":"ce4bhr92rcd13ifvqhrg","pricing_plan_id":"cebpf4jnsgd1na2vs0mg"},{"bike_id":"e306ad54-fdd8-4a2c-aa8f-ad4ddf2b4af9","system_id":"levelo_inurba_marseille","lat":43.288531,"lon":5.393127,"is_reserved":false,"is_disabled":false,"rental_uris":{"android":"levelo://app?vid=e306ad54-fdd8-4a2c-aa8f-ad4ddf2b4af9","ios":"levelo://app?vid=e306ad54-fdd8-4a2c-aa8f-ad4ddf2b4af9"},"vehicle_type_id":"4","last_reported":1727042924,"current_range_meters":17200,"station_id":"ce4bh2p2rcd13ifvqdi0","pricing_plan_id":"cebpf4jnsgd1na2vs0mg"},{"bike_id":"687e45cc-3291-4a06-a549-9ca2a3f5a1ad","system_id":"levelo_inurba_marseille","lat":43.23963,"lon":5.36634,"is_reserved":false,"is_disabled":false,"rental_uris":{"android":"levelo://app?vid=687e45cc-3291-4a06-a549-9ca2a3f5a1ad","ios":"levelo://app?vid=687e45cc-3291-4a06-a549-9ca2a3f5a1ad"},"vehicle_type_id":"4","last_reported":1727042924,"current_range_meters":39200,"station_id":"ce4bhi12rcd13ifvqfp0","pricing_plan_id":"cebpf4jnsgd1na2vs0mg"},{"bike_id":"208d887e-d590-4457-b1cf-a5124e5ee7ea","system_id":"levelo_inurba_marseille","lat":43.30881,"lon":5.39628,"is_reserved":false,"is_disabled":false,"rental_uris":{"android":"levelo://app?vid=208d887e-d590-4457-b1cf-a5124e5ee7ea","ios":"levelo://app?vid=208d887e-d590-4457-b1cf-a5124e5ee7ea"},"vehicle_type_id":"4","last_reported":1727042924,"current_range_meters":35600,"station_id":"ce4bh012rcd13ifvqcv0","pricing_plan_id":"cebpf4jnsgd1na2vs0mg"},{"bike_id":"fa690805-233a-4a70-a9f3-33f1b67cdb1f","system_id":"levelo_inurba_marseille","lat":43.32284,"lon":5.38246,"is_reserved":false,"is_disabled":false,"rental_uris":{"android":"levelo://app?vid=fa690805-233a-4a70-a9f3-33f1b67cdb1f","ios":"levelo://app?vid=fa690805-233a-4a70-a9f3-33f1b67cdb1f"},"vehicle_type_id":"4","last_reported":1727042924,"current_range_meters":38800,"station_id":"ce4bhr12rcd13ifvqhqg","pricing_plan_id":"cebpf4jnsgd1na2vs0mg"},{"bike_id":"6b376f83-ed6b-472f-8e6c-ba4d8a7bae7f","system_id":"levelo_inurba_marseille","lat":43.29452,"lon":5.39754,"is_reserved":false,"is_disabled":false,"rental_uris":{"android":"levelo://app?vid=6b376f83-ed6b-472f-8e6c-ba4d8a7bae7f","ios":"levelo://app?vid=6b376f83-ed6b-472f-8e6c-ba4d8a7bae7f"},"vehicle_type_id":"4","last_reported":1727042924,"current_range_meters":17200,"station_id":"ce4bh3h2rcd13ifvqdo0","pricing_plan_id":"cebpf4jnsgd1na2vs0mg"},{"bike_id":"c7a5c9a2-9c90-4677-8e5f-4be40a154f91","system_id":"levelo_inurba_marseille","lat":43.30324,"lon":5.369,"is_reserved":false,"is_disabled":false,"rental_uris":{"android":"levelo://app?vid=c7a5c9a2-9c90-4677-8e5f-4be40a154f91","ios":"levelo://app?vid=c7a5c9a2-9c90-4677-8e5f-4be40a154f91"},"vehicle_type_id":"4","last_reported":1727042924,"current_range_meters":39200,"station_id":"ce4bgqh2rcd13ifvqc5g","pricing_plan_id":"cebpf4jnsgd1na2vs0mg"},{"bike_id":"0300a662-c9c8-4a25-9b7d-43e350c17960","system_id":"levelo_inurba_marseille","lat":43.26032,"lon":5.37547,"is_reserved":false,"is_disabled":false,"rental_uris":{"android":"levelo://app?vid=0300a662-c9c8-4a25-9b7d-43e350c17960","ios":"levelo://app?vid=0300a662-c9c8-4a25-9b7d-43e350c17960"},"vehicle_type_id":"4","last_reported":1727042924,"current_range_meters":39200,"station_id":"ce4bhgh2rcd13ifvqfa0","pricing_plan_id":"cebpf4jnsgd1na2vs0mg"},{"bike_id":"ac75444e-cc51-4669-a3cc-bb12b679f442","system_id":"levelo_inurba_marseille","lat":43.30913,"lon":5.36853,"is_reserved":false,"is_disabled":false,"rental_uris":{"android":"levelo://app?vid=ac75444e-cc51-4669-a3cc-bb12b679f442","ios":"levelo://app?vid=ac75444e-cc51-4669-a3cc-bb12b679f442"},"vehicle_type_id":"4","last_reported":1727042924,"current_range_meters":39200,"station_id":"ce4bgn92rcd13ifvqbvg","pricing_plan_id":"cebpf4jnsgd1na2vs0mg"},{"bike_id":"093caf09-4e78-481c-9a1b-0fa03af1ce8f","system_id":"levelo_inurba_marseille","lat":43.31177,"lon":5.38719,"is_reserved":false,"is_disabled":false,"rental_uris":{"android":"levelo://app?vid=093caf09-4e78-481c-9a1b-0fa03af1ce8f","ios":"levelo://app?vid=093caf09-4e78-481c-9a1b-0fa03af1ce8f"},"vehicle_type_id":"4","last_reported":1727042924,"current_range_meters":39200,"station_id":"ce4bgv12rcd13ifvqcp0","pricing_plan_id":"cebpf4jnsgd1na2vs0mg"},{"bike_id":"8c5e8b2c-ef05-4b9d-b647-6aadec459648","system_id":"levelo_inurba_marseille","lat":43.25118,"lon":5.4032,"is_reserved":false,"is_disabled":false,"rental_uris":{"android":"levelo://app?vid=8c5e8b2c-ef05-4b9d-b647-6aadec459648","ios":"levelo://app?vid=8c5e8b2c-ef05-4b9d-b647-6aadec459648"},"vehicle_type_id":"4","last_reported":1727042924,"current_range_meters":24400,"station_id":"ce4bhlh2rcd13ifvqgig","pricing_plan_id":"cebpf4jnsgd1na2vs0mg"},{"bike_id":"d361334b-3b41-480c-91a1-cdd4b1ae66ac","system_id":"levelo_inurba_marseille","lat":43.29866,"lon":5.39732,"is_reserved":false,"is_disabled":false,"rental_uris":{"android":"levelo://app?vid=d361334b-3b41-480c-91a1-cdd4b1ae66ac","ios":"levelo://app?vid=d361334b-3b41-480c-91a1-cdd4b1ae66ac"},"vehicle_type_id":"4","last_reported":1727042924,"current_range_meters":34800,"station_id":"ce4bh0h2rcd13ifvqd50","pricing_plan_id":"cebpf4jnsgd1na2vs0mg"},{"bike_id":"0065c80b-56b2-4666-99f7-7dd93d37aba1","system_id":"levelo_inurba_marseille","lat":43.31723,"lon":5.42397,"is_reserved":false,"is_disabled":false,"rental_uris":{"android":"levelo://app?vid=0065c80b-56b2-4666-99f7-7dd93d37aba1","ios":"levelo://app?vid=0065c80b-56b2-4666-99f7-7dd93d37aba1"},"vehicle_type_id":"4","last_reported":1727042924,"current_range_meters":39200,"station_id":"ce4bhp92rcd13ifvqhbg","pricing_plan_id":"cebpf4jnsgd1na2vs0mg"},{"bike_id":"5776fbb8-3e17-44af-8659-0e8e49550da1","system_id":"levelo_inurba_marseille","lat":43.290894,"lon":5.383036,"is_reserved":false,"is_disabled":false,"rental_uris":{"android":"levelo://app?vid=5776fbb8-3e17-44af-8659-0e8e49550da1","ios":"levelo://app?vid=5776fbb8-3e17-44af-8659-0e8e49550da1"},"vehicle_type_id":"4","last_reported":1727042924,"current_range_meters":36800,"station_id":"","pricing_plan_id":"cebpf4jnsgd1na2vs0mg"},{"bike_id":"40ef26d8-f5a9-4624-a700-e2660dbf1c30","system_id":"levelo_inurba_marseille","lat":43.24669,"lon":5.38159,"is_reserved":false,"is_disabled":false,"rental_uris":{"android":"levelo://app?vid=40ef26d8-f5a9-4624-a700-e2660dbf1c30","ios":"levelo://app?vid=40ef26d8-f5a9-4624-a700-e2660dbf1c30"},"vehicle_type_id":"4","last_reported":1727042924,"current_range_meters":35200,"station_id":"ce4bhih2rcd13ifvqfr0","pricing_plan_id":"cebpf4jnsgd1na2vs0mg"},{"bike_id":"c1ae40a9-7c9f-4e43-8329-42066edb9c8f","system_id":"levelo_inurba_marseille","lat":43.30323,"lon":5.4044,"is_reserved":false,"is_disabled":false,"rental_uris":{"android":"levelo://app?vid=c1ae40a9-7c9f-4e43-8329-42066edb9c8f","ios":"levelo://app?vid=c1ae40a9-7c9f-4e43-8329-42066edb9c8f"},"vehicle_type_id":"4","last_reported":1727042924,"current_range_meters":19200,"station_id":"ce4bh012rcd13ifvqd10","pricing_plan_id":"cebpf4jnsgd1na2vs0mg"},{"bike_id":"777e5742-83c8-4f45-b5da-1b5ade28f3f6","system_id":"levelo_inurba_marseille","lat":43.25114,"lon":5.4032,"is_reserved":false,"is_disabled":false,"rental_uris":{"android":"levelo://app?vid=777e5742-83c8-4f45-b5da-1b5ade28f3f6","ios":"levelo://app?vid=777e5742-83c8-4f45-b5da-1b5ade28f3f6"},"vehicle_type_id":"4","last_reported":1727042924,"current_range_meters":11200,"station_id":"ce4bhlh2rcd13ifvqgig","pricing_plan_id":"cebpf4jnsgd1na2vs0mg"},{"bike_id":"93f42b2e-014b-4be8-b293-7101908720b2","system_id":"levelo_inurba_marseille","lat":43.308868,"lon":5.372033,"is_reserved":false,"is_disabled":false,"rental_uris":{"android":"levelo://app?vid=93f42b2e-014b-4be8-b293-7101908720b2","ios":"levelo://app?vid=93f42b2e-014b-4be8-b293-7101908720b2"},"vehicle_type_id":"4","last_reported":1727042924,"current_range_meters":11200,"station_id":"ce4bguh2rcd13ifvqckg","pricing_plan_id":"cebpf4jnsgd1na2vs0mg"},{"bike_id":"dc4bf280-dc15-43c9-ac21-538fe24ce5ff","system_id":"levelo_inurba_marseille","lat":43.30303,"lon":5.36906,"is_reserved":false,"is_disabled":false,"rental_uris":{"android":"levelo://app?vid=dc4bf280-dc15-43c9-ac21-538fe24ce5ff","ios":"levelo://app?vid=dc4bf280-dc15-43c9-ac21-538fe24ce5ff"},"vehicle_type_id":"4","last_reported":1727042924,"current_range_meters":21600,"station_id":"ce4bgqh2rcd13ifvqc5g","pricing_plan_id":"cebpf4jnsgd1na2vs0mg"},{"bike_id":"b2b35de5-2177-4df5-afd2-8ec2d030fd4a","system_id":"levelo_inurba_marseille","lat":43.25819,"lon":5.39442,"is_reserved":false,"is_disabled":false,"rental_uris":{"android":"levelo://app?vid=b2b35de5-2177-4df5-afd2-8ec2d030fd4a","ios":"levelo://app?vid=b2b35de5-2177-4df5-afd2-8ec2d030fd4a"},"vehicle_type_id":"4","last_reported":1727042924,"current_range_meters":39200,"station_id":"ce4bhip2rcd13ifvqft0","pricing_plan_id":"cebpf4jnsgd1na2vs0mg"},{"bike_id":"95ffd6c6-bc96-4cdf-b445-be60c20d987d","system_id":"levelo_inurba_marseille","lat":43.28415,"lon":5.37515,"is_reserved":false,"is_disabled":false,"rental_uris":{"android":"levelo://app?vid=95ffd6c6-bc96-4cdf-b445-be60c20d987d","ios":"levelo://app?vid=95ffd6c6-bc96-4cdf-b445-be60c20d987d"},"vehicle_type_id":"4","last_reported":1727042924,"current_range_meters":36000,"station_id":"ce4bh412rcd13ifvqds0","pricing_plan_id":"cebpf4jnsgd1na2vs0mg"},{"bike_id":"54c36e5b-d98e-467d-a8af-c3e2366d372c","system_id":"levelo_inurba_marseille","lat":43.33601,"lon":5.41033,"is_reserved":false,"is_disabled":false,"rental_uris":{"android":"levelo://app?vid=54c36e5b-d98e-467d-a8af-c3e2366d372c","ios":"levelo://app?vid=54c36e5b-d98e-467d-a8af-c3e2366d372c"},"vehicle_type_id":"4","last_reported":1727042924,"current_range_meters":5600,"station_id":"ce4bhqh2rcd13ifvqhmg","pricing_plan_id":"cebpf4jnsgd1na2vs0mg"},{"bike_id":"5ecfdc9e-875b-4597-a1f0-3a52a4f104da","system_id":"levelo_inurba_marseille","lat":43.30345,"lon":5.41884,"is_reserved":false,"is_disabled":false,"rental_uris":{"android":"levelo://app?vid=5ecfdc9e-875b-4597-a1f0-3a52a4f104da","ios":"levelo://app?vid=5ecfdc9e-875b-4597-a1f0-3a52a4f104da"},"vehicle_type_id":"4","last_reported":1727042924,"current_range_meters":12000,"station_id":"ce4bhop2rcd13ifvqh7g","pricing_plan_id":"cebpf4jnsgd1na2vs0mg"},{"bike_id":"73c95d91-4339-4d75-b1c4-461a3daf1b5f","system_id":"levelo_inurba_marseille","lat":43.29555,"lon":5.42279,"is_reserved":false,"is_disabled":false,"rental_uris":{"android":"levelo://app?vid=73c95d91-4339-4d75-b1c4-461a3daf1b5f","ios":"levelo://app?vid=73c95d91-4339-4d75-b1c4-461a3daf1b5f"},"vehicle_type_id":"4","last_reported":1727042924,"current_range_meters":38800,"station_id":"ce4bhph2rcd13ifvqhdg","pricing_plan_id":"cebpf4jnsgd1na2vs0mg"},{"bike_id":"a18ab7b7-a6f9-4eb0-9ad1-dd7ee1f578dd","system_id":"levelo_inurba_marseille","lat":43.33601,"lon":5.41036,"is_reserved":false,"is_disabled":false,"rental_uris":{"android":"levelo://app?vid=a18ab7b7-a6f9-4eb0-9ad1-dd7ee1f578dd","ios":"levelo://app?vid=a18ab7b7-a6f9-4eb0-9ad1-dd7ee1f578dd"},"vehicle_type_id":"4","last_reported":1727042924,"current_range_meters":28800,"station_id":"ce4bhqh2rcd13ifvqhmg","pricing_plan_id":"cebpf4jnsgd1na2vs0mg"},{"bike_id":"bec92394-8860-4fe2-8433-524cc1554a7a","system_id":"levelo_inurba_marseille","lat":43.31711,"lon":5.43711,"is_reserved":false,"is_disabled":false,"rental_uris":{"android":"levelo://app?vid=bec92394-8860-4fe2-8433-524cc1554a7a","ios":"levelo://app?vid=bec92394-8860-4fe2-8433-524cc1554a7a"},"vehicle_type_id":"4","last_reported":1727042924,"current_range_meters":40000,"station_id":"ce4bhp92rcd13ifvqhcg","pricing_plan_id":"cebpf4jnsgd1na2vs0mg"},{"bike_id":"41e3be79-0483-4710-aecf-a207e49d16f8","system_id":"levelo_inurba_marseille","lat":43.29548,"lon":5.42294,"is_reserved":false,"is_disabled":false,"rental_uris":{"android":"levelo://app?vid=41e3be79-0483-4710-aecf-a207e49d16f8","ios":"levelo://app?vid=41e3be79-0483-4710-aecf-a207e49d16f8"},"vehicle_type_id":"4","last_reported":1727042924,"current_range_meters":18000,"station_id":"ce4bhph2rcd13ifvqhdg","pricing_plan_id":"cebpf4jnsgd1na2vs0mg"},{"bike_id":"07db7014-0400-4168-9346-0137871c7bbb","system_id":"levelo_inurba_marseille","lat":43.30803,"lon":5.38157,"is_reserved":false,"is_disabled":false,"rental_uris":{"android":"levelo://app?vid=07db7014-0400-4168-9346-0137871c7bbb","ios":"levelo://app?vid=07db7014-0400-4168-9346-0137871c7bbb"},"vehicle_type_id":"4","last_reported":1727042924,"current_range_meters":29600,"station_id":"ce4bgt12rcd13ifvqce0","pricing_plan_id":"cebpf4jnsgd1na2vs0mg"},{"bike_id":"573da8cc-92ed-45e0-95ff-36fa97d84a8a","system_id":"levelo_inurba_marseille","lat":43.31326,"lon":5.39695,"is_reserved":false,"is_disabled":false,"rental_uris":{"android":"levelo://app?vid=573da8cc-92ed-45e0-95ff-36fa97d84a8a","ios":"levelo://app?vid=573da8cc-92ed-45e0-95ff-36fa97d84a8a"},"vehicle_type_id":"4","last_reported":1727042924,"current_range_meters":37600,"station_id":"ce4bgvp2rcd13ifvqcu0","pricing_plan_id":"cebpf4jnsgd1na2vs0mg"},{"bike_id":"dfc22b50-b218-4747-a361-fb0b583ffac2","system_id":"levelo_inurba_marseille","lat":43.31274,"lon":5.40166,"is_reserved":false,"is_disabled":false,"rental_uris":{"android":"levelo://app?vid=dfc22b50-b218-4747-a361-fb0b583ffac2","ios":"levelo://app?vid=dfc22b50-b218-4747-a361-fb0b583ffac2"},"vehicle_type_id":"4","last_reported":1727042924,"current_range_meters":38000,"station_id":"ce4bh092rcd13ifvqd30","pricing_plan_id":"cebpf4jnsgd1na2vs0mg"},{"bike_id":"6a0925ec-b413-4e49-929f-c184083981fe","system_id":"levelo_inurba_marseille","lat":43.29792,"lon":5.39338,"is_reserved":false,"is_disabled":false,"rental_uris":{"android":"levelo://app?vid=6a0925ec-b413-4e49-929f-c184083981fe","ios":"levelo://app?vid=6a0925ec-b413-4e49-929f-c184083981fe"},"vehicle_type_id":"4","last_reported":1727042924,"current_range_meters":26800,"station_id":"chh1huq6cuj3fo74tm60","pricing_plan_id":"cebpf4jnsgd1na2vs0mg"},{"bike_id":"0a7b0a6a-c40c-410e-a896-5f3b196c9641","system_id":"levelo_inurba_marseille","lat":43.2814,"lon":5.42637,"is_reserved":false,"is_disabled":false,"rental_uris":{"android":"levelo://app?vid=0a7b0a6a-c40c-410e-a896-5f3b196c9641","ios":"levelo://app?vid=0a7b0a6a-c40c-410e-a896-5f3b196c9641"},"vehicle_type_id":"4","last_reported":1727042924,"current_range_meters":34000,"station_id":"ce4bhnh2rcd13ifvqgug","pricing_plan_id":"cebpf4jnsgd1na2vs0mg"},{"bike_id":"adb5b51c-8beb-4d26-984e-3239e0fd815b","system_id":"levelo_inurba_marseille","lat":43.28735,"lon":5.39964,"is_reserved":false,"is_disabled":false,"rental_uris":{"android":"levelo://app?vid=adb5b51c-8beb-4d26-984e-3239e0fd815b","ios":"levelo://app?vid=adb5b51c-8beb-4d26-984e-3239e0fd815b"},"vehicle_type_id":"4","last_reported":1727042924,"current_range_meters":38000,"station_id":"ce4bho92rcd13ifvqh3g","pricing_plan_id":"cebpf4jnsgd1na2vs0mg"},{"bike_id":"1e43de8f-9dc9-42df-bbe6-256ec5e1a6ad","system_id":"levelo_inurba_marseille","lat":43.31496,"lon":5.37305,"is_reserved":false,"is_disabled":false,"rental_uris":{"android":"levelo://app?vid=1e43de8f-9dc9-42df-bbe6-256ec5e1a6ad","ios":"levelo://app?vid=1e43de8f-9dc9-42df-bbe6-256ec5e1a6ad"},"vehicle_type_id":"4","last_reported":1727042924,"current_range_meters":38800,"station_id":"ce4bgt12rcd13ifvqcd0","pricing_plan_id":"cebpf4jnsgd1na2vs0mg"},{"bike_id":"ef0a6687-74ee-4177-ae9f-a8d166b18610","system_id":"levelo_inurba_marseille","lat":43.2927,"lon":5.4012,"is_reserved":false,"is_disabled":false,"rental_uris":{"android":"levelo://app?vid=ef0a6687-74ee-4177-ae9f-a8d166b18610","ios":"levelo://app?vid=ef0a6687-74ee-4177-ae9f-a8d166b18610"},"vehicle_type_id":"4","last_reported":1727042924,"current_range_meters":38800,"station_id":"ce4bh312rcd13ifvqdk0","pricing_plan_id":"cebpf4jnsgd1na2vs0mg"},{"bike_id":"4424c207-5287-4c1c-9349-a0cf8277e742","system_id":"levelo_inurba_marseille","lat":43.31714,"lon":5.43709,"is_reserved":false,"is_disabled":false,"rental_uris":{"android":"levelo://app?vid=4424c207-5287-4c1c-9349-a0cf8277e742","ios":"levelo://app?vid=4424c207-5287-4c1c-9349-a0cf8277e742"},"vehicle_type_id":"4","last_reported":1727042924,"current_range_meters":18800,"station_id":"ce4bhp92rcd13ifvqhcg","pricing_plan_id":"cebpf4jnsgd1na2vs0mg"},{"bike_id":"d1494315-56e9-46d5-8d31-be58661c22a2","system_id":"levelo_inurba_marseille","lat":43.32491,"lon":5.3657,"is_reserved":false,"is_disabled":false,"rental_uris":{"android":"levelo://app?vid=d1494315-56e9-46d5-8d31-be58661c22a2","ios":"levelo://app?vid=d1494315-56e9-46d5-8d31-be58661c22a2"},"vehicle_type_id":"4","last_reported":1727042924,"current_range_meters":28800,"station_id":"ce4bhs12rcd13ifvqhvg","pricing_plan_id":"cebpf4jnsgd1na2vs0mg"},{"bike_id":"14dec587-1371-4fcb-b3e1-9947846ae22c","system_id":"levelo_inurba_marseille","lat":43.30602,"lon":5.37217,"is_reserved":false,"is_disabled":false,"rental_uris":{"android":"levelo://app?vid=14dec587-1371-4fcb-b3e1-9947846ae22c","ios":"levelo://app?vid=14dec587-1371-4fcb-b3e1-9947846ae22c"},"vehicle_type_id":"4","last_reported":1727042924,"current_range_meters":37600,"station_id":"ce4bgqh2rcd13ifvqc4g","pricing_plan_id":"cebpf4jnsgd1na2vs0mg"},