{"last_updated":1735561047,"ttl":60,"version":"2.2","data":{"bikes":[{"bike_id":"ef9814ee-b24d-4ca9-8670-9eaeb662f48d","system_id":"levelo_inurba_marseille","lat":43.29584,"lon":5.36742,"is_reserved":false,"is_disabled":false,"rental_uris":{"android":"levelo://app?vid=ef9814ee-b24d-4ca9-8670-9eaeb662f48d","ios":"levelo://app?vid=ef9814ee-b24d-4ca9-8670-9eaeb662f48d"},"vehicle_type_id":"4","last_reported":1735561047,"current_range_meters":38400,"station_id":"ce4bgph2rcd13ifvqc2g","pricing_plan_id":"cebpf4jnsgd1na2vs0mg"},{"bike_id":"b125795f-7d19-4680-a8d6-94e84290827f","system_id":"levelo_inurba_marseille","lat":43.30136,"lon":5.3742,"is_reserved":false,"is_disabled":false,"rental_uris":{"android":"levelo://app?vid=b125795f-7d19-4680-a8d6-94e84290827f","ios":"levelo://app?vid=b125795f-7d19-4680-a8d6-94e84290827f"},"vehicle_type_id":"4","last_reported":1735561047,"current_range_meters":38800,"station_id":"ce4bgs92rcd13ifvqcc0","pricing_plan_id":"cebpf4jnsgd1na2vs0mg"},{"bike_id":"92b731bd-5018-412b-882c-748ea846dc76","system_id":"levelo_inurba_marseille","lat":43.2731,"lon":5.39113,"is_reserved":false,"is_disabled":false,"rental_uris":{"android":"levelo://app?vid=92b731bd-5018-412b-882c-748ea846dc76","ios":"levelo://app?vid=92b731bd-5018-412b-882c-748ea846dc76"},"vehicle_type_id":"4","last_reported":1735561047,"current_range_meters":27600,"station_id":"ce4bhgp2rcd13ifvqfe0","pricing_plan_id":"cebpf4jnsgd1na2vs0mg"},{"bike_id":"b1e3d2fb-39b3-466a-8934-a01b3592fbe9","system_id":"levelo_inurba_marseille","lat":43.29832,"lon":5.36277,"is_reserved":false,"is_disabled":false,"rental_uris":{"android":"levelo://app?vid=b1e3d2fb-39b3-466a-8934-a01b3592fbe9","ios":"levelo://app?vid=b1e3d2fb-39b3-466a-8934-a01b3592fbe9"},"vehicle_type_id":"4","last_reported":1735561047,"current_range_meters":37600,"station_id":"ce4bgpp2rcd13ifvqc3g","pricing_plan_id":"cebpf4jnsgd1na2vs0mg"},{"bike_id":"0c4d407c-6cb3-4649-ac2d-959dc9dbd1fc","system_id":"levelo_inurba_marseille","lat":43.27942,"lon":5.41046,"is_reserved":false,"is_disabled":false,"rental_uris":{"android":"levelo://app?vid=0c4d407c-6cb3-4649-ac2d-959dc9dbd1fc","ios":"levelo://app?vid=0c4d407c-6cb3-4649-ac2d-959dc9dbd1fc"},"vehicle_type_id":"4","last_reported":1735561047,"current_range_meters":28000,"station_id":"ce4bhnp2rcd13ifvqh0g","pricing_plan_id":"cebpf4jnsgd1na2vs0mg"},{"bike_id":"3991aac2-ec7f-43c8-801f-23e11845f2d6","system_id":"levelo_inurba_marseille","lat":43.28156,"lon":5.42663,"is_reserved":false,"is_disabled":false,"rental_uris":{"android":"levelo://app?vid=3991aac2-ec7f-43c8-801f-23e11845f2d6","ios":"levelo://app?vid=3991aac2-ec7f-43c8-801f-23e11845f2d6"},"vehicle_type_id":"4","last_reported":1735561047,"current_range_meters":37600,"station_id":"ce4bhnh2rcd13ifvqgug","pricing_plan_id":"cebpf4jnsgd1na2vs0mg"},{"bike_id":"cec9e18d-3c65-4c89-bfa1-a30d4eb88df0","system_id":"levelo_inurba_marseille","lat":43.30933,"lon":5.40152,"is_reserved":false,"is_disabled":false,"rental_uris":{"android":"levelo://app?vid=cec9e18d-3c65-4c89-bfa1-a30d4eb88df0","ios":"levelo://app?vid=cec9e18d-3c65-4c89-bfa1-a30d4eb88df0"},"vehicle_type_id":"4","last_reported":1735561047,"current_range_meters":37600,"station_id":"ce4bgvp2rcd13ifvqct0","pricing_plan_id":"cebpf4jnsgd1na2vs0mg"},{"bike_id":"88391bf0-cac0-4835-bd92-c0e828318df7","system_id":"levelo_inurba_marseille","lat":43.2861,"lon":5.35108,"is_reserved":false,"is_disabled":false,"rental_uris":{"android":"levelo://app?vid=88391bf0-cac0-4835-bd92-c0e828318df7","ios":"levelo://app?vid=88391bf0-cac0-4835-bd92-c0e828318df7"},"vehicle_type_id":"4","last_reported":1735561047,"current_range_meters":37600,"station_id":"ce4bhch2rcd13ifvqeug","pricing_plan_id":"cebpf4jnsgd1na2vs0mg"},{"bike_id":"e0ccc8d0-06cc-4f4c-ba9f-5cac6c1b437f","system_id":"levelo_inurba_marseille","lat":43.3089,"lon":5.37204,"is_reserved":false,"is_disabled":false,"rental_uris":{"android":"levelo://app?vid=e0ccc8d0-06cc-4f4c-ba9f-5cac6c1b437f","ios":"levelo://app?vid=e0ccc8d0-06cc-4f4c-ba9f-5cac6c1b437f"},"vehicle_type_id":"4","last_reported":1735561047,"current_range_meters":34000,"station_id":"ce4bguh2rcd13ifvqckg","pricing_plan_id":"cebpf4jnsgd1na2vs0mg"},{"bike_id":"3b3d2c75-4195-4f81-af35-afa13ebc8eea","system_id":"levelo_inurba_marseille","lat":43.27371,"lon":5.3624,"is_reserved":false,"is_disabled":true,"rental_uris":{"android":"levelo://app?vid=3b3d2c75-4195-4f81-af35-afa13ebc8eea","ios":"levelo://app?vid=3b3d2c75-4195-4f81-af35-afa13ebc8eea"},"vehicle_type_id":"4","last_reported":1735561047,"current_range_meters":22800,"station_id":"ce4bhbh2rcd13ifvqeo0","pricing_plan_id":"cebpf4jnsgd1na2vs0mg"},{"bike_id":"a1a5f3fe-7f90-4223-b04a-63f973fe01fd","system_id":"levelo_inurba_marseille","lat":43.24048,"lon":5.37731,"is_reserved":false,"is_disabled":false,"rental_uris":{"android":"levelo://app?vid=a1a5f3fe-7f90-4223-b04a-63f973fe01fd","ios":"levelo://app?vid=a1a5f3fe-7f90-4223-b04a-63f973fe01fd"},"vehicle_type_id":"4","last_reported":1735561047,"current_range_meters":12400,"station_id":"ce4bhnp2rcd13ifvqgvg","pricing_plan_id":"cebpf4jnsgd1na2vs0mg"},{"bike_id":"ecf0e1df-bdc6-4c78-ae54-45aa3b911979","system_id":"levelo_inurba_marseille","lat":43.29063,"lon":5.37181,"is_reserved":false,"is_disabled":false,"rental_uris":{"android":"levelo://app?vid=ecf0e1df-bdc6-4c78-ae54-45aa3b911979","ios":"levelo://app?vid=ecf0e1df-bdc6-4c78-ae54-45aa3b911979"},"vehicle_type_id":"4","last_reported":1735561047,"current_range_meters":25200,"station_id":"ce4bh5p2rcd13ifvqe4g","pricing_plan_id":"cebpf4jnsgd1na2vs0mg"},{"bike_id":"99c6b87a-843d-4eac-96f7-03bb3144a23d","system_id":"levelo_inurba_marseille","lat":43.23186,"lon":5.35575,"is_reserved":false,"is_disabled":false,"rental_uris":{"android":"levelo://app?vid=99c6b87a-843d-4eac-96f7-03bb3144a23d","ios":"levelo://app?vid=99c6b87a-843d-4eac-96f7-03bb3144a23d"},"vehicle_type_id":"4","last_reported":1735561047,"current_range_meters":38400,"station_id":"ce4bhu92rcd13ifvqi70","pricing_plan_id":"cebpf4jnsgd1na2vs0mg"},{"bike_id":"e912154a-2b7b-41d8-89b3-b5ce99588157","system_id":"levelo_inurba_marseille","lat":43.29362,"lon":5.37876,"is_reserved":false,"is_disabled":false,"rental_uris":{"android":"levelo://app?vid=e912154a-2b7b-41d8-89b3-b5ce99588157","ios":"levelo://app?vid=e912154a-2b7b-41d8-89b3-b5ce99588157"},"vehicle_type_id":"4","last_reported":1735561047,"current_range_meters":16800,"station_id":"ce4bgjh2rcd13ifvqbf0","pricing_plan_id":"cebpf4jnsgd1na2vs0mg"},{"bike_id":"91015cbb-e4a8-4a97-9981-4277c458cfe6","system_id":"levelo_inurba_marseille","lat":43.28482,"lon":5.38539,"is_reserved":false,"is_disabled":false,"rental_uris":{"android":"levelo://app?vid=91015cbb-e4a8-4a97-9981-4277c458cfe6","ios":"levelo://app?vid=91015cbb-e4a8-4a97-9981-4277c458cfe6"},"vehicle_type_id":"4","last_reported":1735561047,"current_range_meters":36800,"station_id":"ce4bh8p2rcd13ifvqeb0","pricing_plan_id":"cebpf4jnsgd1na2vs0mg"},{"bike_id":"f1c7a22d-ac2e-4471-b583-83a5f465e9b6","system_id":"levelo_inurba_marseille","lat":43.2849,"lon":5.38415,"is_reserved":false,"is_disabled":false,"rental_uris":{"android":"levelo://app?vid=f1c7a22d-ac2e-4471-b583-83a5f465e9b6","ios":"levelo://app?vid=f1c7a22d-ac2e-4471-b583-83a5f465e9b6"},"vehicle_type_id":"4","last_reported":1735561047,"current_range_meters":36000,"station_id":"ce4bh512rcd13ifvqe3g","pricing_plan_id":"cebpf4jnsgd1na2vs0mg"},{"bike_id":"3e6d0e37-c27f-451b-a7bb-0be535aed4bf","system_id":"levelo_inurba_marseille","lat":43.30933,"lon":5.40138,"is_reserved":false,"is_disabled":false,"rental_uris":{"android":"levelo://app?vid=3e6d0e37-c27f-451b-a7bb-0be535aed4bf","ios":"levelo://app?vid=3e6d0e37-c27f-451b-a7bb-0be535aed4bf"},"vehicle_type_id":"4","last_reported":1735561047,"current_range_meters":30800,"station_id":"ce4bgvp2rcd13ifvqct0","pricing_plan_id":"cebpf4jnsgd1na2vs0mg"},{"bike_id":"9319bbd6-b3ee-432c-b2f4-1f31e5f34742","system_id":"levelo_inurba_marseille","lat":43.29625,"lon":5.37728,"is_reserved":false,"is_disabled":false,"rental_uris":{"android":"levelo://app?vid=9319bbd6-b3ee-432c-b2f4-1f31e5f34742","ios":"levelo://app?vid=9319bbd6-b3ee-432c-b2f4-1f31e5f34742"},"vehicle_type_id":"4","last_reported":1735561047,"current_range_meters":38800,"station_id":"ce4bgi92rcd13ifvqb90","pricing_plan_id":"cebpf4jnsgd1na2vs0mg"},{"bike_id":"857344dd-6be1-4d34-90e7-6f62afbbef2e","system_id":"levelo_inurba_marseille","lat":43.32106,"lon":5.36774,"is_reserved":false,"is_disabled":false,"rental_uris":{"android":"levelo://app?vid=857344dd-6be1-4d34-90e7-6f62afbbef2e","ios":"levelo://app?vid=857344dd-6be1-4d34-90e7-6f62afbbef2e"},"vehicle_type_id":"4","last_reported":1735561047,"current_range_meters":24800,"station_id":"ce4bhrh2rcd13ifvqhug","pricing_plan_id":"cebpf4jnsgd1na2vs0mg"},{"bike_id":"67aa25b4-b604-4e3d-9eeb-70016d69d38c","system_id":"levelo_inurba_marseille","lat":43.27895,"lon":5.38011,"is_reserved":false,"is_disabled":false,"rental_uris":{"android":"levelo://app?vid=67aa25b4-b604-4e3d-9eeb-70016d69d38c","ios":"levelo://app?vid=67aa25b4-b604-4e3d-9eeb-70016d69d38c"},"vehicle_type_id":"4","last_reported":1735561047,"current_range_meters":31200,"station_id":"ce4bhf92rcd13ifvqf50","pricing_plan_id":"cebpf4jnsgd1na2vs0mg"},{"bike_id":"29a730d0-1f64-4322-bb64-2b1d3ce80cdf","system_id":"levelo_inurba_marseille","lat":43.29927,"lon":5.37462,"is_reserved":false,"is_disabled":false,"rental_uris":{"android":"levelo://app?vid=29a730d0-1f64-4322-bb64-2b1d3ce80cdf","ios":"levelo://app?vid=29a730d0-1f64-4322-bb64-2b1d3ce80cdf"},"vehicle_type_id":"4","last_reported":1735561047,"current_range_meters":16000,"station_id":"ce4bgjh2rcd13ifvqbg0","pricing_plan_id":"cebpf4jnsgd1na2vs0mg"},{"bike_id":"1edb1b06-7009-43f4-8a60-6c218ae14d02","system_id":"levelo_inurba_marseille","lat":43.25498,"lon":5.37651,"is_reserved":false,"is_disabled":false,"rental_uris":{"android":"levelo://app?vid=1edb1b06-7009-43f4-8a60-6c218ae14d02","ios":"levelo://app?vid=1edb1b06-7009-43f4-8a60-6c218ae14d02"},"vehicle_type_id":"4","last_reported":1735561047,"current_range_meters":24400,"station_id":"ce4bhh12rcd13ifvqff0","pricing_plan_id":"cebpf4jnsgd1na2vs0mg"},{"bike_id":"b4d130c6-4fa7-4fa3-83b8-3ae416781279","system_id":"levelo_inurba_marseille","lat":43.274388,"lon":5.392753,"is_reserved":false,"is_disabled":false,"rental_uris":{"android":"levelo://app?vid=b4d130c6-4fa7-4fa3-83b8-3ae416781279","ios":"levelo://app?vid=b4d130c6-4fa7-4fa3-83b8-3ae416781279"},"vehicle_type_id":"4","last_reported":1735561047,"current_range_meters":10800,"station_id":"","pricing_plan_id":"cebpf4jnsgd1na2vs0mg"},{"bike_id":"3ad6c34c-fb37-4ed4-89bc-d07998b58901","system_id":"levelo_inurba_marseille","lat":43.32352,"lon":5.38876,"is_reserved":false,"is_disabled":false,"rental_uris":{"android":"levelo://app?vid=3ad6c34c-fb37-4ed4-89bc-d07998b58901","ios":"levelo://app?vid=3ad6c34c-fb37-4ed4-89bc-d07998b58901"},"vehicle_type_id":"4","last_reported":1735561047,"current_range_meters":28000,"station_id":"ce4bhqp2rcd13ifvqhog","pricing_plan_id":"cebpf4jnsgd1na2vs0mg"},{"bike_id":"8da5d8d5-7736-4902-a2a3-2af73789a5b8","system_id":"levelo_inurba_marseille","lat":43.26539,"lon":5.39027,"is_reserved":false,"is_disabled":false,"rental_uris":{"android":"levelo://app?vid=8da5d8d5-7736-4902-a2a3-2af73789a5b8","ios":"levelo://app?vid=8da5d8d5-7736-4902-a2a3-2af73789a5b8"},"vehicle_type_id":"4","last_reported":1735561047,"current_range_meters":38800,"station_id":"ce4bhe12rcd13ifvqf30","pricing_plan_id":"cebpf4jnsgd1na2vs0mg"},{"bike_id":"ff49d49a-53c3-499a-b296-89a67f332a8a","system_id":"levelo_inurba_marseille","lat":43.241654,"lon":5.364108,"is_reserved":false,"is_disabled":false,"rental_uris":{"android":"levelo://app?vid=ff49d49a-53c3-499a-b296-89a67f332a8a","ios":"levelo://app?vid=ff49d49a-53c3-499a-b296-89a67f332a8a"},"vehicle_type_id":"4","last_reported":1735561047,"current_range_meters":9200,"station_id":"cpo36qri1sfpv3e86is0","pricing_plan_id":"cebpf4jnsgd1na2vs0mg"},{"bike_id":"753fe1a2-6ec1-4d51-9513-13144401ea46","system_id":"levelo_inurba_marseille","lat":43.29185,"lon":5.37134,"is_reserved":false,"is_disabled":false,"rental_uris":{"android":"levelo://app?vid=753fe1a2-6ec1-4d51-9513-13144401ea46","ios":"levelo://app?vid=753fe1a2-6ec1-4d51-9513-13144401ea46"},"vehicle_type_id":"4","last_reported":1735561047,"current_range_meters":26000,"station_id":"ce4bha92rcd13ifvqeh0","pricing_plan_id":"cebpf4jnsgd1na2vs0mg"},{"bike_id":"68ce89d7-2c49-47a3-af51-4cee0b21d337","system_id":"levelo_inurba_marseille","lat":43.279703,"lon":5.38744,"is_reserved":false,"is_disabled":false,"rental_uris":{"android":"levelo://app?vid=68ce89d7-2c49-47a3-af51-4cee0b21d337","ios":"levelo://app?vid=68ce89d7-2c49-47a3-af51-4cee0b21d337"},"vehicle_type_id":"4","last_reported":1735561047,"current_range_meters":38400,"station_id":"ce4bhg12rcd13ifvqf80","pricing_plan_id":"cebpf4jnsgd1na2vs0mg"},{"bike_id":"e103866f-14c7-4ded-8376-d3a94f2c98c3","system_id":"levelo_inurba_marseille","lat":43.31714,"lon":5.43694,"is_reserved":false,"is_disabled":true,"rental_uris":{"android":"levelo://app?vid=e103866f-14c7-4ded-8376-d3a94f2c98c3","ios":"levelo://app?vid=e103866f-14c7-4ded-8376-d3a94f2c98c3"},"vehicle_type_id":"4","last_reported":1735561047,"current_range_meters":19200,"station_id":"ce4bhp92rcd13ifvqhcg","pricing_plan_id":"cebpf4jnsgd1na2vs0mg"},{"bike_id":"294c14cb-577f-4c56-859e-2380db7a357a","system_id":"levelo_inurba_marseille","lat":43.23148,"lon":5.43718,"is_reserved":false,"is_disabled":true,"rental_uris":{"android":"levelo://app?vid=294c14cb-577f-4c56-859e-2380db7a357a","ios":"levelo://app?vid=294c14cb-577f-4c56-859e-2380db7a357a"},"vehicle_type_id":"4","last_reported":1735561047,"current_range_meters":2000,"station_id":"ce4bhmp2rcd13ifvqgog","pricing_plan_id":"cebpf4jnsgd1na2vs0mg"},{"bike_id":"b6559458-8701-4796-97db-d8dbe8701181","system_id":"levelo_inurba_marseille","lat":43.273233,"lon":5.391087,"is_reserved":false,"is_disabled":false,"rental_uris":{"android":"levelo://app?vid=b6559458-8701-4796-97db-d8dbe8701181","ios":"levelo://app?vid=b6559458-8701-4796-97db-d8dbe8701181"},"vehicle_type_id":"4","last_reported":1735561047,"current_range_meters":32800,"station_id":"ce4bhgp2rcd13ifvqfe0","pricing_plan_id":"cebpf4jnsgd1na2vs0mg"},{"bike_id":"13f84696-4405-43e0-b0f5-1a61d67abe32","system_id":"levelo_inurba_marseille","lat":43.27831,"lon":5.392037,"is_reserved":false,"is_disabled":false,"rental_uris":{"android":"levelo://app?vid=13f84696-4405-43e0-b0f5-1a61d67abe32","ios":"levelo://app?vid=13f84696-4405-43e0-b0f5-1a61d67abe32"},"vehicle_type_id":"4","last_reported":1735561047,"current_range_meters":19200,"station_id":"ce4bhjp2rcd13ifvqga0","pricing_plan_id":"cebpf4jnsgd1na2vs0mg"},{"bike_id":"8e262267-ba42-4e47-b22a-c75714b04500","system_id":"levelo_inurba_marseille","lat":43.24065,"lon":5.37757,"is_reserved":false,"is_disabled":false,"rental_uris":{"android":"levelo://app?vid=8e262267-ba42-4e47-b22a-c75714b04500","ios":"levelo://app?vid=8e262267-ba42-4e47-b22a-c75714b04500"},"vehicle_type_id":"4","last_reported":1735561047,"current_range_meters":38800,"station_id":"ce4bhnp2rcd13ifvqgvg","pricing_plan_id":"cebpf4jnsgd1na2vs0mg"},{"bike_id":"caab34a4-5264-4b72-a12f-e55159fe93b6","system_id":"levelo_inurba_marseille","lat":43.27079,"lon":5.42289,"is_reserved":false,"is_disabled":false,"rental_uris":{"android":"levelo://app?vid=caab34a4-5264-4b72-a12f-e55159fe93b6","ios":"levelo://app?vid=caab34a4-5264-4b72-a12f-e55159fe93b6"},"vehicle_type_id":"4","last_reported":1735561047,"current_range_meters":19600,"station_id":"ce4bhk92rcd13ifvqgb0","pricing_plan_id":"cebpf4jnsgd1na2vs0mg"},{"bike_id":"180456e3-2512-4d86-bf49-8e57b070e32e","system_id":"levelo_inurba_marseille","lat":43.30144,"lon":5.39837,"is_reserved":false,"is_disabled":true,"rental_uris":{"android":"levelo://app?vid=180456e3-2512-4d86-bf49-8e57b070e32e","ios":"levelo://app?vid=180456e3-2512-4d86-bf49-8e57b070e32e"},"vehicle_type_id":"4","last_reported":1735561047,"current_range_meters":0,"station_id":"ce4bh0h2rcd13ifvqd40","pricing_plan_id":"cebpf4jnsgd1na2vs0mg"},{"bike_id":"fe302269-000b-46ac-81e4-46edf9df91df","system_id":"levelo_inurba_marseille","lat":43.27561,"lon":5.38431,"is_reserved":false,"is_disabled":false,"rental_uris":{"android":"levelo://app?vid=fe302269-000b-46ac-81e4-46edf9df91df","ios":"levelo://app?vid=fe302269-000b-46ac-81e4-46edf9df91df"},"vehicle_type_id":"4","last_reported":1735561047,"current_range_meters":24800,"station_id":"ce4bhh92rcd13ifvqfi0","pricing_plan_id":"cebpf4jnsgd1na2vs0mg"},{"bike_id":"2eaf5aab-e12e-4e93-a20d-88a34894165c","system_id":"levelo_inurba_marseille","lat":43.28452,"lon":5.35906,"is_reserved":false,"is_disabled":true,"rental_uris":{"android":"levelo://app?vid=2eaf5aab-e12e-4e93-a20d-88a34894165c","ios":"levelo://app?vid=2eaf5aab-e12e-4e93-a20d-88a34894165c"},"vehicle_type_id":"4","last_reported":1735561047,"current_range_meters":0,"station_id":"ce4bhah2rcd13ifvqei0","pricing_plan_id":"cebpf4jnsgd1na2vs0mg"},{"bike_id":"13fe1bae-d049-481a-8c66-fd974374cb6f","system_id":"levelo_inurba_marseille","lat":43.2957,"lon":5.37519,"is_reserved":false,"is_disabled":false,"rental_uris":{"android":"levelo://app?vid=13fe1bae-d049-481a-8c66-fd974374cb6f","ios":"levelo://app?vid=13fe1bae-d049-481a-8c66-fd974374cb6f"},"vehicle_type_id":"4","last_reported":1735561047,"current_range_meters":36400,"station_id":"ce4bgh92rcd13ifvqb50","pricing_plan_id":"cebpf4jnsgd1na2vs0mg"},{"bike_id":"aa866fa0-45d7-43d5-9d66-de3620e20eb0","system_id":"levelo_inurba_marseille","lat":43.33026,"lon":5.39037,"is_reserved":false,"is_disabled":true,"rental_uris":{"android":"levelo://app?vid=aa866fa0-45d7-43d5-9d66-de3620e20eb0","ios":"levelo://app?vid=aa866fa0-45d7-43d5-9d66-de3620e20eb0"},"vehicle_type_id":"4","last_reported":1735561047,"current_range_meters":0,"station_id":"ce4bhr92rcd13ifvqhrg","pricing_plan_id":"cebpf4jnsgd1na2vs0mg"},{"bike_id":"6fa2b825-16a6-4f6a-aa31-092b5fdfebdc","system_id":"levelo_inurba_marseille","lat":43.28303,"lon":5.35069,"is_reserved":false,"is_disabled":false,"rental_uris":{"android":"levelo://app?vid=6fa2b825-16a6-4f6a-aa31-092b5fdfebdc","ios":"levelo://app?vid=6fa2b825-16a6-4f6a-aa31-092b5fdfebdc"},"vehicle_type_id":"4","last_reported":1735561047,"current_range_meters":38800,"station_id":"ce4bhbp2rcd13ifvqerg","pricing_plan_id":"cebpf4jnsgd1na2vs0mg"},{"bike_id":"10328e97-3b3f-42b6-8efd-3406f4be98f7","system_id":"levelo_inurba_marseille","lat":43.28421,"lon":5.34992,"is_reserved":false,"is_disabled":true,"rental_uris":{"android":"levelo://app?vid=10328e97-3b3f-42b6-8efd-3406f4be98f7","ios":"levelo://app?vid=10328e97-3b3f-42b6-8efd-3406f4be98f7"},"vehicle_type_id":"4","last_reported":1735561047,"current_range_meters":35600,"station_id":"ce4bhbh2rcd13ifvqepg","pricing_plan_id":"cebpf4jnsgd1na2vs0mg"},{"bike_id":"52f55f42-526a-42ef-84de-cbde16106ef9","system_id":"levelo_inurba_marseille","lat":43.29277,"lon":5.38426,"is_reserved":false,"is_disabled":false,"rental_uris":{"android":"levelo://app?vid=52f55f42-526a-42ef-84de-cbde16106ef9","ios":"levelo://app?vid=52f55f42-526a-42ef-84de-cbde16106ef9"},"vehicle_type_id":"4","last_reported":1735561047,"current_range_meters":20400,"station_id":"ce4bh692rcd13ifvqea0","pricing_plan_id":"cebpf4jnsgd1na2vs0mg"},{"bike_id":"d57a055b-2f0b-4cb9-9899-a41382f63954","system_id":"levelo_inurba_marseille","lat":43.23189,"lon":5.35561,"is_reserved":false,"is_disabled":true,"rental_uris":{"android":"levelo://app?vid=d57a055b-2f0b-4cb9-9899-a41382f63954","ios":"levelo://app?vid=d57a055b-2f0b-4cb9-9899-a41382f63954"},"vehicle_type_id":"4","last_reported":1735561047,"current_range_meters":800,"station_id":"ce4bhu92rcd13ifvqi70","pricing_plan_id":"cebpf4jnsgd1na2vs0mg"},{"bike_id":"d225e49f-de10-470b-90af-648b3c15cce7","system_id":"levelo_inurba_marseille","lat":43.25731,"lon":5.41116,"is_reserved":false,"is_disabled":false,"rental_uris":{"android":"levelo://app?vid=d225e49f-de10-470b-90af-648b3c15cce7","ios":"levelo://app?vid=d225e49f-de10-470b-90af-648b3c15cce7"},"vehicle_type_id":"4","last_reported":1735561047,"current_range_meters":38800,"station_id":"ce4bhkp2rcd13ifvqgd0","pricing_plan_id":"cebpf4jnsgd1na2vs0mg"},{"bike_id":"6055b675-c3f4-4ff7-92e1-1e78631741a7","system_id":"levelo_inurba_marseille","lat":43.2866,"lon":5.36368,"is_reserved":false,"is_disabled":false,"rental_uris":{"android":"levelo://app?vid=6055b675-c3f4-4ff7-92e1-1e78631741a7","ios":"levelo://app?vid=6055b675-c3f4-4ff7-92e1-1e78631741a7"},"vehicle_type_id":"4","last_reported":1735561047,"current_range_meters":30400,"station_id":"ce4bhah2rcd13ifvqej0","pricing_plan_id":"cebpf4jnsgd1na2vs0mg"},{"bike_id":"8499c959-998d-4486-a511-9d65f0b01fae","system_id":"levelo_inurba_marseille","lat":43.25716,"lon":5.41089,"is_reserved":false,"is_disabled":false,"rental_uris":{"android":"levelo://app?vid=8499c959-998d-4486-a511-9d65f0b01fae","ios":"levelo://app?vid=8499c959-998d-4486-a511-9d65f0b01fae"},"vehicle_type_id":"4","last_reported":1735561047,"current_range_meters":31200,"station_id":"ce4bhkp2rcd13ifvqgd0","pricing_plan_id":"cebpf4jnsgd1na2vs0mg"},{"bike_id":"14c526e1-5037-4934-8226-6240aab7d63f","system_id":"levelo_inurba_marseille","lat":43.27494,"lon":5.4246,"is_reserved":false,"is_disabled":false,"rental_uris":{"android":"levelo://app?vid=14c526e1-5037-4934-8226-6240aab7d63f","ios":"levelo://app?vid=14c526e1-5037-4934-8226-6240aab7d63f"},"vehicle_type_id":"4","last_reported":1735561047,"current_range_meters":2800,"station_id":"ce4bhn92rcd13ifvqgrg","pricing_plan_id":"cebpf4jnsgd1na2vs0mg"},{"bike_id":"c754264e-2257-42b1-89f9-0bf9a740ba42","system_id":"levelo_inurba_marseille","lat":43.27536,"lon":5.38461,"is_reserved":false,"is_disabled":false,"rental_uris":{"android":"levelo://app?vid=c754264e-2257-42b1-89f9-0bf9a740ba42","ios":"levelo://app?vid=c754264e-2257-42b1-89f9-0bf9a740ba42"},"vehicle_type_id":"4","last_reported":1735561047,"current_range_meters":35600,"station_id":"ce4bhh92rcd13ifvqfi0","pricing_plan_id":"cebpf4jnsgd1na2vs0mg"},{"bike_id":"f6870b74-dbac-4b95-8615-46c4ef018cca","system_id":"levelo_inurba_marseille","lat":43.30134,"lon":5.398683,"is_reserved":false,"is_disabled":false,"rental_uris":{"android":"levelo://app?vid=f6870b74-dbac-4b95-8615-46c4ef018cca","ios":"levelo://app?vid=f6870b74-dbac-4b95-8615-46c4ef018cca"},"vehicle_type_id":"4","last_reported":1735561047,"current_range_meters":36800,"station_id":"ce4bh0h2rcd13ifvqd40","pricing_plan_id":"cebpf4jnsgd1na2vs0mg"},{"bike_id":"dd1557f7-82ae-432b-bc93-cb1309580425","system_id":"levelo_inurba_marseille","lat":43.23198,"lon":5.35555,"is_reserved":false,"is_disabled":false,"rental_uris":{"android":"levelo://app?vid=dd1557f7-82ae-432b-bc93-cb1309580425","ios":"levelo://app?vid=dd1557f7-82ae-432b-bc93-cb1309580425"},"vehicle_type_id":"4","last_reported":1735561047,"current_range_meters":17600,"station_id":"ce4bhu92rcd13ifvqi70","pricing_plan_id":"cebpf4jnsgd1na2vs0mg"},{"bike_id":"edaeb765-1f3a-4ef6-bc06-b7260ec353b4","system_id":"levelo_inurba_marseille","lat":43.3014,"lon":5.38101,"is_reserved":false,"is_disabled":false,"rental_uris":{"android":"levelo://app?vid=edaeb765-1f3a-4ef6-bc06-b7260ec353b4","ios":"levelo://app?vid=edaeb765-1f3a-4ef6-bc06-b7260ec353b4"},"vehicle_type_id":"4","last_reported":1735561047,"current_range_meters":31200,"station_id":"ce4bgjp2rcd13ifvqbh0","pricing_plan_id":"cebpf4jnsgd1na2vs0mg"},{"bike_id":"a805e307-35f7-4061-8c24-0e26174a46d9","system_id":"levelo_inurba_marseille","lat":43.28462,"lon":5.38424,"is_reserved":false,"is_disabled":false,"rental_uris":{"android":"levelo://app?vid=a805e307-35f7-4061-8c24-0e26174a46d9","ios":"levelo://app?vid=a805e307-35f7-4061-8c24-0e26174a46d9"},"vehicle_type_id":"4","last_reported":1735561047,"current_range_meters":38800,"station_id":"ce4bh512rcd13ifvqe3g","pricing_plan_id":"cebpf4jnsgd1na2vs0mg"},{"bike_id":"0fa9f66a-ae98-4d54-867c-794967536762","system_id":"levelo_inurba_marseille","lat":43.29007,"lon":5.35606,"is_reserved":false,"is_disabled":false,"rental_uris":{"android":"levelo://app?vid=0fa9f66a-ae98-4d54-867c-794967536762","ios":"levelo://app?vid=0fa9f66a-ae98-4d54-867c-794967536762"},"vehicle_type_id":"4","last_reported":1735561047,"current_range_meters":30000,"station_id":"ce4bhb92rcd13ifvqen0","pricing_plan_id":"cebpf4jnsgd1na2vs0mg"},{"bike_id":"96a9fe38-f140-4702-a461-7ae9fae57cbf","system_id":"levelo_inurba_marseille","lat":43.3125,"lon":5.40196,"is_reserved":false,"is_disabled":false,"rental_uris":{"android":"levelo://app?vid=96a9fe38-f140-4702-a461-7ae9fae57cbf","ios":"levelo://app?vid=96a9fe38-f140-4702-a461-7ae9fae57cbf"},"vehicle_type_id":"4","last_reported":1735561047,"current_range_meters":38000,"station_id":"ce4bh092rcd13ifvqd30","pricing_plan_id":"cebpf4jnsgd1na2vs0mg"},{"bike_id":"022ee8df-8b7d-461c-b1b8-61bc2a2ca8ef","system_id":"levelo_inurba_marseille","lat":43.30902,"lon":5.36866,"is_reserved":false,"is_disabled":false,"rental_uris":{"android":"levelo://app?vid=022ee8df-8b7d-461c-b1b8-61bc2a2ca8ef","ios":"levelo://app?vid=022ee8df-8b7d-461c-b1b8-61bc2a2ca8ef"},"vehicle_type_id":"4","last_reported":1735561047,"current_range_meters":38800,"station_id":"ce4bgn92rcd13ifvqbvg","pricing_plan_id":"cebpf4jnsgd1na2vs0mg"},{"bike_id":"b8c97997-1ed1-4dde-a409-deecfb8321e5","system_id":"levelo_inurba_marseille","lat":43.295835,"lon":5.367418,"is_reserved":false,"is_disabled":false,"rental_uris":{"android":"levelo://app?vid=b8c97997-1ed1-4dde-a409-deecfb8321e5","ios":"levelo://app?vid=b8c97997-1ed1-4dde-a409-deecfb8321e5"},"vehicle_type_id":"4","last_reported":1735561047,"current_range_meters":38800,"station_id":"ce4bgph2rcd13ifvqc2g","pricing_plan_id":"cebpf4jnsgd1na2vs0mg"},{"bike_id":"607a52e0-cc96-40b4-acd4-57002d9d59df","system_id":"levelo_inurba_marseille","lat":43.251214,"lon":5.403246,"is_reserved":false,"is_disabled":false,"rental_uris":{"android":"levelo://app?vid=607a52e0-cc96-40b4-acd4-57002d9d59df","ios":"levelo://app?vid=607a52e0-cc96-40b4-acd4-57002d9d59df"},"vehicle_type_id":"4","last_reported":1735561047,"current_range_meters":38800,"station_id":"ce4bhlh2rcd13ifvqgig","pricing_plan_id":"cebpf4jnsgd1na2vs0mg"},{"bike_id":"38b355a5-7807-4903-a9be-69e3fed872b9","system_id":"levelo_inurba_marseille","lat":43.31067,"lon":5.38346,"is_reserved":false,"is_disabled":false,"rental_uris":{"android":"levelo://app?vid=38b355a5-7807-4903-a9be-69e3fed872b9","ios":"levelo://app?vid=38b355a5-7807-4903-a9be-69e3fed872b9"},"vehicle_type_id":"4","last_reported":1735561047,"current_range_meters":17600,"station_id":"ce4bgv92rcd13ifvqcr0","pricing_plan_id":"cebpf4jnsgd1na2vs0mg"},{"bike_id":"e72c6d65-0b04-411e-bf0f-f72d15cad0d7","system_id":"levelo_inurba_marseille","lat":43.33729,"lon":5.3921,"is_reserved":false,"is_disabled":false,"rental_uris":{"android":"levelo://app?vid=e72c6d65-0b04-411e-bf0f-f72d15cad0d7","ios":"levelo://app?vid=e72c6d65-0b04-411e-bf0f-f72d15cad0d7"},"vehicle_type_id":"4","last_reported":1735561047,"current_range_meters":38800,"station_id":"ce4bhr92rcd13ifvqhsg","pricing_plan_id":"cebpf4jnsgd1na2vs0mg"},{"bike_id":"bb026ccd-d3aa-4c00-a992-d9f20432a24e","system_id":"levelo_inurba_marseille","lat":43.27645,"lon":5.38924,"is_reserved":false,"is_disabled":false,"rental_uris":{"android":"levelo://app?vid=bb026ccd-d3aa-4c00-a992-d9f20432a24e","ios":"levelo://app?vid=bb026ccd-d3aa-4c00-a992-d9f20432a24e"},"vehicle_type_id":"4","last_reported":1735561047,"current_range_meters":35600,"station_id":"","pricing_plan_id":"cebpf4jnsgd1na2vs0mg"},{"bike_id":"06936fe8-562e-452f-a4e3-3de5c6dc7bed","system_id":"levelo_inurba_marseille","lat":43.30143,"lon":5.38106,"is_reserved":false,"is_disabled":false,"rental_uris":{"android":"levelo://app?vid=06936fe8-562e-452f-a4e3-3de5c6dc7bed","ios":"levelo://app?vid=06936fe8-562e-452f-a4e3-3de5c6dc7bed"},"vehicle_type_id":"4","last_reported":1735561047,"current_range_meters":38800,"station_id":"ce4bgjp2rcd13ifvqbh0","pricing_plan_id":"cebpf4jnsgd1na2vs0mg"},{"bike_id":"52821f80-86b1-40fc-9656-db3d03641f0b","system_id":"levelo_inurba_marseille","lat":43.29615,"lon":5.37212,"is_reserved":false,"is_disabled":false,"rental_uris":{"android":"levelo://app?vid=52821f80-86b1-40fc-9656-db3d03641f0b","ios":"levelo://app?vid=52821f80-86b1-40fc-9656-db3d03641f0b"},"vehicle_type_id":"4","last_reported":1735561047,"current_range_meters":39200,"station_id":"ce4bgnh2rcd13ifvqc0g","pricing_plan_id":"cebpf4jnsgd1na2vs0mg"},{"bike_id":"8ffa3cd1-b1ef-4965-b918-08250ca664fa","system_id":"levelo_inurba_marseille","lat":43.29518,"lon":5.38536,"is_reserved":false,"is_disabled":false,"rental_uris":{"android":"levelo://app?vid=8ffa3cd1-b1ef-4965-b918-08250ca664fa","ios":"levelo://app?vid=8ffa3cd1-b1ef-4965-b918-08250ca664fa"},"vehicle_type_id":"4","last_reported":1735561047,"current_range_meters":26800,"station_id":"ce4bgih2rcd13ifvqba0","pricing_plan_id":"cebpf4jnsgd1na2vs0mg"},{"bike_id":"2fdeab75-c3c7-44e1-8744-5eb7e97729bb","system_id":"levelo_inurba_marseille","lat":43.321,"lon":5.36796,"is_reserved":false,"is_disabled":false,"rental_uris":{"android":"levelo://app?vid=2fdeab75-c3c7-44e1-8744-5eb7e97729bb","ios":"levelo://app?vid=2fdeab75-c3c7-44e1-8744-5eb7e97729bb"},"vehicle_type_id":"4","last_reported":1735561047,"current_range_meters":36800,"station_id":"ce4bhrh2rcd13ifvqhug","pricing_plan_id":"cebpf4jnsgd1na2vs0mg"},{"bike_id":"61554228-fef4-4b7e-a218-469ceb3eaefe","system_id":"levelo_inurba_marseille","lat":43.31709,"lon":5.43705,"is_reserved":false,"is_disabled":false,"rental_uris":{"android":"levelo://app?vid=61554228-fef4-4b7e-a218-469ceb3eaefe","ios":"levelo://app?vid=61554228-fef4-4b7e-a218-469ceb3eaefe"},"vehicle_type_id":"4","last_reported":1735561047,"current_range_meters":36800,"station_id":"ce4bhp92rcd13ifvqhcg","pricing_plan_id":"cebpf4jnsgd1na2vs0mg"},{"bike_id":"40d33d5a-b0d6-4ca7-b92a-5a5e00a2e584","system_id":"levelo_inurba_marseille","lat":43.27303,"lon":5.39138,"is_reserved":false,"is_disabled":false,"rental_uris":{"android":"levelo://app?vid=40d33d5a-b0d6-4ca7-b92a-5a5e00a2e584","ios":"levelo://app?vid=40d33d5a-b0d6-4ca7-b92a-5a5e00a2e584"},"vehicle_type_id":"4","last_reported":1735561047,"current_range_meters":38800,"station_id":"ce4bhgp2rcd13ifvqfe0","pricing_plan_id":"cebpf4jnsgd1na2vs0mg"},{"bike_id":"f35cb149-2d29-430f-b2cf-ebb3f4386592","system_id":"levelo_inurba_marseille","lat":43.27156,"lon":5.40532,"is_reserved":false,"is_disabled":false,"rental_uris":{"android":"levelo://app?vid=f35cb149-2d29-430f-b2cf-ebb3f4386592","ios":"levelo://app?vid=f35cb149-2d29-430f-b2cf-ebb3f4386592"},"vehicle_type_id":"4","last_reported":1735561047,"current_range_meters":28400,"station_id":"","pricing_plan_id":"cebpf4jnsgd1na2vs0mg"},{"bike_id":"57103b12-06fc-494b-9a1a-1903f8f245d5","system_id":"levelo_inurba_marseille","lat":43.27981,"lon":5.4167,"is_reserved":false,"is_disabled":false,"rental_uris":{"android":"levelo://app?vid=57103b12-06fc-494b-9a1a-1903f8f245d5","ios":"levelo://app?vid=57103b12-06fc-494b-9a1a-1903f8f245d5"},"vehicle_type_id":"4","last_reported":1735561047,"current_range_meters":12000,"station_id":"ce4bho12rcd13ifvqh1g","pricing_plan_id":"cebpf4jnsgd1na2vs0mg"},{"bike_id":"c93a8900-340a-4a6d-ac3e-8882057837af","system_id":"levelo_inurba_marseille","lat":43.27378,"lon":5.36251,"is_reserved":false,"is_disabled":false,"rental_uris":{"android":"levelo://app?vid=c93a8900-340a-4a6d-ac3e-8882057837af","ios":"levelo://app?vid=c93a8900-340a-4a6d-ac3e-8882057837af"},"vehicle_type_id":"4","last_reported":1735561047,"current_range_meters":32000,"station_id":"ce4bhbh2rcd13ifvqeo0","pricing_plan_id":"cebpf4jnsgd1na2vs0mg"},{"bike_id":"3370aa68-a7b2-4c9a-be44-443898e48ac8","system_id":"levelo_inurba_marseille","lat":43.31283,"lon":5.37405,"is_reserved":false,"is_disabled":false,"rental_uris":{"android":"levelo://app?vid=3370aa68-a7b2-4c9a-be44-443898e48ac8","ios":"levelo://app?vid=3370aa68-a7b2-4c9a-be44-443898e48ac8"},"vehicle_type_id":"4","last_reported":1735561047,"current_range_meters":28400,"station_id":"","pricing_plan_id":"cebpf4jnsgd1na2vs0mg"},{"bike_id":"d9d97985-8792-47a3-ab8c-09980f6a9900","system_id":"levelo_inurba_marseille","lat":43.29525,"lon":5.37525,"is_reserved":false,"is_disabled":false,"rental_uris":{"android":"levelo://app?vid=d9d97985-8792-47a3-ab8c-09980f6a9900","ios":"levelo://app?vid=d9d97985-8792-47a3-ab8c-09980f6a9900"},"vehicle_type_id":"4","last_reported":1735561047,"current_range_meters":38000,"station_id":"ce4bgkp2rcd13ifvqbmg","pricing_plan_id":"cebpf4jnsgd1na2vs0mg"},{"bike_id":"0bda0541-6eab-4b8d-b44c-9e584be18b48","system_id":"levelo_inurba_marseille","lat":43.31675,"lon":5.40488,"is_reserved":false,"is_disabled":false,"rental_uris":{"android":"levelo://app?vid=0bda0541-6eab-4b8d-b44c-9e584be18b48","ios":"levelo://app?vid=0bda0541-6eab-4b8d-b44c-9e584be18b48"},"vehicle_type_id":"4","last_reported":1735561047,"current_range_meters":28000,"station_id":"ce4bh012rcd13ifvqd00","pricing_plan_id":"cebpf4jnsgd1na2vs0mg"},{"bike_id":"21af2eaf-0e4b-4d09-927b-ac5878ee9e70","system_id":"levelo_inurba_marseille","lat":43.27561,"lon":5.38416,"is_reserved":false,"is_disabled":false,"rental_uris":{"android":"levelo://app?vid=21af2eaf-0e4b-4d09-927b-ac5878ee9e70","ios":"levelo://app?vid=21af2eaf-0e4b-4d09-927b-ac5878ee9e70"},"vehicle_type_id":"4","last_reported":1735561047,"current_range_meters":39200,"station_id":"ce4bhh92rcd13ifvqfi0","pricing_plan_id":"cebpf4jnsgd1na2vs0mg"},{"bike_id":"1ffdc83c-8b0f-4adc-8d6e-759e337a8d87","system_id":"levelo_inurba_marseille","lat":43.337444,"lon":5.374475,"is_reserved":false,"is_disabled":false,"rental_uris":{"android":"levelo://app?vid=1ffdc83c-8b0f-4adc-8d6e-759e337a8d87","ios":"levelo://app?vid=1ffdc83c-8b0f-4adc-8d6e-759e337a8d87"},"vehicle_type_id":"4","last_reported":1735561047,"current_range_meters":24000,"station_id":"","pricing_plan_id":"cebpf4jnsgd1na2vs0mg"},{"bike_id":"14c11fb9-caa0-4e31-80e1-6eab38509593","system_id":"levelo_inurba_marseille","lat":43.26187,"lon":5.37944,"is_reserved":false,"is_disabled":false,"rental_uris":{"android":"levelo://app?vid=14c11fb9-caa0-4e31-80e1-6eab38509593","ios":"levelo://app?vid=14c11fb9-caa0-4e31-80e1-6eab38509593"},"vehicle_type_id":"4","last_reported":1735561047,"current_range_meters":38800,"station_id":"ce4bhjp2rcd13ifvqg90","pricing_plan_id":"cebpf4jnsgd1na2vs0mg"},{"bike_id":"482b0b80-c53d-4d05-aa82-218b22575b6c","system_id":"levelo_inurba_marseille","lat":43.23151,"lon":5.43703,"is_reserved":false,"is_disabled":true,"rental_uris":{"android":"levelo://app?vid=482b0b80-c53d-4d05-aa82-218b22575b6c","ios":"levelo://app?vid=482b0b80-c53d-4d05-aa82-218b22575b6c"},"vehicle_type_id":"4","last_reported":1735561047,"current_range_meters":35200,"station_id":"ce4bhmp2rcd13ifvqgog","pricing_plan_id":"cebpf4jnsgd1na2vs0mg"},{"bike_id":"968f8345-d048-4768-bf95-8ef9f2d80532","system_id":"levelo_inurba_marseille","lat":43.25093,"lon":5.39495,"is_reserved":false,"is_disabled":false,"rental_uris":{"android":"levelo://app?vid=968f8345-d048-4768-bf95-8ef9f2d80532","ios":"levelo://app?vid=968f8345-d048-4768-bf95-8ef9f2d80532"},"vehicle_type_id":"4","last_reported":1735561047,"current_range_meters":29600,"station_id":"ce4bhm12rcd13ifvqgkg","pricing_plan_id":"cebpf4jnsgd1na2vs0mg"},{"bike_id":"930f7ce6-e931-48ed-acea-dde57f1887ce","system_id":"levelo_inurba_marseille","lat":43.32095,"lon":5.36789,"is_reserved":false,"is_disabled":false,"rental_uris":{"android":"levelo://app?vid=930f7ce6-e931-48ed-acea-dde57f1887ce","ios":"levelo://app?vid=930f7ce6-e931-48ed-acea-dde57f1887ce"},"vehicle_type_id":"4","last_reported":1735561047,"current_range_meters":38400,"station_id":"ce4bhrh2rcd13ifvqhug","pricing_plan_id":"cebpf4jnsgd1na2vs0mg"},{"bike_id":"17205649-607f-4c5a-9b64-3629df6dd394","system_id":"levelo_inurba_marseille","lat":43.2928,"lon":5.40114,"is_reserved":false,"is_disabled":false,"rental_uris":{"android":"levelo://app?vid=17205649-607f-4c5a-9b64-3629df6dd394","ios":"levelo://app?vid=17205649-607f-4c5a-9b64-3629df6dd394"},"vehicle_type_id":"4","last_reported":1735561047,"current_range_meters":10000,"station_id":"ce4bh312rcd13ifvqdk0","pricing_plan_id":"cebpf4jnsgd1na2vs0mg"},{"bike_id":"c21a444e-c313-43de-8930-8781fd633a42","system_id":"levelo_inurba_marseille","lat":43.23058,"lon":5.35494,"is_reserved":false,"is_disabled":false,"rental_uris":{"android":"levelo://app?vid=c21a444e-c313-43de-8930-8781fd633a42","ios":"levelo://app?vid=c21a444e-c313-43de-8930-8781fd633a42"},"vehicle_type_id":"4","last_reported":1735561047,"current_range_meters":10000,"station_id":"cpo3342slgdg3j2ifvpg","pricing_plan_id":"cebpf4jnsgd1na2vs0mg"},{"bike_id":"d838f191-cdb4-4c86-b6c7-18f5d91a82a2","system_id":"levelo_inurba_marseille","lat":43.30276,"lon":5.36925,"is_reserved":false,"is_disabled":false,"rental_uris":{"android":"levelo://app?vid=d838f191-cdb4-4c86-b6c7-18f5d91a82a2","ios":"levelo://app?vid=d838f191-cdb4-4c86-b6c7-18f5d91a82a2"},"vehicle_type_id":"4","last_reported":1735561047,"current_range_meters":32000,"station_id":"ce4bgqh2rcd13ifvqc5g","pricing_plan_id":"cebpf4jnsgd1na2vs0mg"},{"bike_id":"172105b5-7944-4d35-8194-730cb4c509a2","system_id":"levelo_inurba_marseille","lat":43.29711,"lon":5.36596,"is_reserved":false,"is_disabled":false,"rental_uris":{"android":"levelo://app?vid=172105b5-7944-4d35-8194-730cb4c509a2","ios":"levelo://app?vid=172105b5-7944-4d35-8194-730cb4c509a2"},"vehicle_type_id":"4","last_reported":1735561047,"current_range_meters":21600,"station_id":"ce4bgn12rcd13ifvqbt0","pricing_plan_id":"cebpf4jnsgd1na2vs0mg"},{"bike_id":"1a396d91-4fad-4769-86c2-9df74d3e2b18","system_id":"levelo_inurba_marseille","lat":43.29879,"lon":5.39738,"is_reserved":false,"is_disabled":false,"rental_uris":{"android":"levelo://app?vid=1a396d91-4fad-4769-86c2-9df74d3e2b18","ios":"levelo://app?vid=1a396d91-4fad-4769-86c2-9df74d3e2b18"},"vehicle_type_id":"4","last_reported":1735561047,"current_range_meters":20400,"station_id":"ce4bh0h2rcd13ifvqd50","pricing_plan_id":"cebpf4jnsgd1na2vs0mg"},{"bike_id":"aa99bbfb-de18-46c6-947e-8cff17d37e2c","system_id":"levelo_inurba_marseille","lat":43.28276,"lon":5.35075,"is_reserved":false,"is_disabled":false,"rental_uris":{"android":"levelo://app?vid=aa99bbfb-de18-46c6-947e-8cff17d37e2c","ios":"levelo://app?vid=aa99bbfb-de18-46c6-947e-8cff17d37e2c"},"vehicle_type_id":"4","last_reported":1735561047,"current_range_meters":19600,"station_id":"ce4bhbp2rcd13ifvqerg","pricing_plan_id":"cebpf4jnsgd1na2vs0mg"},{"bike_id":"cf2f7e68-d703-4194-ae9c-03b471caeedf","system_id":"levelo_inurba_marseille","lat":43.28264,"lon":5.35071,"is_reserved":false,"is_disabled":false,"rental_uris":{"android":"levelo://app?vid=cf2f7e68-d703-4194-ae9c-03b471caeedf","ios":"levelo://app?vid=cf2f7e68-d703-4194-ae9c-03b471caeedf"},"vehicle_type_id":"4","last_reported":1735561047,"current_range_meters":8000,"station_id":"ce4bhbp2rcd13ifvqerg","pricing_plan_id":"cebpf4jnsgd1na2vs0mg"},{"bike_id":"36213eda-3fc6-4ca8-8b13-0a8aba468f49","system_id":"levelo_inurba_marseille","lat":43.29261,"lon":5.40901,"is_reserved":false,"is_disabled":false,"rental_uris":{"android":"levelo://app?vid=36213eda-3fc6-4ca8-8b13-0a8aba468f49","ios":"levelo://app?vid=36213eda-3fc6-4ca8-8b13-0a8aba468f49"},"vehicle_type_id":"4","last_reported":1735561047,"current_range_meters":18000,"station_id":"ce4bh192rcd13ifvqdc0","pricing_plan_id":"cebpf4jnsgd1na2vs0mg"},{"bike_id":"d124b3fa-f3a5-4c6d-bebc-2f7ad1a1004e","system_id":"levelo_inurba_marseille","lat":43.269478,"lon":5.38639,"is_reserved":false,"is_disabled":false,"rental_uris":{"android":"levelo://app?vid=d124b3fa-f3a5-4c6d-bebc-2f7ad1a1004e","ios":"levelo://app?vid=d124b3fa-f3a5-4c6d-bebc-2f7ad1a1004e"},"vehicle_type_id":"4","last_reported":1735561047,"current_range_meters":38000,"station_id":"ce4bhh92rcd13ifvqfh0","pricing_plan_id":"cebpf4jnsgd1na2vs0mg"},{"bike_id":"27ed0d87-4303-4ab9-a01a-f01466906478","system_id":"levelo_inurba_marseille","lat":43.23193,"lon":5.35551,"is_reserved":false,"is_disabled":false,"rental_uris":{"android":"levelo://app?vid=27ed0d87-4303-4ab9-a01a-f01466906478","ios":"levelo://app?vid=27ed0d87-4303-4ab9-a01a-f01466906478"},"vehicle_type_id":"4","last_reported":1735561047,"current_range_meters":4400,"station_id":"ce4bhu92rcd13ifvqi70","pricing_plan_id":"cebpf4jnsgd1na2vs0mg"},{"bike_id":"2d2b617c-d682-46ea-8faf-5371c21e4dfd","system_id":"levelo_inurba_marseille","lat":43.23192,"lon":5.35556,"is_reserved":false,"is_disabled":false,"rental_uris":{"android":"levelo://app?vid=2d2b617c-d682-46ea-8faf-5371c21e4dfd","ios":"levelo://app?vid=2d2b617c-d682-46ea-8faf-5371c21e4dfd"},"vehicle_type_id":"4","last_reported":1735561047,"current_range_meters":8400,"station_id":"ce4bhu92rcd13ifvqi70","pricing_plan_id":"cebpf4jnsgd1na2vs0mg"},{"bike_id":"474129a5-51c1-4d06-a881-1f71675bc781","system_id":"levelo_inurba_marseille","lat":43.30884,"lon":5.37208,"is_reserved":false,"is_disabled":false,"rental_uris":{"android":"levelo://app?vid=474129a5-51c1-4d06-a881-1f71675bc781","ios":"levelo://app?vid=474129a5-51c1-4d06-a881-1f71675bc781"},"vehicle_type_id":"4","last_reported":1735561047,"current_range_meters":30800,"station_id":"ce4bguh2rcd13ifvqckg","pricing_plan_id":"cebpf4jnsgd1na2vs0mg"},{"bike_id":"5749aac9-d3f7-4ffa-8219-56771e9d2fec","system_id":"levelo_inurba_marseille","lat":43.29609,"lon":5.37731,"is_reserved":false,"is_disabled":false,"rental_uris":{"android":"levelo://app?vid=5749aac9-d3f7-4ffa-8219-56771e9d2fec","ios":"levelo://app?vid=5749aac9-d3f7-4ffa-8219-56771e9d2fec"},"vehicle_type_id":"4","last_reported":1735561047,"current_range_meters":31200,"station_id":"ce4bgi92rcd13ifvqb90","pricing_plan_id":"cebpf4jnsgd1na2vs0mg"},{"bike_id":"d6205c4d-3834-4ed3-974d-2d1144189ec2","system_id":"levelo_inurba_marseille","lat":43.25712,"lon":5.41092,"is_reserved":false,"is_disabled":false,"rental_uris":{"android":"levelo://app?vid=d6205c4d-3834-4ed3-974d-2d1144189ec2","ios":"levelo://app?vid=d6205c4d-3834-4ed3-974d-2d1144189ec2"},"vehicle_type_id":"4","last_reported":1735561047,"current_range_meters":28000,"station_id":"ce4bhkp2rcd13ifvqgd0","pricing_plan_id":"cebpf4jnsgd1na2vs0mg"},{"bike_id":"8c6daff5-22f8-4bf7-8811-349f89ec8c3d","system_id":"levelo_inurba_marseille","lat":43.2971,"lon":5.3773,"is_reserved":false,"is_disabled":false,"rental_uris":{"android":"levelo://app?vid=8c6daff5-22f8-4bf7-8811-349f89ec8c3d","ios":"levelo://app?vid=8c6daff5-22f8-4bf7-8811-349f89ec8c3d"},"vehicle_type_id":"4","last_reported":1735561047,"current_range_meters":30800,"station_id":"ce4bgkh2rcd13ifvqbl0","pricing_plan_id":"cebpf4jnsgd1na2vs0mg"},{"bike_id":"805b146d-680f-4010-8a1d-979f727ac65c","system_id":"levelo_inurba_marseille","lat":43.31394,"lon":5.36705,"is_reserved":false,"is_disabled":false,"rental_uris":{"android":"levelo://app?vid=805b146d-680f-4010-8a1d-979f727ac65c","ios":"levelo://app?vid=805b146d-680f-4010-8a1d-979f727ac65c"},"vehicle_type_id":"4","last_reported":1735561047,"current_range_meters":25200,"station_id":"","pricing_plan_id":"cebpf4jnsgd1na2vs0mg"},{"bike_id":"2a1b35da-daea-4a1d-a941-20b6a3a8bd98","system_id":"levelo_inurba_marseille","lat":43.29271,"lon":5.36853,"is_reserved":false,"is_disabled":false,"rental_uris":{"android":"levelo://app?vid=2a1b35da-daea-4a1d-a941-20b6a3a8bd98","ios":"levelo://app?vid=2a1b35da-daea-4a1d-a941-20b6a3a8bd98"},"vehicle_type_id":"4","last_reported":1735561047,"current_range_meters":36800,"station_id":"ce4bhbp2rcd13ifvqesg","pricing_plan_id":"cebpf4jnsgd1na2vs0mg"},{"bike_id":"32afc6cc-1544-4f88-ab5c-34496cc35b04","system_id":"levelo_inurba_marseille","lat":43.2306,"lon":5.35493,"is_reserved":false,"is_disabled":false,"rental_uris":{"android":"levelo://app?vid=32afc6cc-1544-4f88-ab5c-34496cc35b04","ios":"levelo://app?vid=32afc6cc-1544-4f88-ab5c-34496cc35b04"},"vehicle_type_id":"4","last_reported":1735561047,"current_range_meters":22400,"station_id":"cpo3342slgdg3j2ifvpg","pricing_plan_id":"cebpf4jnsgd1na2vs0mg"},{"bike_id":"ff27b50e-e127-48ea-a99c-ced35aad3637","system_id":"levelo_inurba_marseille","lat":43.27816,"lon":5.40706,"is_reserved":false,"is_disabled":false,"rental_uris":{"android":"levelo://app?vid=ff27b50e-e127-48ea-a99c-ced35aad3637","ios":"levelo://app?vid=ff27b50e-e127-48ea-a99c-ced35aad3637"},"vehicle_type_id":"4","last_reported":1735561047,"current_range_meters":30800,"station_id":"ce4bhnh2rcd13ifvqgtg","pricing_plan_id":"cebpf4jnsgd1na2vs0mg"},{"bike_id":"909f440c-cb07-4e90-ae06-2fd800ec689a","system_id":"levelo_inurba_marseille","lat":43.28501,"lon":5.38527,"is_reserved":false,"is_disabled":false,"rental_uris":{"android":"levelo://app?vid=909f440c-cb07-4e90-ae06-2fd800ec689a","ios":"levelo://app?vid=909f440c-cb07-4e90-ae06-2fd800ec689a"},"vehicle_type_id":"4","last_reported":1735561047,"current_range_meters":38800,"station_id":"ce4bh8p2rcd13ifvqeb0","pricing_plan_id":"cebpf4jnsgd1na2vs0mg"},{"bike_id":"3ac6afb2-eeca-4495-ae50-ead30fba6adf","system_id":"levelo_inurba_marseille","lat":43.2963,"lon":5.37722,"is_reserved":false,"is_disabled":false,"rental_uris":{"android":"levelo://app?vid=3ac6afb2-eeca-4495-ae50-ead30fba6adf","ios":"levelo://app?vid=3ac6afb2-eeca-4495-ae50-ead30fba6adf"},"vehicle_type_id":"4","last_reported":1735561047,"current_range_meters":12800,"station_id":"ce4bgi92rcd13ifvqb90","pricing_plan_id":"cebpf4jnsgd1na2vs0mg"},{"bike_id":"b3f2c9b6-d02c-422e-8207-a3f8fa5efb04","system_id":"levelo_inurba_marseille","lat":43.27211,"lon":5.39192,"is_reserved":false,"is_disabled":false,"rental_uris":{"android":"levelo://app?vid=b3f2c9b6-d02c-422e-8207-a3f8fa5efb04","ios":"levelo://app?vid=b3f2c9b6-d02c-422e-8207-a3f8fa5efb04"},"vehicle_type_id":"4","last_reported":1735561047,"current_range_meters":34800,"station_id":"ce4bhhp2rcd13ifvqfm0","pricing_plan_id":"cebpf4jnsgd1na2vs0mg"},{"bike_id":"e2e6483d-a07e-4f4d-a1c3-fee26a50abe7","system_id":"levelo_inurba_marseille","lat":43.30459,"lon":5.37902,"is_reserved":false,"is_disabled":false,"rental_uris":{"android":"levelo://app?vid=e2e6483d-a07e-4f4d-a1c3-fee26a50abe7","ios":"levelo://app?vid=e2e6483d-a07e-4f4d-a1c3-fee26a50abe7"},"vehicle_type_id":"4","last_reported":1735561047,"current_range_meters":39200,"station_id":"ce4bgup2rcd13ifvqcn0","pricing_plan_id":"cebpf4jnsgd1na2vs0mg"},{"bike_id":"c5c19b8a-5399-4764-95d4-d1576b2ddd8b","system_id":"levelo_inurba_marseille","lat":43.30926,"lon":5.37143,"is_reserved":false,"is_disabled":false,"rental_uris":{"android":"levelo://app?vid=c5c19b8a-5399-4764-95d4-d1576b2ddd8b","ios":"levelo://app?vid=c5c19b8a-5399-4764-95d4-d1576b2ddd8b"},"vehicle_type_id":"4","last_reported":1735561047,"current_range_meters":17200,"station_id":"ce4bguh2rcd13ifvqckg","pricing_plan_id":"cebpf4jnsgd1na2vs0mg"},{"bike_id":"5c50b415-5e1e-4726-aeef-f00437110428","system_id":"levelo_inurba_marseille","lat":43.27687,"lon":5.38907,"is_reserved":false,"is_disabled":false,"rental_uris":{"android":"levelo://app?vid=5c50b415-5e1e-4726-aeef-f00437110428","ios":"levelo://app?vid=5c50b415-5e1e-4726-aeef-f00437110428"},"vehicle_type_id":"4","last_reported":1735561047,"current_range_meters":36400,"station_id":"ce4bhi12rcd13ifvqfo0","pricing_plan_id":"cebpf4jnsgd1na2vs0mg"},{"bike_id":"35a9fea2-de1d-49ad-91be-237640bc548d","system_id":"levelo_inurba_marseille","lat":43.30538,"lon":5.36708,"is_reserved":false,"is_disabled":false,"rental_uris":{"android":"levelo://app?vid=35a9fea2-de1d-49ad-91be-237640bc548d","ios":"levelo://app?vid=35a9fea2-de1d-49ad-91be-237640bc548d"},"vehicle_type_id":"4","last_reported":1735561047,"current_range_meters":38800,"station_id":"ce4bgrp2rcd13ifvqc9g","pricing_plan_id":"cebpf4jnsgd1na2vs0mg"},{"bike_id":"c555ca4c-11f1-431d-8a50-f4a1100f526d","system_id":"levelo_inurba_marseille","lat":43.30877,"lon":5.37215,"is_reserved":false,"is_disabled":false,"rental_uris":{"android":"levelo://app?vid=c555ca4c-11f1-431d-8a50-f4a1100f526d","ios":"levelo://app?vid=c555ca4c-11f1-431d-8a50-f4a1100f526d"},"vehicle_type_id":"4","last_reported":1735561047,"current_range_meters":16800,"station_id":"ce4bguh2rcd13ifvqckg","pricing_plan_id":"cebpf4jnsgd1na2vs0mg"},{"bike_id":"a27b0db8-45c2-4065-ba44-a6d977613aae","system_id":"levelo_inurba_marseille","lat":43.27883,"lon":5.38007,"is_reserved":false,"is_disabled":false,"rental_uris":{"android":"levelo://app?vid=a27b0db8-45c2-4065-ba44-a6d977613aae","ios":"levelo://app?vid=a27b0db8-45c2-4065-ba44-a6d977613aae"},"vehicle_type_id":"4","last_reported":1735561047,"current_range_meters":35200,"station_id":"ce4bhf92rcd13ifvqf50","pricing_plan_id":"cebpf4jnsgd1na2vs0mg"},{"bike_id":"a2b6f045-2018-4060-b21b-95cdf5bdc373","system_id":"levelo_inurba_marseille","lat":43.275652,"lon":5.384277,"is_reserved":false,"is_disabled":false,"rental_uris":{"android":"levelo://app?vid=a2b6f045-2018-4060-b21b-95cdf5bdc373","ios":"levelo://app?vid=a2b6f045-2018-4060-b21b-95cdf5bdc373"},"vehicle_type_id":"4","last_reported":1735561047,"current_range_meters":23200,"station_id":"ce4bhh92rcd13ifvqfi0","pricing_plan_id":"cebpf4jnsgd1na2vs0mg"},{"bike_id":"5639f52b-1196-4558-b062-4f7891cec443","system_id":"levelo_inurba_marseille","lat":43.284,"lon":5.37544,"is_reserved":false,"is_disabled":false,"rental_uris":{"android":"levelo://app?vid=5639f52b-1196-4558-b062-4f7891cec443","ios":"levelo://app?vid=5639f52b-1196-4558-b062-4f7891cec443"},"vehicle_type_id":"4","last_reported":1735561047,"current_range_meters":22000,"station_id":"ce4bh412rcd13ifvqds0","pricing_plan_id":"cebpf4jnsgd1na2vs0mg"},{"bike_id":"92ab72d2-3d79-4268-b458-7bc1009937ee","system_id":"levelo_inurba_marseille","lat":43.31223,"lon":5.36859,"is_reserved":false,"is_disabled":false,"rental_uris":{"android":"levelo://app?vid=92ab72d2-3d79-4268-b458-7bc1009937ee","ios":"levelo://app?vid=92ab72d2-3d79-4268-b458-7bc1009937ee"},"vehicle_type_id":"4","last_reported":1735561047,"current_range_meters":39200,"station_id":"ce4bgl92rcd13ifvqbq0","pricing_plan_id":"cebpf4jnsgd1na2vs0mg"},{"bike_id":"ef2b8e0d-f459-42fc-b0fa-07fcd6e1bc1a","system_id":"levelo_inurba_marseille","lat":43.27319,"lon":5.39103,"is_reserved":false,"is_disabled":false,"rental_uris":{"android":"levelo://app?vid=ef2b8e0d-f459-42fc-b0fa-07fcd6e1bc1a","ios":"levelo://app?vid=ef2b8e0d-f459-42fc-b0fa-07fcd6e1bc1a"},"vehicle_type_id":"4","last_reported":1735561047,"current_range_meters":38800,"station_id":"ce4bhgp2rcd13ifvqfe0","pricing_plan_id":"cebpf4jnsgd1na2vs0mg"},{"bike_id":"0f4a12bd-b51d-4eaa-a601-e436fef9bb8e","system_id":"levelo_inurba_marseille","lat":43.28698,"lon":5.40009,"is_reserved":false,"is_disabled":false,"rental_uris":{"android":"levelo://app?vid=0f4a12bd-b51d-4eaa-a601-e436fef9bb8e","ios":"levelo://app?vid=0f4a12bd-b51d-4eaa-a601-e436fef9bb8e"},"vehicle_type_id":"4","last_reported":1735561047,"current_range_meters":33200,"station_id":"ce4bho92rcd13ifvqh3g","pricing_plan_id":"cebpf4jnsgd1na2vs0mg"},{"bike_id":"8b79f05f-f4cd-420c-a1a4-7db491c49377","system_id":"levelo_inurba_marseille","lat":43.24075,"lon":5.37761,"is_reserved":false,"is_disabled":false,"rental_uris":{"android":"levelo://app?vid=8b79f05f-f4cd-420c-a1a4-7db491c49377","ios":"levelo://app?vid=8b79f05f-f4cd-420c-a1a4-7db491c49377"},"vehicle_type_id":"4","last_reported":1735561047,"current_range_meters":21600,"station_id":"ce4bhnp2rcd13ifvqgvg","pricing_plan_id":"cebpf4jnsgd1na2vs0mg"},{"bike_id":"5218bb43-5db0-4d7f-a08a-726eb4d226ef","system_id":"levelo_inurba_marseille","lat":43.29004,"lon":5.35614,"is_reserved":false,"is_disabled":false,"rental_uris":{"android":"levelo://app?vid=5218bb43-5db0-4d7f-a08a-726eb4d226ef","ios":"levelo://app?vid=5218bb43-5db0-4d7f-a08a-726eb4d226ef"},"vehicle_type_id":"4","last_reported":1735561047,"current_range_meters":30000,"station_id":"ce4bhb92rcd13ifvqen0","pricing_plan_id":"cebpf4jnsgd1na2vs0mg"},{"bike_id":"a7b94244-1746-44ce-9995-c689d6303bf8","system_id":"levelo_inurba_marseille","lat":43.29967,"lon":5.38501,"is_reserved":false,"is_disabled":false,"rental_uris":{"android":"levelo://app?vid=a7b94244-1746-44ce-9995-c689d6303bf8","ios":"levelo://app?vid=a7b94244-1746-44ce-9995-c689d6303bf8"},"vehicle_type_id":"4","last_reported":1735561047,"current_range_meters":19600,"station_id":"ce4bgj92rcd13ifvqbd0","pricing_plan_id":"cebpf4jnsgd1na2vs0mg"},{"bike_id":"356fd92d-e963-40e6-b40e-58fc72ac9553","system_id":"levelo_inurba_marseille","lat":43.32081,"lon":5.36809,"is_reserved":false,"is_disabled":false,"rental_uris":{"android":"levelo://app?vid=356fd92d-e963-40e6-b40e-58fc72ac9553","ios":"levelo://app?vid=356fd92d-e963-40e6-b40e-58fc72ac9553"},"vehicle_type_id":"4","last_reported":1735561047,"current_range_meters":33200,"station_id":"ce4bhrh2rcd13ifvqhug","pricing_plan_id":"cebpf4jnsgd1na2vs0mg"},{"bike_id":"67ace3d6-f856-461e-bae1-ce541a83d8dd","system_id":"levelo_inurba_marseille","lat":43.231881,"lon":5.355566,"is_reserved":false,"is_disabled":false,"rental_uris":{"android":"levelo://app?vid=67ace3d6-f856-461e-bae1-ce541a83d8dd","ios":"levelo://app?vid=67ace3d6-f856-461e-bae1-ce541a83d8dd"},"vehicle_type_id":"4","last_reported":1735561047,"current_range_meters":35600,"station_id":"ce4bhu92rcd13ifvqi70","pricing_plan_id":"cebpf4jnsgd1na2vs0mg"},{"bike_id":"12b64bf2-4ce1-4146-af5b-eb3b72f8d5ae","system_id":"levelo_inurba_marseille","lat":43.25729,"lon":5.41105,"is_reserved":false,"is_disabled":false,"rental_uris":{"android":"levelo://app?vid=12b64bf2-4ce1-4146-af5b-eb3b72f8d5ae","ios":"levelo://app?vid=12b64bf2-4ce1-4146-af5b-eb3b72f8d5ae"},"vehicle_type_id":"4","last_reported":1735561047,"current_range_meters":38800,"station_id":"ce4bhkp2rcd13ifvqgd0","pricing_plan_id":"cebpf4jnsgd1na2vs0mg"},{"bike_id":"f6c3569e-efa4-4a1c-b75b-94ded8df3e64","system_id":"levelo_inurba_marseille","lat":43.27939,"lon":5.38703,"is_reserved":false,"is_disabled":false,"rental_uris":{"android":"levelo://app?vid=f6c3569e-efa4-4a1c-b75b-94ded8df3e64","ios":"levelo://app?vid=f6c3569e-efa4-4a1c-b75b-94ded8df3e64"},"vehicle_type_id":"4","last_reported":1735561047,"current_range_meters":36800,"station_id":"","pricing_plan_id":"cebpf4jnsgd1na2vs0mg"},{"bike_id":"9774620b-5be2-40ca-9412-608c87df9768","system_id":"levelo_inurba_marseille","lat":43.29914,"lon":5.38135,"is_reserved":false,"is_disabled":false,"rental_uris":{"android":"levelo://app?vid=9774620b-5be2-40ca-9412-608c87df9768","ios":"levelo://app?vid=9774620b-5be2-40ca-9412-608c87df9768"},"vehicle_type_id":"4","last_reported":1735561047,"current_range_meters":28400,"station_id":"ce4bgj12rcd13ifvqbc0","pricing_plan_id":"cebpf4jnsgd1na2vs0mg"},{"bike_id":"4b60ec2f-6b0c-475e-bbec-54e5ecd15efd","system_id":"levelo_inurba_marseille","lat":43.2989,"lon":5.43669,"is_reserved":false,"is_disabled":false,"rental_uris":{"android":"levelo://app?vid=4b60ec2f-6b0c-475e-bbec-54e5ecd15efd","ios":"levelo://app?vid=4b60ec2f-6b0c-475e-bbec-54e5ecd15efd"},"vehicle_type_id":"4","last_reported":1735561047,"current_range_meters":29600,"station_id":"ce4bhpp2rcd13ifvqhfg","pricing_plan_id":"cebpf4jnsgd1na2vs0mg"},{"bike_id":"673ed0fe-3027-4e1f-9efc-2804b0e32190","system_id":"levelo_inurba_marseille","lat":43.26678,"lon":5.38261,"is_reserved":false,"is_disabled":false,"rental_uris":{"android":"levelo://app?vid=673ed0fe-3027-4e1f-9efc-2804b0e32190","ios":"levelo://app?vid=673ed0fe-3027-4e1f-9efc-2804b0e32190"},"vehicle_type_id":"4","last_reported":1735561047,"current_range_meters":36800,"station_id":"ce4bhg92rcd13ifvqf90","pricing_plan_id":"cebpf4jnsgd1na2vs0mg"},{"bike_id":"272e4175-fcb2-4a70-ba33-28c9346e73b7","system_id":"levelo_inurba_marseille","lat":43.27939,"lon":5.39596,"is_reserved":false,"is_disabled":true,"rental_uris":{"android":"levelo://app?vid=272e4175-fcb2-4a70-ba33-28c9346e73b7","ios":"levelo://app?vid=272e4175-fcb2-4a70-ba33-28c9346e73b7"},"vehicle_type_id":"4","last_reported":1735561047,"current_range_meters":0,"station_id":"ce4bhf92rcd13ifvqf40","pricing_plan_id":"cebpf4jnsgd1na2vs0mg"},{"bike_id":"7fe6e02c-a028-4b5e-9375-4c772c306e62","system_id":"levelo_inurba_marseille","lat":43.30601,"lon":5.37238,"is_reserved":false,"is_disabled":false,"rental_uris":{"android":"levelo://app?vid=7fe6e02c-a028-4b5e-9375-4c772c306e62","ios":"levelo://app?vid=7fe6e02c-a028-4b5e-9375-4c772c306e62"},"vehicle_type_id":"4","last_reported":1735561047,"current_range_meters":32800,"station_id":"ce4bgqh2rcd13ifvqc4g","pricing_plan_id":"cebpf4jnsgd1na2vs0mg"},{"bike_id":"d772694a-57f3-4fdd-95ae-9e710e2496d5","system_id":"levelo_inurba_marseille","lat":43.31282,"lon":5.40169,"is_reserved":false,"is_disabled":false,"rental_uris":{"android":"levelo://app?vid=d772694a-57f3-4fdd-95ae-9e710e2496d5","ios":"levelo://app?vid=d772694a-57f3-4fdd-95ae-9e710e2496d5"},"vehicle_type_id":"4","last_reported":1735561047,"current_range_meters":25600,"station_id":"ce4bh092rcd13ifvqd30","pricing_plan_id":"cebpf4jnsgd1na2vs0mg"},{"bike_id":"00791d58-e0cb-450d-842f-d50faa20e735","system_id":"levelo_inurba_marseille","lat":43.27209,"lon":5.39203,"is_reserved":false,"is_disabled":false,"rental_uris":{"android":"levelo://app?vid=00791d58-e0cb-450d-842f-d50faa20e735","ios":"levelo://app?vid=00791d58-e0cb-450d-842f-d50faa20e735"},"vehicle_type_id":"4","last_reported":1735561047,"current_range_meters":11200,"station_id":"ce4bhhp2rcd13ifvqfm0","pricing_plan_id":"cebpf4jnsgd1na2vs0mg"},{"bike_id":"e70ce8bb-674e-436b-ab6d-79ca756c291a","system_id":"levelo_inurba_marseille","lat":43.25719,"lon":5.41108,"is_reserved":false,"is_disabled":false,"rental_uris":{"android":"levelo://app?vid=e70ce8bb-674e-436b-ab6d-79ca756c291a","ios":"levelo://app?vid=e70ce8bb-674e-436b-ab6d-79ca756c291a"},"vehicle_type_id":"4","last_reported":1735561047,"current_range_meters":27600,"station_id":"ce4bhkp2rcd13ifvqgd0","pricing_plan_id":"cebpf4jnsgd1na2vs0mg"},{"bike_id":"f1194b75-3cde-4e59-90aa-276be22831f2","system_id":"levelo_inurba_marseille","lat":43.28408,"lon":5.37526,"is_reserved":false,"is_disabled":false,"rental_uris":{"android":"levelo://app?vid=f1194b75-3cde-4e59-90aa-276be22831f2","ios":"levelo://app?vid=f1194b75-3cde-4e59-90aa-276be22831f2"},"vehicle_type_id":"4","last_reported":1735561047,"current_range_meters":27200,"station_id":"ce4bh412rcd13ifvqds0","pricing_plan_id":"cebpf4jnsgd1na2vs0mg"},{"bike_id":"a1088787-f6cd-447d-b004-3e4d7d9490d9","system_id":"levelo_inurba_marseille","lat":43.29552,"lon":5.42293,"is_reserved":false,"is_disabled":false,"rental_uris":{"android":"levelo://app?vid=a1088787-f6cd-447d-b004-3e4d7d9490d9","ios":"levelo://app?vid=a1088787-f6cd-447d-b004-3e4d7d9490d9"},"vehicle_type_id":"4","last_reported":1735561047,"current_range_meters":5600,"station_id":"ce4bhph2rcd13ifvqhdg","pricing_plan_id":"cebpf4jnsgd1na2vs0mg"},{"bike_id":"baa83f51-8f0b-4c7c-a94b-7b75db52cd7e","system_id":"levelo_inurba_marseille","lat":43.29056,"lon":5.37571,"is_reserved":false,"is_disabled":false,"rental_uris":{"android":"levelo://app?vid=baa83f51-8f0b-4c7c-a94b-7b75db52cd7e","ios":"levelo://app?vid=baa83f51-8f0b-4c7c-a94b-7b75db52cd7e"},"vehicle_type_id":"4","last_reported":1735561047,"current_range_meters":29600,"station_id":"ce4bh692rcd13ifvqe90","pricing_plan_id":"cebpf4jnsgd1na2vs0mg"},{"bike_id":"35142cb1-da84-4465-a902-1b70f5829b31","system_id":"levelo_inurba_marseille","lat":43.25724,"lon":5.41121,"is_reserved":false,"is_disabled":false,"rental_uris":{"android":"levelo://app?vid=35142cb1-da84-4465-a902-1b70f5829b31","ios":"levelo://app?vid=35142cb1-da84-4465-a902-1b70f5829b31"},"vehicle_type_id":"4","last_reported":1735561047,"current_range_meters":36000,"station_id":"ce4bhkp2rcd13ifvqgd0","pricing_plan_id":"cebpf4jnsgd1na2vs0mg"},{"bike_id":"5bcee1a1-baf0-4256-8c95-227806873942","system_id":"levelo_inurba_marseille","lat":43.26478,"lon":5.39575,"is_reserved":false,"is_disabled":false,"rental_uris":{"android":"levelo://app?vid=5bcee1a1-baf0-4256-8c95-227806873942","ios":"levelo://app?vid=5bcee1a1-baf0-4256-8c95-227806873942"},"vehicle_type_id":"4","last_reported":1735561047,"current_range_meters":37600,"station_id":"ce4bhi12rcd13ifvqfq0","pricing_plan_id":"cebpf4jnsgd1na2vs0mg"},{"bike_id":"f5997a88-606e-48c9-933e-041b10894cea","system_id":"levelo_inurba_marseille","lat":43.27067,"lon":5.4228,"is_reserved":false,"is_disabled":false,"rental_uris":{"android":"levelo://app?vid=f5997a88-606e-48c9-933e-041b10894cea","ios":"levelo://app?vid=f5997a88-606e-48c9-933e-041b10894cea"},"vehicle_type_id":"4","last_reported":1735561047,"current_range_meters":28800,"station_id":"ce4bhk92rcd13ifvqgb0","pricing_plan_id":"cebpf4jnsgd1na2vs0mg"},{"bike_id":"350527e7-8355-4e2f-9ede-cc3f52cfd412","system_id":"levelo_inurba_marseille","lat":43.25113,"lon":5.40339,"is_reserved":false,"is_disabled":false,"rental_uris":{"android":"levelo://app?vid=350527e7-8355-4e2f-9ede-cc3f52cfd412","ios":"levelo://app?vid=350527e7-8355-4e2f-9ede-cc3f52cfd412"},"vehicle_type_id":"4","last_reported":1735561047,"current_range_meters":38800,"station_id":"ce4bhlh2rcd13ifvqgig","pricing_plan_id":"cebpf4jnsgd1na2vs0mg"},{"bike_id":"fc0b3bf8-65df-44b7-8333-cabe97ef9a6c","system_id":"levelo_inurba_marseille","lat":43.25721,"lon":5.41132,"is_reserved":false,"is_disabled":false,"rental_uris":{"android":"levelo://app?vid=fc0b3bf8-65df-44b7-8333-cabe97ef9a6c","ios":"levelo://app?vid=fc0b3bf8-65df-44b7-8333-cabe97ef9a6c"},"vehicle_type_id":"4","last_reported":1735561047,"current_range_meters":38800,"station_id":"ce4bhkp2rcd13ifvqgd0","pricing_plan_id":"cebpf4jnsgd1na2vs0mg"},{"bike_id":"2b98457b-82c0-4e20-bfa5-c9ecf72bb9fa","system_id":"levelo_inurba_marseille","lat":43.29864,"lon":5.39747,"is_reserved":false,"is_disabled":false,"rental_uris":{"android":"levelo://app?vid=2b98457b-82c0-4e20-bfa5-c9ecf72bb9fa","ios":"levelo://app?vid=2b98457b-82c0-4e20-bfa5-c9ecf72bb9fa"},"vehicle_type_id":"4","last_reported":1735561047,"current_range_meters":36000,"station_id":"ce4bh0h2rcd13ifvqd50","pricing_plan_id":"cebpf4jnsgd1na2vs0mg"},{"bike_id":"ef3ee808-0d32-4318-a10b-a0093755c44b","system_id":"levelo_inurba_marseille","lat":43.24182,"lon":5.39725,"is_reserved":false,"is_disabled":false,"rental_uris":{"android":"levelo://app?vid=ef3ee808-0d32-4318-a10b-a0093755c44b","ios":"levelo://app?vid=ef3ee808-0d32-4318-a10b-a0093755c44b"},"vehicle_type_id":"4","last_reported":1735561047,"current_range_meters":25200,"station_id":"ce4bhn12rcd13ifvqgpg","pricing_plan_id":"cebpf4jnsgd1na2vs0mg"},{"bike_id":"79a9cc94-882c-4645-897a-abb5a5249316","system_id":"levelo_inurba_marseille","lat":43.337444,"lon":5.374475,"is_reserved":false,"is_disabled":false,"rental_uris":{"android":"levelo://app?vid=79a9cc94-882c-4645-897a-abb5a5249316","ios":"levelo://app?vid=79a9cc94-882c-4645-897a-abb5a5249316"},"vehicle_type_id":"4","last_reported":1735561047,"current_range_meters":35600,"station_id":"","pricing_plan_id":"cebpf4jnsgd1na2vs0mg"},{"bike_id":"86d96291-f1b0-4d83-abc8-f84a17b325be","system_id":"levelo_inurba_marseille","lat":43.27041,"lon":5.40285,"is_reserved":false,"is_disabled":true,"rental_uris":{"android":"levelo://app?vid=86d96291-f1b0-4d83-abc8-f84a17b325be","ios":"levelo://app?vid=86d96291-f1b0-4d83-abc8-f84a17b325be"},"vehicle_type_id":"4","last_reported":1735561047,"current_range_meters":24400,"station_id":"ce4bhk92rcd13ifvqgc0","pricing_plan_id":"cebpf4jnsgd1na2vs0mg"},{"bike_id":"2a9d7a3d-ed04-4099-8d1e-1a84e81c9b52","system_id":"levelo_inurba_marseille","lat":43.24389,"lon":5.37062,"is_reserved":false,"is_disabled":false,"rental_uris":{"android":"levelo://app?vid=2a9d7a3d-ed04-4099-8d1e-1a84e81c9b52","ios":"levelo://app?vid=2a9d7a3d-ed04-4099-8d1e-1a84e81c9b52"},"vehicle_type_id":"4","last_reported":1735561047,"current_range_meters":26000,"station_id":"ce4bhhh2rcd13ifvqfk0","pricing_plan_id":"cebpf4jnsgd1na2vs0mg"},{"bike_id":"261ac97a-609d-40ca-886d-01705c712fe3","system_id":"levelo_inurba_marseille","lat":43.28458,"lon":5.3858,"is_reserved":false,"is_disabled":false,"rental_uris":{"android":"levelo://app?vid=261ac97a-609d-40ca-886d-01705c712fe3","ios":"levelo://app?vid=261ac97a-609d-40ca-886d-01705c712fe3"},"vehicle_type_id":"4","last_reported":1735561047,"current_range_meters":38000,"station_id":"ce4bh8p2rcd13ifvqeb0","pricing_plan_id":"cebpf4jnsgd1na2vs0mg"},{"bike_id":"7aab2ffc-cec0-4dd6-981d-6bd7c8cbfd0b","system_id":"levelo_inurba_marseille","lat":43.26056,"lon":5.39419,"is_reserved":false,"is_disabled":true,"rental_uris":{"android":"levelo://app?vid=7aab2ffc-cec0-4dd6-981d-6bd7c8cbfd0b","ios":"levelo://app?vid=7aab2ffc-cec0-4dd6-981d-6bd7c8cbfd0b"},"vehicle_type_id":"4","last_reported":1735561047,"current_range_meters":35600,"station_id":"ce4bhh92rcd13ifvqfj0","pricing_plan_id":"cebpf4jnsgd1na2vs0mg"},{"bike_id":"fc5a7c50-b088-4366-8ec0-23ac2c6135e5","system_id":"levelo_inurba_marseille","lat":43.29001,"lon":5.3561,"is_reserved":false,"is_disabled":false,"rental_uris":{"android":"levelo://app?vid=fc5a7c50-b088-4366-8ec0-23ac2c6135e5","ios":"levelo://app?vid=fc5a7c50-b088-4366-8ec0-23ac2c6135e5"},"vehicle_type_id":"4","last_reported":1735561047,"current_range_meters":38800,"station_id":"ce4bhb92rcd13ifvqen0","pricing_plan_id":"cebpf4jnsgd1na2vs0mg"},{"bike_id":"3821eaf5-27ec-43f8-9beb-906ba7bd5825","system_id":"levelo_inurba_marseille","lat":43.28417,"lon":5.37517,"is_reserved":false,"is_disabled":false,"rental_uris":{"android":"levelo://app?vid=3821eaf5-27ec-43f8-9beb-906ba7bd5825","ios":"levelo://app?vid=3821eaf5-27ec-43f8-9beb-906ba7bd5825"},"vehicle_type_id":"4","last_reported":1735561047,"current_range_meters":38800,"station_id":"ce4bh412rcd13ifvqds0","pricing_plan_id":"cebpf4jnsgd1na2vs0mg"},{"bike_id":"646f2ba6-cb4b-441b-8952-4a149ce8f1cd","system_id":"levelo_inurba_marseille","lat":43.30539,"lon":5.36575,"is_reserved":false,"is_disabled":false,"rental_uris":{"android":"levelo://app?vid=646f2ba6-cb4b-441b-8952-4a149ce8f1cd","ios":"levelo://app?vid=646f2ba6-cb4b-441b-8952-4a149ce8f1cd"},"vehicle_type_id":"4","last_reported":1735561047,"current_range_meters":29600,"station_id":"ce4bgs12rcd13ifvqcag","pricing_plan_id":"cebpf4jnsgd1na2vs0mg"},{"bike_id":"8a930923-d519-4f93-9793-c679cfe1528b","system_id":"levelo_inurba_marseille","lat":43.25002,"lon":5.38924,"is_reserved":false,"is_disabled":false,"rental_uris":{"android":"levelo://app?vid=8a930923-d519-4f93-9793-c679cfe1528b","ios":"levelo://app?vid=8a930923-d519-4f93-9793-c679cfe1528b"},"vehicle_type_id":"4","last_reported":1735561047,"current_range_meters":20800,"station_id":"ce4bhgp2rcd13ifvqfd0","pricing_plan_id":"cebpf4jnsgd1na2vs0mg"},{"bike_id":"b1c0ee8d-93e8-4cc8-82d6-c539d877336e","system_id":"levelo_inurba_marseille","lat":43.243871,"lon":5.370571,"is_reserved":false,"is_disabled":false,"rental_uris":{"android":"levelo://app?vid=b1c0ee8d-93e8-4cc8-82d6-c539d877336e","ios":"levelo://app?vid=b1c0ee8d-93e8-4cc8-82d6-c539d877336e"},"vehicle_type_id":"4","last_reported":1735561047,"current_range_meters":38800,"station_id":"ce4bhhh2rcd13ifvqfk0","pricing_plan_id":"cebpf4jnsgd1na2vs0mg"},{"bike_id":"5fd35f32-35fa-4365-a450-8e5dca409b2e","system_id":"levelo_inurba_marseille","lat":43.27243,"lon":5.39179,"is_reserved":false,"is_disabled":false,"rental_uris":{"android":"levelo://app?vid=5fd35f32-35fa-4365-a450-8e5dca409b2e","ios":"levelo://app?vid=5fd35f32-35fa-4365-a450-8e5dca409b2e"},"vehicle_type_id":"4","last_reported":1735561047,"current_range_meters":3200,"station_id":"ce4bhhp2rcd13ifvqfm0","pricing_plan_id":"cebpf4jnsgd1na2vs0mg"},{"bike_id":"c9e7cd9e-09d4-481f-a907-5f34b421f8cf","system_id":"levelo_inurba_marseille","lat":43.28266,"lon":5.35061,"is_reserved":false,"is_disabled":false,"rental_uris":{"android":"levelo://app?vid=c9e7cd9e-09d4-481f-a907-5f34b421f8cf","ios":"levelo://app?vid=c9e7cd9e-09d4-481f-a907-5f34b421f8cf"},"vehicle_type_id":"4","last_reported":1735561047,"current_range_meters":9600,"station_id":"ce4bhbp2rcd13ifvqerg","pricing_plan_id":"cebpf4jnsgd1na2vs0mg"},{"bike_id":"5737f50c-7647-4928-8c04-d75aea34bf76","system_id":"levelo_inurba_marseille","lat":43.29167,"lon":5.35821,"is_reserved":false,"is_disabled":false,"rental_uris":{"android":"levelo://app?vid=5737f50c-7647-4928-8c04-d75aea34bf76","ios":"levelo://app?vid=5737f50c-7647-4928-8c04-d75aea34bf76"},"vehicle_type_id":"4","last_reported":1735561047,"current_range_meters":35200,"station_id":"ce4bhb12rcd13ifvqel0","pricing_plan_id":"cebpf4jnsgd1na2vs0mg"},{"bike_id":"dd708212-6c95-4591-b555-43b33b8da7f5","system_id":"levelo_inurba_marseille","lat":43.25742,"lon":5.41117,"is_reserved":false,"is_disabled":false,"rental_uris":{"android":"levelo://app?vid=dd708212-6c95-4591-b555-43b33b8da7f5","ios":"levelo://app?vid=dd708212-6c95-4591-b555-43b33b8da7f5"},"vehicle_type_id":"4","last_reported":1735561047,"current_range_meters":34800,"station_id":"ce4bhkp2rcd13ifvqgd0","pricing_plan_id":"cebpf4jnsgd1na2vs0mg"},{"bike_id":"ce870000-0b9d-4b44-bb6a-0c0895f51458","system_id":"levelo_inurba_marseille","lat":43.29923,"lon":5.37462,"is_reserved":false,"is_disabled":false,"rental_uris":{"android":"levelo://app?vid=ce870000-0b9d-4b44-bb6a-0c0895f51458","ios":"levelo://app?vid=ce870000-0b9d-4b44-bb6a-0c0895f51458"},"vehicle_type_id":"4","last_reported":1735561047,"current_range_meters":38800,"station_id":"ce4bgjh2rcd13ifvqbg0","pricing_plan_id":"cebpf4jnsgd1na2vs0mg"},{"bike_id":"0375f1f6-7bb6-49b8-b658-e9dfe5931acb","system_id":"levelo_inurba_marseille","lat":43.2894,"lon":5.39648,"is_reserved":false,"is_disabled":false,"rental_uris":{"android":"levelo://app?vid=0375f1f6-7bb6-49b8-b658-e9dfe5931acb","ios":"levelo://app?vid=0375f1f6-7bb6-49b8-b658-e9dfe5931acb"},"vehicle_type_id":"4","last_reported":1735561047,"current_range_meters":20400,"station_id":"ce4bh3h2rcd13ifvqdn0","pricing_plan_id":"cebpf4jnsgd1na2vs0mg"},{"bike_id":"cd68a672-533e-4c5e-8b9d-ac8f24d8a645","system_id":"levelo_inurba_marseille","lat":43.31756,"lon":5.39035,"is_reserved":false,"is_disabled":false,"rental_uris":{"android":"levelo://app?vid=cd68a672-533e-4c5e-8b9d-ac8f24d8a645","ios":"levelo://app?vid=cd68a672-533e-4c5e-8b9d-ac8f24d8a645"},"vehicle_type_id":"4","last_reported":1735561047,"current_range_meters":38400,"station_id":"ce4bhqp2rcd13ifvqhng","pricing_plan_id":"cebpf4jnsgd1na2vs0mg"},{"bike_id":"da7e3752-c5ce-409e-b35e-3da410bf2310","system_id":"levelo_inurba_marseille","lat":43.31326,"lon":5.39697,"is_reserved":false,"is_disabled":false,"rental_uris":{"android":"levelo://app?vid=da7e3752-c5ce-409e-b35e-3da410bf2310","ios":"levelo://app?vid=da7e3752-c5ce-409e-b35e-3da410bf2310"},"vehicle_type_id":"4","last_reported":1735561047,"current_range_meters":12800,"station_id":"ce4bgvp2rcd13ifvqcu0","pricing_plan_id":"cebpf4jnsgd1na2vs0mg"},{"bike_id":"818c2e80-1437-4442-8569-e61dce12897e","system_id":"levelo_inurba_marseille","lat":43.29051,"lon":5.37558,"is_reserved":false,"is_disabled":false,"rental_uris":{"android":"levelo://app?vid=818c2e80-1437-4442-8569-e61dce12897e","ios":"levelo://app?vid=818c2e80-1437-4442-8569-e61dce12897e"},"vehicle_type_id":"4","last_reported":1735561047,"current_range_meters":25200,"station_id":"ce4bh692rcd13ifvqe90","pricing_plan_id":"cebpf4jnsgd1na2vs0mg"},{"bike_id":"3a624cf6-1e7d-4731-8278-e821209a8530","system_id":"levelo_inurba_marseille","lat":43.24178,"lon":5.39732,"is_reserved":false,"is_disabled":false,"rental_uris":{"android":"levelo://app?vid=3a624cf6-1e7d-4731-8278-e821209a8530","ios":"levelo://app?vid=3a624cf6-1e7d-4731-8278-e821209a8530"},"vehicle_type_id":"4","last_reported":1735561047,"current_range_meters":38800,"station_id":"ce4bhn12rcd13ifvqgpg","pricing_plan_id":"cebpf4jnsgd1na2vs0mg"},{"bike_id":"a2dfaa5b-c1ad-4316-ae45-cf62c09c30b3","system_id":"levelo_inurba_marseille","lat":43.32081,"lon":5.36801,"is_reserved":false,"is_disabled":false,"rental_uris":{"android":"levelo://app?vid=a2dfaa5b-c1ad-4316-ae45-cf62c09c30b3","ios":"levelo://app?vid=a2dfaa5b-c1ad-4316-ae45-cf62c09c30b3"},"vehicle_type_id":"4","last_reported":1735561047,"current_range_meters":12400,"station_id":"ce4bhrh2rcd13ifvqhug","pricing_plan_id":"cebpf4jnsgd1na2vs0mg"},{"bike_id":"5f8ee9c5-4e33-43ee-b8aa-ac908ba0aac5","system_id":"levelo_inurba_marseille","lat":43.27498,"lon":5.42459,"is_reserved":false,"is_disabled":false,"rental_uris":{"android":"levelo://app?vid=5f8ee9c5-4e33-43ee-b8aa-ac908ba0aac5","ios":"levelo://app?vid=5f8ee9c5-4e33-43ee-b8aa-ac908ba0aac5"},"vehicle_type_id":"4","last_reported":1735561047,"current_range_meters":20000,"station_id":"ce4bhn92rcd13ifvqgrg","pricing_plan_id":"cebpf4jnsgd1na2vs0mg"},{"bike_id":"f6eaced9-ca89-417f-a01d-b87955fe3119","system_id":"levelo_inurba_marseille","lat":43.28432,"lon":5.35018,"is_reserved":false,"is_disabled":true,"rental_uris":{"android":"levelo://app?vid=f6eaced9-ca89-417f-a01d-b87955fe3119","ios":"levelo://app?vid=f6eaced9-ca89-417f-a01d-b87955fe3119"},"vehicle_type_id":"4","last_reported":1735561047,"current_range_meters":0,"station_id":"ce4bhbh2rcd13ifvqepg","pricing_plan_id":"cebpf4jnsgd1na2vs0mg"},{"bike_id":"a9576d02-e6ef-49fb-b627-732e55242e5a","system_id":"levelo_inurba_marseille","lat":43.29538,"lon":5.38544,"is_reserved":false,"is_disabled":false,"rental_uris":{"android":"levelo://app?vid=a9576d02-e6ef-49fb-b627-732e55242e5a","ios":"levelo://app?vid=a9576d02-e6ef-49fb-b627-732e55242e5a"},"vehicle_type_id":"4","last_reported":1735561047,"current_range_meters":28400,"station_id":"ce4bgih2rcd13ifvqba0","pricing_plan_id":"cebpf4jnsgd1na2vs0mg"},{"bike_id":"519cc0e6-7832-42ca-bc8f-16833366e576","system_id":"levelo_inurba_marseille","lat":43.26199,"lon":5.3793,"is_reserved":false,"is_disabled":false,"rental_uris":{"android":"levelo://app?vid=519cc0e6-7832-42ca-bc8f-16833366e576","ios":"levelo://app?vid=519cc0e6-7832-42ca-bc8f-16833366e576"},"vehicle_type_id":"4","last_reported":1735561047,"current_range_meters":32400,"station_id":"ce4bhjp2rcd13ifvqg90","pricing_plan_id":"cebpf4jnsgd1na2vs0mg"},{"bike_id":"1a2e750a-80e7-4cdd-9145-702ed740a5b5","system_id":"levelo_inurba_marseille","lat":43.29302,"lon":5.37458,"is_reserved":false,"is_disabled":false,"rental_uris":{"android":"levelo://app?vid=1a2e750a-80e7-4cdd-9145-702ed740a5b5","ios":"levelo://app?vid=1a2e750a-80e7-4cdd-9145-702ed740a5b5"},"vehicle_type_id":"4","last_reported":1735561047,"current_range_meters":30400,"station_id":"ce4bgi12rcd13ifvqb70","pricing_plan_id":"cebpf4jnsgd1na2vs0mg"},{"bike_id":"d748901c-1f59-49d6-a837-a21babb7a29f","system_id":"levelo_inurba_marseille","lat":43.29248,"lon":5.40914,"is_reserved":false,"is_disabled":false,"rental_uris":{"android":"levelo://app?vid=d748901c-1f59-49d6-a837-a21babb7a29f","ios":"levelo://app?vid=d748901c-1f59-49d6-a837-a21babb7a29f"},"vehicle_type_id":"4","last_reported":1735561047,"current_range_meters":39200,"station_id":"ce4bh192rcd13ifvqdc0","pricing_plan_id":"cebpf4jnsgd1na2vs0mg"},{"bike_id":"5d22d4f6-c5a9-4ef2-8663-0ea09a357db3","system_id":"levelo_inurba_marseille","lat":43.2721,"lon":5.39177,"is_reserved":false,"is_disabled":false,"rental_uris":{"android":"levelo://app?vid=5d22d4f6-c5a9-4ef2-8663-0ea09a357db3","ios":"levelo://app?vid=5d22d4f6-c5a9-4ef2-8663-0ea09a357db3"},"vehicle_type_id":"4","last_reported":1735561047,"current_range_meters":38800,"station_id":"ce4bhhp2rcd13ifvqfm0","pricing_plan_id":"cebpf4jnsgd1na2vs0mg"},{"bike_id":"727b49cc-2a12-48ab-80e0-74df305a51db","system_id":"levelo_inurba_marseille","lat":43.32355,"lon":5.36758,"is_reserved":false,"is_disabled":false,"rental_uris":{"android":"levelo://app?vid=727b49cc-2a12-48ab-80e0-74df305a51db","ios":"levelo://app?vid=727b49cc-2a12-48ab-80e0-74df305a51db"},"vehicle_type_id":"4","last_reported":1735561047,"current_range_meters":28000,"station_id":"ce4bhsh2rcd13ifvqi2g","pricing_plan_id":"cebpf4jnsgd1na2vs0mg"},{"bike_id":"5367a292-5564-4681-91cd-97babb89fc00","system_id":"levelo_inurba_marseille","lat":43.22913,"lon":5.35397,"is_reserved":false,"is_disabled":false,"rental_uris":{"android":"levelo://app?vid=5367a292-5564-4681-91cd-97babb89fc00","ios":"levelo://app?vid=5367a292-5564-4681-91cd-97babb89fc00"},"vehicle_type_id":"4","last_reported":1735561047,"current_range_meters":32400,"station_id":"cpo3532slgdg3j2ikp40","pricing_plan_id":"cebpf4jnsgd1na2vs0mg"},{"bike_id":"0483d5a5-12c2-4b90-8e6c-47d6d5a4b82c","system_id":"levelo_inurba_marseille","lat":43.25824,"lon":5.39439,"is_reserved":false,"is_disabled":false,"rental_uris":{"android":"levelo://app?vid=0483d5a5-12c2-4b90-8e6c-47d6d5a4b82c","ios":"levelo://app?vid=0483d5a5-12c2-4b90-8e6c-47d6d5a4b82c"},"vehicle_type_id":"4","last_reported":1735561047,"current_range_meters":11200,"station_id":"ce4bhip2rcd13ifvqft0","pricing_plan_id":"cebpf4jnsgd1na2vs0mg"},{"bike_id":"d4105029-f282-4e17-b771-515c63bfab66","system_id":"levelo_inurba_marseille","lat":43.29568,"lon":5.37513,"is_reserved":false,"is_disabled":false,"rental_uris":{"android":"levelo://app?vid=d4105029-f282-4e17-b771-515c63bfab66","ios":"levelo://app?vid=d4105029-f282-4e17-b771-515c63bfab66"},"vehicle_type_id":"4","last_reported":1735561047,"current_range_meters":36400,"station_id":"ce4bgh92rcd13ifvqb50","pricing_plan_id":"cebpf4jnsgd1na2vs0mg"},{"bike_id":"00a85988-05be-4e87-8650-58ef5460e366","system_id":"levelo_inurba_marseille","lat":43.25936,"lon":5.40913,"is_reserved":false,"is_disabled":false,"rental_uris":{"android":"levelo://app?vid=00a85988-05be-4e87-8650-58ef5460e366","ios":"levelo://app?vid=00a85988-05be-4e87-8650-58ef5460e366"},"vehicle_type_id":"4","last_reported":1735561047,"current_range_meters":3600,"station_id":"ce4bhm92rcd13ifvqglg","pricing_plan_id":"cebpf4jnsgd1na2vs0mg"},{"bike_id":"7c0ace64-49ff-46c5-99ef-7fa4db85a49e","system_id":"levelo_inurba_marseille","lat":43.3236,"lon":5.36751,"is_reserved":false,"is_disabled":false,"rental_uris":{"android":"levelo://app?vid=7c0ace64-49ff-46c5-99ef-7fa4db85a49e","ios":"levelo://app?vid=7c0ace64-49ff-46c5-99ef-7fa4db85a49e"},"vehicle_type_id":"4","last_reported":1735561047,"current_range_meters":14000,"station_id":"ce4bhsh2rcd13ifvqi2g","pricing_plan_id":"cebpf4jnsgd1na2vs0mg"},{"bike_id":"87aea93a-6d5d-458b-bd9f-ce712435e04e","system_id":"levelo_inurba_marseille","lat":43.23291,"lon":5.43599,"is_reserved":false,"is_disabled":false,"rental_uris":{"android":"levelo://app?vid=87aea93a-6d5d-458b-bd9f-ce712435e04e","ios":"levelo://app?vid=87aea93a-6d5d-458b-bd9f-ce712435e04e"},"vehicle_type_id":"4","last_reported":1735561047,"current_range_meters":18800,"station_id":"","pricing_plan_id":"cebpf4jnsgd1na2vs0mg"},{"bike_id":"c39a98dc-0e76-4892-bde3-9d7f1385f7c9","system_id":"levelo_inurba_marseille","lat":43.27209,"lon":5.39178,"is_reserved":false,"is_disabled":false,"rental_uris":{"android":"levelo://app?vid=c39a98dc-0e76-4892-bde3-9d7f1385f7c9","ios":"levelo://app?vid=c39a98dc-0e76-4892-bde3-9d7f1385f7c9"},"vehicle_type_id":"4","last_reported":1735561047,"current_range_meters":15200,"station_id":"ce4bhhp2rcd13ifvqfm0","pricing_plan_id":"cebpf4jnsgd1na2vs0mg"},{"bike_id":"94d38955-21a2-4852-a963-0a3cc1374e49","system_id":"levelo_inurba_marseille","lat":43.23193,"lon":5.3555,"is_reserved":false,"is_disabled":false,"rental_uris":{"android":"levelo://app?vid=94d38955-21a2-4852-a963-0a3cc1374e49","ios":"levelo://app?vid=94d38955-21a2-4852-a963-0a3cc1374e49"},"vehicle_type_id":"4","last_reported":1735561047,"current_range_meters":21600,"station_id":"ce4bhu92rcd13ifvqi70","pricing_plan_id":"cebpf4jnsgd1na2vs0mg"},{"bike_id":"a741bbc7-c242-497a-b9ff-7c1759e04692","system_id":"levelo_inurba_marseille","lat":43.29305,"lon":5.37177,"is_reserved":false,"is_disabled":false,"rental_uris":{"android":"levelo://app?vid=a741bbc7-c242-497a-b9ff-7c1759e04692","ios":"levelo://app?vid=a741bbc7-c242-497a-b9ff-7c1759e04692"},"vehicle_type_id":"4","last_reported":1735561047,"current_range_meters":28000,"station_id":"ce4bgh92rcd13ifvqb40","pricing_plan_id":"cebpf4jnsgd1na2vs0mg"},{"bike_id":"450de7c6-68ca-4a47-8685-03d1b8b10383","system_id":"levelo_inurba_marseille","lat":43.29998,"lon":5.37187,"is_reserved":false,"is_disabled":false,"rental_uris":{"android":"levelo://app?vid=450de7c6-68ca-4a47-8685-03d1b8b10383","ios":"levelo://app?vid=450de7c6-68ca-4a47-8685-03d1b8b10383"},"vehicle_type_id":"4","last_reported":1735561047,"current_range_meters":38800,"station_id":"ce4bgr92rcd13ifvqc7g","pricing_plan_id":"cebpf4jnsgd1na2vs0mg"},{"bike_id":"647d23b8-4e7c-4423-a02a-d60eef618897","system_id":"levelo_inurba_marseille","lat":43.2784,"lon":5.40674,"is_reserved":false,"is_disabled":false,"rental_uris":{"android":"levelo://app?vid=647d23b8-4e7c-4423-a02a-d60eef618897","ios":"levelo://app?vid=647d23b8-4e7c-4423-a02a-d60eef618897"},"vehicle_type_id":"4","last_reported":1735561047,"current_range_meters":26800,"station_id":"ce4bhnh2rcd13ifvqgtg","pricing_plan_id":"cebpf4jnsgd1na2vs0mg"},{"bike_id":"a7688766-0355-461d-b03b-b17879d270c8","system_id":"levelo_inurba_marseille","lat":43.26205,"lon":5.37896,"is_reserved":false,"is_disabled":false,"rental_uris":{"android":"levelo://app?vid=a7688766-0355-461d-b03b-b17879d270c8","ios":"levelo://app?vid=a7688766-0355-461d-b03b-b17879d270c8"},"vehicle_type_id":"4","last_reported":1735561047,"current_range_meters":16800,"station_id":"ce4bhjp2rcd13ifvqg90","pricing_plan_id":"cebpf4jnsgd1na2vs0mg"},{"bike_id":"5968ad4a-0351-466f-952d-f21abbe545e3","system_id":"levelo_inurba_marseille","lat":43.27965,"lon":5.38769,"is_reserved":false,"is_disabled":false,"rental_uris":{"android":"levelo://app?vid=5968ad4a-0351-466f-952d-f21abbe545e3","ios":"levelo://app?vid=5968ad4a-0351-466f-952d-f21abbe545e3"},"vehicle_type_id":"4","last_reported":1735561047,"current_range_meters":28800,"station_id":"ce4bhg12rcd13ifvqf80","pricing_plan_id":"cebpf4jnsgd1na2vs0mg"},{"bike_id":"179f7c7e-cf60-4979-b064-1b4336e1db8c","system_id":"levelo_inurba_marseille","lat":43.27826,"lon":5.39223,"is_reserved":false,"is_disabled":false,"rental_uris":{"android":"levelo://app?vid=179f7c7e-cf60-4979-b064-1b4336e1db8c","ios":"levelo://app?vid=179f7c7e-cf60-4979-b064-1b4336e1db8c"},"vehicle_type_id":"4","last_reported":1735561047,"current_range_meters":5600,"station_id":"ce4bhjp2rcd13ifvqga0","pricing_plan_id":"cebpf4jnsgd1na2vs0mg"},{"bike_id":"2e19126c-44cf-40bf-a549-dc01e1a05272","system_id":"levelo_inurba_marseille","lat":43.28401,"lon":5.37574,"is_reserved":false,"is_disabled":false,"rental_uris":{"android":"levelo://app?vid=2e19126c-44cf-40bf-a549-dc01e1a05272","ios":"levelo://app?vid=2e19126c-44cf-40bf-a549-dc01e1a05272"},"vehicle_type_id":"4","last_reported":1735561047,"current_range_meters":11200,"station_id":"ce4bh412rcd13ifvqds0","pricing_plan_id":"cebpf4jnsgd1na2vs0mg"},{"bike_id":"36259f85-1afe-473e-9c9c-68f05fc95882","system_id":"levelo_inurba_marseille","lat":43.3117,"lon":5.36811,"is_reserved":false,"is_disabled":false,"rental_uris":{"android":"levelo://app?vid=36259f85-1afe-473e-9c9c-68f05fc95882","ios":"levelo://app?vid=36259f85-1afe-473e-9c9c-68f05fc95882"},"vehicle_type_id":"4","last_reported":1735561047,"current_range_meters":24000,"station_id":"ce4bgl92rcd13ifvqbq0","pricing_plan_id":"cebpf4jnsgd1na2vs0mg"},{"bike_id":"8d197623-433a-4c9c-a656-63e56f209eb2","system_id":"levelo_inurba_marseille","lat":43.26178,"lon":5.37487,"is_reserved":false,"is_disabled":false,"rental_uris":{"android":"levelo://app?vid=8d197623-433a-4c9c-a656-63e56f209eb2","ios":"levelo://app?vid=8d197623-433a-4c9c-a656-63e56f209eb2"},"vehicle_type_id":"4","last_reported":1735561047,"current_range_meters":38000,"station_id":"ce4bhgp2rcd13ifvqfc0","pricing_plan_id":"cebpf4jnsgd1na2vs0mg"},{"bike_id":"898ca41f-7bb6-47c0-bf28-3a08e6d561b5","system_id":"levelo_inurba_marseille","lat":43.304453,"lon":5.365275,"is_reserved":false,"is_disabled":false,"rental_uris":{"android":"levelo://app?vid=898ca41f-7bb6-47c0-bf28-3a08e6d561b5","ios":"levelo://app?vid=898ca41f-7bb6-47c0-bf28-3a08e6d561b5"},"vehicle_type_id":"4","last_reported":1735561047,"current_range_meters":17600,"station_id":"ce4bgs12rcd13ifvqcag","pricing_plan_id":"cebpf4jnsgd1na2vs0mg"},{"bike_id":"27bfa55e-0951-4587-9bd9-ec22efcce4a4","system_id":"levelo_inurba_marseille","lat":43.29178,"lon":5.37148,"is_reserved":false,"is_disabled":false,"rental_uris":{"android":"levelo://app?vid=27bfa55e-0951-4587-9bd9-ec22efcce4a4","ios":"levelo://app?vid=27bfa55e-0951-4587-9bd9-ec22efcce4a4"},"vehicle_type_id":"4","last_reported":1735561047,"current_range_meters":25600,"station_id":"ce4bha92rcd13ifvqeh0","pricing_plan_id":"cebpf4jnsgd1na2vs0mg"},{"bike_id":"dac94ecf-3203-4c89-acc0-21c14e979588","system_id":"levelo_inurba_marseille","lat":43.266878,"lon":5.382746,"is_reserved":false,"is_disabled":false,"rental_uris":{"android":"levelo://app?vid=dac94ecf-3203-4c89-acc0-21c14e979588","ios":"levelo://app?vid=dac94ecf-3203-4c89-acc0-21c14e979588"},"vehicle_type_id":"4","last_reported":1735561047,"current_range_meters":22400,"station_id":"ce4bhg92rcd13ifvqf90","pricing_plan_id":"cebpf4jnsgd1na2vs0mg"},{"bike_id":"91bb292a-df5c-4dce-bd7e-6647a12df4cd","system_id":"levelo_inurba_marseille","lat":43.2696,"lon":5.38628,"is_reserved":false,"is_disabled":false,"rental_uris":{"android":"levelo://app?vid=91bb292a-df5c-4dce-bd7e-6647a12df4cd","ios":"levelo://app?vid=91bb292a-df5c-4dce-bd7e-6647a12df4cd"},"vehicle_type_id":"4","last_reported":1735561047,"current_range_meters":38800,"station_id":"ce4bhh92rcd13ifvqfh0","pricing_plan_id":"cebpf4jnsgd1na2vs0mg"},{"bike_id":"dae442df-0334-4a2a-8901-28b38cfe10c7","system_id":"levelo_inurba_marseille","lat":43.23162,"lon":5.43747,"is_reserved":false,"is_disabled":false,"rental_uris":{"android":"levelo://app?vid=dae442df-0334-4a2a-8901-28b38cfe10c7","ios":"levelo://app?vid=dae442df-0334-4a2a-8901-28b38cfe10c7"},"vehicle_type_id":"4","last_reported":1735561047,"current_range_meters":36800,"station_id":"ce4bhmp2rcd13ifvqgog","pricing_plan_id":"cebpf4jnsgd1na2vs0mg"},{"bike_id":"9c42c59a-a990-48ee-91ac-32ebebcaabf5","system_id":"levelo_inurba_marseille","lat":43.27579,"lon":5.38412,"is_reserved":false,"is_disabled":false,"rental_uris":{"android":"levelo://app?vid=9c42c59a-a990-48ee-91ac-32ebebcaabf5","ios":"levelo://app?vid=9c42c59a-a990-48ee-91ac-32ebebcaabf5"},"vehicle_type_id":"4","last_reported":1735561047,"current_range_meters":36800,"station_id":"ce4bhh92rcd13ifvqfi0","pricing_plan_id":"cebpf4jnsgd1na2vs0mg"},{"bike_id":"b5198d2e-4d11-4b9a-8a5d-f3e2bc66557e","system_id":"levelo_inurba_marseille","lat":43.30143,"lon":5.37406,"is_reserved":false,"is_disabled":false,"rental_uris":{"android":"levelo://app?vid=b5198d2e-4d11-4b9a-8a5d-f3e2bc66557e","ios":"levelo://app?vid=b5198d2e-4d11-4b9a-8a5d-f3e2bc66557e"},"vehicle_type_id":"4","last_reported":1735561047,"current_range_meters":38000,"station_id":"ce4bgs92rcd13ifvqcc0","pricing_plan_id":"cebpf4jnsgd1na2vs0mg"},{"bike_id":"6518c32e-68c8-433e-baa3-56074fbdc9ea","system_id":"levelo_inurba_marseille","lat":43.27213,"lon":5.3918,"is_reserved":false,"is_disabled":false,"rental_uris":{"android":"levelo://app?vid=6518c32e-68c8-433e-baa3-56074fbdc9ea","ios":"levelo://app?vid=6518c32e-68c8-433e-baa3-56074fbdc9ea"},"vehicle_type_id":"4","last_reported":1735561047,"current_range_meters":24800,"station_id":"ce4bhhp2rcd13ifvqfm0","pricing_plan_id":"cebpf4jnsgd1na2vs0mg"},{"bike_id":"aa626844-d990-48fc-bcb3-feef8e686b62","system_id":"levelo_inurba_marseille","lat":43.28278,"lon":5.35079,"is_reserved":false,"is_disabled":false,"rental_uris":{"android":"levelo://app?vid=aa626844-d990-48fc-bcb3-feef8e686b62","ios":"levelo://app?vid=aa626844-d990-48fc-bcb3-feef8e686b62"},"vehicle_type_id":"4","last_reported":1735561047,"current_range_meters":21600,"station_id":"ce4bhbp2rcd13ifvqerg","pricing_plan_id":"cebpf4jnsgd1na2vs0mg"},{"bike_id":"c97d1670-dff5-4cb9-8f50-49dd895100d7","system_id":"levelo_inurba_marseille","lat":43.28663,"lon":5.36355,"is_reserved":false,"is_disabled":false,"rental_uris":{"android":"levelo://app?vid=c97d1670-dff5-4cb9-8f50-49dd895100d7","ios":"levelo://app?vid=c97d1670-dff5-4cb9-8f50-49dd895100d7"},"vehicle_type_id":"4","last_reported":1735561047,"current_range_meters":38800,"station_id":"ce4bhah2rcd13ifvqej0","pricing_plan_id":"cebpf4jnsgd1na2vs0mg"},{"bike_id":"31374d3d-a7a2-4d46-ad0c-8c5f0b57bb33","system_id":"levelo_inurba_marseille","lat":43.27564,"lon":5.38425,"is_reserved":false,"is_disabled":false,"rental_uris":{"android":"levelo://app?vid=31374d3d-a7a2-4d46-ad0c-8c5f0b57bb33","ios":"levelo://app?vid=31374d3d-a7a2-4d46-ad0c-8c5f0b57bb33"},"vehicle_type_id":"4","last_reported":1735561047,"current_range_meters":30400,"station_id":"ce4bhh92rcd13ifvqfi0","pricing_plan_id":"cebpf4jnsgd1na2vs0mg"},{"bike_id":"ddaa2fb9-dbb8-4086-8c94-de0ff251173c","system_id":"levelo_inurba_marseille","lat":43.27835,"lon":5.39206,"is_reserved":false,"is_disabled":false,"rental_uris":{"android":"levelo://app?vid=ddaa2fb9-dbb8-4086-8c94-de0ff251173c","ios":"levelo://app?vid=ddaa2fb9-dbb8-4086-8c94-de0ff251173c"},"vehicle_type_id":"4","last_reported":1735561047,"current_range_meters":39200,"station_id":"ce4bhjp2rcd13ifvqga0","pricing_plan_id":"cebpf4jnsgd1na2vs0mg"},{"bike_id":"f25e883a-417f-4f01-9701-92f8eaae274e","system_id":"levelo_inurba_marseille","lat":43.28863,"lon":5.39321,"is_reserved":false,"is_disabled":false,"rental_uris":{"android":"levelo://app?vid=f25e883a-417f-4f01-9701-92f8eaae274e","ios":"levelo://app?vid=f25e883a-417f-4f01-9701-92f8eaae274e"},"vehicle_type_id":"4","last_reported":1735561047,"current_range_meters":37600,"station_id":"ce4bh2p2rcd13ifvqdi0","pricing_plan_id":"cebpf4jnsgd1na2vs0mg"},{"bike_id":"5e57eef6-8100-463f-8b9f-a736bec4d03f","system_id":"levelo_inurba_marseille","lat":43.26945,"lon":5.38638,"is_reserved":false,"is_disabled":false,"rental_uris":{"android":"levelo://app?vid=5e57eef6-8100-463f-8b9f-a736bec4d03f","ios":"levelo://app?vid=5e57eef6-8100-463f-8b9f-a736bec4d03f"},"vehicle_type_id":"4","last_reported":1735561047,"current_range_meters":38800,"station_id":"ce4bhh92rcd13ifvqfh0","pricing_plan_id":"cebpf4jnsgd1na2vs0mg"},{"bike_id":"2d8584a7-198c-4f38-8028-273e48b9ecd3","system_id":"levelo_inurba_marseille","lat":43.25864,"lon":5.39903,"is_reserved":false,"is_disabled":false,"rental_uris":{"android":"levelo://app?vid=2d8584a7-198c-4f38-8028-273e48b9ecd3","ios":"levelo://app?vid=2d8584a7-198c-4f38-8028-273e48b9ecd3"},"vehicle_type_id":"4","last_reported":1735561047,"current_range_meters":38800,"station_id":"ce4bhl92rcd13ifvqghg","pricing_plan_id":"cebpf4jnsgd1na2vs0mg"},{"bike_id":"93b022d2-4c51-4f07-8eaf-65647b9d2946","system_id":"levelo_inurba_marseille","lat":43.28493,"lon":5.38411,"is_reserved":false,"is_disabled":false,"rental_uris":{"android":"levelo://app?vid=93b022d2-4c51-4f07-8eaf-65647b9d2946","ios":"levelo://app?vid=93b022d2-4c51-4f07-8eaf-65647b9d2946"},"vehicle_type_id":"4","last_reported":1735561047,"current_range_meters":27200,"station_id":"ce4bh512rcd13ifvqe3g","pricing_plan_id":"cebpf4jnsgd1na2vs0mg"},{"bike_id":"61e76abb-4f45-432f-b11c-8efbc3b7479f","system_id":"levelo_inurba_marseille","lat":43.32368,"lon":5.36769,"is_reserved":false,"is_disabled":false,"rental_uris":{"android":"levelo://app?vid=61e76abb-4f45-432f-b11c-8efbc3b7479f","ios":"levelo://app?vid=61e76abb-4f45-432f-b11c-8efbc3b7479f"},"vehicle_type_id":"4","last_reported":1735561047,"current_range_meters":32400,"station_id":"ce4bhsh2rcd13ifvqi2g","pricing_plan_id":"cebpf4jnsgd1na2vs0mg"},{"bike_id":"4bb75e55-263b-4f00-8036-5d9fe1a445cf","system_id":"levelo_inurba_marseille","lat":43.27051,"lon":5.40267,"is_reserved":false,"is_disabled":false,"rental_uris":{"android":"levelo://app?vid=4bb75e55-263b-4f00-8036-5d9fe1a445cf","ios":"levelo://app?vid=4bb75e55-263b-4f00-8036-5d9fe1a445cf"},"vehicle_type_id":"4","last_reported":1735561047,"current_range_meters":38400,"station_id":"ce4bhk92rcd13ifvqgc0","pricing_plan_id":"cebpf4jnsgd1na2vs0mg"},{"bike_id":"76e85785-d7ef-40c9-a33b-8afd055bc580","system_id":"levelo_inurba_marseille","lat":43.2928,"lon":5.40144,"is_reserved":false,"is_disabled":false,"rental_uris":{"android":"levelo://app?vid=76e85785-d7ef-40c9-a33b-8afd055bc580","ios":"levelo://app?vid=76e85785-d7ef-40c9-a33b-8afd055bc580"},"vehicle_type_id":"4","last_reported":1735561047,"current_range_meters":24800,"station_id":"ce4bh312rcd13ifvqdk0","pricing_plan_id":"cebpf4jnsgd1na2vs0mg"},{"bike_id":"c8926cd0-9741-4ec4-88d9-b6f5f5dc5dad","system_id":"levelo_inurba_marseille","lat":43.28373,"lon":5.38628,"is_reserved":false,"is_disabled":false,"rental_uris":{"android":"levelo://app?vid=c8926cd0-9741-4ec4-88d9-b6f5f5dc5dad","ios":"levelo://app?vid=c8926cd0-9741-4ec4-88d9-b6f5f5dc5dad"},"vehicle_type_id":"4","last_reported":1735561047,"current_range_meters":39200,"station_id":"ce4bh492rcd13ifvqdvg","pricing_plan_id":"cebpf4jnsgd1na2vs0mg"},{"bike_id":"fe17c963-ee96-4f5b-8f42-7842d71e406c","system_id":"levelo_inurba_marseille","lat":43.25735,"lon":5.41118,"is_reserved":false,"is_disabled":false,"rental_uris":{"android":"levelo://app?vid=fe17c963-ee96-4f5b-8f42-7842d71e406c","ios":"levelo://app?vid=fe17c963-ee96-4f5b-8f42-7842d71e406c"},"vehicle_type_id":"4","last_reported":1735561047,"current_range_meters":17600,"station_id":"ce4bhkp2rcd13ifvqgd0","pricing_plan_id":"cebpf4jnsgd1na2vs0mg"},{"bike_id":"836a2fdc-5c7f-4eaf-8248-358a78ee4601","system_id":"levelo_inurba_marseille","lat":43.26208,"lon":5.37442,"is_reserved":false,"is_disabled":false,"rental_uris":{"android":"levelo://app?vid=836a2fdc-5c7f-4eaf-8248-358a78ee4601","ios":"levelo://app?vid=836a2fdc-5c7f-4eaf-8248-358a78ee4601"},"vehicle_type_id":"4","last_reported":1735561047,"current_range_meters":23200,"station_id":"ce4bhgp2rcd13ifvqfc0","pricing_plan_id":"cebpf4jnsgd1na2vs0mg"},{"bike_id":"3e09f37a-c256-4c56-93f3-2d3e33869821","system_id":"levelo_inurba_marseille","lat":43.28411,"lon":5.34982,"is_reserved":false,"is_disabled":false,"rental_uris":{"android":"levelo://app?vid=3e09f37a-c256-4c56-93f3-2d3e33869821","ios":"levelo://app?vid=3e09f37a-c256-4c56-93f3-2d3e33869821"},"vehicle_type_id":"4","last_reported":1735561047,"current_range_meters":18800,"station_id":"ce4bhbh2rcd13ifvqepg","pricing_plan_id":"cebpf4jnsgd1na2vs0mg"},{"bike_id":"56240292-1a59-439d-89e4-72e7cf869944","system_id":"levelo_inurba_marseille","lat":43.26953,"lon":5.38635,"is_reserved":false,"is_disabled":false,"rental_uris":{"android":"levelo://app?vid=56240292-1a59-439d-89e4-72e7cf869944","ios":"levelo://app?vid=56240292-1a59-439d-89e4-72e7cf869944"},"vehicle_type_id":"4","last_reported":1735561047,"current_range_meters":34000,"station_id":"ce4bhh92rcd13ifvqfh0","pricing_plan_id":"cebpf4jnsgd1na2vs0mg"},{"bike_id":"b8feb562-9ac0-4974-8ba7-4af547dd85da","system_id":"levelo_inurba_marseille","lat":43.2606,"lon":5.393885,"is_reserved":false,"is_disabled":false,"rental_uris":{"android":"levelo://app?vid=b8feb562-9ac0-4974-8ba7-4af547dd85da","ios":"levelo://app?vid=b8feb562-9ac0-4974-8ba7-4af547dd85da"},"vehicle_type_id":"4","last_reported":1735561047,"current_range_meters":38800,"station_id":"ce4bhh92rcd13ifvqfj0","pricing_plan_id":"cebpf4jnsgd1na2vs0mg"},{"bike_id":"46012680-f776-4d27-8d45-4bb31fb9dc2b","system_id":"levelo_inurba_marseille","lat":43.23082,"lon":5.35475,"is_reserved":false,"is_disabled":false,"rental_uris":{"android":"levelo://app?vid=46012680-f776-4d27-8d45-4bb31fb9dc2b","ios":"levelo://app?vid=46012680-f776-4d27-8d45-4bb31fb9dc2b"},"vehicle_type_id":"4","last_reported":1735561047,"current_range_meters":16000,"station_id":"cpo3342slgdg3j2ifvpg","pricing_plan_id":"cebpf4jnsgd1na2vs0mg"},{"bike_id":"69b33a70-8011-4aac-b92a-089ca6c75340","system_id":"levelo_inurba_marseille","lat":43.29961,"lon":5.38516,"is_reserved":false,"is_disabled":true,"rental_uris":{"android":"levelo://app?vid=69b33a70-8011-4aac-b92a-089ca6c75340","ios":"levelo://app?vid=69b33a70-8011-4aac-b92a-089ca6c75340"},"vehicle_type_id":"4","last_reported":1735561047,"current_range_meters":38800,"station_id":"ce4bgj92rcd13ifvqbd0","pricing_plan_id":"cebpf4jnsgd1na2vs0mg"},{"bike_id":"83830a46-f3a4-4506-b996-32d3c1a80099","system_id":"levelo_inurba_marseille","lat":43.27996,"lon":5.40017,"is_reserved":false,"is_disabled":false,"rental_uris":{"android":"levelo://app?vid=83830a46-f3a4-4506-b996-32d3c1a80099","ios":"levelo://app?vid=83830a46-f3a4-4506-b996-32d3c1a80099"},"vehicle_type_id":"4","last_reported":1735561047,"current_range_meters":9200,"station_id":"ce4bho92rcd13ifvqh4g","pricing_plan_id":"cebpf4jnsgd1na2vs0mg"},{"bike_id":"2d3a85f1-722c-4472-b7fd-57f2f6b7115c","system_id":"levelo_inurba_marseille","lat":43.24394,"lon":5.37037,"is_reserved":false,"is_disabled":false,"rental_uris":{"android":"levelo://app?vid=2d3a85f1-722c-4472-b7fd-57f2f6b7115c","ios":"levelo://app?vid=2d3a85f1-722c-4472-b7fd-57f2f6b7115c"},"vehicle_type_id":"4","last_reported":1735561047,"current_range_meters":13600,"station_id":"ce4bhhh2rcd13ifvqfk0","pricing_plan_id":"cebpf4jnsgd1na2vs0mg"},{"bike_id":"9ba46895-ef65-4b7e-95ce-b8ea5f2fc438","system_id":"levelo_inurba_marseille","lat":43.27686,"lon":5.38893,"is_reserved":false,"is_disabled":false,"rental_uris":{"android":"levelo://app?vid=9ba46895-ef65-4b7e-95ce-b8ea5f2fc438","ios":"levelo://app?vid=9ba46895-ef65-4b7e-95ce-b8ea5f2fc438"},"vehicle_type_id":"4","last_reported":1735561047,"current_range_meters":38800,"station_id":"ce4bhi12rcd13ifvqfo0","pricing_plan_id":"cebpf4jnsgd1na2vs0mg"},{"bike_id":"80924a51-84d5-4a88-941f-dcc238b3ab7b","system_id":"levelo_inurba_marseille","lat":43.2416,"lon":5.36414,"is_reserved":false,"is_disabled":false,"rental_uris":{"android":"levelo://app?vid=80924a51-84d5-4a88-941f-dcc238b3ab7b","ios":"levelo://app?vid=80924a51-84d5-4a88-941f-dcc238b3ab7b"},"vehicle_type_id":"4","last_reported":1735561047,"current_range_meters":8800,"station_id":"cpo36qri1sfpv3e86is0","pricing_plan_id":"cebpf4jnsgd1na2vs0mg"},{"bike_id":"a30b0e13-dc94-4fa2-b4d9-5e1f87521ceb","system_id":"levelo_inurba_marseille","lat":43.31722,"lon":5.424,"is_reserved":false,"is_disabled":false,"rental_uris":{"android":"levelo://app?vid=a30b0e13-dc94-4fa2-b4d9-5e1f87521ceb","ios":"levelo://app?vid=a30b0e13-dc94-4fa2-b4d9-5e1f87521ceb"},"vehicle_type_id":"4","last_reported":1735561047,"current_range_meters":38000,"station_id":"ce4bhp92rcd13ifvqhbg","pricing_plan_id":"cebpf4jnsgd1na2vs0mg"},{"bike_id":"c7a16261-fcab-4d31-9a7c-3b5289d9e38c","system_id":"levelo_inurba_marseille","lat":43.27298,"lon":5.3913,"is_reserved":false,"is_disabled":false,"rental_uris":{"android":"levelo://app?vid=c7a16261-fcab-4d31-9a7c-3b5289d9e38c","ios":"levelo://app?vid=c7a16261-fcab-4d31-9a7c-3b5289d9e38c"},"vehicle_type_id":"4","last_reported":1735561047,"current_range_meters":38800,"station_id":"ce4bhgp2rcd13ifvqfe0","pricing_plan_id":"cebpf4jnsgd1na2vs0mg"},{"bike_id":"e59e91e8-a267-41e7-93af-daa477e7dc06","system_id":"levelo_inurba_marseille","lat":43.29516,"lon":5.3905,"is_reserved":false,"is_disabled":false,"rental_uris":{"android":"levelo://app?vid=e59e91e8-a267-41e7-93af-daa477e7dc06","ios":"levelo://app?vid=e59e91e8-a267-41e7-93af-daa477e7dc06"},"vehicle_type_id":"4","last_reported":1735561047,"current_range_meters":36000,"station_id":"ce4bh3p2rcd13ifvqdp0","pricing_plan_id":"cebpf4jnsgd1na2vs0mg"},{"bike_id":"5fa2bc43-7c81-45c6-a7af-9e700d12d05b","system_id":"levelo_inurba_marseille","lat":43.30907,"lon":5.36856,"is_reserved":false,"is_disabled":false,"rental_uris":{"android":"levelo://app?vid=5fa2bc43-7c81-45c6-a7af-9e700d12d05b","ios":"levelo://app?vid=5fa2bc43-7c81-45c6-a7af-9e700d12d05b"},"vehicle_type_id":"4","last_reported":1735561047,"current_range_meters":30000,"station_id":"ce4bgn92rcd13ifvqbvg","pricing_plan_id":"cebpf4jnsgd1na2vs0mg"},{"bike_id":"7a2c4366-32d5-498a-8f28-b85628487151","system_id":"levelo_inurba_marseille","lat":43.31331,"lon":5.3969,"is_reserved":false,"is_disabled":false,"rental_uris":{"android":"levelo://app?vid=7a2c4366-32d5-498a-8f28-b85628487151","ios":"levelo://app?vid=7a2c4366-32d5-498a-8f28-b85628487151"},"vehicle_type_id":"4","last_reported":1735561047,"current_range_meters":32800,"station_id":"ce4bgvp2rcd13ifvqcu0","pricing_plan_id":"cebpf4jnsgd1na2vs0mg"},{"bike_id":"c4fa8b26-bff7-4443-9f60-4eb78ee47219","system_id":"levelo_inurba_marseille","lat":43.337444,"lon":5.374475,"is_reserved":false,"is_disabled":false,"rental_uris":{"android":"levelo://app?vid=c4fa8b26-bff7-4443-9f60-4eb78ee47219","ios":"levelo://app?vid=c4fa8b26-bff7-4443-9f60-4eb78ee47219"},"vehicle_type_id":"4","last_reported":1735561047,"current_range_meters":28000,"station_id":"","pricing_plan_id":"cebpf4jnsgd1na2vs0mg"},