{"last_updated":1749809510,"ttl":60,"version":"2.2","data":{"bikes":[{"bike_id":"b31f0139-170f-4194-984f-4386218a1e9d","system_id":"levelo_inurba_marseille","lat":43.33771,"lon":5.37424,"is_reserved":false,"is_disabled":true,"rental_uris":{"android":"levelo://app?vid=b31f0139-170f-4194-984f-4386218a1e9d","ios":"levelo://app?vid=b31f0139-170f-4194-984f-4386218a1e9d"},"vehicle_type_id":"4","last_reported":1749809510,"current_range_meters":0,"station_id":"","pricing_plan_id":"cebpf4jnsgd1na2vs0mg"},{"bike_id":"1acfb620-cad7-48c0-8901-d7a5b74a5b65","system_id":"levelo_inurba_marseille","lat":43.33751,"lon":5.37456,"is_reserved":false,"is_disabled":false,"rental_uris":{"android":"levelo://app?vid=1acfb620-cad7-48c0-8901-d7a5b74a5b65","ios":"levelo://app?vid=1acfb620-cad7-48c0-8901-d7a5b74a5b65"},"vehicle_type_id":"4","last_reported":1749809510,"current_range_meters":4400,"station_id":"","pricing_plan_id":"cebpf4jnsgd1na2vs0mg"},{"bike_id":"bf89d78c-eb96-40d5-beb0-f402ef102cc1","system_id":"levelo_inurba_marseille","lat":43.337444,"lon":5.374475,"is_reserved":false,"is_disabled":true,"rental_uris":{"android":"levelo://app?vid=bf89d78c-eb96-40d5-beb0-f402ef102cc1","ios":"levelo://app?vid=bf89d78c-eb96-40d5-beb0-f402ef102cc1"},"vehicle_type_id":"4","last_reported":1749809510,"current_range_meters":0,"station_id":"","pricing_plan_id":"cebpf4jnsgd1na2vs0mg"},{"bike_id":"7c6a9c32-3bbe-4d4c-8294-1969d0688a87","system_id":"levelo_inurba_marseille","lat":43.28461,"lon":5.4206,"is_reserved":false,"is_disabled":true,"rental_uris":{"android":"levelo://app?vid=7c6a9c32-3bbe-4d4c-8294-1969d0688a87","ios":"levelo://app?vid=7c6a9c32-3bbe-4d4c-8294-1969d0688a87"},"vehicle_type_id":"4","last_reported":1749809510,"current_range_meters":0,"station_id":"","pricing_plan_id":"cebpf4jnsgd1na2vs0mg"},{"bike_id":"66b1cbfb-c132-4ef4-922c-0beab9b5a350","system_id":"levelo_inurba_marseille","lat":43.29713,"lon":5.46033,"is_reserved":false,"is_disabled":true,"rental_uris":{"android":"levelo://app?vid=66b1cbfb-c132-4ef4-922c-0beab9b5a350","ios":"levelo://app?vid=66b1cbfb-c132-4ef4-922c-0beab9b5a350"},"vehicle_type_id":"4","last_reported":1749809510,"current_range_meters":0,"station_id":"","pricing_plan_id":"cebpf4jnsgd1na2vs0mg"},{"bike_id":"492f4bbd-1190-4ef2-b66a-479ffe91b09b","system_id":"levelo_inurba_marseille","lat":43.337444,"lon":5.374475,"is_reserved":false,"is_disabled":true,"rental_uris":{"android":"levelo://app?vid=492f4bbd-1190-4ef2-b66a-479ffe91b09b","ios":"levelo://app?vid=492f4bbd-1190-4ef2-b66a-479ffe91b09b"},"vehicle_type_id":"4","last_reported":1749809510,"current_range_meters":0,"station_id":"","pricing_plan_id":"cebpf4jnsgd1na2vs0mg"},{"bike_id":"b7223bce-535c-4df5-bb89-a04f8cb64b97","system_id":"levelo_inurba_marseille","lat":43.31302,"lon":5.37537,"is_reserved":false,"is_disabled":true,"rental_uris":{"android":"levelo://app?vid=b7223bce-535c-4df5-bb89-a04f8cb64b97","ios":"levelo://app?vid=b7223bce-535c-4df5-bb89-a04f8cb64b97"},"vehicle_type_id":"4","last_reported":1749809510,"current_range_meters":0,"station_id":"","pricing_plan_id":"cebpf4jnsgd1na2vs0mg"},{"bike_id":"a9b6bf99-4070-4437-bb20-72962ae30b90","system_id":"levelo_inurba_marseille","lat":43.27465,"lon":5.36401,"is_reserved":false,"is_disabled":true,"rental_uris":{"android":"levelo://app?vid=a9b6bf99-4070-4437-bb20-72962ae30b90","ios":"levelo://app?vid=a9b6bf99-4070-4437-bb20-72962ae30b90"},"vehicle_type_id":"4","last_reported":1749809510,"current_range_meters":0,"station_id":"","pricing_plan_id":"cebpf4jnsgd1na2vs0mg"},{"bike_id":"90e6ec47-1ec1-496f-a1f6-8183b247fedd","system_id":"levelo_inurba_marseille","lat":43.25497,"lon":5.37646,"is_reserved":false,"is_disabled":true,"rental_uris":{"android":"levelo://app?vid=90e6ec47-1ec1-496f-a1f6-8183b247fedd","ios":"levelo://app?vid=90e6ec47-1ec1-496f-a1f6-8183b247fedd"},"vehicle_type_id":"4","last_reported":1749809510,"current_range_meters":0,"station_id":"ce4bhh12rcd13ifvqff0","pricing_plan_id":"cebpf4jnsgd1na2vs0mg"},{"bike_id":"a6059978-6375-44f1-965f-99de05c08aaf","system_id":"levelo_inurba_marseille","lat":43.30352,"lon":5.41875,"is_reserved":false,"is_disabled":true,"rental_uris":{"android":"levelo://app?vid=a6059978-6375-44f1-965f-99de05c08aaf","ios":"levelo://app?vid=a6059978-6375-44f1-965f-99de05c08aaf"},"vehicle_type_id":"4","last_reported":1749809510,"current_range_meters":0,"station_id":"ce4bhop2rcd13ifvqh7g","pricing_plan_id":"cebpf4jnsgd1na2vs0mg"},{"bike_id":"80138c14-2e42-4fe5-b990-65dde2470259","system_id":"levelo_inurba_marseille","lat":43.22934,"lon":5.35374,"is_reserved":false,"is_disabled":true,"rental_uris":{"android":"levelo://app?vid=80138c14-2e42-4fe5-b990-65dde2470259","ios":"levelo://app?vid=80138c14-2e42-4fe5-b990-65dde2470259"},"vehicle_type_id":"4","last_reported":1749809510,"current_range_meters":0,"station_id":"cpo3532slgdg3j2ikp40","pricing_plan_id":"cebpf4jnsgd1na2vs0mg"},{"bike_id":"5077581b-cebb-46fc-ba69-4fa8272d4810","system_id":"levelo_inurba_marseille","lat":43.213631,"lon":5.355199,"is_reserved":false,"is_disabled":true,"rental_uris":{"android":"levelo://app?vid=5077581b-cebb-46fc-ba69-4fa8272d4810","ios":"levelo://app?vid=5077581b-cebb-46fc-ba69-4fa8272d4810"},"vehicle_type_id":"4","last_reported":1749809510,"current_range_meters":400,"station_id":"","pricing_plan_id":"cebpf4jnsgd1na2vs0mg"},{"bike_id":"155278ee-c6d3-40a2-8900-58945e84c26f","system_id":"levelo_inurba_marseille","lat":43.28488,"lon":5.38419,"is_reserved":false,"is_disabled":true,"rental_uris":{"android":"levelo://app?vid=155278ee-c6d3-40a2-8900-58945e84c26f","ios":"levelo://app?vid=155278ee-c6d3-40a2-8900-58945e84c26f"},"vehicle_type_id":"4","last_reported":1749809510,"current_range_meters":400,"station_id":"ce4bh512rcd13ifvqe3g","pricing_plan_id":"cebpf4jnsgd1na2vs0mg"},{"bike_id":"5e6b470f-fbf0-48e0-a19a-8462b090e03d","system_id":"levelo_inurba_marseille","lat":43.28613,"lon":5.35096,"is_reserved":false,"is_disabled":true,"rental_uris":{"android":"levelo://app?vid=5e6b470f-fbf0-48e0-a19a-8462b090e03d","ios":"levelo://app?vid=5e6b470f-fbf0-48e0-a19a-8462b090e03d"},"vehicle_type_id":"4","last_reported":1749809510,"current_range_meters":400,"station_id":"ce4bhch2rcd13ifvqeug","pricing_plan_id":"cebpf4jnsgd1na2vs0mg"},{"bike_id":"45c26521-5933-492a-b25a-2a5dd5c8a627","system_id":"levelo_inurba_marseille","lat":43.26804,"lon":5.40264,"is_reserved":false,"is_disabled":true,"rental_uris":{"android":"levelo://app?vid=45c26521-5933-492a-b25a-2a5dd5c8a627","ios":"levelo://app?vid=45c26521-5933-492a-b25a-2a5dd5c8a627"},"vehicle_type_id":"4","last_reported":1749809510,"current_range_meters":400,"station_id":"ce501612rcd8frsf0b60","pricing_plan_id":"cebpf4jnsgd1na2vs0mg"},{"bike_id":"a5652db6-c4dd-41f1-afe5-06a93e19d8ff","system_id":"levelo_inurba_marseille","lat":43.24622,"lon":5.39325,"is_reserved":false,"is_disabled":true,"rental_uris":{"android":"levelo://app?vid=a5652db6-c4dd-41f1-afe5-06a93e19d8ff","ios":"levelo://app?vid=a5652db6-c4dd-41f1-afe5-06a93e19d8ff"},"vehicle_type_id":"4","last_reported":1749809510,"current_range_meters":1200,"station_id":"","pricing_plan_id":"cebpf4jnsgd1na2vs0mg"},{"bike_id":"4019d1af-6bba-4817-8254-e57e7b02ff37","system_id":"levelo_inurba_marseille","lat":43.28605,"lon":5.35111,"is_reserved":false,"is_disabled":true,"rental_uris":{"android":"levelo://app?vid=4019d1af-6bba-4817-8254-e57e7b02ff37","ios":"levelo://app?vid=4019d1af-6bba-4817-8254-e57e7b02ff37"},"vehicle_type_id":"4","last_reported":1749809510,"current_range_meters":1200,"station_id":"ce4bhch2rcd13ifvqeug","pricing_plan_id":"cebpf4jnsgd1na2vs0mg"},{"bike_id":"5c219ba0-bd6f-4ec1-8199-9fc28d07f25c","system_id":"levelo_inurba_marseille","lat":43.32317,"lon":5.44677,"is_reserved":false,"is_disabled":true,"rental_uris":{"android":"levelo://app?vid=5c219ba0-bd6f-4ec1-8199-9fc28d07f25c","ios":"levelo://app?vid=5c219ba0-bd6f-4ec1-8199-9fc28d07f25c"},"vehicle_type_id":"4","last_reported":1749809510,"current_range_meters":1600,"station_id":"","pricing_plan_id":"cebpf4jnsgd1na2vs0mg"},{"bike_id":"9d9c536c-a94f-4806-a56f-ebff84758e42","system_id":"levelo_inurba_marseille","lat":43.29906,"lon":5.36503,"is_reserved":false,"is_disabled":true,"rental_uris":{"android":"levelo://app?vid=9d9c536c-a94f-4806-a56f-ebff84758e42","ios":"levelo://app?vid=9d9c536c-a94f-4806-a56f-ebff84758e42"},"vehicle_type_id":"4","last_reported":1749809510,"current_range_meters":2000,"station_id":"ce4bgm92rcd13ifvqbr0","pricing_plan_id":"cebpf4jnsgd1na2vs0mg"},{"bike_id":"8599effd-a327-485b-823d-565e450cad21","system_id":"levelo_inurba_marseille","lat":43.299791,"lon":5.371784,"is_reserved":false,"is_disabled":false,"rental_uris":{"android":"levelo://app?vid=8599effd-a327-485b-823d-565e450cad21","ios":"levelo://app?vid=8599effd-a327-485b-823d-565e450cad21"},"vehicle_type_id":"4","last_reported":1749809510,"current_range_meters":2800,"station_id":"ce4bgr92rcd13ifvqc7g","pricing_plan_id":"cebpf4jnsgd1na2vs0mg"},{"bike_id":"ae9fe6bb-4d36-45e9-95aa-3a55420259a2","system_id":"levelo_inurba_marseille","lat":43.30541,"lon":5.36555,"is_reserved":false,"is_disabled":false,"rental_uris":{"android":"levelo://app?vid=ae9fe6bb-4d36-45e9-95aa-3a55420259a2","ios":"levelo://app?vid=ae9fe6bb-4d36-45e9-95aa-3a55420259a2"},"vehicle_type_id":"4","last_reported":1749809510,"current_range_meters":2800,"station_id":"ce4bgs12rcd13ifvqcag","pricing_plan_id":"cebpf4jnsgd1na2vs0mg"},{"bike_id":"8e108a83-e2bf-43e0-9b41-3765b051abd1","system_id":"levelo_inurba_marseille","lat":43.28047,"lon":5.34935,"is_reserved":false,"is_disabled":false,"rental_uris":{"android":"levelo://app?vid=8e108a83-e2bf-43e0-9b41-3765b051abd1","ios":"levelo://app?vid=8e108a83-e2bf-43e0-9b41-3765b051abd1"},"vehicle_type_id":"4","last_reported":1749809510,"current_range_meters":3200,"station_id":"","pricing_plan_id":"cebpf4jnsgd1na2vs0mg"},{"bike_id":"5e372cb9-972d-4cef-88cc-3d3ca354d0d6","system_id":"levelo_inurba_marseille","lat":43.27994,"lon":5.40014,"is_reserved":false,"is_disabled":false,"rental_uris":{"android":"levelo://app?vid=5e372cb9-972d-4cef-88cc-3d3ca354d0d6","ios":"levelo://app?vid=5e372cb9-972d-4cef-88cc-3d3ca354d0d6"},"vehicle_type_id":"4","last_reported":1749809510,"current_range_meters":3600,"station_id":"ce4bho92rcd13ifvqh4g","pricing_plan_id":"cebpf4jnsgd1na2vs0mg"},{"bike_id":"beb7e168-ac34-412a-b4d8-635ddf5d2536","system_id":"levelo_inurba_marseille","lat":43.295281,"lon":5.37503,"is_reserved":false,"is_disabled":false,"rental_uris":{"android":"levelo://app?vid=beb7e168-ac34-412a-b4d8-635ddf5d2536","ios":"levelo://app?vid=beb7e168-ac34-412a-b4d8-635ddf5d2536"},"vehicle_type_id":"4","last_reported":1749809510,"current_range_meters":4000,"station_id":"ce4bgkp2rcd13ifvqbmg","pricing_plan_id":"cebpf4jnsgd1na2vs0mg"},{"bike_id":"67fc011e-0062-42a9-bfbf-c5f1e0515203","system_id":"levelo_inurba_marseille","lat":43.30275,"lon":5.37699,"is_reserved":false,"is_disabled":false,"rental_uris":{"android":"levelo://app?vid=67fc011e-0062-42a9-bfbf-c5f1e0515203","ios":"levelo://app?vid=67fc011e-0062-42a9-bfbf-c5f1e0515203"},"vehicle_type_id":"4","last_reported":1749809510,"current_range_meters":4800,"station_id":"ce4bguh2rcd13ifvqcj0","pricing_plan_id":"cebpf4jnsgd1na2vs0mg"},{"bike_id":"593d85c9-f78c-43b3-89cd-14f0664b89a3","system_id":"levelo_inurba_marseille","lat":43.271894,"lon":5.410016,"is_reserved":false,"is_disabled":false,"rental_uris":{"android":"levelo://app?vid=593d85c9-f78c-43b3-89cd-14f0664b89a3","ios":"levelo://app?vid=593d85c9-f78c-43b3-89cd-14f0664b89a3"},"vehicle_type_id":"4","last_reported":1749809510,"current_range_meters":4800,"station_id":"ce4bhl12rcd13ifvqgf0","pricing_plan_id":"cebpf4jnsgd1na2vs0mg"},{"bike_id":"85af42bc-8661-4582-a98f-1096f890fb6c","system_id":"levelo_inurba_marseille","lat":43.33732,"lon":5.3918,"is_reserved":false,"is_disabled":false,"rental_uris":{"android":"levelo://app?vid=85af42bc-8661-4582-a98f-1096f890fb6c","ios":"levelo://app?vid=85af42bc-8661-4582-a98f-1096f890fb6c"},"vehicle_type_id":"4","last_reported":1749809510,"current_range_meters":4800,"station_id":"ce4bhr92rcd13ifvqhsg","pricing_plan_id":"cebpf4jnsgd1na2vs0mg"},{"bike_id":"f332fde2-dc92-4a98-8499-acf0fa5d3cae","system_id":"levelo_inurba_marseille","lat":43.24173,"lon":5.36392,"is_reserved":false,"is_disabled":false,"rental_uris":{"android":"levelo://app?vid=f332fde2-dc92-4a98-8499-acf0fa5d3cae","ios":"levelo://app?vid=f332fde2-dc92-4a98-8499-acf0fa5d3cae"},"vehicle_type_id":"4","last_reported":1749809510,"current_range_meters":4800,"station_id":"cpo36qri1sfpv3e86is0","pricing_plan_id":"cebpf4jnsgd1na2vs0mg"},{"bike_id":"360e9855-160b-4932-9688-d3b4b8ca897d","system_id":"levelo_inurba_marseille","lat":43.30612,"lon":5.37224,"is_reserved":false,"is_disabled":false,"rental_uris":{"android":"levelo://app?vid=360e9855-160b-4932-9688-d3b4b8ca897d","ios":"levelo://app?vid=360e9855-160b-4932-9688-d3b4b8ca897d"},"vehicle_type_id":"4","last_reported":1749809510,"current_range_meters":6000,"station_id":"ce4bgqh2rcd13ifvqc4g","pricing_plan_id":"cebpf4jnsgd1na2vs0mg"},{"bike_id":"62ee8ff0-fb96-4ec6-8c36-cd2db7515407","system_id":"levelo_inurba_marseille","lat":43.311707,"lon":5.387293,"is_reserved":false,"is_disabled":false,"rental_uris":{"android":"levelo://app?vid=62ee8ff0-fb96-4ec6-8c36-cd2db7515407","ios":"levelo://app?vid=62ee8ff0-fb96-4ec6-8c36-cd2db7515407"},"vehicle_type_id":"4","last_reported":1749809510,"current_range_meters":6000,"station_id":"ce4bgv12rcd13ifvqcp0","pricing_plan_id":"cebpf4jnsgd1na2vs0mg"},{"bike_id":"a5cca8ec-ef34-4dae-a47d-15ab7a65d66d","system_id":"levelo_inurba_marseille","lat":43.302161,"lon":5.39467,"is_reserved":false,"is_disabled":false,"rental_uris":{"android":"levelo://app?vid=a5cca8ec-ef34-4dae-a47d-15ab7a65d66d","ios":"levelo://app?vid=a5cca8ec-ef34-4dae-a47d-15ab7a65d66d"},"vehicle_type_id":"4","last_reported":1749809510,"current_range_meters":6000,"station_id":"ce4bh0p2rcd13ifvqd70","pricing_plan_id":"cebpf4jnsgd1na2vs0mg"},{"bike_id":"2cb7d4b6-98f1-4168-ba98-84f549809d7b","system_id":"levelo_inurba_marseille","lat":43.2781,"lon":5.40705,"is_reserved":false,"is_disabled":false,"rental_uris":{"android":"levelo://app?vid=2cb7d4b6-98f1-4168-ba98-84f549809d7b","ios":"levelo://app?vid=2cb7d4b6-98f1-4168-ba98-84f549809d7b"},"vehicle_type_id":"4","last_reported":1749809510,"current_range_meters":6000,"station_id":"ce4bhnh2rcd13ifvqgtg","pricing_plan_id":"cebpf4jnsgd1na2vs0mg"},{"bike_id":"17cfdb44-51c9-473b-aa30-78b9cda7ad3b","system_id":"levelo_inurba_marseille","lat":43.32112,"lon":5.36766,"is_reserved":false,"is_disabled":false,"rental_uris":{"android":"levelo://app?vid=17cfdb44-51c9-473b-aa30-78b9cda7ad3b","ios":"levelo://app?vid=17cfdb44-51c9-473b-aa30-78b9cda7ad3b"},"vehicle_type_id":"4","last_reported":1749809510,"current_range_meters":6000,"station_id":"ce4bhrh2rcd13ifvqhug","pricing_plan_id":"cebpf4jnsgd1na2vs0mg"},{"bike_id":"1cdcee42-9bb0-4aec-a136-79bace70428b","system_id":"levelo_inurba_marseille","lat":43.21745,"lon":5.34605,"is_reserved":false,"is_disabled":false,"rental_uris":{"android":"levelo://app?vid=1cdcee42-9bb0-4aec-a136-79bace70428b","ios":"levelo://app?vid=1cdcee42-9bb0-4aec-a136-79bace70428b"},"vehicle_type_id":"4","last_reported":1749809510,"current_range_meters":6000,"station_id":"st_cvj6r9ubvosntc0bgbag","pricing_plan_id":"cebpf4jnsgd1na2vs0mg"},{"bike_id":"0adf26db-487f-4012-adcd-d864844ad461","system_id":"levelo_inurba_marseille","lat":43.26926,"lon":5.38922,"is_reserved":false,"is_disabled":false,"rental_uris":{"android":"levelo://app?vid=0adf26db-487f-4012-adcd-d864844ad461","ios":"levelo://app?vid=0adf26db-487f-4012-adcd-d864844ad461"},"vehicle_type_id":"4","last_reported":1749809510,"current_range_meters":6800,"station_id":"ce4bhhh2rcd13ifvqfl0","pricing_plan_id":"cebpf4jnsgd1na2vs0mg"},{"bike_id":"a2421370-e442-436f-a98a-844d44299694","system_id":"levelo_inurba_marseille","lat":43.32356,"lon":5.36738,"is_reserved":false,"is_disabled":false,"rental_uris":{"android":"levelo://app?vid=a2421370-e442-436f-a98a-844d44299694","ios":"levelo://app?vid=a2421370-e442-436f-a98a-844d44299694"},"vehicle_type_id":"4","last_reported":1749809510,"current_range_meters":6800,"station_id":"ce4bhsh2rcd13ifvqi2g","pricing_plan_id":"cebpf4jnsgd1na2vs0mg"},{"bike_id":"b3e21710-9775-4482-b233-d70da4d39925","system_id":"levelo_inurba_marseille","lat":43.27054,"lon":5.40257,"is_reserved":false,"is_disabled":false,"rental_uris":{"android":"levelo://app?vid=b3e21710-9775-4482-b233-d70da4d39925","ios":"levelo://app?vid=b3e21710-9775-4482-b233-d70da4d39925"},"vehicle_type_id":"4","last_reported":1749809510,"current_range_meters":7200,"station_id":"ce4bhk92rcd13ifvqgc0","pricing_plan_id":"cebpf4jnsgd1na2vs0mg"},{"bike_id":"a426bcb6-9733-433a-b425-ccc13f254a65","system_id":"levelo_inurba_marseille","lat":43.29571,"lon":5.44245,"is_reserved":false,"is_disabled":false,"rental_uris":{"android":"levelo://app?vid=a426bcb6-9733-433a-b425-ccc13f254a65","ios":"levelo://app?vid=a426bcb6-9733-433a-b425-ccc13f254a65"},"vehicle_type_id":"4","last_reported":1749809510,"current_range_meters":8000,"station_id":"","pricing_plan_id":"cebpf4jnsgd1na2vs0mg"},{"bike_id":"a25b84b4-c252-4eda-97fb-1a1f22303c5d","system_id":"levelo_inurba_marseille","lat":43.31351,"lon":5.37414,"is_reserved":false,"is_disabled":false,"rental_uris":{"android":"levelo://app?vid=a25b84b4-c252-4eda-97fb-1a1f22303c5d","ios":"levelo://app?vid=a25b84b4-c252-4eda-97fb-1a1f22303c5d"},"vehicle_type_id":"4","last_reported":1749809510,"current_range_meters":8000,"station_id":"","pricing_plan_id":"cebpf4jnsgd1na2vs0mg"},{"bike_id":"5f9f8e6f-2a8f-41d7-86bc-96c7a6bb30cb","system_id":"levelo_inurba_marseille","lat":43.27175,"lon":5.40992,"is_reserved":false,"is_disabled":false,"rental_uris":{"android":"levelo://app?vid=5f9f8e6f-2a8f-41d7-86bc-96c7a6bb30cb","ios":"levelo://app?vid=5f9f8e6f-2a8f-41d7-86bc-96c7a6bb30cb"},"vehicle_type_id":"4","last_reported":1749809510,"current_range_meters":8000,"station_id":"ce4bhl12rcd13ifvqgf0","pricing_plan_id":"cebpf4jnsgd1na2vs0mg"},{"bike_id":"501fe5cc-ec9f-4031-8e12-9c9a87dfd25d","system_id":"levelo_inurba_marseille","lat":43.31772,"lon":5.40616,"is_reserved":false,"is_disabled":false,"rental_uris":{"android":"levelo://app?vid=501fe5cc-ec9f-4031-8e12-9c9a87dfd25d","ios":"levelo://app?vid=501fe5cc-ec9f-4031-8e12-9c9a87dfd25d"},"vehicle_type_id":"4","last_reported":1749809510,"current_range_meters":8400,"station_id":"","pricing_plan_id":"cebpf4jnsgd1na2vs0mg"},{"bike_id":"0002f675-9397-43e8-a2c4-c6559bc2f189","system_id":"levelo_inurba_marseille","lat":43.29528,"lon":5.39031,"is_reserved":false,"is_disabled":false,"rental_uris":{"android":"levelo://app?vid=0002f675-9397-43e8-a2c4-c6559bc2f189","ios":"levelo://app?vid=0002f675-9397-43e8-a2c4-c6559bc2f189"},"vehicle_type_id":"4","last_reported":1749809510,"current_range_meters":8400,"station_id":"ce4bh3p2rcd13ifvqdp0","pricing_plan_id":"cebpf4jnsgd1na2vs0mg"},{"bike_id":"ee6af956-ef09-404b-a0a0-7a8767464e9f","system_id":"levelo_inurba_marseille","lat":43.29071,"lon":5.37132,"is_reserved":false,"is_disabled":false,"rental_uris":{"android":"levelo://app?vid=ee6af956-ef09-404b-a0a0-7a8767464e9f","ios":"levelo://app?vid=ee6af956-ef09-404b-a0a0-7a8767464e9f"},"vehicle_type_id":"4","last_reported":1749809510,"current_range_meters":8400,"station_id":"ce4bh5p2rcd13ifvqe4g","pricing_plan_id":"cebpf4jnsgd1na2vs0mg"},{"bike_id":"5b0c3ff8-247c-4928-97e1-b79badce49c8","system_id":"levelo_inurba_marseille","lat":43.32659,"lon":5.40991,"is_reserved":false,"is_disabled":false,"rental_uris":{"android":"levelo://app?vid=5b0c3ff8-247c-4928-97e1-b79badce49c8","ios":"levelo://app?vid=5b0c3ff8-247c-4928-97e1-b79badce49c8"},"vehicle_type_id":"4","last_reported":1749809510,"current_range_meters":8400,"station_id":"ce4bhpp2rcd13ifvqhgg","pricing_plan_id":"cebpf4jnsgd1na2vs0mg"},{"bike_id":"3bdb47fe-0f4d-4e36-bfdb-2d2509b0a553","system_id":"levelo_inurba_marseille","lat":43.25086,"lon":5.37884,"is_reserved":false,"is_disabled":false,"rental_uris":{"android":"levelo://app?vid=3bdb47fe-0f4d-4e36-bfdb-2d2509b0a553","ios":"levelo://app?vid=3bdb47fe-0f4d-4e36-bfdb-2d2509b0a553"},"vehicle_type_id":"4","last_reported":1749809510,"current_range_meters":8800,"station_id":"","pricing_plan_id":"cebpf4jnsgd1na2vs0mg"},{"bike_id":"3cca9ca2-9f5e-4224-aef8-8dc3e864b92f","system_id":"levelo_inurba_marseille","lat":43.2953,"lon":5.3854,"is_reserved":false,"is_disabled":false,"rental_uris":{"android":"levelo://app?vid=3cca9ca2-9f5e-4224-aef8-8dc3e864b92f","ios":"levelo://app?vid=3cca9ca2-9f5e-4224-aef8-8dc3e864b92f"},"vehicle_type_id":"4","last_reported":1749809510,"current_range_meters":8800,"station_id":"ce4bgih2rcd13ifvqba0","pricing_plan_id":"cebpf4jnsgd1na2vs0mg"},{"bike_id":"414d7ee1-eff8-421a-acef-a69a41e65f94","system_id":"levelo_inurba_marseille","lat":43.31162,"lon":5.38719,"is_reserved":false,"is_disabled":false,"rental_uris":{"android":"levelo://app?vid=414d7ee1-eff8-421a-acef-a69a41e65f94","ios":"levelo://app?vid=414d7ee1-eff8-421a-acef-a69a41e65f94"},"vehicle_type_id":"4","last_reported":1749809510,"current_range_meters":8800,"station_id":"ce4bgv12rcd13ifvqcp0","pricing_plan_id":"cebpf4jnsgd1na2vs0mg"},{"bike_id":"bfc792a3-89ba-4437-bb24-2fbcc79d1505","system_id":"levelo_inurba_marseille","lat":43.27913,"lon":5.39574,"is_reserved":false,"is_disabled":false,"rental_uris":{"android":"levelo://app?vid=bfc792a3-89ba-4437-bb24-2fbcc79d1505","ios":"levelo://app?vid=bfc792a3-89ba-4437-bb24-2fbcc79d1505"},"vehicle_type_id":"4","last_reported":1749809510,"current_range_meters":8800,"station_id":"ce4bhf92rcd13ifvqf40","pricing_plan_id":"cebpf4jnsgd1na2vs0mg"},{"bike_id":"97421c04-2630-4fc1-9da9-b17d88602c5f","system_id":"levelo_inurba_marseille","lat":43.337599,"lon":5.374395,"is_reserved":false,"is_disabled":false,"rental_uris":{"android":"levelo://app?vid=97421c04-2630-4fc1-9da9-b17d88602c5f","ios":"levelo://app?vid=97421c04-2630-4fc1-9da9-b17d88602c5f"},"vehicle_type_id":"4","last_reported":1749809510,"current_range_meters":9200,"station_id":"","pricing_plan_id":"cebpf4jnsgd1na2vs0mg"},{"bike_id":"8d60347d-541c-40fb-90ca-203bf6bd520a","system_id":"levelo_inurba_marseille","lat":43.271203,"lon":5.363947,"is_reserved":false,"is_disabled":false,"rental_uris":{"android":"levelo://app?vid=8d60347d-541c-40fb-90ca-203bf6bd520a","ios":"levelo://app?vid=8d60347d-541c-40fb-90ca-203bf6bd520a"},"vehicle_type_id":"4","last_reported":1749809510,"current_range_meters":9200,"station_id":"","pricing_plan_id":"cebpf4jnsgd1na2vs0mg"},{"bike_id":"1268e070-f02d-4537-93df-0bfd5c4daa05","system_id":"levelo_inurba_marseille","lat":43.327,"lon":5.37644,"is_reserved":false,"is_disabled":false,"rental_uris":{"android":"levelo://app?vid=1268e070-f02d-4537-93df-0bfd5c4daa05","ios":"levelo://app?vid=1268e070-f02d-4537-93df-0bfd5c4daa05"},"vehicle_type_id":"4","last_reported":1749809510,"current_range_meters":9600,"station_id":"","pricing_plan_id":"cebpf4jnsgd1na2vs0mg"},{"bike_id":"2ae3497c-45b2-474e-a61b-246541dfb5a5","system_id":"levelo_inurba_marseille","lat":43.31386,"lon":5.36738,"is_reserved":false,"is_disabled":false,"rental_uris":{"android":"levelo://app?vid=2ae3497c-45b2-474e-a61b-246541dfb5a5","ios":"levelo://app?vid=2ae3497c-45b2-474e-a61b-246541dfb5a5"},"vehicle_type_id":"4","last_reported":1749809510,"current_range_meters":9600,"station_id":"ce4bgr92rcd13ifvqc6g","pricing_plan_id":"cebpf4jnsgd1na2vs0mg"},{"bike_id":"4b7b3824-fb13-4c0c-9fd0-ed6e789ce4eb","system_id":"levelo_inurba_marseille","lat":43.28461,"lon":5.35882,"is_reserved":false,"is_disabled":false,"rental_uris":{"android":"levelo://app?vid=4b7b3824-fb13-4c0c-9fd0-ed6e789ce4eb","ios":"levelo://app?vid=4b7b3824-fb13-4c0c-9fd0-ed6e789ce4eb"},"vehicle_type_id":"4","last_reported":1749809510,"current_range_meters":9600,"station_id":"ce4bhah2rcd13ifvqei0","pricing_plan_id":"cebpf4jnsgd1na2vs0mg"},{"bike_id":"ca5dc3ca-cf06-4492-b7d8-3023ec1da0bf","system_id":"levelo_inurba_marseille","lat":43.308089,"lon":5.435363,"is_reserved":false,"is_disabled":false,"rental_uris":{"android":"levelo://app?vid=ca5dc3ca-cf06-4492-b7d8-3023ec1da0bf","ios":"levelo://app?vid=ca5dc3ca-cf06-4492-b7d8-3023ec1da0bf"},"vehicle_type_id":"4","last_reported":1749809510,"current_range_meters":9600,"station_id":"ce4bhph2rcd13ifvqheg","pricing_plan_id":"cebpf4jnsgd1na2vs0mg"},{"bike_id":"3a11c5a8-e636-4a8e-97c5-5f95a0b7cfbb","system_id":"levelo_inurba_marseille","lat":43.33765,"lon":5.39205,"is_reserved":false,"is_disabled":false,"rental_uris":{"android":"levelo://app?vid=3a11c5a8-e636-4a8e-97c5-5f95a0b7cfbb","ios":"levelo://app?vid=3a11c5a8-e636-4a8e-97c5-5f95a0b7cfbb"},"vehicle_type_id":"4","last_reported":1749809510,"current_range_meters":10000,"station_id":"","pricing_plan_id":"cebpf4jnsgd1na2vs0mg"},{"bike_id":"d868bd62-3c5e-4130-a7d2-3bd9b314843a","system_id":"levelo_inurba_marseille","lat":43.26986,"lon":5.42811,"is_reserved":false,"is_disabled":false,"rental_uris":{"android":"levelo://app?vid=d868bd62-3c5e-4130-a7d2-3bd9b314843a","ios":"levelo://app?vid=d868bd62-3c5e-4130-a7d2-3bd9b314843a"},"vehicle_type_id":"4","last_reported":1749809510,"current_range_meters":10000,"station_id":"","pricing_plan_id":"cebpf4jnsgd1na2vs0mg"},{"bike_id":"e5ef7447-82af-477b-846f-d44631249354","system_id":"levelo_inurba_marseille","lat":43.32478,"lon":5.38818,"is_reserved":false,"is_disabled":false,"rental_uris":{"android":"levelo://app?vid=e5ef7447-82af-477b-846f-d44631249354","ios":"levelo://app?vid=e5ef7447-82af-477b-846f-d44631249354"},"vehicle_type_id":"4","last_reported":1749809510,"current_range_meters":10000,"station_id":"","pricing_plan_id":"cebpf4jnsgd1na2vs0mg"},{"bike_id":"063eff84-b62e-4128-85ed-5896eed2f5f4","system_id":"levelo_inurba_marseille","lat":43.313125,"lon":5.375172,"is_reserved":false,"is_disabled":false,"rental_uris":{"android":"levelo://app?vid=063eff84-b62e-4128-85ed-5896eed2f5f4","ios":"levelo://app?vid=063eff84-b62e-4128-85ed-5896eed2f5f4"},"vehicle_type_id":"4","last_reported":1749809510,"current_range_meters":10800,"station_id":"","pricing_plan_id":"cebpf4jnsgd1na2vs0mg"},{"bike_id":"efef7ea9-dfe7-4a71-9a42-eb2cee9bc37e","system_id":"levelo_inurba_marseille","lat":43.31202,"lon":5.37204,"is_reserved":false,"is_disabled":false,"rental_uris":{"android":"levelo://app?vid=efef7ea9-dfe7-4a71-9a42-eb2cee9bc37e","ios":"levelo://app?vid=efef7ea9-dfe7-4a71-9a42-eb2cee9bc37e"},"vehicle_type_id":"4","last_reported":1749809510,"current_range_meters":10800,"station_id":"","pricing_plan_id":"cebpf4jnsgd1na2vs0mg"},{"bike_id":"0b7aac5b-1bcf-4ffe-982f-fe515c01f26a","system_id":"levelo_inurba_marseille","lat":43.28468,"lon":5.35887,"is_reserved":false,"is_disabled":false,"rental_uris":{"android":"levelo://app?vid=0b7aac5b-1bcf-4ffe-982f-fe515c01f26a","ios":"levelo://app?vid=0b7aac5b-1bcf-4ffe-982f-fe515c01f26a"},"vehicle_type_id":"4","last_reported":1749809510,"current_range_meters":10800,"station_id":"ce4bhah2rcd13ifvqei0","pricing_plan_id":"cebpf4jnsgd1na2vs0mg"},{"bike_id":"b87d6743-1a9b-44bf-8918-bca3e1f3a906","system_id":"levelo_inurba_marseille","lat":43.26196,"lon":5.37446,"is_reserved":false,"is_disabled":false,"rental_uris":{"android":"levelo://app?vid=b87d6743-1a9b-44bf-8918-bca3e1f3a906","ios":"levelo://app?vid=b87d6743-1a9b-44bf-8918-bca3e1f3a906"},"vehicle_type_id":"4","last_reported":1749809510,"current_range_meters":10800,"station_id":"ce4bhgp2rcd13ifvqfc0","pricing_plan_id":"cebpf4jnsgd1na2vs0mg"},{"bike_id":"cac16850-0e6d-465a-bbca-79973376e09f","system_id":"levelo_inurba_marseille","lat":43.27524,"lon":5.38955,"is_reserved":false,"is_disabled":false,"rental_uris":{"android":"levelo://app?vid=cac16850-0e6d-465a-bbca-79973376e09f","ios":"levelo://app?vid=cac16850-0e6d-465a-bbca-79973376e09f"},"vehicle_type_id":"4","last_reported":1749809510,"current_range_meters":11200,"station_id":"","pricing_plan_id":"cebpf4jnsgd1na2vs0mg"},{"bike_id":"7d47230e-1fba-4bc8-999d-6a56b930b97c","system_id":"levelo_inurba_marseille","lat":43.31208,"lon":5.36808,"is_reserved":false,"is_disabled":false,"rental_uris":{"android":"levelo://app?vid=7d47230e-1fba-4bc8-999d-6a56b930b97c","ios":"levelo://app?vid=7d47230e-1fba-4bc8-999d-6a56b930b97c"},"vehicle_type_id":"4","last_reported":1749809510,"current_range_meters":11200,"station_id":"ce4bgl92rcd13ifvqbq0","pricing_plan_id":"cebpf4jnsgd1na2vs0mg"},{"bike_id":"06ac0d78-197e-43f2-8448-6d412c2bd889","system_id":"levelo_inurba_marseille","lat":43.29628,"lon":5.37168,"is_reserved":false,"is_disabled":false,"rental_uris":{"android":"levelo://app?vid=06ac0d78-197e-43f2-8448-6d412c2bd889","ios":"levelo://app?vid=06ac0d78-197e-43f2-8448-6d412c2bd889"},"vehicle_type_id":"4","last_reported":1749809510,"current_range_meters":11200,"station_id":"ce4bgnh2rcd13ifvqc0g","pricing_plan_id":"cebpf4jnsgd1na2vs0mg"},{"bike_id":"b2e7b183-af44-4407-b1f1-97aaa5ac9d62","system_id":"levelo_inurba_marseille","lat":43.30541,"lon":5.36549,"is_reserved":false,"is_disabled":false,"rental_uris":{"android":"levelo://app?vid=b2e7b183-af44-4407-b1f1-97aaa5ac9d62","ios":"levelo://app?vid=b2e7b183-af44-4407-b1f1-97aaa5ac9d62"},"vehicle_type_id":"4","last_reported":1749809510,"current_range_meters":11200,"station_id":"ce4bgs12rcd13ifvqcag","pricing_plan_id":"cebpf4jnsgd1na2vs0mg"},{"bike_id":"c34bbb0b-dbee-4ba1-afcd-fd1087748bfe","system_id":"levelo_inurba_marseille","lat":43.25488,"lon":5.37643,"is_reserved":false,"is_disabled":false,"rental_uris":{"android":"levelo://app?vid=c34bbb0b-dbee-4ba1-afcd-fd1087748bfe","ios":"levelo://app?vid=c34bbb0b-dbee-4ba1-afcd-fd1087748bfe"},"vehicle_type_id":"4","last_reported":1749809510,"current_range_meters":11200,"station_id":"ce4bhh12rcd13ifvqff0","pricing_plan_id":"cebpf4jnsgd1na2vs0mg"},{"bike_id":"095356e2-42ff-430d-94a5-379ba0845578","system_id":"levelo_inurba_marseille","lat":43.3061,"lon":5.37215,"is_reserved":false,"is_disabled":false,"rental_uris":{"android":"levelo://app?vid=095356e2-42ff-430d-94a5-379ba0845578","ios":"levelo://app?vid=095356e2-42ff-430d-94a5-379ba0845578"},"vehicle_type_id":"4","last_reported":1749809510,"current_range_meters":11600,"station_id":"ce4bgqh2rcd13ifvqc4g","pricing_plan_id":"cebpf4jnsgd1na2vs0mg"},{"bike_id":"d03c2386-8ab5-43fa-b1f0-5108989601df","system_id":"levelo_inurba_marseille","lat":43.29084,"lon":5.37151,"is_reserved":false,"is_disabled":false,"rental_uris":{"android":"levelo://app?vid=d03c2386-8ab5-43fa-b1f0-5108989601df","ios":"levelo://app?vid=d03c2386-8ab5-43fa-b1f0-5108989601df"},"vehicle_type_id":"4","last_reported":1749809510,"current_range_meters":11600,"station_id":"ce4bh5p2rcd13ifvqe4g","pricing_plan_id":"cebpf4jnsgd1na2vs0mg"},{"bike_id":"e3090e73-608d-49d7-917c-b0d225170417","system_id":"levelo_inurba_marseille","lat":43.29278,"lon":5.36831,"is_reserved":false,"is_disabled":false,"rental_uris":{"android":"levelo://app?vid=e3090e73-608d-49d7-917c-b0d225170417","ios":"levelo://app?vid=e3090e73-608d-49d7-917c-b0d225170417"},"vehicle_type_id":"4","last_reported":1749809510,"current_range_meters":11600,"station_id":"ce4bhbp2rcd13ifvqesg","pricing_plan_id":"cebpf4jnsgd1na2vs0mg"},{"bike_id":"a025437d-d905-4581-a812-0c2f72b00469","system_id":"levelo_inurba_marseille","lat":43.32665,"lon":5.40986,"is_reserved":false,"is_disabled":false,"rental_uris":{"android":"levelo://app?vid=a025437d-d905-4581-a812-0c2f72b00469","ios":"levelo://app?vid=a025437d-d905-4581-a812-0c2f72b00469"},"vehicle_type_id":"4","last_reported":1749809510,"current_range_meters":11600,"station_id":"ce4bhpp2rcd13ifvqhgg","pricing_plan_id":"cebpf4jnsgd1na2vs0mg"},{"bike_id":"1a5bde47-bf3b-4cd4-b091-da658f66aa67","system_id":"levelo_inurba_marseille","lat":43.32538,"lon":5.41461,"is_reserved":false,"is_disabled":false,"rental_uris":{"android":"levelo://app?vid=1a5bde47-bf3b-4cd4-b091-da658f66aa67","ios":"levelo://app?vid=1a5bde47-bf3b-4cd4-b091-da658f66aa67"},"vehicle_type_id":"4","last_reported":1749809510,"current_range_meters":11600,"station_id":"ce4bhq12rcd13ifvqhhg","pricing_plan_id":"cebpf4jnsgd1na2vs0mg"},{"bike_id":"415ae651-19f2-4161-a374-d53ba201227b","system_id":"levelo_inurba_marseille","lat":43.33606,"lon":5.41025,"is_reserved":false,"is_disabled":false,"rental_uris":{"android":"levelo://app?vid=415ae651-19f2-4161-a374-d53ba201227b","ios":"levelo://app?vid=415ae651-19f2-4161-a374-d53ba201227b"},"vehicle_type_id":"4","last_reported":1749809510,"current_range_meters":11600,"station_id":"ce4bhqh2rcd13ifvqhmg","pricing_plan_id":"cebpf4jnsgd1na2vs0mg"},{"bike_id":"78e4331f-c67f-4812-a1cf-4af0acc5e2d6","system_id":"levelo_inurba_marseille","lat":43.32359,"lon":5.36723,"is_reserved":false,"is_disabled":false,"rental_uris":{"android":"levelo://app?vid=78e4331f-c67f-4812-a1cf-4af0acc5e2d6","ios":"levelo://app?vid=78e4331f-c67f-4812-a1cf-4af0acc5e2d6"},"vehicle_type_id":"4","last_reported":1749809510,"current_range_meters":11600,"station_id":"ce4bhsh2rcd13ifvqi2g","pricing_plan_id":"cebpf4jnsgd1na2vs0mg"},{"bike_id":"41902e46-3363-402b-89a9-77321257c96b","system_id":"levelo_inurba_marseille","lat":43.32356,"lon":5.36753,"is_reserved":false,"is_disabled":false,"rental_uris":{"android":"levelo://app?vid=41902e46-3363-402b-89a9-77321257c96b","ios":"levelo://app?vid=41902e46-3363-402b-89a9-77321257c96b"},"vehicle_type_id":"4","last_reported":1749809510,"current_range_meters":11600,"station_id":"ce4bhsh2rcd13ifvqi2g","pricing_plan_id":"cebpf4jnsgd1na2vs0mg"},{"bike_id":"47187193-da4a-4340-9d9a-d499526e254e","system_id":"levelo_inurba_marseille","lat":43.21755,"lon":5.34591,"is_reserved":false,"is_disabled":false,"rental_uris":{"android":"levelo://app?vid=47187193-da4a-4340-9d9a-d499526e254e","ios":"levelo://app?vid=47187193-da4a-4340-9d9a-d499526e254e"},"vehicle_type_id":"4","last_reported":1749809510,"current_range_meters":11600,"station_id":"st_cvj6r9ubvosntc0bgbag","pricing_plan_id":"cebpf4jnsgd1na2vs0mg"},{"bike_id":"d1d1786e-79df-461d-93c0-711d29ee3d1e","system_id":"levelo_inurba_marseille","lat":43.251223,"lon":5.403361,"is_reserved":false,"is_disabled":false,"rental_uris":{"android":"levelo://app?vid=d1d1786e-79df-461d-93c0-711d29ee3d1e","ios":"levelo://app?vid=d1d1786e-79df-461d-93c0-711d29ee3d1e"},"vehicle_type_id":"4","last_reported":1749809510,"current_range_meters":12000,"station_id":"ce4bhlh2rcd13ifvqgig","pricing_plan_id":"cebpf4jnsgd1na2vs0mg"},{"bike_id":"8bca9568-3ad8-4b04-a52d-0210c5555d25","system_id":"levelo_inurba_marseille","lat":43.32111,"lon":5.36767,"is_reserved":false,"is_disabled":false,"rental_uris":{"android":"levelo://app?vid=8bca9568-3ad8-4b04-a52d-0210c5555d25","ios":"levelo://app?vid=8bca9568-3ad8-4b04-a52d-0210c5555d25"},"vehicle_type_id":"4","last_reported":1749809510,"current_range_meters":12000,"station_id":"ce4bhrh2rcd13ifvqhug","pricing_plan_id":"cebpf4jnsgd1na2vs0mg"},{"bike_id":"346f3f80-6b15-4406-b905-bb78596f5bac","system_id":"levelo_inurba_marseille","lat":43.32343,"lon":5.36764,"is_reserved":false,"is_disabled":false,"rental_uris":{"android":"levelo://app?vid=346f3f80-6b15-4406-b905-bb78596f5bac","ios":"levelo://app?vid=346f3f80-6b15-4406-b905-bb78596f5bac"},"vehicle_type_id":"4","last_reported":1749809510,"current_range_meters":12000,"station_id":"ce4bhsh2rcd13ifvqi2g","pricing_plan_id":"cebpf4jnsgd1na2vs0mg"},{"bike_id":"d3c2c15d-1fc6-4b22-a13e-ddd837cdf627","system_id":"levelo_inurba_marseille","lat":43.254847,"lon":5.376498,"is_reserved":false,"is_disabled":false,"rental_uris":{"android":"levelo://app?vid=d3c2c15d-1fc6-4b22-a13e-ddd837cdf627","ios":"levelo://app?vid=d3c2c15d-1fc6-4b22-a13e-ddd837cdf627"},"vehicle_type_id":"4","last_reported":1749809510,"current_range_meters":12400,"station_id":"ce4bhh12rcd13ifvqff0","pricing_plan_id":"cebpf4jnsgd1na2vs0mg"},{"bike_id":"7389b02b-e562-41c8-9cc6-01c25d9fca9a","system_id":"levelo_inurba_marseille","lat":43.33599,"lon":5.41022,"is_reserved":false,"is_disabled":false,"rental_uris":{"android":"levelo://app?vid=7389b02b-e562-41c8-9cc6-01c25d9fca9a","ios":"levelo://app?vid=7389b02b-e562-41c8-9cc6-01c25d9fca9a"},"vehicle_type_id":"4","last_reported":1749809510,"current_range_meters":12400,"station_id":"ce4bhqh2rcd13ifvqhmg","pricing_plan_id":"cebpf4jnsgd1na2vs0mg"},{"bike_id":"ad556f7a-9be5-49c9-a4be-c97e2025239b","system_id":"levelo_inurba_marseille","lat":43.23963,"lon":5.36626,"is_reserved":false,"is_disabled":false,"rental_uris":{"android":"levelo://app?vid=ad556f7a-9be5-49c9-a4be-c97e2025239b","ios":"levelo://app?vid=ad556f7a-9be5-49c9-a4be-c97e2025239b"},"vehicle_type_id":"4","last_reported":1749809510,"current_range_meters":12800,"station_id":"ce4bhi12rcd13ifvqfp0","pricing_plan_id":"cebpf4jnsgd1na2vs0mg"},{"bike_id":"383be704-7505-4fb8-833a-9acdb8d96e06","system_id":"levelo_inurba_marseille","lat":43.21197,"lon":5.35053,"is_reserved":false,"is_disabled":false,"rental_uris":{"android":"levelo://app?vid=383be704-7505-4fb8-833a-9acdb8d96e06","ios":"levelo://app?vid=383be704-7505-4fb8-833a-9acdb8d96e06"},"vehicle_type_id":"4","last_reported":1749809510,"current_range_meters":12800,"station_id":"st_cvj6sg6p6f1abm77japg","pricing_plan_id":"cebpf4jnsgd1na2vs0mg"},{"bike_id":"5f977929-ccb4-449a-8fdc-f2bf323c78e2","system_id":"levelo_inurba_marseille","lat":43.337444,"lon":5.374475,"is_reserved":false,"is_disabled":false,"rental_uris":{"android":"levelo://app?vid=5f977929-ccb4-449a-8fdc-f2bf323c78e2","ios":"levelo://app?vid=5f977929-ccb4-449a-8fdc-f2bf323c78e2"},"vehicle_type_id":"4","last_reported":1749809510,"current_range_meters":14000,"station_id":"","pricing_plan_id":"cebpf4jnsgd1na2vs0mg"},{"bike_id":"6facbc0d-f1b5-4dc3-86d4-5c1204834925","system_id":"levelo_inurba_marseille","lat":43.28059,"lon":5.34778,"is_reserved":false,"is_disabled":false,"rental_uris":{"android":"levelo://app?vid=6facbc0d-f1b5-4dc3-86d4-5c1204834925","ios":"levelo://app?vid=6facbc0d-f1b5-4dc3-86d4-5c1204834925"},"vehicle_type_id":"4","last_reported":1749809510,"current_range_meters":14000,"station_id":"","pricing_plan_id":"cebpf4jnsgd1na2vs0mg"},{"bike_id":"3ba69bf3-9c3b-4863-b476-f0e3f20dd731","system_id":"levelo_inurba_marseille","lat":43.29538,"lon":5.37501,"is_reserved":false,"is_disabled":false,"rental_uris":{"android":"levelo://app?vid=3ba69bf3-9c3b-4863-b476-f0e3f20dd731","ios":"levelo://app?vid=3ba69bf3-9c3b-4863-b476-f0e3f20dd731"},"vehicle_type_id":"4","last_reported":1749809510,"current_range_meters":14400,"station_id":"ce4bgkp2rcd13ifvqbmg","pricing_plan_id":"cebpf4jnsgd1na2vs0mg"},{"bike_id":"e7fd39e3-1ab7-43ae-ad4a-536af5a305aa","system_id":"levelo_inurba_marseille","lat":43.28417,"lon":5.34976,"is_reserved":false,"is_disabled":false,"rental_uris":{"android":"levelo://app?vid=e7fd39e3-1ab7-43ae-ad4a-536af5a305aa","ios":"levelo://app?vid=e7fd39e3-1ab7-43ae-ad4a-536af5a305aa"},"vehicle_type_id":"4","last_reported":1749809510,"current_range_meters":14400,"station_id":"ce4bhbh2rcd13ifvqepg","pricing_plan_id":"cebpf4jnsgd1na2vs0mg"},{"bike_id":"d0a8649d-05f7-40ed-af0d-af831849148d","system_id":"levelo_inurba_marseille","lat":43.2797,"lon":5.38739,"is_reserved":false,"is_disabled":false,"rental_uris":{"android":"levelo://app?vid=d0a8649d-05f7-40ed-af0d-af831849148d","ios":"levelo://app?vid=d0a8649d-05f7-40ed-af0d-af831849148d"},"vehicle_type_id":"4","last_reported":1749809510,"current_range_meters":14400,"station_id":"ce4bhg12rcd13ifvqf80","pricing_plan_id":"cebpf4jnsgd1na2vs0mg"},{"bike_id":"157208a8-fc2b-4fb9-8e8d-a8edbd71740d","system_id":"levelo_inurba_marseille","lat":43.27068,"lon":5.4026,"is_reserved":false,"is_disabled":false,"rental_uris":{"android":"levelo://app?vid=157208a8-fc2b-4fb9-8e8d-a8edbd71740d","ios":"levelo://app?vid=157208a8-fc2b-4fb9-8e8d-a8edbd71740d"},"vehicle_type_id":"4","last_reported":1749809510,"current_range_meters":14400,"station_id":"ce4bhk92rcd13ifvqgc0","pricing_plan_id":"cebpf4jnsgd1na2vs0mg"},{"bike_id":"326cc913-bdbc-48c2-9a88-414846f09512","system_id":"levelo_inurba_marseille","lat":43.32361,"lon":5.36768,"is_reserved":false,"is_disabled":false,"rental_uris":{"android":"levelo://app?vid=326cc913-bdbc-48c2-9a88-414846f09512","ios":"levelo://app?vid=326cc913-bdbc-48c2-9a88-414846f09512"},"vehicle_type_id":"4","last_reported":1749809510,"current_range_meters":14400,"station_id":"ce4bhsh2rcd13ifvqi2g","pricing_plan_id":"cebpf4jnsgd1na2vs0mg"},{"bike_id":"9c3f5e23-1366-42b3-a75c-7b052b577773","system_id":"levelo_inurba_marseille","lat":43.21752,"lon":5.346,"is_reserved":false,"is_disabled":false,"rental_uris":{"android":"levelo://app?vid=9c3f5e23-1366-42b3-a75c-7b052b577773","ios":"levelo://app?vid=9c3f5e23-1366-42b3-a75c-7b052b577773"},"vehicle_type_id":"4","last_reported":1749809510,"current_range_meters":14400,"station_id":"st_cvj6r9ubvosntc0bgbag","pricing_plan_id":"cebpf4jnsgd1na2vs0mg"},{"bike_id":"0976fd0f-fbe2-440a-ba97-ebdcddcba6e3","system_id":"levelo_inurba_marseille","lat":43.29724,"lon":5.3769,"is_reserved":false,"is_disabled":false,"rental_uris":{"android":"levelo://app?vid=0976fd0f-fbe2-440a-ba97-ebdcddcba6e3","ios":"levelo://app?vid=0976fd0f-fbe2-440a-ba97-ebdcddcba6e3"},"vehicle_type_id":"4","last_reported":1749809510,"current_range_meters":14800,"station_id":"ce4bgkh2rcd13ifvqbl0","pricing_plan_id":"cebpf4jnsgd1na2vs0mg"},{"bike_id":"4befabab-b2ad-40ca-8a59-2e8290dfa17a","system_id":"levelo_inurba_marseille","lat":43.30147,"lon":5.37385,"is_reserved":false,"is_disabled":false,"rental_uris":{"android":"levelo://app?vid=4befabab-b2ad-40ca-8a59-2e8290dfa17a","ios":"levelo://app?vid=4befabab-b2ad-40ca-8a59-2e8290dfa17a"},"vehicle_type_id":"4","last_reported":1749809510,"current_range_meters":14800,"station_id":"ce4bgs92rcd13ifvqcc0","pricing_plan_id":"cebpf4jnsgd1na2vs0mg"},{"bike_id":"c0bd4251-d527-48a7-9378-e4e80c1c274f","system_id":"levelo_inurba_marseille","lat":43.3184,"lon":5.37367,"is_reserved":false,"is_disabled":false,"rental_uris":{"android":"levelo://app?vid=c0bd4251-d527-48a7-9378-e4e80c1c274f","ios":"levelo://app?vid=c0bd4251-d527-48a7-9378-e4e80c1c274f"},"vehicle_type_id":"4","last_reported":1749809510,"current_range_meters":15200,"station_id":"","pricing_plan_id":"cebpf4jnsgd1na2vs0mg"},{"bike_id":"f38ab1a7-3078-4364-a5da-31d8874fee8e","system_id":"levelo_inurba_marseille","lat":43.29525,"lon":5.39029,"is_reserved":false,"is_disabled":false,"rental_uris":{"android":"levelo://app?vid=f38ab1a7-3078-4364-a5da-31d8874fee8e","ios":"levelo://app?vid=f38ab1a7-3078-4364-a5da-31d8874fee8e"},"vehicle_type_id":"4","last_reported":1749809510,"current_range_meters":15200,"station_id":"ce4bh3p2rcd13ifvqdp0","pricing_plan_id":"cebpf4jnsgd1na2vs0mg"},{"bike_id":"d17b7dfb-25d1-4e77-9be4-f66ea1bb7560","system_id":"levelo_inurba_marseille","lat":43.2176,"lon":5.34586,"is_reserved":false,"is_disabled":false,"rental_uris":{"android":"levelo://app?vid=d17b7dfb-25d1-4e77-9be4-f66ea1bb7560","ios":"levelo://app?vid=d17b7dfb-25d1-4e77-9be4-f66ea1bb7560"},"vehicle_type_id":"4","last_reported":1749809510,"current_range_meters":15200,"station_id":"st_cvj6r9ubvosntc0bgbag","pricing_plan_id":"cebpf4jnsgd1na2vs0mg"},{"bike_id":"075c05ec-b3c9-44c3-b57f-1083abf2ca61","system_id":"levelo_inurba_marseille","lat":43.27128,"lon":5.42616,"is_reserved":false,"is_disabled":false,"rental_uris":{"android":"levelo://app?vid=075c05ec-b3c9-44c3-b57f-1083abf2ca61","ios":"levelo://app?vid=075c05ec-b3c9-44c3-b57f-1083abf2ca61"},"vehicle_type_id":"4","last_reported":1749809510,"current_range_meters":16000,"station_id":"","pricing_plan_id":"cebpf4jnsgd1na2vs0mg"},{"bike_id":"7835a476-bf82-41b7-87e3-950cf4d733b9","system_id":"levelo_inurba_marseille","lat":43.28104,"lon":5.35688,"is_reserved":false,"is_disabled":false,"rental_uris":{"android":"levelo://app?vid=7835a476-bf82-41b7-87e3-950cf4d733b9","ios":"levelo://app?vid=7835a476-bf82-41b7-87e3-950cf4d733b9"},"vehicle_type_id":"4","last_reported":1749809510,"current_range_meters":16000,"station_id":"","pricing_plan_id":"cebpf4jnsgd1na2vs0mg"},{"bike_id":"a9fafa47-de2c-4906-a031-2d55c228f1d6","system_id":"levelo_inurba_marseille","lat":43.30121,"lon":5.39857,"is_reserved":false,"is_disabled":false,"rental_uris":{"android":"levelo://app?vid=a9fafa47-de2c-4906-a031-2d55c228f1d6","ios":"levelo://app?vid=a9fafa47-de2c-4906-a031-2d55c228f1d6"},"vehicle_type_id":"4","last_reported":1749809510,"current_range_meters":16000,"station_id":"ce4bh0h2rcd13ifvqd40","pricing_plan_id":"cebpf4jnsgd1na2vs0mg"},{"bike_id":"69c20607-09ff-47f8-acaa-bbe2c6f6acf9","system_id":"levelo_inurba_marseille","lat":43.28412,"lon":5.34983,"is_reserved":false,"is_disabled":false,"rental_uris":{"android":"levelo://app?vid=69c20607-09ff-47f8-acaa-bbe2c6f6acf9","ios":"levelo://app?vid=69c20607-09ff-47f8-acaa-bbe2c6f6acf9"},"vehicle_type_id":"4","last_reported":1749809510,"current_range_meters":16000,"station_id":"ce4bhbh2rcd13ifvqepg","pricing_plan_id":"cebpf4jnsgd1na2vs0mg"},{"bike_id":"3b2851dc-cdc3-4c74-bb7a-6b50ea5674bc","system_id":"levelo_inurba_marseille","lat":43.3018,"lon":5.38023,"is_reserved":false,"is_disabled":false,"rental_uris":{"android":"levelo://app?vid=3b2851dc-cdc3-4c74-bb7a-6b50ea5674bc","ios":"levelo://app?vid=3b2851dc-cdc3-4c74-bb7a-6b50ea5674bc"},"vehicle_type_id":"4","last_reported":1749809510,"current_range_meters":16400,"station_id":"","pricing_plan_id":"cebpf4jnsgd1na2vs0mg"},{"bike_id":"94502b14-ff48-4cde-b2d3-edd6d6e7a52e","system_id":"levelo_inurba_marseille","lat":43.28416,"lon":5.34977,"is_reserved":false,"is_disabled":false,"rental_uris":{"android":"levelo://app?vid=94502b14-ff48-4cde-b2d3-edd6d6e7a52e","ios":"levelo://app?vid=94502b14-ff48-4cde-b2d3-edd6d6e7a52e"},"vehicle_type_id":"4","last_reported":1749809510,"current_range_meters":16400,"station_id":"ce4bhbh2rcd13ifvqepg","pricing_plan_id":"cebpf4jnsgd1na2vs0mg"},{"bike_id":"4fa3fa05-3b9c-4e1a-9060-09c96ee54ee6","system_id":"levelo_inurba_marseille","lat":43.25581,"lon":5.38237,"is_reserved":false,"is_disabled":false,"rental_uris":{"android":"levelo://app?vid=4fa3fa05-3b9c-4e1a-9060-09c96ee54ee6","ios":"levelo://app?vid=4fa3fa05-3b9c-4e1a-9060-09c96ee54ee6"},"vehicle_type_id":"4","last_reported":1749809510,"current_range_meters":16400,"station_id":"ce4bhih2rcd13ifvqfs0","pricing_plan_id":"cebpf4jnsgd1na2vs0mg"},{"bike_id":"7ab6d917-e6cd-4f6c-98cc-9e2c7c3901f7","system_id":"levelo_inurba_marseille","lat":43.21191,"lon":5.3507,"is_reserved":false,"is_disabled":false,"rental_uris":{"android":"levelo://app?vid=7ab6d917-e6cd-4f6c-98cc-9e2c7c3901f7","ios":"levelo://app?vid=7ab6d917-e6cd-4f6c-98cc-9e2c7c3901f7"},"vehicle_type_id":"4","last_reported":1749809510,"current_range_meters":16400,"station_id":"st_cvj6sg6p6f1abm77japg","pricing_plan_id":"cebpf4jnsgd1na2vs0mg"},{"bike_id":"0edcd34c-356e-4baf-b843-d8b4b714099a","system_id":"levelo_inurba_marseille","lat":43.240668,"lon":5.377934,"is_reserved":false,"is_disabled":false,"rental_uris":{"android":"levelo://app?vid=0edcd34c-356e-4baf-b843-d8b4b714099a","ios":"levelo://app?vid=0edcd34c-356e-4baf-b843-d8b4b714099a"},"vehicle_type_id":"4","last_reported":1749809510,"current_range_meters":16800,"station_id":"","pricing_plan_id":"cebpf4jnsgd1na2vs0mg"},{"bike_id":"025ac1a6-073a-4a76-a075-cb506b4b9428","system_id":"levelo_inurba_marseille","lat":43.2997,"lon":5.3717,"is_reserved":false,"is_disabled":false,"rental_uris":{"android":"levelo://app?vid=025ac1a6-073a-4a76-a075-cb506b4b9428","ios":"levelo://app?vid=025ac1a6-073a-4a76-a075-cb506b4b9428"},"vehicle_type_id":"4","last_reported":1749809510,"current_range_meters":16800,"station_id":"ce4bgr92rcd13ifvqc7g","pricing_plan_id":"cebpf4jnsgd1na2vs0mg"},{"bike_id":"9e1f9da9-3037-48d6-8495-5020203e3eb5","system_id":"levelo_inurba_marseille","lat":43.3027,"lon":5.37711,"is_reserved":false,"is_disabled":false,"rental_uris":{"android":"levelo://app?vid=9e1f9da9-3037-48d6-8495-5020203e3eb5","ios":"levelo://app?vid=9e1f9da9-3037-48d6-8495-5020203e3eb5"},"vehicle_type_id":"4","last_reported":1749809510,"current_range_meters":16800,"station_id":"ce4bguh2rcd13ifvqcj0","pricing_plan_id":"cebpf4jnsgd1na2vs0mg"},{"bike_id":"91579d26-d741-44c8-b8c8-cf993bb9ca7a","system_id":"levelo_inurba_marseille","lat":43.285148,"lon":5.384021,"is_reserved":false,"is_disabled":false,"rental_uris":{"android":"levelo://app?vid=91579d26-d741-44c8-b8c8-cf993bb9ca7a","ios":"levelo://app?vid=91579d26-d741-44c8-b8c8-cf993bb9ca7a"},"vehicle_type_id":"4","last_reported":1749809510,"current_range_meters":16800,"station_id":"ce4bhap2rcd13ifvqek0","pricing_plan_id":"cebpf4jnsgd1na2vs0mg"},{"bike_id":"ba0042d0-63d3-4ad7-809b-aef890f577cf","system_id":"levelo_inurba_marseille","lat":43.25937,"lon":5.40904,"is_reserved":false,"is_disabled":false,"rental_uris":{"android":"levelo://app?vid=ba0042d0-63d3-4ad7-809b-aef890f577cf","ios":"levelo://app?vid=ba0042d0-63d3-4ad7-809b-aef890f577cf"},"vehicle_type_id":"4","last_reported":1749809510,"current_range_meters":16800,"station_id":"ce4bhm92rcd13ifvqglg","pricing_plan_id":"cebpf4jnsgd1na2vs0mg"},{"bike_id":"b81b8f9d-07f1-49ea-9982-42d701ec0ecd","system_id":"levelo_inurba_marseille","lat":43.32657,"lon":5.4099,"is_reserved":false,"is_disabled":false,"rental_uris":{"android":"levelo://app?vid=b81b8f9d-07f1-49ea-9982-42d701ec0ecd","ios":"levelo://app?vid=b81b8f9d-07f1-49ea-9982-42d701ec0ecd"},"vehicle_type_id":"4","last_reported":1749809510,"current_range_meters":16800,"station_id":"ce4bhpp2rcd13ifvqhgg","pricing_plan_id":"cebpf4jnsgd1na2vs0mg"},{"bike_id":"6712928b-aab8-4eb5-b682-7533ab037bb2","system_id":"levelo_inurba_marseille","lat":43.217499,"lon":5.34605,"is_reserved":false,"is_disabled":false,"rental_uris":{"android":"levelo://app?vid=6712928b-aab8-4eb5-b682-7533ab037bb2","ios":"levelo://app?vid=6712928b-aab8-4eb5-b682-7533ab037bb2"},"vehicle_type_id":"4","last_reported":1749809510,"current_range_meters":16800,"station_id":"st_cvj6r9ubvosntc0bgbag","pricing_plan_id":"cebpf4jnsgd1na2vs0mg"},{"bike_id":"2ab31527-f915-4286-b3a0-0beafd2cdd50","system_id":"levelo_inurba_marseille","lat":43.29973,"lon":5.3703,"is_reserved":false,"is_disabled":false,"rental_uris":{"android":"levelo://app?vid=2ab31527-f915-4286-b3a0-0beafd2cdd50","ios":"levelo://app?vid=2ab31527-f915-4286-b3a0-0beafd2cdd50"},"vehicle_type_id":"4","last_reported":1749809510,"current_range_meters":17200,"station_id":"","pricing_plan_id":"cebpf4jnsgd1na2vs0mg"},{"bike_id":"a3d8ed61-ad96-4794-9377-3745ebafc863","system_id":"levelo_inurba_marseille","lat":43.29119,"lon":5.38094,"is_reserved":false,"is_disabled":false,"rental_uris":{"android":"levelo://app?vid=a3d8ed61-ad96-4794-9377-3745ebafc863","ios":"levelo://app?vid=a3d8ed61-ad96-4794-9377-3745ebafc863"},"vehicle_type_id":"4","last_reported":1749809510,"current_range_meters":17200,"station_id":"ce4bh512rcd13ifvqe2g","pricing_plan_id":"cebpf4jnsgd1na2vs0mg"},{"bike_id":"f3ec16b2-8afd-4ecb-8d58-15a6a90ff603","system_id":"levelo_inurba_marseille","lat":43.32346,"lon":5.3675,"is_reserved":false,"is_disabled":false,"rental_uris":{"android":"levelo://app?vid=f3ec16b2-8afd-4ecb-8d58-15a6a90ff603","ios":"levelo://app?vid=f3ec16b2-8afd-4ecb-8d58-15a6a90ff603"},"vehicle_type_id":"4","last_reported":1749809510,"current_range_meters":17200,"station_id":"ce4bhsh2rcd13ifvqi2g","pricing_plan_id":"cebpf4jnsgd1na2vs0mg"},{"bike_id":"60f57486-e48d-4e21-b15c-d10d72d548b1","system_id":"levelo_inurba_marseille","lat":43.30149,"lon":5.38095,"is_reserved":false,"is_disabled":false,"rental_uris":{"android":"levelo://app?vid=60f57486-e48d-4e21-b15c-d10d72d548b1","ios":"levelo://app?vid=60f57486-e48d-4e21-b15c-d10d72d548b1"},"vehicle_type_id":"4","last_reported":1749809510,"current_range_meters":17600,"station_id":"ce4bgjp2rcd13ifvqbh0","pricing_plan_id":"cebpf4jnsgd1na2vs0mg"},{"bike_id":"2d87c1f7-7500-4eff-b7a1-1dad75029c40","system_id":"levelo_inurba_marseille","lat":43.317138,"lon":5.37741,"is_reserved":false,"is_disabled":false,"rental_uris":{"android":"levelo://app?vid=2d87c1f7-7500-4eff-b7a1-1dad75029c40","ios":"levelo://app?vid=2d87c1f7-7500-4eff-b7a1-1dad75029c40"},"vehicle_type_id":"4","last_reported":1749809510,"current_range_meters":17600,"station_id":"ce4bgth2rcd13ifvqch0","pricing_plan_id":"cebpf4jnsgd1na2vs0mg"},{"bike_id":"080cac81-b455-4d82-be30-e1c87461207a","system_id":"levelo_inurba_marseille","lat":43.29544,"lon":5.39403,"is_reserved":false,"is_disabled":false,"rental_uris":{"android":"levelo://app?vid=080cac81-b455-4d82-be30-e1c87461207a","ios":"levelo://app?vid=080cac81-b455-4d82-be30-e1c87461207a"},"vehicle_type_id":"4","last_reported":1749809510,"current_range_meters":17600,"station_id":"ce4bh292rcd13ifvqdf0","pricing_plan_id":"cebpf4jnsgd1na2vs0mg"},{"bike_id":"cf782cd9-37f3-4e00-abba-cb035c29165c","system_id":"levelo_inurba_marseille","lat":43.269267,"lon":5.389163,"is_reserved":false,"is_disabled":false,"rental_uris":{"android":"levelo://app?vid=cf782cd9-37f3-4e00-abba-cb035c29165c","ios":"levelo://app?vid=cf782cd9-37f3-4e00-abba-cb035c29165c"},"vehicle_type_id":"4","last_reported":1749809510,"current_range_meters":17600,"station_id":"ce4bhhh2rcd13ifvqfl0","pricing_plan_id":"cebpf4jnsgd1na2vs0mg"},{"bike_id":"2b149e58-4e3d-4383-b721-d396d3dd21ad","system_id":"levelo_inurba_marseille","lat":43.2293,"lon":5.35373,"is_reserved":false,"is_disabled":false,"rental_uris":{"android":"levelo://app?vid=2b149e58-4e3d-4383-b721-d396d3dd21ad","ios":"levelo://app?vid=2b149e58-4e3d-4383-b721-d396d3dd21ad"},"vehicle_type_id":"4","last_reported":1749809510,"current_range_meters":17600,"station_id":"cpo3532slgdg3j2ikp40","pricing_plan_id":"cebpf4jnsgd1na2vs0mg"},{"bike_id":"584137ff-3520-4bd0-828f-78b8d12edd87","system_id":"levelo_inurba_marseille","lat":43.29711,"lon":5.376959,"is_reserved":false,"is_disabled":false,"rental_uris":{"android":"levelo://app?vid=584137ff-3520-4bd0-828f-78b8d12edd87","ios":"levelo://app?vid=584137ff-3520-4bd0-828f-78b8d12edd87"},"vehicle_type_id":"4","last_reported":1749809510,"current_range_meters":18000,"station_id":"ce4bgkh2rcd13ifvqbl0","pricing_plan_id":"cebpf4jnsgd1na2vs0mg"},{"bike_id":"2ff606d5-b031-4779-b8c0-2cf88aafabd8","system_id":"levelo_inurba_marseille","lat":43.2962,"lon":5.3717,"is_reserved":false,"is_disabled":false,"rental_uris":{"android":"levelo://app?vid=2ff606d5-b031-4779-b8c0-2cf88aafabd8","ios":"levelo://app?vid=2ff606d5-b031-4779-b8c0-2cf88aafabd8"},"vehicle_type_id":"4","last_reported":1749809510,"current_range_meters":18000,"station_id":"ce4bgnh2rcd13ifvqc0g","pricing_plan_id":"cebpf4jnsgd1na2vs0mg"},{"bike_id":"0b0d6a02-b9d4-4991-86ef-05c114b19963","system_id":"levelo_inurba_marseille","lat":43.28419,"lon":5.34972,"is_reserved":false,"is_disabled":false,"rental_uris":{"android":"levelo://app?vid=0b0d6a02-b9d4-4991-86ef-05c114b19963","ios":"levelo://app?vid=0b0d6a02-b9d4-4991-86ef-05c114b19963"},"vehicle_type_id":"4","last_reported":1749809510,"current_range_meters":18000,"station_id":"ce4bhbh2rcd13ifvqepg","pricing_plan_id":"cebpf4jnsgd1na2vs0mg"},{"bike_id":"3dd56720-f462-4ff4-8114-c604ec6db8e0","system_id":"levelo_inurba_marseille","lat":43.23967,"lon":5.36626,"is_reserved":false,"is_disabled":false,"rental_uris":{"android":"levelo://app?vid=3dd56720-f462-4ff4-8114-c604ec6db8e0","ios":"levelo://app?vid=3dd56720-f462-4ff4-8114-c604ec6db8e0"},"vehicle_type_id":"4","last_reported":1749809510,"current_range_meters":18000,"station_id":"ce4bhi12rcd13ifvqfp0","pricing_plan_id":"cebpf4jnsgd1na2vs0mg"},{"bike_id":"f1c160cf-2487-4cad-80b6-5d7679e0d40e","system_id":"levelo_inurba_marseille","lat":43.25939,"lon":5.40895,"is_reserved":false,"is_disabled":false,"rental_uris":{"android":"levelo://app?vid=f1c160cf-2487-4cad-80b6-5d7679e0d40e","ios":"levelo://app?vid=f1c160cf-2487-4cad-80b6-5d7679e0d40e"},"vehicle_type_id":"4","last_reported":1749809510,"current_range_meters":18000,"station_id":"ce4bhm92rcd13ifvqglg","pricing_plan_id":"cebpf4jnsgd1na2vs0mg"},{"bike_id":"033f15e1-5ed0-4098-a7ec-2a49aba179ae","system_id":"levelo_inurba_marseille","lat":43.285044,"lon":5.353542,"is_reserved":false,"is_disabled":false,"rental_uris":{"android":"levelo://app?vid=033f15e1-5ed0-4098-a7ec-2a49aba179ae","ios":"levelo://app?vid=033f15e1-5ed0-4098-a7ec-2a49aba179ae"},"vehicle_type_id":"4","last_reported":1749809510,"current_range_meters":18800,"station_id":"","pricing_plan_id":"cebpf4jnsgd1na2vs0mg"},{"bike_id":"5f24e9a1-8fe1-4db9-8964-6142200f737e","system_id":"levelo_inurba_marseille","lat":43.28002,"lon":5.41658,"is_reserved":false,"is_disabled":false,"rental_uris":{"android":"levelo://app?vid=5f24e9a1-8fe1-4db9-8964-6142200f737e","ios":"levelo://app?vid=5f24e9a1-8fe1-4db9-8964-6142200f737e"},"vehicle_type_id":"4","last_reported":1749809510,"current_range_meters":18800,"station_id":"ce4bho12rcd13ifvqh1g","pricing_plan_id":"cebpf4jnsgd1na2vs0mg"},{"bike_id":"af6eb8df-ddad-43f9-9627-5abe366850b6","system_id":"levelo_inurba_marseille","lat":43.3414,"lon":5.40897,"is_reserved":false,"is_disabled":false,"rental_uris":{"android":"levelo://app?vid=af6eb8df-ddad-43f9-9627-5abe366850b6","ios":"levelo://app?vid=af6eb8df-ddad-43f9-9627-5abe366850b6"},"vehicle_type_id":"4","last_reported":1749809510,"current_range_meters":18800,"station_id":"ce4bhqh2rcd13ifvqhlg","pricing_plan_id":"cebpf4jnsgd1na2vs0mg"},{"bike_id":"33008d1f-82fc-46d7-bc22-7402cd98b5ac","system_id":"levelo_inurba_marseille","lat":43.29251,"lon":5.37619,"is_reserved":false,"is_disabled":false,"rental_uris":{"android":"levelo://app?vid=33008d1f-82fc-46d7-bc22-7402cd98b5ac","ios":"levelo://app?vid=33008d1f-82fc-46d7-bc22-7402cd98b5ac"},"vehicle_type_id":"4","last_reported":1749809510,"current_range_meters":19200,"station_id":"ce4bgi12rcd13ifvqb80","pricing_plan_id":"cebpf4jnsgd1na2vs0mg"},{"bike_id":"966375c6-fce0-43d1-aace-9dc59435072e","system_id":"levelo_inurba_marseille","lat":43.29381,"lon":5.37835,"is_reserved":false,"is_disabled":false,"rental_uris":{"android":"levelo://app?vid=966375c6-fce0-43d1-aace-9dc59435072e","ios":"levelo://app?vid=966375c6-fce0-43d1-aace-9dc59435072e"},"vehicle_type_id":"4","last_reported":1749809510,"current_range_meters":19200,"station_id":"ce4bgjh2rcd13ifvqbf0","pricing_plan_id":"cebpf4jnsgd1na2vs0mg"},{"bike_id":"a6939f59-b839-4a31-94f1-01423f5e111a","system_id":"levelo_inurba_marseille","lat":43.30299,"lon":5.39217,"is_reserved":false,"is_disabled":false,"rental_uris":{"android":"levelo://app?vid=a6939f59-b839-4a31-94f1-01423f5e111a","ios":"levelo://app?vid=a6939f59-b839-4a31-94f1-01423f5e111a"},"vehicle_type_id":"4","last_reported":1749809510,"current_range_meters":19200,"station_id":"ce4bgkh2rcd13ifvqbk0","pricing_plan_id":"cebpf4jnsgd1na2vs0mg"},{"bike_id":"4ad2023a-a3cb-4b97-be56-2c3c08fff6ca","system_id":"levelo_inurba_marseille","lat":43.239053,"lon":5.365576,"is_reserved":false,"is_disabled":false,"rental_uris":{"android":"levelo://app?vid=4ad2023a-a3cb-4b97-be56-2c3c08fff6ca","ios":"levelo://app?vid=4ad2023a-a3cb-4b97-be56-2c3c08fff6ca"},"vehicle_type_id":"4","last_reported":1749809510,"current_range_meters":19200,"station_id":"ce4bhi12rcd13ifvqfp0","pricing_plan_id":"cebpf4jnsgd1na2vs0mg"},{"bike_id":"d0e0617d-5016-40ba-b4c5-1a83d3add731","system_id":"levelo_inurba_marseille","lat":43.32356,"lon":5.36745,"is_reserved":false,"is_disabled":false,"rental_uris":{"android":"levelo://app?vid=d0e0617d-5016-40ba-b4c5-1a83d3add731","ios":"levelo://app?vid=d0e0617d-5016-40ba-b4c5-1a83d3add731"},"vehicle_type_id":"4","last_reported":1749809510,"current_range_meters":19200,"station_id":"ce4bhsh2rcd13ifvqi2g","pricing_plan_id":"cebpf4jnsgd1na2vs0mg"},{"bike_id":"ccb9975b-34a8-47da-b755-e17344ae18d3","system_id":"levelo_inurba_marseille","lat":43.23195,"lon":5.35534,"is_reserved":false,"is_disabled":false,"rental_uris":{"android":"levelo://app?vid=ccb9975b-34a8-47da-b755-e17344ae18d3","ios":"levelo://app?vid=ccb9975b-34a8-47da-b755-e17344ae18d3"},"vehicle_type_id":"4","last_reported":1749809510,"current_range_meters":19200,"station_id":"ce4bhu92rcd13ifvqi70","pricing_plan_id":"cebpf4jnsgd1na2vs0mg"},{"bike_id":"a89cb948-989f-4863-a75b-e1ca319e412e","system_id":"levelo_inurba_marseille","lat":43.229297,"lon":5.353753,"is_reserved":false,"is_disabled":false,"rental_uris":{"android":"levelo://app?vid=a89cb948-989f-4863-a75b-e1ca319e412e","ios":"levelo://app?vid=a89cb948-989f-4863-a75b-e1ca319e412e"},"vehicle_type_id":"4","last_reported":1749809510,"current_range_meters":19600,"station_id":"","pricing_plan_id":"cebpf4jnsgd1na2vs0mg"},{"bike_id":"89511dfc-7d62-45cd-a94a-940e5444bd92","system_id":"levelo_inurba_marseille","lat":43.31352,"lon":5.36704,"is_reserved":false,"is_disabled":false,"rental_uris":{"android":"levelo://app?vid=89511dfc-7d62-45cd-a94a-940e5444bd92","ios":"levelo://app?vid=89511dfc-7d62-45cd-a94a-940e5444bd92"},"vehicle_type_id":"4","last_reported":1749809510,"current_range_meters":19600,"station_id":"ce4bgr92rcd13ifvqc6g","pricing_plan_id":"cebpf4jnsgd1na2vs0mg"},{"bike_id":"db2a96e5-6e18-41ad-9002-f91e17742bf1","system_id":"levelo_inurba_marseille","lat":43.292847,"lon":5.401156,"is_reserved":false,"is_disabled":false,"rental_uris":{"android":"levelo://app?vid=db2a96e5-6e18-41ad-9002-f91e17742bf1","ios":"levelo://app?vid=db2a96e5-6e18-41ad-9002-f91e17742bf1"},"vehicle_type_id":"4","last_reported":1749809510,"current_range_meters":19600,"station_id":"ce4bh312rcd13ifvqdk0","pricing_plan_id":"cebpf4jnsgd1na2vs0mg"},{"bike_id":"76d727e3-a6d7-45fd-8588-fc7e52cb1f66","system_id":"levelo_inurba_marseille","lat":43.24805,"lon":5.37455,"is_reserved":false,"is_disabled":false,"rental_uris":{"android":"levelo://app?vid=76d727e3-a6d7-45fd-8588-fc7e52cb1f66","ios":"levelo://app?vid=76d727e3-a6d7-45fd-8588-fc7e52cb1f66"},"vehicle_type_id":"4","last_reported":1749809510,"current_range_meters":19600,"station_id":"ce4bhgh2rcd13ifvqfb0","pricing_plan_id":"cebpf4jnsgd1na2vs0mg"},{"bike_id":"9b23eef5-a124-41f7-8d79-6a9e5868177e","system_id":"levelo_inurba_marseille","lat":43.27564,"lon":5.38406,"is_reserved":false,"is_disabled":false,"rental_uris":{"android":"levelo://app?vid=9b23eef5-a124-41f7-8d79-6a9e5868177e","ios":"levelo://app?vid=9b23eef5-a124-41f7-8d79-6a9e5868177e"},"vehicle_type_id":"4","last_reported":1749809510,"current_range_meters":19600,"station_id":"ce4bhh92rcd13ifvqfi0","pricing_plan_id":"cebpf4jnsgd1na2vs0mg"},{"bike_id":"cb6fde58-267b-4acf-95e6-99425e18e595","system_id":"levelo_inurba_marseille","lat":43.259,"lon":5.40881,"is_reserved":false,"is_disabled":false,"rental_uris":{"android":"levelo://app?vid=cb6fde58-267b-4acf-95e6-99425e18e595","ios":"levelo://app?vid=cb6fde58-267b-4acf-95e6-99425e18e595"},"vehicle_type_id":"4","last_reported":1749809510,"current_range_meters":19600,"station_id":"ce4bhm92rcd13ifvqglg","pricing_plan_id":"cebpf4jnsgd1na2vs0mg"},{"bike_id":"0a55cc50-7877-4c48-a8be-b5da28ef0dbf","system_id":"levelo_inurba_marseille","lat":43.275,"lon":5.42446,"is_reserved":false,"is_disabled":false,"rental_uris":{"android":"levelo://app?vid=0a55cc50-7877-4c48-a8be-b5da28ef0dbf","ios":"levelo://app?vid=0a55cc50-7877-4c48-a8be-b5da28ef0dbf"},"vehicle_type_id":"4","last_reported":1749809510,"current_range_meters":19600,"station_id":"ce4bhn92rcd13ifvqgrg","pricing_plan_id":"cebpf4jnsgd1na2vs0mg"},{"bike_id":"6e464720-93b0-4699-80fe-881649eb71cd","system_id":"levelo_inurba_marseille","lat":43.23193,"lon":5.3555,"is_reserved":false,"is_disabled":false,"rental_uris":{"android":"levelo://app?vid=6e464720-93b0-4699-80fe-881649eb71cd","ios":"levelo://app?vid=6e464720-93b0-4699-80fe-881649eb71cd"},"vehicle_type_id":"4","last_reported":1749809510,"current_range_meters":19600,"station_id":"ce4bhu92rcd13ifvqi70","pricing_plan_id":"cebpf4jnsgd1na2vs0mg"},{"bike_id":"a419b8ff-7300-4eb4-b9e4-286faaf8c8fd","system_id":"levelo_inurba_marseille","lat":43.30528,"lon":5.36692,"is_reserved":false,"is_disabled":false,"rental_uris":{"android":"levelo://app?vid=a419b8ff-7300-4eb4-b9e4-286faaf8c8fd","ios":"levelo://app?vid=a419b8ff-7300-4eb4-b9e4-286faaf8c8fd"},"vehicle_type_id":"4","last_reported":1749809510,"current_range_meters":20000,"station_id":"ce4bgrp2rcd13ifvqc9g","pricing_plan_id":"cebpf4jnsgd1na2vs0mg"},{"bike_id":"558cd456-1017-4899-a5e0-10f264e95a8c","system_id":"levelo_inurba_marseille","lat":43.3219,"lon":5.38123,"is_reserved":false,"is_disabled":false,"rental_uris":{"android":"levelo://app?vid=558cd456-1017-4899-a5e0-10f264e95a8c","ios":"levelo://app?vid=558cd456-1017-4899-a5e0-10f264e95a8c"},"vehicle_type_id":"4","last_reported":1749809510,"current_range_meters":20400,"station_id":"","pricing_plan_id":"cebpf4jnsgd1na2vs0mg"},{"bike_id":"e6b577f6-a7aa-4b3a-8ca5-c000db042e3c","system_id":"levelo_inurba_marseille","lat":43.30539,"lon":5.3653,"is_reserved":false,"is_disabled":false,"rental_uris":{"android":"levelo://app?vid=e6b577f6-a7aa-4b3a-8ca5-c000db042e3c","ios":"levelo://app?vid=e6b577f6-a7aa-4b3a-8ca5-c000db042e3c"},"vehicle_type_id":"4","last_reported":1749809510,"current_range_meters":20400,"station_id":"ce4bgs12rcd13ifvqcag","pricing_plan_id":"cebpf4jnsgd1na2vs0mg"},{"bike_id":"b35d1f8f-1c2e-4129-81c1-4e7af758d967","system_id":"levelo_inurba_marseille","lat":43.241789,"lon":5.397277,"is_reserved":false,"is_disabled":false,"rental_uris":{"android":"levelo://app?vid=b35d1f8f-1c2e-4129-81c1-4e7af758d967","ios":"levelo://app?vid=b35d1f8f-1c2e-4129-81c1-4e7af758d967"},"vehicle_type_id":"4","last_reported":1749809510,"current_range_meters":20400,"station_id":"ce4bhn12rcd13ifvqgpg","pricing_plan_id":"cebpf4jnsgd1na2vs0mg"},{"bike_id":"7f18b436-7fda-41cd-9ee2-92ddcce19569","system_id":"levelo_inurba_marseille","lat":43.26929,"lon":5.38918,"is_reserved":false,"is_disabled":false,"rental_uris":{"android":"levelo://app?vid=7f18b436-7fda-41cd-9ee2-92ddcce19569","ios":"levelo://app?vid=7f18b436-7fda-41cd-9ee2-92ddcce19569"},"vehicle_type_id":"4","last_reported":1749809510,"current_range_meters":20800,"station_id":"ce4bhhh2rcd13ifvqfl0","pricing_plan_id":"cebpf4jnsgd1na2vs0mg"},{"bike_id":"40078786-30ae-4d7e-b339-0564735d64bb","system_id":"levelo_inurba_marseille","lat":43.23964,"lon":5.36629,"is_reserved":false,"is_disabled":false,"rental_uris":{"android":"levelo://app?vid=40078786-30ae-4d7e-b339-0564735d64bb","ios":"levelo://app?vid=40078786-30ae-4d7e-b339-0564735d64bb"},"vehicle_type_id":"4","last_reported":1749809510,"current_range_meters":20800,"station_id":"ce4bhi12rcd13ifvqfp0","pricing_plan_id":"cebpf4jnsgd1na2vs0mg"},{"bike_id":"48ce34d0-cf14-4239-b33e-6f464a94e77d","system_id":"levelo_inurba_marseille","lat":43.270523,"lon":5.402581,"is_reserved":false,"is_disabled":false,"rental_uris":{"android":"levelo://app?vid=48ce34d0-cf14-4239-b33e-6f464a94e77d","ios":"levelo://app?vid=48ce34d0-cf14-4239-b33e-6f464a94e77d"},"vehicle_type_id":"4","last_reported":1749809510,"current_range_meters":20800,"station_id":"ce4bhk92rcd13ifvqgc0","pricing_plan_id":"cebpf4jnsgd1na2vs0mg"},{"bike_id":"e5708a3e-75b1-4cc3-9a1d-a05b35bc1aea","system_id":"levelo_inurba_marseille","lat":43.33727,"lon":5.39187,"is_reserved":false,"is_disabled":false,"rental_uris":{"android":"levelo://app?vid=e5708a3e-75b1-4cc3-9a1d-a05b35bc1aea","ios":"levelo://app?vid=e5708a3e-75b1-4cc3-9a1d-a05b35bc1aea"},"vehicle_type_id":"4","last_reported":1749809510,"current_range_meters":20800,"station_id":"ce4bhr92rcd13ifvqhsg","pricing_plan_id":"cebpf4jnsgd1na2vs0mg"},{"bike_id":"7240a984-bb6d-4c3b-ab8d-aef55ac0bce8","system_id":"levelo_inurba_marseille","lat":43.2119,"lon":5.35059,"is_reserved":false,"is_disabled":false,"rental_uris":{"android":"levelo://app?vid=7240a984-bb6d-4c3b-ab8d-aef55ac0bce8","ios":"levelo://app?vid=7240a984-bb6d-4c3b-ab8d-aef55ac0bce8"},"vehicle_type_id":"4","last_reported":1749809510,"current_range_meters":20800,"station_id":"st_cvj6sg6p6f1abm77japg","pricing_plan_id":"cebpf4jnsgd1na2vs0mg"},{"bike_id":"679d881d-2dfe-4ec2-babb-8b09d0832382","system_id":"levelo_inurba_marseille","lat":43.3279,"lon":5.39146,"is_reserved":false,"is_disabled":false,"rental_uris":{"android":"levelo://app?vid=679d881d-2dfe-4ec2-babb-8b09d0832382","ios":"levelo://app?vid=679d881d-2dfe-4ec2-babb-8b09d0832382"},"vehicle_type_id":"4","last_reported":1749809510,"current_range_meters":21600,"station_id":"","pricing_plan_id":"cebpf4jnsgd1na2vs0mg"},{"bike_id":"8800e17c-b529-4747-8fbf-90fa587a3d4e","system_id":"levelo_inurba_marseille","lat":43.248017,"lon":5.374517,"is_reserved":false,"is_disabled":false,"rental_uris":{"android":"levelo://app?vid=8800e17c-b529-4747-8fbf-90fa587a3d4e","ios":"levelo://app?vid=8800e17c-b529-4747-8fbf-90fa587a3d4e"},"vehicle_type_id":"4","last_reported":1749809510,"current_range_meters":21600,"station_id":"ce4bhgh2rcd13ifvqfb0","pricing_plan_id":"cebpf4jnsgd1na2vs0mg"},{"bike_id":"c82f75f2-635c-40da-9f67-77d82cb74c97","system_id":"levelo_inurba_marseille","lat":43.21198,"lon":5.35062,"is_reserved":false,"is_disabled":false,"rental_uris":{"android":"levelo://app?vid=c82f75f2-635c-40da-9f67-77d82cb74c97","ios":"levelo://app?vid=c82f75f2-635c-40da-9f67-77d82cb74c97"},"vehicle_type_id":"4","last_reported":1749809510,"current_range_meters":21600,"station_id":"st_cvj6sg6p6f1abm77japg","pricing_plan_id":"cebpf4jnsgd1na2vs0mg"},{"bike_id":"65860b79-8f92-4e88-8933-63c923b9398b","system_id":"levelo_inurba_marseille","lat":43.29624,"lon":5.371732,"is_reserved":false,"is_disabled":false,"rental_uris":{"android":"levelo://app?vid=65860b79-8f92-4e88-8933-63c923b9398b","ios":"levelo://app?vid=65860b79-8f92-4e88-8933-63c923b9398b"},"vehicle_type_id":"4","last_reported":1749809510,"current_range_meters":22000,"station_id":"ce4bgnh2rcd13ifvqc0g","pricing_plan_id":"cebpf4jnsgd1na2vs0mg"},{"bike_id":"00167165-4fc7-4470-b198-ce35681182e3","system_id":"levelo_inurba_marseille","lat":43.30534,"lon":5.36688,"is_reserved":false,"is_disabled":false,"rental_uris":{"android":"levelo://app?vid=00167165-4fc7-4470-b198-ce35681182e3","ios":"levelo://app?vid=00167165-4fc7-4470-b198-ce35681182e3"},"vehicle_type_id":"4","last_reported":1749809510,"current_range_meters":22000,"station_id":"ce4bgrp2rcd13ifvqc9g","pricing_plan_id":"cebpf4jnsgd1na2vs0mg"},{"bike_id":"3264e5db-a739-47a8-a153-cd5f73ab3a00","system_id":"levelo_inurba_marseille","lat":43.29032,"lon":5.37552,"is_reserved":false,"is_disabled":false,"rental_uris":{"android":"levelo://app?vid=3264e5db-a739-47a8-a153-cd5f73ab3a00","ios":"levelo://app?vid=3264e5db-a739-47a8-a153-cd5f73ab3a00"},"vehicle_type_id":"4","last_reported":1749809510,"current_range_meters":22000,"station_id":"ce4bh692rcd13ifvqe90","pricing_plan_id":"cebpf4jnsgd1na2vs0mg"},{"bike_id":"5a9554f9-3630-4674-8031-014bb04481ca","system_id":"levelo_inurba_marseille","lat":43.290527,"lon":5.359247,"is_reserved":false,"is_disabled":false,"rental_uris":{"android":"levelo://app?vid=5a9554f9-3630-4674-8031-014bb04481ca","ios":"levelo://app?vid=5a9554f9-3630-4674-8031-014bb04481ca"},"vehicle_type_id":"4","last_reported":1749809510,"current_range_meters":22000,"station_id":"ce4bha92rcd13ifvqeg0","pricing_plan_id":"cebpf4jnsgd1na2vs0mg"},{"bike_id":"6dffafd5-1a4c-4101-bc3f-c64cd1754739","system_id":"levelo_inurba_marseille","lat":43.29549,"lon":5.42267,"is_reserved":false,"is_disabled":false,"rental_uris":{"android":"levelo://app?vid=6dffafd5-1a4c-4101-bc3f-c64cd1754739","ios":"levelo://app?vid=6dffafd5-1a4c-4101-bc3f-c64cd1754739"},"vehicle_type_id":"4","last_reported":1749809510,"current_range_meters":22000,"station_id":"ce4bhph2rcd13ifvqhdg","pricing_plan_id":"cebpf4jnsgd1na2vs0mg"},{"bike_id":"f2c9af96-1c1f-4ce9-b7e8-1282fcb6fec2","system_id":"levelo_inurba_marseille","lat":43.24353,"lon":5.4114,"is_reserved":false,"is_disabled":false,"rental_uris":{"android":"levelo://app?vid=f2c9af96-1c1f-4ce9-b7e8-1282fcb6fec2","ios":"levelo://app?vid=f2c9af96-1c1f-4ce9-b7e8-1282fcb6fec2"},"vehicle_type_id":"4","last_reported":1749809510,"current_range_meters":22400,"station_id":"","pricing_plan_id":"cebpf4jnsgd1na2vs0mg"},{"bike_id":"8cb1804d-5ec0-4c39-830c-0590b2fbc9ca","system_id":"levelo_inurba_marseille","lat":43.29627,"lon":5.37151,"is_reserved":false,"is_disabled":false,"rental_uris":{"android":"levelo://app?vid=8cb1804d-5ec0-4c39-830c-0590b2fbc9ca","ios":"levelo://app?vid=8cb1804d-5ec0-4c39-830c-0590b2fbc9ca"},"vehicle_type_id":"4","last_reported":1749809510,"current_range_meters":22400,"station_id":"ce4bgnh2rcd13ifvqc0g","pricing_plan_id":"cebpf4jnsgd1na2vs0mg"},{"bike_id":"20f95c71-b040-48ef-8179-2a842e4db563","system_id":"levelo_inurba_marseille","lat":43.30538,"lon":5.36686,"is_reserved":false,"is_disabled":false,"rental_uris":{"android":"levelo://app?vid=20f95c71-b040-48ef-8179-2a842e4db563","ios":"levelo://app?vid=20f95c71-b040-48ef-8179-2a842e4db563"},"vehicle_type_id":"4","last_reported":1749809510,"current_range_meters":22400,"station_id":"ce4bgrp2rcd13ifvqc9g","pricing_plan_id":"cebpf4jnsgd1na2vs0mg"},{"bike_id":"2b3f4b5d-a5ca-4832-b659-c1ebb20e2436","system_id":"levelo_inurba_marseille","lat":43.30462,"lon":5.37898,"is_reserved":false,"is_disabled":false,"rental_uris":{"android":"levelo://app?vid=2b3f4b5d-a5ca-4832-b659-c1ebb20e2436","ios":"levelo://app?vid=2b3f4b5d-a5ca-4832-b659-c1ebb20e2436"},"vehicle_type_id":"4","last_reported":1749809510,"current_range_meters":22400,"station_id":"ce4bgup2rcd13ifvqcn0","pricing_plan_id":"cebpf4jnsgd1na2vs0mg"},{"bike_id":"0aee95d5-474d-444c-9d31-3f5785730b82","system_id":"levelo_inurba_marseille","lat":43.3097,"lon":5.39042,"is_reserved":false,"is_disabled":false,"rental_uris":{"android":"levelo://app?vid=0aee95d5-474d-444c-9d31-3f5785730b82","ios":"levelo://app?vid=0aee95d5-474d-444c-9d31-3f5785730b82"},"vehicle_type_id":"4","last_reported":1749809510,"current_range_meters":22400,"station_id":"ce4bgup2rcd13ifvqco0","pricing_plan_id":"cebpf4jnsgd1na2vs0mg"},{"bike_id":"accbb2df-3883-4172-9c2c-df9867b42121","system_id":"levelo_inurba_marseille","lat":43.30782,"lon":5.3764,"is_reserved":false,"is_disabled":false,"rental_uris":{"android":"levelo://app?vid=accbb2df-3883-4172-9c2c-df9867b42121","ios":"levelo://app?vid=accbb2df-3883-4172-9c2c-df9867b42121"},"vehicle_type_id":"4","last_reported":1749809510,"current_range_meters":22400,"station_id":"ce4bgv92rcd13ifvqcq0","pricing_plan_id":"cebpf4jnsgd1na2vs0mg"},{"bike_id":"7cac9c3f-549e-4594-827d-18d911001186","system_id":"levelo_inurba_marseille","lat":43.28469,"lon":5.35885,"is_reserved":false,"is_disabled":false,"rental_uris":{"android":"levelo://app?vid=7cac9c3f-549e-4594-827d-18d911001186","ios":"levelo://app?vid=7cac9c3f-549e-4594-827d-18d911001186"},"vehicle_type_id":"4","last_reported":1749809510,"current_range_meters":22400,"station_id":"ce4bhah2rcd13ifvqei0","pricing_plan_id":"cebpf4jnsgd1na2vs0mg"},{"bike_id":"d51334ed-dbf5-4352-bfff-e8fb82abdcf3","system_id":"levelo_inurba_marseille","lat":43.27817,"lon":5.40714,"is_reserved":false,"is_disabled":false,"rental_uris":{"android":"levelo://app?vid=d51334ed-dbf5-4352-bfff-e8fb82abdcf3","ios":"levelo://app?vid=d51334ed-dbf5-4352-bfff-e8fb82abdcf3"},"vehicle_type_id":"4","last_reported":1749809510,"current_range_meters":22400,"station_id":"ce4bhnh2rcd13ifvqgtg","pricing_plan_id":"cebpf4jnsgd1na2vs0mg"},{"bike_id":"b7de2daa-196c-4111-9244-8dff16c1dcca","system_id":"levelo_inurba_marseille","lat":43.32101,"lon":5.36792,"is_reserved":false,"is_disabled":false,"rental_uris":{"android":"levelo://app?vid=b7de2daa-196c-4111-9244-8dff16c1dcca","ios":"levelo://app?vid=b7de2daa-196c-4111-9244-8dff16c1dcca"},"vehicle_type_id":"4","last_reported":1749809510,"current_range_meters":22400,"station_id":"ce4bhrh2rcd13ifvqhug","pricing_plan_id":"cebpf4jnsgd1na2vs0mg"},{"bike_id":"d81ebef1-def3-4b3b-8a2c-e915262efa10","system_id":"levelo_inurba_marseille","lat":43.3287,"lon":5.391669,"is_reserved":false,"is_disabled":false,"rental_uris":{"android":"levelo://app?vid=d81ebef1-def3-4b3b-8a2c-e915262efa10","ios":"levelo://app?vid=d81ebef1-def3-4b3b-8a2c-e915262efa10"},"vehicle_type_id":"4","last_reported":1749809510,"current_range_meters":22800,"station_id":"","pricing_plan_id":"cebpf4jnsgd1na2vs0mg"},{"bike_id":"e5c255a7-aa7f-401a-b4c8-4f631b4f392a","system_id":"levelo_inurba_marseille","lat":43.30139,"lon":5.37411,"is_reserved":false,"is_disabled":false,"rental_uris":{"android":"levelo://app?vid=e5c255a7-aa7f-401a-b4c8-4f631b4f392a","ios":"levelo://app?vid=e5c255a7-aa7f-401a-b4c8-4f631b4f392a"},"vehicle_type_id":"4","last_reported":1749809510,"current_range_meters":22800,"station_id":"ce4bgs92rcd13ifvqcc0","pricing_plan_id":"cebpf4jnsgd1na2vs0mg"},{"bike_id":"5d24e1f4-d6fc-40cb-b1ce-9e74db6a9163","system_id":"levelo_inurba_marseille","lat":43.2928,"lon":5.40164,"is_reserved":false,"is_disabled":false,"rental_uris":{"android":"levelo://app?vid=5d24e1f4-d6fc-40cb-b1ce-9e74db6a9163","ios":"levelo://app?vid=5d24e1f4-d6fc-40cb-b1ce-9e74db6a9163"},"vehicle_type_id":"4","last_reported":1749809510,"current_range_meters":22800,"station_id":"ce4bh312rcd13ifvqdk0","pricing_plan_id":"cebpf4jnsgd1na2vs0mg"},{"bike_id":"f646ed8e-044e-42ae-aa2d-f2f134962df6","system_id":"levelo_inurba_marseille","lat":43.27926,"lon":5.39579,"is_reserved":false,"is_disabled":false,"rental_uris":{"android":"levelo://app?vid=f646ed8e-044e-42ae-aa2d-f2f134962df6","ios":"levelo://app?vid=f646ed8e-044e-42ae-aa2d-f2f134962df6"},"vehicle_type_id":"4","last_reported":1749809510,"current_range_meters":22800,"station_id":"ce4bhf92rcd13ifvqf40","pricing_plan_id":"cebpf4jnsgd1na2vs0mg"},{"bike_id":"1331c9e3-75c6-49ae-87cc-69e094d3dcde","system_id":"levelo_inurba_marseille","lat":43.25575,"lon":5.38235,"is_reserved":false,"is_disabled":false,"rental_uris":{"android":"levelo://app?vid=1331c9e3-75c6-49ae-87cc-69e094d3dcde","ios":"levelo://app?vid=1331c9e3-75c6-49ae-87cc-69e094d3dcde"},"vehicle_type_id":"4","last_reported":1749809510,"current_range_meters":22800,"station_id":"ce4bhih2rcd13ifvqfs0","pricing_plan_id":"cebpf4jnsgd1na2vs0mg"},{"bike_id":"9d6df7e9-6983-46d5-9b19-0bff453842f3","system_id":"levelo_inurba_marseille","lat":43.2314,"lon":5.4373,"is_reserved":false,"is_disabled":false,"rental_uris":{"android":"levelo://app?vid=9d6df7e9-6983-46d5-9b19-0bff453842f3","ios":"levelo://app?vid=9d6df7e9-6983-46d5-9b19-0bff453842f3"},"vehicle_type_id":"4","last_reported":1749809510,"current_range_meters":22800,"station_id":"ce4bhmp2rcd13ifvqgog","pricing_plan_id":"cebpf4jnsgd1na2vs0mg"},{"bike_id":"01da230a-3793-4a05-8f9b-c78e608bb483","system_id":"levelo_inurba_marseille","lat":43.24173,"lon":5.39705,"is_reserved":false,"is_disabled":false,"rental_uris":{"android":"levelo://app?vid=01da230a-3793-4a05-8f9b-c78e608bb483","ios":"levelo://app?vid=01da230a-3793-4a05-8f9b-c78e608bb483"},"vehicle_type_id":"4","last_reported":1749809510,"current_range_meters":22800,"station_id":"ce4bhn12rcd13ifvqgpg","pricing_plan_id":"cebpf4jnsgd1na2vs0mg"},{"bike_id":"0363f405-f0d2-4c99-a072-0d4baf5b03ec","system_id":"levelo_inurba_marseille","lat":43.27807,"lon":5.40707,"is_reserved":false,"is_disabled":false,"rental_uris":{"android":"levelo://app?vid=0363f405-f0d2-4c99-a072-0d4baf5b03ec","ios":"levelo://app?vid=0363f405-f0d2-4c99-a072-0d4baf5b03ec"},"vehicle_type_id":"4","last_reported":1749809510,"current_range_meters":22800,"station_id":"ce4bhnh2rcd13ifvqgtg","pricing_plan_id":"cebpf4jnsgd1na2vs0mg"},{"bike_id":"8675c9bc-7890-477e-b93c-514e1149010e","system_id":"levelo_inurba_marseille","lat":43.29547,"lon":5.37506,"is_reserved":false,"is_disabled":false,"rental_uris":{"android":"levelo://app?vid=8675c9bc-7890-477e-b93c-514e1149010e","ios":"levelo://app?vid=8675c9bc-7890-477e-b93c-514e1149010e"},"vehicle_type_id":"4","last_reported":1749809510,"current_range_meters":23200,"station_id":"ce4bgkp2rcd13ifvqbmg","pricing_plan_id":"cebpf4jnsgd1na2vs0mg"},{"bike_id":"e4985e30-58db-4c24-8ec3-d6f15e8763a8","system_id":"levelo_inurba_marseille","lat":43.29621,"lon":5.3715,"is_reserved":false,"is_disabled":false,"rental_uris":{"android":"levelo://app?vid=e4985e30-58db-4c24-8ec3-d6f15e8763a8","ios":"levelo://app?vid=e4985e30-58db-4c24-8ec3-d6f15e8763a8"},"vehicle_type_id":"4","last_reported":1749809510,"current_range_meters":23200,"station_id":"ce4bgnh2rcd13ifvqc0g","pricing_plan_id":"cebpf4jnsgd1na2vs0mg"},{"bike_id":"8993aa40-f02c-4585-a4a6-731cc5e216f1","system_id":"levelo_inurba_marseille","lat":43.280541,"lon":5.368613,"is_reserved":false,"is_disabled":false,"rental_uris":{"android":"levelo://app?vid=8993aa40-f02c-4585-a4a6-731cc5e216f1","ios":"levelo://app?vid=8993aa40-f02c-4585-a4a6-731cc5e216f1"},"vehicle_type_id":"4","last_reported":1749809510,"current_range_meters":23200,"station_id":"ce4bha12rcd13ifvqef0","pricing_plan_id":"cebpf4jnsgd1na2vs0mg"},{"bike_id":"21de0c47-1654-48e8-8e21-d556f85fa7e0","system_id":"levelo_inurba_marseille","lat":43.286638,"lon":5.363472,"is_reserved":false,"is_disabled":false,"rental_uris":{"android":"levelo://app?vid=21de0c47-1654-48e8-8e21-d556f85fa7e0","ios":"levelo://app?vid=21de0c47-1654-48e8-8e21-d556f85fa7e0"},"vehicle_type_id":"4","last_reported":1749809510,"current_range_meters":23200,"station_id":"ce4bhah2rcd13ifvqej0","pricing_plan_id":"cebpf4jnsgd1na2vs0mg"},{"bike_id":"32061525-bea0-4411-b7ed-f0817b132ff9","system_id":"levelo_inurba_marseille","lat":43.26679,"lon":5.38266,"is_reserved":false,"is_disabled":false,"rental_uris":{"android":"levelo://app?vid=32061525-bea0-4411-b7ed-f0817b132ff9","ios":"levelo://app?vid=32061525-bea0-4411-b7ed-f0817b132ff9"},"vehicle_type_id":"4","last_reported":1749809510,"current_range_meters":23200,"station_id":"ce4bhg92rcd13ifvqf90","pricing_plan_id":"cebpf4jnsgd1na2vs0mg"},{"bike_id":"f2f901a8-4c5e-4901-9fac-827bb47d4a31","system_id":"levelo_inurba_marseille","lat":43.26211,"lon":5.37437,"is_reserved":false,"is_disabled":false,"rental_uris":{"android":"levelo://app?vid=f2f901a8-4c5e-4901-9fac-827bb47d4a31","ios":"levelo://app?vid=f2f901a8-4c5e-4901-9fac-827bb47d4a31"},"vehicle_type_id":"4","last_reported":1749809510,"current_range_meters":23200,"station_id":"ce4bhgp2rcd13ifvqfc0","pricing_plan_id":"cebpf4jnsgd1na2vs0mg"},{"bike_id":"c7c5d069-245b-477f-be68-37e239fcb067","system_id":"levelo_inurba_marseille","lat":43.25493,"lon":5.3765,"is_reserved":false,"is_disabled":false,"rental_uris":{"android":"levelo://app?vid=c7c5d069-245b-477f-be68-37e239fcb067","ios":"levelo://app?vid=c7c5d069-245b-477f-be68-37e239fcb067"},"vehicle_type_id":"4","last_reported":1749809510,"current_range_meters":23200,"station_id":"ce4bhh12rcd13ifvqff0","pricing_plan_id":"cebpf4jnsgd1na2vs0mg"},{"bike_id":"25638e98-9a31-4b5b-91d1-35ecce5a10fd","system_id":"levelo_inurba_marseille","lat":43.24169,"lon":5.36388,"is_reserved":false,"is_disabled":false,"rental_uris":{"android":"levelo://app?vid=25638e98-9a31-4b5b-91d1-35ecce5a10fd","ios":"levelo://app?vid=25638e98-9a31-4b5b-91d1-35ecce5a10fd"},"vehicle_type_id":"4","last_reported":1749809510,"current_range_meters":23200,"station_id":"cpo36qri1sfpv3e86is0","pricing_plan_id":"cebpf4jnsgd1na2vs0mg"},{"bike_id":"edada9d4-cc32-4256-891a-3bcf9d658815","system_id":"levelo_inurba_marseille","lat":43.30455,"lon":5.37794,"is_reserved":false,"is_disabled":false,"rental_uris":{"android":"levelo://app?vid=edada9d4-cc32-4256-891a-3bcf9d658815","ios":"levelo://app?vid=edada9d4-cc32-4256-891a-3bcf9d658815"},"vehicle_type_id":"4","last_reported":1749809510,"current_range_meters":24000,"station_id":"","pricing_plan_id":"cebpf4jnsgd1na2vs0mg"},{"bike_id":"56226cf9-7d90-4f55-8bd1-b144d56933ea","system_id":"levelo_inurba_marseille","lat":43.3052,"lon":5.36682,"is_reserved":false,"is_disabled":false,"rental_uris":{"android":"levelo://app?vid=56226cf9-7d90-4f55-8bd1-b144d56933ea","ios":"levelo://app?vid=56226cf9-7d90-4f55-8bd1-b144d56933ea"},"vehicle_type_id":"4","last_reported":1749809510,"current_range_meters":24000,"station_id":"ce4bgrp2rcd13ifvqc9g","pricing_plan_id":"cebpf4jnsgd1na2vs0mg"},{"bike_id":"e481c1af-bd89-46c7-b46d-75374c03479a","system_id":"levelo_inurba_marseille","lat":43.30097,"lon":5.39082,"is_reserved":false,"is_disabled":false,"rental_uris":{"android":"levelo://app?vid=e481c1af-bd89-46c7-b46d-75374c03479a","ios":"levelo://app?vid=e481c1af-bd89-46c7-b46d-75374c03479a"},"vehicle_type_id":"4","last_reported":1749809510,"current_range_meters":24000,"station_id":"ce4bh192rcd13ifvqdb0","pricing_plan_id":"cebpf4jnsgd1na2vs0mg"},{"bike_id":"f50b5ac6-a2f7-4c93-be87-9b89486a3b24","system_id":"levelo_inurba_marseille","lat":43.23166,"lon":5.43711,"is_reserved":false,"is_disabled":false,"rental_uris":{"android":"levelo://app?vid=f50b5ac6-a2f7-4c93-be87-9b89486a3b24","ios":"levelo://app?vid=f50b5ac6-a2f7-4c93-be87-9b89486a3b24"},"vehicle_type_id":"4","last_reported":1749809510,"current_range_meters":24000,"station_id":"ce4bhmp2rcd13ifvqgog","pricing_plan_id":"cebpf4jnsgd1na2vs0mg"},{"bike_id":"5c04d2c3-d5dc-4e26-a137-ccc18cf00c2f","system_id":"levelo_inurba_marseille","lat":43.32493,"lon":5.36558,"is_reserved":false,"is_disabled":false,"rental_uris":{"android":"levelo://app?vid=5c04d2c3-d5dc-4e26-a137-ccc18cf00c2f","ios":"levelo://app?vid=5c04d2c3-d5dc-4e26-a137-ccc18cf00c2f"},"vehicle_type_id":"4","last_reported":1749809510,"current_range_meters":24000,"station_id":"ce4bhs12rcd13ifvqhvg","pricing_plan_id":"cebpf4jnsgd1na2vs0mg"},{"bike_id":"bc3fcb55-bf4c-422e-9f7c-c229756dd205","system_id":"levelo_inurba_marseille","lat":43.32348,"lon":5.36726,"is_reserved":false,"is_disabled":false,"rental_uris":{"android":"levelo://app?vid=bc3fcb55-bf4c-422e-9f7c-c229756dd205","ios":"levelo://app?vid=bc3fcb55-bf4c-422e-9f7c-c229756dd205"},"vehicle_type_id":"4","last_reported":1749809510,"current_range_meters":24000,"station_id":"ce4bhsh2rcd13ifvqi2g","pricing_plan_id":"cebpf4jnsgd1na2vs0mg"},{"bike_id":"3855c405-52b2-4d19-bed0-d892587b478c","system_id":"levelo_inurba_marseille","lat":43.29897,"lon":5.3813,"is_reserved":false,"is_disabled":false,"rental_uris":{"android":"levelo://app?vid=3855c405-52b2-4d19-bed0-d892587b478c","ios":"levelo://app?vid=3855c405-52b2-4d19-bed0-d892587b478c"},"vehicle_type_id":"4","last_reported":1749809510,"current_range_meters":24400,"station_id":"ce4bgj12rcd13ifvqbc0","pricing_plan_id":"cebpf4jnsgd1na2vs0mg"},{"bike_id":"b6dd7842-2a8a-4cee-9157-1a034f9308fe","system_id":"levelo_inurba_marseille","lat":43.29847,"lon":5.36243,"is_reserved":false,"is_disabled":false,"rental_uris":{"android":"levelo://app?vid=b6dd7842-2a8a-4cee-9157-1a034f9308fe","ios":"levelo://app?vid=b6dd7842-2a8a-4cee-9157-1a034f9308fe"},"vehicle_type_id":"4","last_reported":1749809510,"current_range_meters":24400,"station_id":"ce4bgpp2rcd13ifvqc3g","pricing_plan_id":"cebpf4jnsgd1na2vs0mg"},{"bike_id":"2bf16e22-cc2f-4a63-9f88-995e1d1ca9a7","system_id":"levelo_inurba_marseille","lat":43.30783,"lon":5.37641,"is_reserved":false,"is_disabled":false,"rental_uris":{"android":"levelo://app?vid=2bf16e22-cc2f-4a63-9f88-995e1d1ca9a7","ios":"levelo://app?vid=2bf16e22-cc2f-4a63-9f88-995e1d1ca9a7"},"vehicle_type_id":"4","last_reported":1749809510,"current_range_meters":24400,"station_id":"ce4bgv92rcd13ifvqcq0","pricing_plan_id":"cebpf4jnsgd1na2vs0mg"},{"bike_id":"1953a1f4-92c4-434b-83ba-fe0f3e26e291","system_id":"levelo_inurba_marseille","lat":43.30269,"lon":5.40072,"is_reserved":false,"is_disabled":false,"rental_uris":{"android":"levelo://app?vid=1953a1f4-92c4-434b-83ba-fe0f3e26e291","ios":"levelo://app?vid=1953a1f4-92c4-434b-83ba-fe0f3e26e291"},"vehicle_type_id":"4","last_reported":1749809510,"current_range_meters":24400,"station_id":"ce4bgvh2rcd13ifvqcs0","pricing_plan_id":"cebpf4jnsgd1na2vs0mg"},{"bike_id":"a2f3a014-ad00-45bc-b85c-68135bebb834","system_id":"levelo_inurba_marseille","lat":43.29058,"lon":5.37158,"is_reserved":false,"is_disabled":false,"rental_uris":{"android":"levelo://app?vid=a2f3a014-ad00-45bc-b85c-68135bebb834","ios":"levelo://app?vid=a2f3a014-ad00-45bc-b85c-68135bebb834"},"vehicle_type_id":"4","last_reported":1749809510,"current_range_meters":24400,"station_id":"ce4bh5p2rcd13ifvqe4g","pricing_plan_id":"cebpf4jnsgd1na2vs0mg"},{"bike_id":"c3af1537-3222-4e6e-b2e4-32099471f1ee","system_id":"levelo_inurba_marseille","lat":43.29275,"lon":5.36839,"is_reserved":false,"is_disabled":false,"rental_uris":{"android":"levelo://app?vid=c3af1537-3222-4e6e-b2e4-32099471f1ee","ios":"levelo://app?vid=c3af1537-3222-4e6e-b2e4-32099471f1ee"},"vehicle_type_id":"4","last_reported":1749809510,"current_range_meters":24400,"station_id":"ce4bhbp2rcd13ifvqesg","pricing_plan_id":"cebpf4jnsgd1na2vs0mg"},{"bike_id":"96055076-f33e-4bc8-8186-43401217e492","system_id":"levelo_inurba_marseille","lat":43.2798,"lon":5.38728,"is_reserved":false,"is_disabled":false,"rental_uris":{"android":"levelo://app?vid=96055076-f33e-4bc8-8186-43401217e492","ios":"levelo://app?vid=96055076-f33e-4bc8-8186-43401217e492"},"vehicle_type_id":"4","last_reported":1749809510,"current_range_meters":24400,"station_id":"ce4bhg12rcd13ifvqf80","pricing_plan_id":"cebpf4jnsgd1na2vs0mg"},{"bike_id":"ae4a6b74-6f75-4ea4-89ab-161b49657272","system_id":"levelo_inurba_marseille","lat":43.24166,"lon":5.39718,"is_reserved":false,"is_disabled":false,"rental_uris":{"android":"levelo://app?vid=ae4a6b74-6f75-4ea4-89ab-161b49657272","ios":"levelo://app?vid=ae4a6b74-6f75-4ea4-89ab-161b49657272"},"vehicle_type_id":"4","last_reported":1749809510,"current_range_meters":24400,"station_id":"ce4bhn12rcd13ifvqgpg","pricing_plan_id":"cebpf4jnsgd1na2vs0mg"},{"bike_id":"7823edb3-6df1-4da3-8c3d-83d1bdb86b02","system_id":"levelo_inurba_marseille","lat":43.23189,"lon":5.39986,"is_reserved":false,"is_disabled":false,"rental_uris":{"android":"levelo://app?vid=7823edb3-6df1-4da3-8c3d-83d1bdb86b02","ios":"levelo://app?vid=7823edb3-6df1-4da3-8c3d-83d1bdb86b02"},"vehicle_type_id":"4","last_reported":1749809510,"current_range_meters":24400,"station_id":"ce4bhn12rcd13ifvqgqg","pricing_plan_id":"cebpf4jnsgd1na2vs0mg"},{"bike_id":"5381b96c-848a-4ae2-aa7a-c12d7ddad5b0","system_id":"levelo_inurba_marseille","lat":43.27819,"lon":5.40706,"is_reserved":false,"is_disabled":false,"rental_uris":{"android":"levelo://app?vid=5381b96c-848a-4ae2-aa7a-c12d7ddad5b0","ios":"levelo://app?vid=5381b96c-848a-4ae2-aa7a-c12d7ddad5b0"},"vehicle_type_id":"4","last_reported":1749809510,"current_range_meters":24400,"station_id":"ce4bhnh2rcd13ifvqgtg","pricing_plan_id":"cebpf4jnsgd1na2vs0mg"},{"bike_id":"1ed50339-c06a-44b0-a4cf-b81384ed3d4d","system_id":"levelo_inurba_marseille","lat":43.33603,"lon":5.41035,"is_reserved":false,"is_disabled":false,"rental_uris":{"android":"levelo://app?vid=1ed50339-c06a-44b0-a4cf-b81384ed3d4d","ios":"levelo://app?vid=1ed50339-c06a-44b0-a4cf-b81384ed3d4d"},"vehicle_type_id":"4","last_reported":1749809510,"current_range_meters":24400,"station_id":"ce4bhqh2rcd13ifvqhmg","pricing_plan_id":"cebpf4jnsgd1na2vs0mg"},{"bike_id":"10495fe8-62a1-4a19-b591-40a05290494c","system_id":"levelo_inurba_marseille","lat":43.33026,"lon":5.39039,"is_reserved":false,"is_disabled":false,"rental_uris":{"android":"levelo://app?vid=10495fe8-62a1-4a19-b591-40a05290494c","ios":"levelo://app?vid=10495fe8-62a1-4a19-b591-40a05290494c"},"vehicle_type_id":"4","last_reported":1749809510,"current_range_meters":24400,"station_id":"ce4bhr92rcd13ifvqhrg","pricing_plan_id":"cebpf4jnsgd1na2vs0mg"},{"bike_id":"c1d62731-2910-46b7-9572-642cc95e5644","system_id":"levelo_inurba_marseille","lat":43.26805,"lon":5.40271,"is_reserved":false,"is_disabled":false,"rental_uris":{"android":"levelo://app?vid=c1d62731-2910-46b7-9572-642cc95e5644","ios":"levelo://app?vid=c1d62731-2910-46b7-9572-642cc95e5644"},"vehicle_type_id":"4","last_reported":1749809510,"current_range_meters":24400,"station_id":"ce501612rcd8frsf0b60","pricing_plan_id":"cebpf4jnsgd1na2vs0mg"},{"bike_id":"67d4735d-a812-4e55-90bc-5641f4e35931","system_id":"levelo_inurba_marseille","lat":43.21208,"lon":5.35029,"is_reserved":false,"is_disabled":false,"rental_uris":{"android":"levelo://app?vid=67d4735d-a812-4e55-90bc-5641f4e35931","ios":"levelo://app?vid=67d4735d-a812-4e55-90bc-5641f4e35931"},"vehicle_type_id":"4","last_reported":1749809510,"current_range_meters":24400,"station_id":"st_cvj6sg6p6f1abm77japg","pricing_plan_id":"cebpf4jnsgd1na2vs0mg"},{"bike_id":"7dd02ef4-1ca3-4db6-9466-8f2e53938487","system_id":"levelo_inurba_marseille","lat":43.297082,"lon":5.376941,"is_reserved":false,"is_disabled":false,"rental_uris":{"android":"levelo://app?vid=7dd02ef4-1ca3-4db6-9466-8f2e53938487","ios":"levelo://app?vid=7dd02ef4-1ca3-4db6-9466-8f2e53938487"},"vehicle_type_id":"4","last_reported":1749809510,"current_range_meters":24800,"station_id":"","pricing_plan_id":"cebpf4jnsgd1na2vs0mg"},{"bike_id":"d605e935-d7e5-4d45-895b-f6125b6358cf","system_id":"levelo_inurba_marseille","lat":43.31405,"lon":5.36677,"is_reserved":false,"is_disabled":false,"rental_uris":{"android":"levelo://app?vid=d605e935-d7e5-4d45-895b-f6125b6358cf","ios":"levelo://app?vid=d605e935-d7e5-4d45-895b-f6125b6358cf"},"vehicle_type_id":"4","last_reported":1749809510,"current_range_meters":24800,"station_id":"","pricing_plan_id":"cebpf4jnsgd1na2vs0mg"},{"bike_id":"f29a7746-f752-482c-a5d1-5218b286d5de","system_id":"levelo_inurba_marseille","lat":43.31982,"lon":5.38746,"is_reserved":false,"is_disabled":false,"rental_uris":{"android":"levelo://app?vid=f29a7746-f752-482c-a5d1-5218b286d5de","ios":"levelo://app?vid=f29a7746-f752-482c-a5d1-5218b286d5de"},"vehicle_type_id":"4","last_reported":1749809510,"current_range_meters":24800,"station_id":"","pricing_plan_id":"cebpf4jnsgd1na2vs0mg"},{"bike_id":"e60ef4d0-232f-4441-9d4f-db494b5704d2","system_id":"levelo_inurba_marseille","lat":43.29259,"lon":5.3761,"is_reserved":false,"is_disabled":false,"rental_uris":{"android":"levelo://app?vid=e60ef4d0-232f-4441-9d4f-db494b5704d2","ios":"levelo://app?vid=e60ef4d0-232f-4441-9d4f-db494b5704d2"},"vehicle_type_id":"4","last_reported":1749809510,"current_range_meters":24800,"station_id":"ce4bgi12rcd13ifvqb80","pricing_plan_id":"cebpf4jnsgd1na2vs0mg"},{"bike_id":"a55628ce-df50-4863-b231-79950b661700","system_id":"levelo_inurba_marseille","lat":43.29746,"lon":5.37706,"is_reserved":false,"is_disabled":false,"rental_uris":{"android":"levelo://app?vid=a55628ce-df50-4863-b231-79950b661700","ios":"levelo://app?vid=a55628ce-df50-4863-b231-79950b661700"},"vehicle_type_id":"4","last_reported":1749809510,"current_range_meters":24800,"station_id":"ce4bgkh2rcd13ifvqbl0","pricing_plan_id":"cebpf4jnsgd1na2vs0mg"},{"bike_id":"d372ef20-9328-463a-b9b2-b4d1690ed363","system_id":"levelo_inurba_marseille","lat":43.30304,"lon":5.36891,"is_reserved":false,"is_disabled":false,"rental_uris":{"android":"levelo://app?vid=d372ef20-9328-463a-b9b2-b4d1690ed363","ios":"levelo://app?vid=d372ef20-9328-463a-b9b2-b4d1690ed363"},"vehicle_type_id":"4","last_reported":1749809510,"current_range_meters":24800,"station_id":"ce4bgqh2rcd13ifvqc5g","pricing_plan_id":"cebpf4jnsgd1na2vs0mg"},{"bike_id":"f6633f07-5e6b-4b92-bddf-7e6222ad7021","system_id":"levelo_inurba_marseille","lat":43.30526,"lon":5.36531,"is_reserved":false,"is_disabled":false,"rental_uris":{"android":"levelo://app?vid=f6633f07-5e6b-4b92-bddf-7e6222ad7021","ios":"levelo://app?vid=f6633f07-5e6b-4b92-bddf-7e6222ad7021"},"vehicle_type_id":"4","last_reported":1749809510,"current_range_meters":24800,"station_id":"ce4bgs12rcd13ifvqcag","pricing_plan_id":"cebpf4jnsgd1na2vs0mg"},{"bike_id":"baffa363-a486-4aab-a4e0-87e795917b93","system_id":"levelo_inurba_marseille","lat":43.29575,"lon":5.39986,"is_reserved":false,"is_disabled":false,"rental_uris":{"android":"levelo://app?vid=baffa363-a486-4aab-a4e0-87e795917b93","ios":"levelo://app?vid=baffa363-a486-4aab-a4e0-87e795917b93"},"vehicle_type_id":"4","last_reported":1749809510,"current_range_meters":24800,"station_id":"ce4bh312rcd13ifvqdj0","pricing_plan_id":"cebpf4jnsgd1na2vs0mg"},{"bike_id":"4e56dd4c-df80-42dc-a319-94da6a9a2b67","system_id":"levelo_inurba_marseille","lat":43.29176,"lon":5.37153,"is_reserved":false,"is_disabled":false,"rental_uris":{"android":"levelo://app?vid=4e56dd4c-df80-42dc-a319-94da6a9a2b67","ios":"levelo://app?vid=4e56dd4c-df80-42dc-a319-94da6a9a2b67"},"vehicle_type_id":"4","last_reported":1749809510,"current_range_meters":24800,"station_id":"ce4bha92rcd13ifvqeh0","pricing_plan_id":"cebpf4jnsgd1na2vs0mg"},{"bike_id":"ab2f7049-ddc1-40f3-ab16-8c82e1d8371e","system_id":"levelo_inurba_marseille","lat":43.28301,"lon":5.35037,"is_reserved":false,"is_disabled":false,"rental_uris":{"android":"levelo://app?vid=ab2f7049-ddc1-40f3-ab16-8c82e1d8371e","ios":"levelo://app?vid=ab2f7049-ddc1-40f3-ab16-8c82e1d8371e"},"vehicle_type_id":"4","last_reported":1749809510,"current_range_meters":24800,"station_id":"ce4bhbp2rcd13ifvqerg","pricing_plan_id":"cebpf4jnsgd1na2vs0mg"},{"bike_id":"cdd790d2-ac13-4e38-a5db-3c61d582f570","system_id":"levelo_inurba_marseille","lat":43.24649,"lon":5.38895,"is_reserved":false,"is_disabled":false,"rental_uris":{"android":"levelo://app?vid=cdd790d2-ac13-4e38-a5db-3c61d582f570","ios":"levelo://app?vid=cdd790d2-ac13-4e38-a5db-3c61d582f570"},"vehicle_type_id":"4","last_reported":1749809510,"current_range_meters":24800,"station_id":"ce4bhg12rcd13ifvqf60","pricing_plan_id":"cebpf4jnsgd1na2vs0mg"},{"bike_id":"bfd92d33-1ccc-4a02-bc1c-8b3e943d6a3d","system_id":"levelo_inurba_marseille","lat":43.24372,"lon":5.37085,"is_reserved":false,"is_disabled":false,"rental_uris":{"android":"levelo://app?vid=bfd92d33-1ccc-4a02-bc1c-8b3e943d6a3d","ios":"levelo://app?vid=bfd92d33-1ccc-4a02-bc1c-8b3e943d6a3d"},"vehicle_type_id":"4","last_reported":1749809510,"current_range_meters":24800,"station_id":"ce4bhhh2rcd13ifvqfk0","pricing_plan_id":"cebpf4jnsgd1na2vs0mg"},{"bike_id":"4fa9d153-3fab-4f32-a831-3e90288ca495","system_id":"levelo_inurba_marseille","lat":43.27809,"lon":5.40701,"is_reserved":false,"is_disabled":false,"rental_uris":{"android":"levelo://app?vid=4fa9d153-3fab-4f32-a831-3e90288ca495","ios":"levelo://app?vid=4fa9d153-3fab-4f32-a831-3e90288ca495"},"vehicle_type_id":"4","last_reported":1749809510,"current_range_meters":24800,"station_id":"ce4bhnh2rcd13ifvqgtg","pricing_plan_id":"cebpf4jnsgd1na2vs0mg"},{"bike_id":"a9c56c7f-1342-488e-8c38-d931d8dbe9dd","system_id":"levelo_inurba_marseille","lat":43.32472,"lon":5.36542,"is_reserved":false,"is_disabled":false,"rental_uris":{"android":"levelo://app?vid=a9c56c7f-1342-488e-8c38-d931d8dbe9dd","ios":"levelo://app?vid=a9c56c7f-1342-488e-8c38-d931d8dbe9dd"},"vehicle_type_id":"4","last_reported":1749809510,"current_range_meters":24800,"station_id":"ce4bhs12rcd13ifvqhvg","pricing_plan_id":"cebpf4jnsgd1na2vs0mg"},{"bike_id":"ef4c4326-47cd-4264-bf86-3cf1e3688fb8","system_id":"levelo_inurba_marseille","lat":43.29745,"lon":5.37686,"is_reserved":false,"is_disabled":false,"rental_uris":{"android":"levelo://app?vid=ef4c4326-47cd-4264-bf86-3cf1e3688fb8","ios":"levelo://app?vid=ef4c4326-47cd-4264-bf86-3cf1e3688fb8"},"vehicle_type_id":"4","last_reported":1749809510,"current_range_meters":25200,"station_id":"ce4bgkh2rcd13ifvqbl0","pricing_plan_id":"cebpf4jnsgd1na2vs0mg"},{"bike_id":"f5e51f90-f2cc-4519-bde0-c48b8125d5c0","system_id":"levelo_inurba_marseille","lat":43.29958,"lon":5.37159,"is_reserved":false,"is_disabled":false,"rental_uris":{"android":"levelo://app?vid=f5e51f90-f2cc-4519-bde0-c48b8125d5c0","ios":"levelo://app?vid=f5e51f90-f2cc-4519-bde0-c48b8125d5c0"},"vehicle_type_id":"4","last_reported":1749809510,"current_range_meters":25200,"station_id":"ce4bgr92rcd13ifvqc7g","pricing_plan_id":"cebpf4jnsgd1na2vs0mg"},{"bike_id":"ffb01909-8bd4-4e03-838e-8213dadcfc91","system_id":"levelo_inurba_marseille","lat":43.29971,"lon":5.37167,"is_reserved":false,"is_disabled":false,"rental_uris":{"android":"levelo://app?vid=ffb01909-8bd4-4e03-838e-8213dadcfc91","ios":"levelo://app?vid=ffb01909-8bd4-4e03-838e-8213dadcfc91"},"vehicle_type_id":"4","last_reported":1749809510,"current_range_meters":25200,"station_id":"ce4bgr92rcd13ifvqc7g","pricing_plan_id":"cebpf4jnsgd1na2vs0mg"},{"bike_id":"fd554d8c-b3f3-40c5-95e6-376479451145","system_id":"levelo_inurba_marseille","lat":43.30516,"lon":5.3669,"is_reserved":false,"is_disabled":false,"rental_uris":{"android":"levelo://app?vid=fd554d8c-b3f3-40c5-95e6-376479451145","ios":"levelo://app?vid=fd554d8c-b3f3-40c5-95e6-376479451145"},"vehicle_type_id":"4","last_reported":1749809510,"current_range_meters":25200,"station_id":"ce4bgrp2rcd13ifvqc9g","pricing_plan_id":"cebpf4jnsgd1na2vs0mg"},{"bike_id":"cdd26a8b-92ec-43ee-b9f3-141fcec355e9","system_id":"levelo_inurba_marseille","lat":43.30941,"lon":5.4014,"is_reserved":false,"is_disabled":false,"rental_uris":{"android":"levelo://app?vid=cdd26a8b-92ec-43ee-b9f3-141fcec355e9","ios":"levelo://app?vid=cdd26a8b-92ec-43ee-b9f3-141fcec355e9"},