{"last_updated":1743153035,"ttl":60,"version":"2.2","data":{"bikes":[{"bike_id":"745db27b-7d09-42e9-857e-1a3c13cd5302","system_id":"levelo_inurba_marseille","lat":43.23194,"lon":5.35557,"is_reserved":false,"is_disabled":false,"rental_uris":{"android":"levelo://app?vid=745db27b-7d09-42e9-857e-1a3c13cd5302","ios":"levelo://app?vid=745db27b-7d09-42e9-857e-1a3c13cd5302"},"vehicle_type_id":"4","last_reported":1743153035,"current_range_meters":2800,"station_id":"ce4bhu92rcd13ifvqi70","pricing_plan_id":"cebpf4jnsgd1na2vs0mg"},{"bike_id":"54fb4077-ac55-454f-a879-15d42654e77b","system_id":"levelo_inurba_marseille","lat":43.305953,"lon":5.393363,"is_reserved":false,"is_disabled":false,"rental_uris":{"android":"levelo://app?vid=54fb4077-ac55-454f-a879-15d42654e77b","ios":"levelo://app?vid=54fb4077-ac55-454f-a879-15d42654e77b"},"vehicle_type_id":"4","last_reported":1743153035,"current_range_meters":2000,"station_id":"ce4bhpp2rcd13ifvqhfg","pricing_plan_id":"cebpf4jnsgd1na2vs0mg"},{"bike_id":"c9b2c00c-c382-4db2-8582-a86a0684c224","system_id":"levelo_inurba_marseille","lat":43.31488,"lon":5.37307,"is_reserved":false,"is_disabled":false,"rental_uris":{"android":"levelo://app?vid=c9b2c00c-c382-4db2-8582-a86a0684c224","ios":"levelo://app?vid=c9b2c00c-c382-4db2-8582-a86a0684c224"},"vehicle_type_id":"4","last_reported":1743153035,"current_range_meters":2800,"station_id":"ce4bgt12rcd13ifvqcd0","pricing_plan_id":"cebpf4jnsgd1na2vs0mg"},{"bike_id":"e95ad95e-8f72-44fc-8b78-489f9fd499d6","system_id":"levelo_inurba_marseille","lat":43.2931,"lon":5.37442,"is_reserved":false,"is_disabled":false,"rental_uris":{"android":"levelo://app?vid=e95ad95e-8f72-44fc-8b78-489f9fd499d6","ios":"levelo://app?vid=e95ad95e-8f72-44fc-8b78-489f9fd499d6"},"vehicle_type_id":"4","last_reported":1743153035,"current_range_meters":2800,"station_id":"ce4bgi12rcd13ifvqb70","pricing_plan_id":"cebpf4jnsgd1na2vs0mg"},{"bike_id":"9b0db4f1-c6a1-4ca7-86c5-ec1daffe0ea2","system_id":"levelo_inurba_marseille","lat":43.25095,"lon":5.395,"is_reserved":false,"is_disabled":false,"rental_uris":{"android":"levelo://app?vid=9b0db4f1-c6a1-4ca7-86c5-ec1daffe0ea2","ios":"levelo://app?vid=9b0db4f1-c6a1-4ca7-86c5-ec1daffe0ea2"},"vehicle_type_id":"4","last_reported":1743153035,"current_range_meters":2800,"station_id":"ce4bhm12rcd13ifvqgkg","pricing_plan_id":"cebpf4jnsgd1na2vs0mg"},{"bike_id":"c30b4351-a752-4c84-8bf9-e20988da7341","system_id":"levelo_inurba_marseille","lat":43.31525,"lon":5.37279,"is_reserved":false,"is_disabled":false,"rental_uris":{"android":"levelo://app?vid=c30b4351-a752-4c84-8bf9-e20988da7341","ios":"levelo://app?vid=c30b4351-a752-4c84-8bf9-e20988da7341"},"vehicle_type_id":"4","last_reported":1743153035,"current_range_meters":2800,"station_id":"","pricing_plan_id":"cebpf4jnsgd1na2vs0mg"},{"bike_id":"fb13262d-068e-48a7-8009-6b2a59f50d25","system_id":"levelo_inurba_marseille","lat":43.24544,"lon":5.39523,"is_reserved":false,"is_disabled":false,"rental_uris":{"android":"levelo://app?vid=fb13262d-068e-48a7-8009-6b2a59f50d25","ios":"levelo://app?vid=fb13262d-068e-48a7-8009-6b2a59f50d25"},"vehicle_type_id":"4","last_reported":1743153035,"current_range_meters":3200,"station_id":"ce4bhlp2rcd13ifvqgjg","pricing_plan_id":"cebpf4jnsgd1na2vs0mg"},{"bike_id":"70e9e7aa-5ca1-490d-b0f6-e234d70510a0","system_id":"levelo_inurba_marseille","lat":43.28717,"lon":5.37933,"is_reserved":false,"is_disabled":false,"rental_uris":{"android":"levelo://app?vid=70e9e7aa-5ca1-490d-b0f6-e234d70510a0","ios":"levelo://app?vid=70e9e7aa-5ca1-490d-b0f6-e234d70510a0"},"vehicle_type_id":"4","last_reported":1743153035,"current_range_meters":2800,"station_id":"ce4bh9p2rcd13ifvqec0","pricing_plan_id":"cebpf4jnsgd1na2vs0mg"},{"bike_id":"cda3078a-2d37-41a5-946f-aad062afbf12","system_id":"levelo_inurba_marseille","lat":43.245469,"lon":5.395217,"is_reserved":false,"is_disabled":false,"rental_uris":{"android":"levelo://app?vid=cda3078a-2d37-41a5-946f-aad062afbf12","ios":"levelo://app?vid=cda3078a-2d37-41a5-946f-aad062afbf12"},"vehicle_type_id":"4","last_reported":1743153035,"current_range_meters":3200,"station_id":"ce4bhlp2rcd13ifvqgjg","pricing_plan_id":"cebpf4jnsgd1na2vs0mg"},{"bike_id":"efb462a8-0c6c-4b02-8e1c-515bf9a5d7f5","system_id":"levelo_inurba_marseille","lat":43.34091,"lon":5.35159,"is_reserved":false,"is_disabled":false,"rental_uris":{"android":"levelo://app?vid=efb462a8-0c6c-4b02-8e1c-515bf9a5d7f5","ios":"levelo://app?vid=efb462a8-0c6c-4b02-8e1c-515bf9a5d7f5"},"vehicle_type_id":"4","last_reported":1743153035,"current_range_meters":3200,"station_id":"","pricing_plan_id":"cebpf4jnsgd1na2vs0mg"},{"bike_id":"431173a4-f49d-408e-bec4-fc5a6d668771","system_id":"levelo_inurba_marseille","lat":43.29079,"lon":5.38135,"is_reserved":false,"is_disabled":false,"rental_uris":{"android":"levelo://app?vid=431173a4-f49d-408e-bec4-fc5a6d668771","ios":"levelo://app?vid=431173a4-f49d-408e-bec4-fc5a6d668771"},"vehicle_type_id":"4","last_reported":1743153035,"current_range_meters":3200,"station_id":"ce4bh512rcd13ifvqe2g","pricing_plan_id":"cebpf4jnsgd1na2vs0mg"},{"bike_id":"537a8f2d-6144-435c-8a52-7df3c3126b6b","system_id":"levelo_inurba_marseille","lat":43.251107,"lon":5.403179,"is_reserved":false,"is_disabled":false,"rental_uris":{"android":"levelo://app?vid=537a8f2d-6144-435c-8a52-7df3c3126b6b","ios":"levelo://app?vid=537a8f2d-6144-435c-8a52-7df3c3126b6b"},"vehicle_type_id":"4","last_reported":1743153035,"current_range_meters":1200,"station_id":"ce4bhmp2rcd13ifvqgog","pricing_plan_id":"cebpf4jnsgd1na2vs0mg"},{"bike_id":"a02f1b0a-c21f-4ed4-8bc0-3a683a422f94","system_id":"levelo_inurba_marseille","lat":43.29574,"lon":5.37506,"is_reserved":false,"is_disabled":false,"rental_uris":{"android":"levelo://app?vid=a02f1b0a-c21f-4ed4-8bc0-3a683a422f94","ios":"levelo://app?vid=a02f1b0a-c21f-4ed4-8bc0-3a683a422f94"},"vehicle_type_id":"4","last_reported":1743153035,"current_range_meters":3200,"station_id":"ce4bgh92rcd13ifvqb50","pricing_plan_id":"cebpf4jnsgd1na2vs0mg"},{"bike_id":"dc8ccdc9-a018-4504-b0a9-676297905591","system_id":"levelo_inurba_marseille","lat":43.29288,"lon":5.36982,"is_reserved":false,"is_disabled":false,"rental_uris":{"android":"levelo://app?vid=dc8ccdc9-a018-4504-b0a9-676297905591","ios":"levelo://app?vid=dc8ccdc9-a018-4504-b0a9-676297905591"},"vehicle_type_id":"4","last_reported":1743153035,"current_range_meters":3200,"station_id":"","pricing_plan_id":"cebpf4jnsgd1na2vs0mg"},{"bike_id":"0a645c5c-d3aa-4079-b2af-e406b406335c","system_id":"levelo_inurba_marseille","lat":43.23177,"lon":5.39985,"is_reserved":false,"is_disabled":false,"rental_uris":{"android":"levelo://app?vid=0a645c5c-d3aa-4079-b2af-e406b406335c","ios":"levelo://app?vid=0a645c5c-d3aa-4079-b2af-e406b406335c"},"vehicle_type_id":"4","last_reported":1743153035,"current_range_meters":3200,"station_id":"ce4bhn12rcd13ifvqgqg","pricing_plan_id":"cebpf4jnsgd1na2vs0mg"},{"bike_id":"a8e8628c-03e5-429b-866a-ac97beee6f08","system_id":"levelo_inurba_marseille","lat":43.29706,"lon":5.37691,"is_reserved":false,"is_disabled":false,"rental_uris":{"android":"levelo://app?vid=a8e8628c-03e5-429b-866a-ac97beee6f08","ios":"levelo://app?vid=a8e8628c-03e5-429b-866a-ac97beee6f08"},"vehicle_type_id":"4","last_reported":1743153035,"current_range_meters":3200,"station_id":"ce4bgkh2rcd13ifvqbl0","pricing_plan_id":"cebpf4jnsgd1na2vs0mg"},{"bike_id":"7af5af8d-0ade-47ab-9243-72a977ca2327","system_id":"levelo_inurba_marseille","lat":43.23183,"lon":5.39982,"is_reserved":false,"is_disabled":true,"rental_uris":{"android":"levelo://app?vid=7af5af8d-0ade-47ab-9243-72a977ca2327","ios":"levelo://app?vid=7af5af8d-0ade-47ab-9243-72a977ca2327"},"vehicle_type_id":"4","last_reported":1743153035,"current_range_meters":3600,"station_id":"ce4bhn12rcd13ifvqgqg","pricing_plan_id":"cebpf4jnsgd1na2vs0mg"},{"bike_id":"c752cc87-456e-4134-9a44-62eff5dadbd0","system_id":"levelo_inurba_marseille","lat":43.27816,"lon":5.4066,"is_reserved":false,"is_disabled":false,"rental_uris":{"android":"levelo://app?vid=c752cc87-456e-4134-9a44-62eff5dadbd0","ios":"levelo://app?vid=c752cc87-456e-4134-9a44-62eff5dadbd0"},"vehicle_type_id":"4","last_reported":1743153035,"current_range_meters":3600,"station_id":"ce4bhnh2rcd13ifvqgtg","pricing_plan_id":"cebpf4jnsgd1na2vs0mg"},{"bike_id":"d346f533-ad4c-4c12-ab25-0952e7e4c5a7","system_id":"levelo_inurba_marseille","lat":43.28943,"lon":5.39633,"is_reserved":false,"is_disabled":false,"rental_uris":{"android":"levelo://app?vid=d346f533-ad4c-4c12-ab25-0952e7e4c5a7","ios":"levelo://app?vid=d346f533-ad4c-4c12-ab25-0952e7e4c5a7"},"vehicle_type_id":"4","last_reported":1743153035,"current_range_meters":3600,"station_id":"ce4bh3h2rcd13ifvqdn0","pricing_plan_id":"cebpf4jnsgd1na2vs0mg"},{"bike_id":"a49bc79d-3c1c-41aa-a0ba-40d5ff70cdad","system_id":"levelo_inurba_marseille","lat":43.27055,"lon":5.40267,"is_reserved":false,"is_disabled":false,"rental_uris":{"android":"levelo://app?vid=a49bc79d-3c1c-41aa-a0ba-40d5ff70cdad","ios":"levelo://app?vid=a49bc79d-3c1c-41aa-a0ba-40d5ff70cdad"},"vehicle_type_id":"4","last_reported":1743153035,"current_range_meters":3600,"station_id":"ce4bhk92rcd13ifvqgc0","pricing_plan_id":"cebpf4jnsgd1na2vs0mg"},{"bike_id":"4ee7cc2d-e11f-4748-8db1-0e66df9c7317","system_id":"levelo_inurba_marseille","lat":43.24079,"lon":5.37755,"is_reserved":false,"is_disabled":false,"rental_uris":{"android":"levelo://app?vid=4ee7cc2d-e11f-4748-8db1-0e66df9c7317","ios":"levelo://app?vid=4ee7cc2d-e11f-4748-8db1-0e66df9c7317"},"vehicle_type_id":"4","last_reported":1743153035,"current_range_meters":3600,"station_id":"ce4bhnp2rcd13ifvqgvg","pricing_plan_id":"cebpf4jnsgd1na2vs0mg"},{"bike_id":"745a7421-2967-47d1-be3f-28700442013c","system_id":"levelo_inurba_marseille","lat":43.31306,"lon":5.3671,"is_reserved":false,"is_disabled":false,"rental_uris":{"android":"levelo://app?vid=745a7421-2967-47d1-be3f-28700442013c","ios":"levelo://app?vid=745a7421-2967-47d1-be3f-28700442013c"},"vehicle_type_id":"4","last_reported":1743153035,"current_range_meters":3600,"station_id":"ce4bgr92rcd13ifvqc6g","pricing_plan_id":"cebpf4jnsgd1na2vs0mg"},{"bike_id":"1d0a0d01-e86e-411d-b5ed-544f66893178","system_id":"levelo_inurba_marseille","lat":43.2838,"lon":5.38107,"is_reserved":false,"is_disabled":false,"rental_uris":{"android":"levelo://app?vid=1d0a0d01-e86e-411d-b5ed-544f66893178","ios":"levelo://app?vid=1d0a0d01-e86e-411d-b5ed-544f66893178"},"vehicle_type_id":"4","last_reported":1743153035,"current_range_meters":3600,"station_id":"ce4bh412rcd13ifvqdr0","pricing_plan_id":"cebpf4jnsgd1na2vs0mg"},{"bike_id":"35839a26-4f2a-4f6b-b055-dfb39b8593a4","system_id":"levelo_inurba_marseille","lat":43.24078,"lon":5.3777,"is_reserved":false,"is_disabled":false,"rental_uris":{"android":"levelo://app?vid=35839a26-4f2a-4f6b-b055-dfb39b8593a4","ios":"levelo://app?vid=35839a26-4f2a-4f6b-b055-dfb39b8593a4"},"vehicle_type_id":"4","last_reported":1743153035,"current_range_meters":3600,"station_id":"ce4bhnp2rcd13ifvqgvg","pricing_plan_id":"cebpf4jnsgd1na2vs0mg"},{"bike_id":"e63431d9-85ac-4576-a79b-2f06b3baa17b","system_id":"levelo_inurba_marseille","lat":43.24999,"lon":5.38934,"is_reserved":false,"is_disabled":false,"rental_uris":{"android":"levelo://app?vid=e63431d9-85ac-4576-a79b-2f06b3baa17b","ios":"levelo://app?vid=e63431d9-85ac-4576-a79b-2f06b3baa17b"},"vehicle_type_id":"4","last_reported":1743153035,"current_range_meters":4000,"station_id":"ce4bhgp2rcd13ifvqfd0","pricing_plan_id":"cebpf4jnsgd1na2vs0mg"},{"bike_id":"f7af7278-4dd4-4ae0-b1f9-972ee37c2718","system_id":"levelo_inurba_marseille","lat":43.27964,"lon":5.38711,"is_reserved":false,"is_disabled":false,"rental_uris":{"android":"levelo://app?vid=f7af7278-4dd4-4ae0-b1f9-972ee37c2718","ios":"levelo://app?vid=f7af7278-4dd4-4ae0-b1f9-972ee37c2718"},"vehicle_type_id":"4","last_reported":1743153035,"current_range_meters":4000,"station_id":"ce4bhg12rcd13ifvqf80","pricing_plan_id":"cebpf4jnsgd1na2vs0mg"},{"bike_id":"84a7a785-5392-42bc-8088-fb903bcc7f5c","system_id":"levelo_inurba_marseille","lat":43.23073,"lon":5.35503,"is_reserved":false,"is_disabled":false,"rental_uris":{"android":"levelo://app?vid=84a7a785-5392-42bc-8088-fb903bcc7f5c","ios":"levelo://app?vid=84a7a785-5392-42bc-8088-fb903bcc7f5c"},"vehicle_type_id":"4","last_reported":1743153035,"current_range_meters":4000,"station_id":"cpo3342slgdg3j2ifvpg","pricing_plan_id":"cebpf4jnsgd1na2vs0mg"},{"bike_id":"38b6247d-7a08-4407-867b-6e9cb2228b7f","system_id":"levelo_inurba_marseille","lat":43.24047,"lon":5.37729,"is_reserved":false,"is_disabled":false,"rental_uris":{"android":"levelo://app?vid=38b6247d-7a08-4407-867b-6e9cb2228b7f","ios":"levelo://app?vid=38b6247d-7a08-4407-867b-6e9cb2228b7f"},"vehicle_type_id":"4","last_reported":1743153035,"current_range_meters":4000,"station_id":"ce4bhnp2rcd13ifvqgvg","pricing_plan_id":"cebpf4jnsgd1na2vs0mg"},{"bike_id":"1480555f-1248-4ead-8131-93a0e352e223","system_id":"levelo_inurba_marseille","lat":43.25921,"lon":5.40907,"is_reserved":false,"is_disabled":false,"rental_uris":{"android":"levelo://app?vid=1480555f-1248-4ead-8131-93a0e352e223","ios":"levelo://app?vid=1480555f-1248-4ead-8131-93a0e352e223"},"vehicle_type_id":"4","last_reported":1743153035,"current_range_meters":4000,"station_id":"ce4bhm92rcd13ifvqglg","pricing_plan_id":"cebpf4jnsgd1na2vs0mg"},{"bike_id":"25154bd7-038f-46ca-876e-bbf8dc5c5e16","system_id":"levelo_inurba_marseille","lat":43.290009,"lon":5.356187,"is_reserved":false,"is_disabled":false,"rental_uris":{"android":"levelo://app?vid=25154bd7-038f-46ca-876e-bbf8dc5c5e16","ios":"levelo://app?vid=25154bd7-038f-46ca-876e-bbf8dc5c5e16"},"vehicle_type_id":"4","last_reported":1743153035,"current_range_meters":3600,"station_id":"ce4bgnh2rcd13ifvqc0g","pricing_plan_id":"cebpf4jnsgd1na2vs0mg"},{"bike_id":"7d08bb64-d748-42d7-a2d8-3cb6ffc5cc13","system_id":"levelo_inurba_marseille","lat":43.28938,"lon":5.36635,"is_reserved":false,"is_disabled":false,"rental_uris":{"android":"levelo://app?vid=7d08bb64-d748-42d7-a2d8-3cb6ffc5cc13","ios":"levelo://app?vid=7d08bb64-d748-42d7-a2d8-3cb6ffc5cc13"},"vehicle_type_id":"4","last_reported":1743153035,"current_range_meters":4400,"station_id":"ce4bhap2rcd13ifvqek0","pricing_plan_id":"cebpf4jnsgd1na2vs0mg"},{"bike_id":"1db5b442-75e1-450d-8414-76dbbb7e9339","system_id":"levelo_inurba_marseille","lat":43.30274,"lon":5.37702,"is_reserved":false,"is_disabled":false,"rental_uris":{"android":"levelo://app?vid=1db5b442-75e1-450d-8414-76dbbb7e9339","ios":"levelo://app?vid=1db5b442-75e1-450d-8414-76dbbb7e9339"},"vehicle_type_id":"4","last_reported":1743153035,"current_range_meters":4800,"station_id":"ce4bguh2rcd13ifvqcj0","pricing_plan_id":"cebpf4jnsgd1na2vs0mg"},{"bike_id":"72407b9c-71b7-4feb-83e9-97e5f2a36163","system_id":"levelo_inurba_marseille","lat":43.241675,"lon":5.363933,"is_reserved":false,"is_disabled":false,"rental_uris":{"android":"levelo://app?vid=72407b9c-71b7-4feb-83e9-97e5f2a36163","ios":"levelo://app?vid=72407b9c-71b7-4feb-83e9-97e5f2a36163"},"vehicle_type_id":"4","last_reported":1743153035,"current_range_meters":5600,"station_id":"cpo36qri1sfpv3e86is0","pricing_plan_id":"cebpf4jnsgd1na2vs0mg"},{"bike_id":"c756d32d-efcb-4a9e-8494-37e13de07e39","system_id":"levelo_inurba_marseille","lat":43.26957,"lon":5.38631,"is_reserved":false,"is_disabled":false,"rental_uris":{"android":"levelo://app?vid=c756d32d-efcb-4a9e-8494-37e13de07e39","ios":"levelo://app?vid=c756d32d-efcb-4a9e-8494-37e13de07e39"},"vehicle_type_id":"4","last_reported":1743153035,"current_range_meters":5600,"station_id":"ce4bhh92rcd13ifvqfh0","pricing_plan_id":"cebpf4jnsgd1na2vs0mg"},{"bike_id":"0267f797-b949-453b-b6ff-28fd888d547e","system_id":"levelo_inurba_marseille","lat":43.29337,"lon":5.36818,"is_reserved":false,"is_disabled":false,"rental_uris":{"android":"levelo://app?vid=0267f797-b949-453b-b6ff-28fd888d547e","ios":"levelo://app?vid=0267f797-b949-453b-b6ff-28fd888d547e"},"vehicle_type_id":"4","last_reported":1743153035,"current_range_meters":5600,"station_id":"ce4bhbp2rcd13ifvqesg","pricing_plan_id":"cebpf4jnsgd1na2vs0mg"},{"bike_id":"32e57e81-b647-4cf3-bc50-8bfc15522e5a","system_id":"levelo_inurba_marseille","lat":43.2705,"lon":5.40262,"is_reserved":false,"is_disabled":false,"rental_uris":{"android":"levelo://app?vid=32e57e81-b647-4cf3-bc50-8bfc15522e5a","ios":"levelo://app?vid=32e57e81-b647-4cf3-bc50-8bfc15522e5a"},"vehicle_type_id":"4","last_reported":1743153035,"current_range_meters":5600,"station_id":"ce4bhk92rcd13ifvqgc0","pricing_plan_id":"cebpf4jnsgd1na2vs0mg"},{"bike_id":"8a3b71e0-e9af-42e8-ba18-9fedf3139055","system_id":"levelo_inurba_marseille","lat":43.24065,"lon":5.37765,"is_reserved":false,"is_disabled":false,"rental_uris":{"android":"levelo://app?vid=8a3b71e0-e9af-42e8-ba18-9fedf3139055","ios":"levelo://app?vid=8a3b71e0-e9af-42e8-ba18-9fedf3139055"},"vehicle_type_id":"4","last_reported":1743153035,"current_range_meters":5600,"station_id":"ce4bhnp2rcd13ifvqgvg","pricing_plan_id":"cebpf4jnsgd1na2vs0mg"},{"bike_id":"40046afd-c6aa-43ea-88bd-183a4d2ec61c","system_id":"levelo_inurba_marseille","lat":43.31592,"lon":5.41665,"is_reserved":false,"is_disabled":false,"rental_uris":{"android":"levelo://app?vid=40046afd-c6aa-43ea-88bd-183a4d2ec61c","ios":"levelo://app?vid=40046afd-c6aa-43ea-88bd-183a4d2ec61c"},"vehicle_type_id":"4","last_reported":1743153035,"current_range_meters":6000,"station_id":"","pricing_plan_id":"cebpf4jnsgd1na2vs0mg"},{"bike_id":"d735d5f7-d98c-4561-add6-d8eb3b08b01d","system_id":"levelo_inurba_marseille","lat":43.2512,"lon":5.40317,"is_reserved":false,"is_disabled":false,"rental_uris":{"android":"levelo://app?vid=d735d5f7-d98c-4561-add6-d8eb3b08b01d","ios":"levelo://app?vid=d735d5f7-d98c-4561-add6-d8eb3b08b01d"},"vehicle_type_id":"4","last_reported":1743153035,"current_range_meters":6000,"station_id":"ce4bhlh2rcd13ifvqgig","pricing_plan_id":"cebpf4jnsgd1na2vs0mg"},{"bike_id":"0942869b-a518-4911-b546-0417ca17b221","system_id":"levelo_inurba_marseille","lat":43.289405,"lon":5.364,"is_reserved":false,"is_disabled":false,"rental_uris":{"android":"levelo://app?vid=0942869b-a518-4911-b546-0417ca17b221","ios":"levelo://app?vid=0942869b-a518-4911-b546-0417ca17b221"},"vehicle_type_id":"4","last_reported":1743153035,"current_range_meters":6000,"station_id":"ce4bhc92rcd13ifvqetg","pricing_plan_id":"cebpf4jnsgd1na2vs0mg"},{"bike_id":"33252521-acee-4dd2-90bf-db8d27abb04c","system_id":"levelo_inurba_marseille","lat":43.28266,"lon":5.35062,"is_reserved":false,"is_disabled":false,"rental_uris":{"android":"levelo://app?vid=33252521-acee-4dd2-90bf-db8d27abb04c","ios":"levelo://app?vid=33252521-acee-4dd2-90bf-db8d27abb04c"},"vehicle_type_id":"4","last_reported":1743153035,"current_range_meters":6000,"station_id":"ce4bhbp2rcd13ifvqerg","pricing_plan_id":"cebpf4jnsgd1na2vs0mg"},{"bike_id":"0e173472-5a4b-4021-b0c5-dd55f1f57390","system_id":"levelo_inurba_marseille","lat":43.25096,"lon":5.39521,"is_reserved":false,"is_disabled":false,"rental_uris":{"android":"levelo://app?vid=0e173472-5a4b-4021-b0c5-dd55f1f57390","ios":"levelo://app?vid=0e173472-5a4b-4021-b0c5-dd55f1f57390"},"vehicle_type_id":"4","last_reported":1743153035,"current_range_meters":6000,"station_id":"ce4bhm12rcd13ifvqgkg","pricing_plan_id":"cebpf4jnsgd1na2vs0mg"},{"bike_id":"3e31430f-7ea4-44c6-9fc1-3ce71b892105","system_id":"levelo_inurba_marseille","lat":43.24545,"lon":5.39524,"is_reserved":false,"is_disabled":false,"rental_uris":{"android":"levelo://app?vid=3e31430f-7ea4-44c6-9fc1-3ce71b892105","ios":"levelo://app?vid=3e31430f-7ea4-44c6-9fc1-3ce71b892105"},"vehicle_type_id":"4","last_reported":1743153035,"current_range_meters":6000,"station_id":"ce4bhlp2rcd13ifvqgjg","pricing_plan_id":"cebpf4jnsgd1na2vs0mg"},{"bike_id":"5e7d515b-946e-40cf-99c1-3c51f2270c80","system_id":"levelo_inurba_marseille","lat":43.27373,"lon":5.36262,"is_reserved":false,"is_disabled":false,"rental_uris":{"android":"levelo://app?vid=5e7d515b-946e-40cf-99c1-3c51f2270c80","ios":"levelo://app?vid=5e7d515b-946e-40cf-99c1-3c51f2270c80"},"vehicle_type_id":"4","last_reported":1743153035,"current_range_meters":6000,"station_id":"ce4bhbh2rcd13ifvqeo0","pricing_plan_id":"cebpf4jnsgd1na2vs0mg"},{"bike_id":"ca1a6c50-0178-49a6-87ee-c0bb57eebc7b","system_id":"levelo_inurba_marseille","lat":43.29246,"lon":5.3761,"is_reserved":false,"is_disabled":false,"rental_uris":{"android":"levelo://app?vid=ca1a6c50-0178-49a6-87ee-c0bb57eebc7b","ios":"levelo://app?vid=ca1a6c50-0178-49a6-87ee-c0bb57eebc7b"},"vehicle_type_id":"4","last_reported":1743153035,"current_range_meters":6400,"station_id":"ce4bgi12rcd13ifvqb80","pricing_plan_id":"cebpf4jnsgd1na2vs0mg"},{"bike_id":"4e6faa15-fb9c-4955-93bf-3fbbc874f1da","system_id":"levelo_inurba_marseille","lat":43.27995,"lon":5.38766,"is_reserved":false,"is_disabled":false,"rental_uris":{"android":"levelo://app?vid=4e6faa15-fb9c-4955-93bf-3fbbc874f1da","ios":"levelo://app?vid=4e6faa15-fb9c-4955-93bf-3fbbc874f1da"},"vehicle_type_id":"4","last_reported":1743153035,"current_range_meters":6400,"station_id":"ce4bhg12rcd13ifvqf80","pricing_plan_id":"cebpf4jnsgd1na2vs0mg"},{"bike_id":"99ba283f-adaa-4f97-a965-4d928786afc7","system_id":"levelo_inurba_marseille","lat":43.26957,"lon":5.40251,"is_reserved":false,"is_disabled":false,"rental_uris":{"android":"levelo://app?vid=99ba283f-adaa-4f97-a965-4d928786afc7","ios":"levelo://app?vid=99ba283f-adaa-4f97-a965-4d928786afc7"},"vehicle_type_id":"4","last_reported":1743153035,"current_range_meters":6400,"station_id":"cjm6bp8fraef2m0cb0m0","pricing_plan_id":"cebpf4jnsgd1na2vs0mg"},{"bike_id":"838d50a4-3fd3-48ba-a9af-423ab5abce88","system_id":"levelo_inurba_marseille","lat":43.30947,"lon":5.39035,"is_reserved":false,"is_disabled":false,"rental_uris":{"android":"levelo://app?vid=838d50a4-3fd3-48ba-a9af-423ab5abce88","ios":"levelo://app?vid=838d50a4-3fd3-48ba-a9af-423ab5abce88"},"vehicle_type_id":"4","last_reported":1743153035,"current_range_meters":6400,"station_id":"ce4bgup2rcd13ifvqco0","pricing_plan_id":"cebpf4jnsgd1na2vs0mg"},{"bike_id":"d1ca4654-b80d-41e1-bb33-b43360703e73","system_id":"levelo_inurba_marseille","lat":43.31342,"lon":5.38483,"is_reserved":false,"is_disabled":false,"rental_uris":{"android":"levelo://app?vid=d1ca4654-b80d-41e1-bb33-b43360703e73","ios":"levelo://app?vid=d1ca4654-b80d-41e1-bb33-b43360703e73"},"vehicle_type_id":"4","last_reported":1743153035,"current_range_meters":6000,"station_id":"ce4bgt92rcd13ifvqcf0","pricing_plan_id":"cebpf4jnsgd1na2vs0mg"},{"bike_id":"46c92c67-a9e1-4996-b4c8-2976ff580333","system_id":"levelo_inurba_marseille","lat":43.24078,"lon":5.37735,"is_reserved":false,"is_disabled":false,"rental_uris":{"android":"levelo://app?vid=46c92c67-a9e1-4996-b4c8-2976ff580333","ios":"levelo://app?vid=46c92c67-a9e1-4996-b4c8-2976ff580333"},"vehicle_type_id":"4","last_reported":1743153035,"current_range_meters":6400,"station_id":"ce4bhnp2rcd13ifvqgvg","pricing_plan_id":"cebpf4jnsgd1na2vs0mg"},{"bike_id":"c18155db-65c7-4d5a-8c5b-923eb75c675d","system_id":"levelo_inurba_marseille","lat":43.32145,"lon":5.36778,"is_reserved":false,"is_disabled":false,"rental_uris":{"android":"levelo://app?vid=c18155db-65c7-4d5a-8c5b-923eb75c675d","ios":"levelo://app?vid=c18155db-65c7-4d5a-8c5b-923eb75c675d"},"vehicle_type_id":"4","last_reported":1743153035,"current_range_meters":6400,"station_id":"ce4bhrh2rcd13ifvqhug","pricing_plan_id":"cebpf4jnsgd1na2vs0mg"},{"bike_id":"27b21e06-28c3-4316-8913-c1642119c8d8","system_id":"levelo_inurba_marseille","lat":43.30547,"lon":5.36702,"is_reserved":false,"is_disabled":false,"rental_uris":{"android":"levelo://app?vid=27b21e06-28c3-4316-8913-c1642119c8d8","ios":"levelo://app?vid=27b21e06-28c3-4316-8913-c1642119c8d8"},"vehicle_type_id":"4","last_reported":1743153035,"current_range_meters":6400,"station_id":"ce4bgrp2rcd13ifvqc9g","pricing_plan_id":"cebpf4jnsgd1na2vs0mg"},{"bike_id":"65159b24-7618-4a12-bc42-4942920d95a6","system_id":"levelo_inurba_marseille","lat":43.30948,"lon":5.39042,"is_reserved":false,"is_disabled":false,"rental_uris":{"android":"levelo://app?vid=65159b24-7618-4a12-bc42-4942920d95a6","ios":"levelo://app?vid=65159b24-7618-4a12-bc42-4942920d95a6"},"vehicle_type_id":"4","last_reported":1743153035,"current_range_meters":6800,"station_id":"ce4bgup2rcd13ifvqco0","pricing_plan_id":"cebpf4jnsgd1na2vs0mg"},{"bike_id":"da76ef48-2f92-41cb-b7ea-11e6bb0bc372","system_id":"levelo_inurba_marseille","lat":43.25986,"lon":5.40841,"is_reserved":false,"is_disabled":false,"rental_uris":{"android":"levelo://app?vid=da76ef48-2f92-41cb-b7ea-11e6bb0bc372","ios":"levelo://app?vid=da76ef48-2f92-41cb-b7ea-11e6bb0bc372"},"vehicle_type_id":"4","last_reported":1743153035,"current_range_meters":6800,"station_id":"","pricing_plan_id":"cebpf4jnsgd1na2vs0mg"},{"bike_id":"88fc2327-758a-460e-ba27-0b1912acb605","system_id":"levelo_inurba_marseille","lat":43.29915,"lon":5.37459,"is_reserved":false,"is_disabled":false,"rental_uris":{"android":"levelo://app?vid=88fc2327-758a-460e-ba27-0b1912acb605","ios":"levelo://app?vid=88fc2327-758a-460e-ba27-0b1912acb605"},"vehicle_type_id":"4","last_reported":1743153035,"current_range_meters":6800,"station_id":"ce4bgjh2rcd13ifvqbg0","pricing_plan_id":"cebpf4jnsgd1na2vs0mg"},{"bike_id":"46066b18-564d-4f18-b71c-0abd1e09ec82","system_id":"levelo_inurba_marseille","lat":43.26496,"lon":5.39543,"is_reserved":false,"is_disabled":false,"rental_uris":{"android":"levelo://app?vid=46066b18-564d-4f18-b71c-0abd1e09ec82","ios":"levelo://app?vid=46066b18-564d-4f18-b71c-0abd1e09ec82"},"vehicle_type_id":"4","last_reported":1743153035,"current_range_meters":6800,"station_id":"ce4bhi12rcd13ifvqfq0","pricing_plan_id":"cebpf4jnsgd1na2vs0mg"},{"bike_id":"13bad51c-ec85-4361-a746-a727b5cad436","system_id":"levelo_inurba_marseille","lat":43.27052,"lon":5.40265,"is_reserved":false,"is_disabled":false,"rental_uris":{"android":"levelo://app?vid=13bad51c-ec85-4361-a746-a727b5cad436","ios":"levelo://app?vid=13bad51c-ec85-4361-a746-a727b5cad436"},"vehicle_type_id":"4","last_reported":1743153035,"current_range_meters":6800,"station_id":"ce4bhk92rcd13ifvqgc0","pricing_plan_id":"cebpf4jnsgd1na2vs0mg"},{"bike_id":"83499b64-5aff-4b86-83b7-9242d8770044","system_id":"levelo_inurba_marseille","lat":43.32353,"lon":5.38911,"is_reserved":false,"is_disabled":false,"rental_uris":{"android":"levelo://app?vid=83499b64-5aff-4b86-83b7-9242d8770044","ios":"levelo://app?vid=83499b64-5aff-4b86-83b7-9242d8770044"},"vehicle_type_id":"4","last_reported":1743153035,"current_range_meters":6800,"station_id":"ce4bhqp2rcd13ifvqhog","pricing_plan_id":"cebpf4jnsgd1na2vs0mg"},{"bike_id":"830dfc03-a493-431f-a352-206d93efd128","system_id":"levelo_inurba_marseille","lat":43.26504,"lon":5.39533,"is_reserved":false,"is_disabled":false,"rental_uris":{"android":"levelo://app?vid=830dfc03-a493-431f-a352-206d93efd128","ios":"levelo://app?vid=830dfc03-a493-431f-a352-206d93efd128"},"vehicle_type_id":"4","last_reported":1743153035,"current_range_meters":6800,"station_id":"ce4bhi12rcd13ifvqfq0","pricing_plan_id":"cebpf4jnsgd1na2vs0mg"},{"bike_id":"ad68bb84-3d68-4128-8805-42c8860dcca1","system_id":"levelo_inurba_marseille","lat":43.29257,"lon":5.37619,"is_reserved":false,"is_disabled":false,"rental_uris":{"android":"levelo://app?vid=ad68bb84-3d68-4128-8805-42c8860dcca1","ios":"levelo://app?vid=ad68bb84-3d68-4128-8805-42c8860dcca1"},"vehicle_type_id":"4","last_reported":1743153035,"current_range_meters":6800,"station_id":"ce4bgi12rcd13ifvqb80","pricing_plan_id":"cebpf4jnsgd1na2vs0mg"},{"bike_id":"06e38859-b05f-41e5-93d0-8cf23f110249","system_id":"levelo_inurba_marseille","lat":43.29261,"lon":5.38443,"is_reserved":false,"is_disabled":false,"rental_uris":{"android":"levelo://app?vid=06e38859-b05f-41e5-93d0-8cf23f110249","ios":"levelo://app?vid=06e38859-b05f-41e5-93d0-8cf23f110249"},"vehicle_type_id":"4","last_reported":1743153035,"current_range_meters":6800,"station_id":"ce4bh692rcd13ifvqea0","pricing_plan_id":"cebpf4jnsgd1na2vs0mg"},{"bike_id":"b1b566a9-2c1a-4b5f-a7a9-db0a290bcbe1","system_id":"levelo_inurba_marseille","lat":43.29964,"lon":5.41315,"is_reserved":false,"is_disabled":false,"rental_uris":{"android":"levelo://app?vid=b1b566a9-2c1a-4b5f-a7a9-db0a290bcbe1","ios":"levelo://app?vid=b1b566a9-2c1a-4b5f-a7a9-db0a290bcbe1"},"vehicle_type_id":"4","last_reported":1743153035,"current_range_meters":6400,"station_id":"ce4bhp12rcd13ifvqh9g","pricing_plan_id":"cebpf4jnsgd1na2vs0mg"},{"bike_id":"96d7dd70-de39-4c1b-b759-52047faa8c10","system_id":"levelo_inurba_marseille","lat":43.29705,"lon":5.37699,"is_reserved":false,"is_disabled":false,"rental_uris":{"android":"levelo://app?vid=96d7dd70-de39-4c1b-b759-52047faa8c10","ios":"levelo://app?vid=96d7dd70-de39-4c1b-b759-52047faa8c10"},"vehicle_type_id":"4","last_reported":1743153035,"current_range_meters":6800,"station_id":"ce4bgkh2rcd13ifvqbl0","pricing_plan_id":"cebpf4jnsgd1na2vs0mg"},{"bike_id":"926c304c-a6bb-458a-b848-4f8c537ed1b6","system_id":"levelo_inurba_marseille","lat":43.28569,"lon":5.39497,"is_reserved":false,"is_disabled":false,"rental_uris":{"android":"levelo://app?vid=926c304c-a6bb-458a-b848-4f8c537ed1b6","ios":"levelo://app?vid=926c304c-a6bb-458a-b848-4f8c537ed1b6"},"vehicle_type_id":"4","last_reported":1743153035,"current_range_meters":6800,"station_id":"ce4bh292rcd13ifvqdg0","pricing_plan_id":"cebpf4jnsgd1na2vs0mg"},{"bike_id":"83d5c7e2-d0f3-454f-a357-cd5f0b5613b3","system_id":"levelo_inurba_marseille","lat":43.30537,"lon":5.36696,"is_reserved":false,"is_disabled":false,"rental_uris":{"android":"levelo://app?vid=83d5c7e2-d0f3-454f-a357-cd5f0b5613b3","ios":"levelo://app?vid=83d5c7e2-d0f3-454f-a357-cd5f0b5613b3"},"vehicle_type_id":"4","last_reported":1743153035,"current_range_meters":7200,"station_id":"ce4bgrp2rcd13ifvqc9g","pricing_plan_id":"cebpf4jnsgd1na2vs0mg"},{"bike_id":"91207654-12c6-4c8a-99c4-3fae81878666","system_id":"levelo_inurba_marseille","lat":43.30143,"lon":5.37416,"is_reserved":false,"is_disabled":false,"rental_uris":{"android":"levelo://app?vid=91207654-12c6-4c8a-99c4-3fae81878666","ios":"levelo://app?vid=91207654-12c6-4c8a-99c4-3fae81878666"},"vehicle_type_id":"4","last_reported":1743153035,"current_range_meters":7200,"station_id":"ce4bgs92rcd13ifvqcc0","pricing_plan_id":"cebpf4jnsgd1na2vs0mg"},{"bike_id":"ed7ca865-6b33-4515-af38-bd3eca84b8bd","system_id":"levelo_inurba_marseille","lat":43.24196,"lon":5.39717,"is_reserved":false,"is_disabled":false,"rental_uris":{"android":"levelo://app?vid=ed7ca865-6b33-4515-af38-bd3eca84b8bd","ios":"levelo://app?vid=ed7ca865-6b33-4515-af38-bd3eca84b8bd"},"vehicle_type_id":"4","last_reported":1743153035,"current_range_meters":7200,"station_id":"ce4bhn12rcd13ifvqgpg","pricing_plan_id":"cebpf4jnsgd1na2vs0mg"},{"bike_id":"98f27b76-0478-4f26-b092-9a284477e91f","system_id":"levelo_inurba_marseille","lat":43.30142,"lon":5.37415,"is_reserved":false,"is_disabled":false,"rental_uris":{"android":"levelo://app?vid=98f27b76-0478-4f26-b092-9a284477e91f","ios":"levelo://app?vid=98f27b76-0478-4f26-b092-9a284477e91f"},"vehicle_type_id":"4","last_reported":1743153035,"current_range_meters":7200,"station_id":"ce4bgs92rcd13ifvqcc0","pricing_plan_id":"cebpf4jnsgd1na2vs0mg"},{"bike_id":"2079e143-15fb-4fca-b428-1dcdbd2da2aa","system_id":"levelo_inurba_marseille","lat":43.2787,"lon":5.40721,"is_reserved":false,"is_disabled":false,"rental_uris":{"android":"levelo://app?vid=2079e143-15fb-4fca-b428-1dcdbd2da2aa","ios":"levelo://app?vid=2079e143-15fb-4fca-b428-1dcdbd2da2aa"},"vehicle_type_id":"4","last_reported":1743153035,"current_range_meters":7200,"station_id":"ce4bhnh2rcd13ifvqgtg","pricing_plan_id":"cebpf4jnsgd1na2vs0mg"},{"bike_id":"6f4c3f5f-cffd-40dc-9f5d-aae0255e2fd2","system_id":"levelo_inurba_marseille","lat":43.30905,"lon":5.3685,"is_reserved":false,"is_disabled":false,"rental_uris":{"android":"levelo://app?vid=6f4c3f5f-cffd-40dc-9f5d-aae0255e2fd2","ios":"levelo://app?vid=6f4c3f5f-cffd-40dc-9f5d-aae0255e2fd2"},"vehicle_type_id":"4","last_reported":1743153035,"current_range_meters":7200,"station_id":"ce4bgn92rcd13ifvqbvg","pricing_plan_id":"cebpf4jnsgd1na2vs0mg"},{"bike_id":"0d268bc8-088b-4f54-90a0-0d14ccc60ae3","system_id":"levelo_inurba_marseille","lat":43.29286,"lon":5.37472,"is_reserved":false,"is_disabled":true,"rental_uris":{"android":"levelo://app?vid=0d268bc8-088b-4f54-90a0-0d14ccc60ae3","ios":"levelo://app?vid=0d268bc8-088b-4f54-90a0-0d14ccc60ae3"},"vehicle_type_id":"4","last_reported":1743153035,"current_range_meters":7200,"station_id":"ce4bgi12rcd13ifvqb70","pricing_plan_id":"cebpf4jnsgd1na2vs0mg"},{"bike_id":"21925214-7918-4f03-ae7e-09fa9cf978ff","system_id":"levelo_inurba_marseille","lat":43.24544,"lon":5.39523,"is_reserved":false,"is_disabled":false,"rental_uris":{"android":"levelo://app?vid=21925214-7918-4f03-ae7e-09fa9cf978ff","ios":"levelo://app?vid=21925214-7918-4f03-ae7e-09fa9cf978ff"},"vehicle_type_id":"4","last_reported":1743153035,"current_range_meters":7200,"station_id":"ce4bhlp2rcd13ifvqgjg","pricing_plan_id":"cebpf4jnsgd1na2vs0mg"},{"bike_id":"c5d17eb8-cde1-49a3-9672-ac8d8cf34632","system_id":"levelo_inurba_marseille","lat":43.33456,"lon":5.3997,"is_reserved":false,"is_disabled":false,"rental_uris":{"android":"levelo://app?vid=c5d17eb8-cde1-49a3-9672-ac8d8cf34632","ios":"levelo://app?vid=c5d17eb8-cde1-49a3-9672-ac8d8cf34632"},"vehicle_type_id":"4","last_reported":1743153035,"current_range_meters":7200,"station_id":"","pricing_plan_id":"cebpf4jnsgd1na2vs0mg"},{"bike_id":"e57e0a31-c4f5-4346-ba9d-ac8b130477cc","system_id":"levelo_inurba_marseille","lat":43.2926,"lon":5.40897,"is_reserved":false,"is_disabled":false,"rental_uris":{"android":"levelo://app?vid=e57e0a31-c4f5-4346-ba9d-ac8b130477cc","ios":"levelo://app?vid=e57e0a31-c4f5-4346-ba9d-ac8b130477cc"},"vehicle_type_id":"4","last_reported":1743153035,"current_range_meters":7200,"station_id":"ce4bh192rcd13ifvqdc0","pricing_plan_id":"cebpf4jnsgd1na2vs0mg"},{"bike_id":"48ad2cc7-dc07-49f1-9dac-e1ec557594ee","system_id":"levelo_inurba_marseille","lat":43.26786,"lon":5.39415,"is_reserved":false,"is_disabled":false,"rental_uris":{"android":"levelo://app?vid=48ad2cc7-dc07-49f1-9dac-e1ec557594ee","ios":"levelo://app?vid=48ad2cc7-dc07-49f1-9dac-e1ec557594ee"},"vehicle_type_id":"4","last_reported":1743153035,"current_range_meters":7200,"station_id":"ce4bhh12rcd13ifvqfg0","pricing_plan_id":"cebpf4jnsgd1na2vs0mg"},{"bike_id":"fc8e8371-f4e9-4721-bc19-563801e389dc","system_id":"levelo_inurba_marseille","lat":43.337444,"lon":5.374475,"is_reserved":false,"is_disabled":false,"rental_uris":{"android":"levelo://app?vid=fc8e8371-f4e9-4721-bc19-563801e389dc","ios":"levelo://app?vid=fc8e8371-f4e9-4721-bc19-563801e389dc"},"vehicle_type_id":"4","last_reported":1743153035,"current_range_meters":7200,"station_id":"","pricing_plan_id":"cebpf4jnsgd1na2vs0mg"},{"bike_id":"09a227f9-e81f-4ae4-8d74-65daf422601e","system_id":"levelo_inurba_marseille","lat":43.24813,"lon":5.37455,"is_reserved":false,"is_disabled":false,"rental_uris":{"android":"levelo://app?vid=09a227f9-e81f-4ae4-8d74-65daf422601e","ios":"levelo://app?vid=09a227f9-e81f-4ae4-8d74-65daf422601e"},"vehicle_type_id":"4","last_reported":1743153035,"current_range_meters":8000,"station_id":"ce4bhgh2rcd13ifvqfb0","pricing_plan_id":"cebpf4jnsgd1na2vs0mg"},{"bike_id":"14047aa8-f0ab-4e97-9be1-0de655be94b5","system_id":"levelo_inurba_marseille","lat":43.25923,"lon":5.40909,"is_reserved":false,"is_disabled":false,"rental_uris":{"android":"levelo://app?vid=14047aa8-f0ab-4e97-9be1-0de655be94b5","ios":"levelo://app?vid=14047aa8-f0ab-4e97-9be1-0de655be94b5"},"vehicle_type_id":"4","last_reported":1743153035,"current_range_meters":8000,"station_id":"ce4bhm92rcd13ifvqglg","pricing_plan_id":"cebpf4jnsgd1na2vs0mg"},{"bike_id":"597c4159-84ca-4ec5-b4f4-125fbc1c07ee","system_id":"levelo_inurba_marseille","lat":43.3199,"lon":5.3815,"is_reserved":false,"is_disabled":false,"rental_uris":{"android":"levelo://app?vid=597c4159-84ca-4ec5-b4f4-125fbc1c07ee","ios":"levelo://app?vid=597c4159-84ca-4ec5-b4f4-125fbc1c07ee"},"vehicle_type_id":"4","last_reported":1743153035,"current_range_meters":8000,"station_id":"ce4bhr12rcd13ifvqhpg","pricing_plan_id":"cebpf4jnsgd1na2vs0mg"},{"bike_id":"b6029839-fcd9-4133-b3d6-49460e1fb1ec","system_id":"levelo_inurba_marseille","lat":43.26693,"lon":5.38265,"is_reserved":false,"is_disabled":false,"rental_uris":{"android":"levelo://app?vid=b6029839-fcd9-4133-b3d6-49460e1fb1ec","ios":"levelo://app?vid=b6029839-fcd9-4133-b3d6-49460e1fb1ec"},"vehicle_type_id":"4","last_reported":1743153035,"current_range_meters":8000,"station_id":"ce4bhg92rcd13ifvqf90","pricing_plan_id":"cebpf4jnsgd1na2vs0mg"},{"bike_id":"0ac88cdf-dd3a-494f-aaa5-2b24d1ce393f","system_id":"levelo_inurba_marseille","lat":43.23194,"lon":5.35551,"is_reserved":false,"is_disabled":false,"rental_uris":{"android":"levelo://app?vid=0ac88cdf-dd3a-494f-aaa5-2b24d1ce393f","ios":"levelo://app?vid=0ac88cdf-dd3a-494f-aaa5-2b24d1ce393f"},"vehicle_type_id":"4","last_reported":1743153035,"current_range_meters":8000,"station_id":"ce4bhu92rcd13ifvqi70","pricing_plan_id":"cebpf4jnsgd1na2vs0mg"},{"bike_id":"d8ea4d7e-6c05-40e9-8a96-0fdd508c5abd","system_id":"levelo_inurba_marseille","lat":43.30543,"lon":5.36547,"is_reserved":false,"is_disabled":false,"rental_uris":{"android":"levelo://app?vid=d8ea4d7e-6c05-40e9-8a96-0fdd508c5abd","ios":"levelo://app?vid=d8ea4d7e-6c05-40e9-8a96-0fdd508c5abd"},"vehicle_type_id":"4","last_reported":1743153035,"current_range_meters":8000,"station_id":"ce4bgs12rcd13ifvqcag","pricing_plan_id":"cebpf4jnsgd1na2vs0mg"},{"bike_id":"b2d9411a-8e43-4af1-ad0c-67d1577d2b3d","system_id":"levelo_inurba_marseille","lat":43.30131,"lon":5.37415,"is_reserved":false,"is_disabled":false,"rental_uris":{"android":"levelo://app?vid=b2d9411a-8e43-4af1-ad0c-67d1577d2b3d","ios":"levelo://app?vid=b2d9411a-8e43-4af1-ad0c-67d1577d2b3d"},"vehicle_type_id":"4","last_reported":1743153035,"current_range_meters":8000,"station_id":"ce4bgs92rcd13ifvqcc0","pricing_plan_id":"cebpf4jnsgd1na2vs0mg"},{"bike_id":"b6277294-9c97-4bd2-bb72-519bd900d431","system_id":"levelo_inurba_marseille","lat":43.29311,"lon":5.37437,"is_reserved":false,"is_disabled":true,"rental_uris":{"android":"levelo://app?vid=b6277294-9c97-4bd2-bb72-519bd900d431","ios":"levelo://app?vid=b6277294-9c97-4bd2-bb72-519bd900d431"},"vehicle_type_id":"4","last_reported":1743153035,"current_range_meters":8400,"station_id":"ce4bgi12rcd13ifvqb70","pricing_plan_id":"cebpf4jnsgd1na2vs0mg"},{"bike_id":"57033918-2762-4c17-8dbb-3effd5011f26","system_id":"levelo_inurba_marseille","lat":43.29602,"lon":5.38098,"is_reserved":false,"is_disabled":false,"rental_uris":{"android":"levelo://app?vid=57033918-2762-4c17-8dbb-3effd5011f26","ios":"levelo://app?vid=57033918-2762-4c17-8dbb-3effd5011f26"},"vehicle_type_id":"4","last_reported":1743153035,"current_range_meters":8000,"station_id":"ce4bgl12rcd13ifvqbo0","pricing_plan_id":"cebpf4jnsgd1na2vs0mg"},{"bike_id":"ec940620-2a09-4eae-aace-1a0a72b62180","system_id":"levelo_inurba_marseille","lat":43.30314,"lon":5.40064,"is_reserved":false,"is_disabled":false,"rental_uris":{"android":"levelo://app?vid=ec940620-2a09-4eae-aace-1a0a72b62180","ios":"levelo://app?vid=ec940620-2a09-4eae-aace-1a0a72b62180"},"vehicle_type_id":"4","last_reported":1743153035,"current_range_meters":8400,"station_id":"ce4bgvh2rcd13ifvqcs0","pricing_plan_id":"cebpf4jnsgd1na2vs0mg"},{"bike_id":"7c113d89-7624-4ae2-bdae-cc8558dca43f","system_id":"levelo_inurba_marseille","lat":43.29418,"lon":5.3862,"is_reserved":false,"is_disabled":false,"rental_uris":{"android":"levelo://app?vid=7c113d89-7624-4ae2-bdae-cc8558dca43f","ios":"levelo://app?vid=7c113d89-7624-4ae2-bdae-cc8558dca43f"},"vehicle_type_id":"4","last_reported":1743153035,"current_range_meters":8400,"station_id":"ce4bh2h2rcd13ifvqdh0","pricing_plan_id":"cebpf4jnsgd1na2vs0mg"},{"bike_id":"bc3f138a-3af0-4b4e-9b07-2d2a8e540795","system_id":"levelo_inurba_marseille","lat":43.26483,"lon":5.39561,"is_reserved":false,"is_disabled":true,"rental_uris":{"android":"levelo://app?vid=bc3f138a-3af0-4b4e-9b07-2d2a8e540795","ios":"levelo://app?vid=bc3f138a-3af0-4b4e-9b07-2d2a8e540795"},"vehicle_type_id":"4","last_reported":1743153035,"current_range_meters":8400,"station_id":"ce4bhi12rcd13ifvqfq0","pricing_plan_id":"cebpf4jnsgd1na2vs0mg"},{"bike_id":"88753c20-1be7-4d37-b663-7fcc34f696c6","system_id":"levelo_inurba_marseille","lat":43.24993,"lon":5.38931,"is_reserved":false,"is_disabled":false,"rental_uris":{"android":"levelo://app?vid=88753c20-1be7-4d37-b663-7fcc34f696c6","ios":"levelo://app?vid=88753c20-1be7-4d37-b663-7fcc34f696c6"},"vehicle_type_id":"4","last_reported":1743153035,"current_range_meters":8400,"station_id":"ce4bhgp2rcd13ifvqfd0","pricing_plan_id":"cebpf4jnsgd1na2vs0mg"},{"bike_id":"19221227-42ec-4f4b-8f04-42a0818e22f5","system_id":"levelo_inurba_marseille","lat":43.32138,"lon":5.36764,"is_reserved":false,"is_disabled":false,"rental_uris":{"android":"levelo://app?vid=19221227-42ec-4f4b-8f04-42a0818e22f5","ios":"levelo://app?vid=19221227-42ec-4f4b-8f04-42a0818e22f5"},"vehicle_type_id":"4","last_reported":1743153035,"current_range_meters":8400,"station_id":"ce4bhrh2rcd13ifvqhug","pricing_plan_id":"cebpf4jnsgd1na2vs0mg"},{"bike_id":"64f0ea86-1180-4755-95e1-3cbc9c8d4cf5","system_id":"levelo_inurba_marseille","lat":43.33001,"lon":5.4388,"is_reserved":false,"is_disabled":true,"rental_uris":{"android":"levelo://app?vid=64f0ea86-1180-4755-95e1-3cbc9c8d4cf5","ios":"levelo://app?vid=64f0ea86-1180-4755-95e1-3cbc9c8d4cf5"},"vehicle_type_id":"4","last_reported":1743153035,"current_range_meters":8400,"station_id":"","pricing_plan_id":"cebpf4jnsgd1na2vs0mg"},{"bike_id":"9043c11e-fc9c-4a4f-be86-393f483d3f64","system_id":"levelo_inurba_marseille","lat":43.26949,"lon":5.38628,"is_reserved":false,"is_disabled":false,"rental_uris":{"android":"levelo://app?vid=9043c11e-fc9c-4a4f-be86-393f483d3f64","ios":"levelo://app?vid=9043c11e-fc9c-4a4f-be86-393f483d3f64"},"vehicle_type_id":"4","last_reported":1743153035,"current_range_meters":8400,"station_id":"ce4bhh92rcd13ifvqfh0","pricing_plan_id":"cebpf4jnsgd1na2vs0mg"},{"bike_id":"cd836062-240b-4640-aed0-e185f0ca2adf","system_id":"levelo_inurba_marseille","lat":43.29635,"lon":5.37145,"is_reserved":false,"is_disabled":false,"rental_uris":{"android":"levelo://app?vid=cd836062-240b-4640-aed0-e185f0ca2adf","ios":"levelo://app?vid=cd836062-240b-4640-aed0-e185f0ca2adf"},"vehicle_type_id":"4","last_reported":1743153035,"current_range_meters":8400,"station_id":"ce4bgnh2rcd13ifvqc0g","pricing_plan_id":"cebpf4jnsgd1na2vs0mg"},{"bike_id":"f8ab1687-9879-42fe-8681-c1f261bc3577","system_id":"levelo_inurba_marseille","lat":43.28944,"lon":5.36633,"is_reserved":false,"is_disabled":false,"rental_uris":{"android":"levelo://app?vid=f8ab1687-9879-42fe-8681-c1f261bc3577","ios":"levelo://app?vid=f8ab1687-9879-42fe-8681-c1f261bc3577"},"vehicle_type_id":"4","last_reported":1743153035,"current_range_meters":8400,"station_id":"ce4bhap2rcd13ifvqek0","pricing_plan_id":"cebpf4jnsgd1na2vs0mg"},{"bike_id":"dd40f3ee-8782-4363-beaa-cc753112f747","system_id":"levelo_inurba_marseille","lat":43.30137,"lon":5.39851,"is_reserved":false,"is_disabled":false,"rental_uris":{"android":"levelo://app?vid=dd40f3ee-8782-4363-beaa-cc753112f747","ios":"levelo://app?vid=dd40f3ee-8782-4363-beaa-cc753112f747"},"vehicle_type_id":"4","last_reported":1743153035,"current_range_meters":8800,"station_id":"ce4bh0h2rcd13ifvqd40","pricing_plan_id":"cebpf4jnsgd1na2vs0mg"},{"bike_id":"25c93242-72e6-4525-aea7-7d96e2cd1825","system_id":"levelo_inurba_marseille","lat":43.33053,"lon":5.40848,"is_reserved":false,"is_disabled":false,"rental_uris":{"android":"levelo://app?vid=25c93242-72e6-4525-aea7-7d96e2cd1825","ios":"levelo://app?vid=25c93242-72e6-4525-aea7-7d96e2cd1825"},"vehicle_type_id":"4","last_reported":1743153035,"current_range_meters":8800,"station_id":"","pricing_plan_id":"cebpf4jnsgd1na2vs0mg"},{"bike_id":"e383f73e-c9c6-4093-886d-ee6073163778","system_id":"levelo_inurba_marseille","lat":43.29162,"lon":5.37151,"is_reserved":false,"is_disabled":false,"rental_uris":{"android":"levelo://app?vid=e383f73e-c9c6-4093-886d-ee6073163778","ios":"levelo://app?vid=e383f73e-c9c6-4093-886d-ee6073163778"},"vehicle_type_id":"4","last_reported":1743153035,"current_range_meters":8800,"station_id":"ce4bha92rcd13ifvqeh0","pricing_plan_id":"cebpf4jnsgd1na2vs0mg"},{"bike_id":"aac1584d-7a59-4d95-8bad-c8ebe9b0c822","system_id":"levelo_inurba_marseille","lat":43.33612,"lon":5.41027,"is_reserved":false,"is_disabled":false,"rental_uris":{"android":"levelo://app?vid=aac1584d-7a59-4d95-8bad-c8ebe9b0c822","ios":"levelo://app?vid=aac1584d-7a59-4d95-8bad-c8ebe9b0c822"},"vehicle_type_id":"4","last_reported":1743153035,"current_range_meters":8800,"station_id":"ce4bhqh2rcd13ifvqhmg","pricing_plan_id":"cebpf4jnsgd1na2vs0mg"},{"bike_id":"fbd57be8-12a1-45d0-921b-90333f7acdfe","system_id":"levelo_inurba_marseille","lat":43.290397,"lon":5.399651,"is_reserved":false,"is_disabled":false,"rental_uris":{"android":"levelo://app?vid=fbd57be8-12a1-45d0-921b-90333f7acdfe","ios":"levelo://app?vid=fbd57be8-12a1-45d0-921b-90333f7acdfe"},"vehicle_type_id":"4","last_reported":1743153035,"current_range_meters":8800,"station_id":"ce4bh392rcd13ifvqdm0","pricing_plan_id":"cebpf4jnsgd1na2vs0mg"},{"bike_id":"813634ed-e21d-4b9e-88e8-aa8b87581eb3","system_id":"levelo_inurba_marseille","lat":43.3209,"lon":5.36797,"is_reserved":false,"is_disabled":false,"rental_uris":{"android":"levelo://app?vid=813634ed-e21d-4b9e-88e8-aa8b87581eb3","ios":"levelo://app?vid=813634ed-e21d-4b9e-88e8-aa8b87581eb3"},"vehicle_type_id":"4","last_reported":1743153035,"current_range_meters":9200,"station_id":"ce4bhrh2rcd13ifvqhug","pricing_plan_id":"cebpf4jnsgd1na2vs0mg"},{"bike_id":"f00e0bf1-e77c-4752-8f1b-63a2e565cf51","system_id":"levelo_inurba_marseille","lat":43.27948,"lon":5.387059,"is_reserved":false,"is_disabled":true,"rental_uris":{"android":"levelo://app?vid=f00e0bf1-e77c-4752-8f1b-63a2e565cf51","ios":"levelo://app?vid=f00e0bf1-e77c-4752-8f1b-63a2e565cf51"},"vehicle_type_id":"4","last_reported":1743153035,"current_range_meters":9200,"station_id":"ce4bhg12rcd13ifvqf80","pricing_plan_id":"cebpf4jnsgd1na2vs0mg"},{"bike_id":"861ae205-c318-4688-ac53-947993e1b65f","system_id":"levelo_inurba_marseille","lat":43.24166,"lon":5.3639,"is_reserved":false,"is_disabled":false,"rental_uris":{"android":"levelo://app?vid=861ae205-c318-4688-ac53-947993e1b65f","ios":"levelo://app?vid=861ae205-c318-4688-ac53-947993e1b65f"},"vehicle_type_id":"4","last_reported":1743153035,"current_range_meters":9200,"station_id":"cpo36qri1sfpv3e86is0","pricing_plan_id":"cebpf4jnsgd1na2vs0mg"},{"bike_id":"bc77c38e-7ac8-4135-8642-96b1dae3bdef","system_id":"levelo_inurba_marseille","lat":43.2799,"lon":5.38693,"is_reserved":false,"is_disabled":false,"rental_uris":{"android":"levelo://app?vid=bc77c38e-7ac8-4135-8642-96b1dae3bdef","ios":"levelo://app?vid=bc77c38e-7ac8-4135-8642-96b1dae3bdef"},"vehicle_type_id":"4","last_reported":1743153035,"current_range_meters":9200,"station_id":"ce4bhg12rcd13ifvqf80","pricing_plan_id":"cebpf4jnsgd1na2vs0mg"},{"bike_id":"d2d4ec15-da64-4305-85c8-c60dd8964b05","system_id":"levelo_inurba_marseille","lat":43.30153,"lon":5.37415,"is_reserved":false,"is_disabled":false,"rental_uris":{"android":"levelo://app?vid=d2d4ec15-da64-4305-85c8-c60dd8964b05","ios":"levelo://app?vid=d2d4ec15-da64-4305-85c8-c60dd8964b05"},"vehicle_type_id":"4","last_reported":1743153035,"current_range_meters":9200,"station_id":"ce4bgs92rcd13ifvqcc0","pricing_plan_id":"cebpf4jnsgd1na2vs0mg"},{"bike_id":"706a1c19-2815-4115-881f-f39c33bbc89c","system_id":"levelo_inurba_marseille","lat":43.25939,"lon":5.40902,"is_reserved":false,"is_disabled":false,"rental_uris":{"android":"levelo://app?vid=706a1c19-2815-4115-881f-f39c33bbc89c","ios":"levelo://app?vid=706a1c19-2815-4115-881f-f39c33bbc89c"},"vehicle_type_id":"4","last_reported":1743153035,"current_range_meters":9600,"station_id":"ce4bhm92rcd13ifvqglg","pricing_plan_id":"cebpf4jnsgd1na2vs0mg"},{"bike_id":"da8b323d-b965-46f7-a01d-5a77f9a37144","system_id":"levelo_inurba_marseille","lat":43.25103,"lon":5.4032,"is_reserved":false,"is_disabled":false,"rental_uris":{"android":"levelo://app?vid=da8b323d-b965-46f7-a01d-5a77f9a37144","ios":"levelo://app?vid=da8b323d-b965-46f7-a01d-5a77f9a37144"},"vehicle_type_id":"4","last_reported":1743153035,"current_range_meters":9600,"station_id":"ce4bhlh2rcd13ifvqgig","pricing_plan_id":"cebpf4jnsgd1na2vs0mg"},{"bike_id":"6ce9e7ee-804a-4b60-864b-56790ac76bd2","system_id":"levelo_inurba_marseille","lat":43.31245,"lon":5.36861,"is_reserved":false,"is_disabled":false,"rental_uris":{"android":"levelo://app?vid=6ce9e7ee-804a-4b60-864b-56790ac76bd2","ios":"levelo://app?vid=6ce9e7ee-804a-4b60-864b-56790ac76bd2"},"vehicle_type_id":"4","last_reported":1743153035,"current_range_meters":9600,"station_id":"ce4bgl92rcd13ifvqbq0","pricing_plan_id":"cebpf4jnsgd1na2vs0mg"},{"bike_id":"fcf5f158-cfc8-43cf-a683-a9cd5c3b7365","system_id":"levelo_inurba_marseille","lat":43.3014,"lon":5.37414,"is_reserved":false,"is_disabled":false,"rental_uris":{"android":"levelo://app?vid=fcf5f158-cfc8-43cf-a683-a9cd5c3b7365","ios":"levelo://app?vid=fcf5f158-cfc8-43cf-a683-a9cd5c3b7365"},"vehicle_type_id":"4","last_reported":1743153035,"current_range_meters":9600,"station_id":"ce4bgs92rcd13ifvqcc0","pricing_plan_id":"cebpf4jnsgd1na2vs0mg"},{"bike_id":"2e919ca5-ce98-4c47-a9d7-66e6ab7584e4","system_id":"levelo_inurba_marseille","lat":43.32132,"lon":5.36787,"is_reserved":false,"is_disabled":false,"rental_uris":{"android":"levelo://app?vid=2e919ca5-ce98-4c47-a9d7-66e6ab7584e4","ios":"levelo://app?vid=2e919ca5-ce98-4c47-a9d7-66e6ab7584e4"},"vehicle_type_id":"4","last_reported":1743153035,"current_range_meters":9600,"station_id":"ce4bhrh2rcd13ifvqhug","pricing_plan_id":"cebpf4jnsgd1na2vs0mg"},{"bike_id":"88a5784f-6807-415e-8139-a442d7119eb7","system_id":"levelo_inurba_marseille","lat":43.30598,"lon":5.39337,"is_reserved":false,"is_disabled":true,"rental_uris":{"android":"levelo://app?vid=88a5784f-6807-415e-8139-a442d7119eb7","ios":"levelo://app?vid=88a5784f-6807-415e-8139-a442d7119eb7"},"vehicle_type_id":"4","last_reported":1743153035,"current_range_meters":9600,"station_id":"ce4bh0p2rcd13ifvqd80","pricing_plan_id":"cebpf4jnsgd1na2vs0mg"},{"bike_id":"75b83463-b87a-4afc-850d-758521f62895","system_id":"levelo_inurba_marseille","lat":43.26497,"lon":5.39537,"is_reserved":false,"is_disabled":false,"rental_uris":{"android":"levelo://app?vid=75b83463-b87a-4afc-850d-758521f62895","ios":"levelo://app?vid=75b83463-b87a-4afc-850d-758521f62895"},"vehicle_type_id":"4","last_reported":1743153035,"current_range_meters":9600,"station_id":"ce4bhi12rcd13ifvqfq0","pricing_plan_id":"cebpf4jnsgd1na2vs0mg"},{"bike_id":"4a74370e-ca92-4e0a-83cf-7fbe9f339599","system_id":"levelo_inurba_marseille","lat":43.29262,"lon":5.4091,"is_reserved":false,"is_disabled":false,"rental_uris":{"android":"levelo://app?vid=4a74370e-ca92-4e0a-83cf-7fbe9f339599","ios":"levelo://app?vid=4a74370e-ca92-4e0a-83cf-7fbe9f339599"},"vehicle_type_id":"4","last_reported":1743153035,"current_range_meters":9600,"station_id":"ce4bh192rcd13ifvqdc0","pricing_plan_id":"cebpf4jnsgd1na2vs0mg"},{"bike_id":"0cbb390a-10e7-4f2b-afaa-a61c8b6ab7a9","system_id":"levelo_inurba_marseille","lat":43.30434,"lon":5.37901,"is_reserved":false,"is_disabled":false,"rental_uris":{"android":"levelo://app?vid=0cbb390a-10e7-4f2b-afaa-a61c8b6ab7a9","ios":"levelo://app?vid=0cbb390a-10e7-4f2b-afaa-a61c8b6ab7a9"},"vehicle_type_id":"4","last_reported":1743153035,"current_range_meters":9600,"station_id":"ce4bgup2rcd13ifvqcn0","pricing_plan_id":"cebpf4jnsgd1na2vs0mg"},{"bike_id":"d75f9f5e-4772-4de2-8f78-058b650907ab","system_id":"levelo_inurba_marseille","lat":43.24174,"lon":5.364,"is_reserved":false,"is_disabled":true,"rental_uris":{"android":"levelo://app?vid=d75f9f5e-4772-4de2-8f78-058b650907ab","ios":"levelo://app?vid=d75f9f5e-4772-4de2-8f78-058b650907ab"},"vehicle_type_id":"4","last_reported":1743153035,"current_range_meters":9600,"station_id":"cpo36qri1sfpv3e86is0","pricing_plan_id":"cebpf4jnsgd1na2vs0mg"},{"bike_id":"3dd691de-19a8-4db5-8853-83ae91ff9c7b","system_id":"levelo_inurba_marseille","lat":43.305338,"lon":5.36558,"is_reserved":false,"is_disabled":false,"rental_uris":{"android":"levelo://app?vid=3dd691de-19a8-4db5-8853-83ae91ff9c7b","ios":"levelo://app?vid=3dd691de-19a8-4db5-8853-83ae91ff9c7b"},"vehicle_type_id":"4","last_reported":1743153035,"current_range_meters":9600,"station_id":"ce4bgs12rcd13ifvqcag","pricing_plan_id":"cebpf4jnsgd1na2vs0mg"},{"bike_id":"c22b4d0a-fde4-4768-8f49-cd87581f9a33","system_id":"levelo_inurba_marseille","lat":43.24078,"lon":5.37756,"is_reserved":false,"is_disabled":false,"rental_uris":{"android":"levelo://app?vid=c22b4d0a-fde4-4768-8f49-cd87581f9a33","ios":"levelo://app?vid=c22b4d0a-fde4-4768-8f49-cd87581f9a33"},"vehicle_type_id":"4","last_reported":1743153035,"current_range_meters":9600,"station_id":"ce4bhnp2rcd13ifvqgvg","pricing_plan_id":"cebpf4jnsgd1na2vs0mg"},{"bike_id":"4a42ca1e-41e4-4233-a4bb-a180f04564d6","system_id":"levelo_inurba_marseille","lat":43.29156,"lon":5.37158,"is_reserved":false,"is_disabled":true,"rental_uris":{"android":"levelo://app?vid=4a42ca1e-41e4-4233-a4bb-a180f04564d6","ios":"levelo://app?vid=4a42ca1e-41e4-4233-a4bb-a180f04564d6"},"vehicle_type_id":"4","last_reported":1743153035,"current_range_meters":10000,"station_id":"ce4bha92rcd13ifvqeh0","pricing_plan_id":"cebpf4jnsgd1na2vs0mg"},{"bike_id":"ed3f340d-7b56-49a7-952a-c79c8daa5f0f","system_id":"levelo_inurba_marseille","lat":43.30174,"lon":5.38788,"is_reserved":false,"is_disabled":true,"rental_uris":{"android":"levelo://app?vid=ed3f340d-7b56-49a7-952a-c79c8daa5f0f","ios":"levelo://app?vid=ed3f340d-7b56-49a7-952a-c79c8daa5f0f"},"vehicle_type_id":"4","last_reported":1743153035,"current_range_meters":10000,"station_id":"ce4bghh2rcd13ifvqb60","pricing_plan_id":"cebpf4jnsgd1na2vs0mg"},{"bike_id":"14e8351b-7d71-46ca-82eb-d58cf3fecc4a","system_id":"levelo_inurba_marseille","lat":43.24649,"lon":5.38927,"is_reserved":false,"is_disabled":false,"rental_uris":{"android":"levelo://app?vid=14e8351b-7d71-46ca-82eb-d58cf3fecc4a","ios":"levelo://app?vid=14e8351b-7d71-46ca-82eb-d58cf3fecc4a"},"vehicle_type_id":"4","last_reported":1743153035,"current_range_meters":10000,"station_id":"ce4bhg12rcd13ifvqf60","pricing_plan_id":"cebpf4jnsgd1na2vs0mg"},{"bike_id":"58bbe779-0bb3-4285-9a89-5310df6eee00","system_id":"levelo_inurba_marseille","lat":43.29854,"lon":5.3626,"is_reserved":false,"is_disabled":false,"rental_uris":{"android":"levelo://app?vid=58bbe779-0bb3-4285-9a89-5310df6eee00","ios":"levelo://app?vid=58bbe779-0bb3-4285-9a89-5310df6eee00"},"vehicle_type_id":"4","last_reported":1743153035,"current_range_meters":10000,"station_id":"ce4bgpp2rcd13ifvqc3g","pricing_plan_id":"cebpf4jnsgd1na2vs0mg"},{"bike_id":"2b4511e9-c880-434e-8e7b-7c8ad7cf4cdc","system_id":"levelo_inurba_marseille","lat":43.24071,"lon":5.37759,"is_reserved":false,"is_disabled":false,"rental_uris":{"android":"levelo://app?vid=2b4511e9-c880-434e-8e7b-7c8ad7cf4cdc","ios":"levelo://app?vid=2b4511e9-c880-434e-8e7b-7c8ad7cf4cdc"},"vehicle_type_id":"4","last_reported":1743153035,"current_range_meters":10000,"station_id":"ce4bhnp2rcd13ifvqgvg","pricing_plan_id":"cebpf4jnsgd1na2vs0mg"},{"bike_id":"74bb3be4-214a-4907-a0a6-cb5edcf13a83","system_id":"levelo_inurba_marseille","lat":43.29731,"lon":5.36589,"is_reserved":false,"is_disabled":true,"rental_uris":{"android":"levelo://app?vid=74bb3be4-214a-4907-a0a6-cb5edcf13a83","ios":"levelo://app?vid=74bb3be4-214a-4907-a0a6-cb5edcf13a83"},"vehicle_type_id":"4","last_reported":1743153035,"current_range_meters":10000,"station_id":"ce4bgn12rcd13ifvqbt0","pricing_plan_id":"cebpf4jnsgd1na2vs0mg"},{"bike_id":"39bd3213-cb54-452a-82c9-76db17bf74d5","system_id":"levelo_inurba_marseille","lat":43.30536,"lon":5.36527,"is_reserved":false,"is_disabled":false,"rental_uris":{"android":"levelo://app?vid=39bd3213-cb54-452a-82c9-76db17bf74d5","ios":"levelo://app?vid=39bd3213-cb54-452a-82c9-76db17bf74d5"},"vehicle_type_id":"4","last_reported":1743153035,"current_range_meters":10000,"station_id":"ce4bgs12rcd13ifvqcag","pricing_plan_id":"cebpf4jnsgd1na2vs0mg"},{"bike_id":"1c14bf9c-ada4-4a36-8853-740a1a2c000a","system_id":"levelo_inurba_marseille","lat":43.23183,"lon":5.3557,"is_reserved":false,"is_disabled":false,"rental_uris":{"android":"levelo://app?vid=1c14bf9c-ada4-4a36-8853-740a1a2c000a","ios":"levelo://app?vid=1c14bf9c-ada4-4a36-8853-740a1a2c000a"},"vehicle_type_id":"4","last_reported":1743153035,"current_range_meters":10000,"station_id":"ce4bhu92rcd13ifvqi70","pricing_plan_id":"cebpf4jnsgd1na2vs0mg"},{"bike_id":"b30f95ac-b828-44d6-b742-4883a6572fc6","system_id":"levelo_inurba_marseille","lat":43.270834,"lon":5.427466,"is_reserved":false,"is_disabled":false,"rental_uris":{"android":"levelo://app?vid=b30f95ac-b828-44d6-b742-4883a6572fc6","ios":"levelo://app?vid=b30f95ac-b828-44d6-b742-4883a6572fc6"},"vehicle_type_id":"4","last_reported":1743153035,"current_range_meters":10800,"station_id":"","pricing_plan_id":"cebpf4jnsgd1na2vs0mg"},{"bike_id":"0c7c8c97-c432-41cd-96f5-01a03f56e852","system_id":"levelo_inurba_marseille","lat":43.23821,"lon":5.36166,"is_reserved":false,"is_disabled":false,"rental_uris":{"android":"levelo://app?vid=0c7c8c97-c432-41cd-96f5-01a03f56e852","ios":"levelo://app?vid=0c7c8c97-c432-41cd-96f5-01a03f56e852"},"vehicle_type_id":"4","last_reported":1743153035,"current_range_meters":10800,"station_id":"","pricing_plan_id":"cebpf4jnsgd1na2vs0mg"},{"bike_id":"14e00f19-48fc-4b76-bb6e-3eee4c46cff1","system_id":"levelo_inurba_marseille","lat":43.313293,"lon":5.367474,"is_reserved":false,"is_disabled":false,"rental_uris":{"android":"levelo://app?vid=14e00f19-48fc-4b76-bb6e-3eee4c46cff1","ios":"levelo://app?vid=14e00f19-48fc-4b76-bb6e-3eee4c46cff1"},"vehicle_type_id":"4","last_reported":1743153035,"current_range_meters":10800,"station_id":"ce4bgr92rcd13ifvqc6g","pricing_plan_id":"cebpf4jnsgd1na2vs0mg"},{"bike_id":"b3e7a910-d0a2-4ee6-bf1d-61008af6cd7b","system_id":"levelo_inurba_marseille","lat":43.31196,"lon":5.3684,"is_reserved":false,"is_disabled":false,"rental_uris":{"android":"levelo://app?vid=b3e7a910-d0a2-4ee6-bf1d-61008af6cd7b","ios":"levelo://app?vid=b3e7a910-d0a2-4ee6-bf1d-61008af6cd7b"},"vehicle_type_id":"4","last_reported":1743153035,"current_range_meters":10800,"station_id":"ce4bgl92rcd13ifvqbq0","pricing_plan_id":"cebpf4jnsgd1na2vs0mg"},{"bike_id":"9ef42804-2b13-43c8-9419-a09a6310f258","system_id":"levelo_inurba_marseille","lat":43.290381,"lon":5.399611,"is_reserved":false,"is_disabled":false,"rental_uris":{"android":"levelo://app?vid=9ef42804-2b13-43c8-9419-a09a6310f258","ios":"levelo://app?vid=9ef42804-2b13-43c8-9419-a09a6310f258"},"vehicle_type_id":"4","last_reported":1743153035,"current_range_meters":10800,"station_id":"ce4bh392rcd13ifvqdm0","pricing_plan_id":"cebpf4jnsgd1na2vs0mg"},{"bike_id":"0f1f83e7-db71-4d69-bca1-763d2105909b","system_id":"levelo_inurba_marseille","lat":43.30312,"lon":5.40428,"is_reserved":false,"is_disabled":false,"rental_uris":{"android":"levelo://app?vid=0f1f83e7-db71-4d69-bca1-763d2105909b","ios":"levelo://app?vid=0f1f83e7-db71-4d69-bca1-763d2105909b"},"vehicle_type_id":"4","last_reported":1743153035,"current_range_meters":10800,"station_id":"ce4bh012rcd13ifvqd10","pricing_plan_id":"cebpf4jnsgd1na2vs0mg"},{"bike_id":"2487664b-6ca6-4300-b86d-a9ce75c31f9e","system_id":"levelo_inurba_marseille","lat":43.30527,"lon":5.36535,"is_reserved":false,"is_disabled":false,"rental_uris":{"android":"levelo://app?vid=2487664b-6ca6-4300-b86d-a9ce75c31f9e","ios":"levelo://app?vid=2487664b-6ca6-4300-b86d-a9ce75c31f9e"},"vehicle_type_id":"4","last_reported":1743153035,"current_range_meters":10800,"station_id":"ce4bgs12rcd13ifvqcag","pricing_plan_id":"cebpf4jnsgd1na2vs0mg"},{"bike_id":"43e1916a-026a-473c-bd7c-8eb075e93d8b","system_id":"levelo_inurba_marseille","lat":43.29579,"lon":5.36738,"is_reserved":false,"is_disabled":false,"rental_uris":{"android":"levelo://app?vid=43e1916a-026a-473c-bd7c-8eb075e93d8b","ios":"levelo://app?vid=43e1916a-026a-473c-bd7c-8eb075e93d8b"},"vehicle_type_id":"4","last_reported":1743153035,"current_range_meters":10800,"station_id":"ce4bgph2rcd13ifvqc2g","pricing_plan_id":"cebpf4jnsgd1na2vs0mg"},{"bike_id":"a32dfed9-fff9-4956-8d3a-cbc08255ae84","system_id":"levelo_inurba_marseille","lat":43.30136,"lon":5.37424,"is_reserved":false,"is_disabled":false,"rental_uris":{"android":"levelo://app?vid=a32dfed9-fff9-4956-8d3a-cbc08255ae84","ios":"levelo://app?vid=a32dfed9-fff9-4956-8d3a-cbc08255ae84"},"vehicle_type_id":"4","last_reported":1743153035,"current_range_meters":10800,"station_id":"ce4bgs92rcd13ifvqcc0","pricing_plan_id":"cebpf4jnsgd1na2vs0mg"},{"bike_id":"b6b90b3a-d30a-4973-b307-5dcbb8c8394d","system_id":"levelo_inurba_marseille","lat":43.31321,"lon":5.36721,"is_reserved":false,"is_disabled":false,"rental_uris":{"android":"levelo://app?vid=b6b90b3a-d30a-4973-b307-5dcbb8c8394d","ios":"levelo://app?vid=b6b90b3a-d30a-4973-b307-5dcbb8c8394d"},"vehicle_type_id":"4","last_reported":1743153035,"current_range_meters":11200,"station_id":"ce4bgr92rcd13ifvqc6g","pricing_plan_id":"cebpf4jnsgd1na2vs0mg"},{"bike_id":"c97c28c1-e7cb-4889-9178-00aaca494e86","system_id":"levelo_inurba_marseille","lat":43.29599,"lon":5.38096,"is_reserved":false,"is_disabled":false,"rental_uris":{"android":"levelo://app?vid=c97c28c1-e7cb-4889-9178-00aaca494e86","ios":"levelo://app?vid=c97c28c1-e7cb-4889-9178-00aaca494e86"},"vehicle_type_id":"4","last_reported":1743153035,"current_range_meters":11200,"station_id":"ce4bgl12rcd13ifvqbo0","pricing_plan_id":"cebpf4jnsgd1na2vs0mg"},{"bike_id":"e9414378-1487-46a6-83da-218baf9819bf","system_id":"levelo_inurba_marseille","lat":43.29619,"lon":5.38103,"is_reserved":false,"is_disabled":false,"rental_uris":{"android":"levelo://app?vid=e9414378-1487-46a6-83da-218baf9819bf","ios":"levelo://app?vid=e9414378-1487-46a6-83da-218baf9819bf"},"vehicle_type_id":"4","last_reported":1743153035,"current_range_meters":10800,"station_id":"ce4bgl12rcd13ifvqbo0","pricing_plan_id":"cebpf4jnsgd1na2vs0mg"},{"bike_id":"ed1d9d9d-daf5-4cec-aa3c-6abf72257d10","system_id":"levelo_inurba_marseille","lat":43.28959,"lon":5.3663,"is_reserved":false,"is_disabled":false,"rental_uris":{"android":"levelo://app?vid=ed1d9d9d-daf5-4cec-aa3c-6abf72257d10","ios":"levelo://app?vid=ed1d9d9d-daf5-4cec-aa3c-6abf72257d10"},"vehicle_type_id":"4","last_reported":1743153035,"current_range_meters":11200,"station_id":"ce4bhap2rcd13ifvqek0","pricing_plan_id":"cebpf4jnsgd1na2vs0mg"},{"bike_id":"64f5f101-b622-4bb9-a866-9c8317b34488","system_id":"levelo_inurba_marseille","lat":43.27068,"lon":5.40256,"is_reserved":false,"is_disabled":false,"rental_uris":{"android":"levelo://app?vid=64f5f101-b622-4bb9-a866-9c8317b34488","ios":"levelo://app?vid=64f5f101-b622-4bb9-a866-9c8317b34488"},"vehicle_type_id":"4","last_reported":1743153035,"current_range_meters":11200,"station_id":"ce4bhk92rcd13ifvqgc0","pricing_plan_id":"cebpf4jnsgd1na2vs0mg"},{"bike_id":"3fbcdfd8-5176-471d-aa84-e8e20bb4418e","system_id":"levelo_inurba_marseille","lat":43.320979,"lon":5.367836,"is_reserved":false,"is_disabled":false,"rental_uris":{"android":"levelo://app?vid=3fbcdfd8-5176-471d-aa84-e8e20bb4418e","ios":"levelo://app?vid=3fbcdfd8-5176-471d-aa84-e8e20bb4418e"},"vehicle_type_id":"4","last_reported":1743153035,"current_range_meters":11600,"station_id":"ce4bhrh2rcd13ifvqhug","pricing_plan_id":"cebpf4jnsgd1na2vs0mg"},{"bike_id":"9273320c-2559-4b3d-a105-0371d2118c3d","system_id":"levelo_inurba_marseille","lat":43.262,"lon":5.37452,"is_reserved":false,"is_disabled":false,"rental_uris":{"android":"levelo://app?vid=9273320c-2559-4b3d-a105-0371d2118c3d","ios":"levelo://app?vid=9273320c-2559-4b3d-a105-0371d2118c3d"},"vehicle_type_id":"4","last_reported":1743153035,"current_range_meters":11600,"station_id":"ce4bhgp2rcd13ifvqfc0","pricing_plan_id":"cebpf4jnsgd1na2vs0mg"},{"bike_id":"688f6898-a6dd-41ed-b5ed-ced7a5c1e62b","system_id":"levelo_inurba_marseille","lat":43.28105,"lon":5.37832,"is_reserved":false,"is_disabled":false,"rental_uris":{"android":"levelo://app?vid=688f6898-a6dd-41ed-b5ed-ced7a5c1e62b","ios":"levelo://app?vid=688f6898-a6dd-41ed-b5ed-ced7a5c1e62b"},"vehicle_type_id":"4","last_reported":1743153035,"current_range_meters":11600,"station_id":"ce4bha12rcd13ifvqee0","pricing_plan_id":"cebpf4jnsgd1na2vs0mg"},{"bike_id":"f611067a-900b-460a-be2d-92bf6b12958b","system_id":"levelo_inurba_marseille","lat":43.29704,"lon":5.37704,"is_reserved":false,"is_disabled":false,"rental_uris":{"android":"levelo://app?vid=f611067a-900b-460a-be2d-92bf6b12958b","ios":"levelo://app?vid=f611067a-900b-460a-be2d-92bf6b12958b"},"vehicle_type_id":"4","last_reported":1743153035,"current_range_meters":11600,"station_id":"ce4bgkh2rcd13ifvqbl0","pricing_plan_id":"cebpf4jnsgd1na2vs0mg"},{"bike_id":"aeee719e-56c9-4414-9561-e5b2a78b28a9","system_id":"levelo_inurba_marseille","lat":43.25072,"lon":5.39518,"is_reserved":false,"is_disabled":false,"rental_uris":{"android":"levelo://app?vid=aeee719e-56c9-4414-9561-e5b2a78b28a9","ios":"levelo://app?vid=aeee719e-56c9-4414-9561-e5b2a78b28a9"},"vehicle_type_id":"4","last_reported":1743153035,"current_range_meters":11600,"station_id":"ce4bhm12rcd13ifvqgkg","pricing_plan_id":"cebpf4jnsgd1na2vs0mg"},{"bike_id":"216eaeba-04d3-44f2-a36a-f88578481d0f","system_id":"levelo_inurba_marseille","lat":43.30431,"lon":5.39748,"is_reserved":false,"is_disabled":false,"rental_uris":{"android":"levelo://app?vid=216eaeba-04d3-44f2-a36a-f88578481d0f","ios":"levelo://app?vid=216eaeba-04d3-44f2-a36a-f88578481d0f"},"vehicle_type_id":"4","last_reported":1743153035,"current_range_meters":11600,"station_id":"ce4bh092rcd13ifvqd20","pricing_plan_id":"cebpf4jnsgd1na2vs0mg"},{"bike_id":"5e7b5ecc-9efb-494c-9b7d-951359200b50","system_id":"levelo_inurba_marseille","lat":43.30944,"lon":5.3904,"is_reserved":false,"is_disabled":false,"rental_uris":{"android":"levelo://app?vid=5e7b5ecc-9efb-494c-9b7d-951359200b50","ios":"levelo://app?vid=5e7b5ecc-9efb-494c-9b7d-951359200b50"},"vehicle_type_id":"4","last_reported":1743153035,"current_range_meters":11600,"station_id":"ce4bgup2rcd13ifvqco0","pricing_plan_id":"cebpf4jnsgd1na2vs0mg"},{"bike_id":"16eff94a-4fbb-43d5-8ab4-3805ed7d1e24","system_id":"levelo_inurba_marseille","lat":43.26786,"lon":5.39415,"is_reserved":false,"is_disabled":false,"rental_uris":{"android":"levelo://app?vid=16eff94a-4fbb-43d5-8ab4-3805ed7d1e24","ios":"levelo://app?vid=16eff94a-4fbb-43d5-8ab4-3805ed7d1e24"},"vehicle_type_id":"4","last_reported":1743153035,"current_range_meters":11200,"station_id":"ce4bhh12rcd13ifvqfg0","pricing_plan_id":"cebpf4jnsgd1na2vs0mg"},{"bike_id":"e6c17d3c-9c18-404e-916c-fed90568fee2","system_id":"levelo_inurba_marseille","lat":43.313725,"lon":5.367008,"is_reserved":false,"is_disabled":false,"rental_uris":{"android":"levelo://app?vid=e6c17d3c-9c18-404e-916c-fed90568fee2","ios":"levelo://app?vid=e6c17d3c-9c18-404e-916c-fed90568fee2"},"vehicle_type_id":"4","last_reported":1743153035,"current_range_meters":11600,"station_id":"ce4bgr92rcd13ifvqc6g","pricing_plan_id":"cebpf4jnsgd1na2vs0mg"},{"bike_id":"23740949-7e79-4b56-98ee-1d6fbb724564","system_id":"levelo_inurba_marseille","lat":43.29543,"lon":5.37488,"is_reserved":false,"is_disabled":false,"rental_uris":{"android":"levelo://app?vid=23740949-7e79-4b56-98ee-1d6fbb724564","ios":"levelo://app?vid=23740949-7e79-4b56-98ee-1d6fbb724564"},"vehicle_type_id":"4","last_reported":1743153035,"current_range_meters":12000,"station_id":"ce4bgkp2rcd13ifvqbmg","pricing_plan_id":"cebpf4jnsgd1na2vs0mg"},{"bike_id":"ce697bee-84fd-4927-90be-a7952a0ef0fe","system_id":"levelo_inurba_marseille","lat":43.31334,"lon":5.3671,"is_reserved":false,"is_disabled":false,"rental_uris":{"android":"levelo://app?vid=ce697bee-84fd-4927-90be-a7952a0ef0fe","ios":"levelo://app?vid=ce697bee-84fd-4927-90be-a7952a0ef0fe"},"vehicle_type_id":"4","last_reported":1743153035,"current_range_meters":12000,"station_id":"ce4bgr92rcd13ifvqc6g","pricing_plan_id":"cebpf4jnsgd1na2vs0mg"},{"bike_id":"b5fb04b0-36e0-4476-9ac0-b3cd6f541b22","system_id":"levelo_inurba_marseille","lat":43.31237,"lon":5.36873,"is_reserved":false,"is_disabled":false,"rental_uris":{"android":"levelo://app?vid=b5fb04b0-36e0-4476-9ac0-b3cd6f541b22","ios":"levelo://app?vid=b5fb04b0-36e0-4476-9ac0-b3cd6f541b22"},"vehicle_type_id":"4","last_reported":1743153035,"current_range_meters":12000,"station_id":"ce4bgl92rcd13ifvqbq0","pricing_plan_id":"cebpf4jnsgd1na2vs0mg"},{"bike_id":"b6e24113-a05e-430c-8c85-5c6902d9f70b","system_id":"levelo_inurba_marseille","lat":43.29353,"lon":5.37848,"is_reserved":false,"is_disabled":false,"rental_uris":{"android":"levelo://app?vid=b6e24113-a05e-430c-8c85-5c6902d9f70b","ios":"levelo://app?vid=b6e24113-a05e-430c-8c85-5c6902d9f70b"},"vehicle_type_id":"4","last_reported":1743153035,"current_range_meters":12000,"station_id":"ce4bgjh2rcd13ifvqbf0","pricing_plan_id":"cebpf4jnsgd1na2vs0mg"},{"bike_id":"587204bc-21cb-484b-82ee-6930dcc3efab","system_id":"levelo_inurba_marseille","lat":43.30958,"lon":5.39038,"is_reserved":false,"is_disabled":false,"rental_uris":{"android":"levelo://app?vid=587204bc-21cb-484b-82ee-6930dcc3efab","ios":"levelo://app?vid=587204bc-21cb-484b-82ee-6930dcc3efab"},"vehicle_type_id":"4","last_reported":1743153035,"current_range_meters":12000,"station_id":"ce4bgup2rcd13ifvqco0","pricing_plan_id":"cebpf4jnsgd1na2vs0mg"},{"bike_id":"6cbddcc1-9609-4503-9874-4b78c26df24e","system_id":"levelo_inurba_marseille","lat":43.32133,"lon":5.36759,"is_reserved":false,"is_disabled":false,"rental_uris":{"android":"levelo://app?vid=6cbddcc1-9609-4503-9874-4b78c26df24e","ios":"levelo://app?vid=6cbddcc1-9609-4503-9874-4b78c26df24e"},"vehicle_type_id":"4","last_reported":1743153035,"current_range_meters":12000,"station_id":"ce4bhrh2rcd13ifvqhug","pricing_plan_id":"cebpf4jnsgd1na2vs0mg"},{"bike_id":"24ced0d8-64ea-48bb-b719-1a244ffd6daa","system_id":"levelo_inurba_marseille","lat":43.24803,"lon":5.37455,"is_reserved":false,"is_disabled":false,"rental_uris":{"android":"levelo://app?vid=24ced0d8-64ea-48bb-b719-1a244ffd6daa","ios":"levelo://app?vid=24ced0d8-64ea-48bb-b719-1a244ffd6daa"},"vehicle_type_id":"4","last_reported":1743153035,"current_range_meters":11600,"station_id":"ce4bhgh2rcd13ifvqfb0","pricing_plan_id":"cebpf4jnsgd1na2vs0mg"},{"bike_id":"80fbdcfa-e14f-4547-8e6a-b55e17283472","system_id":"levelo_inurba_marseille","lat":43.33611,"lon":5.41034,"is_reserved":false,"is_disabled":false,"rental_uris":{"android":"levelo://app?vid=80fbdcfa-e14f-4547-8e6a-b55e17283472","ios":"levelo://app?vid=80fbdcfa-e14f-4547-8e6a-b55e17283472"},"vehicle_type_id":"4","last_reported":1743153035,"current_range_meters":12000,"station_id":"ce4bhqh2rcd13ifvqhmg","pricing_plan_id":"cebpf4jnsgd1na2vs0mg"},{"bike_id":"39ea9b72-b36d-4fca-9b38-2d6234508e2b","system_id":"levelo_inurba_marseille","lat":43.27373,"lon":5.36246,"is_reserved":false,"is_disabled":false,"rental_uris":{"android":"levelo://app?vid=39ea9b72-b36d-4fca-9b38-2d6234508e2b","ios":"levelo://app?vid=39ea9b72-b36d-4fca-9b38-2d6234508e2b"},"vehicle_type_id":"4","last_reported":1743153035,"current_range_meters":12000,"station_id":"ce4bhbh2rcd13ifvqeo0","pricing_plan_id":"cebpf4jnsgd1na2vs0mg"},{"bike_id":"68e9fc26-8998-4bf7-8da8-af47209f9b7c","system_id":"levelo_inurba_marseille","lat":43.32091,"lon":5.36792,"is_reserved":false,"is_disabled":false,"rental_uris":{"android":"levelo://app?vid=68e9fc26-8998-4bf7-8da8-af47209f9b7c","ios":"levelo://app?vid=68e9fc26-8998-4bf7-8da8-af47209f9b7c"},"vehicle_type_id":"4","last_reported":1743153035,"current_range_meters":12000,"station_id":"ce4bhrh2rcd13ifvqhug","pricing_plan_id":"cebpf4jnsgd1na2vs0mg"},{"bike_id":"65c86302-8ef0-46f4-ab6e-bac7149a2865","system_id":"levelo_inurba_marseille","lat":43.32124,"lon":5.36793,"is_reserved":false,"is_disabled":false,"rental_uris":{"android":"levelo://app?vid=65c86302-8ef0-46f4-ab6e-bac7149a2865","ios":"levelo://app?vid=65c86302-8ef0-46f4-ab6e-bac7149a2865"},"vehicle_type_id":"4","last_reported":1743153035,"current_range_meters":12000,"station_id":"ce4bhrh2rcd13ifvqhug","pricing_plan_id":"cebpf4jnsgd1na2vs0mg"},{"bike_id":"58643b71-d571-418b-bdee-cb649d06c3ca","system_id":"levelo_inurba_marseille","lat":43.29032,"lon":5.39952,"is_reserved":false,"is_disabled":false,"rental_uris":{"android":"levelo://app?vid=58643b71-d571-418b-bdee-cb649d06c3ca","ios":"levelo://app?vid=58643b71-d571-418b-bdee-cb649d06c3ca"},"vehicle_type_id":"4","last_reported":1743153035,"current_range_meters":12000,"station_id":"ce4bh392rcd13ifvqdm0","pricing_plan_id":"cebpf4jnsgd1na2vs0mg"},{"bike_id":"c527ac51-4362-4d1f-b9e1-306c1ebece74","system_id":"levelo_inurba_marseille","lat":43.29916,"lon":5.4368,"is_reserved":false,"is_disabled":false,"rental_uris":{"android":"levelo://app?vid=c527ac51-4362-4d1f-b9e1-306c1ebece74","ios":"levelo://app?vid=c527ac51-4362-4d1f-b9e1-306c1ebece74"},"vehicle_type_id":"4","last_reported":1743153035,"current_range_meters":12400,"station_id":"","pricing_plan_id":"cebpf4jnsgd1na2vs0mg"},{"bike_id":"6082a6d8-29f3-4441-bd82-d0f95ead75d7","system_id":"levelo_inurba_marseille","lat":43.231865,"lon":5.3557,"is_reserved":false,"is_disabled":false,"rental_uris":{"android":"levelo://app?vid=6082a6d8-29f3-4441-bd82-d0f95ead75d7","ios":"levelo://app?vid=6082a6d8-29f3-4441-bd82-d0f95ead75d7"},"vehicle_type_id":"4","last_reported":1743153035,"current_range_meters":12400,"station_id":"ce4bhu92rcd13ifvqi70","pricing_plan_id":"cebpf4jnsgd1na2vs0mg"},{"bike_id":"67fed4e3-1acb-48c1-9e11-11d9c5d5413b","system_id":"levelo_inurba_marseille","lat":43.231474,"lon":5.43717,"is_reserved":false,"is_disabled":false,"rental_uris":{"android":"levelo://app?vid=67fed4e3-1acb-48c1-9e11-11d9c5d5413b","ios":"levelo://app?vid=67fed4e3-1acb-48c1-9e11-11d9c5d5413b"},"vehicle_type_id":"4","last_reported":1743153035,"current_range_meters":12400,"station_id":"ce4bhmp2rcd13ifvqgog","pricing_plan_id":"cebpf4jnsgd1na2vs0mg"},{"bike_id":"9462a91b-8b4b-430a-ac7a-4612f1bebb31","system_id":"levelo_inurba_marseille","lat":43.29093,"lon":5.38161,"is_reserved":false,"is_disabled":true,"rental_uris":{"android":"levelo://app?vid=9462a91b-8b4b-430a-ac7a-4612f1bebb31","ios":"levelo://app?vid=9462a91b-8b4b-430a-ac7a-4612f1bebb31"},"vehicle_type_id":"4","last_reported":1743153035,"current_range_meters":12400,"station_id":"ce4bh512rcd13ifvqe2g","pricing_plan_id":"cebpf4jnsgd1na2vs0mg"},{"bike_id":"ed5b343e-8271-4d1b-9996-58c77ddfc219","system_id":"levelo_inurba_marseille","lat":43.25931,"lon":5.40904,"is_reserved":false,"is_disabled":false,"rental_uris":{"android":"levelo://app?vid=ed5b343e-8271-4d1b-9996-58c77ddfc219","ios":"levelo://app?vid=ed5b343e-8271-4d1b-9996-58c77ddfc219"},"vehicle_type_id":"4","last_reported":1743153035,"current_range_meters":12400,"station_id":"ce4bhm92rcd13ifvqglg","pricing_plan_id":"cebpf4jnsgd1na2vs0mg"},{"bike_id":"c555f7f8-d41a-4ace-883f-e56ae6139dd1","system_id":"levelo_inurba_marseille","lat":43.29037,"lon":5.37568,"is_reserved":false,"is_disabled":false,"rental_uris":{"android":"levelo://app?vid=c555f7f8-d41a-4ace-883f-e56ae6139dd1","ios":"levelo://app?vid=c555f7f8-d41a-4ace-883f-e56ae6139dd1"},"vehicle_type_id":"4","last_reported":1743153035,"current_range_meters":12400,"station_id":"ce4bh692rcd13ifvqe90","pricing_plan_id":"cebpf4jnsgd1na2vs0mg"},{"bike_id":"a2f01642-5d94-4a73-a1aa-f42d11c7db77","system_id":"levelo_inurba_marseille","lat":43.26783,"lon":5.39409,"is_reserved":false,"is_disabled":false,"rental_uris":{"android":"levelo://app?vid=a2f01642-5d94-4a73-a1aa-f42d11c7db77","ios":"levelo://app?vid=a2f01642-5d94-4a73-a1aa-f42d11c7db77"},"vehicle_type_id":"4","last_reported":1743153035,"current_range_meters":12400,"station_id":"ce4bhh12rcd13ifvqfg0","pricing_plan_id":"cebpf4jnsgd1na2vs0mg"},{"bike_id":"9f2583cf-461d-4d57-8c37-99ef1e89cade","system_id":"levelo_inurba_marseille","lat":43.23189,"lon":5.35541,"is_reserved":false,"is_disabled":false,"rental_uris":{"android":"levelo://app?vid=9f2583cf-461d-4d57-8c37-99ef1e89cade","ios":"levelo://app?vid=9f2583cf-461d-4d57-8c37-99ef1e89cade"},"vehicle_type_id":"4","last_reported":1743153035,"current_range_meters":12400,"station_id":"ce4bhu92rcd13ifvqi70","pricing_plan_id":"cebpf4jnsgd1na2vs0mg"},{"bike_id":"fb348b09-6abb-47a4-a266-91f2eeaee291","system_id":"levelo_inurba_marseille","lat":43.32166,"lon":5.36784,"is_reserved":false,"is_disabled":false,"rental_uris":{"android":"levelo://app?vid=fb348b09-6abb-47a4-a266-91f2eeaee291","ios":"levelo://app?vid=fb348b09-6abb-47a4-a266-91f2eeaee291"},"vehicle_type_id":"4","last_reported":1743153035,"current_range_meters":12800,"station_id":"ce4bhrh2rcd13ifvqhug","pricing_plan_id":"cebpf4jnsgd1na2vs0mg"},{"bike_id":"c452779f-1869-468a-bc1a-a1c333da66e1","system_id":"levelo_inurba_marseille","lat":43.30786,"lon":5.37641,"is_reserved":false,"is_disabled":false,"rental_uris":{"android":"levelo://app?vid=c452779f-1869-468a-bc1a-a1c333da66e1","ios":"levelo://app?vid=c452779f-1869-468a-bc1a-a1c333da66e1"},"vehicle_type_id":"4","last_reported":1743153035,"current_range_meters":12800,"station_id":"ce4bgv92rcd13ifvqcq0","pricing_plan_id":"cebpf4jnsgd1na2vs0mg"},{"bike_id":"86568895-d86b-4269-96e9-976ecfb07dcc","system_id":"levelo_inurba_marseille","lat":43.30902,"lon":5.37182,"is_reserved":false,"is_disabled":false,"rental_uris":{"android":"levelo://app?vid=86568895-d86b-4269-96e9-976ecfb07dcc","ios":"levelo://app?vid=86568895-d86b-4269-96e9-976ecfb07dcc"},"vehicle_type_id":"4","last_reported":1743153035,"current_range_meters":12800,"station_id":"ce4bguh2rcd13ifvqckg","pricing_plan_id":"cebpf4jnsgd1na2vs0mg"},{"bike_id":"ab79c7bb-1730-4a4c-b7ca-6d520982e325","system_id":"levelo_inurba_marseille","lat":43.2404,"lon":5.37741,"is_reserved":false,"is_disabled":false,"rental_uris":{"android":"levelo://app?vid=ab79c7bb-1730-4a4c-b7ca-6d520982e325","ios":"levelo://app?vid=ab79c7bb-1730-4a4c-b7ca-6d520982e325"},"vehicle_type_id":"4","last_reported":1743153035,"current_range_meters":12800,"station_id":"ce4bhnp2rcd13ifvqgvg","pricing_plan_id":"cebpf4jnsgd1na2vs0mg"},{"bike_id":"09c7d7fe-5f38-4c9c-8139-ebed1c3ab803","system_id":"levelo_inurba_marseille","lat":43.25936,"lon":5.40905,"is_reserved":false,"is_disabled":false,"rental_uris":{"android":"levelo://app?vid=09c7d7fe-5f38-4c9c-8139-ebed1c3ab803","ios":"levelo://app?vid=09c7d7fe-5f38-4c9c-8139-ebed1c3ab803"},"vehicle_type_id":"4","last_reported":1743153035,"current_range_meters":12800,"station_id":"ce4bhm92rcd13ifvqglg","pricing_plan_id":"cebpf4jnsgd1na2vs0mg"},{"bike_id":"fc1eb7e2-0c10-413d-97c6-f61d46c8052c","system_id":"levelo_inurba_marseille","lat":43.30892,"lon":5.37194,"is_reserved":false,"is_disabled":false,"rental_uris":{"android":"levelo://app?vid=fc1eb7e2-0c10-413d-97c6-f61d46c8052c","ios":"levelo://app?vid=fc1eb7e2-0c10-413d-97c6-f61d46c8052c"},"vehicle_type_id":"4","last_reported":1743153035,"current_range_meters":12800,"station_id":"ce4bguh2rcd13ifvqckg","pricing_plan_id":"cebpf4jnsgd1na2vs0mg"},{"bike_id":"aed2caaf-e63e-4d9f-9fab-effd4b56045d","system_id":"levelo_inurba_marseille","lat":43.26182,"lon":5.40434,"is_reserved":false,"is_disabled":false,"rental_uris":{"android":"levelo://app?vid=aed2caaf-e63e-4d9f-9fab-effd4b56045d","ios":"levelo://app?vid=aed2caaf-e63e-4d9f-9fab-effd4b56045d"},"vehicle_type_id":"4","last_reported":1743153035,"current_range_meters":12800,"station_id":"ce4bhmh2rcd13ifvqgmg","pricing_plan_id":"cebpf4jnsgd1na2vs0mg"},{"bike_id":"a805ce19-e2cd-467e-88c9-cbd42ac61988","system_id":"levelo_inurba_marseille","lat":43.26784,"lon":5.39414,"is_reserved":false,"is_disabled":false,"rental_uris":{"android":"levelo://app?vid=a805ce19-e2cd-467e-88c9-cbd42ac61988","ios":"levelo://app?vid=a805ce19-e2cd-467e-88c9-cbd42ac61988"},"vehicle_type_id":"4","last_reported":1743153035,"current_range_meters":12800,"station_id":"ce4bhh12rcd13ifvqfg0","pricing_plan_id":"cebpf4jnsgd1na2vs0mg"},{"bike_id":"f101b282-bbfe-4ea0-b97e-68b2ed57eaad","system_id":"levelo_inurba_marseille","lat":43.24995,"lon":5.38934,"is_reserved":false,"is_disabled":false,"rental_uris":{"android":"levelo://app?vid=f101b282-bbfe-4ea0-b97e-68b2ed57eaad","ios":"levelo://app?vid=f101b282-bbfe-4ea0-b97e-68b2ed57eaad"},"vehicle_type_id":"4","last_reported":1743153035,"current_range_meters":12800,"station_id":"ce4bhgp2rcd13ifvqfd0","pricing_plan_id":"cebpf4jnsgd1na2vs0mg"},{"bike_id":"52d3653b-04a8-4ed6-bc62-5cef2a068b3e","system_id":"levelo_inurba_marseille","lat":43.29079,"lon":5.39988,"is_reserved":false,"is_disabled":false,"rental_uris":{"android":"levelo://app?vid=52d3653b-04a8-4ed6-bc62-5cef2a068b3e","ios":"levelo://app?vid=52d3653b-04a8-4ed6-bc62-5cef2a068b3e"},"vehicle_type_id":"4","last_reported":1743153035,"current_range_meters":13600,"station_id":"ce4bh392rcd13ifvqdm0","pricing_plan_id":"cebpf4jnsgd1na2vs0mg"},{"bike_id":"6737211b-f2ae-4895-bfc7-f244bd452108","system_id":"levelo_inurba_marseille","lat":43.32481,"lon":5.36575,"is_reserved":false,"is_disabled":false,"rental_uris":{"android":"levelo://app?vid=6737211b-f2ae-4895-bfc7-f244bd452108","ios":"levelo://app?vid=6737211b-f2ae-4895-bfc7-f244bd452108"},"vehicle_type_id":"4","last_reported":1743153035,"current_range_meters":13600,"station_id":"ce4bhs12rcd13ifvqhvg","pricing_plan_id":"cebpf4jnsgd1na2vs0mg"},{"bike_id":"3114972b-0b02-4c5b-9b20-a020ec789bf1","system_id":"levelo_inurba_marseille","lat":43.29517,"lon":5.37484,"is_reserved":false,"is_disabled":false,"rental_uris":{"android":"levelo://app?vid=3114972b-0b02-4c5b-9b20-a020ec789bf1","ios":"levelo://app?vid=3114972b-0b02-4c5b-9b20-a020ec789bf1"},"vehicle_type_id":"4","last_reported":1743153035,"current_range_meters":12800,"station_id":"ce4bgkp2rcd13ifvqbmg","pricing_plan_id":"cebpf4jnsgd1na2vs0mg"},{"bike_id":"9f4a7ed6-290f-4ac1-b05e-471b2f21c37d","system_id":"levelo_inurba_marseille","lat":43.273749,"lon":5.362612,"is_reserved":false,"is_disabled":false,"rental_uris":{"android":"levelo://app?vid=9f4a7ed6-290f-4ac1-b05e-471b2f21c37d","ios":"levelo://app?vid=9f4a7ed6-290f-4ac1-b05e-471b2f21c37d"},"vehicle_type_id":"4","last_reported":1743153035,"current_range_meters":13600,"station_id":"ce4bhbh2rcd13ifvqeo0","pricing_plan_id":"cebpf4jnsgd1na2vs0mg"},{"bike_id":"7f9d4433-4e2b-4ff0-b944-2dadd6027623","system_id":"levelo_inurba_marseille","lat":43.32091,"lon":5.36813,"is_reserved":false,"is_disabled":false,"rental_uris":{"android":"levelo://app?vid=7f9d4433-4e2b-4ff0-b944-2dadd6027623","ios":"levelo://app?vid=7f9d4433-4e2b-4ff0-b944-2dadd6027623"},"vehicle_type_id":"4","last_reported":1743153035,"current_range_meters":13600,"station_id":"ce4bhrh2rcd13ifvqhug","pricing_plan_id":"cebpf4jnsgd1na2vs0mg"},{"bike_id":"4861722a-9b00-443a-9b83-238a0cb4136e","system_id":"levelo_inurba_marseille","lat":43.30215,"lon":5.36612,"is_reserved":false,"is_disabled":false,"rental_uris":{"android":"levelo://app?vid=4861722a-9b00-443a-9b83-238a0cb4136e","ios":"levelo://app?vid=4861722a-9b00-443a-9b83-238a0cb4136e"},"vehicle_type_id":"4","last_reported":1743153035,"current_range_meters":13600,"station_id":"ce4bgrh2rcd13ifvqc8g","pricing_plan_id":"cebpf4jnsgd1na2vs0mg"},{"bike_id":"c6c8fb31-86de-4758-859b-e74b70125ab7","system_id":"levelo_inurba_marseille","lat":43.32103,"lon":5.3681,"is_reserved":false,"is_disabled":false,"rental_uris":{"android":"levelo://app?vid=c6c8fb31-86de-4758-859b-e74b70125ab7","ios":"levelo://app?vid=c6c8fb31-86de-4758-859b-e74b70125ab7"},"vehicle_type_id":"4","last_reported":1743153035,"current_range_meters":13600,"station_id":"ce4bhrh2rcd13ifvqhug","pricing_plan_id":"cebpf4jnsgd1na2vs0mg"},{"bike_id":"c7347774-7a12-4d41-94eb-c1205378f995","system_id":"levelo_inurba_marseille","lat":43.26697,"lon":5.38265,"is_reserved":false,"is_disabled":false,"rental_uris":{"android":"levelo://app?vid=c7347774-7a12-4d41-94eb-c1205378f995","ios":"levelo://app?vid=c7347774-7a12-4d41-94eb-c1205378f995"},"vehicle_type_id":"4","last_reported":1743153035,"current_range_meters":13600,"station_id":"ce4bhg92rcd13ifvqf90","pricing_plan_id":"cebpf4jnsgd1na2vs0mg"},{"bike_id":"ac776cf5-d9af-47cc-83cc-cf37e00c8684","system_id":"levelo_inurba_marseille","lat":43.2985,"lon":5.36268,"is_reserved":false,"is_disabled":false,"rental_uris":{"android":"levelo://app?vid=ac776cf5-d9af-47cc-83cc-cf37e00c8684","ios":"levelo://app?vid=ac776cf5-d9af-47cc-83cc-cf37e00c8684"},"vehicle_type_id":"4","last_reported":1743153035,"current_range_meters":13600,"station_id":"ce4bgpp2rcd13ifvqc3g","pricing_plan_id":"cebpf4jnsgd1na2vs0mg"},{"bike_id":"e4cda1a5-ed5a-4080-bd26-0b718e550ad4","system_id":"levelo_inurba_marseille","lat":43.28153,"lon":5.42638,"is_reserved":false,"is_disabled":false,"rental_uris":{"android":"levelo://app?vid=e4cda1a5-ed5a-4080-bd26-0b718e550ad4","ios":"levelo://app?vid=e4cda1a5-ed5a-4080-bd26-0b718e550ad4"},"vehicle_type_id":"4","last_reported":1743153035,"current_range_meters":14000,"station_id":"ce4bhnh2rcd13ifvqgug","pricing_plan_id":"cebpf4jnsgd1na2vs0mg"},{"bike_id":"548bc682-8245-484f-aa04-a5cf929d5369","system_id":"levelo_inurba_marseille","lat":43.33601,"lon":5.41035,"is_reserved":false,"is_disabled":false,"rental_uris":{"android":"levelo://app?vid=548bc682-8245-484f-aa04-a5cf929d5369","ios":"levelo://app?vid=548bc682-8245-484f-aa04-a5cf929d5369"},"vehicle_type_id":"4","last_reported":1743153035,"current_range_meters":14000,"station_id":"ce4bhqh2rcd13ifvqhmg","pricing_plan_id":"cebpf4jnsgd1na2vs0mg"},{"bike_id":"90308d72-7395-4591-b080-8ec165e26440","system_id":"levelo_inurba_marseille","lat":43.28267,"lon":5.3506,"is_reserved":false,"is_disabled":false,"rental_uris":{"android":"levelo://app?vid=90308d72-7395-4591-b080-8ec165e26440","ios":"levelo://app?vid=90308d72-7395-4591-b080-8ec165e26440"},"vehicle_type_id":"4","last_reported":1743153035,"current_range_meters":13600,"station_id":"ce4bhbp2rcd13ifvqerg","pricing_plan_id":"cebpf4jnsgd1na2vs0mg"},{"bike_id":"1a8f1305-a6f2-4b3c-9ba2-5fcf4d3809dc","system_id":"levelo_inurba_marseille","lat":43.25116,"lon":5.40325,"is_reserved":false,"is_disabled":false,"rental_uris":{"android":"levelo://app?vid=1a8f1305-a6f2-4b3c-9ba2-5fcf4d3809dc","ios":"levelo://app?vid=1a8f1305-a6f2-4b3c-9ba2-5fcf4d3809dc"},"vehicle_type_id":"4","last_reported":1743153035,"current_range_meters":14400,"station_id":"ce4bhlh2rcd13ifvqgig","pricing_plan_id":"cebpf4jnsgd1na2vs0mg"},{"bike_id":"c14b619a-d8da-4bbf-846f-02b7c7eb6274","system_id":"levelo_inurba_marseille","lat":43.32134,"lon":5.36771,"is_reserved":false,"is_disabled":false,"rental_uris":{"android":"levelo://app?vid=c14b619a-d8da-4bbf-846f-02b7c7eb6274","ios":"levelo://app?vid=c14b619a-d8da-4bbf-846f-02b7c7eb6274"},"vehicle_type_id":"4","last_reported":1743153035,"current_range_meters":14400,"station_id":"ce4bhrh2rcd13ifvqhug","pricing_plan_id":"cebpf4jnsgd1na2vs0mg"},{"bike_id":"98e60c8b-a848-4951-a541-851bc71d18d6","system_id":"levelo_inurba_marseille","lat":43.29273,"lon":5.36844,"is_reserved":false,"is_disabled":false,"rental_uris":{"android":"levelo://app?vid=98e60c8b-a848-4951-a541-851bc71d18d6","ios":"levelo://app?vid=98e60c8b-a848-4951-a541-851bc71d18d6"},"vehicle_type_id":"4","last_reported":1743153035,"current_range_meters":14400,"station_id":"ce4bhbp2rcd13ifvqesg","pricing_plan_id":"cebpf4jnsgd1na2vs0mg"},{"bike_id":"4949ce7b-3fff-405b-81b4-148764a0bf85","system_id":"levelo_inurba_marseille","lat":43.28078,"lon":5.39665,"is_reserved":false,"is_disabled":false,"rental_uris":{"android":"levelo://app?vid=4949ce7b-3fff-405b-81b4-148764a0bf85","ios":"levelo://app?vid=4949ce7b-3fff-405b-81b4-148764a0bf85"},"vehicle_type_id":"4","last_reported":1743153035,"current_range_meters":14000,"station_id":"ce4bho12rcd13ifvqh2g","pricing_plan_id":"cebpf4jnsgd1na2vs0mg"},{"bike_id":"57c03374-e2e3-466b-a358-3b7ab41c163e","system_id":"levelo_inurba_marseille","lat":43.30403,"lon":5.41326,"is_reserved":false,"is_disabled":false,"rental_uris":{"android":"levelo://app?vid=57c03374-e2e3-466b-a358-3b7ab41c163e","ios":"levelo://app?vid=57c03374-e2e3-466b-a358-3b7ab41c163e"},"vehicle_type_id":"4","last_reported":1743153035,"current_range_meters":14400,"station_id":"ce4bhop2rcd13ifvqh8g","pricing_plan_id":"cebpf4jnsgd1na2vs0mg"},{"bike_id":"68a3ea1a-8632-4a5f-9c32-74cd6d9a8a4a","system_id":"levelo_inurba_marseille","lat":43.29256,"lon":5.40904,"is_reserved":false,"is_disabled":false,"rental_uris":{"android":"levelo://app?vid=68a3ea1a-8632-4a5f-9c32-74cd6d9a8a4a","ios":"levelo://app?vid=68a3ea1a-8632-4a5f-9c32-74cd6d9a8a4a"},"vehicle_type_id":"4","last_reported":1743153035,"current_range_meters":14400,"station_id":"ce4bh192rcd13ifvqdc0","pricing_plan_id":"cebpf4jnsgd1na2vs0mg"},{"bike_id":"7250f388-03b7-49a1-96a2-a7db95b50a32","system_id":"levelo_inurba_marseille","lat":43.2827,"lon":5.35056,"is_reserved":false,"is_disabled":false,"rental_uris":{"android":"levelo://app?vid=7250f388-03b7-49a1-96a2-a7db95b50a32","ios":"levelo://app?vid=7250f388-03b7-49a1-96a2-a7db95b50a32"},"vehicle_type_id":"4","last_reported":1743153035,"current_range_meters":14400,"station_id":"ce4bhbp2rcd13ifvqerg","pricing_plan_id":"cebpf4jnsgd1na2vs0mg"},{"bike_id":"aceadaa2-db7b-4a54-8776-2e3d27bd71ec","system_id":"levelo_inurba_marseille","lat":43.2591,"lon":5.40889,"is_reserved":false,"is_disabled":false,"rental_uris":{"android":"levelo://app?vid=aceadaa2-db7b-4a54-8776-2e3d27bd71ec","ios":"levelo://app?vid=aceadaa2-db7b-4a54-8776-2e3d27bd71ec"},"vehicle_type_id":"4","last_reported":1743153035,"current_range_meters":14400,"station_id":"ce4bhm92rcd13ifvqglg","pricing_plan_id":"cebpf4jnsgd1na2vs0mg"},{"bike_id":"fd60e020-01f8-467b-b113-a845188fc32b","system_id":"levelo_inurba_marseille","lat":43.27976,"lon":5.38745,"is_reserved":false,"is_disabled":false,"rental_uris":{"android":"levelo://app?vid=fd60e020-01f8-467b-b113-a845188fc32b","ios":"levelo://app?vid=fd60e020-01f8-467b-b113-a845188fc32b"},"vehicle_type_id":"4","last_reported":1743153035,"current_range_meters":14400,"station_id":"ce4bhg12rcd13ifvqf80","pricing_plan_id":"cebpf4jnsgd1na2vs0mg"},{"bike_id":"c36eec4f-7505-4309-8534-0871df58bffc","system_id":"levelo_inurba_marseille","lat":43.29512,"lon":5.375053,"is_reserved":false,"is_disabled":false,"rental_uris":{"android":"levelo://app?vid=c36eec4f-7505-4309-8534-0871df58bffc","ios":"levelo://app?vid=c36eec4f-7505-4309-8534-0871df58bffc"},"vehicle_type_id":"4","last_reported":1743153035,"current_range_meters":14400,"station_id":"ce4bgkp2rcd13ifvqbmg","pricing_plan_id":"cebpf4jnsgd1na2vs0mg"},{"bike_id":"48dd7881-b216-4c26-9e5c-294574a74387","system_id":"levelo_inurba_marseille","lat":43.23964,"lon":5.36641,"is_reserved":false,"is_disabled":false,"rental_uris":{"android":"levelo://app?vid=48dd7881-b216-4c26-9e5c-294574a74387","ios":"levelo://app?vid=48dd7881-b216-4c26-9e5c-294574a74387"},"vehicle_type_id":"4","last_reported":1743153035,"current_range_meters":14400,"station_id":"ce4bhi12rcd13ifvqfp0","pricing_plan_id":"cebpf4jnsgd1na2vs0mg"},{"bike_id":"42f71f62-34fe-4371-a7a6-4db819eb419e","system_id":"levelo_inurba_marseille","lat":43.300813,"lon":5.38063,"is_reserved":false,"is_disabled":false,"rental_uris":{"android":"levelo://app?vid=42f71f62-34fe-4371-a7a6-4db819eb419e","ios":"levelo://app?vid=42f71f62-34fe-4371-a7a6-4db819eb419e"},"vehicle_type_id":"4","last_reported":1743153035,"current_range_meters":14400,"station_id":"ce4bh492rcd13ifvqdug","pricing_plan_id":"cebpf4jnsgd1na2vs0mg"},{"bike_id":"c5b747b8-0a33-4be6-a6c0-180ceea5e00d","system_id":"levelo_inurba_marseille","lat":43.28094,"lon":5.39659,"is_reserved":false,"is_disabled":true,"rental_uris":{"android":"levelo://app?vid=c5b747b8-0a33-4be6-a6c0-180ceea5e00d","ios":"levelo://app?vid=c5b747b8-0a33-4be6-a6c0-180ceea5e00d"},"vehicle_type_id":"4","last_reported":1743153035,"current_range_meters":14400,"station_id":"ce4bho12rcd13ifvqh2g","pricing_plan_id":"cebpf4jnsgd1na2vs0mg"},{"bike_id":"78e15e74-3315-4ccd-afab-ef4e34b4ae70","system_id":"levelo_inurba_marseille","lat":43.33605,"lon":5.41029,"is_reserved":false,"is_disabled":false,"rental_uris":{"android":"levelo://app?vid=78e15e74-3315-4ccd-afab-ef4e34b4ae70","ios":"levelo://app?vid=78e15e74-3315-4ccd-afab-ef4e34b4ae70"},"vehicle_type_id":"4","last_reported":1743153035,"current_range_meters":14800,"station_id":"ce4bhqh2rcd13ifvqhmg","pricing_plan_id":"cebpf4jnsgd1na2vs0mg"},{"bike_id":"4475ac91-3b1a-491c-9a71-de034824bd25","system_id":"levelo_inurba_marseille","lat":43.29557,"lon":5.42297,"is_reserved":false,"is_disabled":false,"rental_uris":{"android":"levelo://app?vid=4475ac91-3b1a-491c-9a71-de034824bd25","ios":"levelo://app?vid=4475ac91-3b1a-491c-9a71-de034824bd25"},"vehicle_type_id":"4","last_reported":1743153035,"current_range_meters":14400,"station_id":"ce4bhph2rcd13ifvqhdg","pricing_plan_id":"cebpf4jnsgd1na2vs0mg"},{"bike_id":"212c8e98-dbd0-430f-965c-a5211ae16902","system_id":"levelo_inurba_marseille","lat":43.25099,"lon":5.39542,"is_reserved":false,"is_disabled":false,"rental_uris":{"android":"levelo://app?vid=212c8e98-dbd0-430f-965c-a5211ae16902","ios":"levelo://app?vid=212c8e98-dbd0-430f-965c-a5211ae16902"},"vehicle_type_id":"4","last_reported":1743153035,"current_range_meters":14800,"station_id":"ce4bhm12rcd13ifvqgkg","pricing_plan_id":"cebpf4jnsgd1na2vs0mg"},{"bike_id":"e12e97cf-436d-4013-b6e8-4b4e07e37b6e","system_id":"levelo_inurba_marseille","lat":43.258295,"lon":5.399125,"is_reserved":false,"is_disabled":false,"rental_uris":{"android":"levelo://app?vid=e12e97cf-436d-4013-b6e8-4b4e07e37b6e","ios":"levelo://app?vid=e12e97cf-436d-4013-b6e8-4b4e07e37b6e"},"vehicle_type_id":"4","last_reported":1743153035,"current_range_meters":14800,"station_id":"ce4bhmp2rcd13ifvqgog","pricing_plan_id":"cebpf4jnsgd1na2vs0mg"},{"bike_id":"f0079a3f-807b-48ba-b848-e1b1f5882482","system_id":"levelo_inurba_marseille","lat":43.31352,"lon":5.36713,"is_reserved":false,"is_disabled":false,"rental_uris":{"android":"levelo://app?vid=f0079a3f-807b-48ba-b848-e1b1f5882482","ios":"levelo://app?vid=f0079a3f-807b-48ba-b848-e1b1f5882482"},"vehicle_type_id":"4","last_reported":1743153035,"current_range_meters":14800,"station_id":"ce4bgr92rcd13ifvqc6g","pricing_plan_id":"cebpf4jnsgd1na2vs0mg"},{"bike_id":"64837c1d-4023-49ba-9c13-8dcdcacb590c","system_id":"levelo_inurba_marseille","lat":43.24075,"lon":5.37752,"is_reserved":false,"is_disabled":false,"rental_uris":{"android":"levelo://app?vid=64837c1d-4023-49ba-9c13-8dcdcacb590c","ios":"levelo://app?vid=64837c1d-4023-49ba-9c13-8dcdcacb590c"},"vehicle_type_id":"4","last_reported":1743153035,"current_range_meters":14800,"station_id":"ce4bhnp2rcd13ifvqgvg","pricing_plan_id":"cebpf4jnsgd1na2vs0mg"},{"bike_id":"eb05348b-a94a-445f-a5dc-25d7e3b15011","system_id":"levelo_inurba_marseille","lat":43.30119,"lon":5.37418,"is_reserved":false,"is_disabled":false,"rental_uris":{"android":"levelo://app?vid=eb05348b-a94a-445f-a5dc-25d7e3b15011","ios":"levelo://app?vid=eb05348b-a94a-445f-a5dc-25d7e3b15011"},"vehicle_type_id":"4","last_reported":1743153035,"current_range_meters":14800,"station_id":"ce4bgs92rcd13ifvqcc0","pricing_plan_id":"cebpf4jnsgd1na2vs0mg"},{"bike_id":"ca7e0dc1-95b1-41ee-bfb6-6f7d653c8926","system_id":"levelo_inurba_marseille","lat":43.298406,"lon":5.362699,"is_reserved":false,"is_disabled":false,"rental_uris":{"android":"levelo://app?vid=ca7e0dc1-95b1-41ee-bfb6-6f7d653c8926","ios":"levelo://app?vid=ca7e0dc1-95b1-41ee-bfb6-6f7d653c8926"},"vehicle_type_id":"4","last_reported":1743153035,"current_range_meters":15200,"station_id":"ce4bgpp2rcd13ifvqc3g","pricing_plan_id":"cebpf4jnsgd1na2vs0mg"},{"bike_id":"983c4c9f-ee1a-4d13-8ce7-bfd36c479f46","system_id":"levelo_inurba_marseille","lat":43.24167,"lon":5.364,"is_reserved":false,"is_disabled":false,"rental_uris":{"android":"levelo://app?vid=983c4c9f-ee1a-4d13-8ce7-bfd36c479f46","ios":"levelo://app?vid=983c4c9f-ee1a-4d13-8ce7-bfd36c479f46"},"vehicle_type_id":"4","last_reported":1743153035,"current_range_meters":15200,"station_id":"cpo36qri1sfpv3e86is0","pricing_plan_id":"cebpf4jnsgd1na2vs0mg"},{"bike_id":"d67d8652-0f04-45a0-b34d-bbd8839b9d56","system_id":"levelo_inurba_marseille","lat":43.26283,"lon":5.38827,"is_reserved":false,"is_disabled":false,"rental_uris":{"android":"levelo://app?vid=d67d8652-0f04-45a0-b34d-bbd8839b9d56","ios":"levelo://app?vid=d67d8652-0f04-45a0-b34d-bbd8839b9d56"},"vehicle_type_id":"4","last_reported":1743153035,"current_range_meters":15200,"station_id":"","pricing_plan_id":"cebpf4jnsgd1na2vs0mg"},{"bike_id":"a3d2ef79-64ca-47d4-b571-1f0f3046c33f","system_id":"levelo_inurba_marseille","lat":43.29268,"lon":5.37644,"is_reserved":false,"is_disabled":false,"rental_uris":{"android":"levelo://app?vid=a3d2ef79-64ca-47d4-b571-1f0f3046c33f","ios":"levelo://app?vid=a3d2ef79-64ca-47d4-b571-1f0f3046c33f"},"vehicle_type_id":"4","last_reported":1743153035,"current_range_meters":15200,"station_id":"ce4bgi12rcd13ifvqb80","pricing_plan_id":"cebpf4jnsgd1na2vs0mg"},{"bike_id":"5ba87120-c80a-4eaa-9d67-7ff6e783e515","system_id":"levelo_inurba_marseille","lat":43.26787,"lon":5.39407,"is_reserved":false,"is_disabled":false,"rental_uris":{"android":"levelo://app?vid=5ba87120-c80a-4eaa-9d67-7ff6e783e515","ios":"levelo://app?vid=5ba87120-c80a-4eaa-9d67-7ff6e783e515"},"vehicle_type_id":"4","last_reported":1743153035,"current_range_meters":15200,"station_id":"ce4bhh12rcd13ifvqfg0","pricing_plan_id":"cebpf4jnsgd1na2vs0mg"},{"bike_id":"88410de1-ba6c-428f-a85e-403ed02dd063","system_id":"levelo_inurba_marseille","lat":43.31219,"lon":5.36875,"is_reserved":false,"is_disabled":false,"rental_uris":{"android":"levelo://app?vid=88410de1-ba6c-428f-a85e-403ed02dd063","ios":"levelo://app?vid=88410de1-ba6c-428f-a85e-403ed02dd063"},"vehicle_type_id":"4","last_reported":1743153035,"current_range_meters":15200,"station_id":"ce4bgl92rcd13ifvqbq0","pricing_plan_id":"cebpf4jnsgd1na2vs0mg"},{"bike_id":"4c72db06-5c54-4fd8-88f2-ef08602f92b9","system_id":"levelo_inurba_marseille","lat":43.29036,"lon":5.39968,"is_reserved":false,"is_disabled":false,"rental_uris":{"android":"levelo://app?vid=4c72db06-5c54-4fd8-88f2-ef08602f92b9","ios":"levelo://app?vid=4c72db06-5c54-4fd8-88f2-ef08602f92b9"},"vehicle_type_id":"4","last_reported":1743153035,"current_range_meters":15200,"station_id":"ce4bh392rcd13ifvqdm0","pricing_plan_id":"cebpf4jnsgd1na2vs0mg"},{"bike_id":"32a26601-876e-446b-9cd6-57aab3decca3","system_id":"levelo_inurba_marseille","lat":43.24066,"lon":5.37757,"is_reserved":false,"is_disabled":false,"rental_uris":{"android":"levelo://app?vid=32a26601-876e-446b-9cd6-57aab3decca3","ios":"levelo://app?vid=32a26601-876e-446b-9cd6-57aab3decca3"},"vehicle_type_id":"4","last_reported":1743153035,"current_range_meters":15200,"station_id":"ce4bhnp2rcd13ifvqgvg","pricing_plan_id":"cebpf4jnsgd1na2vs0mg"},{"bike_id":"b07571ce-2dfe-4e50-9779-1624ea5340b1","system_id":"levelo_inurba_marseille","lat":43.26944,"lon":5.38627,"is_reserved":false,"is_disabled":false,"rental_uris":{"android":"levelo://app?vid=b07571ce-2dfe-4e50-9779-1624ea5340b1","ios":"levelo://app?vid=b07571ce-2dfe-4e50-9779-1624ea5340b1"},"vehicle_type_id":"4","last_reported":1743153035,"current_range_meters":15200,"station_id":"ce4bhh92rcd13ifvqfh0","pricing_plan_id":"cebpf4jnsgd1na2vs0mg"},{"bike_id":"1ee86d82-7672-41b2-8221-fde658f47b61","system_id":"levelo_inurba_marseille","lat":43.30275,"lon":5.37716,"is_reserved":false,"is_disabled":false,"rental_uris":{"android":"levelo://app?vid=1ee86d82-7672-41b2-8221-fde658f47b61","ios":"levelo://app?vid=1ee86d82-7672-41b2-8221-fde658f47b61"},"vehicle_type_id":"4","last_reported":1743153035,"current_range_meters":15200,"station_id":"ce4bguh2rcd13ifvqcj0","pricing_plan_id":"cebpf4jnsgd1na2vs0mg"},{"bike_id":"d134fb95-1c23-48da-9fa9-03785c78025c","system_id":"levelo_inurba_marseille","lat":43.30465,"lon":5.37906,"is_reserved":false,"is_disabled":false,"rental_uris":{"android":"levelo://app?vid=d134fb95-1c23-48da-9fa9-03785c78025c","ios":"levelo://app?vid=d134fb95-1c23-48da-9fa9-03785c78025c"},"vehicle_type_id":"4","last_reported":1743153035,"current_range_meters":15200,"station_id":"ce4bgup2rcd13ifvqcn0","pricing_plan_id":"cebpf4jnsgd1na2vs0mg"},