{"last_updated":1767208153,"ttl":60,"version":"2.2","data":{"bikes":[{"bike_id":"970f6c1d-f464-4249-baad-9d8636c41627","system_id":"levelo_inurba_marseille","lat":43.29188,"lon":5.37509,"is_reserved":false,"is_disabled":false,"rental_uris":{"android":"levelo://app?vid=970f6c1d-f464-4249-baad-9d8636c41627","ios":"levelo://app?vid=970f6c1d-f464-4249-baad-9d8636c41627"},"vehicle_type_id":"4","last_reported":1767208153,"current_range_meters":2800,"station_id":"","pricing_plan_id":"cebpf4jnsgd1na2vs0mg"},{"bike_id":"b98e5fae-1c90-4e3e-bf56-de82528dae3e","system_id":"levelo_inurba_marseille","lat":43.26687,"lon":5.38278,"is_reserved":false,"is_disabled":false,"rental_uris":{"android":"levelo://app?vid=b98e5fae-1c90-4e3e-bf56-de82528dae3e","ios":"levelo://app?vid=b98e5fae-1c90-4e3e-bf56-de82528dae3e"},"vehicle_type_id":"4","last_reported":1767208153,"current_range_meters":2800,"station_id":"ce4bhg92rcd13ifvqf90","pricing_plan_id":"cebpf4jnsgd1na2vs0mg"},{"bike_id":"569140ed-9b42-4bcc-a23e-4981c67387e7","system_id":"levelo_inurba_marseille","lat":43.241656,"lon":5.363939,"is_reserved":false,"is_disabled":false,"rental_uris":{"android":"levelo://app?vid=569140ed-9b42-4bcc-a23e-4981c67387e7","ios":"levelo://app?vid=569140ed-9b42-4bcc-a23e-4981c67387e7"},"vehicle_type_id":"4","last_reported":1767208153,"current_range_meters":2800,"station_id":"cpo36qri1sfpv3e86is0","pricing_plan_id":"cebpf4jnsgd1na2vs0mg"},{"bike_id":"be8a8b22-2bf8-4be5-ae9f-04e06ae6e86f","system_id":"levelo_inurba_marseille","lat":43.29365,"lon":5.37866,"is_reserved":false,"is_disabled":false,"rental_uris":{"android":"levelo://app?vid=be8a8b22-2bf8-4be5-ae9f-04e06ae6e86f","ios":"levelo://app?vid=be8a8b22-2bf8-4be5-ae9f-04e06ae6e86f"},"vehicle_type_id":"4","last_reported":1767208153,"current_range_meters":2800,"station_id":"ce4bgjh2rcd13ifvqbf0","pricing_plan_id":"cebpf4jnsgd1na2vs0mg"},{"bike_id":"1cd7cabc-c03f-4b15-ac4a-805f6fbb77f2","system_id":"levelo_inurba_marseille","lat":43.292748,"lon":5.368439,"is_reserved":false,"is_disabled":false,"rental_uris":{"android":"levelo://app?vid=1cd7cabc-c03f-4b15-ac4a-805f6fbb77f2","ios":"levelo://app?vid=1cd7cabc-c03f-4b15-ac4a-805f6fbb77f2"},"vehicle_type_id":"4","last_reported":1767208153,"current_range_meters":2800,"station_id":"ce4bhbp2rcd13ifvqesg","pricing_plan_id":"cebpf4jnsgd1na2vs0mg"},{"bike_id":"3955051b-b13d-4467-994a-287b37908a17","system_id":"levelo_inurba_marseille","lat":43.290902,"lon":5.381258,"is_reserved":false,"is_disabled":false,"rental_uris":{"android":"levelo://app?vid=3955051b-b13d-4467-994a-287b37908a17","ios":"levelo://app?vid=3955051b-b13d-4467-994a-287b37908a17"},"vehicle_type_id":"4","last_reported":1767208153,"current_range_meters":2800,"station_id":"ce4bh512rcd13ifvqe2g","pricing_plan_id":"cebpf4jnsgd1na2vs0mg"},{"bike_id":"6b4765f2-d345-4b0e-b081-d62d660a95a8","system_id":"levelo_inurba_marseille","lat":43.25575,"lon":5.38238,"is_reserved":false,"is_disabled":false,"rental_uris":{"android":"levelo://app?vid=6b4765f2-d345-4b0e-b081-d62d660a95a8","ios":"levelo://app?vid=6b4765f2-d345-4b0e-b081-d62d660a95a8"},"vehicle_type_id":"4","last_reported":1767208153,"current_range_meters":2800,"station_id":"ce4bhih2rcd13ifvqfs0","pricing_plan_id":"cebpf4jnsgd1na2vs0mg"},{"bike_id":"006874ba-f572-4e5d-8eaa-b1e7849ad1e8","system_id":"levelo_inurba_marseille","lat":43.22949,"lon":5.35362,"is_reserved":false,"is_disabled":false,"rental_uris":{"android":"levelo://app?vid=006874ba-f572-4e5d-8eaa-b1e7849ad1e8","ios":"levelo://app?vid=006874ba-f572-4e5d-8eaa-b1e7849ad1e8"},"vehicle_type_id":"4","last_reported":1767208153,"current_range_meters":3200,"station_id":"cpo3532slgdg3j2ikp40","pricing_plan_id":"cebpf4jnsgd1na2vs0mg"},{"bike_id":"d1028c8d-4c1a-4ce3-bb87-06b106258967","system_id":"levelo_inurba_marseille","lat":43.30102,"lon":5.37082,"is_reserved":false,"is_disabled":false,"rental_uris":{"android":"levelo://app?vid=d1028c8d-4c1a-4ce3-bb87-06b106258967","ios":"levelo://app?vid=d1028c8d-4c1a-4ce3-bb87-06b106258967"},"vehicle_type_id":"4","last_reported":1767208153,"current_range_meters":3200,"station_id":"","pricing_plan_id":"cebpf4jnsgd1na2vs0mg"},{"bike_id":"12c38b32-5974-4311-910a-572392b8079a","system_id":"levelo_inurba_marseille","lat":43.280422,"lon":5.350876,"is_reserved":false,"is_disabled":false,"rental_uris":{"android":"levelo://app?vid=12c38b32-5974-4311-910a-572392b8079a","ios":"levelo://app?vid=12c38b32-5974-4311-910a-572392b8079a"},"vehicle_type_id":"4","last_reported":1767208153,"current_range_meters":3200,"station_id":"","pricing_plan_id":"cebpf4jnsgd1na2vs0mg"},{"bike_id":"0e26d864-1558-4c85-8d1d-7bd1e02f53f6","system_id":"levelo_inurba_marseille","lat":43.29941,"lon":5.365,"is_reserved":false,"is_disabled":false,"rental_uris":{"android":"levelo://app?vid=0e26d864-1558-4c85-8d1d-7bd1e02f53f6","ios":"levelo://app?vid=0e26d864-1558-4c85-8d1d-7bd1e02f53f6"},"vehicle_type_id":"4","last_reported":1767208153,"current_range_meters":3200,"station_id":"ce4bgm92rcd13ifvqbr0","pricing_plan_id":"cebpf4jnsgd1na2vs0mg"},{"bike_id":"b4cf7106-73c2-4109-b6f1-be10e1ccce58","system_id":"levelo_inurba_marseille","lat":43.2968,"lon":5.38503,"is_reserved":false,"is_disabled":false,"rental_uris":{"android":"levelo://app?vid=b4cf7106-73c2-4109-b6f1-be10e1ccce58","ios":"levelo://app?vid=b4cf7106-73c2-4109-b6f1-be10e1ccce58"},"vehicle_type_id":"4","last_reported":1767208153,"current_range_meters":3200,"station_id":"","pricing_plan_id":"cebpf4jnsgd1na2vs0mg"},{"bike_id":"9cf20d61-ddfa-467e-90ea-ddf7859b95f0","system_id":"levelo_inurba_marseille","lat":43.303726,"lon":5.424889,"is_reserved":false,"is_disabled":false,"rental_uris":{"android":"levelo://app?vid=9cf20d61-ddfa-467e-90ea-ddf7859b95f0","ios":"levelo://app?vid=9cf20d61-ddfa-467e-90ea-ddf7859b95f0"},"vehicle_type_id":"4","last_reported":1767208153,"current_range_meters":3600,"station_id":"ce4bhoh2rcd13ifvqh6g","pricing_plan_id":"cebpf4jnsgd1na2vs0mg"},{"bike_id":"7efad28a-371c-425a-aee6-d118329766a4","system_id":"levelo_inurba_marseille","lat":43.29848,"lon":5.36273,"is_reserved":false,"is_disabled":false,"rental_uris":{"android":"levelo://app?vid=7efad28a-371c-425a-aee6-d118329766a4","ios":"levelo://app?vid=7efad28a-371c-425a-aee6-d118329766a4"},"vehicle_type_id":"4","last_reported":1767208153,"current_range_meters":3600,"station_id":"ce4bgpp2rcd13ifvqc3g","pricing_plan_id":"cebpf4jnsgd1na2vs0mg"},{"bike_id":"dc2c55ea-681b-42da-a0ce-1f24796caa44","system_id":"levelo_inurba_marseille","lat":43.24646,"lon":5.38886,"is_reserved":false,"is_disabled":false,"rental_uris":{"android":"levelo://app?vid=dc2c55ea-681b-42da-a0ce-1f24796caa44","ios":"levelo://app?vid=dc2c55ea-681b-42da-a0ce-1f24796caa44"},"vehicle_type_id":"4","last_reported":1767208153,"current_range_meters":3600,"station_id":"ce4bhg12rcd13ifvqf60","pricing_plan_id":"cebpf4jnsgd1na2vs0mg"},{"bike_id":"7c01f591-5f07-4a32-93e3-b779949f5bca","system_id":"levelo_inurba_marseille","lat":43.309147,"lon":5.368627,"is_reserved":false,"is_disabled":false,"rental_uris":{"android":"levelo://app?vid=7c01f591-5f07-4a32-93e3-b779949f5bca","ios":"levelo://app?vid=7c01f591-5f07-4a32-93e3-b779949f5bca"},"vehicle_type_id":"4","last_reported":1767208153,"current_range_meters":3600,"station_id":"ce4bgn92rcd13ifvqbvg","pricing_plan_id":"cebpf4jnsgd1na2vs0mg"},{"bike_id":"c3f729cd-f5a4-4b0e-8231-ab300dd4247d","system_id":"levelo_inurba_marseille","lat":43.31469,"lon":5.37292,"is_reserved":false,"is_disabled":false,"rental_uris":{"android":"levelo://app?vid=c3f729cd-f5a4-4b0e-8231-ab300dd4247d","ios":"levelo://app?vid=c3f729cd-f5a4-4b0e-8231-ab300dd4247d"},"vehicle_type_id":"4","last_reported":1767208153,"current_range_meters":3600,"station_id":"ce4bgt12rcd13ifvqcd0","pricing_plan_id":"cebpf4jnsgd1na2vs0mg"},{"bike_id":"a6dbbdf7-500e-4846-90f0-85034c154603","system_id":"levelo_inurba_marseille","lat":43.29792,"lon":5.38092,"is_reserved":false,"is_disabled":false,"rental_uris":{"android":"levelo://app?vid=a6dbbdf7-500e-4846-90f0-85034c154603","ios":"levelo://app?vid=a6dbbdf7-500e-4846-90f0-85034c154603"},"vehicle_type_id":"4","last_reported":1767208153,"current_range_meters":3600,"station_id":"ce4bgip2rcd13ifvqbb0","pricing_plan_id":"cebpf4jnsgd1na2vs0mg"},{"bike_id":"d44a5295-ba6d-4821-87af-4a17174d6165","system_id":"levelo_inurba_marseille","lat":43.28614,"lon":5.35103,"is_reserved":false,"is_disabled":false,"rental_uris":{"android":"levelo://app?vid=d44a5295-ba6d-4821-87af-4a17174d6165","ios":"levelo://app?vid=d44a5295-ba6d-4821-87af-4a17174d6165"},"vehicle_type_id":"4","last_reported":1767208153,"current_range_meters":4000,"station_id":"ce4bhch2rcd13ifvqeug","pricing_plan_id":"cebpf4jnsgd1na2vs0mg"},{"bike_id":"7301577d-2578-4570-9f68-334d7b7895b2","system_id":"levelo_inurba_marseille","lat":43.29156,"lon":5.38729,"is_reserved":false,"is_disabled":false,"rental_uris":{"android":"levelo://app?vid=7301577d-2578-4570-9f68-334d7b7895b2","ios":"levelo://app?vid=7301577d-2578-4570-9f68-334d7b7895b2"},"vehicle_type_id":"4","last_reported":1767208153,"current_range_meters":4000,"station_id":"","pricing_plan_id":"cebpf4jnsgd1na2vs0mg"},{"bike_id":"1f986bde-e823-4547-a8eb-43be952db802","system_id":"levelo_inurba_marseille","lat":43.29442,"lon":5.37288,"is_reserved":false,"is_disabled":false,"rental_uris":{"android":"levelo://app?vid=1f986bde-e823-4547-a8eb-43be952db802","ios":"levelo://app?vid=1f986bde-e823-4547-a8eb-43be952db802"},"vehicle_type_id":"4","last_reported":1767208153,"current_range_meters":4000,"station_id":"","pricing_plan_id":"cebpf4jnsgd1na2vs0mg"},{"bike_id":"5b078b0d-b636-4a22-b6c8-6a5762551fb0","system_id":"levelo_inurba_marseille","lat":43.31111,"lon":5.40233,"is_reserved":false,"is_disabled":false,"rental_uris":{"android":"levelo://app?vid=5b078b0d-b636-4a22-b6c8-6a5762551fb0","ios":"levelo://app?vid=5b078b0d-b636-4a22-b6c8-6a5762551fb0"},"vehicle_type_id":"4","last_reported":1767208153,"current_range_meters":4400,"station_id":"","pricing_plan_id":"cebpf4jnsgd1na2vs0mg"},{"bike_id":"ebce6ed8-f01e-4ffa-9b02-2836af06b09c","system_id":"levelo_inurba_marseille","lat":43.30637,"lon":5.40096,"is_reserved":false,"is_disabled":false,"rental_uris":{"android":"levelo://app?vid=ebce6ed8-f01e-4ffa-9b02-2836af06b09c","ios":"levelo://app?vid=ebce6ed8-f01e-4ffa-9b02-2836af06b09c"},"vehicle_type_id":"4","last_reported":1767208153,"current_range_meters":4400,"station_id":"ce4bh112rcd13ifvqda0","pricing_plan_id":"cebpf4jnsgd1na2vs0mg"},{"bike_id":"3400d737-a32e-4dca-a00a-47ca201c9735","system_id":"levelo_inurba_marseille","lat":43.29543,"lon":5.42285,"is_reserved":false,"is_disabled":true,"rental_uris":{"android":"levelo://app?vid=3400d737-a32e-4dca-a00a-47ca201c9735","ios":"levelo://app?vid=3400d737-a32e-4dca-a00a-47ca201c9735"},"vehicle_type_id":"4","last_reported":1767208153,"current_range_meters":4800,"station_id":"ce4bhph2rcd13ifvqhdg","pricing_plan_id":"cebpf4jnsgd1na2vs0mg"},{"bike_id":"7451e2f1-97cc-4a6a-824e-1c725c74e9d6","system_id":"levelo_inurba_marseille","lat":43.293656,"lon":5.381034,"is_reserved":false,"is_disabled":false,"rental_uris":{"android":"levelo://app?vid=7451e2f1-97cc-4a6a-824e-1c725c74e9d6","ios":"levelo://app?vid=7451e2f1-97cc-4a6a-824e-1c725c74e9d6"},"vehicle_type_id":"4","last_reported":1767208153,"current_range_meters":4800,"station_id":"","pricing_plan_id":"cebpf4jnsgd1na2vs0mg"},{"bike_id":"893ba8a0-157f-4e5d-917e-08bfc2989854","system_id":"levelo_inurba_marseille","lat":43.30168,"lon":5.38866,"is_reserved":false,"is_disabled":false,"rental_uris":{"android":"levelo://app?vid=893ba8a0-157f-4e5d-917e-08bfc2989854","ios":"levelo://app?vid=893ba8a0-157f-4e5d-917e-08bfc2989854"},"vehicle_type_id":"4","last_reported":1767208153,"current_range_meters":4800,"station_id":"","pricing_plan_id":"cebpf4jnsgd1na2vs0mg"},{"bike_id":"63079d32-8d46-4e1a-9fb2-d1e43992440f","system_id":"levelo_inurba_marseille","lat":43.29512,"lon":5.39036,"is_reserved":false,"is_disabled":false,"rental_uris":{"android":"levelo://app?vid=63079d32-8d46-4e1a-9fb2-d1e43992440f","ios":"levelo://app?vid=63079d32-8d46-4e1a-9fb2-d1e43992440f"},"vehicle_type_id":"4","last_reported":1767208153,"current_range_meters":4800,"station_id":"ce4bh3p2rcd13ifvqdp0","pricing_plan_id":"cebpf4jnsgd1na2vs0mg"},{"bike_id":"c51d25a2-9931-4751-a2b1-fe9d8ebd5ffd","system_id":"levelo_inurba_marseille","lat":43.21185,"lon":5.3506,"is_reserved":false,"is_disabled":false,"rental_uris":{"android":"levelo://app?vid=c51d25a2-9931-4751-a2b1-fe9d8ebd5ffd","ios":"levelo://app?vid=c51d25a2-9931-4751-a2b1-fe9d8ebd5ffd"},"vehicle_type_id":"4","last_reported":1767208153,"current_range_meters":5600,"station_id":"st_cvj6sg6p6f1abm77japg","pricing_plan_id":"cebpf4jnsgd1na2vs0mg"},{"bike_id":"06b063e3-8d5c-4b1d-bded-c38320bdee8f","system_id":"levelo_inurba_marseille","lat":43.26226,"lon":5.40454,"is_reserved":false,"is_disabled":false,"rental_uris":{"android":"levelo://app?vid=06b063e3-8d5c-4b1d-bded-c38320bdee8f","ios":"levelo://app?vid=06b063e3-8d5c-4b1d-bded-c38320bdee8f"},"vehicle_type_id":"4","last_reported":1767208153,"current_range_meters":5600,"station_id":"ce4bhmh2rcd13ifvqgmg","pricing_plan_id":"cebpf4jnsgd1na2vs0mg"},{"bike_id":"135e74aa-4845-4a8f-89fc-f30089add1fd","system_id":"levelo_inurba_marseille","lat":43.3015,"lon":5.38079,"is_reserved":false,"is_disabled":false,"rental_uris":{"android":"levelo://app?vid=135e74aa-4845-4a8f-89fc-f30089add1fd","ios":"levelo://app?vid=135e74aa-4845-4a8f-89fc-f30089add1fd"},"vehicle_type_id":"4","last_reported":1767208153,"current_range_meters":6000,"station_id":"ce4bgjp2rcd13ifvqbh0","pricing_plan_id":"cebpf4jnsgd1na2vs0mg"},{"bike_id":"f2d06264-3ed3-4757-9d9b-f7545275481a","system_id":"levelo_inurba_marseille","lat":43.29528,"lon":5.39397,"is_reserved":false,"is_disabled":false,"rental_uris":{"android":"levelo://app?vid=f2d06264-3ed3-4757-9d9b-f7545275481a","ios":"levelo://app?vid=f2d06264-3ed3-4757-9d9b-f7545275481a"},"vehicle_type_id":"4","last_reported":1767208153,"current_range_meters":6000,"station_id":"ce4bh292rcd13ifvqdf0","pricing_plan_id":"cebpf4jnsgd1na2vs0mg"},{"bike_id":"c2b69443-bbd5-4d10-9d30-b4aae281dfc1","system_id":"levelo_inurba_marseille","lat":43.30734,"lon":5.37098,"is_reserved":false,"is_disabled":false,"rental_uris":{"android":"levelo://app?vid=c2b69443-bbd5-4d10-9d30-b4aae281dfc1","ios":"levelo://app?vid=c2b69443-bbd5-4d10-9d30-b4aae281dfc1"},"vehicle_type_id":"4","last_reported":1767208153,"current_range_meters":6000,"station_id":"","pricing_plan_id":"cebpf4jnsgd1na2vs0mg"},{"bike_id":"742f1e99-972a-4415-9c07-2696da1383a1","system_id":"levelo_inurba_marseille","lat":43.29646,"lon":5.40587,"is_reserved":false,"is_disabled":false,"rental_uris":{"android":"levelo://app?vid=742f1e99-972a-4415-9c07-2696da1383a1","ios":"levelo://app?vid=742f1e99-972a-4415-9c07-2696da1383a1"},"vehicle_type_id":"4","last_reported":1767208153,"current_range_meters":6400,"station_id":"","pricing_plan_id":"cebpf4jnsgd1na2vs0mg"},{"bike_id":"e4a9952f-24bd-4b68-8158-abe21345386e","system_id":"levelo_inurba_marseille","lat":43.29527,"lon":5.39037,"is_reserved":false,"is_disabled":false,"rental_uris":{"android":"levelo://app?vid=e4a9952f-24bd-4b68-8158-abe21345386e","ios":"levelo://app?vid=e4a9952f-24bd-4b68-8158-abe21345386e"},"vehicle_type_id":"4","last_reported":1767208153,"current_range_meters":6400,"station_id":"ce4bh3p2rcd13ifvqdp0","pricing_plan_id":"cebpf4jnsgd1na2vs0mg"},{"bike_id":"baf8eeb7-e209-42c0-8213-8014ca078ed5","system_id":"levelo_inurba_marseille","lat":43.30755,"lon":5.41836,"is_reserved":false,"is_disabled":false,"rental_uris":{"android":"levelo://app?vid=baf8eeb7-e209-42c0-8213-8014ca078ed5","ios":"levelo://app?vid=baf8eeb7-e209-42c0-8213-8014ca078ed5"},"vehicle_type_id":"4","last_reported":1767208153,"current_range_meters":6400,"station_id":"","pricing_plan_id":"cebpf4jnsgd1na2vs0mg"},{"bike_id":"2c5d5b6e-6fd9-44e5-ad4d-54d38c36dae1","system_id":"levelo_inurba_marseille","lat":43.29261,"lon":5.40907,"is_reserved":false,"is_disabled":false,"rental_uris":{"android":"levelo://app?vid=2c5d5b6e-6fd9-44e5-ad4d-54d38c36dae1","ios":"levelo://app?vid=2c5d5b6e-6fd9-44e5-ad4d-54d38c36dae1"},"vehicle_type_id":"4","last_reported":1767208153,"current_range_meters":6800,"station_id":"ce4bh192rcd13ifvqdc0","pricing_plan_id":"cebpf4jnsgd1na2vs0mg"},{"bike_id":"b765262d-1e90-432f-b785-523eb2ca010d","system_id":"levelo_inurba_marseille","lat":43.311553,"lon":5.407179,"is_reserved":false,"is_disabled":false,"rental_uris":{"android":"levelo://app?vid=b765262d-1e90-432f-b785-523eb2ca010d","ios":"levelo://app?vid=b765262d-1e90-432f-b785-523eb2ca010d"},"vehicle_type_id":"4","last_reported":1767208153,"current_range_meters":6800,"station_id":"","pricing_plan_id":"cebpf4jnsgd1na2vs0mg"},{"bike_id":"dd192176-df23-42e5-a58d-cba89ec41133","system_id":"levelo_inurba_marseille","lat":43.29298,"lon":5.37434,"is_reserved":false,"is_disabled":false,"rental_uris":{"android":"levelo://app?vid=dd192176-df23-42e5-a58d-cba89ec41133","ios":"levelo://app?vid=dd192176-df23-42e5-a58d-cba89ec41133"},"vehicle_type_id":"4","last_reported":1767208153,"current_range_meters":6800,"station_id":"ce4bgi12rcd13ifvqb70","pricing_plan_id":"cebpf4jnsgd1na2vs0mg"},{"bike_id":"3ae180a1-ad81-4fbd-8d8e-5122c1af76f4","system_id":"levelo_inurba_marseille","lat":43.337444,"lon":5.374475,"is_reserved":false,"is_disabled":false,"rental_uris":{"android":"levelo://app?vid=3ae180a1-ad81-4fbd-8d8e-5122c1af76f4","ios":"levelo://app?vid=3ae180a1-ad81-4fbd-8d8e-5122c1af76f4"},"vehicle_type_id":"4","last_reported":1767208153,"current_range_meters":6800,"station_id":"","pricing_plan_id":"cebpf4jnsgd1na2vs0mg"},{"bike_id":"ab0b1b17-e0dc-4d9b-82d2-728cde21ca10","system_id":"levelo_inurba_marseille","lat":43.29633,"lon":5.40593,"is_reserved":false,"is_disabled":false,"rental_uris":{"android":"levelo://app?vid=ab0b1b17-e0dc-4d9b-82d2-728cde21ca10","ios":"levelo://app?vid=ab0b1b17-e0dc-4d9b-82d2-728cde21ca10"},"vehicle_type_id":"4","last_reported":1767208153,"current_range_meters":6800,"station_id":"ce4bh0h2rcd13ifvqd60","pricing_plan_id":"cebpf4jnsgd1na2vs0mg"},{"bike_id":"ec5fae6d-47b5-4030-bf64-4af050af9ecb","system_id":"levelo_inurba_marseille","lat":43.30936,"lon":5.37802,"is_reserved":false,"is_disabled":false,"rental_uris":{"android":"levelo://app?vid=ec5fae6d-47b5-4030-bf64-4af050af9ecb","ios":"levelo://app?vid=ec5fae6d-47b5-4030-bf64-4af050af9ecb"},"vehicle_type_id":"4","last_reported":1767208153,"current_range_meters":6800,"station_id":"","pricing_plan_id":"cebpf4jnsgd1na2vs0mg"},{"bike_id":"553dc950-9a8c-463e-bd3c-210b3d4af814","system_id":"levelo_inurba_marseille","lat":43.29212,"lon":5.36057,"is_reserved":false,"is_disabled":true,"rental_uris":{"android":"levelo://app?vid=553dc950-9a8c-463e-bd3c-210b3d4af814","ios":"levelo://app?vid=553dc950-9a8c-463e-bd3c-210b3d4af814"},"vehicle_type_id":"4","last_reported":1767208153,"current_range_meters":6800,"station_id":"ce4bhbh2rcd13ifvqeqg","pricing_plan_id":"cebpf4jnsgd1na2vs0mg"},{"bike_id":"b7e177d0-8f8d-4d6b-bc9f-21cd1adc3427","system_id":"levelo_inurba_marseille","lat":43.29274,"lon":5.36841,"is_reserved":false,"is_disabled":false,"rental_uris":{"android":"levelo://app?vid=b7e177d0-8f8d-4d6b-bc9f-21cd1adc3427","ios":"levelo://app?vid=b7e177d0-8f8d-4d6b-bc9f-21cd1adc3427"},"vehicle_type_id":"4","last_reported":1767208153,"current_range_meters":6800,"station_id":"ce4bhbp2rcd13ifvqesg","pricing_plan_id":"cebpf4jnsgd1na2vs0mg"},{"bike_id":"8839e193-b009-49b7-b914-15a05d6dcf3d","system_id":"levelo_inurba_marseille","lat":43.28601,"lon":5.35043,"is_reserved":false,"is_disabled":false,"rental_uris":{"android":"levelo://app?vid=8839e193-b009-49b7-b914-15a05d6dcf3d","ios":"levelo://app?vid=8839e193-b009-49b7-b914-15a05d6dcf3d"},"vehicle_type_id":"4","last_reported":1767208153,"current_range_meters":6800,"station_id":"ce4bhch2rcd13ifvqeug","pricing_plan_id":"cebpf4jnsgd1na2vs0mg"},{"bike_id":"50638132-5818-4c03-b97d-df54797d2d41","system_id":"levelo_inurba_marseille","lat":43.30095,"lon":5.3908,"is_reserved":false,"is_disabled":false,"rental_uris":{"android":"levelo://app?vid=50638132-5818-4c03-b97d-df54797d2d41","ios":"levelo://app?vid=50638132-5818-4c03-b97d-df54797d2d41"},"vehicle_type_id":"4","last_reported":1767208153,"current_range_meters":7200,"station_id":"ce4bh192rcd13ifvqdb0","pricing_plan_id":"cebpf4jnsgd1na2vs0mg"},{"bike_id":"e973bed7-e75a-4b88-bb85-a8ec730da809","system_id":"levelo_inurba_marseille","lat":43.2962,"lon":5.37699,"is_reserved":false,"is_disabled":false,"rental_uris":{"android":"levelo://app?vid=e973bed7-e75a-4b88-bb85-a8ec730da809","ios":"levelo://app?vid=e973bed7-e75a-4b88-bb85-a8ec730da809"},"vehicle_type_id":"4","last_reported":1767208153,"current_range_meters":7200,"station_id":"ce4bgi92rcd13ifvqb90","pricing_plan_id":"cebpf4jnsgd1na2vs0mg"},{"bike_id":"dadb62ee-c49a-48b9-aea7-ce340aba7474","system_id":"levelo_inurba_marseille","lat":43.2511,"lon":5.40323,"is_reserved":false,"is_disabled":false,"rental_uris":{"android":"levelo://app?vid=dadb62ee-c49a-48b9-aea7-ce340aba7474","ios":"levelo://app?vid=dadb62ee-c49a-48b9-aea7-ce340aba7474"},"vehicle_type_id":"4","last_reported":1767208153,"current_range_meters":7200,"station_id":"ce4bhlh2rcd13ifvqgig","pricing_plan_id":"cebpf4jnsgd1na2vs0mg"},{"bike_id":"0f909d98-9279-4414-88f6-fed3bc46f1ce","system_id":"levelo_inurba_marseille","lat":43.30411,"lon":5.41277,"is_reserved":false,"is_disabled":false,"rental_uris":{"android":"levelo://app?vid=0f909d98-9279-4414-88f6-fed3bc46f1ce","ios":"levelo://app?vid=0f909d98-9279-4414-88f6-fed3bc46f1ce"},"vehicle_type_id":"4","last_reported":1767208153,"current_range_meters":7200,"station_id":"ce4bhop2rcd13ifvqh8g","pricing_plan_id":"cebpf4jnsgd1na2vs0mg"},{"bike_id":"7639a77e-42fe-4948-be2e-506b7962af55","system_id":"levelo_inurba_marseille","lat":43.31337,"lon":5.39694,"is_reserved":false,"is_disabled":false,"rental_uris":{"android":"levelo://app?vid=7639a77e-42fe-4948-be2e-506b7962af55","ios":"levelo://app?vid=7639a77e-42fe-4948-be2e-506b7962af55"},"vehicle_type_id":"4","last_reported":1767208153,"current_range_meters":7200,"station_id":"ce4bgvp2rcd13ifvqcu0","pricing_plan_id":"cebpf4jnsgd1na2vs0mg"},{"bike_id":"5aeb6241-cfc5-405d-9a57-069e20b1ea87","system_id":"levelo_inurba_marseille","lat":43.28707,"lon":5.38673,"is_reserved":false,"is_disabled":false,"rental_uris":{"android":"levelo://app?vid=5aeb6241-cfc5-405d-9a57-069e20b1ea87","ios":"levelo://app?vid=5aeb6241-cfc5-405d-9a57-069e20b1ea87"},"vehicle_type_id":"4","last_reported":1767208153,"current_range_meters":8000,"station_id":"","pricing_plan_id":"cebpf4jnsgd1na2vs0mg"},{"bike_id":"dce28840-1b59-4930-917a-12d88071d00f","system_id":"levelo_inurba_marseille","lat":43.28544,"lon":5.44103,"is_reserved":false,"is_disabled":false,"rental_uris":{"android":"levelo://app?vid=dce28840-1b59-4930-917a-12d88071d00f","ios":"levelo://app?vid=dce28840-1b59-4930-917a-12d88071d00f"},"vehicle_type_id":"4","last_reported":1767208153,"current_range_meters":8000,"station_id":"st_d3j3df2ikq2c7380ej80","pricing_plan_id":"cebpf4jnsgd1na2vs0mg"},{"bike_id":"d1e9a7b4-a8fa-4db9-954e-f727417995e2","system_id":"levelo_inurba_marseille","lat":43.27181,"lon":5.390489,"is_reserved":false,"is_disabled":false,"rental_uris":{"android":"levelo://app?vid=d1e9a7b4-a8fa-4db9-954e-f727417995e2","ios":"levelo://app?vid=d1e9a7b4-a8fa-4db9-954e-f727417995e2"},"vehicle_type_id":"4","last_reported":1767208153,"current_range_meters":8000,"station_id":"","pricing_plan_id":"cebpf4jnsgd1na2vs0mg"},{"bike_id":"7c20e148-2a07-439c-8007-95ff3dd732b8","system_id":"levelo_inurba_marseille","lat":43.21196,"lon":5.35069,"is_reserved":false,"is_disabled":true,"rental_uris":{"android":"levelo://app?vid=7c20e148-2a07-439c-8007-95ff3dd732b8","ios":"levelo://app?vid=7c20e148-2a07-439c-8007-95ff3dd732b8"},"vehicle_type_id":"4","last_reported":1767208153,"current_range_meters":8000,"station_id":"st_cvj6sg6p6f1abm77japg","pricing_plan_id":"cebpf4jnsgd1na2vs0mg"},{"bike_id":"a274e1f3-90e8-4548-9a2a-4f53c59abc4e","system_id":"levelo_inurba_marseille","lat":43.31687,"lon":5.40473,"is_reserved":false,"is_disabled":true,"rental_uris":{"android":"levelo://app?vid=a274e1f3-90e8-4548-9a2a-4f53c59abc4e","ios":"levelo://app?vid=a274e1f3-90e8-4548-9a2a-4f53c59abc4e"},"vehicle_type_id":"4","last_reported":1767208153,"current_range_meters":8000,"station_id":"ce4bh012rcd13ifvqd00","pricing_plan_id":"cebpf4jnsgd1na2vs0mg"},{"bike_id":"07b5a21c-165e-4a9a-a678-ef44e4a48a6d","system_id":"levelo_inurba_marseille","lat":43.24809,"lon":5.37457,"is_reserved":false,"is_disabled":false,"rental_uris":{"android":"levelo://app?vid=07b5a21c-165e-4a9a-a678-ef44e4a48a6d","ios":"levelo://app?vid=07b5a21c-165e-4a9a-a678-ef44e4a48a6d"},"vehicle_type_id":"4","last_reported":1767208153,"current_range_meters":8000,"station_id":"ce4bhgh2rcd13ifvqfb0","pricing_plan_id":"cebpf4jnsgd1na2vs0mg"},{"bike_id":"c255b81a-3348-466e-9e0b-551409392c0b","system_id":"levelo_inurba_marseille","lat":43.266844,"lon":5.38276,"is_reserved":false,"is_disabled":true,"rental_uris":{"android":"levelo://app?vid=c255b81a-3348-466e-9e0b-551409392c0b","ios":"levelo://app?vid=c255b81a-3348-466e-9e0b-551409392c0b"},"vehicle_type_id":"4","last_reported":1767208153,"current_range_meters":8000,"station_id":"","pricing_plan_id":"cebpf4jnsgd1na2vs0mg"},{"bike_id":"7d2cfab9-3d54-497f-a934-707a325c2c08","system_id":"levelo_inurba_marseille","lat":43.27911,"lon":5.39572,"is_reserved":false,"is_disabled":false,"rental_uris":{"android":"levelo://app?vid=7d2cfab9-3d54-497f-a934-707a325c2c08","ios":"levelo://app?vid=7d2cfab9-3d54-497f-a934-707a325c2c08"},"vehicle_type_id":"4","last_reported":1767208153,"current_range_meters":8000,"station_id":"ce4bhf92rcd13ifvqf40","pricing_plan_id":"cebpf4jnsgd1na2vs0mg"},{"bike_id":"b8218b86-9c67-44b2-af7a-c0a5340c5723","system_id":"levelo_inurba_marseille","lat":43.33542,"lon":5.37463,"is_reserved":false,"is_disabled":false,"rental_uris":{"android":"levelo://app?vid=b8218b86-9c67-44b2-af7a-c0a5340c5723","ios":"levelo://app?vid=b8218b86-9c67-44b2-af7a-c0a5340c5723"},"vehicle_type_id":"4","last_reported":1767208153,"current_range_meters":8000,"station_id":"st_d46tts09ee8s73dlu43g","pricing_plan_id":"cebpf4jnsgd1na2vs0mg"},{"bike_id":"4ad2b3b1-f49b-4076-9db8-7922efd2281f","system_id":"levelo_inurba_marseille","lat":43.2721,"lon":5.39185,"is_reserved":false,"is_disabled":false,"rental_uris":{"android":"levelo://app?vid=4ad2b3b1-f49b-4076-9db8-7922efd2281f","ios":"levelo://app?vid=4ad2b3b1-f49b-4076-9db8-7922efd2281f"},"vehicle_type_id":"4","last_reported":1767208153,"current_range_meters":8000,"station_id":"ce4bhhp2rcd13ifvqfm0","pricing_plan_id":"cebpf4jnsgd1na2vs0mg"},{"bike_id":"efd33062-2cef-445f-af98-648f578e9c2a","system_id":"levelo_inurba_marseille","lat":43.32627,"lon":5.41976,"is_reserved":false,"is_disabled":false,"rental_uris":{"android":"levelo://app?vid=efd33062-2cef-445f-af98-648f578e9c2a","ios":"levelo://app?vid=efd33062-2cef-445f-af98-648f578e9c2a"},"vehicle_type_id":"4","last_reported":1767208153,"current_range_meters":8400,"station_id":"","pricing_plan_id":"cebpf4jnsgd1na2vs0mg"},{"bike_id":"78ed77cb-47f0-4c82-bf8a-f958576ec953","system_id":"levelo_inurba_marseille","lat":43.28151,"lon":5.42636,"is_reserved":false,"is_disabled":false,"rental_uris":{"android":"levelo://app?vid=78ed77cb-47f0-4c82-bf8a-f958576ec953","ios":"levelo://app?vid=78ed77cb-47f0-4c82-bf8a-f958576ec953"},"vehicle_type_id":"4","last_reported":1767208153,"current_range_meters":8400,"station_id":"ce4bhnh2rcd13ifvqgug","pricing_plan_id":"cebpf4jnsgd1na2vs0mg"},{"bike_id":"7cc08dd6-826c-4451-a490-86ca460ba99b","system_id":"levelo_inurba_marseille","lat":43.321024,"lon":5.367758,"is_reserved":false,"is_disabled":false,"rental_uris":{"android":"levelo://app?vid=7cc08dd6-826c-4451-a490-86ca460ba99b","ios":"levelo://app?vid=7cc08dd6-826c-4451-a490-86ca460ba99b"},"vehicle_type_id":"4","last_reported":1767208153,"current_range_meters":8400,"station_id":"ce4bhrh2rcd13ifvqhug","pricing_plan_id":"cebpf4jnsgd1na2vs0mg"},{"bike_id":"0fa76090-b264-4d7f-a0bc-7de1e50f19da","system_id":"levelo_inurba_marseille","lat":43.28021,"lon":5.40381,"is_reserved":false,"is_disabled":false,"rental_uris":{"android":"levelo://app?vid=0fa76090-b264-4d7f-a0bc-7de1e50f19da","ios":"levelo://app?vid=0fa76090-b264-4d7f-a0bc-7de1e50f19da"},"vehicle_type_id":"4","last_reported":1767208153,"current_range_meters":8400,"station_id":"","pricing_plan_id":"cebpf4jnsgd1na2vs0mg"},{"bike_id":"149a94e7-8065-4440-a1ab-1ba416a8f181","system_id":"levelo_inurba_marseille","lat":43.28491,"lon":5.4838,"is_reserved":false,"is_disabled":false,"rental_uris":{"android":"levelo://app?vid=149a94e7-8065-4440-a1ab-1ba416a8f181","ios":"levelo://app?vid=149a94e7-8065-4440-a1ab-1ba416a8f181"},"vehicle_type_id":"4","last_reported":1767208153,"current_range_meters":8400,"station_id":"","pricing_plan_id":"cebpf4jnsgd1na2vs0mg"},{"bike_id":"d71f2cc9-34f1-4eed-8707-d0bf53e9f9dd","system_id":"levelo_inurba_marseille","lat":43.335384,"lon":5.374578,"is_reserved":false,"is_disabled":false,"rental_uris":{"android":"levelo://app?vid=d71f2cc9-34f1-4eed-8707-d0bf53e9f9dd","ios":"levelo://app?vid=d71f2cc9-34f1-4eed-8707-d0bf53e9f9dd"},"vehicle_type_id":"4","last_reported":1767208153,"current_range_meters":8400,"station_id":"st_d46tts09ee8s73dlu43g","pricing_plan_id":"cebpf4jnsgd1na2vs0mg"},{"bike_id":"0182be73-6b74-4cfa-824d-7ef5df86f28e","system_id":"levelo_inurba_marseille","lat":43.30917,"lon":5.36866,"is_reserved":false,"is_disabled":false,"rental_uris":{"android":"levelo://app?vid=0182be73-6b74-4cfa-824d-7ef5df86f28e","ios":"levelo://app?vid=0182be73-6b74-4cfa-824d-7ef5df86f28e"},"vehicle_type_id":"4","last_reported":1767208153,"current_range_meters":8400,"station_id":"ce4bgn92rcd13ifvqbvg","pricing_plan_id":"cebpf4jnsgd1na2vs0mg"},{"bike_id":"8d39a28b-6766-4dd2-9cb0-2a9ef3a2a93b","system_id":"levelo_inurba_marseille","lat":43.33163,"lon":5.37686,"is_reserved":false,"is_disabled":false,"rental_uris":{"android":"levelo://app?vid=8d39a28b-6766-4dd2-9cb0-2a9ef3a2a93b","ios":"levelo://app?vid=8d39a28b-6766-4dd2-9cb0-2a9ef3a2a93b"},"vehicle_type_id":"4","last_reported":1767208153,"current_range_meters":8800,"station_id":"st_d46cu089ee8s73dldbu0","pricing_plan_id":"cebpf4jnsgd1na2vs0mg"},{"bike_id":"8c9f703d-219a-46f5-bb1d-6f7b59f09c24","system_id":"levelo_inurba_marseille","lat":43.30118,"lon":5.37433,"is_reserved":false,"is_disabled":false,"rental_uris":{"android":"levelo://app?vid=8c9f703d-219a-46f5-bb1d-6f7b59f09c24","ios":"levelo://app?vid=8c9f703d-219a-46f5-bb1d-6f7b59f09c24"},"vehicle_type_id":"4","last_reported":1767208153,"current_range_meters":8800,"station_id":"ce4bgs92rcd13ifvqcc0","pricing_plan_id":"cebpf4jnsgd1na2vs0mg"},{"bike_id":"9f5675e4-88db-48d3-8494-8d0ff0c52f46","system_id":"levelo_inurba_marseille","lat":43.255805,"lon":5.382457,"is_reserved":false,"is_disabled":false,"rental_uris":{"android":"levelo://app?vid=9f5675e4-88db-48d3-8494-8d0ff0c52f46","ios":"levelo://app?vid=9f5675e4-88db-48d3-8494-8d0ff0c52f46"},"vehicle_type_id":"4","last_reported":1767208153,"current_range_meters":8800,"station_id":"ce4bhih2rcd13ifvqfs0","pricing_plan_id":"cebpf4jnsgd1na2vs0mg"},{"bike_id":"8948b666-b72d-4467-a9ed-39db870acea5","system_id":"levelo_inurba_marseille","lat":43.30786,"lon":5.39237,"is_reserved":false,"is_disabled":false,"rental_uris":{"android":"levelo://app?vid=8948b666-b72d-4467-a9ed-39db870acea5","ios":"levelo://app?vid=8948b666-b72d-4467-a9ed-39db870acea5"},"vehicle_type_id":"4","last_reported":1767208153,"current_range_meters":8800,"station_id":"","pricing_plan_id":"cebpf4jnsgd1na2vs0mg"},{"bike_id":"2736b34b-98dd-4ca9-b701-f4278e5f6e64","system_id":"levelo_inurba_marseille","lat":43.3236,"lon":5.36763,"is_reserved":false,"is_disabled":false,"rental_uris":{"android":"levelo://app?vid=2736b34b-98dd-4ca9-b701-f4278e5f6e64","ios":"levelo://app?vid=2736b34b-98dd-4ca9-b701-f4278e5f6e64"},"vehicle_type_id":"4","last_reported":1767208153,"current_range_meters":8800,"station_id":"ce4bhsh2rcd13ifvqi2g","pricing_plan_id":"cebpf4jnsgd1na2vs0mg"},{"bike_id":"1485075b-1bb5-48d2-b0e5-402379126b05","system_id":"levelo_inurba_marseille","lat":43.29902,"lon":5.38101,"is_reserved":false,"is_disabled":true,"rental_uris":{"android":"levelo://app?vid=1485075b-1bb5-48d2-b0e5-402379126b05","ios":"levelo://app?vid=1485075b-1bb5-48d2-b0e5-402379126b05"},"vehicle_type_id":"4","last_reported":1767208153,"current_range_meters":8800,"station_id":"ce4bgj12rcd13ifvqbc0","pricing_plan_id":"cebpf4jnsgd1na2vs0mg"},{"bike_id":"fddafdb5-be71-4258-90b8-62836e4af9e9","system_id":"levelo_inurba_marseille","lat":43.274206,"lon":5.394502,"is_reserved":false,"is_disabled":false,"rental_uris":{"android":"levelo://app?vid=fddafdb5-be71-4258-90b8-62836e4af9e9","ios":"levelo://app?vid=fddafdb5-be71-4258-90b8-62836e4af9e9"},"vehicle_type_id":"4","last_reported":1767208153,"current_range_meters":8800,"station_id":"ce4bgt92rcd13ifvqcg0","pricing_plan_id":"cebpf4jnsgd1na2vs0mg"},{"bike_id":"fe1cb398-d49f-4c6a-b92a-5cde221dd480","system_id":"levelo_inurba_marseille","lat":43.33364,"lon":5.41095,"is_reserved":false,"is_disabled":false,"rental_uris":{"android":"levelo://app?vid=fe1cb398-d49f-4c6a-b92a-5cde221dd480","ios":"levelo://app?vid=fe1cb398-d49f-4c6a-b92a-5cde221dd480"},"vehicle_type_id":"4","last_reported":1767208153,"current_range_meters":8800,"station_id":"","pricing_plan_id":"cebpf4jnsgd1na2vs0mg"},{"bike_id":"b9f5bb9a-d9aa-4714-a9ae-ceaed3ab533e","system_id":"levelo_inurba_marseille","lat":43.29631,"lon":5.38057,"is_reserved":false,"is_disabled":false,"rental_uris":{"android":"levelo://app?vid=b9f5bb9a-d9aa-4714-a9ae-ceaed3ab533e","ios":"levelo://app?vid=b9f5bb9a-d9aa-4714-a9ae-ceaed3ab533e"},"vehicle_type_id":"4","last_reported":1767208153,"current_range_meters":8800,"station_id":"","pricing_plan_id":"cebpf4jnsgd1na2vs0mg"},{"bike_id":"9a2077a2-cebc-468c-82f9-fecda68a9ec3","system_id":"levelo_inurba_marseille","lat":43.2949,"lon":5.40896,"is_reserved":false,"is_disabled":false,"rental_uris":{"android":"levelo://app?vid=9a2077a2-cebc-468c-82f9-fecda68a9ec3","ios":"levelo://app?vid=9a2077a2-cebc-468c-82f9-fecda68a9ec3"},"vehicle_type_id":"4","last_reported":1767208153,"current_range_meters":8800,"station_id":"","pricing_plan_id":"cebpf4jnsgd1na2vs0mg"},{"bike_id":"0c9ca243-897c-4d38-8127-8933d39eb60f","system_id":"levelo_inurba_marseille","lat":43.28863,"lon":5.42518,"is_reserved":false,"is_disabled":false,"rental_uris":{"android":"levelo://app?vid=0c9ca243-897c-4d38-8127-8933d39eb60f","ios":"levelo://app?vid=0c9ca243-897c-4d38-8127-8933d39eb60f"},"vehicle_type_id":"4","last_reported":1767208153,"current_range_meters":8800,"station_id":"st_d3b462108ojc7389ooeg","pricing_plan_id":"cebpf4jnsgd1na2vs0mg"},{"bike_id":"f2092c35-981f-41d5-9362-017860a35c8e","system_id":"levelo_inurba_marseille","lat":43.28681,"lon":5.3868,"is_reserved":false,"is_disabled":false,"rental_uris":{"android":"levelo://app?vid=f2092c35-981f-41d5-9362-017860a35c8e","ios":"levelo://app?vid=f2092c35-981f-41d5-9362-017860a35c8e"},"vehicle_type_id":"4","last_reported":1767208153,"current_range_meters":9200,"station_id":"ce4bh492rcd13ifvqdug","pricing_plan_id":"cebpf4jnsgd1na2vs0mg"},{"bike_id":"e93c83d5-bafc-41ab-b80f-422d8d8d6d2a","system_id":"levelo_inurba_marseille","lat":43.26848,"lon":5.40078,"is_reserved":false,"is_disabled":false,"rental_uris":{"android":"levelo://app?vid=e93c83d5-bafc-41ab-b80f-422d8d8d6d2a","ios":"levelo://app?vid=e93c83d5-bafc-41ab-b80f-422d8d8d6d2a"},"vehicle_type_id":"4","last_reported":1767208153,"current_range_meters":9200,"station_id":"","pricing_plan_id":"cebpf4jnsgd1na2vs0mg"},{"bike_id":"950c0338-ee03-4bb1-82b4-c4470bbb4acc","system_id":"levelo_inurba_marseille","lat":43.31199,"lon":5.36971,"is_reserved":false,"is_disabled":false,"rental_uris":{"android":"levelo://app?vid=950c0338-ee03-4bb1-82b4-c4470bbb4acc","ios":"levelo://app?vid=950c0338-ee03-4bb1-82b4-c4470bbb4acc"},"vehicle_type_id":"4","last_reported":1767208153,"current_range_meters":9200,"station_id":"ce4bgl92rcd13ifvqbq0","pricing_plan_id":"cebpf4jnsgd1na2vs0mg"},{"bike_id":"9cb5ae99-5884-40a4-9c3b-7a9c989d5f03","system_id":"levelo_inurba_marseille","lat":43.28479,"lon":5.3841,"is_reserved":false,"is_disabled":false,"rental_uris":{"android":"levelo://app?vid=9cb5ae99-5884-40a4-9c3b-7a9c989d5f03","ios":"levelo://app?vid=9cb5ae99-5884-40a4-9c3b-7a9c989d5f03"},"vehicle_type_id":"4","last_reported":1767208153,"current_range_meters":9200,"station_id":"ce4bh512rcd13ifvqe3g","pricing_plan_id":"cebpf4jnsgd1na2vs0mg"},{"bike_id":"96657df9-7d68-4cd8-9f06-a5e501866c49","system_id":"levelo_inurba_marseille","lat":43.29308,"lon":5.37569,"is_reserved":false,"is_disabled":false,"rental_uris":{"android":"levelo://app?vid=96657df9-7d68-4cd8-9f06-a5e501866c49","ios":"levelo://app?vid=96657df9-7d68-4cd8-9f06-a5e501866c49"},"vehicle_type_id":"4","last_reported":1767208153,"current_range_meters":9200,"station_id":"","pricing_plan_id":"cebpf4jnsgd1na2vs0mg"},{"bike_id":"5265762e-9468-4f8e-963d-e1d647f4d72d","system_id":"levelo_inurba_marseille","lat":43.337444,"lon":5.374475,"is_reserved":false,"is_disabled":false,"rental_uris":{"android":"levelo://app?vid=5265762e-9468-4f8e-963d-e1d647f4d72d","ios":"levelo://app?vid=5265762e-9468-4f8e-963d-e1d647f4d72d"},"vehicle_type_id":"4","last_reported":1767208153,"current_range_meters":9600,"station_id":"","pricing_plan_id":"cebpf4jnsgd1na2vs0mg"},{"bike_id":"90dac6f2-4e58-4623-b929-4f8d06ec1c31","system_id":"levelo_inurba_marseille","lat":43.28501,"lon":5.42535,"is_reserved":false,"is_disabled":false,"rental_uris":{"android":"levelo://app?vid=90dac6f2-4e58-4623-b929-4f8d06ec1c31","ios":"levelo://app?vid=90dac6f2-4e58-4623-b929-4f8d06ec1c31"},"vehicle_type_id":"4","last_reported":1767208153,"current_range_meters":9600,"station_id":"","pricing_plan_id":"cebpf4jnsgd1na2vs0mg"},{"bike_id":"6a5933b5-bf4e-45b9-9eb4-216a7e0e8b72","system_id":"levelo_inurba_marseille","lat":43.27317,"lon":5.39098,"is_reserved":false,"is_disabled":false,"rental_uris":{"android":"levelo://app?vid=6a5933b5-bf4e-45b9-9eb4-216a7e0e8b72","ios":"levelo://app?vid=6a5933b5-bf4e-45b9-9eb4-216a7e0e8b72"},"vehicle_type_id":"4","last_reported":1767208153,"current_range_meters":9600,"station_id":"ce4bhgp2rcd13ifvqfe0","pricing_plan_id":"cebpf4jnsgd1na2vs0mg"},{"bike_id":"4bc57557-a1ff-4445-8883-a2ab5098f534","system_id":"levelo_inurba_marseille","lat":43.33603,"lon":5.35399,"is_reserved":false,"is_disabled":false,"rental_uris":{"android":"levelo://app?vid=4bc57557-a1ff-4445-8883-a2ab5098f534","ios":"levelo://app?vid=4bc57557-a1ff-4445-8883-a2ab5098f534"},"vehicle_type_id":"4","last_reported":1767208153,"current_range_meters":9600,"station_id":"","pricing_plan_id":"cebpf4jnsgd1na2vs0mg"},{"bike_id":"8fb5904e-6060-4a04-9ca5-c17d7823ae5d","system_id":"levelo_inurba_marseille","lat":43.29636,"lon":5.40593,"is_reserved":false,"is_disabled":false,"rental_uris":{"android":"levelo://app?vid=8fb5904e-6060-4a04-9ca5-c17d7823ae5d","ios":"levelo://app?vid=8fb5904e-6060-4a04-9ca5-c17d7823ae5d"},"vehicle_type_id":"4","last_reported":1767208153,"current_range_meters":9600,"station_id":"ce4bh0h2rcd13ifvqd60","pricing_plan_id":"cebpf4jnsgd1na2vs0mg"},{"bike_id":"4372a42a-b334-4e8f-9141-9b6d15dd3e03","system_id":"levelo_inurba_marseille","lat":43.28482,"lon":5.48386,"is_reserved":false,"is_disabled":false,"rental_uris":{"android":"levelo://app?vid=4372a42a-b334-4e8f-9141-9b6d15dd3e03","ios":"levelo://app?vid=4372a42a-b334-4e8f-9141-9b6d15dd3e03"},"vehicle_type_id":"4","last_reported":1767208153,"current_range_meters":9600,"station_id":"","pricing_plan_id":"cebpf4jnsgd1na2vs0mg"},{"bike_id":"bfa05089-59b2-415e-8671-95e8a5342016","system_id":"levelo_inurba_marseille","lat":43.30895,"lon":5.37219,"is_reserved":false,"is_disabled":false,"rental_uris":{"android":"levelo://app?vid=bfa05089-59b2-415e-8671-95e8a5342016","ios":"levelo://app?vid=bfa05089-59b2-415e-8671-95e8a5342016"},"vehicle_type_id":"4","last_reported":1767208153,"current_range_meters":9600,"station_id":"ce4bguh2rcd13ifvqckg","pricing_plan_id":"cebpf4jnsgd1na2vs0mg"},{"bike_id":"6d34a40a-3c31-4e57-aba7-ad6f30894876","system_id":"levelo_inurba_marseille","lat":43.2994,"lon":5.37413,"is_reserved":false,"is_disabled":false,"rental_uris":{"android":"levelo://app?vid=6d34a40a-3c31-4e57-aba7-ad6f30894876","ios":"levelo://app?vid=6d34a40a-3c31-4e57-aba7-ad6f30894876"},"vehicle_type_id":"4","last_reported":1767208153,"current_range_meters":9600,"station_id":"","pricing_plan_id":"cebpf4jnsgd1na2vs0mg"},{"bike_id":"9e65f97a-e791-4c85-9339-5cb37dec5e96","system_id":"levelo_inurba_marseille","lat":43.301312,"lon":5.398664,"is_reserved":false,"is_disabled":false,"rental_uris":{"android":"levelo://app?vid=9e65f97a-e791-4c85-9339-5cb37dec5e96","ios":"levelo://app?vid=9e65f97a-e791-4c85-9339-5cb37dec5e96"},"vehicle_type_id":"4","last_reported":1767208153,"current_range_meters":9600,"station_id":"ce4bh0h2rcd13ifvqd40","pricing_plan_id":"cebpf4jnsgd1na2vs0mg"},{"bike_id":"cf61d156-dac6-4f0e-b382-70446db78ff3","system_id":"levelo_inurba_marseille","lat":43.32363,"lon":5.36764,"is_reserved":false,"is_disabled":false,"rental_uris":{"android":"levelo://app?vid=cf61d156-dac6-4f0e-b382-70446db78ff3","ios":"levelo://app?vid=cf61d156-dac6-4f0e-b382-70446db78ff3"},"vehicle_type_id":"4","last_reported":1767208153,"current_range_meters":9600,"station_id":"ce4bhsh2rcd13ifvqi2g","pricing_plan_id":"cebpf4jnsgd1na2vs0mg"},{"bike_id":"650cf425-f87e-4c30-9156-354d5fef94cd","system_id":"levelo_inurba_marseille","lat":43.30131,"lon":5.36752,"is_reserved":false,"is_disabled":false,"rental_uris":{"android":"levelo://app?vid=650cf425-f87e-4c30-9156-354d5fef94cd","ios":"levelo://app?vid=650cf425-f87e-4c30-9156-354d5fef94cd"},"vehicle_type_id":"4","last_reported":1767208153,"current_range_meters":9600,"station_id":"","pricing_plan_id":"cebpf4jnsgd1na2vs0mg"},{"bike_id":"b7142933-5bc0-4beb-a4ab-a3152aae03ce","system_id":"levelo_inurba_marseille","lat":43.26038,"lon":5.41736,"is_reserved":false,"is_disabled":false,"rental_uris":{"android":"levelo://app?vid=b7142933-5bc0-4beb-a4ab-a3152aae03ce","ios":"levelo://app?vid=b7142933-5bc0-4beb-a4ab-a3152aae03ce"},"vehicle_type_id":"4","last_reported":1767208153,"current_range_meters":9600,"station_id":"","pricing_plan_id":"cebpf4jnsgd1na2vs0mg"},{"bike_id":"1f5e6030-7683-49ad-acd1-2bd236b74619","system_id":"levelo_inurba_marseille","lat":43.28612,"lon":5.39869,"is_reserved":false,"is_disabled":false,"rental_uris":{"android":"levelo://app?vid=1f5e6030-7683-49ad-acd1-2bd236b74619","ios":"levelo://app?vid=1f5e6030-7683-49ad-acd1-2bd236b74619"},"vehicle_type_id":"4","last_reported":1767208153,"current_range_meters":9600,"station_id":"st_d4a7ka997mjs738ck50g","pricing_plan_id":"cebpf4jnsgd1na2vs0mg"},{"bike_id":"8168b440-33a4-4656-9a77-10bde570a11e","system_id":"levelo_inurba_marseille","lat":43.30145,"lon":5.38056,"is_reserved":false,"is_disabled":false,"rental_uris":{"android":"levelo://app?vid=8168b440-33a4-4656-9a77-10bde570a11e","ios":"levelo://app?vid=8168b440-33a4-4656-9a77-10bde570a11e"},"vehicle_type_id":"4","last_reported":1767208153,"current_range_meters":9600,"station_id":"ce4bgjp2rcd13ifvqbh0","pricing_plan_id":"cebpf4jnsgd1na2vs0mg"},{"bike_id":"090deb3c-b463-4496-9a6a-019b5e498763","system_id":"levelo_inurba_marseille","lat":43.32346,"lon":5.36736,"is_reserved":false,"is_disabled":false,"rental_uris":{"android":"levelo://app?vid=090deb3c-b463-4496-9a6a-019b5e498763","ios":"levelo://app?vid=090deb3c-b463-4496-9a6a-019b5e498763"},"vehicle_type_id":"4","last_reported":1767208153,"current_range_meters":10000,"station_id":"ce4bhsh2rcd13ifvqi2g","pricing_plan_id":"cebpf4jnsgd1na2vs0mg"},{"bike_id":"3c554b37-3b38-4c8a-be17-815a87aa6e42","system_id":"levelo_inurba_marseille","lat":43.29799,"lon":5.38088,"is_reserved":false,"is_disabled":false,"rental_uris":{"android":"levelo://app?vid=3c554b37-3b38-4c8a-be17-815a87aa6e42","ios":"levelo://app?vid=3c554b37-3b38-4c8a-be17-815a87aa6e42"},"vehicle_type_id":"4","last_reported":1767208153,"current_range_meters":10000,"station_id":"ce4bgip2rcd13ifvqbb0","pricing_plan_id":"cebpf4jnsgd1na2vs0mg"},{"bike_id":"8fa53ddb-80a9-4b81-a17d-6b07554edef4","system_id":"levelo_inurba_marseille","lat":43.28474,"lon":5.48396,"is_reserved":false,"is_disabled":false,"rental_uris":{"android":"levelo://app?vid=8fa53ddb-80a9-4b81-a17d-6b07554edef4","ios":"levelo://app?vid=8fa53ddb-80a9-4b81-a17d-6b07554edef4"},"vehicle_type_id":"4","last_reported":1767208153,"current_range_meters":10000,"station_id":"st_d3svhcjqgbts73a3dn0g","pricing_plan_id":"cebpf4jnsgd1na2vs0mg"},{"bike_id":"6e348a5f-79c6-4ad5-b145-28cc674f2836","system_id":"levelo_inurba_marseille","lat":43.30147,"lon":5.3808,"is_reserved":false,"is_disabled":false,"rental_uris":{"android":"levelo://app?vid=6e348a5f-79c6-4ad5-b145-28cc674f2836","ios":"levelo://app?vid=6e348a5f-79c6-4ad5-b145-28cc674f2836"},"vehicle_type_id":"4","last_reported":1767208153,"current_range_meters":10000,"station_id":"ce4bgjp2rcd13ifvqbh0","pricing_plan_id":"cebpf4jnsgd1na2vs0mg"},{"bike_id":"c78b7752-9cb7-4b06-a8ef-1f65d9ce20cf","system_id":"levelo_inurba_marseille","lat":43.31648,"lon":5.38808,"is_reserved":false,"is_disabled":false,"rental_uris":{"android":"levelo://app?vid=c78b7752-9cb7-4b06-a8ef-1f65d9ce20cf","ios":"levelo://app?vid=c78b7752-9cb7-4b06-a8ef-1f65d9ce20cf"},"vehicle_type_id":"4","last_reported":1767208153,"current_range_meters":10000,"station_id":"","pricing_plan_id":"cebpf4jnsgd1na2vs0mg"},{"bike_id":"6829c2ba-4803-45fc-b53e-cc64f82d43f9","system_id":"levelo_inurba_marseille","lat":43.289645,"lon":5.378528,"is_reserved":false,"is_disabled":false,"rental_uris":{"android":"levelo://app?vid=6829c2ba-4803-45fc-b53e-cc64f82d43f9","ios":"levelo://app?vid=6829c2ba-4803-45fc-b53e-cc64f82d43f9"},"vehicle_type_id":"4","last_reported":1767208153,"current_range_meters":10000,"station_id":"ce4bh9p2rcd13ifvqed0","pricing_plan_id":"cebpf4jnsgd1na2vs0mg"},{"bike_id":"d285cd77-c7b4-4ad4-ad28-ed6edfeaa990","system_id":"levelo_inurba_marseille","lat":43.296071,"lon":5.380869,"is_reserved":false,"is_disabled":true,"rental_uris":{"android":"levelo://app?vid=d285cd77-c7b4-4ad4-ad28-ed6edfeaa990","ios":"levelo://app?vid=d285cd77-c7b4-4ad4-ad28-ed6edfeaa990"},"vehicle_type_id":"4","last_reported":1767208153,"current_range_meters":10000,"station_id":"ce4bgl12rcd13ifvqbo0","pricing_plan_id":"cebpf4jnsgd1na2vs0mg"},{"bike_id":"d49fd2c9-dca5-4864-87e0-359520dd27b8","system_id":"levelo_inurba_marseille","lat":43.26135,"lon":5.39734,"is_reserved":false,"is_disabled":false,"rental_uris":{"android":"levelo://app?vid=d49fd2c9-dca5-4864-87e0-359520dd27b8","ios":"levelo://app?vid=d49fd2c9-dca5-4864-87e0-359520dd27b8"},"vehicle_type_id":"4","last_reported":1767208153,"current_range_meters":10000,"station_id":"","pricing_plan_id":"cebpf4jnsgd1na2vs0mg"},{"bike_id":"17ed143c-c6a8-4d0a-bc59-6cc80ba2c7cb","system_id":"levelo_inurba_marseille","lat":43.32042,"lon":5.36638,"is_reserved":false,"is_disabled":false,"rental_uris":{"android":"levelo://app?vid=17ed143c-c6a8-4d0a-bc59-6cc80ba2c7cb","ios":"levelo://app?vid=17ed143c-c6a8-4d0a-bc59-6cc80ba2c7cb"},"vehicle_type_id":"4","last_reported":1767208153,"current_range_meters":10000,"station_id":"ce4bhrh2rcd13ifvqhug","pricing_plan_id":"cebpf4jnsgd1na2vs0mg"},{"bike_id":"1e979309-d823-4aaf-b851-f1be8461cefe","system_id":"levelo_inurba_marseille","lat":43.28476,"lon":5.48403,"is_reserved":false,"is_disabled":false,"rental_uris":{"android":"levelo://app?vid=1e979309-d823-4aaf-b851-f1be8461cefe","ios":"levelo://app?vid=1e979309-d823-4aaf-b851-f1be8461cefe"},"vehicle_type_id":"4","last_reported":1767208153,"current_range_meters":10000,"station_id":"st_d3svhcjqgbts73a3dn0g","pricing_plan_id":"cebpf4jnsgd1na2vs0mg"},{"bike_id":"f297e1d0-d6d1-470d-832a-7cfd1d704b5f","system_id":"levelo_inurba_marseille","lat":43.26932,"lon":5.39317,"is_reserved":false,"is_disabled":false,"rental_uris":{"android":"levelo://app?vid=f297e1d0-d6d1-470d-832a-7cfd1d704b5f","ios":"levelo://app?vid=f297e1d0-d6d1-470d-832a-7cfd1d704b5f"},"vehicle_type_id":"4","last_reported":1767208153,"current_range_meters":10000,"station_id":"","pricing_plan_id":"cebpf4jnsgd1na2vs0mg"},{"bike_id":"5528f973-2cab-4558-9d16-a544f4d7c11a","system_id":"levelo_inurba_marseille","lat":43.28926,"lon":5.38393,"is_reserved":false,"is_disabled":false,"rental_uris":{"android":"levelo://app?vid=5528f973-2cab-4558-9d16-a544f4d7c11a","ios":"levelo://app?vid=5528f973-2cab-4558-9d16-a544f4d7c11a"},"vehicle_type_id":"4","last_reported":1767208153,"current_range_meters":10000,"station_id":"ce4bh612rcd13ifvqe6g","pricing_plan_id":"cebpf4jnsgd1na2vs0mg"},{"bike_id":"4eb984c0-cff5-47bc-8a26-322fcbc1459a","system_id":"levelo_inurba_marseille","lat":43.28407,"lon":5.34988,"is_reserved":false,"is_disabled":false,"rental_uris":{"android":"levelo://app?vid=4eb984c0-cff5-47bc-8a26-322fcbc1459a","ios":"levelo://app?vid=4eb984c0-cff5-47bc-8a26-322fcbc1459a"},"vehicle_type_id":"4","last_reported":1767208153,"current_range_meters":10000,"station_id":"ce4bhbh2rcd13ifvqepg","pricing_plan_id":"cebpf4jnsgd1na2vs0mg"},{"bike_id":"d0bb4018-25f6-4e68-a310-346b219ea2b7","system_id":"levelo_inurba_marseille","lat":43.284181,"lon":5.349781,"is_reserved":false,"is_disabled":false,"rental_uris":{"android":"levelo://app?vid=d0bb4018-25f6-4e68-a310-346b219ea2b7","ios":"levelo://app?vid=d0bb4018-25f6-4e68-a310-346b219ea2b7"},"vehicle_type_id":"4","last_reported":1767208153,"current_range_meters":10000,"station_id":"","pricing_plan_id":"cebpf4jnsgd1na2vs0mg"},{"bike_id":"c0fbd099-8c83-490e-beb2-cf1a21bfc25e","system_id":"levelo_inurba_marseille","lat":43.28207,"lon":5.39047,"is_reserved":false,"is_disabled":false,"rental_uris":{"android":"levelo://app?vid=c0fbd099-8c83-490e-beb2-cf1a21bfc25e","ios":"levelo://app?vid=c0fbd099-8c83-490e-beb2-cf1a21bfc25e"},"vehicle_type_id":"4","last_reported":1767208153,"current_range_meters":10000,"station_id":"ce4bhn92rcd13ifvqgsg","pricing_plan_id":"cebpf4jnsgd1na2vs0mg"},{"bike_id":"cb433141-825a-49cd-bbee-623c4e5c0fcd","system_id":"levelo_inurba_marseille","lat":43.29765,"lon":5.4277,"is_reserved":false,"is_disabled":false,"rental_uris":{"android":"levelo://app?vid=cb433141-825a-49cd-bbee-623c4e5c0fcd","ios":"levelo://app?vid=cb433141-825a-49cd-bbee-623c4e5c0fcd"},"vehicle_type_id":"4","last_reported":1767208153,"current_range_meters":10000,"station_id":"st_d3md5207bmas73dh9klg","pricing_plan_id":"cebpf4jnsgd1na2vs0mg"},{"bike_id":"5597aead-62a3-4a96-a885-add2a6d7efc7","system_id":"levelo_inurba_marseille","lat":43.28725,"lon":5.36087,"is_reserved":false,"is_disabled":false,"rental_uris":{"android":"levelo://app?vid=5597aead-62a3-4a96-a885-add2a6d7efc7","ios":"levelo://app?vid=5597aead-62a3-4a96-a885-add2a6d7efc7"},"vehicle_type_id":"4","last_reported":1767208153,"current_range_meters":10800,"station_id":"cki0cbj6b192h4jlfktg","pricing_plan_id":"cebpf4jnsgd1na2vs0mg"},{"bike_id":"e422d1e6-989b-48c2-be56-4107da9ba332","system_id":"levelo_inurba_marseille","lat":43.32113,"lon":5.3679,"is_reserved":false,"is_disabled":false,"rental_uris":{"android":"levelo://app?vid=e422d1e6-989b-48c2-be56-4107da9ba332","ios":"levelo://app?vid=e422d1e6-989b-48c2-be56-4107da9ba332"},"vehicle_type_id":"4","last_reported":1767208153,"current_range_meters":10800,"station_id":"ce4bhrh2rcd13ifvqhug","pricing_plan_id":"cebpf4jnsgd1na2vs0mg"},{"bike_id":"8e9e5385-8439-4bd0-b241-4318d8ad2c4e","system_id":"levelo_inurba_marseille","lat":43.28346,"lon":5.38105,"is_reserved":false,"is_disabled":false,"rental_uris":{"android":"levelo://app?vid=8e9e5385-8439-4bd0-b241-4318d8ad2c4e","ios":"levelo://app?vid=8e9e5385-8439-4bd0-b241-4318d8ad2c4e"},"vehicle_type_id":"4","last_reported":1767208153,"current_range_meters":10800,"station_id":"ce4bh412rcd13ifvqdr0","pricing_plan_id":"cebpf4jnsgd1na2vs0mg"},{"bike_id":"a02fb672-5bdf-46c8-9fc1-e8fcbc8dc4d2","system_id":"levelo_inurba_marseille","lat":43.303199,"lon":5.386564,"is_reserved":false,"is_disabled":false,"rental_uris":{"android":"levelo://app?vid=a02fb672-5bdf-46c8-9fc1-e8fcbc8dc4d2","ios":"levelo://app?vid=a02fb672-5bdf-46c8-9fc1-e8fcbc8dc4d2"},"vehicle_type_id":"4","last_reported":1767208153,"current_range_meters":10800,"station_id":"","pricing_plan_id":"cebpf4jnsgd1na2vs0mg"},{"bike_id":"e3acdd24-3a3a-4dc6-86c2-a3fc24c2d529","system_id":"levelo_inurba_marseille","lat":43.289266,"lon":5.383842,"is_reserved":false,"is_disabled":false,"rental_uris":{"android":"levelo://app?vid=e3acdd24-3a3a-4dc6-86c2-a3fc24c2d529","ios":"levelo://app?vid=e3acdd24-3a3a-4dc6-86c2-a3fc24c2d529"},"vehicle_type_id":"4","last_reported":1767208153,"current_range_meters":10800,"station_id":"ce4bh612rcd13ifvqe6g","pricing_plan_id":"cebpf4jnsgd1na2vs0mg"},{"bike_id":"fd01e0ac-f4f2-4b3e-bfd2-de5d52eda19e","system_id":"levelo_inurba_marseille","lat":43.30244,"lon":5.40057,"is_reserved":false,"is_disabled":false,"rental_uris":{"android":"levelo://app?vid=fd01e0ac-f4f2-4b3e-bfd2-de5d52eda19e","ios":"levelo://app?vid=fd01e0ac-f4f2-4b3e-bfd2-de5d52eda19e"},"vehicle_type_id":"4","last_reported":1767208153,"current_range_meters":10800,"station_id":"ce4bgvh2rcd13ifvqcs0","pricing_plan_id":"cebpf4jnsgd1na2vs0mg"},{"bike_id":"94e16f28-7dcf-4273-940d-294336091110","system_id":"levelo_inurba_marseille","lat":43.29552,"lon":5.38137,"is_reserved":false,"is_disabled":false,"rental_uris":{"android":"levelo://app?vid=94e16f28-7dcf-4273-940d-294336091110","ios":"levelo://app?vid=94e16f28-7dcf-4273-940d-294336091110"},"vehicle_type_id":"4","last_reported":1767208153,"current_range_meters":10800,"station_id":"","pricing_plan_id":"cebpf4jnsgd1na2vs0mg"},{"bike_id":"ac91dfcc-4134-40a6-b5c1-5ba0e33ed7b3","system_id":"levelo_inurba_marseille","lat":43.30157,"lon":5.39888,"is_reserved":false,"is_disabled":false,"rental_uris":{"android":"levelo://app?vid=ac91dfcc-4134-40a6-b5c1-5ba0e33ed7b3","ios":"levelo://app?vid=ac91dfcc-4134-40a6-b5c1-5ba0e33ed7b3"},"vehicle_type_id":"4","last_reported":1767208153,"current_range_meters":10800,"station_id":"ce4bh0h2rcd13ifvqd40","pricing_plan_id":"cebpf4jnsgd1na2vs0mg"},{"bike_id":"bb26e429-7b81-4c9f-bef8-74de767070eb","system_id":"levelo_inurba_marseille","lat":43.29248,"lon":5.36033,"is_reserved":false,"is_disabled":false,"rental_uris":{"android":"levelo://app?vid=bb26e429-7b81-4c9f-bef8-74de767070eb","ios":"levelo://app?vid=bb26e429-7b81-4c9f-bef8-74de767070eb"},"vehicle_type_id":"4","last_reported":1767208153,"current_range_meters":10800,"station_id":"ce4bhbh2rcd13ifvqeqg","pricing_plan_id":"cebpf4jnsgd1na2vs0mg"},{"bike_id":"1ebd2a0c-42a1-4a60-8730-e1ef90962935","system_id":"levelo_inurba_marseille","lat":43.32343,"lon":5.36733,"is_reserved":false,"is_disabled":false,"rental_uris":{"android":"levelo://app?vid=1ebd2a0c-42a1-4a60-8730-e1ef90962935","ios":"levelo://app?vid=1ebd2a0c-42a1-4a60-8730-e1ef90962935"},"vehicle_type_id":"4","last_reported":1767208153,"current_range_meters":11200,"station_id":"ce4bhsh2rcd13ifvqi2g","pricing_plan_id":"cebpf4jnsgd1na2vs0mg"},{"bike_id":"79b5f154-7cc7-44e6-a387-d261a3ea65b3","system_id":"levelo_inurba_marseille","lat":43.29849,"lon":5.36281,"is_reserved":false,"is_disabled":false,"rental_uris":{"android":"levelo://app?vid=79b5f154-7cc7-44e6-a387-d261a3ea65b3","ios":"levelo://app?vid=79b5f154-7cc7-44e6-a387-d261a3ea65b3"},"vehicle_type_id":"4","last_reported":1767208153,"current_range_meters":11200,"station_id":"ce4bgpp2rcd13ifvqc3g","pricing_plan_id":"cebpf4jnsgd1na2vs0mg"},{"bike_id":"4b33b5cb-7bec-4712-9fcc-36239248ffed","system_id":"levelo_inurba_marseille","lat":43.27142,"lon":5.39256,"is_reserved":false,"is_disabled":false,"rental_uris":{"android":"levelo://app?vid=4b33b5cb-7bec-4712-9fcc-36239248ffed","ios":"levelo://app?vid=4b33b5cb-7bec-4712-9fcc-36239248ffed"},"vehicle_type_id":"4","last_reported":1767208153,"current_range_meters":11200,"station_id":"","pricing_plan_id":"cebpf4jnsgd1na2vs0mg"},{"bike_id":"b5f80a1c-7345-44ae-9c2d-843287ace1f8","system_id":"levelo_inurba_marseille","lat":43.27438,"lon":5.42419,"is_reserved":false,"is_disabled":false,"rental_uris":{"android":"levelo://app?vid=b5f80a1c-7345-44ae-9c2d-843287ace1f8","ios":"levelo://app?vid=b5f80a1c-7345-44ae-9c2d-843287ace1f8"},"vehicle_type_id":"4","last_reported":1767208153,"current_range_meters":11200,"station_id":"","pricing_plan_id":"cebpf4jnsgd1na2vs0mg"},{"bike_id":"0788e991-1623-4154-b614-e1261a941949","system_id":"levelo_inurba_marseille","lat":43.31292,"lon":5.37406,"is_reserved":false,"is_disabled":false,"rental_uris":{"android":"levelo://app?vid=0788e991-1623-4154-b614-e1261a941949","ios":"levelo://app?vid=0788e991-1623-4154-b614-e1261a941949"},"vehicle_type_id":"4","last_reported":1767208153,"current_range_meters":11200,"station_id":"","pricing_plan_id":"cebpf4jnsgd1na2vs0mg"},{"bike_id":"14da8e30-d224-44ca-8d16-bba47fb0dd4f","system_id":"levelo_inurba_marseille","lat":43.25117,"lon":5.40317,"is_reserved":false,"is_disabled":false,"rental_uris":{"android":"levelo://app?vid=14da8e30-d224-44ca-8d16-bba47fb0dd4f","ios":"levelo://app?vid=14da8e30-d224-44ca-8d16-bba47fb0dd4f"},"vehicle_type_id":"4","last_reported":1767208153,"current_range_meters":11200,"station_id":"ce4bhlh2rcd13ifvqgig","pricing_plan_id":"cebpf4jnsgd1na2vs0mg"},{"bike_id":"ae8158ae-5098-479c-a0e1-90a3218c356d","system_id":"levelo_inurba_marseille","lat":43.28616,"lon":5.35096,"is_reserved":false,"is_disabled":false,"rental_uris":{"android":"levelo://app?vid=ae8158ae-5098-479c-a0e1-90a3218c356d","ios":"levelo://app?vid=ae8158ae-5098-479c-a0e1-90a3218c356d"},"vehicle_type_id":"4","last_reported":1767208153,"current_range_meters":11200,"station_id":"ce4bhch2rcd13ifvqeug","pricing_plan_id":"cebpf4jnsgd1na2vs0mg"},{"bike_id":"602f0694-d002-4ef3-ad6b-d90ada23311f","system_id":"levelo_inurba_marseille","lat":43.297787,"lon":5.371014,"is_reserved":false,"is_disabled":false,"rental_uris":{"android":"levelo://app?vid=602f0694-d002-4ef3-ad6b-d90ada23311f","ios":"levelo://app?vid=602f0694-d002-4ef3-ad6b-d90ada23311f"},"vehicle_type_id":"4","last_reported":1767208153,"current_range_meters":11200,"station_id":"ce4bgop2rcd13ifvqc1g","pricing_plan_id":"cebpf4jnsgd1na2vs0mg"},{"bike_id":"9b31c737-9919-4753-902d-88d0177986b8","system_id":"levelo_inurba_marseille","lat":43.28861,"lon":5.42513,"is_reserved":false,"is_disabled":false,"rental_uris":{"android":"levelo://app?vid=9b31c737-9919-4753-902d-88d0177986b8","ios":"levelo://app?vid=9b31c737-9919-4753-902d-88d0177986b8"},"vehicle_type_id":"4","last_reported":1767208153,"current_range_meters":11200,"station_id":"st_d3b462108ojc7389ooeg","pricing_plan_id":"cebpf4jnsgd1na2vs0mg"},{"bike_id":"1a670a54-1840-4940-b62b-05b0e394ae95","system_id":"levelo_inurba_marseille","lat":43.2843,"lon":5.34989,"is_reserved":false,"is_disabled":false,"rental_uris":{"android":"levelo://app?vid=1a670a54-1840-4940-b62b-05b0e394ae95","ios":"levelo://app?vid=1a670a54-1840-4940-b62b-05b0e394ae95"},"vehicle_type_id":"4","last_reported":1767208153,"current_range_meters":11200,"station_id":"ce4bhbh2rcd13ifvqepg","pricing_plan_id":"cebpf4jnsgd1na2vs0mg"},{"bike_id":"aea2e744-326e-4f09-bea4-d01070ec03a3","system_id":"levelo_inurba_marseille","lat":43.30597,"lon":5.39361,"is_reserved":false,"is_disabled":false,"rental_uris":{"android":"levelo://app?vid=aea2e744-326e-4f09-bea4-d01070ec03a3","ios":"levelo://app?vid=aea2e744-326e-4f09-bea4-d01070ec03a3"},"vehicle_type_id":"4","last_reported":1767208153,"current_range_meters":11200,"station_id":"ce4bh0p2rcd13ifvqd80","pricing_plan_id":"cebpf4jnsgd1na2vs0mg"},{"bike_id":"f6b382f1-2f54-4f2a-8abd-265696951f1f","system_id":"levelo_inurba_marseille","lat":43.29636,"lon":5.37677,"is_reserved":false,"is_disabled":false,"rental_uris":{"android":"levelo://app?vid=f6b382f1-2f54-4f2a-8abd-265696951f1f","ios":"levelo://app?vid=f6b382f1-2f54-4f2a-8abd-265696951f1f"},"vehicle_type_id":"4","last_reported":1767208153,"current_range_meters":11200,"station_id":"ce4bgi92rcd13ifvqb90","pricing_plan_id":"cebpf4jnsgd1na2vs0mg"},{"bike_id":"f489c472-ee6d-42dd-8be8-3a531cfd3f02","system_id":"levelo_inurba_marseille","lat":43.28771,"lon":5.45474,"is_reserved":false,"is_disabled":false,"rental_uris":{"android":"levelo://app?vid=f489c472-ee6d-42dd-8be8-3a531cfd3f02","ios":"levelo://app?vid=f489c472-ee6d-42dd-8be8-3a531cfd3f02"},"vehicle_type_id":"4","last_reported":1767208153,"current_range_meters":11200,"station_id":"","pricing_plan_id":"cebpf4jnsgd1na2vs0mg"},{"bike_id":"4b612c97-f84b-459a-bc6d-0cd90c252bf8","system_id":"levelo_inurba_marseille","lat":43.26517,"lon":5.37956,"is_reserved":false,"is_disabled":false,"rental_uris":{"android":"levelo://app?vid=4b612c97-f84b-459a-bc6d-0cd90c252bf8","ios":"levelo://app?vid=4b612c97-f84b-459a-bc6d-0cd90c252bf8"},"vehicle_type_id":"4","last_reported":1767208153,"current_range_meters":11600,"station_id":"","pricing_plan_id":"cebpf4jnsgd1na2vs0mg"},{"bike_id":"11ffc2eb-b25a-4f11-af0c-089dda10e85c","system_id":"levelo_inurba_marseille","lat":43.29374,"lon":5.40194,"is_reserved":false,"is_disabled":false,"rental_uris":{"android":"levelo://app?vid=11ffc2eb-b25a-4f11-af0c-089dda10e85c","ios":"levelo://app?vid=11ffc2eb-b25a-4f11-af0c-089dda10e85c"},"vehicle_type_id":"4","last_reported":1767208153,"current_range_meters":11600,"station_id":"","pricing_plan_id":"cebpf4jnsgd1na2vs0mg"},{"bike_id":"2f6c6f7b-f9f8-4f76-b9a7-b08a8eff2692","system_id":"levelo_inurba_marseille","lat":43.21755,"lon":5.34588,"is_reserved":false,"is_disabled":false,"rental_uris":{"android":"levelo://app?vid=2f6c6f7b-f9f8-4f76-b9a7-b08a8eff2692","ios":"levelo://app?vid=2f6c6f7b-f9f8-4f76-b9a7-b08a8eff2692"},"vehicle_type_id":"4","last_reported":1767208153,"current_range_meters":11600,"station_id":"st_cvj6r9ubvosntc0bgbag","pricing_plan_id":"cebpf4jnsgd1na2vs0mg"},{"bike_id":"542b2ba6-9fa8-48fd-b661-4556081d0be1","system_id":"levelo_inurba_marseille","lat":43.30914,"lon":5.36856,"is_reserved":false,"is_disabled":false,"rental_uris":{"android":"levelo://app?vid=542b2ba6-9fa8-48fd-b661-4556081d0be1","ios":"levelo://app?vid=542b2ba6-9fa8-48fd-b661-4556081d0be1"},"vehicle_type_id":"4","last_reported":1767208153,"current_range_meters":11600,"station_id":"ce4bgn92rcd13ifvqbvg","pricing_plan_id":"cebpf4jnsgd1na2vs0mg"},{"bike_id":"e5ee2bbe-5021-486f-909d-03022edb9a00","system_id":"levelo_inurba_marseille","lat":43.267808,"lon":5.394177,"is_reserved":false,"is_disabled":false,"rental_uris":{"android":"levelo://app?vid=e5ee2bbe-5021-486f-909d-03022edb9a00","ios":"levelo://app?vid=e5ee2bbe-5021-486f-909d-03022edb9a00"},"vehicle_type_id":"4","last_reported":1767208153,"current_range_meters":11600,"station_id":"ce4bhh12rcd13ifvqfg0","pricing_plan_id":"cebpf4jnsgd1na2vs0mg"},{"bike_id":"9e5dafc7-f2da-4d0b-b668-e32cc043ceb4","system_id":"levelo_inurba_marseille","lat":43.28047,"lon":5.40073,"is_reserved":false,"is_disabled":false,"rental_uris":{"android":"levelo://app?vid=9e5dafc7-f2da-4d0b-b668-e32cc043ceb4","ios":"levelo://app?vid=9e5dafc7-f2da-4d0b-b668-e32cc043ceb4"},"vehicle_type_id":"4","last_reported":1767208153,"current_range_meters":11600,"station_id":"","pricing_plan_id":"cebpf4jnsgd1na2vs0mg"},{"bike_id":"36d67e4b-128f-462b-bf9e-2bbc09bb7b40","system_id":"levelo_inurba_marseille","lat":43.30925,"lon":5.37836,"is_reserved":false,"is_disabled":false,"rental_uris":{"android":"levelo://app?vid=36d67e4b-128f-462b-bf9e-2bbc09bb7b40","ios":"levelo://app?vid=36d67e4b-128f-462b-bf9e-2bbc09bb7b40"},"vehicle_type_id":"4","last_reported":1767208153,"current_range_meters":11600,"station_id":"","pricing_plan_id":"cebpf4jnsgd1na2vs0mg"},{"bike_id":"5db22cea-5a6d-457c-a764-d22243e492f9","system_id":"levelo_inurba_marseille","lat":43.30646,"lon":5.40087,"is_reserved":false,"is_disabled":false,"rental_uris":{"android":"levelo://app?vid=5db22cea-5a6d-457c-a764-d22243e492f9","ios":"levelo://app?vid=5db22cea-5a6d-457c-a764-d22243e492f9"},"vehicle_type_id":"4","last_reported":1767208153,"current_range_meters":11600,"station_id":"ce4bh112rcd13ifvqda0","pricing_plan_id":"cebpf4jnsgd1na2vs0mg"},{"bike_id":"36fc440a-33a3-4913-a0d8-b4b76e46bd70","system_id":"levelo_inurba_marseille","lat":43.32218,"lon":5.39434,"is_reserved":false,"is_disabled":false,"rental_uris":{"android":"levelo://app?vid=36fc440a-33a3-4913-a0d8-b4b76e46bd70","ios":"levelo://app?vid=36fc440a-33a3-4913-a0d8-b4b76e46bd70"},"vehicle_type_id":"4","last_reported":1767208153,"current_range_meters":11600,"station_id":"","pricing_plan_id":"cebpf4jnsgd1na2vs0mg"},{"bike_id":"f7907c1c-af28-49fc-9bf1-6ea5c9b9576d","system_id":"levelo_inurba_marseille","lat":43.281533,"lon":5.426376,"is_reserved":false,"is_disabled":true,"rental_uris":{"android":"levelo://app?vid=f7907c1c-af28-49fc-9bf1-6ea5c9b9576d","ios":"levelo://app?vid=f7907c1c-af28-49fc-9bf1-6ea5c9b9576d"},"vehicle_type_id":"4","last_reported":1767208153,"current_range_meters":12000,"station_id":"ce4bhnh2rcd13ifvqgug","pricing_plan_id":"cebpf4jnsgd1na2vs0mg"},{"bike_id":"5ec5f671-59c3-4ecd-9999-1ced96b35817","system_id":"levelo_inurba_marseille","lat":43.241679,"lon":5.364019,"is_reserved":false,"is_disabled":false,"rental_uris":{"android":"levelo://app?vid=5ec5f671-59c3-4ecd-9999-1ced96b35817","ios":"levelo://app?vid=5ec5f671-59c3-4ecd-9999-1ced96b35817"},"vehicle_type_id":"4","last_reported":1767208153,"current_range_meters":12000,"station_id":"cpo36qri1sfpv3e86is0","pricing_plan_id":"cebpf4jnsgd1na2vs0mg"},{"bike_id":"ae16ff2f-039d-4cdf-a936-aa3dd9f21d44","system_id":"levelo_inurba_marseille","lat":43.27054,"lon":5.38305,"is_reserved":false,"is_disabled":false,"rental_uris":{"android":"levelo://app?vid=ae16ff2f-039d-4cdf-a936-aa3dd9f21d44","ios":"levelo://app?vid=ae16ff2f-039d-4cdf-a936-aa3dd9f21d44"},"vehicle_type_id":"4","last_reported":1767208153,"current_range_meters":12000,"station_id":"st_d3n2fo6cfp8s73cte1j0","pricing_plan_id":"cebpf4jnsgd1na2vs0mg"},{"bike_id":"b07a5190-c872-495d-afac-e6eee602e36e","system_id":"levelo_inurba_marseille","lat":43.29047,"lon":5.35923,"is_reserved":false,"is_disabled":false,"rental_uris":{"android":"levelo://app?vid=b07a5190-c872-495d-afac-e6eee602e36e","ios":"levelo://app?vid=b07a5190-c872-495d-afac-e6eee602e36e"},"vehicle_type_id":"4","last_reported":1767208153,"current_range_meters":12000,"station_id":"ce4bha92rcd13ifvqeg0","pricing_plan_id":"cebpf4jnsgd1na2vs0mg"},{"bike_id":"14d851ab-a12d-4956-a0aa-19036330573c","system_id":"levelo_inurba_marseille","lat":43.31281,"lon":5.36868,"is_reserved":false,"is_disabled":false,"rental_uris":{"android":"levelo://app?vid=14d851ab-a12d-4956-a0aa-19036330573c","ios":"levelo://app?vid=14d851ab-a12d-4956-a0aa-19036330573c"},"vehicle_type_id":"4","last_reported":1767208153,"current_range_meters":12000,"station_id":"","pricing_plan_id":"cebpf4jnsgd1na2vs0mg"},{"bike_id":"0938995e-ba33-411e-93cd-bce44cddc3e7","system_id":"levelo_inurba_marseille","lat":43.29976,"lon":5.37154,"is_reserved":false,"is_disabled":false,"rental_uris":{"android":"levelo://app?vid=0938995e-ba33-411e-93cd-bce44cddc3e7","ios":"levelo://app?vid=0938995e-ba33-411e-93cd-bce44cddc3e7"},"vehicle_type_id":"4","last_reported":1767208153,"current_range_meters":12000,"station_id":"ce4bgr92rcd13ifvqc7g","pricing_plan_id":"cebpf4jnsgd1na2vs0mg"},{"bike_id":"a770eb5f-2a92-46a3-b6fe-450aef9acb4a","system_id":"levelo_inurba_marseille","lat":43.30126,"lon":5.43115,"is_reserved":false,"is_disabled":false,"rental_uris":{"android":"levelo://app?vid=a770eb5f-2a92-46a3-b6fe-450aef9acb4a","ios":"levelo://app?vid=a770eb5f-2a92-46a3-b6fe-450aef9acb4a"},"vehicle_type_id":"4","last_reported":1767208153,"current_range_meters":12000,"station_id":"st_d3js3co5814s73ftftug","pricing_plan_id":"cebpf4jnsgd1na2vs0mg"},{"bike_id":"25f3b82f-06ca-4f8f-a005-18bf90572843","system_id":"levelo_inurba_marseille","lat":43.30177,"lon":5.36603,"is_reserved":false,"is_disabled":false,"rental_uris":{"android":"levelo://app?vid=25f3b82f-06ca-4f8f-a005-18bf90572843","ios":"levelo://app?vid=25f3b82f-06ca-4f8f-a005-18bf90572843"},"vehicle_type_id":"4","last_reported":1767208153,"current_range_meters":12000,"station_id":"ce4bgrh2rcd13ifvqc8g","pricing_plan_id":"cebpf4jnsgd1na2vs0mg"},{"bike_id":"a1bcb6ae-f859-4f66-b5a6-88d7f0b4b287","system_id":"levelo_inurba_marseille","lat":43.28488,"lon":5.38416,"is_reserved":false,"is_disabled":false,"rental_uris":{"android":"levelo://app?vid=a1bcb6ae-f859-4f66-b5a6-88d7f0b4b287","ios":"levelo://app?vid=a1bcb6ae-f859-4f66-b5a6-88d7f0b4b287"},"vehicle_type_id":"4","last_reported":1767208153,"current_range_meters":12000,"station_id":"ce4bh512rcd13ifvqe3g","pricing_plan_id":"cebpf4jnsgd1na2vs0mg"},{"bike_id":"ead1444d-eac1-417f-b268-ce9ed5abb843","system_id":"levelo_inurba_marseille","lat":43.29688,"lon":5.37288,"is_reserved":false,"is_disabled":false,"rental_uris":{"android":"levelo://app?vid=ead1444d-eac1-417f-b268-ce9ed5abb843","ios":"levelo://app?vid=ead1444d-eac1-417f-b268-ce9ed5abb843"},"vehicle_type_id":"4","last_reported":1767208153,"current_range_meters":12000,"station_id":"ce4bgk12rcd13ifvqbj0","pricing_plan_id":"cebpf4jnsgd1na2vs0mg"},{"bike_id":"0d8b64dc-d3a4-4c37-80be-c48d945a81e3","system_id":"levelo_inurba_marseille","lat":43.28477,"lon":5.38425,"is_reserved":false,"is_disabled":true,"rental_uris":{"android":"levelo://app?vid=0d8b64dc-d3a4-4c37-80be-c48d945a81e3","ios":"levelo://app?vid=0d8b64dc-d3a4-4c37-80be-c48d945a81e3"},"vehicle_type_id":"4","last_reported":1767208153,"current_range_meters":12000,"station_id":"ce4bh512rcd13ifvqe3g","pricing_plan_id":"cebpf4jnsgd1na2vs0mg"},{"bike_id":"9c1f4956-913a-4dd3-9567-9632a6373baa","system_id":"levelo_inurba_marseille","lat":43.308737,"lon":5.380691,"is_reserved":false,"is_disabled":false,"rental_uris":{"android":"levelo://app?vid=9c1f4956-913a-4dd3-9567-9632a6373baa","ios":"levelo://app?vid=9c1f4956-913a-4dd3-9567-9632a6373baa"},"vehicle_type_id":"4","last_reported":1767208153,"current_range_meters":12000,"station_id":"ce4bgt12rcd13ifvqcd0","pricing_plan_id":"cebpf4jnsgd1na2vs0mg"},{"bike_id":"0c53a298-7332-4d66-9945-a776bd9ebd58","system_id":"levelo_inurba_marseille","lat":43.29316,"lon":5.38249,"is_reserved":false,"is_disabled":false,"rental_uris":{"android":"levelo://app?vid=0c53a298-7332-4d66-9945-a776bd9ebd58","ios":"levelo://app?vid=0c53a298-7332-4d66-9945-a776bd9ebd58"},"vehicle_type_id":"4","last_reported":1767208153,"current_range_meters":12000,"station_id":"","pricing_plan_id":"cebpf4jnsgd1na2vs0mg"},{"bike_id":"d56f1d43-2b8b-4db0-922e-dfc39df121d9","system_id":"levelo_inurba_marseille","lat":43.29259,"lon":5.38437,"is_reserved":false,"is_disabled":false,"rental_uris":{"android":"levelo://app?vid=d56f1d43-2b8b-4db0-922e-dfc39df121d9","ios":"levelo://app?vid=d56f1d43-2b8b-4db0-922e-dfc39df121d9"},"vehicle_type_id":"4","last_reported":1767208153,"current_range_meters":12000,"station_id":"ce4bh692rcd13ifvqea0","pricing_plan_id":"cebpf4jnsgd1na2vs0mg"},{"bike_id":"85289655-31e3-4a66-8b8d-1a3ba49539ef","system_id":"levelo_inurba_marseille","lat":43.26552,"lon":5.37291,"is_reserved":false,"is_disabled":false,"rental_uris":{"android":"levelo://app?vid=85289655-31e3-4a66-8b8d-1a3ba49539ef","ios":"levelo://app?vid=85289655-31e3-4a66-8b8d-1a3ba49539ef"},"vehicle_type_id":"4","last_reported":1767208153,"current_range_meters":12000,"station_id":"ce4bhg12rcd13ifvqf70","pricing_plan_id":"cebpf4jnsgd1na2vs0mg"},{"bike_id":"e091a64d-3bea-4eb4-be23-0d33eb28eebf","system_id":"levelo_inurba_marseille","lat":43.269439,"lon":5.402767,"is_reserved":false,"is_disabled":false,"rental_uris":{"android":"levelo://app?vid=e091a64d-3bea-4eb4-be23-0d33eb28eebf","ios":"levelo://app?vid=e091a64d-3bea-4eb4-be23-0d33eb28eebf"},"vehicle_type_id":"4","last_reported":1767208153,"current_range_meters":12400,"station_id":"cjm6bp8fraef2m0cb0m0","pricing_plan_id":"cebpf4jnsgd1na2vs0mg"},{"bike_id":"a6b35a9b-2cf6-4669-b17f-ed9bea8188e1","system_id":"levelo_inurba_marseille","lat":43.29752,"lon":5.427638,"is_reserved":false,"is_disabled":true,"rental_uris":{"android":"levelo://app?vid=a6b35a9b-2cf6-4669-b17f-ed9bea8188e1","ios":"levelo://app?vid=a6b35a9b-2cf6-4669-b17f-ed9bea8188e1"},"vehicle_type_id":"4","last_reported":1767208153,"current_range_meters":12400,"station_id":"st_d3md5207bmas73dh9klg","pricing_plan_id":"cebpf4jnsgd1na2vs0mg"},{"bike_id":"900f05fc-033e-40eb-b930-5fbd5d8bb77d","system_id":"levelo_inurba_marseille","lat":43.27976,"lon":5.38743,"is_reserved":false,"is_disabled":false,"rental_uris":{"android":"levelo://app?vid=900f05fc-033e-40eb-b930-5fbd5d8bb77d","ios":"levelo://app?vid=900f05fc-033e-40eb-b930-5fbd5d8bb77d"},"vehicle_type_id":"4","last_reported":1767208153,"current_range_meters":12400,"station_id":"ce4bhg12rcd13ifvqf80","pricing_plan_id":"cebpf4jnsgd1na2vs0mg"},{"bike_id":"5d76c1ba-1a84-4b97-813c-5fad3301fab9","system_id":"levelo_inurba_marseille","lat":43.29863,"lon":5.36278,"is_reserved":false,"is_disabled":false,"rental_uris":{"android":"levelo://app?vid=5d76c1ba-1a84-4b97-813c-5fad3301fab9","ios":"levelo://app?vid=5d76c1ba-1a84-4b97-813c-5fad3301fab9"},"vehicle_type_id":"4","last_reported":1767208153,"current_range_meters":12400,"station_id":"ce4bgpp2rcd13ifvqc3g","pricing_plan_id":"cebpf4jnsgd1na2vs0mg"},{"bike_id":"652999ae-9f9a-402a-99d5-f3ed10a5e186","system_id":"levelo_inurba_marseille","lat":43.32105,"lon":5.36782,"is_reserved":false,"is_disabled":false,"rental_uris":{"android":"levelo://app?vid=652999ae-9f9a-402a-99d5-f3ed10a5e186","ios":"levelo://app?vid=652999ae-9f9a-402a-99d5-f3ed10a5e186"},"vehicle_type_id":"4","last_reported":1767208153,"current_range_meters":12400,"station_id":"ce4bhrh2rcd13ifvqhug","pricing_plan_id":"cebpf4jnsgd1na2vs0mg"},{"bike_id":"3a5aab6e-cd17-41c2-835e-9aa91ad79f59","system_id":"levelo_inurba_marseille","lat":43.28407,"lon":5.37527,"is_reserved":false,"is_disabled":false,"rental_uris":{"android":"levelo://app?vid=3a5aab6e-cd17-41c2-835e-9aa91ad79f59","ios":"levelo://app?vid=3a5aab6e-cd17-41c2-835e-9aa91ad79f59"},"vehicle_type_id":"4","last_reported":1767208153,"current_range_meters":12400,"station_id":"ce4bh412rcd13ifvqds0","pricing_plan_id":"cebpf4jnsgd1na2vs0mg"},{"bike_id":"819953b1-b6e5-4e7b-93ab-771e36ff1d19","system_id":"levelo_inurba_marseille","lat":43.28038,"lon":5.3693,"is_reserved":false,"is_disabled":false,"rental_uris":{"android":"levelo://app?vid=819953b1-b6e5-4e7b-93ab-771e36ff1d19","ios":"levelo://app?vid=819953b1-b6e5-4e7b-93ab-771e36ff1d19"},"vehicle_type_id":"4","last_reported":1767208153,"current_range_meters":12400,"station_id":"ce4bha12rcd13ifvqef0","pricing_plan_id":"cebpf4jnsgd1na2vs0mg"},{"bike_id":"71feabac-18bb-4c38-9f1c-553d18ed10d6","system_id":"levelo_inurba_marseille","lat":43.29603,"lon":5.37178,"is_reserved":false,"is_disabled":false,"rental_uris":{"android":"levelo://app?vid=71feabac-18bb-4c38-9f1c-553d18ed10d6","ios":"levelo://app?vid=71feabac-18bb-4c38-9f1c-553d18ed10d6"},"vehicle_type_id":"4","last_reported":1767208153,"current_range_meters":12400,"station_id":"ce4bgnh2rcd13ifvqc0g","pricing_plan_id":"cebpf4jnsgd1na2vs0mg"},{"bike_id":"edf77226-cb6d-420a-8500-80e64e6d68bf","system_id":"levelo_inurba_marseille","lat":43.286865,"lon":5.386659,"is_reserved":false,"is_disabled":false,"rental_uris":{"android":"levelo://app?vid=edf77226-cb6d-420a-8500-80e64e6d68bf","ios":"levelo://app?vid=edf77226-cb6d-420a-8500-80e64e6d68bf"},"vehicle_type_id":"4","last_reported":1767208153,"current_range_meters":12400,"station_id":"ce4bh492rcd13ifvqdug","pricing_plan_id":"cebpf4jnsgd1na2vs0mg"},{"bike_id":"d877c40d-cdf2-4b01-a434-ea53c39804b2","system_id":"levelo_inurba_marseille","lat":43.27947,"lon":5.41043,"is_reserved":false,"is_disabled":false,"rental_uris":{"android":"levelo://app?vid=d877c40d-cdf2-4b01-a434-ea53c39804b2","ios":"levelo://app?vid=d877c40d-cdf2-4b01-a434-ea53c39804b2"},"vehicle_type_id":"4","last_reported":1767208153,"current_range_meters":12400,"station_id":"ce4bhnp2rcd13ifvqh0g","pricing_plan_id":"cebpf4jnsgd1na2vs0mg"},{"bike_id":"3fabd2d7-0220-4ec2-8bf9-5353a8a94fd3","system_id":"levelo_inurba_marseille","lat":43.30297,"lon":5.39203,"is_reserved":false,"is_disabled":false,"rental_uris":{"android":"levelo://app?vid=3fabd2d7-0220-4ec2-8bf9-5353a8a94fd3","ios":"levelo://app?vid=3fabd2d7-0220-4ec2-8bf9-5353a8a94fd3"},"vehicle_type_id":"4","last_reported":1767208153,"current_range_meters":12800,"station_id":"ce4bgkh2rcd13ifvqbk0","pricing_plan_id":"cebpf4jnsgd1na2vs0mg"},{"bike_id":"ba4d9c7a-7aca-4b85-9206-966a264e9e7b","system_id":"levelo_inurba_marseille","lat":43.31498,"lon":5.38759,"is_reserved":false,"is_disabled":false,"rental_uris":{"android":"levelo://app?vid=ba4d9c7a-7aca-4b85-9206-966a264e9e7b","ios":"levelo://app?vid=ba4d9c7a-7aca-4b85-9206-966a264e9e7b"},"vehicle_type_id":"4","last_reported":1767208153,"current_range_meters":12800,"station_id":"","pricing_plan_id":"cebpf4jnsgd1na2vs0mg"},{"bike_id":"ddfa40a0-cada-4f50-8b25-d17290013e65","system_id":"levelo_inurba_marseille","lat":43.24166,"lon":5.36415,"is_reserved":false,"is_disabled":false,"rental_uris":{"android":"levelo://app?vid=ddfa40a0-cada-4f50-8b25-d17290013e65","ios":"levelo://app?vid=ddfa40a0-cada-4f50-8b25-d17290013e65"},"vehicle_type_id":"4","last_reported":1767208153,"current_range_meters":12800,"station_id":"cpo36qri1sfpv3e86is0","pricing_plan_id":"cebpf4jnsgd1na2vs0mg"},{"bike_id":"c1c1bbd9-7f85-4a35-831d-72795b1b0948","system_id":"levelo_inurba_marseille","lat":43.32355,"lon":5.36726,"is_reserved":false,"is_disabled":false,"rental_uris":{"android":"levelo://app?vid=c1c1bbd9-7f85-4a35-831d-72795b1b0948","ios":"levelo://app?vid=c1c1bbd9-7f85-4a35-831d-72795b1b0948"},"vehicle_type_id":"4","last_reported":1767208153,"current_range_meters":12800,"station_id":"ce4bhsh2rcd13ifvqi2g","pricing_plan_id":"cebpf4jnsgd1na2vs0mg"},{"bike_id":"a37546a5-5ed0-437a-8b08-467eedf47722","system_id":"levelo_inurba_marseille","lat":43.2454,"lon":5.39519,"is_reserved":false,"is_disabled":false,"rental_uris":{"android":"levelo://app?vid=a37546a5-5ed0-437a-8b08-467eedf47722","ios":"levelo://app?vid=a37546a5-5ed0-437a-8b08-467eedf47722"},"vehicle_type_id":"4","last_reported":1767208153,"current_range_meters":12800,"station_id":"ce4bhlp2rcd13ifvqgjg","pricing_plan_id":"cebpf4jnsgd1na2vs0mg"},{"bike_id":"0d5b4d19-5ff7-4ab4-b1f1-164a6d5a8877","system_id":"levelo_inurba_marseille","lat":43.28844,"lon":5.3582,"is_reserved":false,"is_disabled":false,"rental_uris":{"android":"levelo://app?vid=0d5b4d19-5ff7-4ab4-b1f1-164a6d5a8877","ios":"levelo://app?vid=0d5b4d19-5ff7-4ab4-b1f1-164a6d5a8877"},"vehicle_type_id":"4","last_reported":1767208153,"current_range_meters":12800,"station_id":"ce4bhb12rcd13ifvqem0","pricing_plan_id":"cebpf4jnsgd1na2vs0mg"},{"bike_id":"d4c6dc95-f402-4619-8161-a90cb01a834e","system_id":"levelo_inurba_marseille","lat":43.28865,"lon":5.4251,"is_reserved":false,"is_disabled":false,"rental_uris":{"android":"levelo://app?vid=d4c6dc95-f402-4619-8161-a90cb01a834e","ios":"levelo://app?vid=d4c6dc95-f402-4619-8161-a90cb01a834e"},"vehicle_type_id":"4","last_reported":1767208153,"current_range_meters":12800,"station_id":"st_d3b462108ojc7389ooeg","pricing_plan_id":"cebpf4jnsgd1na2vs0mg"},{"bike_id":"8ed4747c-ffc4-4952-a58f-ccece03fc778","system_id":"levelo_inurba_marseille","lat":43.27172,"lon":5.40996,"is_reserved":false,"is_disabled":false,"rental_uris":{"android":"levelo://app?vid=8ed4747c-ffc4-4952-a58f-ccece03fc778","ios":"levelo://app?vid=8ed4747c-ffc4-4952-a58f-ccece03fc778"},"vehicle_type_id":"4","last_reported":1767208153,"current_range_meters":12800,"station_id":"ce4bhl12rcd13ifvqgf0","pricing_plan_id":"cebpf4jnsgd1na2vs0mg"},{"bike_id":"82d8538f-fccb-4d77-bb7b-1f55e2f347bf","system_id":"levelo_inurba_marseille","lat":43.21192,"lon":5.35073,"is_reserved":false,"is_disabled":false,"rental_uris":{"android":"levelo://app?vid=82d8538f-fccb-4d77-bb7b-1f55e2f347bf","ios":"levelo://app?vid=82d8538f-fccb-4d77-bb7b-1f55e2f347bf"},"vehicle_type_id":"4","last_reported":1767208153,"current_range_meters":12800,"station_id":"st_cvj6sg6p6f1abm77japg","pricing_plan_id":"cebpf4jnsgd1na2vs0mg"},{"bike_id":"cda1f6ab-e0ee-4786-9e08-c7bcb481ee5b","system_id":"levelo_inurba_marseille","lat":43.296,"lon":5.38081,"is_reserved":false,"is_disabled":false,"rental_uris":{"android":"levelo://app?vid=cda1f6ab-e0ee-4786-9e08-c7bcb481ee5b","ios":"levelo://app?vid=cda1f6ab-e0ee-4786-9e08-c7bcb481ee5b"},"vehicle_type_id":"4","last_reported":1767208153,"current_range_meters":12800,"station_id":"ce4bgl12rcd13ifvqbo0","pricing_plan_id":"cebpf4jnsgd1na2vs0mg"},{"bike_id":"2e432000-19e4-474b-acb8-4742408d8ecf","system_id":"levelo_inurba_marseille","lat":43.29646,"lon":5.37955,"is_reserved":false,"is_disabled":false,"rental_uris":{"android":"levelo://app?vid=2e432000-19e4-474b-acb8-4742408d8ecf","ios":"levelo://app?vid=2e432000-19e4-474b-acb8-4742408d8ecf"},"vehicle_type_id":"4","last_reported":1767208153,"current_range_meters":12800,"station_id":"","pricing_plan_id":"cebpf4jnsgd1na2vs0mg"},{"bike_id":"ea5031e4-b749-4d48-ba29-71e8d8d5383b","system_id":"levelo_inurba_marseille","lat":43.26377,"lon":5.37414,"is_reserved":false,"is_disabled":false,"rental_uris":{"android":"levelo://app?vid=ea5031e4-b749-4d48-ba29-71e8d8d5383b","ios":"levelo://app?vid=ea5031e4-b749-4d48-ba29-71e8d8d5383b"},"vehicle_type_id":"4","last_reported":1767208153,"current_range_meters":12800,"station_id":"","pricing_plan_id":"cebpf4jnsgd1na2vs0mg"},{"bike_id":"979d6574-265c-489f-a04e-34127d9787b3","system_id":"levelo_inurba_marseille","lat":43.2792,"lon":5.39581,"is_reserved":false,"is_disabled":false,"rental_uris":{"android":"levelo://app?vid=979d6574-265c-489f-a04e-34127d9787b3","ios":"levelo://app?vid=979d6574-265c-489f-a04e-34127d9787b3"},"vehicle_type_id":"4","last_reported":1767208153,"current_range_meters":12800,"station_id":"ce4bhf92rcd13ifvqf40","pricing_plan_id":"cebpf4jnsgd1na2vs0mg"},{"bike_id":"7aa8deaf-4e60-441f-b4fa-11775b88c73b","system_id":"levelo_inurba_marseille","lat":43.29606,"lon":5.40303,"is_reserved":false,"is_disabled":true,"rental_uris":{"android":"levelo://app?vid=7aa8deaf-4e60-441f-b4fa-11775b88c73b","ios":"levelo://app?vid=7aa8deaf-4e60-441f-b4fa-11775b88c73b"},"vehicle_type_id":"4","last_reported":1767208153,"current_range_meters":12800,"station_id":"","pricing_plan_id":"cebpf4jnsgd1na2vs0mg"},{"bike_id":"12fe60d2-ec10-4c1f-baed-8bfc58ee6e9c","system_id":"levelo_inurba_marseille","lat":43.29609,"lon":5.38104,"is_reserved":false,"is_disabled":false,"rental_uris":{"android":"levelo://app?vid=12fe60d2-ec10-4c1f-baed-8bfc58ee6e9c","ios":"levelo://app?vid=12fe60d2-ec10-4c1f-baed-8bfc58ee6e9c"},"vehicle_type_id":"4","last_reported":1767208153,"current_range_meters":12800,"station_id":"ce4bgl12rcd13ifvqbo0","pricing_plan_id":"cebpf4jnsgd1na2vs0mg"},{"bike_id":"bb691e36-63cd-41ef-9758-93b93690fdb3","system_id":"levelo_inurba_marseille","lat":43.31272,"lon":5.40179,"is_reserved":false,"is_disabled":false,"rental_uris":{"android":"levelo://app?vid=bb691e36-63cd-41ef-9758-93b93690fdb3","ios":"levelo://app?vid=bb691e36-63cd-41ef-9758-93b93690fdb3"},"vehicle_type_id":"4","last_reported":1767208153,"current_range_meters":12800,"station_id":"ce4bh092rcd13ifvqd30","pricing_plan_id":"cebpf4jnsgd1na2vs0mg"},{"bike_id":"83f0a4d3-cd49-43c8-9c4d-cc3d3b0619c5","system_id":"levelo_inurba_marseille","lat":43.29621,"lon":5.37719,"is_reserved":false,"is_disabled":false,"rental_uris":{"android":"levelo://app?vid=83f0a4d3-cd49-43c8-9c4d-cc3d3b0619c5","ios":"levelo://app?vid=83f0a4d3-cd49-43c8-9c4d-cc3d3b0619c5"},"vehicle_type_id":"4","last_reported":1767208153,"current_range_meters":13600,"station_id":"ce4bgi92rcd13ifvqb90","pricing_plan_id":"cebpf4jnsgd1na2vs0mg"},{"bike_id":"01b867ce-7ec9-4abb-8d8e-82f40dfe565d","system_id":"levelo_inurba_marseille","lat":43.300356,"lon":5.417078,"is_reserved":false,"is_disabled":false,"rental_uris":{"android":"levelo://app?vid=01b867ce-7ec9-4abb-8d8e-82f40dfe565d","ios":"levelo://app?vid=01b867ce-7ec9-4abb-8d8e-82f40dfe565d"},"vehicle_type_id":"4","last_reported":1767208153,"current_range_meters":13600,"station_id":"ce4bhop2rcd13ifvqh7g","pricing_plan_id":"cebpf4jnsgd1na2vs0mg"},{"bike_id":"ff8864c8-a009-4638-8215-25cbc945ccbf","system_id":"levelo_inurba_marseille","lat":43.31325,"lon":5.36712,"is_reserved":false,"is_disabled":false,"rental_uris":{"android":"levelo://app?vid=ff8864c8-a009-4638-8215-25cbc945ccbf","ios":"levelo://app?vid=ff8864c8-a009-4638-8215-25cbc945ccbf"},"vehicle_type_id":"4","last_reported":1767208153,"current_range_meters":13600,"station_id":"ce4bgr92rcd13ifvqc6g","pricing_plan_id":"cebpf4jnsgd1na2vs0mg"},{"bike_id":"27f62b3e-34a5-44c0-b8d2-5a7048902926","system_id":"levelo_inurba_marseille","lat":43.295432,"lon":5.381568,"is_reserved":false,"is_disabled":false,"rental_uris":{"android":"levelo://app?vid=27f62b3e-34a5-44c0-b8d2-5a7048902926","ios":"levelo://app?vid=27f62b3e-34a5-44c0-b8d2-5a7048902926"},"vehicle_type_id":"4","last_reported":1767208153,"current_range_meters":13600,"station_id":"","pricing_plan_id":"cebpf4jnsgd1na2vs0mg"},{"bike_id":"67057471-b7f6-4964-9f3d-d28fd0a7dcdb","system_id":"levelo_inurba_marseille","lat":43.31902,"lon":5.40735,"is_reserved":false,"is_disabled":true,"rental_uris":{"android":"levelo://app?vid=67057471-b7f6-4964-9f3d-d28fd0a7dcdb","ios":"levelo://app?vid=67057471-b7f6-4964-9f3d-d28fd0a7dcdb"},"vehicle_type_id":"4","last_reported":1767208153,"current_range_meters":13600,"station_id":"ce4bhq12rcd13ifvqhig","pricing_plan_id":"cebpf4jnsgd1na2vs0mg"},{"bike_id":"d8431e58-d3e8-4456-9570-729e3ebbcc73","system_id":"levelo_inurba_marseille","lat":43.30167,"lon":5.37272,"is_reserved":false,"is_disabled":false,"rental_uris":{"android":"levelo://app?vid=d8431e58-d3e8-4456-9570-729e3ebbcc73","ios":"levelo://app?vid=d8431e58-d3e8-4456-9570-729e3ebbcc73"},"vehicle_type_id":"4","last_reported":1767208153,"current_range_meters":13600,"station_id":"","pricing_plan_id":"cebpf4jnsgd1na2vs0mg"},{"bike_id":"9ffd8e4e-6671-4e68-b198-26c59cc5e3d1","system_id":"levelo_inurba_marseille","lat":43.32622,"lon":5.41963,"is_reserved":false,"is_disabled":false,"rental_uris":{"android":"levelo://app?vid=9ffd8e4e-6671-4e68-b198-26c59cc5e3d1","ios":"levelo://app?vid=9ffd8e4e-6671-4e68-b198-26c59cc5e3d1"},"vehicle_type_id":"4","last_reported":1767208153,"current_range_meters":13600,"station_id":"","pricing_plan_id":"cebpf4jnsgd1na2vs0mg"},{"bike_id":"fad499e9-623c-40d5-99fd-4763c808c06d","system_id":"levelo_inurba_marseille","lat":43.24068,"lon":5.3776,"is_reserved":false,"is_disabled":false,"rental_uris":{"android":"levelo://app?vid=fad499e9-623c-40d5-99fd-4763c808c06d","ios":"levelo://app?vid=fad499e9-623c-40d5-99fd-4763c808c06d"},"vehicle_type_id":"4","last_reported":1767208153,"current_range_meters":13600,"station_id":"ce4bhnp2rcd13ifvqgvg","pricing_plan_id":"cebpf4jnsgd1na2vs0mg"},{"bike_id":"0c3b4b3e-5574-4acc-9ce6-160804ae0ebc","system_id":"levelo_inurba_marseille","lat":43.29896,"lon":5.43652,"is_reserved":false,"is_disabled":true,"rental_uris":{"android":"levelo://app?vid=0c3b4b3e-5574-4acc-9ce6-160804ae0ebc","ios":"levelo://app?vid=0c3b4b3e-5574-4acc-9ce6-160804ae0ebc"},"vehicle_type_id":"4","last_reported":1767208153,"current_range_meters":13600,"station_id":"ce4bhpp2rcd13ifvqhfg","pricing_plan_id":"cebpf4jnsgd1na2vs0mg"},{"bike_id":"df63e62e-c06a-462e-903b-d344f6eede77","system_id":"levelo_inurba_marseille","lat":43.28622,"lon":5.36398,"is_reserved":false,"is_disabled":false,"rental_uris":{"android":"levelo://app?vid=df63e62e-c06a-462e-903b-d344f6eede77","ios":"levelo://app?vid=df63e62e-c06a-462e-903b-d344f6eede77"},"vehicle_type_id":"4","last_reported":1767208153,"current_range_meters":13600,"station_id":"","pricing_plan_id":"cebpf4jnsgd1na2vs0mg"},{"bike_id":"006f8947-37e2-4919-a923-493c310e7042","system_id":"levelo_inurba_marseille","lat":43.29633,"lon":5.40592,"is_reserved":false,"is_disabled":false,"rental_uris":{"android":"levelo://app?vid=006f8947-37e2-4919-a923-493c310e7042","ios":"levelo://app?vid=006f8947-37e2-4919-a923-493c310e7042"},"vehicle_type_id":"4","last_reported":1767208153,"current_range_meters":13600,"station_id":"ce4bh0h2rcd13ifvqd60","pricing_plan_id":"cebpf4jnsgd1na2vs0mg"},{"bike_id":"002dc303-ef66-4b53-b5f3-28b0bdb634cd","system_id":"levelo_inurba_marseille","lat":43.29838,"lon":5.36277,"is_reserved":false,"is_disabled":false,"rental_uris":{"android":"levelo://app?vid=002dc303-ef66-4b53-b5f3-28b0bdb634cd","ios":"levelo://app?vid=002dc303-ef66-4b53-b5f3-28b0bdb634cd"},"vehicle_type_id":"4","last_reported":1767208153,"current_range_meters":13600,"station_id":"ce4bgpp2rcd13ifvqc3g","pricing_plan_id":"cebpf4jnsgd1na2vs0mg"},{"bike_id":"8261677a-ce3a-4e14-82dc-552503a28082","system_id":"levelo_inurba_marseille","lat":43.318073,"lon":5.406093,"is_reserved":false,"is_disabled":false,"rental_uris":{"android":"levelo://app?vid=8261677a-ce3a-4e14-82dc-552503a28082","ios":"levelo://app?vid=8261677a-ce3a-4e14-82dc-552503a28082"},"vehicle_type_id":"4","last_reported":1767208153,"current_range_meters":13600,"station_id":"ce4bhq12rcd13ifvqhig","pricing_plan_id":"cebpf4jnsgd1na2vs0mg"},{"bike_id":"c2f4c107-8bc8-42f9-93df-084eb12cdb41","system_id":"levelo_inurba_marseille","lat":43.2949,"lon":5.43311,"is_reserved":false,"is_disabled":false,"rental_uris":{"android":"levelo://app?vid=c2f4c107-8bc8-42f9-93df-084eb12cdb41","ios":"levelo://app?vid=c2f4c107-8bc8-42f9-93df-084eb12cdb41"},"vehicle_type_id":"4","last_reported":1767208153,"current_range_meters":14000,"station_id":"st_d3j5ugp08ojc73fj9d10","pricing_plan_id":"cebpf4jnsgd1na2vs0mg"},{"bike_id":"0aa32554-898e-44eb-a378-b85bbfc96067","system_id":"levelo_inurba_marseille","lat":43.27557,"lon":5.38421,"is_reserved":false,"is_disabled":false,"rental_uris":{"android":"levelo://app?vid=0aa32554-898e-44eb-a378-b85bbfc96067","ios":"levelo://app?vid=0aa32554-898e-44eb-a378-b85bbfc96067"},"vehicle_type_id":"4","last_reported":1767208153,"current_range_meters":14000,"station_id":"ce4bhh92rcd13ifvqfi0","pricing_plan_id":"cebpf4jnsgd1na2vs0mg"},{"bike_id":"25f1743a-a2b2-454e-84ce-5c43f5ea30d3","system_id":"levelo_inurba_marseille","lat":43.29895,"lon":5.43657,"is_reserved":false,"is_disabled":false,"rental_uris":{"android":"levelo://app?vid=25f1743a-a2b2-454e-84ce-5c43f5ea30d3","ios":"levelo://app?vid=25f1743a-a2b2-454e-84ce-5c43f5ea30d3"},"vehicle_type_id":"4","last_reported":1767208153,"current_range_meters":14000,"station_id":"ce4bhpp2rcd13ifvqhfg","pricing_plan_id":"cebpf4jnsgd1na2vs0mg"},{"bike_id":"7979f829-133c-4803-bba2-d3ffbaaeeb4d","system_id":"levelo_inurba_marseille","lat":43.29576,"lon":5.37562,"is_reserved":false,"is_disabled":false,"rental_uris":{"android":"levelo://app?vid=7979f829-133c-4803-bba2-d3ffbaaeeb4d","ios":"levelo://app?vid=7979f829-133c-4803-bba2-d3ffbaaeeb4d"},"vehicle_type_id":"4","last_reported":1767208153,"current_range_meters":14000,"station_id":"ce4bgh92rcd13ifvqb50","pricing_plan_id":"cebpf4jnsgd1na2vs0mg"},{"bike_id":"88b150d4-70f0-4922-83d0-8372acacac6a","system_id":"levelo_inurba_marseille","lat":43.24632,"lon":5.4312,"is_reserved":false,"is_disabled":false,"rental_uris":{"android":"levelo://app?vid=88b150d4-70f0-4922-83d0-8372acacac6a","ios":"levelo://app?vid=88b150d4-70f0-4922-83d0-8372acacac6a"},"vehicle_type_id":"4","last_reported":1767208153,"current_range_meters":14000,"station_id":"st_d2m6c4gdas8pm72e190g","pricing_plan_id":"cebpf4jnsgd1na2vs0mg"},{"bike_id":"f3a4c2fd-c27a-4ca6-bbe5-3949d2a88808","system_id":"levelo_inurba_marseille","lat":43.28579,"lon":5.42976,"is_reserved":false,"is_disabled":false,"rental_uris":{"android":"levelo://app?vid=f3a4c2fd-c27a-4ca6-bbe5-3949d2a88808","ios":"levelo://app?vid=f3a4c2fd-c27a-4ca6-bbe5-3949d2a88808"},"vehicle_type_id":"4","last_reported":1767208153,"current_range_meters":14000,"station_id":"","pricing_plan_id":"cebpf4jnsgd1na2vs0mg"},{"bike_id":"0251f547-c73a-4cd3-974a-ac3d6ca4af4f","system_id":"levelo_inurba_marseille","lat":43.29521,"lon":5.38546,"is_reserved":false,"is_disabled":false,"rental_uris":{"android":"levelo://app?vid=0251f547-c73a-4cd3-974a-ac3d6ca4af4f","ios":"levelo://app?vid=0251f547-c73a-4cd3-974a-ac3d6ca4af4f"},"vehicle_type_id":"4","last_reported":1767208153,"current_range_meters":14000,"station_id":"ce4bgih2rcd13ifvqba0","pricing_plan_id":"cebpf4jnsgd1na2vs0mg"},{"bike_id":"0a2f5281-5dd7-4e2e-ac8c-222274fbdedd","system_id":"levelo_inurba_marseille","lat":43.30467,"lon":5.37906,"is_reserved":false,"is_disabled":false,"rental_uris":{"android":"levelo://app?vid=0a2f5281-5dd7-4e2e-ac8c-222274fbdedd","ios":"levelo://app?vid=0a2f5281-5dd7-4e2e-ac8c-222274fbdedd"},"vehicle_type_id":"4","last_reported":1767208153,"current_range_meters":14000,"station_id":"ce4bgup2rcd13ifvqcn0","pricing_plan_id":"cebpf4jnsgd1na2vs0mg"},{"bike_id":"da51a696-5705-48cd-a174-f63e3c15d9de","system_id":"levelo_inurba_marseille","lat":43.28863,"lon":5.42519,"is_reserved":false,"is_disabled":false,"rental_uris":{"android":"levelo://app?vid=da51a696-5705-48cd-a174-f63e3c15d9de","ios":"levelo://app?vid=da51a696-5705-48cd-a174-f63e3c15d9de"},"vehicle_type_id":"4","last_reported":1767208153,"current_range_meters":14000,"station_id":"st_d3b462108ojc7389ooeg","pricing_plan_id":"cebpf4jnsgd1na2vs0mg"},{"bike_id":"f9e9fd89-b7c6-4e84-90bb-2a2dc045365a","system_id":"levelo_inurba_marseille","lat":43.2704,"lon":5.40273,"is_reserved":false,"is_disabled":false,"rental_uris":{"android":"levelo://app?vid=f9e9fd89-b7c6-4e84-90bb-2a2dc045365a","ios":"levelo://app?vid=f9e9fd89-b7c6-4e84-90bb-2a2dc045365a"},"vehicle_type_id":"4","last_reported":1767208153,"current_range_meters":14000,"station_id":"ce4bhk92rcd13ifvqgc0","pricing_plan_id":"cebpf4jnsgd1na2vs0mg"},{"bike_id":"bebec6bc-9df3-406e-90bc-396ce2b3b0b3","system_id":"levelo_inurba_marseille","lat":43.26369,"lon":5.37417,"is_reserved":false,"is_disabled":false,"rental_uris":{"android":"levelo://app?vid=bebec6bc-9df3-406e-90bc-396ce2b3b0b3","ios":"levelo://app?vid=bebec6bc-9df3-406e-90bc-396ce2b3b0b3"},"vehicle_type_id":"4","last_reported":1767208153,"current_range_meters":14000,"station_id":"","pricing_plan_id":"cebpf4jnsgd1na2vs0mg"},{"bike_id":"6fb45a38-412e-484d-8f99-6a8e87169809","system_id":"levelo_inurba_marseille","lat":43.284753,"lon":5.384083,"is_reserved":false,"is_disabled":false,"rental_uris":{"android":"levelo://app?vid=6fb45a38-412e-484d-8f99-6a8e87169809","ios":"levelo://app?vid=6fb45a38-412e-484d-8f99-6a8e87169809"},"vehicle_type_id":"4","last_reported":1767208153,"current_range_meters":14400,"station_id":"ce4bh512rcd13ifvqe3g","pricing_plan_id":"cebpf4jnsgd1na2vs0mg"},{"bike_id":"84942c64-bd9e-4661-a48c-25db9ce131c4","system_id":"levelo_inurba_marseille","lat":43.3235,"lon":5.36723,"is_reserved":false,"is_disabled":false,"rental_uris":{"android":"levelo://app?vid=84942c64-bd9e-4661-a48c-25db9ce131c4","ios":"levelo://app?vid=84942c64-bd9e-4661-a48c-25db9ce131c4"},"vehicle_type_id":"4","last_reported":1767208153,"current_range_meters":14400,"station_id":"ce4bhsh2rcd13ifvqi2g","pricing_plan_id":"cebpf4jnsgd1na2vs0mg"},{"bike_id":"4ae3a29d-f4ab-439c-9ae7-9e2538120a67","system_id":"levelo_inurba_marseille","lat":43.248,"lon":5.37455,"is_reserved":false,"is_disabled":false,"rental_uris":{"android":"levelo://app?vid=4ae3a29d-f4ab-439c-9ae7-9e2538120a67","ios":"levelo://app?vid=4ae3a29d-f4ab-439c-9ae7-9e2538120a67"},"vehicle_type_id":"4","last_reported":1767208153,"current_range_meters":14400,"station_id":"ce4bhgh2rcd13ifvqfb0","pricing_plan_id":"cebpf4jnsgd1na2vs0mg"},{"bike_id":"2a23ab26-ec07-45e8-be6c-b7129b94a9d1","system_id":"levelo_inurba_marseille","lat":43.28662,"lon":5.36335,"is_reserved":false,"is_disabled":false,"rental_uris":{"android":"levelo://app?vid=2a23ab26-ec07-45e8-be6c-b7129b94a9d1","ios":"levelo://app?vid=2a23ab26-ec07-45e8-be6c-b7129b94a9d1"},"vehicle_type_id":"4","last_reported":1767208153,"current_range_meters":14400,"station_id":"ce4bhah2rcd13ifvqej0","pricing_plan_id":"cebpf4jnsgd1na2vs0mg"},{"bike_id":"1160be78-a46c-4189-a46b-414fa72391bf","system_id":"levelo_inurba_marseille","lat":43.29526,"lon":5.37497,"is_reserved":false,"is_disabled":false,"rental_uris":{"android":"levelo://app?vid=1160be78-a46c-4189-a46b-414fa72391bf","ios":"levelo://app?vid=1160be78-a46c-4189-a46b-414fa72391bf"},"vehicle_type_id":"4","last_reported":1767208153,"current_range_meters":14400,"station_id":"ce4bgkp2rcd13ifvqbmg","pricing_plan_id":"cebpf4jnsgd1na2vs0mg"},{"bike_id":"1579b22c-0739-4446-affd-66e597b52ce6","system_id":"levelo_inurba_marseille","lat":43.24643,"lon":5.38899,"is_reserved":false,"is_disabled":false,"rental_uris":{"android":"levelo://app?vid=1579b22c-0739-4446-affd-66e597b52ce6","ios":"levelo://app?vid=1579b22c-0739-4446-affd-66e597b52ce6"},"vehicle_type_id":"4","last_reported":1767208153,"current_range_meters":14400,"station_id":"ce4bhg12rcd13ifvqf60","pricing_plan_id":"cebpf4jnsgd1na2vs0mg"},{"bike_id":"cc7d95c5-913c-4570-834d-a943b3da39e0","system_id":"levelo_inurba_marseille","lat":43.27949,"lon":5.38717,"is_reserved":false,"is_disabled":false,"rental_uris":{"android":"levelo://app?vid=cc7d95c5-913c-4570-834d-a943b3da39e0","ios":"levelo://app?vid=cc7d95c5-913c-4570-834d-a943b3da39e0"},"vehicle_type_id":"4","last_reported":1767208153,"current_range_meters":14400,"station_id":"ce4bhg12rcd13ifvqf80","pricing_plan_id":"cebpf4jnsgd1na2vs0mg"},{"bike_id":"99c25954-41c6-4770-9c89-5463f33c56fd","system_id":"levelo_inurba_marseille","lat":43.308453,"lon":5.40607,"is_reserved":false,"is_disabled":false,"rental_uris":{"android":"levelo://app?vid=99c25954-41c6-4770-9c89-5463f33c56fd","ios":"levelo://app?vid=99c25954-41c6-4770-9c89-5463f33c56fd"},"vehicle_type_id":"4","last_reported":1767208153,"current_range_meters":14800,"station_id":"","pricing_plan_id":"cebpf4jnsgd1na2vs0mg"},{"bike_id":"d0621c6b-67fd-484d-a798-cf1806150e83","system_id":"levelo_inurba_marseille","lat":43.29081,"lon":5.3813,"is_reserved":false,"is_disabled":false,"rental_uris":{"android":"levelo://app?vid=d0621c6b-67fd-484d-a798-cf1806150e83","ios":"levelo://app?vid=d0621c6b-67fd-484d-a798-cf1806150e83"},"vehicle_type_id":"4","last_reported":1767208153,"current_range_meters":14800,"station_id":"ce4bh512rcd13ifvqe2g","pricing_plan_id":"cebpf4jnsgd1na2vs0mg"},{"bike_id":"1c5b41be-7d46-4208-9270-feeef196d241","system_id":"levelo_inurba_marseille","lat":43.29485,"lon":5.43307,"is_reserved":false,"is_disabled":false,"rental_uris":{"android":"levelo://app?vid=1c5b41be-7d46-4208-9270-feeef196d241","ios":"levelo://app?vid=1c5b41be-7d46-4208-9270-feeef196d241"},"vehicle_type_id":"4","last_reported":1767208153,"current_range_meters":14800,"station_id":"st_d3j5ugp08ojc73fj9d10","pricing_plan_id":"cebpf4jnsgd1na2vs0mg"},{"bike_id":"e02575bd-852a-42b4-bd10-9cbf4b66b954","system_id":"levelo_inurba_marseille","lat":43.29786,"lon":5.37098,"is_reserved":false,"is_disabled":false,"rental_uris":{"android":"levelo://app?vid=e02575bd-852a-42b4-bd10-9cbf4b66b954","ios":"levelo://app?vid=e02575bd-852a-42b4-bd10-9cbf4b66b954"},"vehicle_type_id":"4","last_reported":1767208153,"current_range_meters":14800,"station_id":"ce4bgop2rcd13ifvqc1g","pricing_plan_id":"cebpf4jnsgd1na2vs0mg"},{"bike_id":"49ccaac4-fccf-4eaf-b377-a4441078db18","system_id":"levelo_inurba_marseille","lat":43.29898,"lon":5.43687,"is_reserved":false,"is_disabled":false,"rental_uris":{"android":"levelo://app?vid=49ccaac4-fccf-4eaf-b377-a4441078db18","ios":"levelo://app?vid=49ccaac4-fccf-4eaf-b377-a4441078db18"},"vehicle_type_id":"4","last_reported":1767208153,"current_range_meters":14800,"station_id":"ce4bhpp2rcd13ifvqhfg","pricing_plan_id":"cebpf4jnsgd1na2vs0mg"},{"bike_id":"adee5904-d2f9-48c4-ad58-68d27b5bb40a","system_id":"levelo_inurba_marseille","lat":43.2927,"lon":5.37677,"is_reserved":false,"is_disabled":false,"rental_uris":{"android":"levelo://app?vid=adee5904-d2f9-48c4-ad58-68d27b5bb40a","ios":"levelo://app?vid=adee5904-d2f9-48c4-ad58-68d27b5bb40a"},"vehicle_type_id":"4","last_reported":1767208153,"current_range_meters":14800,"station_id":"ce4bgi12rcd13ifvqb80","pricing_plan_id":"cebpf4jnsgd1na2vs0mg"},