{"last_updated":1729368495,"ttl":60,"version":"2.2","data":{"bikes":[{"bike_id":"e34557ad-9610-4b4b-83ed-99dfa66322bd","system_id":"levelo_inurba_marseille","lat":43.31687,"lon":5.40473,"is_reserved":false,"is_disabled":false,"rental_uris":{"android":"levelo://app?vid=e34557ad-9610-4b4b-83ed-99dfa66322bd","ios":"levelo://app?vid=e34557ad-9610-4b4b-83ed-99dfa66322bd"},"vehicle_type_id":"4","last_reported":1729368495,"current_range_meters":21600,"station_id":"ce4bh012rcd13ifvqd00","pricing_plan_id":"cebpf4jnsgd1na2vs0mg"},{"bike_id":"9b9a7cfe-944f-49a6-84c3-af9eec72cacc","system_id":"levelo_inurba_marseille","lat":43.31124,"lon":5.37773,"is_reserved":false,"is_disabled":false,"rental_uris":{"android":"levelo://app?vid=9b9a7cfe-944f-49a6-84c3-af9eec72cacc","ios":"levelo://app?vid=9b9a7cfe-944f-49a6-84c3-af9eec72cacc"},"vehicle_type_id":"4","last_reported":1729368495,"current_range_meters":22800,"station_id":"ce4bgt92rcd13ifvqcg0","pricing_plan_id":"cebpf4jnsgd1na2vs0mg"},{"bike_id":"cc7efa44-13df-4e12-a405-4e45667f6687","system_id":"levelo_inurba_marseille","lat":43.31111,"lon":5.37767,"is_reserved":false,"is_disabled":false,"rental_uris":{"android":"levelo://app?vid=cc7efa44-13df-4e12-a405-4e45667f6687","ios":"levelo://app?vid=cc7efa44-13df-4e12-a405-4e45667f6687"},"vehicle_type_id":"4","last_reported":1729368495,"current_range_meters":9200,"station_id":"ce4bgt92rcd13ifvqcg0","pricing_plan_id":"cebpf4jnsgd1na2vs0mg"},{"bike_id":"711f3c6c-86cb-49e8-9664-43d7f68d6caf","system_id":"levelo_inurba_marseille","lat":43.291168,"lon":5.38362,"is_reserved":false,"is_disabled":false,"rental_uris":{"android":"levelo://app?vid=711f3c6c-86cb-49e8-9664-43d7f68d6caf","ios":"levelo://app?vid=711f3c6c-86cb-49e8-9664-43d7f68d6caf"},"vehicle_type_id":"4","last_reported":1729368495,"current_range_meters":22000,"station_id":"ce4bha92rcd13ifvqeh0","pricing_plan_id":"cebpf4jnsgd1na2vs0mg"},{"bike_id":"2058f8ef-42f7-4c3f-9cb7-b8ae43c1e352","system_id":"levelo_inurba_marseille","lat":43.31119,"lon":5.37765,"is_reserved":false,"is_disabled":false,"rental_uris":{"android":"levelo://app?vid=2058f8ef-42f7-4c3f-9cb7-b8ae43c1e352","ios":"levelo://app?vid=2058f8ef-42f7-4c3f-9cb7-b8ae43c1e352"},"vehicle_type_id":"4","last_reported":1729368495,"current_range_meters":36400,"station_id":"ce4bgt92rcd13ifvqcg0","pricing_plan_id":"cebpf4jnsgd1na2vs0mg"},{"bike_id":"1d123306-76de-4e99-b18a-f2b54d4716f7","system_id":"levelo_inurba_marseille","lat":43.32341,"lon":5.40624,"is_reserved":false,"is_disabled":false,"rental_uris":{"android":"levelo://app?vid=1d123306-76de-4e99-b18a-f2b54d4716f7","ios":"levelo://app?vid=1d123306-76de-4e99-b18a-f2b54d4716f7"},"vehicle_type_id":"4","last_reported":1729368495,"current_range_meters":22400,"station_id":"ce4bhq92rcd13ifvqhjg","pricing_plan_id":"cebpf4jnsgd1na2vs0mg"},{"bike_id":"e0879c3f-10eb-4d3b-8053-605cb1c6310c","system_id":"levelo_inurba_marseille","lat":43.26059,"lon":5.39392,"is_reserved":false,"is_disabled":false,"rental_uris":{"android":"levelo://app?vid=e0879c3f-10eb-4d3b-8053-605cb1c6310c","ios":"levelo://app?vid=e0879c3f-10eb-4d3b-8053-605cb1c6310c"},"vehicle_type_id":"4","last_reported":1729368495,"current_range_meters":25200,"station_id":"ce4bhh92rcd13ifvqfj0","pricing_plan_id":"cebpf4jnsgd1na2vs0mg"},{"bike_id":"6b6ebed7-839f-4495-a0bc-05e67997ccb4","system_id":"levelo_inurba_marseille","lat":43.29984,"lon":5.37175,"is_reserved":false,"is_disabled":false,"rental_uris":{"android":"levelo://app?vid=6b6ebed7-839f-4495-a0bc-05e67997ccb4","ios":"levelo://app?vid=6b6ebed7-839f-4495-a0bc-05e67997ccb4"},"vehicle_type_id":"4","last_reported":1729368495,"current_range_meters":38800,"station_id":"ce4bgr92rcd13ifvqc7g","pricing_plan_id":"cebpf4jnsgd1na2vs0mg"},{"bike_id":"a8d2cfa4-d275-47c6-84f3-c214a2d8d7b4","system_id":"levelo_inurba_marseille","lat":43.31488,"lon":5.37307,"is_reserved":false,"is_disabled":false,"rental_uris":{"android":"levelo://app?vid=a8d2cfa4-d275-47c6-84f3-c214a2d8d7b4","ios":"levelo://app?vid=a8d2cfa4-d275-47c6-84f3-c214a2d8d7b4"},"vehicle_type_id":"4","last_reported":1729368495,"current_range_meters":38800,"station_id":"ce4bgt12rcd13ifvqcd0","pricing_plan_id":"cebpf4jnsgd1na2vs0mg"},{"bike_id":"474ccd54-d884-4c48-ac27-1f7190ae4438","system_id":"levelo_inurba_marseille","lat":43.33728,"lon":5.39189,"is_reserved":false,"is_disabled":false,"rental_uris":{"android":"levelo://app?vid=474ccd54-d884-4c48-ac27-1f7190ae4438","ios":"levelo://app?vid=474ccd54-d884-4c48-ac27-1f7190ae4438"},"vehicle_type_id":"4","last_reported":1729368495,"current_range_meters":10800,"station_id":"ce4bhr92rcd13ifvqhsg","pricing_plan_id":"cebpf4jnsgd1na2vs0mg"},{"bike_id":"10cd72d1-8291-4e0d-9d4e-3ac0ed09117d","system_id":"levelo_inurba_marseille","lat":43.2941,"lon":5.38651,"is_reserved":false,"is_disabled":false,"rental_uris":{"android":"levelo://app?vid=10cd72d1-8291-4e0d-9d4e-3ac0ed09117d","ios":"levelo://app?vid=10cd72d1-8291-4e0d-9d4e-3ac0ed09117d"},"vehicle_type_id":"4","last_reported":1729368495,"current_range_meters":26000,"station_id":"ce4bho12rcd13ifvqh2g","pricing_plan_id":"cebpf4jnsgd1na2vs0mg"},{"bike_id":"d3a4e5c0-e2c5-458d-88f6-4a7924d87a09","system_id":"levelo_inurba_marseille","lat":43.29642,"lon":5.40595,"is_reserved":false,"is_disabled":false,"rental_uris":{"android":"levelo://app?vid=d3a4e5c0-e2c5-458d-88f6-4a7924d87a09","ios":"levelo://app?vid=d3a4e5c0-e2c5-458d-88f6-4a7924d87a09"},"vehicle_type_id":"4","last_reported":1729368495,"current_range_meters":38400,"station_id":"ce4bh0h2rcd13ifvqd60","pricing_plan_id":"cebpf4jnsgd1na2vs0mg"},{"bike_id":"911c5585-d8de-4b0a-9b54-2e9687f340b4","system_id":"levelo_inurba_marseille","lat":43.29627,"lon":5.37723,"is_reserved":false,"is_disabled":false,"rental_uris":{"android":"levelo://app?vid=911c5585-d8de-4b0a-9b54-2e9687f340b4","ios":"levelo://app?vid=911c5585-d8de-4b0a-9b54-2e9687f340b4"},"vehicle_type_id":"4","last_reported":1729368495,"current_range_meters":19200,"station_id":"ce4bgi92rcd13ifvqb90","pricing_plan_id":"cebpf4jnsgd1na2vs0mg"},{"bike_id":"760c49f5-20fe-4a12-800f-11e8602a9326","system_id":"levelo_inurba_marseille","lat":43.30958,"lon":5.39045,"is_reserved":false,"is_disabled":false,"rental_uris":{"android":"levelo://app?vid=760c49f5-20fe-4a12-800f-11e8602a9326","ios":"levelo://app?vid=760c49f5-20fe-4a12-800f-11e8602a9326"},"vehicle_type_id":"4","last_reported":1729368495,"current_range_meters":25600,"station_id":"ce4bgup2rcd13ifvqco0","pricing_plan_id":"cebpf4jnsgd1na2vs0mg"},{"bike_id":"1b3d2285-9dd2-4a2d-8ef7-1e2689d491d5","system_id":"levelo_inurba_marseille","lat":43.29249,"lon":5.38748,"is_reserved":false,"is_disabled":false,"rental_uris":{"android":"levelo://app?vid=1b3d2285-9dd2-4a2d-8ef7-1e2689d491d5","ios":"levelo://app?vid=1b3d2285-9dd2-4a2d-8ef7-1e2689d491d5"},"vehicle_type_id":"4","last_reported":1729368495,"current_range_meters":11600,"station_id":"ce4bho12rcd13ifvqh2g","pricing_plan_id":"cebpf4jnsgd1na2vs0mg"},{"bike_id":"7e0b5d71-a8eb-4421-a968-268fef2f6d80","system_id":"levelo_inurba_marseille","lat":43.30782,"lon":5.37654,"is_reserved":false,"is_disabled":false,"rental_uris":{"android":"levelo://app?vid=7e0b5d71-a8eb-4421-a968-268fef2f6d80","ios":"levelo://app?vid=7e0b5d71-a8eb-4421-a968-268fef2f6d80"},"vehicle_type_id":"4","last_reported":1729368495,"current_range_meters":10800,"station_id":"ce4bgv92rcd13ifvqcq0","pricing_plan_id":"cebpf4jnsgd1na2vs0mg"},{"bike_id":"fbbe0d06-164f-4ea4-953c-b309077bc14e","system_id":"levelo_inurba_marseille","lat":43.32538,"lon":5.41443,"is_reserved":false,"is_disabled":false,"rental_uris":{"android":"levelo://app?vid=fbbe0d06-164f-4ea4-953c-b309077bc14e","ios":"levelo://app?vid=fbbe0d06-164f-4ea4-953c-b309077bc14e"},"vehicle_type_id":"4","last_reported":1729368495,"current_range_meters":5600,"station_id":"ce4bhq12rcd13ifvqhhg","pricing_plan_id":"cebpf4jnsgd1na2vs0mg"},{"bike_id":"fc6e513b-da81-4d34-a427-493e42edd768","system_id":"levelo_inurba_marseille","lat":43.2953,"lon":5.39246,"is_reserved":false,"is_disabled":false,"rental_uris":{"android":"levelo://app?vid=fc6e513b-da81-4d34-a427-493e42edd768","ios":"levelo://app?vid=fc6e513b-da81-4d34-a427-493e42edd768"},"vehicle_type_id":"4","last_reported":1729368495,"current_range_meters":20000,"station_id":"","pricing_plan_id":"cebpf4jnsgd1na2vs0mg"},{"bike_id":"abf780da-a5cd-48fa-a6b9-9d83d03c0953","system_id":"levelo_inurba_marseille","lat":43.31068,"lon":5.38359,"is_reserved":false,"is_disabled":false,"rental_uris":{"android":"levelo://app?vid=abf780da-a5cd-48fa-a6b9-9d83d03c0953","ios":"levelo://app?vid=abf780da-a5cd-48fa-a6b9-9d83d03c0953"},"vehicle_type_id":"4","last_reported":1729368495,"current_range_meters":39200,"station_id":"ce4bgv92rcd13ifvqcr0","pricing_plan_id":"cebpf4jnsgd1na2vs0mg"},{"bike_id":"ecb85f99-17b9-4bf1-829c-0f61a2cf1ee6","system_id":"levelo_inurba_marseille","lat":43.27958,"lon":5.41689,"is_reserved":false,"is_disabled":false,"rental_uris":{"android":"levelo://app?vid=ecb85f99-17b9-4bf1-829c-0f61a2cf1ee6","ios":"levelo://app?vid=ecb85f99-17b9-4bf1-829c-0f61a2cf1ee6"},"vehicle_type_id":"4","last_reported":1729368495,"current_range_meters":11600,"station_id":"ce4bho12rcd13ifvqh1g","pricing_plan_id":"cebpf4jnsgd1na2vs0mg"},{"bike_id":"d0201ef7-288d-41c0-a113-a9447266d47b","system_id":"levelo_inurba_marseille","lat":43.308862,"lon":5.3965,"is_reserved":false,"is_disabled":false,"rental_uris":{"android":"levelo://app?vid=d0201ef7-288d-41c0-a113-a9447266d47b","ios":"levelo://app?vid=d0201ef7-288d-41c0-a113-a9447266d47b"},"vehicle_type_id":"4","last_reported":1729368495,"current_range_meters":6400,"station_id":"ce4bh012rcd13ifvqcv0","pricing_plan_id":"cebpf4jnsgd1na2vs0mg"},{"bike_id":"94801369-1183-4653-b0f7-f8f7c48bca4c","system_id":"levelo_inurba_marseille","lat":43.33024,"lon":5.3904,"is_reserved":false,"is_disabled":false,"rental_uris":{"android":"levelo://app?vid=94801369-1183-4653-b0f7-f8f7c48bca4c","ios":"levelo://app?vid=94801369-1183-4653-b0f7-f8f7c48bca4c"},"vehicle_type_id":"4","last_reported":1729368495,"current_range_meters":8400,"station_id":"ce4bhr92rcd13ifvqhrg","pricing_plan_id":"cebpf4jnsgd1na2vs0mg"},{"bike_id":"57dd0012-e7c2-43e3-90a1-087125ac63fa","system_id":"levelo_inurba_marseille","lat":43.33753,"lon":5.37454,"is_reserved":false,"is_disabled":false,"rental_uris":{"android":"levelo://app?vid=57dd0012-e7c2-43e3-90a1-087125ac63fa","ios":"levelo://app?vid=57dd0012-e7c2-43e3-90a1-087125ac63fa"},"vehicle_type_id":"4","last_reported":1729368495,"current_range_meters":38400,"station_id":"","pricing_plan_id":"cebpf4jnsgd1na2vs0mg"},{"bike_id":"aad6f7c5-d130-4cba-91bb-3feedade7969","system_id":"levelo_inurba_marseille","lat":43.29259,"lon":5.38444,"is_reserved":false,"is_disabled":false,"rental_uris":{"android":"levelo://app?vid=aad6f7c5-d130-4cba-91bb-3feedade7969","ios":"levelo://app?vid=aad6f7c5-d130-4cba-91bb-3feedade7969"},"vehicle_type_id":"4","last_reported":1729368495,"current_range_meters":17200,"station_id":"","pricing_plan_id":"cebpf4jnsgd1na2vs0mg"},{"bike_id":"580fd143-444b-4424-b5bb-4b9e450f75b5","system_id":"levelo_inurba_marseille","lat":43.27943,"lon":5.41043,"is_reserved":false,"is_disabled":false,"rental_uris":{"android":"levelo://app?vid=580fd143-444b-4424-b5bb-4b9e450f75b5","ios":"levelo://app?vid=580fd143-444b-4424-b5bb-4b9e450f75b5"},"vehicle_type_id":"4","last_reported":1729368495,"current_range_meters":35200,"station_id":"ce4bhnp2rcd13ifvqh0g","pricing_plan_id":"cebpf4jnsgd1na2vs0mg"},{"bike_id":"ffd27696-dcf8-4c4a-b97f-dc7e5e8ddcc0","system_id":"levelo_inurba_marseille","lat":43.27618,"lon":5.36115,"is_reserved":false,"is_disabled":false,"rental_uris":{"android":"levelo://app?vid=ffd27696-dcf8-4c4a-b97f-dc7e5e8ddcc0","ios":"levelo://app?vid=ffd27696-dcf8-4c4a-b97f-dc7e5e8ddcc0"},"vehicle_type_id":"4","last_reported":1729368495,"current_range_meters":11600,"station_id":"ce4bgj92rcd13ifvqbe0","pricing_plan_id":"cebpf4jnsgd1na2vs0mg"},{"bike_id":"6bb58a27-efe2-4395-8e14-147c5af59781","system_id":"levelo_inurba_marseille","lat":43.29091,"lon":5.38164,"is_reserved":false,"is_disabled":false,"rental_uris":{"android":"levelo://app?vid=6bb58a27-efe2-4395-8e14-147c5af59781","ios":"levelo://app?vid=6bb58a27-efe2-4395-8e14-147c5af59781"},"vehicle_type_id":"4","last_reported":1729368495,"current_range_meters":16400,"station_id":"ce4bh512rcd13ifvqe2g","pricing_plan_id":"cebpf4jnsgd1na2vs0mg"},{"bike_id":"d4121f67-c188-4147-bce3-3db48cb9650c","system_id":"levelo_inurba_marseille","lat":43.27374,"lon":5.36258,"is_reserved":false,"is_disabled":false,"rental_uris":{"android":"levelo://app?vid=d4121f67-c188-4147-bce3-3db48cb9650c","ios":"levelo://app?vid=d4121f67-c188-4147-bce3-3db48cb9650c"},"vehicle_type_id":"4","last_reported":1729368495,"current_range_meters":20800,"station_id":"ce4bhbh2rcd13ifvqeo0","pricing_plan_id":"cebpf4jnsgd1na2vs0mg"},{"bike_id":"a87445eb-6eef-4ac8-98ec-915fca52333a","system_id":"levelo_inurba_marseille","lat":43.27493,"lon":5.42449,"is_reserved":false,"is_disabled":false,"rental_uris":{"android":"levelo://app?vid=a87445eb-6eef-4ac8-98ec-915fca52333a","ios":"levelo://app?vid=a87445eb-6eef-4ac8-98ec-915fca52333a"},"vehicle_type_id":"4","last_reported":1729368495,"current_range_meters":28400,"station_id":"ce4bhn92rcd13ifvqgrg","pricing_plan_id":"cebpf4jnsgd1na2vs0mg"},{"bike_id":"110bebee-67f9-4910-8041-a26632454ed0","system_id":"levelo_inurba_marseille","lat":43.30103,"lon":5.3908,"is_reserved":false,"is_disabled":false,"rental_uris":{"android":"levelo://app?vid=110bebee-67f9-4910-8041-a26632454ed0","ios":"levelo://app?vid=110bebee-67f9-4910-8041-a26632454ed0"},"vehicle_type_id":"4","last_reported":1729368495,"current_range_meters":38000,"station_id":"ce4bh192rcd13ifvqdb0","pricing_plan_id":"cebpf4jnsgd1na2vs0mg"},{"bike_id":"e8b3df60-01e0-45e7-8b61-61d52e175cbb","system_id":"levelo_inurba_marseille","lat":43.28106,"lon":5.37836,"is_reserved":false,"is_disabled":false,"rental_uris":{"android":"levelo://app?vid=e8b3df60-01e0-45e7-8b61-61d52e175cbb","ios":"levelo://app?vid=e8b3df60-01e0-45e7-8b61-61d52e175cbb"},"vehicle_type_id":"4","last_reported":1729368495,"current_range_meters":38400,"station_id":"ce4bha12rcd13ifvqee0","pricing_plan_id":"cebpf4jnsgd1na2vs0mg"},{"bike_id":"67772612-d615-427e-ad0d-3c55a84c51f9","system_id":"levelo_inurba_marseille","lat":43.26028,"lon":5.37549,"is_reserved":false,"is_disabled":false,"rental_uris":{"android":"levelo://app?vid=67772612-d615-427e-ad0d-3c55a84c51f9","ios":"levelo://app?vid=67772612-d615-427e-ad0d-3c55a84c51f9"},"vehicle_type_id":"4","last_reported":1729368495,"current_range_meters":26000,"station_id":"ce4bhgh2rcd13ifvqfa0","pricing_plan_id":"cebpf4jnsgd1na2vs0mg"},{"bike_id":"319e285c-82b5-439b-a7b4-0550bf15a6bf","system_id":"levelo_inurba_marseille","lat":43.24995,"lon":5.38937,"is_reserved":false,"is_disabled":false,"rental_uris":{"android":"levelo://app?vid=319e285c-82b5-439b-a7b4-0550bf15a6bf","ios":"levelo://app?vid=319e285c-82b5-439b-a7b4-0550bf15a6bf"},"vehicle_type_id":"4","last_reported":1729368495,"current_range_meters":25600,"station_id":"ce4bhgp2rcd13ifvqfd0","pricing_plan_id":"cebpf4jnsgd1na2vs0mg"},{"bike_id":"dc685923-4a33-4fe2-87cd-d3d6be1f4a42","system_id":"levelo_inurba_marseille","lat":43.28152,"lon":5.4265,"is_reserved":false,"is_disabled":false,"rental_uris":{"android":"levelo://app?vid=dc685923-4a33-4fe2-87cd-d3d6be1f4a42","ios":"levelo://app?vid=dc685923-4a33-4fe2-87cd-d3d6be1f4a42"},"vehicle_type_id":"4","last_reported":1729368495,"current_range_meters":38800,"station_id":"ce4bhnh2rcd13ifvqgug","pricing_plan_id":"cebpf4jnsgd1na2vs0mg"},{"bike_id":"2253580f-dddf-4b0d-838b-34944b6177f6","system_id":"levelo_inurba_marseille","lat":43.31325,"lon":5.39701,"is_reserved":false,"is_disabled":false,"rental_uris":{"android":"levelo://app?vid=2253580f-dddf-4b0d-838b-34944b6177f6","ios":"levelo://app?vid=2253580f-dddf-4b0d-838b-34944b6177f6"},"vehicle_type_id":"4","last_reported":1729368495,"current_range_meters":38800,"station_id":"ce4bgvp2rcd13ifvqcu0","pricing_plan_id":"cebpf4jnsgd1na2vs0mg"},{"bike_id":"5bf2e08f-09f0-41fc-8aea-d2921c1d9da6","system_id":"levelo_inurba_marseille","lat":43.29368,"lon":5.37827,"is_reserved":false,"is_disabled":false,"rental_uris":{"android":"levelo://app?vid=5bf2e08f-09f0-41fc-8aea-d2921c1d9da6","ios":"levelo://app?vid=5bf2e08f-09f0-41fc-8aea-d2921c1d9da6"},"vehicle_type_id":"4","last_reported":1729368495,"current_range_meters":4400,"station_id":"ce4bgjh2rcd13ifvqbf0","pricing_plan_id":"cebpf4jnsgd1na2vs0mg"},{"bike_id":"de206718-1487-4450-8315-833bcef54f97","system_id":"levelo_inurba_marseille","lat":43.32486,"lon":5.36572,"is_reserved":false,"is_disabled":false,"rental_uris":{"android":"levelo://app?vid=de206718-1487-4450-8315-833bcef54f97","ios":"levelo://app?vid=de206718-1487-4450-8315-833bcef54f97"},"vehicle_type_id":"4","last_reported":1729368495,"current_range_meters":38800,"station_id":"ce4bhs12rcd13ifvqhvg","pricing_plan_id":"cebpf4jnsgd1na2vs0mg"},{"bike_id":"e9370aaf-852b-4ddb-b814-2342e3b98ec4","system_id":"levelo_inurba_marseille","lat":43.29026,"lon":5.3864,"is_reserved":false,"is_disabled":false,"rental_uris":{"android":"levelo://app?vid=e9370aaf-852b-4ddb-b814-2342e3b98ec4","ios":"levelo://app?vid=e9370aaf-852b-4ddb-b814-2342e3b98ec4"},"vehicle_type_id":"4","last_reported":1729368495,"current_range_meters":38800,"station_id":"ce4bh4p2rcd13ifvqe0g","pricing_plan_id":"cebpf4jnsgd1na2vs0mg"},{"bike_id":"27697a0e-d270-4322-8267-52236ebf4b6b","system_id":"levelo_inurba_marseille","lat":43.29796,"lon":5.39344,"is_reserved":false,"is_disabled":false,"rental_uris":{"android":"levelo://app?vid=27697a0e-d270-4322-8267-52236ebf4b6b","ios":"levelo://app?vid=27697a0e-d270-4322-8267-52236ebf4b6b"},"vehicle_type_id":"4","last_reported":1729368495,"current_range_meters":18000,"station_id":"chh1huq6cuj3fo74tm60","pricing_plan_id":"cebpf4jnsgd1na2vs0mg"},{"bike_id":"03836b7b-4aae-4a47-980a-4ad55d05cf24","system_id":"levelo_inurba_marseille","lat":43.29197,"lon":5.35806,"is_reserved":false,"is_disabled":false,"rental_uris":{"android":"levelo://app?vid=03836b7b-4aae-4a47-980a-4ad55d05cf24","ios":"levelo://app?vid=03836b7b-4aae-4a47-980a-4ad55d05cf24"},"vehicle_type_id":"4","last_reported":1729368495,"current_range_meters":36000,"station_id":"ce4bhb12rcd13ifvqel0","pricing_plan_id":"cebpf4jnsgd1na2vs0mg"},{"bike_id":"1d27cee5-6899-452c-aab0-257a63584c66","system_id":"levelo_inurba_marseille","lat":43.26557,"lon":5.37285,"is_reserved":false,"is_disabled":false,"rental_uris":{"android":"levelo://app?vid=1d27cee5-6899-452c-aab0-257a63584c66","ios":"levelo://app?vid=1d27cee5-6899-452c-aab0-257a63584c66"},"vehicle_type_id":"4","last_reported":1729368495,"current_range_meters":16400,"station_id":"ce4bhg12rcd13ifvqf70","pricing_plan_id":"cebpf4jnsgd1na2vs0mg"},{"bike_id":"fe2c5efc-0fec-40ae-8c77-00fb773d9638","system_id":"levelo_inurba_marseille","lat":43.29209,"lon":5.39328,"is_reserved":false,"is_disabled":false,"rental_uris":{"android":"levelo://app?vid=fe2c5efc-0fec-40ae-8c77-00fb773d9638","ios":"levelo://app?vid=fe2c5efc-0fec-40ae-8c77-00fb773d9638"},"vehicle_type_id":"4","last_reported":1729368495,"current_range_meters":20000,"station_id":"ce4bh192rcd13ifvqdd0","pricing_plan_id":"cebpf4jnsgd1na2vs0mg"},{"bike_id":"08769619-3f21-4bc0-bfc2-be3c72fea16d","system_id":"levelo_inurba_marseille","lat":43.29415,"lon":5.38624,"is_reserved":false,"is_disabled":false,"rental_uris":{"android":"levelo://app?vid=08769619-3f21-4bc0-bfc2-be3c72fea16d","ios":"levelo://app?vid=08769619-3f21-4bc0-bfc2-be3c72fea16d"},"vehicle_type_id":"4","last_reported":1729368495,"current_range_meters":6000,"station_id":"ce4bh2h2rcd13ifvqdh0","pricing_plan_id":"cebpf4jnsgd1na2vs0mg"},{"bike_id":"b84db1a0-7114-4e54-95c5-3a99b3fc72a2","system_id":"levelo_inurba_marseille","lat":43.29113,"lon":5.38293,"is_reserved":false,"is_disabled":false,"rental_uris":{"android":"levelo://app?vid=b84db1a0-7114-4e54-95c5-3a99b3fc72a2","ios":"levelo://app?vid=b84db1a0-7114-4e54-95c5-3a99b3fc72a2"},"vehicle_type_id":"4","last_reported":1729368495,"current_range_meters":27200,"station_id":"ce4bhah2rcd13ifvqei0","pricing_plan_id":"cebpf4jnsgd1na2vs0mg"},{"bike_id":"df0764bb-73ac-46d7-903f-a26945b45d7c","system_id":"levelo_inurba_marseille","lat":43.24622,"lon":5.41608,"is_reserved":false,"is_disabled":false,"rental_uris":{"android":"levelo://app?vid=df0764bb-73ac-46d7-903f-a26945b45d7c","ios":"levelo://app?vid=df0764bb-73ac-46d7-903f-a26945b45d7c"},"vehicle_type_id":"4","last_reported":1729368495,"current_range_meters":27600,"station_id":"","pricing_plan_id":"cebpf4jnsgd1na2vs0mg"},{"bike_id":"766da900-471d-42f5-8cfa-8db494f945d7","system_id":"levelo_inurba_marseille","lat":43.289138,"lon":5.460556,"is_reserved":false,"is_disabled":false,"rental_uris":{"android":"levelo://app?vid=766da900-471d-42f5-8cfa-8db494f945d7","ios":"levelo://app?vid=766da900-471d-42f5-8cfa-8db494f945d7"},"vehicle_type_id":"4","last_reported":1729368495,"current_range_meters":28000,"station_id":"","pricing_plan_id":"cebpf4jnsgd1na2vs0mg"},{"bike_id":"e700e4d8-85f6-44d8-80b4-4749efe0ea4f","system_id":"levelo_inurba_marseille","lat":43.29198,"lon":5.3932,"is_reserved":false,"is_disabled":false,"rental_uris":{"android":"levelo://app?vid=e700e4d8-85f6-44d8-80b4-4749efe0ea4f","ios":"levelo://app?vid=e700e4d8-85f6-44d8-80b4-4749efe0ea4f"},"vehicle_type_id":"4","last_reported":1729368495,"current_range_meters":16000,"station_id":"ce4bh192rcd13ifvqdd0","pricing_plan_id":"cebpf4jnsgd1na2vs0mg"},{"bike_id":"d31870b8-1a00-47d0-af7b-91ff70d437e0","system_id":"levelo_inurba_marseille","lat":43.24809,"lon":5.37459,"is_reserved":false,"is_disabled":false,"rental_uris":{"android":"levelo://app?vid=d31870b8-1a00-47d0-af7b-91ff70d437e0","ios":"levelo://app?vid=d31870b8-1a00-47d0-af7b-91ff70d437e0"},"vehicle_type_id":"4","last_reported":1729368495,"current_range_meters":6000,"station_id":"ce4bhgh2rcd13ifvqfb0","pricing_plan_id":"cebpf4jnsgd1na2vs0mg"},{"bike_id":"e94d3181-8352-416f-a49b-b5f4ccd77bcf","system_id":"levelo_inurba_marseille","lat":43.24809,"lon":5.37457,"is_reserved":false,"is_disabled":false,"rental_uris":{"android":"levelo://app?vid=e94d3181-8352-416f-a49b-b5f4ccd77bcf","ios":"levelo://app?vid=e94d3181-8352-416f-a49b-b5f4ccd77bcf"},"vehicle_type_id":"4","last_reported":1729368495,"current_range_meters":24800,"station_id":"ce4bhgh2rcd13ifvqfb0","pricing_plan_id":"cebpf4jnsgd1na2vs0mg"},{"bike_id":"f7d6820f-0e1a-4435-a548-74f0e2f37202","system_id":"levelo_inurba_marseille","lat":43.28102,"lon":5.37852,"is_reserved":false,"is_disabled":false,"rental_uris":{"android":"levelo://app?vid=f7d6820f-0e1a-4435-a548-74f0e2f37202","ios":"levelo://app?vid=f7d6820f-0e1a-4435-a548-74f0e2f37202"},"vehicle_type_id":"4","last_reported":1729368495,"current_range_meters":8400,"station_id":"ce4bha12rcd13ifvqee0","pricing_plan_id":"cebpf4jnsgd1na2vs0mg"},{"bike_id":"0239e896-9754-478d-bfef-977cfc68cd96","system_id":"levelo_inurba_marseille","lat":43.29035,"lon":5.38641,"is_reserved":false,"is_disabled":false,"rental_uris":{"android":"levelo://app?vid=0239e896-9754-478d-bfef-977cfc68cd96","ios":"levelo://app?vid=0239e896-9754-478d-bfef-977cfc68cd96"},"vehicle_type_id":"4","last_reported":1729368495,"current_range_meters":38800,"station_id":"ce4bh4p2rcd13ifvqe0g","pricing_plan_id":"cebpf4jnsgd1na2vs0mg"},{"bike_id":"94714c4a-f9d0-4910-97cf-c984beaea509","system_id":"levelo_inurba_marseille","lat":43.27067,"lon":5.42282,"is_reserved":false,"is_disabled":false,"rental_uris":{"android":"levelo://app?vid=94714c4a-f9d0-4910-97cf-c984beaea509","ios":"levelo://app?vid=94714c4a-f9d0-4910-97cf-c984beaea509"},"vehicle_type_id":"4","last_reported":1729368495,"current_range_meters":13600,"station_id":"ce4bhl12rcd13ifvqgf0","pricing_plan_id":"cebpf4jnsgd1na2vs0mg"},{"bike_id":"aac63bd6-065c-4580-ac8f-a00aeee4321b","system_id":"levelo_inurba_marseille","lat":43.29975,"lon":5.38503,"is_reserved":false,"is_disabled":false,"rental_uris":{"android":"levelo://app?vid=aac63bd6-065c-4580-ac8f-a00aeee4321b","ios":"levelo://app?vid=aac63bd6-065c-4580-ac8f-a00aeee4321b"},"vehicle_type_id":"4","last_reported":1729368495,"current_range_meters":35200,"station_id":"ce4bgj92rcd13ifvqbd0","pricing_plan_id":"cebpf4jnsgd1na2vs0mg"},{"bike_id":"725408fd-f191-4840-b9a1-c73737af192a","system_id":"levelo_inurba_marseille","lat":43.29366,"lon":5.37838,"is_reserved":false,"is_disabled":false,"rental_uris":{"android":"levelo://app?vid=725408fd-f191-4840-b9a1-c73737af192a","ios":"levelo://app?vid=725408fd-f191-4840-b9a1-c73737af192a"},"vehicle_type_id":"4","last_reported":1729368495,"current_range_meters":24800,"station_id":"ce4bgjh2rcd13ifvqbf0","pricing_plan_id":"cebpf4jnsgd1na2vs0mg"},{"bike_id":"e2f46a75-dcb6-4caf-a0f8-7199330d5441","system_id":"levelo_inurba_marseille","lat":43.29677,"lon":5.37303,"is_reserved":false,"is_disabled":false,"rental_uris":{"android":"levelo://app?vid=e2f46a75-dcb6-4caf-a0f8-7199330d5441","ios":"levelo://app?vid=e2f46a75-dcb6-4caf-a0f8-7199330d5441"},"vehicle_type_id":"4","last_reported":1729368495,"current_range_meters":25600,"station_id":"ce4bgk12rcd13ifvqbj0","pricing_plan_id":"cebpf4jnsgd1na2vs0mg"},{"bike_id":"44f31f6f-fa69-4468-b657-e74128ea1799","system_id":"levelo_inurba_marseille","lat":43.29576,"lon":5.37511,"is_reserved":false,"is_disabled":false,"rental_uris":{"android":"levelo://app?vid=44f31f6f-fa69-4468-b657-e74128ea1799","ios":"levelo://app?vid=44f31f6f-fa69-4468-b657-e74128ea1799"},"vehicle_type_id":"4","last_reported":1729368495,"current_range_meters":38000,"station_id":"ce4bgh92rcd13ifvqb50","pricing_plan_id":"cebpf4jnsgd1na2vs0mg"},{"bike_id":"afaa1479-4d6e-482f-9b35-e8e8558608f9","system_id":"levelo_inurba_marseille","lat":43.30877,"lon":5.39642,"is_reserved":false,"is_disabled":false,"rental_uris":{"android":"levelo://app?vid=afaa1479-4d6e-482f-9b35-e8e8558608f9","ios":"levelo://app?vid=afaa1479-4d6e-482f-9b35-e8e8558608f9"},"vehicle_type_id":"4","last_reported":1729368495,"current_range_meters":38800,"station_id":"ce4bh012rcd13ifvqcv0","pricing_plan_id":"cebpf4jnsgd1na2vs0mg"},{"bike_id":"b9cb22c7-965c-4a00-b135-6db2b2768363","system_id":"levelo_inurba_marseille","lat":43.29186,"lon":5.39321,"is_reserved":false,"is_disabled":false,"rental_uris":{"android":"levelo://app?vid=b9cb22c7-965c-4a00-b135-6db2b2768363","ios":"levelo://app?vid=b9cb22c7-965c-4a00-b135-6db2b2768363"},"vehicle_type_id":"4","last_reported":1729368495,"current_range_meters":24000,"station_id":"ce4bh192rcd13ifvqdd0","pricing_plan_id":"cebpf4jnsgd1na2vs0mg"},{"bike_id":"46fb0839-a2fc-48f3-988a-c0bec4f0a4d5","system_id":"levelo_inurba_marseille","lat":43.29262,"lon":5.38445,"is_reserved":false,"is_disabled":false,"rental_uris":{"android":"levelo://app?vid=46fb0839-a2fc-48f3-988a-c0bec4f0a4d5","ios":"levelo://app?vid=46fb0839-a2fc-48f3-988a-c0bec4f0a4d5"},"vehicle_type_id":"4","last_reported":1729368495,"current_range_meters":4800,"station_id":"","pricing_plan_id":"cebpf4jnsgd1na2vs0mg"},{"bike_id":"2910eaad-da2f-4396-abed-6a24ceae014b","system_id":"levelo_inurba_marseille","lat":43.30399,"lon":5.37311,"is_reserved":false,"is_disabled":false,"rental_uris":{"android":"levelo://app?vid=2910eaad-da2f-4396-abed-6a24ceae014b","ios":"levelo://app?vid=2910eaad-da2f-4396-abed-6a24ceae014b"},"vehicle_type_id":"4","last_reported":1729368495,"current_range_meters":20800,"station_id":"","pricing_plan_id":"cebpf4jnsgd1na2vs0mg"},{"bike_id":"37bc6d3f-fafe-479d-9831-03af26eb3064","system_id":"levelo_inurba_marseille","lat":43.295105,"lon":5.385366,"is_reserved":false,"is_disabled":false,"rental_uris":{"android":"levelo://app?vid=37bc6d3f-fafe-479d-9831-03af26eb3064","ios":"levelo://app?vid=37bc6d3f-fafe-479d-9831-03af26eb3064"},"vehicle_type_id":"4","last_reported":1729368495,"current_range_meters":9600,"station_id":"ce4bgih2rcd13ifvqba0","pricing_plan_id":"cebpf4jnsgd1na2vs0mg"},{"bike_id":"6e706dcb-6e41-41b6-a172-73765c66fdaa","system_id":"levelo_inurba_marseille","lat":43.26239,"lon":5.37591,"is_reserved":false,"is_disabled":false,"rental_uris":{"android":"levelo://app?vid=6e706dcb-6e41-41b6-a172-73765c66fdaa","ios":"levelo://app?vid=6e706dcb-6e41-41b6-a172-73765c66fdaa"},"vehicle_type_id":"4","last_reported":1729368495,"current_range_meters":36800,"station_id":"ce4bhhp2rcd13ifvqfm0","pricing_plan_id":"cebpf4jnsgd1na2vs0mg"},{"bike_id":"8adaa448-89df-48dc-a50d-3b515216601d","system_id":"levelo_inurba_marseille","lat":43.28464,"lon":5.35887,"is_reserved":false,"is_disabled":false,"rental_uris":{"android":"levelo://app?vid=8adaa448-89df-48dc-a50d-3b515216601d","ios":"levelo://app?vid=8adaa448-89df-48dc-a50d-3b515216601d"},"vehicle_type_id":"4","last_reported":1729368495,"current_range_meters":36400,"station_id":"ce4bhah2rcd13ifvqei0","pricing_plan_id":"cebpf4jnsgd1na2vs0mg"},{"bike_id":"522bb5dc-efc4-45ac-a026-aafe838b2839","system_id":"levelo_inurba_marseille","lat":43.298,"lon":5.37093,"is_reserved":false,"is_disabled":false,"rental_uris":{"android":"levelo://app?vid=522bb5dc-efc4-45ac-a026-aafe838b2839","ios":"levelo://app?vid=522bb5dc-efc4-45ac-a026-aafe838b2839"},"vehicle_type_id":"4","last_reported":1729368495,"current_range_meters":38800,"station_id":"ce4bgop2rcd13ifvqc1g","pricing_plan_id":"cebpf4jnsgd1na2vs0mg"},{"bike_id":"1d0123a6-a46a-4f0d-aa90-d1ca1d1a44c9","system_id":"levelo_inurba_marseille","lat":43.31328,"lon":5.39699,"is_reserved":false,"is_disabled":false,"rental_uris":{"android":"levelo://app?vid=1d0123a6-a46a-4f0d-aa90-d1ca1d1a44c9","ios":"levelo://app?vid=1d0123a6-a46a-4f0d-aa90-d1ca1d1a44c9"},"vehicle_type_id":"4","last_reported":1729368495,"current_range_meters":38800,"station_id":"ce4bgvp2rcd13ifvqcu0","pricing_plan_id":"cebpf4jnsgd1na2vs0mg"},{"bike_id":"9f1c8fee-f6b2-469a-b9b8-4592c69eb5db","system_id":"levelo_inurba_marseille","lat":43.30891,"lon":5.37194,"is_reserved":false,"is_disabled":false,"rental_uris":{"android":"levelo://app?vid=9f1c8fee-f6b2-469a-b9b8-4592c69eb5db","ios":"levelo://app?vid=9f1c8fee-f6b2-469a-b9b8-4592c69eb5db"},"vehicle_type_id":"4","last_reported":1729368495,"current_range_meters":6800,"station_id":"ce4bguh2rcd13ifvqckg","pricing_plan_id":"cebpf4jnsgd1na2vs0mg"},{"bike_id":"925cebb6-25ba-4bff-aaa6-58cf9e792659","system_id":"levelo_inurba_marseille","lat":43.32658,"lon":5.40998,"is_reserved":false,"is_disabled":false,"rental_uris":{"android":"levelo://app?vid=925cebb6-25ba-4bff-aaa6-58cf9e792659","ios":"levelo://app?vid=925cebb6-25ba-4bff-aaa6-58cf9e792659"},"vehicle_type_id":"4","last_reported":1729368495,"current_range_meters":18800,"station_id":"ce4bhpp2rcd13ifvqhgg","pricing_plan_id":"cebpf4jnsgd1na2vs0mg"},{"bike_id":"7772d39f-5e28-445c-af91-069b0cf63793","system_id":"levelo_inurba_marseille","lat":43.33765,"lon":5.37438,"is_reserved":false,"is_disabled":false,"rental_uris":{"android":"levelo://app?vid=7772d39f-5e28-445c-af91-069b0cf63793","ios":"levelo://app?vid=7772d39f-5e28-445c-af91-069b0cf63793"},"vehicle_type_id":"4","last_reported":1729368495,"current_range_meters":7200,"station_id":"","pricing_plan_id":"cebpf4jnsgd1na2vs0mg"},{"bike_id":"733eb2c5-00ab-4d49-8038-dfb888b12557","system_id":"levelo_inurba_marseille","lat":43.31994,"lon":5.38157,"is_reserved":false,"is_disabled":false,"rental_uris":{"android":"levelo://app?vid=733eb2c5-00ab-4d49-8038-dfb888b12557","ios":"levelo://app?vid=733eb2c5-00ab-4d49-8038-dfb888b12557"},"vehicle_type_id":"4","last_reported":1729368495,"current_range_meters":36800,"station_id":"ce4bhr12rcd13ifvqhpg","pricing_plan_id":"cebpf4jnsgd1na2vs0mg"},{"bike_id":"3213665e-989c-4d22-9f5a-31c8522597dd","system_id":"levelo_inurba_marseille","lat":43.296,"lon":5.36142,"is_reserved":false,"is_disabled":false,"rental_uris":{"android":"levelo://app?vid=3213665e-989c-4d22-9f5a-31c8522597dd","ios":"levelo://app?vid=3213665e-989c-4d22-9f5a-31c8522597dd"},"vehicle_type_id":"4","last_reported":1729368495,"current_range_meters":18000,"station_id":"","pricing_plan_id":"cebpf4jnsgd1na2vs0mg"},{"bike_id":"3f3c663d-a6fd-4091-8533-6c09ca965902","system_id":"levelo_inurba_marseille","lat":43.3119,"lon":5.37715,"is_reserved":false,"is_disabled":false,"rental_uris":{"android":"levelo://app?vid=3f3c663d-a6fd-4091-8533-6c09ca965902","ios":"levelo://app?vid=3f3c663d-a6fd-4091-8533-6c09ca965902"},"vehicle_type_id":"4","last_reported":1729368495,"current_range_meters":18800,"station_id":"","pricing_plan_id":"cebpf4jnsgd1na2vs0mg"},{"bike_id":"542d75c4-bc38-4ae4-8b09-bc52447b0346","system_id":"levelo_inurba_marseille","lat":43.29532,"lon":5.38549,"is_reserved":false,"is_disabled":false,"rental_uris":{"android":"levelo://app?vid=542d75c4-bc38-4ae4-8b09-bc52447b0346","ios":"levelo://app?vid=542d75c4-bc38-4ae4-8b09-bc52447b0346"},"vehicle_type_id":"4","last_reported":1729368495,"current_range_meters":17200,"station_id":"ce4bgih2rcd13ifvqba0","pricing_plan_id":"cebpf4jnsgd1na2vs0mg"},{"bike_id":"e52f4bd0-e5a9-408a-8759-62d9fa617a1c","system_id":"levelo_inurba_marseille","lat":43.30208,"lon":5.3947,"is_reserved":false,"is_disabled":false,"rental_uris":{"android":"levelo://app?vid=e52f4bd0-e5a9-408a-8759-62d9fa617a1c","ios":"levelo://app?vid=e52f4bd0-e5a9-408a-8759-62d9fa617a1c"},"vehicle_type_id":"4","last_reported":1729368495,"current_range_meters":32400,"station_id":"ce4bh0p2rcd13ifvqd70","pricing_plan_id":"cebpf4jnsgd1na2vs0mg"},{"bike_id":"5dd719ab-a213-4094-b2e1-609f6924f39b","system_id":"levelo_inurba_marseille","lat":43.31992,"lon":5.38163,"is_reserved":false,"is_disabled":false,"rental_uris":{"android":"levelo://app?vid=5dd719ab-a213-4094-b2e1-609f6924f39b","ios":"levelo://app?vid=5dd719ab-a213-4094-b2e1-609f6924f39b"},"vehicle_type_id":"4","last_reported":1729368495,"current_range_meters":30000,"station_id":"ce4bhr12rcd13ifvqhpg","pricing_plan_id":"cebpf4jnsgd1na2vs0mg"},{"bike_id":"8e3aae00-e224-4e62-89fd-ad80713ca34c","system_id":"levelo_inurba_marseille","lat":43.29535,"lon":5.38543,"is_reserved":false,"is_disabled":false,"rental_uris":{"android":"levelo://app?vid=8e3aae00-e224-4e62-89fd-ad80713ca34c","ios":"levelo://app?vid=8e3aae00-e224-4e62-89fd-ad80713ca34c"},"vehicle_type_id":"4","last_reported":1729368495,"current_range_meters":25200,"station_id":"ce4bgih2rcd13ifvqba0","pricing_plan_id":"cebpf4jnsgd1na2vs0mg"},{"bike_id":"5d78ae70-b0d9-4d81-bfab-36a0365b68a9","system_id":"levelo_inurba_marseille","lat":43.28607,"lon":5.351,"is_reserved":false,"is_disabled":false,"rental_uris":{"android":"levelo://app?vid=5d78ae70-b0d9-4d81-bfab-36a0365b68a9","ios":"levelo://app?vid=5d78ae70-b0d9-4d81-bfab-36a0365b68a9"},"vehicle_type_id":"4","last_reported":1729368495,"current_range_meters":10000,"station_id":"ce4bhch2rcd13ifvqeug","pricing_plan_id":"cebpf4jnsgd1na2vs0mg"},{"bike_id":"79bf9030-1f26-4450-919e-8b96bbf0c3c7","system_id":"levelo_inurba_marseille","lat":43.26059,"lon":5.39402,"is_reserved":false,"is_disabled":false,"rental_uris":{"android":"levelo://app?vid=79bf9030-1f26-4450-919e-8b96bbf0c3c7","ios":"levelo://app?vid=79bf9030-1f26-4450-919e-8b96bbf0c3c7"},"vehicle_type_id":"4","last_reported":1729368495,"current_range_meters":14800,"station_id":"ce4bhhp2rcd13ifvqfm0","pricing_plan_id":"cebpf4jnsgd1na2vs0mg"},{"bike_id":"640f7e39-e57e-4eea-8b53-544720e20fdd","system_id":"levelo_inurba_marseille","lat":43.28399,"lon":5.37519,"is_reserved":false,"is_disabled":false,"rental_uris":{"android":"levelo://app?vid=640f7e39-e57e-4eea-8b53-544720e20fdd","ios":"levelo://app?vid=640f7e39-e57e-4eea-8b53-544720e20fdd"},"vehicle_type_id":"4","last_reported":1729368495,"current_range_meters":27600,"station_id":"ce4bh412rcd13ifvqds0","pricing_plan_id":"cebpf4jnsgd1na2vs0mg"},{"bike_id":"31469a1e-4c4d-4cd2-b056-9c107fc836cc","system_id":"levelo_inurba_marseille","lat":43.29981,"lon":5.38494,"is_reserved":false,"is_disabled":false,"rental_uris":{"android":"levelo://app?vid=31469a1e-4c4d-4cd2-b056-9c107fc836cc","ios":"levelo://app?vid=31469a1e-4c4d-4cd2-b056-9c107fc836cc"},"vehicle_type_id":"4","last_reported":1729368495,"current_range_meters":8000,"station_id":"ce4bgj92rcd13ifvqbd0","pricing_plan_id":"cebpf4jnsgd1na2vs0mg"},{"bike_id":"528cfecd-4b00-42ac-aec9-c681ba5b962c","system_id":"levelo_inurba_marseille","lat":43.28616,"lon":5.35105,"is_reserved":false,"is_disabled":false,"rental_uris":{"android":"levelo://app?vid=528cfecd-4b00-42ac-aec9-c681ba5b962c","ios":"levelo://app?vid=528cfecd-4b00-42ac-aec9-c681ba5b962c"},"vehicle_type_id":"4","last_reported":1729368495,"current_range_meters":16000,"station_id":"ce4bhch2rcd13ifvqeug","pricing_plan_id":"cebpf4jnsgd1na2vs0mg"},{"bike_id":"01f0a21f-3999-4038-8aaf-0f3a293ae117","system_id":"levelo_inurba_marseille","lat":43.292638,"lon":5.38441,"is_reserved":false,"is_disabled":false,"rental_uris":{"android":"levelo://app?vid=01f0a21f-3999-4038-8aaf-0f3a293ae117","ios":"levelo://app?vid=01f0a21f-3999-4038-8aaf-0f3a293ae117"},"vehicle_type_id":"4","last_reported":1729368495,"current_range_meters":34800,"station_id":"","pricing_plan_id":"cebpf4jnsgd1na2vs0mg"},{"bike_id":"3e048345-056d-47f9-a82c-967e4d38f813","system_id":"levelo_inurba_marseille","lat":43.29617,"lon":5.38101,"is_reserved":false,"is_disabled":false,"rental_uris":{"android":"levelo://app?vid=3e048345-056d-47f9-a82c-967e4d38f813","ios":"levelo://app?vid=3e048345-056d-47f9-a82c-967e4d38f813"},"vehicle_type_id":"4","last_reported":1729368495,"current_range_meters":32800,"station_id":"ce4bgl12rcd13ifvqbo0","pricing_plan_id":"cebpf4jnsgd1na2vs0mg"},{"bike_id":"53628cce-6b5d-45d1-aa5b-23620d5178a4","system_id":"levelo_inurba_marseille","lat":43.27622,"lon":5.36105,"is_reserved":false,"is_disabled":false,"rental_uris":{"android":"levelo://app?vid=53628cce-6b5d-45d1-aa5b-23620d5178a4","ios":"levelo://app?vid=53628cce-6b5d-45d1-aa5b-23620d5178a4"},"vehicle_type_id":"4","last_reported":1729368495,"current_range_meters":12800,"station_id":"ce4bgj92rcd13ifvqbe0","pricing_plan_id":"cebpf4jnsgd1na2vs0mg"},{"bike_id":"f65ab111-e359-4cd4-8fb0-83a0802d25f5","system_id":"levelo_inurba_marseille","lat":43.26583,"lon":5.38999,"is_reserved":false,"is_disabled":false,"rental_uris":{"android":"levelo://app?vid=f65ab111-e359-4cd4-8fb0-83a0802d25f5","ios":"levelo://app?vid=f65ab111-e359-4cd4-8fb0-83a0802d25f5"},"vehicle_type_id":"4","last_reported":1729368495,"current_range_meters":32400,"station_id":"ce4bhe12rcd13ifvqf30","pricing_plan_id":"cebpf4jnsgd1na2vs0mg"},{"bike_id":"50556b01-c273-4d3a-ba29-5f6857425d81","system_id":"levelo_inurba_marseille","lat":43.31324,"lon":5.39696,"is_reserved":false,"is_disabled":false,"rental_uris":{"android":"levelo://app?vid=50556b01-c273-4d3a-ba29-5f6857425d81","ios":"levelo://app?vid=50556b01-c273-4d3a-ba29-5f6857425d81"},"vehicle_type_id":"4","last_reported":1729368495,"current_range_meters":17600,"station_id":"ce4bgvp2rcd13ifvqcu0","pricing_plan_id":"cebpf4jnsgd1na2vs0mg"},{"bike_id":"a50da574-03c5-475b-b6c5-e3885a5b2ef0","system_id":"levelo_inurba_marseille","lat":43.28152,"lon":5.42635,"is_reserved":false,"is_disabled":false,"rental_uris":{"android":"levelo://app?vid=a50da574-03c5-475b-b6c5-e3885a5b2ef0","ios":"levelo://app?vid=a50da574-03c5-475b-b6c5-e3885a5b2ef0"},"vehicle_type_id":"4","last_reported":1729368495,"current_range_meters":22000,"station_id":"ce4bhnh2rcd13ifvqgug","pricing_plan_id":"cebpf4jnsgd1na2vs0mg"},{"bike_id":"fac9a3a2-2dd0-4efd-afd6-73cc4f4edd9a","system_id":"levelo_inurba_marseille","lat":43.24809,"lon":5.37459,"is_reserved":false,"is_disabled":false,"rental_uris":{"android":"levelo://app?vid=fac9a3a2-2dd0-4efd-afd6-73cc4f4edd9a","ios":"levelo://app?vid=fac9a3a2-2dd0-4efd-afd6-73cc4f4edd9a"},"vehicle_type_id":"4","last_reported":1729368495,"current_range_meters":38800,"station_id":"ce4bhgh2rcd13ifvqfb0","pricing_plan_id":"cebpf4jnsgd1na2vs0mg"},{"bike_id":"f8e65a4d-63da-4883-89e5-b50bccdd5ad1","system_id":"levelo_inurba_marseille","lat":43.29971,"lon":5.38494,"is_reserved":false,"is_disabled":false,"rental_uris":{"android":"levelo://app?vid=f8e65a4d-63da-4883-89e5-b50bccdd5ad1","ios":"levelo://app?vid=f8e65a4d-63da-4883-89e5-b50bccdd5ad1"},"vehicle_type_id":"4","last_reported":1729368495,"current_range_meters":8000,"station_id":"ce4bgj92rcd13ifvqbd0","pricing_plan_id":"cebpf4jnsgd1na2vs0mg"},{"bike_id":"79085ea7-873c-45f1-b488-6429934b8b77","system_id":"levelo_inurba_marseille","lat":43.29265,"lon":5.38443,"is_reserved":false,"is_disabled":false,"rental_uris":{"android":"levelo://app?vid=79085ea7-873c-45f1-b488-6429934b8b77","ios":"levelo://app?vid=79085ea7-873c-45f1-b488-6429934b8b77"},"vehicle_type_id":"4","last_reported":1729368495,"current_range_meters":34800,"station_id":"","pricing_plan_id":"cebpf4jnsgd1na2vs0mg"},{"bike_id":"28b369cd-32be-4ea6-9e07-fd9453b9030d","system_id":"levelo_inurba_marseille","lat":43.29415,"lon":5.38629,"is_reserved":false,"is_disabled":false,"rental_uris":{"android":"levelo://app?vid=28b369cd-32be-4ea6-9e07-fd9453b9030d","ios":"levelo://app?vid=28b369cd-32be-4ea6-9e07-fd9453b9030d"},"vehicle_type_id":"4","last_reported":1729368495,"current_range_meters":34000,"station_id":"ce4bh2h2rcd13ifvqdh0","pricing_plan_id":"cebpf4jnsgd1na2vs0mg"},{"bike_id":"196af1e3-d208-4e03-97b1-0ee523a27b6d","system_id":"levelo_inurba_marseille","lat":43.24812,"lon":5.37462,"is_reserved":false,"is_disabled":false,"rental_uris":{"android":"levelo://app?vid=196af1e3-d208-4e03-97b1-0ee523a27b6d","ios":"levelo://app?vid=196af1e3-d208-4e03-97b1-0ee523a27b6d"},"vehicle_type_id":"4","last_reported":1729368495,"current_range_meters":30000,"station_id":"ce4bhgh2rcd13ifvqfb0","pricing_plan_id":"cebpf4jnsgd1na2vs0mg"},{"bike_id":"975a1620-0a6d-4c4e-a1d9-1cac007aef6d","system_id":"levelo_inurba_marseille","lat":43.23152,"lon":5.4372,"is_reserved":false,"is_disabled":false,"rental_uris":{"android":"levelo://app?vid=975a1620-0a6d-4c4e-a1d9-1cac007aef6d","ios":"levelo://app?vid=975a1620-0a6d-4c4e-a1d9-1cac007aef6d"},"vehicle_type_id":"4","last_reported":1729368495,"current_range_meters":24400,"station_id":"ce4bhmp2rcd13ifvqgog","pricing_plan_id":"cebpf4jnsgd1na2vs0mg"},{"bike_id":"7c0bb2a2-31fd-41e4-9868-848a825d862d","system_id":"levelo_inurba_marseille","lat":43.24386,"lon":5.37057,"is_reserved":false,"is_disabled":false,"rental_uris":{"android":"levelo://app?vid=7c0bb2a2-31fd-41e4-9868-848a825d862d","ios":"levelo://app?vid=7c0bb2a2-31fd-41e4-9868-848a825d862d"},"vehicle_type_id":"4","last_reported":1729368495,"current_range_meters":14800,"station_id":"ce4bhhh2rcd13ifvqfk0","pricing_plan_id":"cebpf4jnsgd1na2vs0mg"},{"bike_id":"c4446265-0cf4-4d27-9c16-a9aa0e8cf83e","system_id":"levelo_inurba_marseille","lat":43.31117,"lon":5.37764,"is_reserved":false,"is_disabled":false,"rental_uris":{"android":"levelo://app?vid=c4446265-0cf4-4d27-9c16-a9aa0e8cf83e","ios":"levelo://app?vid=c4446265-0cf4-4d27-9c16-a9aa0e8cf83e"},"vehicle_type_id":"4","last_reported":1729368495,"current_range_meters":38800,"station_id":"ce4bgt92rcd13ifvqcg0","pricing_plan_id":"cebpf4jnsgd1na2vs0mg"},{"bike_id":"ceb1603d-2c49-4a2f-971f-80e7a3348d6a","system_id":"levelo_inurba_marseille","lat":43.33024,"lon":5.39043,"is_reserved":false,"is_disabled":false,"rental_uris":{"android":"levelo://app?vid=ceb1603d-2c49-4a2f-971f-80e7a3348d6a","ios":"levelo://app?vid=ceb1603d-2c49-4a2f-971f-80e7a3348d6a"},"vehicle_type_id":"4","last_reported":1729368495,"current_range_meters":14400,"station_id":"ce4bhr92rcd13ifvqhrg","pricing_plan_id":"cebpf4jnsgd1na2vs0mg"},{"bike_id":"3f713947-f078-4dfc-b1b3-0d53374208e9","system_id":"levelo_inurba_marseille","lat":43.288579,"lon":5.358443,"is_reserved":false,"is_disabled":false,"rental_uris":{"android":"levelo://app?vid=3f713947-f078-4dfc-b1b3-0d53374208e9","ios":"levelo://app?vid=3f713947-f078-4dfc-b1b3-0d53374208e9"},"vehicle_type_id":"4","last_reported":1729368495,"current_range_meters":32800,"station_id":"ce4bhb12rcd13ifvqem0","pricing_plan_id":"cebpf4jnsgd1na2vs0mg"},{"bike_id":"8f3e897c-091e-428e-92e2-05d32fbfe4e7","system_id":"levelo_inurba_marseille","lat":43.30591,"lon":5.39357,"is_reserved":false,"is_disabled":false,"rental_uris":{"android":"levelo://app?vid=8f3e897c-091e-428e-92e2-05d32fbfe4e7","ios":"levelo://app?vid=8f3e897c-091e-428e-92e2-05d32fbfe4e7"},"vehicle_type_id":"4","last_reported":1729368495,"current_range_meters":24400,"station_id":"ce4bh0p2rcd13ifvqd80","pricing_plan_id":"cebpf4jnsgd1na2vs0mg"},{"bike_id":"d2f31f8d-3b84-4eb3-8bdc-8338a2ca0c42","system_id":"levelo_inurba_marseille","lat":43.28548,"lon":5.39888,"is_reserved":false,"is_disabled":false,"rental_uris":{"android":"levelo://app?vid=d2f31f8d-3b84-4eb3-8bdc-8338a2ca0c42","ios":"levelo://app?vid=d2f31f8d-3b84-4eb3-8bdc-8338a2ca0c42"},"vehicle_type_id":"4","last_reported":1729368495,"current_range_meters":5600,"station_id":"","pricing_plan_id":"cebpf4jnsgd1na2vs0mg"},{"bike_id":"c34e2acb-3afe-4aa1-8cdb-c481d100b683","system_id":"levelo_inurba_marseille","lat":43.32485,"lon":5.36571,"is_reserved":false,"is_disabled":false,"rental_uris":{"android":"levelo://app?vid=c34e2acb-3afe-4aa1-8cdb-c481d100b683","ios":"levelo://app?vid=c34e2acb-3afe-4aa1-8cdb-c481d100b683"},"vehicle_type_id":"4","last_reported":1729368495,"current_range_meters":22800,"station_id":"ce4bhs12rcd13ifvqhvg","pricing_plan_id":"cebpf4jnsgd1na2vs0mg"},{"bike_id":"19e0c7ba-a3f7-43e2-aca8-366f22e4e87d","system_id":"levelo_inurba_marseille","lat":43.33721,"lon":5.3919,"is_reserved":false,"is_disabled":false,"rental_uris":{"android":"levelo://app?vid=19e0c7ba-a3f7-43e2-aca8-366f22e4e87d","ios":"levelo://app?vid=19e0c7ba-a3f7-43e2-aca8-366f22e4e87d"},"vehicle_type_id":"4","last_reported":1729368495,"current_range_meters":38800,"station_id":"ce4bhr92rcd13ifvqhsg","pricing_plan_id":"cebpf4jnsgd1na2vs0mg"},{"bike_id":"cb2174c1-3cc7-4722-af8c-6d213925aa7c","system_id":"levelo_inurba_marseille","lat":43.23184,"lon":5.39987,"is_reserved":false,"is_disabled":false,"rental_uris":{"android":"levelo://app?vid=cb2174c1-3cc7-4722-af8c-6d213925aa7c","ios":"levelo://app?vid=cb2174c1-3cc7-4722-af8c-6d213925aa7c"},"vehicle_type_id":"4","last_reported":1729368495,"current_range_meters":38400,"station_id":"ce4bhn12rcd13ifvqgqg","pricing_plan_id":"cebpf4jnsgd1na2vs0mg"},{"bike_id":"fd735013-c8ae-48d3-9152-ae529f6393ee","system_id":"levelo_inurba_marseille","lat":43.28735,"lon":5.36071,"is_reserved":false,"is_disabled":false,"rental_uris":{"android":"levelo://app?vid=fd735013-c8ae-48d3-9152-ae529f6393ee","ios":"levelo://app?vid=fd735013-c8ae-48d3-9152-ae529f6393ee"},"vehicle_type_id":"4","last_reported":1729368495,"current_range_meters":23200,"station_id":"cki0cbj6b192h4jlfktg","pricing_plan_id":"cebpf4jnsgd1na2vs0mg"},{"bike_id":"6ade5f93-702b-4a8a-959f-b3c8ba2ecbee","system_id":"levelo_inurba_marseille","lat":43.30543,"lon":5.38421,"is_reserved":false,"is_disabled":false,"rental_uris":{"android":"levelo://app?vid=6ade5f93-702b-4a8a-959f-b3c8ba2ecbee","ios":"levelo://app?vid=6ade5f93-702b-4a8a-959f-b3c8ba2ecbee"},"vehicle_type_id":"4","last_reported":1729368495,"current_range_meters":38000,"station_id":"ce4bgg92rcd13ifvqb30","pricing_plan_id":"cebpf4jnsgd1na2vs0mg"},{"bike_id":"0d39b898-1373-4834-bfc0-ea0e7966de5b","system_id":"levelo_inurba_marseille","lat":43.29539,"lon":5.38542,"is_reserved":false,"is_disabled":false,"rental_uris":{"android":"levelo://app?vid=0d39b898-1373-4834-bfc0-ea0e7966de5b","ios":"levelo://app?vid=0d39b898-1373-4834-bfc0-ea0e7966de5b"},"vehicle_type_id":"4","last_reported":1729368495,"current_range_meters":39200,"station_id":"ce4bgih2rcd13ifvqba0","pricing_plan_id":"cebpf4jnsgd1na2vs0mg"},{"bike_id":"6f1e76a1-2ad8-46bc-ba08-012ecce25e8a","system_id":"levelo_inurba_marseille","lat":43.307815,"lon":5.376485,"is_reserved":false,"is_disabled":false,"rental_uris":{"android":"levelo://app?vid=6f1e76a1-2ad8-46bc-ba08-012ecce25e8a","ios":"levelo://app?vid=6f1e76a1-2ad8-46bc-ba08-012ecce25e8a"},"vehicle_type_id":"4","last_reported":1729368495,"current_range_meters":27200,"station_id":"ce4bgv92rcd13ifvqcq0","pricing_plan_id":"cebpf4jnsgd1na2vs0mg"},{"bike_id":"c20966b6-ffc8-4c6f-bf62-6d2a5e9ebf5e","system_id":"levelo_inurba_marseille","lat":43.28666,"lon":5.36343,"is_reserved":false,"is_disabled":false,"rental_uris":{"android":"levelo://app?vid=c20966b6-ffc8-4c6f-bf62-6d2a5e9ebf5e","ios":"levelo://app?vid=c20966b6-ffc8-4c6f-bf62-6d2a5e9ebf5e"},"vehicle_type_id":"4","last_reported":1729368495,"current_range_meters":18000,"station_id":"ce4bhah2rcd13ifvqej0","pricing_plan_id":"cebpf4jnsgd1na2vs0mg"},{"bike_id":"979c9729-008f-48db-b338-59c5cff0384e","system_id":"levelo_inurba_marseille","lat":43.31342,"lon":5.36724,"is_reserved":false,"is_disabled":false,"rental_uris":{"android":"levelo://app?vid=979c9729-008f-48db-b338-59c5cff0384e","ios":"levelo://app?vid=979c9729-008f-48db-b338-59c5cff0384e"},"vehicle_type_id":"4","last_reported":1729368495,"current_range_meters":38000,"station_id":"ce4bgr92rcd13ifvqc6g","pricing_plan_id":"cebpf4jnsgd1na2vs0mg"},{"bike_id":"a2c57542-fec6-4057-b9ae-fe06aaf141e2","system_id":"levelo_inurba_marseille","lat":43.28615,"lon":5.3511,"is_reserved":false,"is_disabled":false,"rental_uris":{"android":"levelo://app?vid=a2c57542-fec6-4057-b9ae-fe06aaf141e2","ios":"levelo://app?vid=a2c57542-fec6-4057-b9ae-fe06aaf141e2"},"vehicle_type_id":"4","last_reported":1729368495,"current_range_meters":6800,"station_id":"ce4bhch2rcd13ifvqeug","pricing_plan_id":"cebpf4jnsgd1na2vs0mg"},{"bike_id":"fab72885-c1f9-4374-8e57-c96125602922","system_id":"levelo_inurba_marseille","lat":43.29534,"lon":5.38541,"is_reserved":false,"is_disabled":false,"rental_uris":{"android":"levelo://app?vid=fab72885-c1f9-4374-8e57-c96125602922","ios":"levelo://app?vid=fab72885-c1f9-4374-8e57-c96125602922"},"vehicle_type_id":"4","last_reported":1729368495,"current_range_meters":5600,"station_id":"ce4bgih2rcd13ifvqba0","pricing_plan_id":"cebpf4jnsgd1na2vs0mg"},{"bike_id":"47221fd4-5fb7-44c5-ab59-03237e1756b7","system_id":"levelo_inurba_marseille","lat":43.2782,"lon":5.40706,"is_reserved":false,"is_disabled":false,"rental_uris":{"android":"levelo://app?vid=47221fd4-5fb7-44c5-ab59-03237e1756b7","ios":"levelo://app?vid=47221fd4-5fb7-44c5-ab59-03237e1756b7"},"vehicle_type_id":"4","last_reported":1729368495,"current_range_meters":13600,"station_id":"ce4bhnh2rcd13ifvqgtg","pricing_plan_id":"cebpf4jnsgd1na2vs0mg"},{"bike_id":"7ee75662-3a90-42c2-a5c1-0c9d0a8ef865","system_id":"levelo_inurba_marseille","lat":43.24653,"lon":5.38894,"is_reserved":false,"is_disabled":false,"rental_uris":{"android":"levelo://app?vid=7ee75662-3a90-42c2-a5c1-0c9d0a8ef865","ios":"levelo://app?vid=7ee75662-3a90-42c2-a5c1-0c9d0a8ef865"},"vehicle_type_id":"4","last_reported":1729368495,"current_range_meters":31200,"station_id":"ce4bhg12rcd13ifvqf60","pricing_plan_id":"cebpf4jnsgd1na2vs0mg"},{"bike_id":"fcf42103-4b78-4bbb-9107-fb8e6a7cab3a","system_id":"levelo_inurba_marseille","lat":43.31071,"lon":5.38351,"is_reserved":false,"is_disabled":false,"rental_uris":{"android":"levelo://app?vid=fcf42103-4b78-4bbb-9107-fb8e6a7cab3a","ios":"levelo://app?vid=fcf42103-4b78-4bbb-9107-fb8e6a7cab3a"},"vehicle_type_id":"4","last_reported":1729368495,"current_range_meters":37600,"station_id":"ce4bgv92rcd13ifvqcr0","pricing_plan_id":"cebpf4jnsgd1na2vs0mg"},{"bike_id":"1b9d1971-da28-4000-a04a-81c092f78c5d","system_id":"levelo_inurba_marseille","lat":43.2926,"lon":5.40912,"is_reserved":false,"is_disabled":false,"rental_uris":{"android":"levelo://app?vid=1b9d1971-da28-4000-a04a-81c092f78c5d","ios":"levelo://app?vid=1b9d1971-da28-4000-a04a-81c092f78c5d"},"vehicle_type_id":"4","last_reported":1729368495,"current_range_meters":14000,"station_id":"ce4bh192rcd13ifvqdc0","pricing_plan_id":"cebpf4jnsgd1na2vs0mg"},{"bike_id":"15d640ac-1331-40ec-99fb-e366453d6696","system_id":"levelo_inurba_marseille","lat":43.33024,"lon":5.39042,"is_reserved":false,"is_disabled":false,"rental_uris":{"android":"levelo://app?vid=15d640ac-1331-40ec-99fb-e366453d6696","ios":"levelo://app?vid=15d640ac-1331-40ec-99fb-e366453d6696"},"vehicle_type_id":"4","last_reported":1729368495,"current_range_meters":26800,"station_id":"ce4bhr92rcd13ifvqhrg","pricing_plan_id":"cebpf4jnsgd1na2vs0mg"},{"bike_id":"838b20cb-5333-475e-8bc3-1a69f1a918c9","system_id":"levelo_inurba_marseille","lat":43.30432,"lon":5.38892,"is_reserved":false,"is_disabled":false,"rental_uris":{"android":"levelo://app?vid=838b20cb-5333-475e-8bc3-1a69f1a918c9","ios":"levelo://app?vid=838b20cb-5333-475e-8bc3-1a69f1a918c9"},"vehicle_type_id":"4","last_reported":1729368495,"current_range_meters":18800,"station_id":"ce4bgk12rcd13ifvqbi0","pricing_plan_id":"cebpf4jnsgd1na2vs0mg"},{"bike_id":"13150624-9a81-4783-86f9-f747dfbbbc2d","system_id":"levelo_inurba_marseille","lat":43.30952,"lon":5.39042,"is_reserved":false,"is_disabled":false,"rental_uris":{"android":"levelo://app?vid=13150624-9a81-4783-86f9-f747dfbbbc2d","ios":"levelo://app?vid=13150624-9a81-4783-86f9-f747dfbbbc2d"},"vehicle_type_id":"4","last_reported":1729368495,"current_range_meters":14400,"station_id":"ce4bgup2rcd13ifvqco0","pricing_plan_id":"cebpf4jnsgd1na2vs0mg"},{"bike_id":"9622e9b6-7680-4d8c-b64b-6ec8e8b4f930","system_id":"levelo_inurba_marseille","lat":43.29268,"lon":5.38438,"is_reserved":false,"is_disabled":false,"rental_uris":{"android":"levelo://app?vid=9622e9b6-7680-4d8c-b64b-6ec8e8b4f930","ios":"levelo://app?vid=9622e9b6-7680-4d8c-b64b-6ec8e8b4f930"},"vehicle_type_id":"4","last_reported":1729368495,"current_range_meters":29600,"station_id":"","pricing_plan_id":"cebpf4jnsgd1na2vs0mg"},{"bike_id":"a7aea0df-c7ce-439f-813a-b71c43ca758f","system_id":"levelo_inurba_marseille","lat":43.28037,"lon":5.36937,"is_reserved":false,"is_disabled":false,"rental_uris":{"android":"levelo://app?vid=a7aea0df-c7ce-439f-813a-b71c43ca758f","ios":"levelo://app?vid=a7aea0df-c7ce-439f-813a-b71c43ca758f"},"vehicle_type_id":"4","last_reported":1729368495,"current_range_meters":25600,"station_id":"ce4bha12rcd13ifvqef0","pricing_plan_id":"cebpf4jnsgd1na2vs0mg"},{"bike_id":"f3b18d4c-688e-4e02-9104-7f1d559134af","system_id":"levelo_inurba_marseille","lat":43.32106,"lon":5.36767,"is_reserved":false,"is_disabled":false,"rental_uris":{"android":"levelo://app?vid=f3b18d4c-688e-4e02-9104-7f1d559134af","ios":"levelo://app?vid=f3b18d4c-688e-4e02-9104-7f1d559134af"},"vehicle_type_id":"4","last_reported":1729368495,"current_range_meters":38800,"station_id":"ce4bhrh2rcd13ifvqhug","pricing_plan_id":"cebpf4jnsgd1na2vs0mg"},{"bike_id":"58b2a8af-3923-4035-8218-400aa216954a","system_id":"levelo_inurba_marseille","lat":43.25719,"lon":5.41117,"is_reserved":false,"is_disabled":false,"rental_uris":{"android":"levelo://app?vid=58b2a8af-3923-4035-8218-400aa216954a","ios":"levelo://app?vid=58b2a8af-3923-4035-8218-400aa216954a"},"vehicle_type_id":"4","last_reported":1729368495,"current_range_meters":14400,"station_id":"ce4bhkp2rcd13ifvqgd0","pricing_plan_id":"cebpf4jnsgd1na2vs0mg"},{"bike_id":"85a1831a-901f-497f-ae9a-0611d81bbbd8","system_id":"levelo_inurba_marseille","lat":43.29872,"lon":5.397294,"is_reserved":false,"is_disabled":false,"rental_uris":{"android":"levelo://app?vid=85a1831a-901f-497f-ae9a-0611d81bbbd8","ios":"levelo://app?vid=85a1831a-901f-497f-ae9a-0611d81bbbd8"},"vehicle_type_id":"4","last_reported":1729368495,"current_range_meters":4400,"station_id":"ce4bh0h2rcd13ifvqd50","pricing_plan_id":"cebpf4jnsgd1na2vs0mg"},{"bike_id":"fc9b3fc1-600b-416a-b916-9cf37562dae6","system_id":"levelo_inurba_marseille","lat":43.31324,"lon":5.39689,"is_reserved":false,"is_disabled":false,"rental_uris":{"android":"levelo://app?vid=fc9b3fc1-600b-416a-b916-9cf37562dae6","ios":"levelo://app?vid=fc9b3fc1-600b-416a-b916-9cf37562dae6"},"vehicle_type_id":"4","last_reported":1729368495,"current_range_meters":24400,"station_id":"ce4bgvp2rcd13ifvqcu0","pricing_plan_id":"cebpf4jnsgd1na2vs0mg"},{"bike_id":"8a61b0d3-96ba-49fc-af75-dd8176297036","system_id":"levelo_inurba_marseille","lat":43.23962,"lon":5.36626,"is_reserved":false,"is_disabled":false,"rental_uris":{"android":"levelo://app?vid=8a61b0d3-96ba-49fc-af75-dd8176297036","ios":"levelo://app?vid=8a61b0d3-96ba-49fc-af75-dd8176297036"},"vehicle_type_id":"4","last_reported":1729368495,"current_range_meters":13600,"station_id":"ce4bhi12rcd13ifvqfp0","pricing_plan_id":"cebpf4jnsgd1na2vs0mg"},{"bike_id":"ae1dfa0f-1d08-48eb-a7e8-56cb228198ec","system_id":"levelo_inurba_marseille","lat":43.2942,"lon":5.38619,"is_reserved":false,"is_disabled":false,"rental_uris":{"android":"levelo://app?vid=ae1dfa0f-1d08-48eb-a7e8-56cb228198ec","ios":"levelo://app?vid=ae1dfa0f-1d08-48eb-a7e8-56cb228198ec"},"vehicle_type_id":"4","last_reported":1729368495,"current_range_meters":37600,"station_id":"ce4bh2h2rcd13ifvqdh0","pricing_plan_id":"cebpf4jnsgd1na2vs0mg"},{"bike_id":"37225b9f-1690-43f7-ba84-6163d08e1f83","system_id":"levelo_inurba_marseille","lat":43.29535,"lon":5.3854,"is_reserved":false,"is_disabled":false,"rental_uris":{"android":"levelo://app?vid=37225b9f-1690-43f7-ba84-6163d08e1f83","ios":"levelo://app?vid=37225b9f-1690-43f7-ba84-6163d08e1f83"},"vehicle_type_id":"4","last_reported":1729368495,"current_range_meters":38800,"station_id":"ce4bgih2rcd13ifvqba0","pricing_plan_id":"cebpf4jnsgd1na2vs0mg"},{"bike_id":"b655f0e5-9f54-4337-9f8f-e40c329da075","system_id":"levelo_inurba_marseille","lat":43.29321,"lon":5.375,"is_reserved":false,"is_disabled":false,"rental_uris":{"android":"levelo://app?vid=b655f0e5-9f54-4337-9f8f-e40c329da075","ios":"levelo://app?vid=b655f0e5-9f54-4337-9f8f-e40c329da075"},"vehicle_type_id":"4","last_reported":1729368495,"current_range_meters":5600,"station_id":"ce4bgi12rcd13ifvqb70","pricing_plan_id":"cebpf4jnsgd1na2vs0mg"},{"bike_id":"cdf4a075-8eed-49b4-b191-fd4b5f8e3f68","system_id":"levelo_inurba_marseille","lat":43.29205,"lon":5.39313,"is_reserved":false,"is_disabled":false,"rental_uris":{"android":"levelo://app?vid=cdf4a075-8eed-49b4-b191-fd4b5f8e3f68","ios":"levelo://app?vid=cdf4a075-8eed-49b4-b191-fd4b5f8e3f68"},"vehicle_type_id":"4","last_reported":1729368495,"current_range_meters":6000,"station_id":"ce4bh192rcd13ifvqdd0","pricing_plan_id":"cebpf4jnsgd1na2vs0mg"},{"bike_id":"4bf55028-1f3b-4ba4-8213-41d51ed4fd2b","system_id":"levelo_inurba_marseille","lat":43.31068,"lon":5.3835,"is_reserved":false,"is_disabled":false,"rental_uris":{"android":"levelo://app?vid=4bf55028-1f3b-4ba4-8213-41d51ed4fd2b","ios":"levelo://app?vid=4bf55028-1f3b-4ba4-8213-41d51ed4fd2b"},"vehicle_type_id":"4","last_reported":1729368495,"current_range_meters":34000,"station_id":"ce4bgv92rcd13ifvqcr0","pricing_plan_id":"cebpf4jnsgd1na2vs0mg"},{"bike_id":"3fe0d84a-1539-4a2d-b461-eabcc0e083c1","system_id":"levelo_inurba_marseille","lat":43.27191,"lon":5.40986,"is_reserved":false,"is_disabled":false,"rental_uris":{"android":"levelo://app?vid=3fe0d84a-1539-4a2d-b461-eabcc0e083c1","ios":"levelo://app?vid=3fe0d84a-1539-4a2d-b461-eabcc0e083c1"},"vehicle_type_id":"4","last_reported":1729368495,"current_range_meters":12800,"station_id":"ce4bhl12rcd13ifvqgf0","pricing_plan_id":"cebpf4jnsgd1na2vs0mg"},{"bike_id":"d471351f-a112-4ff7-b234-0d1a60bc7f51","system_id":"levelo_inurba_marseille","lat":43.289917,"lon":5.356224,"is_reserved":false,"is_disabled":false,"rental_uris":{"android":"levelo://app?vid=d471351f-a112-4ff7-b234-0d1a60bc7f51","ios":"levelo://app?vid=d471351f-a112-4ff7-b234-0d1a60bc7f51"},"vehicle_type_id":"4","last_reported":1729368495,"current_range_meters":38000,"station_id":"ce4bhb92rcd13ifvqen0","pricing_plan_id":"cebpf4jnsgd1na2vs0mg"},{"bike_id":"af535390-de99-40e1-84d5-eaeb21b58e36","system_id":"levelo_inurba_marseille","lat":43.29867,"lon":5.39741,"is_reserved":false,"is_disabled":false,"rental_uris":{"android":"levelo://app?vid=af535390-de99-40e1-84d5-eaeb21b58e36","ios":"levelo://app?vid=af535390-de99-40e1-84d5-eaeb21b58e36"},"vehicle_type_id":"4","last_reported":1729368495,"current_range_meters":7200,"station_id":"ce4bh0h2rcd13ifvqd50","pricing_plan_id":"cebpf4jnsgd1na2vs0mg"},{"bike_id":"dfa48688-8f31-46d8-8d88-7b2d283986d2","system_id":"levelo_inurba_marseille","lat":43.29566,"lon":5.37539,"is_reserved":false,"is_disabled":false,"rental_uris":{"android":"levelo://app?vid=dfa48688-8f31-46d8-8d88-7b2d283986d2","ios":"levelo://app?vid=dfa48688-8f31-46d8-8d88-7b2d283986d2"},"vehicle_type_id":"4","last_reported":1729368495,"current_range_meters":8400,"station_id":"ce4bgvp2rcd13ifvqct0","pricing_plan_id":"cebpf4jnsgd1na2vs0mg"},{"bike_id":"791adc2d-ad47-495f-963f-2f85039975df","system_id":"levelo_inurba_marseille","lat":43.3123,"lon":5.36862,"is_reserved":false,"is_disabled":false,"rental_uris":{"android":"levelo://app?vid=791adc2d-ad47-495f-963f-2f85039975df","ios":"levelo://app?vid=791adc2d-ad47-495f-963f-2f85039975df"},"vehicle_type_id":"4","last_reported":1729368495,"current_range_meters":39200,"station_id":"ce4bgl92rcd13ifvqbq0","pricing_plan_id":"cebpf4jnsgd1na2vs0mg"},{"bike_id":"49b278fa-7ba3-49ad-963c-f5eff8426cf1","system_id":"levelo_inurba_marseille","lat":43.29879,"lon":5.39749,"is_reserved":false,"is_disabled":false,"rental_uris":{"android":"levelo://app?vid=49b278fa-7ba3-49ad-963c-f5eff8426cf1","ios":"levelo://app?vid=49b278fa-7ba3-49ad-963c-f5eff8426cf1"},"vehicle_type_id":"4","last_reported":1729368495,"current_range_meters":22400,"station_id":"ce4bh0h2rcd13ifvqd50","pricing_plan_id":"cebpf4jnsgd1na2vs0mg"},{"bike_id":"405c5035-a87e-4d70-98a4-f96a12d065dc","system_id":"levelo_inurba_marseille","lat":43.2927,"lon":5.3684,"is_reserved":false,"is_disabled":false,"rental_uris":{"android":"levelo://app?vid=405c5035-a87e-4d70-98a4-f96a12d065dc","ios":"levelo://app?vid=405c5035-a87e-4d70-98a4-f96a12d065dc"},"vehicle_type_id":"4","last_reported":1729368495,"current_range_meters":37600,"station_id":"ce4bhbp2rcd13ifvqesg","pricing_plan_id":"cebpf4jnsgd1na2vs0mg"},{"bike_id":"5394e624-c4df-478f-8acb-d0dfad33bd36","system_id":"levelo_inurba_marseille","lat":43.290009,"lon":5.356181,"is_reserved":false,"is_disabled":false,"rental_uris":{"android":"levelo://app?vid=5394e624-c4df-478f-8acb-d0dfad33bd36","ios":"levelo://app?vid=5394e624-c4df-478f-8acb-d0dfad33bd36"},"vehicle_type_id":"4","last_reported":1729368495,"current_range_meters":22800,"station_id":"","pricing_plan_id":"cebpf4jnsgd1na2vs0mg"},{"bike_id":"90ae604e-9593-457f-9082-9cc6327c1016","system_id":"levelo_inurba_marseille","lat":43.29263,"lon":5.40908,"is_reserved":false,"is_disabled":false,"rental_uris":{"android":"levelo://app?vid=90ae604e-9593-457f-9082-9cc6327c1016","ios":"levelo://app?vid=90ae604e-9593-457f-9082-9cc6327c1016"},"vehicle_type_id":"4","last_reported":1729368495,"current_range_meters":14000,"station_id":"ce4bh192rcd13ifvqdc0","pricing_plan_id":"cebpf4jnsgd1na2vs0mg"},{"bike_id":"bdaf4cca-3144-4b46-87aa-d2e662c78d1a","system_id":"levelo_inurba_marseille","lat":43.30881,"lon":5.39632,"is_reserved":false,"is_disabled":false,"rental_uris":{"android":"levelo://app?vid=bdaf4cca-3144-4b46-87aa-d2e662c78d1a","ios":"levelo://app?vid=bdaf4cca-3144-4b46-87aa-d2e662c78d1a"},"vehicle_type_id":"4","last_reported":1729368495,"current_range_meters":24000,"station_id":"ce4bh012rcd13ifvqcv0","pricing_plan_id":"cebpf4jnsgd1na2vs0mg"},{"bike_id":"b8ac04ef-4862-445b-aa42-6eca18efe5b8","system_id":"levelo_inurba_marseille","lat":43.29781,"lon":5.37096,"is_reserved":false,"is_disabled":false,"rental_uris":{"android":"levelo://app?vid=b8ac04ef-4862-445b-aa42-6eca18efe5b8","ios":"levelo://app?vid=b8ac04ef-4862-445b-aa42-6eca18efe5b8"},"vehicle_type_id":"4","last_reported":1729368495,"current_range_meters":36400,"station_id":"","pricing_plan_id":"cebpf4jnsgd1na2vs0mg"},{"bike_id":"6e50242a-bdfc-4caf-a7a9-e11a1e52520a","system_id":"levelo_inurba_marseille","lat":43.29263,"lon":5.38444,"is_reserved":false,"is_disabled":false,"rental_uris":{"android":"levelo://app?vid=6e50242a-bdfc-4caf-a7a9-e11a1e52520a","ios":"levelo://app?vid=6e50242a-bdfc-4caf-a7a9-e11a1e52520a"},"vehicle_type_id":"4","last_reported":1729368495,"current_range_meters":38800,"station_id":"","pricing_plan_id":"cebpf4jnsgd1na2vs0mg"},{"bike_id":"552966c1-c281-49db-8bea-9a8c6b0f93f3","system_id":"levelo_inurba_marseille","lat":43.29055,"lon":5.38635,"is_reserved":false,"is_disabled":false,"rental_uris":{"android":"levelo://app?vid=552966c1-c281-49db-8bea-9a8c6b0f93f3","ios":"levelo://app?vid=552966c1-c281-49db-8bea-9a8c6b0f93f3"},"vehicle_type_id":"4","last_reported":1729368495,"current_range_meters":34800,"station_id":"ce4bh4p2rcd13ifvqe0g","pricing_plan_id":"cebpf4jnsgd1na2vs0mg"},{"bike_id":"3c807220-758f-40c8-b4f1-96669d1b8d8b","system_id":"levelo_inurba_marseille","lat":43.23187,"lon":5.35561,"is_reserved":false,"is_disabled":false,"rental_uris":{"android":"levelo://app?vid=3c807220-758f-40c8-b4f1-96669d1b8d8b","ios":"levelo://app?vid=3c807220-758f-40c8-b4f1-96669d1b8d8b"},"vehicle_type_id":"4","last_reported":1729368495,"current_range_meters":6800,"station_id":"ce4bhu92rcd13ifvqi70","pricing_plan_id":"cebpf4jnsgd1na2vs0mg"},{"bike_id":"00966f37-cbf6-4bb2-9ac9-c42167109b86","system_id":"levelo_inurba_marseille","lat":43.2942,"lon":5.38613,"is_reserved":false,"is_disabled":false,"rental_uris":{"android":"levelo://app?vid=00966f37-cbf6-4bb2-9ac9-c42167109b86","ios":"levelo://app?vid=00966f37-cbf6-4bb2-9ac9-c42167109b86"},"vehicle_type_id":"4","last_reported":1729368495,"current_range_meters":38800,"station_id":"ce4bh2h2rcd13ifvqdh0","pricing_plan_id":"cebpf4jnsgd1na2vs0mg"},{"bike_id":"c11b0555-b997-4036-8536-79587f1a9f2e","system_id":"levelo_inurba_marseille","lat":43.27669,"lon":5.38905,"is_reserved":false,"is_disabled":false,"rental_uris":{"android":"levelo://app?vid=c11b0555-b997-4036-8536-79587f1a9f2e","ios":"levelo://app?vid=c11b0555-b997-4036-8536-79587f1a9f2e"},"vehicle_type_id":"4","last_reported":1729368495,"current_range_meters":36400,"station_id":"ce4bhi12rcd13ifvqfo0","pricing_plan_id":"cebpf4jnsgd1na2vs0mg"},{"bike_id":"33e117f9-f8e9-4131-81f7-102112ad5971","system_id":"levelo_inurba_marseille","lat":43.29539,"lon":5.38532,"is_reserved":false,"is_disabled":false,"rental_uris":{"android":"levelo://app?vid=33e117f9-f8e9-4131-81f7-102112ad5971","ios":"levelo://app?vid=33e117f9-f8e9-4131-81f7-102112ad5971"},"vehicle_type_id":"4","last_reported":1729368495,"current_range_meters":34000,"station_id":"ce4bgih2rcd13ifvqba0","pricing_plan_id":"cebpf4jnsgd1na2vs0mg"},{"bike_id":"b5c40a57-fde0-4b3a-8522-4717ef7108e9","system_id":"levelo_inurba_marseille","lat":43.31069,"lon":5.400887,"is_reserved":false,"is_disabled":false,"rental_uris":{"android":"levelo://app?vid=b5c40a57-fde0-4b3a-8522-4717ef7108e9","ios":"levelo://app?vid=b5c40a57-fde0-4b3a-8522-4717ef7108e9"},"vehicle_type_id":"4","last_reported":1729368495,"current_range_meters":6800,"station_id":"","pricing_plan_id":"cebpf4jnsgd1na2vs0mg"},{"bike_id":"3b30aa0d-56cf-49ee-9f2d-906572b38809","system_id":"levelo_inurba_marseille","lat":43.25726,"lon":5.41108,"is_reserved":false,"is_disabled":false,"rental_uris":{"android":"levelo://app?vid=3b30aa0d-56cf-49ee-9f2d-906572b38809","ios":"levelo://app?vid=3b30aa0d-56cf-49ee-9f2d-906572b38809"},"vehicle_type_id":"4","last_reported":1729368495,"current_range_meters":2800,"station_id":"ce4bhkp2rcd13ifvqgd0","pricing_plan_id":"cebpf4jnsgd1na2vs0mg"},{"bike_id":"9ad4dd5a-893e-4c4a-8332-cc19b3214c4f","system_id":"levelo_inurba_marseille","lat":43.29975,"lon":5.3849,"is_reserved":false,"is_disabled":false,"rental_uris":{"android":"levelo://app?vid=9ad4dd5a-893e-4c4a-8332-cc19b3214c4f","ios":"levelo://app?vid=9ad4dd5a-893e-4c4a-8332-cc19b3214c4f"},"vehicle_type_id":"4","last_reported":1729368495,"current_range_meters":20000,"station_id":"ce4bgj92rcd13ifvqbd0","pricing_plan_id":"cebpf4jnsgd1na2vs0mg"},{"bike_id":"10f156ea-d830-448c-bbc4-bf697a1a3cb8","system_id":"levelo_inurba_marseille","lat":43.30884,"lon":5.39636,"is_reserved":false,"is_disabled":false,"rental_uris":{"android":"levelo://app?vid=10f156ea-d830-448c-bbc4-bf697a1a3cb8","ios":"levelo://app?vid=10f156ea-d830-448c-bbc4-bf697a1a3cb8"},"vehicle_type_id":"4","last_reported":1729368495,"current_range_meters":36400,"station_id":"ce4bh012rcd13ifvqcv0","pricing_plan_id":"cebpf4jnsgd1na2vs0mg"},{"bike_id":"973ed72c-b5a5-4d11-b0b5-0e5d432ccd29","system_id":"levelo_inurba_marseille","lat":43.29538,"lon":5.38537,"is_reserved":false,"is_disabled":false,"rental_uris":{"android":"levelo://app?vid=973ed72c-b5a5-4d11-b0b5-0e5d432ccd29","ios":"levelo://app?vid=973ed72c-b5a5-4d11-b0b5-0e5d432ccd29"},"vehicle_type_id":"4","last_reported":1729368495,"current_range_meters":19600,"station_id":"ce4bgih2rcd13ifvqba0","pricing_plan_id":"cebpf4jnsgd1na2vs0mg"},{"bike_id":"c155ccff-f07e-47dc-8cd2-5e791034adbc","system_id":"levelo_inurba_marseille","lat":43.23185,"lon":5.39985,"is_reserved":false,"is_disabled":false,"rental_uris":{"android":"levelo://app?vid=c155ccff-f07e-47dc-8cd2-5e791034adbc","ios":"levelo://app?vid=c155ccff-f07e-47dc-8cd2-5e791034adbc"},"vehicle_type_id":"4","last_reported":1729368495,"current_range_meters":10800,"station_id":"ce4bhn12rcd13ifvqgqg","pricing_plan_id":"cebpf4jnsgd1na2vs0mg"},{"bike_id":"98f5a4f7-6ae6-4817-9343-2a4f4e7574f9","system_id":"levelo_inurba_marseille","lat":43.31168,"lon":5.38722,"is_reserved":false,"is_disabled":false,"rental_uris":{"android":"levelo://app?vid=98f5a4f7-6ae6-4817-9343-2a4f4e7574f9","ios":"levelo://app?vid=98f5a4f7-6ae6-4817-9343-2a4f4e7574f9"},"vehicle_type_id":"4","last_reported":1729368495,"current_range_meters":27600,"station_id":"ce4bgi92rcd13ifvqb90","pricing_plan_id":"cebpf4jnsgd1na2vs0mg"},{"bike_id":"ce490ac1-f782-4cb3-9260-9bd85b337aac","system_id":"levelo_inurba_marseille","lat":43.28152,"lon":5.42649,"is_reserved":false,"is_disabled":false,"rental_uris":{"android":"levelo://app?vid=ce490ac1-f782-4cb3-9260-9bd85b337aac","ios":"levelo://app?vid=ce490ac1-f782-4cb3-9260-9bd85b337aac"},"vehicle_type_id":"4","last_reported":1729368495,"current_range_meters":19200,"station_id":"ce4bhnh2rcd13ifvqgug","pricing_plan_id":"cebpf4jnsgd1na2vs0mg"},{"bike_id":"231f2917-217a-441b-8b54-429090a7dfab","system_id":"levelo_inurba_marseille","lat":43.29632,"lon":5.40599,"is_reserved":false,"is_disabled":false,"rental_uris":{"android":"levelo://app?vid=231f2917-217a-441b-8b54-429090a7dfab","ios":"levelo://app?vid=231f2917-217a-441b-8b54-429090a7dfab"},"vehicle_type_id":"4","last_reported":1729368495,"current_range_meters":38800,"station_id":"ce4bh0h2rcd13ifvqd60","pricing_plan_id":"cebpf4jnsgd1na2vs0mg"},{"bike_id":"cbcfccfd-a876-448a-9e85-487da1c426f2","system_id":"levelo_inurba_marseille","lat":43.2926,"lon":5.38437,"is_reserved":false,"is_disabled":false,"rental_uris":{"android":"levelo://app?vid=cbcfccfd-a876-448a-9e85-487da1c426f2","ios":"levelo://app?vid=cbcfccfd-a876-448a-9e85-487da1c426f2"},"vehicle_type_id":"4","last_reported":1729368495,"current_range_meters":7200,"station_id":"","pricing_plan_id":"cebpf4jnsgd1na2vs0mg"},{"bike_id":"3e611766-6490-4f34-a01e-bc565ce64e2e","system_id":"levelo_inurba_marseille","lat":43.31219,"lon":5.36858,"is_reserved":false,"is_disabled":false,"rental_uris":{"android":"levelo://app?vid=3e611766-6490-4f34-a01e-bc565ce64e2e","ios":"levelo://app?vid=3e611766-6490-4f34-a01e-bc565ce64e2e"},"vehicle_type_id":"4","last_reported":1729368495,"current_range_meters":12400,"station_id":"ce4bgl92rcd13ifvqbq0","pricing_plan_id":"cebpf4jnsgd1na2vs0mg"},{"bike_id":"54bad813-e5c3-4fd6-8142-e2efd21714b5","system_id":"levelo_inurba_marseille","lat":43.29631,"lon":5.40599,"is_reserved":false,"is_disabled":false,"rental_uris":{"android":"levelo://app?vid=54bad813-e5c3-4fd6-8142-e2efd21714b5","ios":"levelo://app?vid=54bad813-e5c3-4fd6-8142-e2efd21714b5"},"vehicle_type_id":"4","last_reported":1729368495,"current_range_meters":14400,"station_id":"ce4bh0h2rcd13ifvqd60","pricing_plan_id":"cebpf4jnsgd1na2vs0mg"},{"bike_id":"042a0a7b-2fbf-4df2-97b5-212a949fd177","system_id":"levelo_inurba_marseille","lat":43.32479,"lon":5.3657,"is_reserved":false,"is_disabled":false,"rental_uris":{"android":"levelo://app?vid=042a0a7b-2fbf-4df2-97b5-212a949fd177","ios":"levelo://app?vid=042a0a7b-2fbf-4df2-97b5-212a949fd177"},"vehicle_type_id":"4","last_reported":1729368495,"current_range_meters":38800,"station_id":"ce4bhs12rcd13ifvqhvg","pricing_plan_id":"cebpf4jnsgd1na2vs0mg"},{"bike_id":"bcfd1545-30fa-4090-9831-53199649a20b","system_id":"levelo_inurba_marseille","lat":43.25,"lon":5.38936,"is_reserved":false,"is_disabled":false,"rental_uris":{"android":"levelo://app?vid=bcfd1545-30fa-4090-9831-53199649a20b","ios":"levelo://app?vid=bcfd1545-30fa-4090-9831-53199649a20b"},"vehicle_type_id":"4","last_reported":1729368495,"current_range_meters":19600,"station_id":"ce4bhgp2rcd13ifvqfd0","pricing_plan_id":"cebpf4jnsgd1na2vs0mg"},{"bike_id":"636a7083-32bd-48d9-a27a-7a6ebb70df79","system_id":"levelo_inurba_marseille","lat":43.2803,"lon":5.36936,"is_reserved":false,"is_disabled":false,"rental_uris":{"android":"levelo://app?vid=636a7083-32bd-48d9-a27a-7a6ebb70df79","ios":"levelo://app?vid=636a7083-32bd-48d9-a27a-7a6ebb70df79"},"vehicle_type_id":"4","last_reported":1729368495,"current_range_meters":4800,"station_id":"ce4bha12rcd13ifvqef0","pricing_plan_id":"cebpf4jnsgd1na2vs0mg"},{"bike_id":"2d9e3df1-0dca-43ea-b82c-f5159aab9faa","system_id":"levelo_inurba_marseille","lat":43.23962,"lon":5.36639,"is_reserved":false,"is_disabled":false,"rental_uris":{"android":"levelo://app?vid=2d9e3df1-0dca-43ea-b82c-f5159aab9faa","ios":"levelo://app?vid=2d9e3df1-0dca-43ea-b82c-f5159aab9faa"},"vehicle_type_id":"4","last_reported":1729368495,"current_range_meters":21600,"station_id":"ce4bhi12rcd13ifvqfp0","pricing_plan_id":"cebpf4jnsgd1na2vs0mg"},{"bike_id":"1f3509ba-e381-4ec6-be89-215d547f5abf","system_id":"levelo_inurba_marseille","lat":43.25001,"lon":5.38925,"is_reserved":false,"is_disabled":false,"rental_uris":{"android":"levelo://app?vid=1f3509ba-e381-4ec6-be89-215d547f5abf","ios":"levelo://app?vid=1f3509ba-e381-4ec6-be89-215d547f5abf"},"vehicle_type_id":"4","last_reported":1729368495,"current_range_meters":26800,"station_id":"ce4bhgp2rcd13ifvqfd0","pricing_plan_id":"cebpf4jnsgd1na2vs0mg"},{"bike_id":"6dbffe47-3589-424f-9f96-d0b5a1cc34fe","system_id":"levelo_inurba_marseille","lat":43.30889,"lon":5.39623,"is_reserved":false,"is_disabled":false,"rental_uris":{"android":"levelo://app?vid=6dbffe47-3589-424f-9f96-d0b5a1cc34fe","ios":"levelo://app?vid=6dbffe47-3589-424f-9f96-d0b5a1cc34fe"},"vehicle_type_id":"4","last_reported":1729368495,"current_range_meters":13600,"station_id":"ce4bh012rcd13ifvqcv0","pricing_plan_id":"cebpf4jnsgd1na2vs0mg"},{"bike_id":"d3acaf7b-b42e-4a51-872c-d34eef46c315","system_id":"levelo_inurba_marseille","lat":43.29932,"lon":5.36542,"is_reserved":false,"is_disabled":false,"rental_uris":{"android":"levelo://app?vid=d3acaf7b-b42e-4a51-872c-d34eef46c315","ios":"levelo://app?vid=d3acaf7b-b42e-4a51-872c-d34eef46c315"},"vehicle_type_id":"4","last_reported":1729368495,"current_range_meters":27600,"station_id":"ce4bgm92rcd13ifvqbr0","pricing_plan_id":"cebpf4jnsgd1na2vs0mg"},{"bike_id":"5385dd32-e9cc-427e-a7c9-b5c92ec14051","system_id":"levelo_inurba_marseille","lat":43.29624,"lon":5.40593,"is_reserved":false,"is_disabled":false,"rental_uris":{"android":"levelo://app?vid=5385dd32-e9cc-427e-a7c9-b5c92ec14051","ios":"levelo://app?vid=5385dd32-e9cc-427e-a7c9-b5c92ec14051"},"vehicle_type_id":"4","last_reported":1729368495,"current_range_meters":27200,"station_id":"ce4bh0h2rcd13ifvqd60","pricing_plan_id":"cebpf4jnsgd1na2vs0mg"},{"bike_id":"74731740-bcfa-4c14-9ef2-ae14984267db","system_id":"levelo_inurba_marseille","lat":43.29361,"lon":5.37871,"is_reserved":false,"is_disabled":false,"rental_uris":{"android":"levelo://app?vid=74731740-bcfa-4c14-9ef2-ae14984267db","ios":"levelo://app?vid=74731740-bcfa-4c14-9ef2-ae14984267db"},"vehicle_type_id":"4","last_reported":1729368495,"current_range_meters":34000,"station_id":"ce4bgjh2rcd13ifvqbf0","pricing_plan_id":"cebpf4jnsgd1na2vs0mg"},{"bike_id":"6e093ea1-8ba5-46d5-8613-5dccc1da8abc","system_id":"levelo_inurba_marseille","lat":43.33025,"lon":5.39042,"is_reserved":false,"is_disabled":false,"rental_uris":{"android":"levelo://app?vid=6e093ea1-8ba5-46d5-8613-5dccc1da8abc","ios":"levelo://app?vid=6e093ea1-8ba5-46d5-8613-5dccc1da8abc"},"vehicle_type_id":"4","last_reported":1729368495,"current_range_meters":8800,"station_id":"ce4bhr92rcd13ifvqhrg","pricing_plan_id":"cebpf4jnsgd1na2vs0mg"},{"bike_id":"9ff5b7ec-e752-4102-a441-9f5a74472039","system_id":"levelo_inurba_marseille","lat":43.25726,"lon":5.41113,"is_reserved":false,"is_disabled":false,"rental_uris":{"android":"levelo://app?vid=9ff5b7ec-e752-4102-a441-9f5a74472039","ios":"levelo://app?vid=9ff5b7ec-e752-4102-a441-9f5a74472039"},"vehicle_type_id":"4","last_reported":1729368495,"current_range_meters":6800,"station_id":"ce4bhkp2rcd13ifvqgd0","pricing_plan_id":"cebpf4jnsgd1na2vs0mg"},{"bike_id":"ea3011bc-22ce-47f8-b516-a25134a19192","system_id":"levelo_inurba_marseille","lat":43.2397,"lon":5.36623,"is_reserved":false,"is_disabled":false,"rental_uris":{"android":"levelo://app?vid=ea3011bc-22ce-47f8-b516-a25134a19192","ios":"levelo://app?vid=ea3011bc-22ce-47f8-b516-a25134a19192"},"vehicle_type_id":"4","last_reported":1729368495,"current_range_meters":2800,"station_id":"ce4bhi12rcd13ifvqfp0","pricing_plan_id":"cebpf4jnsgd1na2vs0mg"},{"bike_id":"409fb272-c228-4193-aa25-10cbac6b993a","system_id":"levelo_inurba_marseille","lat":43.26943,"lon":5.40249,"is_reserved":false,"is_disabled":false,"rental_uris":{"android":"levelo://app?vid=409fb272-c228-4193-aa25-10cbac6b993a","ios":"levelo://app?vid=409fb272-c228-4193-aa25-10cbac6b993a"},"vehicle_type_id":"4","last_reported":1729368495,"current_range_meters":38000,"station_id":"cjm6bp8fraef2m0cb0m0","pricing_plan_id":"cebpf4jnsgd1na2vs0mg"},{"bike_id":"f402f1e6-1395-43ce-992d-7823a3d9c7bd","system_id":"levelo_inurba_marseille","lat":43.31221,"lon":5.36847,"is_reserved":false,"is_disabled":false,"rental_uris":{"android":"levelo://app?vid=f402f1e6-1395-43ce-992d-7823a3d9c7bd","ios":"levelo://app?vid=f402f1e6-1395-43ce-992d-7823a3d9c7bd"},"vehicle_type_id":"4","last_reported":1729368495,"current_range_meters":6800,"station_id":"ce4bgl92rcd13ifvqbq0","pricing_plan_id":"cebpf4jnsgd1na2vs0mg"},{"bike_id":"f576ab3e-9fcc-455c-af41-3aede202bc75","system_id":"levelo_inurba_marseille","lat":43.29542,"lon":5.3854,"is_reserved":false,"is_disabled":false,"rental_uris":{"android":"levelo://app?vid=f576ab3e-9fcc-455c-af41-3aede202bc75","ios":"levelo://app?vid=f576ab3e-9fcc-455c-af41-3aede202bc75"},"vehicle_type_id":"4","last_reported":1729368495,"current_range_meters":8400,"station_id":"ce4bgih2rcd13ifvqba0","pricing_plan_id":"cebpf4jnsgd1na2vs0mg"},{"bike_id":"a20fbb7c-801a-4bc5-9558-da03b459c3da","system_id":"levelo_inurba_marseille","lat":43.30487,"lon":5.37464,"is_reserved":false,"is_disabled":false,"rental_uris":{"android":"levelo://app?vid=a20fbb7c-801a-4bc5-9558-da03b459c3da","ios":"levelo://app?vid=a20fbb7c-801a-4bc5-9558-da03b459c3da"},"vehicle_type_id":"4","last_reported":1729368495,"current_range_meters":28000,"station_id":"","pricing_plan_id":"cebpf4jnsgd1na2vs0mg"},{"bike_id":"023fd4ad-0b97-4192-b5e1-73d82911bd9a","system_id":"levelo_inurba_marseille","lat":43.25082,"lon":5.3952,"is_reserved":false,"is_disabled":false,"rental_uris":{"android":"levelo://app?vid=023fd4ad-0b97-4192-b5e1-73d82911bd9a","ios":"levelo://app?vid=023fd4ad-0b97-4192-b5e1-73d82911bd9a"},"vehicle_type_id":"4","last_reported":1729368495,"current_range_meters":39200,"station_id":"ce4bhm12rcd13ifvqgkg","pricing_plan_id":"cebpf4jnsgd1na2vs0mg"},{"bike_id":"9ac31435-53fc-456d-a55b-b840ef90dbd6","system_id":"levelo_inurba_marseille","lat":43.29258,"lon":5.38439,"is_reserved":false,"is_disabled":false,"rental_uris":{"android":"levelo://app?vid=9ac31435-53fc-456d-a55b-b840ef90dbd6","ios":"levelo://app?vid=9ac31435-53fc-456d-a55b-b840ef90dbd6"},"vehicle_type_id":"4","last_reported":1729368495,"current_range_meters":2800,"station_id":"","pricing_plan_id":"cebpf4jnsgd1na2vs0mg"},{"bike_id":"3a3f735d-cb0f-48cf-98e1-71d63e2bb381","system_id":"levelo_inurba_marseille","lat":43.28443,"lon":5.39199,"is_reserved":false,"is_disabled":false,"rental_uris":{"android":"levelo://app?vid=3a3f735d-cb0f-48cf-98e1-71d63e2bb381","ios":"levelo://app?vid=3a3f735d-cb0f-48cf-98e1-71d63e2bb381"},"vehicle_type_id":"4","last_reported":1729368495,"current_range_meters":37600,"station_id":"ce4bhoh2rcd13ifvqh5g","pricing_plan_id":"cebpf4jnsgd1na2vs0mg"},{"bike_id":"b0fe3af0-e96a-4fbd-a0c4-c5d5c15d8818","system_id":"levelo_inurba_marseille","lat":43.29262,"lon":5.38444,"is_reserved":false,"is_disabled":false,"rental_uris":{"android":"levelo://app?vid=b0fe3af0-e96a-4fbd-a0c4-c5d5c15d8818","ios":"levelo://app?vid=b0fe3af0-e96a-4fbd-a0c4-c5d5c15d8818"},"vehicle_type_id":"4","last_reported":1729368495,"current_range_meters":6400,"station_id":"","pricing_plan_id":"cebpf4jnsgd1na2vs0mg"},{"bike_id":"e1364b66-7d02-42a6-b8e9-7adf35acffc0","system_id":"levelo_inurba_marseille","lat":43.2963,"lon":5.40597,"is_reserved":false,"is_disabled":false,"rental_uris":{"android":"levelo://app?vid=e1364b66-7d02-42a6-b8e9-7adf35acffc0","ios":"levelo://app?vid=e1364b66-7d02-42a6-b8e9-7adf35acffc0"},"vehicle_type_id":"4","last_reported":1729368495,"current_range_meters":38800,"station_id":"ce4bh0h2rcd13ifvqd60","pricing_plan_id":"cebpf4jnsgd1na2vs0mg"},{"bike_id":"2ba97e08-384d-4186-b2b5-6f147835a765","system_id":"levelo_inurba_marseille","lat":43.27827,"lon":5.39202,"is_reserved":false,"is_disabled":false,"rental_uris":{"android":"levelo://app?vid=2ba97e08-384d-4186-b2b5-6f147835a765","ios":"levelo://app?vid=2ba97e08-384d-4186-b2b5-6f147835a765"},"vehicle_type_id":"4","last_reported":1729368495,"current_range_meters":31200,"station_id":"ce4bhjp2rcd13ifvqga0","pricing_plan_id":"cebpf4jnsgd1na2vs0mg"},{"bike_id":"c61834e5-ab0c-4e12-b32f-eb9d3c1af5fe","system_id":"levelo_inurba_marseille","lat":43.2397,"lon":5.36628,"is_reserved":false,"is_disabled":false,"rental_uris":{"android":"levelo://app?vid=c61834e5-ab0c-4e12-b32f-eb9d3c1af5fe","ios":"levelo://app?vid=c61834e5-ab0c-4e12-b32f-eb9d3c1af5fe"},"vehicle_type_id":"4","last_reported":1729368495,"current_range_meters":19200,"station_id":"ce4bhi12rcd13ifvqfp0","pricing_plan_id":"cebpf4jnsgd1na2vs0mg"},{"bike_id":"c5a1eb81-8f4e-4bb3-b298-d77591b345fe","system_id":"levelo_inurba_marseille","lat":43.29572,"lon":5.37502,"is_reserved":false,"is_disabled":false,"rental_uris":{"android":"levelo://app?vid=c5a1eb81-8f4e-4bb3-b298-d77591b345fe","ios":"levelo://app?vid=c5a1eb81-8f4e-4bb3-b298-d77591b345fe"},"vehicle_type_id":"4","last_reported":1729368495,"current_range_meters":38000,"station_id":"ce4bgh92rcd13ifvqb50","pricing_plan_id":"cebpf4jnsgd1na2vs0mg"},{"bike_id":"603019d5-2877-4c49-b879-0101301f046d","system_id":"levelo_inurba_marseille","lat":43.29256,"lon":5.38451,"is_reserved":false,"is_disabled":false,"rental_uris":{"android":"levelo://app?vid=603019d5-2877-4c49-b879-0101301f046d","ios":"levelo://app?vid=603019d5-2877-4c49-b879-0101301f046d"},"vehicle_type_id":"4","last_reported":1729368495,"current_range_meters":12000,"station_id":"","pricing_plan_id":"cebpf4jnsgd1na2vs0mg"},{"bike_id":"bd238c75-d55a-43d9-bcaf-f1f8c0840803","system_id":"levelo_inurba_marseille","lat":43.29264,"lon":5.38434,"is_reserved":false,"is_disabled":false,"rental_uris":{"android":"levelo://app?vid=bd238c75-d55a-43d9-bcaf-f1f8c0840803","ios":"levelo://app?vid=bd238c75-d55a-43d9-bcaf-f1f8c0840803"},"vehicle_type_id":"4","last_reported":1729368495,"current_range_meters":13600,"station_id":"","pricing_plan_id":"cebpf4jnsgd1na2vs0mg"},{"bike_id":"e9185bfc-21a6-47d1-a7b6-353bb23c912d","system_id":"levelo_inurba_marseille","lat":43.28972,"lon":5.37829,"is_reserved":false,"is_disabled":false,"rental_uris":{"android":"levelo://app?vid=e9185bfc-21a6-47d1-a7b6-353bb23c912d","ios":"levelo://app?vid=e9185bfc-21a6-47d1-a7b6-353bb23c912d"},"vehicle_type_id":"4","last_reported":1729368495,"current_range_meters":22800,"station_id":"ce4bh9p2rcd13ifvqed0","pricing_plan_id":"cebpf4jnsgd1na2vs0mg"},{"bike_id":"041d7537-7a80-412b-9a72-1b49915c6518","system_id":"levelo_inurba_marseille","lat":43.27615,"lon":5.36112,"is_reserved":false,"is_disabled":false,"rental_uris":{"android":"levelo://app?vid=041d7537-7a80-412b-9a72-1b49915c6518","ios":"levelo://app?vid=041d7537-7a80-412b-9a72-1b49915c6518"},"vehicle_type_id":"4","last_reported":1729368495,"current_range_meters":37600,"station_id":"ce4bgj92rcd13ifvqbe0","pricing_plan_id":"cebpf4jnsgd1na2vs0mg"},{"bike_id":"065b87ca-b4a3-4800-b247-0f13e517cfcb","system_id":"levelo_inurba_marseille","lat":43.31344,"lon":5.36727,"is_reserved":false,"is_disabled":false,"rental_uris":{"android":"levelo://app?vid=065b87ca-b4a3-4800-b247-0f13e517cfcb","ios":"levelo://app?vid=065b87ca-b4a3-4800-b247-0f13e517cfcb"},"vehicle_type_id":"4","last_reported":1729368495,"current_range_meters":7200,"station_id":"ce4bgr92rcd13ifvqc6g","pricing_plan_id":"cebpf4jnsgd1na2vs0mg"},{"bike_id":"4237405c-9e6b-4a04-b9b9-8793afd0eedb","system_id":"levelo_inurba_marseille","lat":43.3211,"lon":5.36772,"is_reserved":false,"is_disabled":false,"rental_uris":{"android":"levelo://app?vid=4237405c-9e6b-4a04-b9b9-8793afd0eedb","ios":"levelo://app?vid=4237405c-9e6b-4a04-b9b9-8793afd0eedb"},"vehicle_type_id":"4","last_reported":1729368495,"current_range_meters":28800,"station_id":"ce4bhrh2rcd13ifvqhug","pricing_plan_id":"cebpf4jnsgd1na2vs0mg"},{"bike_id":"2e0f290d-7f26-490e-a919-0b1092bb3062","system_id":"levelo_inurba_marseille","lat":43.28861,"lon":5.3713,"is_reserved":false,"is_disabled":false,"rental_uris":{"android":"levelo://app?vid=2e0f290d-7f26-490e-a919-0b1092bb3062","ios":"levelo://app?vid=2e0f290d-7f26-490e-a919-0b1092bb3062"},"vehicle_type_id":"4","last_reported":1729368495,"current_range_meters":5600,"station_id":"","pricing_plan_id":"cebpf4jnsgd1na2vs0mg"},{"bike_id":"7e4aab87-88f2-4318-a981-5f11b7abe31a","system_id":"levelo_inurba_marseille","lat":43.33027,"lon":5.39044,"is_reserved":false,"is_disabled":false,"rental_uris":{"android":"levelo://app?vid=7e4aab87-88f2-4318-a981-5f11b7abe31a","ios":"levelo://app?vid=7e4aab87-88f2-4318-a981-5f11b7abe31a"},"vehicle_type_id":"4","last_reported":1729368495,"current_range_meters":24400,"station_id":"ce4bhr92rcd13ifvqhrg","pricing_plan_id":"cebpf4jnsgd1na2vs0mg"},{"bike_id":"62072fa5-5338-4a5d-bfe8-6bc4756c0150","system_id":"levelo_inurba_marseille","lat":43.27979,"lon":5.38761,"is_reserved":false,"is_disabled":false,"rental_uris":{"android":"levelo://app?vid=62072fa5-5338-4a5d-bfe8-6bc4756c0150","ios":"levelo://app?vid=62072fa5-5338-4a5d-bfe8-6bc4756c0150"},"vehicle_type_id":"4","last_reported":1729368495,"current_range_meters":38800,"station_id":"ce4bhg12rcd13ifvqf80","pricing_plan_id":"cebpf4jnsgd1na2vs0mg"},{"bike_id":"99c09281-cb46-4e56-81d6-67d97540447b","system_id":"levelo_inurba_marseille","lat":43.29025,"lon":5.38636,"is_reserved":false,"is_disabled":false,"rental_uris":{"android":"levelo://app?vid=99c09281-cb46-4e56-81d6-67d97540447b","ios":"levelo://app?vid=99c09281-cb46-4e56-81d6-67d97540447b"},"vehicle_type_id":"4","last_reported":1729368495,"current_range_meters":38800,"station_id":"ce4bh4p2rcd13ifvqe0g","pricing_plan_id":"cebpf4jnsgd1na2vs0mg"},{"bike_id":"373022c6-0c5e-4ab5-a096-0f5e1d5769b4","system_id":"levelo_inurba_marseille","lat":43.25202,"lon":5.37345,"is_reserved":false,"is_disabled":false,"rental_uris":{"android":"levelo://app?vid=373022c6-0c5e-4ab5-a096-0f5e1d5769b4","ios":"levelo://app?vid=373022c6-0c5e-4ab5-a096-0f5e1d5769b4"},"vehicle_type_id":"4","last_reported":1729368495,"current_range_meters":6800,"station_id":"","pricing_plan_id":"cebpf4jnsgd1na2vs0mg"},{"bike_id":"996b68ea-a3b8-48c9-9cf2-f66df1d63882","system_id":"levelo_inurba_marseille","lat":43.23202,"lon":5.35554,"is_reserved":false,"is_disabled":false,"rental_uris":{"android":"levelo://app?vid=996b68ea-a3b8-48c9-9cf2-f66df1d63882","ios":"levelo://app?vid=996b68ea-a3b8-48c9-9cf2-f66df1d63882"},"vehicle_type_id":"4","last_reported":1729368495,"current_range_meters":16400,"station_id":"ce4bhu92rcd13ifvqi70","pricing_plan_id":"cebpf4jnsgd1na2vs0mg"},{"bike_id":"585c96ed-f2a4-4a3e-8a15-2af8f4c804c0","system_id":"levelo_inurba_marseille","lat":43.29883,"lon":5.39732,"is_reserved":false,"is_disabled":false,"rental_uris":{"android":"levelo://app?vid=585c96ed-f2a4-4a3e-8a15-2af8f4c804c0","ios":"levelo://app?vid=585c96ed-f2a4-4a3e-8a15-2af8f4c804c0"},"vehicle_type_id":"4","last_reported":1729368495,"current_range_meters":38800,"station_id":"ce4bh0h2rcd13ifvqd50","pricing_plan_id":"cebpf4jnsgd1na2vs0mg"},{"bike_id":"0b3ed218-93f9-48f6-a6ea-28c4cb549be4","system_id":"levelo_inurba_marseille","lat":43.29605,"lon":5.38104,"is_reserved":false,"is_disabled":false,"rental_uris":{"android":"levelo://app?vid=0b3ed218-93f9-48f6-a6ea-28c4cb549be4","ios":"levelo://app?vid=0b3ed218-93f9-48f6-a6ea-28c4cb549be4"},"vehicle_type_id":"4","last_reported":1729368495,"current_range_meters":16400,"station_id":"ce4bgl12rcd13ifvqbo0","pricing_plan_id":"cebpf4jnsgd1na2vs0mg"},{"bike_id":"4c1fe745-feb4-415e-aed6-3b70f432c5d7","system_id":"levelo_inurba_marseille","lat":43.29958,"lon":5.38503,"is_reserved":false,"is_disabled":false,"rental_uris":{"android":"levelo://app?vid=4c1fe745-feb4-415e-aed6-3b70f432c5d7","ios":"levelo://app?vid=4c1fe745-feb4-415e-aed6-3b70f432c5d7"},"vehicle_type_id":"4","last_reported":1729368495,"current_range_meters":26000,"station_id":"ce4bgj92rcd13ifvqbd0","pricing_plan_id":"cebpf4jnsgd1na2vs0mg"},{"bike_id":"7c9d38ea-fe9f-4e12-ad56-2bcf7b33ec11","system_id":"levelo_inurba_marseille","lat":43.28443,"lon":5.39181,"is_reserved":false,"is_disabled":false,"rental_uris":{"android":"levelo://app?vid=7c9d38ea-fe9f-4e12-ad56-2bcf7b33ec11","ios":"levelo://app?vid=7c9d38ea-fe9f-4e12-ad56-2bcf7b33ec11"},"vehicle_type_id":"4","last_reported":1729368495,"current_range_meters":24000,"station_id":"ce4bhoh2rcd13ifvqh5g","pricing_plan_id":"cebpf4jnsgd1na2vs0mg"},{"bike_id":"474d5c64-4154-4ae7-b02e-9a105d79c6fa","system_id":"levelo_inurba_marseille","lat":43.23964,"lon":5.36632,"is_reserved":false,"is_disabled":false,"rental_uris":{"android":"levelo://app?vid=474d5c64-4154-4ae7-b02e-9a105d79c6fa","ios":"levelo://app?vid=474d5c64-4154-4ae7-b02e-9a105d79c6fa"},"vehicle_type_id":"4","last_reported":1729368495,"current_range_meters":16400,"station_id":"ce4bhi12rcd13ifvqfp0","pricing_plan_id":"cebpf4jnsgd1na2vs0mg"},{"bike_id":"816d778e-8f0a-46ad-9887-325468adb109","system_id":"levelo_inurba_marseille","lat":43.30878,"lon":5.3964,"is_reserved":false,"is_disabled":false,"rental_uris":{"android":"levelo://app?vid=816d778e-8f0a-46ad-9887-325468adb109","ios":"levelo://app?vid=816d778e-8f0a-46ad-9887-325468adb109"},"vehicle_type_id":"4","last_reported":1729368495,"current_range_meters":22400,"station_id":"ce4bh012rcd13ifvqcv0","pricing_plan_id":"cebpf4jnsgd1na2vs0mg"},{"bike_id":"68f94506-6d3c-4c50-929d-82cbff5ce522","system_id":"levelo_inurba_marseille","lat":43.31727,"lon":5.42394,"is_reserved":false,"is_disabled":false,"rental_uris":{"android":"levelo://app?vid=68f94506-6d3c-4c50-929d-82cbff5ce522","ios":"levelo://app?vid=68f94506-6d3c-4c50-929d-82cbff5ce522"},"vehicle_type_id":"4","last_reported":1729368495,"current_range_meters":8800,"station_id":"ce4bhp92rcd13ifvqhbg","pricing_plan_id":"cebpf4jnsgd1na2vs0mg"},{"bike_id":"89d971d8-e7b3-43fe-981c-12f4be7af7ca","system_id":"levelo_inurba_marseille","lat":43.30132,"lon":5.38771,"is_reserved":false,"is_disabled":false,"rental_uris":{"android":"levelo://app?vid=89d971d8-e7b3-43fe-981c-12f4be7af7ca","ios":"levelo://app?vid=89d971d8-e7b3-43fe-981c-12f4be7af7ca"},"vehicle_type_id":"4","last_reported":1729368495,"current_range_meters":6000,"station_id":"ce4bghh2rcd13ifvqb60","pricing_plan_id":"cebpf4jnsgd1na2vs0mg"},{"bike_id":"6e31d11e-3580-4eef-97c5-c27cf61b6cbf","system_id":"levelo_inurba_marseille","lat":43.25119,"lon":5.40321,"is_reserved":false,"is_disabled":false,"rental_uris":{"android":"levelo://app?vid=6e31d11e-3580-4eef-97c5-c27cf61b6cbf","ios":"levelo://app?vid=6e31d11e-3580-4eef-97c5-c27cf61b6cbf"},"vehicle_type_id":"4","last_reported":1729368495,"current_range_meters":28400,"station_id":"ce4bhlh2rcd13ifvqgig","pricing_plan_id":"cebpf4jnsgd1na2vs0mg"},{"bike_id":"cf8bfc6c-eae3-443f-b86f-69e936da0d62","system_id":"levelo_inurba_marseille","lat":43.31711,"lon":5.43703,"is_reserved":false,"is_disabled":false,"rental_uris":{"android":"levelo://app?vid=cf8bfc6c-eae3-443f-b86f-69e936da0d62","ios":"levelo://app?vid=cf8bfc6c-eae3-443f-b86f-69e936da0d62"},"vehicle_type_id":"4","last_reported":1729368495,"current_range_meters":33200,"station_id":"ce4bhp92rcd13ifvqhcg","pricing_plan_id":"cebpf4jnsgd1na2vs0mg"},{"bike_id":"2aca4abd-d625-44b7-abed-d3b9d64debfb","system_id":"levelo_inurba_marseille","lat":43.29423,"lon":5.38621,"is_reserved":false,"is_disabled":false,"rental_uris":{"android":"levelo://app?vid=2aca4abd-d625-44b7-abed-d3b9d64debfb","ios":"levelo://app?vid=2aca4abd-d625-44b7-abed-d3b9d64debfb"},"vehicle_type_id":"4","last_reported":1729368495,"current_range_meters":21600,"station_id":"ce4bh2h2rcd13ifvqdh0","pricing_plan_id":"cebpf4jnsgd1na2vs0mg"},{"bike_id":"d8ed00eb-57db-47c1-942d-a25adb08bea3","system_id":"levelo_inurba_marseille","lat":43.2998,"lon":5.3849,"is_reserved":false,"is_disabled":false,"rental_uris":{"android":"levelo://app?vid=d8ed00eb-57db-47c1-942d-a25adb08bea3","ios":"levelo://app?vid=d8ed00eb-57db-47c1-942d-a25adb08bea3"},"vehicle_type_id":"4","last_reported":1729368495,"current_range_meters":37600,"station_id":"ce4bgj92rcd13ifvqbd0","pricing_plan_id":"cebpf4jnsgd1na2vs0mg"},{"bike_id":"3c63acc5-e1f7-42b2-9526-3daa93ac094f","system_id":"levelo_inurba_marseille","lat":43.24388,"lon":5.37058,"is_reserved":false,"is_disabled":false,"rental_uris":{"android":"levelo://app?vid=3c63acc5-e1f7-42b2-9526-3daa93ac094f","ios":"levelo://app?vid=3c63acc5-e1f7-42b2-9526-3daa93ac094f"},"vehicle_type_id":"4","last_reported":1729368495,"current_range_meters":23200,"station_id":"ce4bhhh2rcd13ifvqfk0","pricing_plan_id":"cebpf4jnsgd1na2vs0mg"},{"bike_id":"228eb330-8aca-40f4-bae8-8786eb607487","system_id":"levelo_inurba_marseille","lat":43.27812,"lon":5.4072,"is_reserved":false,"is_disabled":false,"rental_uris":{"android":"levelo://app?vid=228eb330-8aca-40f4-bae8-8786eb607487","ios":"levelo://app?vid=228eb330-8aca-40f4-bae8-8786eb607487"},"vehicle_type_id":"4","last_reported":1729368495,"current_range_meters":22800,"station_id":"ce4bhnh2rcd13ifvqgtg","pricing_plan_id":"cebpf4jnsgd1na2vs0mg"},{"bike_id":"07aa2d0f-5f5e-41ea-9e8c-d47062a2d959","system_id":"levelo_inurba_marseille","lat":43.29257,"lon":5.38436,"is_reserved":false,"is_disabled":false,"rental_uris":{"android":"levelo://app?vid=07aa2d0f-5f5e-41ea-9e8c-d47062a2d959","ios":"levelo://app?vid=07aa2d0f-5f5e-41ea-9e8c-d47062a2d959"},"vehicle_type_id":"4","last_reported":1729368495,"current_range_meters":8800,"station_id":"","pricing_plan_id":"cebpf4jnsgd1na2vs0mg"},{"bike_id":"d53d6c38-386a-4ee0-8e3a-210e9a9f4dea","system_id":"levelo_inurba_marseille","lat":43.31495,"lon":5.37309,"is_reserved":false,"is_disabled":false,"rental_uris":{"android":"levelo://app?vid=d53d6c38-386a-4ee0-8e3a-210e9a9f4dea","ios":"levelo://app?vid=d53d6c38-386a-4ee0-8e3a-210e9a9f4dea"},"vehicle_type_id":"4","last_reported":1729368495,"current_range_meters":38400,"station_id":"ce4bgt12rcd13ifvqcd0","pricing_plan_id":"cebpf4jnsgd1na2vs0mg"},{"bike_id":"e9a6d85d-70e2-402b-90eb-502b3aedbdb3","system_id":"levelo_inurba_marseille","lat":43.29164,"lon":5.37919,"is_reserved":false,"is_disabled":false,"rental_uris":{"android":"levelo://app?vid=e9a6d85d-70e2-402b-90eb-502b3aedbdb3","ios":"levelo://app?vid=e9a6d85d-70e2-402b-90eb-502b3aedbdb3"},"vehicle_type_id":"4","last_reported":1729368495,"current_range_meters":12400,"station_id":"","pricing_plan_id":"cebpf4jnsgd1na2vs0mg"},{"bike_id":"bfb4e869-5c67-4d44-9404-b121f42ad2a4","system_id":"levelo_inurba_marseille","lat":43.29552,"lon":5.42282,"is_reserved":false,"is_disabled":false,"rental_uris":{"android":"levelo://app?vid=bfb4e869-5c67-4d44-9404-b121f42ad2a4","ios":"levelo://app?vid=bfb4e869-5c67-4d44-9404-b121f42ad2a4"},"vehicle_type_id":"4","last_reported":1729368495,"current_range_meters":38800,"station_id":"ce4bhph2rcd13ifvqhdg","pricing_plan_id":"cebpf4jnsgd1na2vs0mg"},{"bike_id":"da71382a-651d-415f-9316-4cd6e92db819","system_id":"levelo_inurba_marseille","lat":43.30335,"lon":5.39635,"is_reserved":false,"is_disabled":false,"rental_uris":{"android":"levelo://app?vid=da71382a-651d-415f-9316-4cd6e92db819","ios":"levelo://app?vid=da71382a-651d-415f-9316-4cd6e92db819"},"vehicle_type_id":"4","last_reported":1729368495,"current_range_meters":22000,"station_id":"","pricing_plan_id":"cebpf4jnsgd1na2vs0mg"},{"bike_id":"84504881-9245-4947-a62a-711bbbf0d18a","system_id":"levelo_inurba_marseille","lat":43.29026,"lon":5.38645,"is_reserved":false,"is_disabled":false,"rental_uris":{"android":"levelo://app?vid=84504881-9245-4947-a62a-711bbbf0d18a","ios":"levelo://app?vid=84504881-9245-4947-a62a-711bbbf0d18a"},"vehicle_type_id":"4","last_reported":1729368495,"current_range_meters":38800,"station_id":"ce4bh4p2rcd13ifvqe0g","pricing_plan_id":"cebpf4jnsgd1na2vs0mg"},{"bike_id":"b2d9d5f5-c022-4e21-91b7-4d5d66c65713","system_id":"levelo_inurba_marseille","lat":43.32104,"lon":5.36771,"is_reserved":false,"is_disabled":false,"rental_uris":{"android":"levelo://app?vid=b2d9d5f5-c022-4e21-91b7-4d5d66c65713","ios":"levelo://app?vid=b2d9d5f5-c022-4e21-91b7-4d5d66c65713"},"vehicle_type_id":"4","last_reported":1729368495,"current_range_meters":39200,"station_id":"","pricing_plan_id":"cebpf4jnsgd1na2vs0mg"},{"bike_id":"98c5fd1b-c29b-48b4-bcde-24bec864c160","system_id":"levelo_inurba_marseille","lat":43.2762,"lon":5.36112,"is_reserved":false,"is_disabled":false,"rental_uris":{"android":"levelo://app?vid=98c5fd1b-c29b-48b4-bcde-24bec864c160","ios":"levelo://app?vid=98c5fd1b-c29b-48b4-bcde-24bec864c160"},"vehicle_type_id":"4","last_reported":1729368495,"current_range_meters":22400,"station_id":"ce4bgj92rcd13ifvqbe0","pricing_plan_id":"cebpf4jnsgd1na2vs0mg"},{"bike_id":"535b44b7-3125-4f91-b54e-f06c5e8c2bb5","system_id":"levelo_inurba_marseille","lat":43.32484,"lon":5.36584,"is_reserved":false,"is_disabled":false,"rental_uris":{"android":"levelo://app?vid=535b44b7-3125-4f91-b54e-f06c5e8c2bb5","ios":"levelo://app?vid=535b44b7-3125-4f91-b54e-f06c5e8c2bb5"},"vehicle_type_id":"4","last_reported":1729368495,"current_range_meters":38800,"station_id":"ce4bhs12rcd13ifvqhvg","pricing_plan_id":"cebpf4jnsgd1na2vs0mg"},{"bike_id":"9802347e-d8cd-4579-9002-7a81d56c8247","system_id":"levelo_inurba_marseille","lat":43.29606,"lon":5.38108,"is_reserved":false,"is_disabled":false,"rental_uris":{"android":"levelo://app?vid=9802347e-d8cd-4579-9002-7a81d56c8247","ios":"levelo://app?vid=9802347e-d8cd-4579-9002-7a81d56c8247"},"vehicle_type_id":"4","last_reported":1729368495,"current_range_meters":9600,"station_id":"ce4bgl12rcd13ifvqbo0","pricing_plan_id":"cebpf4jnsgd1na2vs0mg"},{"bike_id":"0c70e9cf-3804-4f86-9c7b-04da69fe5f0a","system_id":"levelo_inurba_marseille","lat":43.3133,"lon":5.39698,"is_reserved":false,"is_disabled":false,"rental_uris":{"android":"levelo://app?vid=0c70e9cf-3804-4f86-9c7b-04da69fe5f0a","ios":"levelo://app?vid=0c70e9cf-3804-4f86-9c7b-04da69fe5f0a"},"vehicle_type_id":"4","last_reported":1729368495,"current_range_meters":18000,"station_id":"ce4bgvp2rcd13ifvqcu0","pricing_plan_id":"cebpf4jnsgd1na2vs0mg"},{"bike_id":"70c739d5-746a-4fd1-8ac2-958b8e476ed6","system_id":"levelo_inurba_marseille","lat":43.297394,"lon":5.380578,"is_reserved":false,"is_disabled":false,"rental_uris":{"android":"levelo://app?vid=70c739d5-746a-4fd1-8ac2-958b8e476ed6","ios":"levelo://app?vid=70c739d5-746a-4fd1-8ac2-958b8e476ed6"},"vehicle_type_id":"4","last_reported":1729368495,"current_range_meters":15200,"station_id":"ce4bgip2rcd13ifvqbb0","pricing_plan_id":"cebpf4jnsgd1na2vs0mg"},{"bike_id":"64594531-49ed-43ad-aa80-39e1b23b445c","system_id":"levelo_inurba_marseille","lat":43.28408,"lon":5.37526,"is_reserved":false,"is_disabled":false,"rental_uris":{"android":"levelo://app?vid=64594531-49ed-43ad-aa80-39e1b23b445c","ios":"levelo://app?vid=64594531-49ed-43ad-aa80-39e1b23b445c"},"vehicle_type_id":"4","last_reported":1729368495,"current_range_meters":4400,"station_id":"ce4bh412rcd13ifvqds0","pricing_plan_id":"cebpf4jnsgd1na2vs0mg"},