{"last_updated":1740928107,"ttl":60,"version":"2.2","data":{"bikes":[{"bike_id":"819fc6fd-4768-4c11-82f9-0b5fd0b62d4a","system_id":"levelo_inurba_marseille","lat":43.34252,"lon":5.37789,"is_reserved":false,"is_disabled":true,"rental_uris":{"android":"levelo://app?vid=819fc6fd-4768-4c11-82f9-0b5fd0b62d4a","ios":"levelo://app?vid=819fc6fd-4768-4c11-82f9-0b5fd0b62d4a"},"vehicle_type_id":"4","last_reported":1740928107,"current_range_meters":0,"station_id":"","pricing_plan_id":"cebpf4jnsgd1na2vs0mg"},{"bike_id":"303c2b96-5131-48b9-8dd0-e5a82865f4bc","system_id":"levelo_inurba_marseille","lat":43.35332,"lon":5.3657,"is_reserved":false,"is_disabled":true,"rental_uris":{"android":"levelo://app?vid=303c2b96-5131-48b9-8dd0-e5a82865f4bc","ios":"levelo://app?vid=303c2b96-5131-48b9-8dd0-e5a82865f4bc"},"vehicle_type_id":"4","last_reported":1740928107,"current_range_meters":0,"station_id":"","pricing_plan_id":"cebpf4jnsgd1na2vs0mg"},{"bike_id":"d5458f89-73a3-43f1-9894-000389f52995","system_id":"levelo_inurba_marseille","lat":43.27612,"lon":5.41483,"is_reserved":false,"is_disabled":true,"rental_uris":{"android":"levelo://app?vid=d5458f89-73a3-43f1-9894-000389f52995","ios":"levelo://app?vid=d5458f89-73a3-43f1-9894-000389f52995"},"vehicle_type_id":"4","last_reported":1740928107,"current_range_meters":0,"station_id":"","pricing_plan_id":"cebpf4jnsgd1na2vs0mg"},{"bike_id":"44a8ae1c-a113-440f-838d-15cb54ae0a8c","system_id":"levelo_inurba_marseille","lat":43.29238,"lon":5.36592,"is_reserved":false,"is_disabled":true,"rental_uris":{"android":"levelo://app?vid=44a8ae1c-a113-440f-838d-15cb54ae0a8c","ios":"levelo://app?vid=44a8ae1c-a113-440f-838d-15cb54ae0a8c"},"vehicle_type_id":"4","last_reported":1740928107,"current_range_meters":0,"station_id":"","pricing_plan_id":"cebpf4jnsgd1na2vs0mg"},{"bike_id":"afcec8eb-28d8-4889-8879-0897cb5957e3","system_id":"levelo_inurba_marseille","lat":43.27997,"lon":5.40566,"is_reserved":false,"is_disabled":true,"rental_uris":{"android":"levelo://app?vid=afcec8eb-28d8-4889-8879-0897cb5957e3","ios":"levelo://app?vid=afcec8eb-28d8-4889-8879-0897cb5957e3"},"vehicle_type_id":"4","last_reported":1740928107,"current_range_meters":0,"station_id":"","pricing_plan_id":"cebpf4jnsgd1na2vs0mg"},{"bike_id":"bff2409b-cd5b-4aa7-8708-cc4502b17250","system_id":"levelo_inurba_marseille","lat":43.29289,"lon":5.37458,"is_reserved":false,"is_disabled":true,"rental_uris":{"android":"levelo://app?vid=bff2409b-cd5b-4aa7-8708-cc4502b17250","ios":"levelo://app?vid=bff2409b-cd5b-4aa7-8708-cc4502b17250"},"vehicle_type_id":"4","last_reported":1740928107,"current_range_meters":0,"station_id":"ce4bgi12rcd13ifvqb70","pricing_plan_id":"cebpf4jnsgd1na2vs0mg"},{"bike_id":"5eaf555c-3719-4b84-a140-97e5fbb39c69","system_id":"levelo_inurba_marseille","lat":43.29381,"lon":5.3785,"is_reserved":false,"is_disabled":true,"rental_uris":{"android":"levelo://app?vid=5eaf555c-3719-4b84-a140-97e5fbb39c69","ios":"levelo://app?vid=5eaf555c-3719-4b84-a140-97e5fbb39c69"},"vehicle_type_id":"4","last_reported":1740928107,"current_range_meters":0,"station_id":"ce4bgjh2rcd13ifvqbf0","pricing_plan_id":"cebpf4jnsgd1na2vs0mg"},{"bike_id":"e46ef999-7de4-4cc1-aba9-3983be1fa4a8","system_id":"levelo_inurba_marseille","lat":43.29361,"lon":5.37836,"is_reserved":false,"is_disabled":true,"rental_uris":{"android":"levelo://app?vid=e46ef999-7de4-4cc1-aba9-3983be1fa4a8","ios":"levelo://app?vid=e46ef999-7de4-4cc1-aba9-3983be1fa4a8"},"vehicle_type_id":"4","last_reported":1740928107,"current_range_meters":0,"station_id":"ce4bgjh2rcd13ifvqbf0","pricing_plan_id":"cebpf4jnsgd1na2vs0mg"},{"bike_id":"fa243016-24f9-41b6-819d-167c2e05e979","system_id":"levelo_inurba_marseille","lat":43.30147,"lon":5.38085,"is_reserved":false,"is_disabled":true,"rental_uris":{"android":"levelo://app?vid=fa243016-24f9-41b6-819d-167c2e05e979","ios":"levelo://app?vid=fa243016-24f9-41b6-819d-167c2e05e979"},"vehicle_type_id":"4","last_reported":1740928107,"current_range_meters":0,"station_id":"ce4bgjp2rcd13ifvqbh0","pricing_plan_id":"cebpf4jnsgd1na2vs0mg"},{"bike_id":"c7aa4282-a1e9-4fd2-b6d4-d55ee0d14793","system_id":"levelo_inurba_marseille","lat":43.31219,"lon":5.36861,"is_reserved":false,"is_disabled":true,"rental_uris":{"android":"levelo://app?vid=c7aa4282-a1e9-4fd2-b6d4-d55ee0d14793","ios":"levelo://app?vid=c7aa4282-a1e9-4fd2-b6d4-d55ee0d14793"},"vehicle_type_id":"4","last_reported":1740928107,"current_range_meters":0,"station_id":"ce4bgl92rcd13ifvqbq0","pricing_plan_id":"cebpf4jnsgd1na2vs0mg"},{"bike_id":"b59ed81c-aec2-4452-9791-2808f26206ca","system_id":"levelo_inurba_marseille","lat":43.28273,"lon":5.35074,"is_reserved":false,"is_disabled":true,"rental_uris":{"android":"levelo://app?vid=b59ed81c-aec2-4452-9791-2808f26206ca","ios":"levelo://app?vid=b59ed81c-aec2-4452-9791-2808f26206ca"},"vehicle_type_id":"4","last_reported":1740928107,"current_range_meters":0,"station_id":"ce4bgn92rcd13ifvqbvg","pricing_plan_id":"cebpf4jnsgd1na2vs0mg"},{"bike_id":"4a740588-d8cb-4e19-8f2f-d07c36713945","system_id":"levelo_inurba_marseille","lat":43.2977,"lon":5.37103,"is_reserved":false,"is_disabled":true,"rental_uris":{"android":"levelo://app?vid=4a740588-d8cb-4e19-8f2f-d07c36713945","ios":"levelo://app?vid=4a740588-d8cb-4e19-8f2f-d07c36713945"},"vehicle_type_id":"4","last_reported":1740928107,"current_range_meters":0,"station_id":"ce4bgop2rcd13ifvqc1g","pricing_plan_id":"cebpf4jnsgd1na2vs0mg"},{"bike_id":"d4bf7181-b7cb-4f99-96ec-b53aa6b2deb9","system_id":"levelo_inurba_marseille","lat":43.30787,"lon":5.37646,"is_reserved":false,"is_disabled":true,"rental_uris":{"android":"levelo://app?vid=d4bf7181-b7cb-4f99-96ec-b53aa6b2deb9","ios":"levelo://app?vid=d4bf7181-b7cb-4f99-96ec-b53aa6b2deb9"},"vehicle_type_id":"4","last_reported":1740928107,"current_range_meters":0,"station_id":"ce4bgv92rcd13ifvqcq0","pricing_plan_id":"cebpf4jnsgd1na2vs0mg"},{"bike_id":"26e92fd3-3e72-4545-82f5-a7674466ffd8","system_id":"levelo_inurba_marseille","lat":43.2847,"lon":5.38422,"is_reserved":false,"is_disabled":true,"rental_uris":{"android":"levelo://app?vid=26e92fd3-3e72-4545-82f5-a7674466ffd8","ios":"levelo://app?vid=26e92fd3-3e72-4545-82f5-a7674466ffd8"},"vehicle_type_id":"4","last_reported":1740928107,"current_range_meters":0,"station_id":"ce4bh512rcd13ifvqe3g","pricing_plan_id":"cebpf4jnsgd1na2vs0mg"},{"bike_id":"21488100-1d4c-46d3-9021-41e5956858aa","system_id":"levelo_inurba_marseille","lat":43.28106,"lon":5.37842,"is_reserved":false,"is_disabled":true,"rental_uris":{"android":"levelo://app?vid=21488100-1d4c-46d3-9021-41e5956858aa","ios":"levelo://app?vid=21488100-1d4c-46d3-9021-41e5956858aa"},"vehicle_type_id":"4","last_reported":1740928107,"current_range_meters":0,"station_id":"ce4bha12rcd13ifvqee0","pricing_plan_id":"cebpf4jnsgd1na2vs0mg"},{"bike_id":"f5a904d4-4181-4907-8a51-b5378247fbd5","system_id":"levelo_inurba_marseille","lat":43.27369,"lon":5.36257,"is_reserved":false,"is_disabled":true,"rental_uris":{"android":"levelo://app?vid=f5a904d4-4181-4907-8a51-b5378247fbd5","ios":"levelo://app?vid=f5a904d4-4181-4907-8a51-b5378247fbd5"},"vehicle_type_id":"4","last_reported":1740928107,"current_range_meters":0,"station_id":"ce4bhbh2rcd13ifvqeo0","pricing_plan_id":"cebpf4jnsgd1na2vs0mg"},{"bike_id":"b3321c15-2dbe-4551-9954-d09253a4f390","system_id":"levelo_inurba_marseille","lat":43.2738,"lon":5.3627,"is_reserved":false,"is_disabled":true,"rental_uris":{"android":"levelo://app?vid=b3321c15-2dbe-4551-9954-d09253a4f390","ios":"levelo://app?vid=b3321c15-2dbe-4551-9954-d09253a4f390"},"vehicle_type_id":"4","last_reported":1740928107,"current_range_meters":0,"station_id":"ce4bhbh2rcd13ifvqeo0","pricing_plan_id":"cebpf4jnsgd1na2vs0mg"},{"bike_id":"912c142b-b169-41ac-bc07-7bbcbd8ed1d4","system_id":"levelo_inurba_marseille","lat":43.27385,"lon":5.36272,"is_reserved":false,"is_disabled":true,"rental_uris":{"android":"levelo://app?vid=912c142b-b169-41ac-bc07-7bbcbd8ed1d4","ios":"levelo://app?vid=912c142b-b169-41ac-bc07-7bbcbd8ed1d4"},"vehicle_type_id":"4","last_reported":1740928107,"current_range_meters":0,"station_id":"ce4bhbh2rcd13ifvqeo0","pricing_plan_id":"cebpf4jnsgd1na2vs0mg"},{"bike_id":"2a083bf2-3c8c-4878-8621-2511b9d8f792","system_id":"levelo_inurba_marseille","lat":43.25479,"lon":5.37676,"is_reserved":false,"is_disabled":true,"rental_uris":{"android":"levelo://app?vid=2a083bf2-3c8c-4878-8621-2511b9d8f792","ios":"levelo://app?vid=2a083bf2-3c8c-4878-8621-2511b9d8f792"},"vehicle_type_id":"4","last_reported":1740928107,"current_range_meters":0,"station_id":"ce4bhh12rcd13ifvqff0","pricing_plan_id":"cebpf4jnsgd1na2vs0mg"},{"bike_id":"b34bcdca-4c04-4601-97af-4a6c1438a492","system_id":"levelo_inurba_marseille","lat":43.25494,"lon":5.37653,"is_reserved":false,"is_disabled":true,"rental_uris":{"android":"levelo://app?vid=b34bcdca-4c04-4601-97af-4a6c1438a492","ios":"levelo://app?vid=b34bcdca-4c04-4601-97af-4a6c1438a492"},"vehicle_type_id":"4","last_reported":1740928107,"current_range_meters":0,"station_id":"ce4bhh12rcd13ifvqff0","pricing_plan_id":"cebpf4jnsgd1na2vs0mg"},{"bike_id":"c7a6678b-cef6-4d7d-b592-ca43df0ebf6c","system_id":"levelo_inurba_marseille","lat":43.23963,"lon":5.3663,"is_reserved":false,"is_disabled":true,"rental_uris":{"android":"levelo://app?vid=c7a6678b-cef6-4d7d-b592-ca43df0ebf6c","ios":"levelo://app?vid=c7a6678b-cef6-4d7d-b592-ca43df0ebf6c"},"vehicle_type_id":"4","last_reported":1740928107,"current_range_meters":0,"station_id":"ce4bhi12rcd13ifvqfp0","pricing_plan_id":"cebpf4jnsgd1na2vs0mg"},{"bike_id":"18802dee-cc71-4f45-9c6e-b6f7fab509fb","system_id":"levelo_inurba_marseille","lat":43.23197,"lon":5.35562,"is_reserved":false,"is_disabled":true,"rental_uris":{"android":"levelo://app?vid=18802dee-cc71-4f45-9c6e-b6f7fab509fb","ios":"levelo://app?vid=18802dee-cc71-4f45-9c6e-b6f7fab509fb"},"vehicle_type_id":"4","last_reported":1740928107,"current_range_meters":0,"station_id":"ce4bhu92rcd13ifvqi70","pricing_plan_id":"cebpf4jnsgd1na2vs0mg"},{"bike_id":"66730b8e-bde1-44a5-b20c-05e21db44f6f","system_id":"levelo_inurba_marseille","lat":43.22928,"lon":5.35378,"is_reserved":false,"is_disabled":true,"rental_uris":{"android":"levelo://app?vid=66730b8e-bde1-44a5-b20c-05e21db44f6f","ios":"levelo://app?vid=66730b8e-bde1-44a5-b20c-05e21db44f6f"},"vehicle_type_id":"4","last_reported":1740928107,"current_range_meters":0,"station_id":"cpo3532slgdg3j2ikp40","pricing_plan_id":"cebpf4jnsgd1na2vs0mg"},{"bike_id":"a3d85792-4517-440d-9b39-6590618dd6be","system_id":"levelo_inurba_marseille","lat":43.26213,"lon":5.37432,"is_reserved":false,"is_disabled":true,"rental_uris":{"android":"levelo://app?vid=a3d85792-4517-440d-9b39-6590618dd6be","ios":"levelo://app?vid=a3d85792-4517-440d-9b39-6590618dd6be"},"vehicle_type_id":"4","last_reported":1740928107,"current_range_meters":400,"station_id":"ce4bhgp2rcd13ifvqfc0","pricing_plan_id":"cebpf4jnsgd1na2vs0mg"},{"bike_id":"59d30dd5-8483-4248-80d4-28e9c3e2bb19","system_id":"levelo_inurba_marseille","lat":43.26208,"lon":5.37441,"is_reserved":false,"is_disabled":true,"rental_uris":{"android":"levelo://app?vid=59d30dd5-8483-4248-80d4-28e9c3e2bb19","ios":"levelo://app?vid=59d30dd5-8483-4248-80d4-28e9c3e2bb19"},"vehicle_type_id":"4","last_reported":1740928107,"current_range_meters":400,"station_id":"ce4bhgp2rcd13ifvqfc0","pricing_plan_id":"cebpf4jnsgd1na2vs0mg"},{"bike_id":"63455056-d7e2-4933-81df-f6f037fd9e5b","system_id":"levelo_inurba_marseille","lat":43.24662,"lon":5.38174,"is_reserved":false,"is_disabled":true,"rental_uris":{"android":"levelo://app?vid=63455056-d7e2-4933-81df-f6f037fd9e5b","ios":"levelo://app?vid=63455056-d7e2-4933-81df-f6f037fd9e5b"},"vehicle_type_id":"4","last_reported":1740928107,"current_range_meters":400,"station_id":"ce4bhih2rcd13ifvqfr0","pricing_plan_id":"cebpf4jnsgd1na2vs0mg"},{"bike_id":"0ded7716-5061-4f56-8f86-9a5ed8fe3c69","system_id":"levelo_inurba_marseille","lat":43.24174,"lon":5.36393,"is_reserved":false,"is_disabled":true,"rental_uris":{"android":"levelo://app?vid=0ded7716-5061-4f56-8f86-9a5ed8fe3c69","ios":"levelo://app?vid=0ded7716-5061-4f56-8f86-9a5ed8fe3c69"},"vehicle_type_id":"4","last_reported":1740928107,"current_range_meters":400,"station_id":"cpo36qri1sfpv3e86is0","pricing_plan_id":"cebpf4jnsgd1na2vs0mg"},{"bike_id":"f76bc6cd-4be4-4751-adad-7631f5df958f","system_id":"levelo_inurba_marseille","lat":43.27608,"lon":5.36106,"is_reserved":false,"is_disabled":true,"rental_uris":{"android":"levelo://app?vid=f76bc6cd-4be4-4751-adad-7631f5df958f","ios":"levelo://app?vid=f76bc6cd-4be4-4751-adad-7631f5df958f"},"vehicle_type_id":"4","last_reported":1740928107,"current_range_meters":800,"station_id":"ce4bgj92rcd13ifvqbe0","pricing_plan_id":"cebpf4jnsgd1na2vs0mg"},{"bike_id":"3ca7fb72-f4e7-4ef6-a4b9-c64fe4fb4829","system_id":"levelo_inurba_marseille","lat":43.28261,"lon":5.35054,"is_reserved":false,"is_disabled":true,"rental_uris":{"android":"levelo://app?vid=3ca7fb72-f4e7-4ef6-a4b9-c64fe4fb4829","ios":"levelo://app?vid=3ca7fb72-f4e7-4ef6-a4b9-c64fe4fb4829"},"vehicle_type_id":"4","last_reported":1740928107,"current_range_meters":800,"station_id":"ce4bhbp2rcd13ifvqerg","pricing_plan_id":"cebpf4jnsgd1na2vs0mg"},{"bike_id":"f10e0418-3528-4c45-ad87-436afead6332","system_id":"levelo_inurba_marseille","lat":43.26197,"lon":5.37921,"is_reserved":false,"is_disabled":true,"rental_uris":{"android":"levelo://app?vid=f10e0418-3528-4c45-ad87-436afead6332","ios":"levelo://app?vid=f10e0418-3528-4c45-ad87-436afead6332"},"vehicle_type_id":"4","last_reported":1740928107,"current_range_meters":800,"station_id":"ce4bhjp2rcd13ifvqg90","pricing_plan_id":"cebpf4jnsgd1na2vs0mg"},{"bike_id":"a143e44e-792f-45ec-84cf-1cc9f71bb81b","system_id":"levelo_inurba_marseille","lat":43.2808,"lon":5.39662,"is_reserved":false,"is_disabled":true,"rental_uris":{"android":"levelo://app?vid=a143e44e-792f-45ec-84cf-1cc9f71bb81b","ios":"levelo://app?vid=a143e44e-792f-45ec-84cf-1cc9f71bb81b"},"vehicle_type_id":"4","last_reported":1740928107,"current_range_meters":800,"station_id":"ce4bho12rcd13ifvqh2g","pricing_plan_id":"cebpf4jnsgd1na2vs0mg"},{"bike_id":"1d3c7fd7-b709-4008-8e9f-a0f764fe60d9","system_id":"levelo_inurba_marseille","lat":43.28616,"lon":5.35114,"is_reserved":false,"is_disabled":true,"rental_uris":{"android":"levelo://app?vid=1d3c7fd7-b709-4008-8e9f-a0f764fe60d9","ios":"levelo://app?vid=1d3c7fd7-b709-4008-8e9f-a0f764fe60d9"},"vehicle_type_id":"4","last_reported":1740928107,"current_range_meters":1200,"station_id":"ce4bhch2rcd13ifvqeug","pricing_plan_id":"cebpf4jnsgd1na2vs0mg"},{"bike_id":"5c468a37-cb77-4846-83df-37c7c0916b48","system_id":"levelo_inurba_marseille","lat":43.26028,"lon":5.3755,"is_reserved":false,"is_disabled":true,"rental_uris":{"android":"levelo://app?vid=5c468a37-cb77-4846-83df-37c7c0916b48","ios":"levelo://app?vid=5c468a37-cb77-4846-83df-37c7c0916b48"},"vehicle_type_id":"4","last_reported":1740928107,"current_range_meters":1200,"station_id":"ce4bhgh2rcd13ifvqfa0","pricing_plan_id":"cebpf4jnsgd1na2vs0mg"},{"bike_id":"6cecb3c6-abea-4842-af65-c1fe37003d6c","system_id":"levelo_inurba_marseille","lat":43.27939,"lon":5.41037,"is_reserved":false,"is_disabled":true,"rental_uris":{"android":"levelo://app?vid=6cecb3c6-abea-4842-af65-c1fe37003d6c","ios":"levelo://app?vid=6cecb3c6-abea-4842-af65-c1fe37003d6c"},"vehicle_type_id":"4","last_reported":1740928107,"current_range_meters":1200,"station_id":"ce4bhnp2rcd13ifvqh0g","pricing_plan_id":"cebpf4jnsgd1na2vs0mg"},{"bike_id":"a65cb524-c756-42a0-9639-a6505770c05b","system_id":"levelo_inurba_marseille","lat":43.35038,"lon":5.3672,"is_reserved":false,"is_disabled":true,"rental_uris":{"android":"levelo://app?vid=a65cb524-c756-42a0-9639-a6505770c05b","ios":"levelo://app?vid=a65cb524-c756-42a0-9639-a6505770c05b"},"vehicle_type_id":"4","last_reported":1740928107,"current_range_meters":1600,"station_id":"","pricing_plan_id":"cebpf4jnsgd1na2vs0mg"},{"bike_id":"122efa54-2893-4ada-b9a2-aaa4fd6ba116","system_id":"levelo_inurba_marseille","lat":43.2874,"lon":5.38297,"is_reserved":false,"is_disabled":true,"rental_uris":{"android":"levelo://app?vid=122efa54-2893-4ada-b9a2-aaa4fd6ba116","ios":"levelo://app?vid=122efa54-2893-4ada-b9a2-aaa4fd6ba116"},"vehicle_type_id":"4","last_reported":1740928107,"current_range_meters":1600,"station_id":"ce4bh4p2rcd13ifvqe1g","pricing_plan_id":"cebpf4jnsgd1na2vs0mg"},{"bike_id":"22724367-c464-4927-9751-8c0b76a246e1","system_id":"levelo_inurba_marseille","lat":43.2894,"lon":5.36404,"is_reserved":false,"is_disabled":true,"rental_uris":{"android":"levelo://app?vid=22724367-c464-4927-9751-8c0b76a246e1","ios":"levelo://app?vid=22724367-c464-4927-9751-8c0b76a246e1"},"vehicle_type_id":"4","last_reported":1740928107,"current_range_meters":1600,"station_id":"ce4bhc92rcd13ifvqetg","pricing_plan_id":"cebpf4jnsgd1na2vs0mg"},{"bike_id":"816d689e-aaad-4892-9cfc-09798e4a7daf","system_id":"levelo_inurba_marseille","lat":43.23196,"lon":5.3556,"is_reserved":false,"is_disabled":true,"rental_uris":{"android":"levelo://app?vid=816d689e-aaad-4892-9cfc-09798e4a7daf","ios":"levelo://app?vid=816d689e-aaad-4892-9cfc-09798e4a7daf"},"vehicle_type_id":"4","last_reported":1740928107,"current_range_meters":1600,"station_id":"ce4bhu92rcd13ifvqi70","pricing_plan_id":"cebpf4jnsgd1na2vs0mg"},{"bike_id":"db24c2da-1d4b-4a5b-a86a-8683447f951a","system_id":"levelo_inurba_marseille","lat":43.28411,"lon":5.34981,"is_reserved":false,"is_disabled":true,"rental_uris":{"android":"levelo://app?vid=db24c2da-1d4b-4a5b-a86a-8683447f951a","ios":"levelo://app?vid=db24c2da-1d4b-4a5b-a86a-8683447f951a"},"vehicle_type_id":"4","last_reported":1740928107,"current_range_meters":2000,"station_id":"ce4bhbh2rcd13ifvqepg","pricing_plan_id":"cebpf4jnsgd1na2vs0mg"},{"bike_id":"3a53d05d-cddb-4db4-85d8-25098c4302e2","system_id":"levelo_inurba_marseille","lat":43.26558,"lon":5.37288,"is_reserved":false,"is_disabled":true,"rental_uris":{"android":"levelo://app?vid=3a53d05d-cddb-4db4-85d8-25098c4302e2","ios":"levelo://app?vid=3a53d05d-cddb-4db4-85d8-25098c4302e2"},"vehicle_type_id":"4","last_reported":1740928107,"current_range_meters":2000,"station_id":"ce4bhg12rcd13ifvqf70","pricing_plan_id":"cebpf4jnsgd1na2vs0mg"},{"bike_id":"e0ad619c-d593-44aa-8a5e-5fc0cfa651a3","system_id":"levelo_inurba_marseille","lat":43.26952,"lon":5.40245,"is_reserved":false,"is_disabled":true,"rental_uris":{"android":"levelo://app?vid=e0ad619c-d593-44aa-8a5e-5fc0cfa651a3","ios":"levelo://app?vid=e0ad619c-d593-44aa-8a5e-5fc0cfa651a3"},"vehicle_type_id":"4","last_reported":1740928107,"current_range_meters":2000,"station_id":"cjm6bp8fraef2m0cb0m0","pricing_plan_id":"cebpf4jnsgd1na2vs0mg"},{"bike_id":"50ff7f12-0288-4242-b871-96ae8b9d32a6","system_id":"levelo_inurba_marseille","lat":43.28731,"lon":5.36098,"is_reserved":false,"is_disabled":true,"rental_uris":{"android":"levelo://app?vid=50ff7f12-0288-4242-b871-96ae8b9d32a6","ios":"levelo://app?vid=50ff7f12-0288-4242-b871-96ae8b9d32a6"},"vehicle_type_id":"4","last_reported":1740928107,"current_range_meters":2000,"station_id":"cki0cbj6b192h4jlfktg","pricing_plan_id":"cebpf4jnsgd1na2vs0mg"},{"bike_id":"07980c98-818c-45fd-a77d-a18a0355bab2","system_id":"levelo_inurba_marseille","lat":43.26551,"lon":5.37288,"is_reserved":false,"is_disabled":false,"rental_uris":{"android":"levelo://app?vid=07980c98-818c-45fd-a77d-a18a0355bab2","ios":"levelo://app?vid=07980c98-818c-45fd-a77d-a18a0355bab2"},"vehicle_type_id":"4","last_reported":1740928107,"current_range_meters":3200,"station_id":"ce4bhg12rcd13ifvqf70","pricing_plan_id":"cebpf4jnsgd1na2vs0mg"},{"bike_id":"ee0d9627-935b-4d91-a716-be0933f87094","system_id":"levelo_inurba_marseille","lat":43.25003,"lon":5.3893,"is_reserved":false,"is_disabled":false,"rental_uris":{"android":"levelo://app?vid=ee0d9627-935b-4d91-a716-be0933f87094","ios":"levelo://app?vid=ee0d9627-935b-4d91-a716-be0933f87094"},"vehicle_type_id":"4","last_reported":1740928107,"current_range_meters":3200,"station_id":"ce4bhgp2rcd13ifvqfd0","pricing_plan_id":"cebpf4jnsgd1na2vs0mg"},{"bike_id":"e6d70a82-7bd4-46af-a819-79d673275705","system_id":"levelo_inurba_marseille","lat":43.23009,"lon":5.35513,"is_reserved":false,"is_disabled":false,"rental_uris":{"android":"levelo://app?vid=e6d70a82-7bd4-46af-a819-79d673275705","ios":"levelo://app?vid=e6d70a82-7bd4-46af-a819-79d673275705"},"vehicle_type_id":"4","last_reported":1740928107,"current_range_meters":3600,"station_id":"","pricing_plan_id":"cebpf4jnsgd1na2vs0mg"},{"bike_id":"09063d78-97b0-43df-ba43-d34c85ed3f6b","system_id":"levelo_inurba_marseille","lat":43.31159,"lon":5.39609,"is_reserved":false,"is_disabled":false,"rental_uris":{"android":"levelo://app?vid=09063d78-97b0-43df-ba43-d34c85ed3f6b","ios":"levelo://app?vid=09063d78-97b0-43df-ba43-d34c85ed3f6b"},"vehicle_type_id":"4","last_reported":1740928107,"current_range_meters":3600,"station_id":"ce4bgvp2rcd13ifvqcu0","pricing_plan_id":"cebpf4jnsgd1na2vs0mg"},{"bike_id":"e2f9ce1d-2069-4450-aff1-8062863d6c6c","system_id":"levelo_inurba_marseille","lat":43.26203,"lon":5.37918,"is_reserved":false,"is_disabled":false,"rental_uris":{"android":"levelo://app?vid=e2f9ce1d-2069-4450-aff1-8062863d6c6c","ios":"levelo://app?vid=e2f9ce1d-2069-4450-aff1-8062863d6c6c"},"vehicle_type_id":"4","last_reported":1740928107,"current_range_meters":3600,"station_id":"ce4bhjp2rcd13ifvqg90","pricing_plan_id":"cebpf4jnsgd1na2vs0mg"},{"bike_id":"a5c94c3a-5c7e-410d-80c7-7b83adf3714e","system_id":"levelo_inurba_marseille","lat":43.29599,"lon":5.38103,"is_reserved":false,"is_disabled":false,"rental_uris":{"android":"levelo://app?vid=a5c94c3a-5c7e-410d-80c7-7b83adf3714e","ios":"levelo://app?vid=a5c94c3a-5c7e-410d-80c7-7b83adf3714e"},"vehicle_type_id":"4","last_reported":1740928107,"current_range_meters":4000,"station_id":"ce4bgl12rcd13ifvqbo0","pricing_plan_id":"cebpf4jnsgd1na2vs0mg"},{"bike_id":"090fea17-5206-4813-8724-a8fc89db2c74","system_id":"levelo_inurba_marseille","lat":43.27376,"lon":5.36261,"is_reserved":false,"is_disabled":false,"rental_uris":{"android":"levelo://app?vid=090fea17-5206-4813-8724-a8fc89db2c74","ios":"levelo://app?vid=090fea17-5206-4813-8724-a8fc89db2c74"},"vehicle_type_id":"4","last_reported":1740928107,"current_range_meters":4000,"station_id":"ce4bhbh2rcd13ifvqeo0","pricing_plan_id":"cebpf4jnsgd1na2vs0mg"},{"bike_id":"0876d7e8-3284-4bd9-a1ea-49eadafff38d","system_id":"levelo_inurba_marseille","lat":43.25091,"lon":5.39517,"is_reserved":false,"is_disabled":false,"rental_uris":{"android":"levelo://app?vid=0876d7e8-3284-4bd9-a1ea-49eadafff38d","ios":"levelo://app?vid=0876d7e8-3284-4bd9-a1ea-49eadafff38d"},"vehicle_type_id":"4","last_reported":1740928107,"current_range_meters":4400,"station_id":"ce4bhm12rcd13ifvqgkg","pricing_plan_id":"cebpf4jnsgd1na2vs0mg"},{"bike_id":"935762c9-d9ae-4dd7-a397-c4ebd5ff2ac0","system_id":"levelo_inurba_marseille","lat":43.24071,"lon":5.37765,"is_reserved":false,"is_disabled":false,"rental_uris":{"android":"levelo://app?vid=935762c9-d9ae-4dd7-a397-c4ebd5ff2ac0","ios":"levelo://app?vid=935762c9-d9ae-4dd7-a397-c4ebd5ff2ac0"},"vehicle_type_id":"4","last_reported":1740928107,"current_range_meters":4400,"station_id":"ce4bhnp2rcd13ifvqgvg","pricing_plan_id":"cebpf4jnsgd1na2vs0mg"},{"bike_id":"c842f80e-a237-48c5-ac6f-0eab2e588d3c","system_id":"levelo_inurba_marseille","lat":43.29703,"lon":5.36613,"is_reserved":false,"is_disabled":false,"rental_uris":{"android":"levelo://app?vid=c842f80e-a237-48c5-ac6f-0eab2e588d3c","ios":"levelo://app?vid=c842f80e-a237-48c5-ac6f-0eab2e588d3c"},"vehicle_type_id":"4","last_reported":1740928107,"current_range_meters":5600,"station_id":"ce4bgn12rcd13ifvqbt0","pricing_plan_id":"cebpf4jnsgd1na2vs0mg"},{"bike_id":"9ae6a157-7a82-40f2-945b-d7e17aeeec23","system_id":"levelo_inurba_marseille","lat":43.3132,"lon":5.39691,"is_reserved":false,"is_disabled":false,"rental_uris":{"android":"levelo://app?vid=9ae6a157-7a82-40f2-945b-d7e17aeeec23","ios":"levelo://app?vid=9ae6a157-7a82-40f2-945b-d7e17aeeec23"},"vehicle_type_id":"4","last_reported":1740928107,"current_range_meters":5600,"station_id":"ce4bgvp2rcd13ifvqcu0","pricing_plan_id":"cebpf4jnsgd1na2vs0mg"},{"bike_id":"74c5d6f3-b497-4c09-9978-9e7b4383ea29","system_id":"levelo_inurba_marseille","lat":43.26554,"lon":5.37308,"is_reserved":false,"is_disabled":false,"rental_uris":{"android":"levelo://app?vid=74c5d6f3-b497-4c09-9978-9e7b4383ea29","ios":"levelo://app?vid=74c5d6f3-b497-4c09-9978-9e7b4383ea29"},"vehicle_type_id":"4","last_reported":1740928107,"current_range_meters":5600,"station_id":"ce4bhg12rcd13ifvqf70","pricing_plan_id":"cebpf4jnsgd1na2vs0mg"},{"bike_id":"55235645-fb70-4687-8ed6-a6c738087798","system_id":"levelo_inurba_marseille","lat":43.24399,"lon":5.37059,"is_reserved":false,"is_disabled":false,"rental_uris":{"android":"levelo://app?vid=55235645-fb70-4687-8ed6-a6c738087798","ios":"levelo://app?vid=55235645-fb70-4687-8ed6-a6c738087798"},"vehicle_type_id":"4","last_reported":1740928107,"current_range_meters":5600,"station_id":"ce4bhhh2rcd13ifvqfk0","pricing_plan_id":"cebpf4jnsgd1na2vs0mg"},{"bike_id":"94fad007-d0ce-4115-bdc1-4642378c3e12","system_id":"levelo_inurba_marseille","lat":43.27054,"lon":5.4026,"is_reserved":false,"is_disabled":false,"rental_uris":{"android":"levelo://app?vid=94fad007-d0ce-4115-bdc1-4642378c3e12","ios":"levelo://app?vid=94fad007-d0ce-4115-bdc1-4642378c3e12"},"vehicle_type_id":"4","last_reported":1740928107,"current_range_meters":5600,"station_id":"ce4bhk92rcd13ifvqgc0","pricing_plan_id":"cebpf4jnsgd1na2vs0mg"},{"bike_id":"4ac8bf62-f7ae-42d4-9ff8-edc640a07010","system_id":"levelo_inurba_marseille","lat":43.29711,"lon":5.35953,"is_reserved":false,"is_disabled":false,"rental_uris":{"android":"levelo://app?vid=4ac8bf62-f7ae-42d4-9ff8-edc640a07010","ios":"levelo://app?vid=4ac8bf62-f7ae-42d4-9ff8-edc640a07010"},"vehicle_type_id":"4","last_reported":1740928107,"current_range_meters":6000,"station_id":"ce4bgn12rcd13ifvqbt0","pricing_plan_id":"cebpf4jnsgd1na2vs0mg"},{"bike_id":"6396ab54-acab-46fc-8588-63fceb8d2984","system_id":"levelo_inurba_marseille","lat":43.29847,"lon":5.36285,"is_reserved":false,"is_disabled":false,"rental_uris":{"android":"levelo://app?vid=6396ab54-acab-46fc-8588-63fceb8d2984","ios":"levelo://app?vid=6396ab54-acab-46fc-8588-63fceb8d2984"},"vehicle_type_id":"4","last_reported":1740928107,"current_range_meters":6000,"station_id":"ce4bgpp2rcd13ifvqc3g","pricing_plan_id":"cebpf4jnsgd1na2vs0mg"},{"bike_id":"52799ed4-0007-4ca4-b563-7ee09ef8cf96","system_id":"levelo_inurba_marseille","lat":43.29093,"lon":5.38132,"is_reserved":false,"is_disabled":false,"rental_uris":{"android":"levelo://app?vid=52799ed4-0007-4ca4-b563-7ee09ef8cf96","ios":"levelo://app?vid=52799ed4-0007-4ca4-b563-7ee09ef8cf96"},"vehicle_type_id":"4","last_reported":1740928107,"current_range_meters":6000,"station_id":"ce4bh512rcd13ifvqe2g","pricing_plan_id":"cebpf4jnsgd1na2vs0mg"},{"bike_id":"bccdf227-eec2-4ed5-8085-025aa34790bc","system_id":"levelo_inurba_marseille","lat":43.28416,"lon":5.34982,"is_reserved":false,"is_disabled":false,"rental_uris":{"android":"levelo://app?vid=bccdf227-eec2-4ed5-8085-025aa34790bc","ios":"levelo://app?vid=bccdf227-eec2-4ed5-8085-025aa34790bc"},"vehicle_type_id":"4","last_reported":1740928107,"current_range_meters":6000,"station_id":"ce4bhbh2rcd13ifvqepg","pricing_plan_id":"cebpf4jnsgd1na2vs0mg"},{"bike_id":"c078acb3-f7a4-4484-b7dd-236ce274da20","system_id":"levelo_inurba_marseille","lat":43.26027,"lon":5.37554,"is_reserved":false,"is_disabled":false,"rental_uris":{"android":"levelo://app?vid=c078acb3-f7a4-4484-b7dd-236ce274da20","ios":"levelo://app?vid=c078acb3-f7a4-4484-b7dd-236ce274da20"},"vehicle_type_id":"4","last_reported":1740928107,"current_range_meters":6000,"station_id":"ce4bhgh2rcd13ifvqfa0","pricing_plan_id":"cebpf4jnsgd1na2vs0mg"},{"bike_id":"572d17e3-95aa-433f-abe0-38d340ef9dbe","system_id":"levelo_inurba_marseille","lat":43.26148,"lon":5.37434,"is_reserved":false,"is_disabled":false,"rental_uris":{"android":"levelo://app?vid=572d17e3-95aa-433f-abe0-38d340ef9dbe","ios":"levelo://app?vid=572d17e3-95aa-433f-abe0-38d340ef9dbe"},"vehicle_type_id":"4","last_reported":1740928107,"current_range_meters":6000,"station_id":"ce4bhgp2rcd13ifvqfc0","pricing_plan_id":"cebpf4jnsgd1na2vs0mg"},{"bike_id":"b72fde96-c651-4427-b0a4-4361610eab66","system_id":"levelo_inurba_marseille","lat":43.2962,"lon":5.40593,"is_reserved":false,"is_disabled":false,"rental_uris":{"android":"levelo://app?vid=b72fde96-c651-4427-b0a4-4361610eab66","ios":"levelo://app?vid=b72fde96-c651-4427-b0a4-4361610eab66"},"vehicle_type_id":"4","last_reported":1740928107,"current_range_meters":6400,"station_id":"ce4bh0h2rcd13ifvqd60","pricing_plan_id":"cebpf4jnsgd1na2vs0mg"},{"bike_id":"8f0ef426-6979-4afc-b5ee-89c1b3437496","system_id":"levelo_inurba_marseille","lat":43.31215,"lon":5.36864,"is_reserved":false,"is_disabled":false,"rental_uris":{"android":"levelo://app?vid=8f0ef426-6979-4afc-b5ee-89c1b3437496","ios":"levelo://app?vid=8f0ef426-6979-4afc-b5ee-89c1b3437496"},"vehicle_type_id":"4","last_reported":1740928107,"current_range_meters":6800,"station_id":"ce4bgl92rcd13ifvqbq0","pricing_plan_id":"cebpf4jnsgd1na2vs0mg"},{"bike_id":"f7569d14-a3de-4d13-90c3-620ba25558f2","system_id":"levelo_inurba_marseille","lat":43.29511,"lon":5.394,"is_reserved":false,"is_disabled":false,"rental_uris":{"android":"levelo://app?vid=f7569d14-a3de-4d13-90c3-620ba25558f2","ios":"levelo://app?vid=f7569d14-a3de-4d13-90c3-620ba25558f2"},"vehicle_type_id":"4","last_reported":1740928107,"current_range_meters":6800,"station_id":"ce4bh292rcd13ifvqdf0","pricing_plan_id":"cebpf4jnsgd1na2vs0mg"},{"bike_id":"8fd9a732-3704-4170-85b3-523a996d520f","system_id":"levelo_inurba_marseille","lat":43.29035,"lon":5.39975,"is_reserved":false,"is_disabled":false,"rental_uris":{"android":"levelo://app?vid=8fd9a732-3704-4170-85b3-523a996d520f","ios":"levelo://app?vid=8fd9a732-3704-4170-85b3-523a996d520f"},"vehicle_type_id":"4","last_reported":1740928107,"current_range_meters":6800,"station_id":"ce4bh392rcd13ifvqdm0","pricing_plan_id":"cebpf4jnsgd1na2vs0mg"},{"bike_id":"50767bd2-bbf1-49fc-810e-cacf7a0640fb","system_id":"levelo_inurba_marseille","lat":43.24667,"lon":5.38167,"is_reserved":false,"is_disabled":false,"rental_uris":{"android":"levelo://app?vid=50767bd2-bbf1-49fc-810e-cacf7a0640fb","ios":"levelo://app?vid=50767bd2-bbf1-49fc-810e-cacf7a0640fb"},"vehicle_type_id":"4","last_reported":1740928107,"current_range_meters":6800,"station_id":"ce4bhih2rcd13ifvqfr0","pricing_plan_id":"cebpf4jnsgd1na2vs0mg"},{"bike_id":"dd6c5073-6870-48f2-ba4c-4b954b7d90f4","system_id":"levelo_inurba_marseille","lat":43.23153,"lon":5.43714,"is_reserved":false,"is_disabled":false,"rental_uris":{"android":"levelo://app?vid=dd6c5073-6870-48f2-ba4c-4b954b7d90f4","ios":"levelo://app?vid=dd6c5073-6870-48f2-ba4c-4b954b7d90f4"},"vehicle_type_id":"4","last_reported":1740928107,"current_range_meters":6800,"station_id":"ce4bhmp2rcd13ifvqgog","pricing_plan_id":"cebpf4jnsgd1na2vs0mg"},{"bike_id":"f40d16b7-30b5-4bc5-ba7b-2c48520a4680","system_id":"levelo_inurba_marseille","lat":43.28,"lon":5.41665,"is_reserved":false,"is_disabled":false,"rental_uris":{"android":"levelo://app?vid=f40d16b7-30b5-4bc5-ba7b-2c48520a4680","ios":"levelo://app?vid=f40d16b7-30b5-4bc5-ba7b-2c48520a4680"},"vehicle_type_id":"4","last_reported":1740928107,"current_range_meters":6800,"station_id":"ce4bho12rcd13ifvqh1g","pricing_plan_id":"cebpf4jnsgd1na2vs0mg"},{"bike_id":"53ebed9a-fd1a-4d94-96e3-0c8bc5887ace","system_id":"levelo_inurba_marseille","lat":43.314274,"lon":5.393781,"is_reserved":false,"is_disabled":false,"rental_uris":{"android":"levelo://app?vid=53ebed9a-fd1a-4d94-96e3-0c8bc5887ace","ios":"levelo://app?vid=53ebed9a-fd1a-4d94-96e3-0c8bc5887ace"},"vehicle_type_id":"4","last_reported":1740928107,"current_range_meters":7200,"station_id":"","pricing_plan_id":"cebpf4jnsgd1na2vs0mg"},{"bike_id":"2b76ab76-2012-41c9-98ef-fe3dcb624aa7","system_id":"levelo_inurba_marseille","lat":43.28268,"lon":5.35054,"is_reserved":false,"is_disabled":false,"rental_uris":{"android":"levelo://app?vid=2b76ab76-2012-41c9-98ef-fe3dcb624aa7","ios":"levelo://app?vid=2b76ab76-2012-41c9-98ef-fe3dcb624aa7"},"vehicle_type_id":"4","last_reported":1740928107,"current_range_meters":7200,"station_id":"ce4bhbp2rcd13ifvqerg","pricing_plan_id":"cebpf4jnsgd1na2vs0mg"},{"bike_id":"b811c60a-6933-40a7-84ba-ba9cab9803d2","system_id":"levelo_inurba_marseille","lat":43.24994,"lon":5.38931,"is_reserved":false,"is_disabled":false,"rental_uris":{"android":"levelo://app?vid=b811c60a-6933-40a7-84ba-ba9cab9803d2","ios":"levelo://app?vid=b811c60a-6933-40a7-84ba-ba9cab9803d2"},"vehicle_type_id":"4","last_reported":1740928107,"current_range_meters":7200,"station_id":"ce4bhgp2rcd13ifvqfd0","pricing_plan_id":"cebpf4jnsgd1na2vs0mg"},{"bike_id":"40e74d60-d624-4090-a91f-a735553d9194","system_id":"levelo_inurba_marseille","lat":43.26059,"lon":5.39392,"is_reserved":false,"is_disabled":false,"rental_uris":{"android":"levelo://app?vid=40e74d60-d624-4090-a91f-a735553d9194","ios":"levelo://app?vid=40e74d60-d624-4090-a91f-a735553d9194"},"vehicle_type_id":"4","last_reported":1740928107,"current_range_meters":7200,"station_id":"ce4bhh92rcd13ifvqfj0","pricing_plan_id":"cebpf4jnsgd1na2vs0mg"},{"bike_id":"24b426ec-114a-4cca-b485-1331408dda43","system_id":"levelo_inurba_marseille","lat":43.24072,"lon":5.37749,"is_reserved":false,"is_disabled":false,"rental_uris":{"android":"levelo://app?vid=24b426ec-114a-4cca-b485-1331408dda43","ios":"levelo://app?vid=24b426ec-114a-4cca-b485-1331408dda43"},"vehicle_type_id":"4","last_reported":1740928107,"current_range_meters":7200,"station_id":"ce4bhnp2rcd13ifvqgvg","pricing_plan_id":"cebpf4jnsgd1na2vs0mg"},{"bike_id":"3da75832-2bcc-4e5f-909f-b17b30f50baa","system_id":"levelo_inurba_marseille","lat":43.3372,"lon":5.39184,"is_reserved":false,"is_disabled":false,"rental_uris":{"android":"levelo://app?vid=3da75832-2bcc-4e5f-909f-b17b30f50baa","ios":"levelo://app?vid=3da75832-2bcc-4e5f-909f-b17b30f50baa"},"vehicle_type_id":"4","last_reported":1740928107,"current_range_meters":7200,"station_id":"ce4bhr92rcd13ifvqhsg","pricing_plan_id":"cebpf4jnsgd1na2vs0mg"},{"bike_id":"20c9bbd7-e325-4f7a-bedc-61305b9bbcc2","system_id":"levelo_inurba_marseille","lat":43.2861,"lon":5.3706,"is_reserved":false,"is_disabled":false,"rental_uris":{"android":"levelo://app?vid=20c9bbd7-e325-4f7a-bedc-61305b9bbcc2","ios":"levelo://app?vid=20c9bbd7-e325-4f7a-bedc-61305b9bbcc2"},"vehicle_type_id":"4","last_reported":1740928107,"current_range_meters":7200,"station_id":"ce4bht12rcd13ifvqi60","pricing_plan_id":"cebpf4jnsgd1na2vs0mg"},{"bike_id":"2759267c-98a0-4b2f-abbd-06c6cd4c1284","system_id":"levelo_inurba_marseille","lat":43.22931,"lon":5.35385,"is_reserved":false,"is_disabled":false,"rental_uris":{"android":"levelo://app?vid=2759267c-98a0-4b2f-abbd-06c6cd4c1284","ios":"levelo://app?vid=2759267c-98a0-4b2f-abbd-06c6cd4c1284"},"vehicle_type_id":"4","last_reported":1740928107,"current_range_meters":7200,"station_id":"cpo3532slgdg3j2ikp40","pricing_plan_id":"cebpf4jnsgd1na2vs0mg"},{"bike_id":"3e136733-4ce9-47c2-98f0-3569560be335","system_id":"levelo_inurba_marseille","lat":43.30794,"lon":5.38156,"is_reserved":false,"is_disabled":false,"rental_uris":{"android":"levelo://app?vid=3e136733-4ce9-47c2-98f0-3569560be335","ios":"levelo://app?vid=3e136733-4ce9-47c2-98f0-3569560be335"},"vehicle_type_id":"4","last_reported":1740928107,"current_range_meters":8000,"station_id":"ce4bgt12rcd13ifvqce0","pricing_plan_id":"cebpf4jnsgd1na2vs0mg"},{"bike_id":"ca9a8619-15a5-4c45-97ea-a32f3e727be4","system_id":"levelo_inurba_marseille","lat":43.28466,"lon":5.35878,"is_reserved":false,"is_disabled":false,"rental_uris":{"android":"levelo://app?vid=ca9a8619-15a5-4c45-97ea-a32f3e727be4","ios":"levelo://app?vid=ca9a8619-15a5-4c45-97ea-a32f3e727be4"},"vehicle_type_id":"4","last_reported":1740928107,"current_range_meters":8000,"station_id":"ce4bhah2rcd13ifvqei0","pricing_plan_id":"cebpf4jnsgd1na2vs0mg"},{"bike_id":"f855a0e6-de2b-4ec9-863f-5e181781e814","system_id":"levelo_inurba_marseille","lat":43.26678,"lon":5.38268,"is_reserved":false,"is_disabled":false,"rental_uris":{"android":"levelo://app?vid=f855a0e6-de2b-4ec9-863f-5e181781e814","ios":"levelo://app?vid=f855a0e6-de2b-4ec9-863f-5e181781e814"},"vehicle_type_id":"4","last_reported":1740928107,"current_range_meters":8000,"station_id":"ce4bhg92rcd13ifvqf90","pricing_plan_id":"cebpf4jnsgd1na2vs0mg"},{"bike_id":"d9c1bcf1-4f4d-4f65-bf7a-b9d26e029a11","system_id":"levelo_inurba_marseille","lat":43.23163,"lon":5.4004,"is_reserved":false,"is_disabled":false,"rental_uris":{"android":"levelo://app?vid=d9c1bcf1-4f4d-4f65-bf7a-b9d26e029a11","ios":"levelo://app?vid=d9c1bcf1-4f4d-4f65-bf7a-b9d26e029a11"},"vehicle_type_id":"4","last_reported":1740928107,"current_range_meters":8000,"station_id":"ce4bhn12rcd13ifvqgqg","pricing_plan_id":"cebpf4jnsgd1na2vs0mg"},{"bike_id":"eafe4694-db55-4cde-85aa-971c3787bde8","system_id":"levelo_inurba_marseille","lat":43.24179,"lon":5.36399,"is_reserved":false,"is_disabled":false,"rental_uris":{"android":"levelo://app?vid=eafe4694-db55-4cde-85aa-971c3787bde8","ios":"levelo://app?vid=eafe4694-db55-4cde-85aa-971c3787bde8"},"vehicle_type_id":"4","last_reported":1740928107,"current_range_meters":8000,"station_id":"cpo36qri1sfpv3e86is0","pricing_plan_id":"cebpf4jnsgd1na2vs0mg"},{"bike_id":"4a01e614-9a34-4e70-9e02-4e744008ae90","system_id":"levelo_inurba_marseille","lat":43.31389,"lon":5.39174,"is_reserved":false,"is_disabled":false,"rental_uris":{"android":"levelo://app?vid=4a01e614-9a34-4e70-9e02-4e744008ae90","ios":"levelo://app?vid=4a01e614-9a34-4e70-9e02-4e744008ae90"},"vehicle_type_id":"4","last_reported":1740928107,"current_range_meters":8400,"station_id":"","pricing_plan_id":"cebpf4jnsgd1na2vs0mg"},{"bike_id":"6cbbdaeb-d627-4456-9a97-dfaea4b83d17","system_id":"levelo_inurba_marseille","lat":43.24794,"lon":5.37449,"is_reserved":false,"is_disabled":false,"rental_uris":{"android":"levelo://app?vid=6cbbdaeb-d627-4456-9a97-dfaea4b83d17","ios":"levelo://app?vid=6cbbdaeb-d627-4456-9a97-dfaea4b83d17"},"vehicle_type_id":"4","last_reported":1740928107,"current_range_meters":8400,"station_id":"ce4bhgh2rcd13ifvqfb0","pricing_plan_id":"cebpf4jnsgd1na2vs0mg"},{"bike_id":"26fa037d-9c4f-463e-b16c-4139864b9370","system_id":"levelo_inurba_marseille","lat":43.26222,"lon":5.37454,"is_reserved":false,"is_disabled":false,"rental_uris":{"android":"levelo://app?vid=26fa037d-9c4f-463e-b16c-4139864b9370","ios":"levelo://app?vid=26fa037d-9c4f-463e-b16c-4139864b9370"},"vehicle_type_id":"4","last_reported":1740928107,"current_range_meters":8400,"station_id":"ce4bhgp2rcd13ifvqfc0","pricing_plan_id":"cebpf4jnsgd1na2vs0mg"},{"bike_id":"7ef7ac43-0eab-4d6d-b040-181e2e2d7919","system_id":"levelo_inurba_marseille","lat":43.25002,"lon":5.38997,"is_reserved":false,"is_disabled":false,"rental_uris":{"android":"levelo://app?vid=7ef7ac43-0eab-4d6d-b040-181e2e2d7919","ios":"levelo://app?vid=7ef7ac43-0eab-4d6d-b040-181e2e2d7919"},"vehicle_type_id":"4","last_reported":1740928107,"current_range_meters":8400,"station_id":"ce4bhgp2rcd13ifvqfd0","pricing_plan_id":"cebpf4jnsgd1na2vs0mg"},{"bike_id":"a2172bd0-de24-43b9-9485-d7c205076569","system_id":"levelo_inurba_marseille","lat":43.27311,"lon":5.39079,"is_reserved":false,"is_disabled":false,"rental_uris":{"android":"levelo://app?vid=a2172bd0-de24-43b9-9485-d7c205076569","ios":"levelo://app?vid=a2172bd0-de24-43b9-9485-d7c205076569"},"vehicle_type_id":"4","last_reported":1740928107,"current_range_meters":8400,"station_id":"ce4bhgp2rcd13ifvqfe0","pricing_plan_id":"cebpf4jnsgd1na2vs0mg"},{"bike_id":"7f34cc3e-1832-464c-aeb1-9c3765c74a5a","system_id":"levelo_inurba_marseille","lat":43.25581,"lon":5.38236,"is_reserved":false,"is_disabled":false,"rental_uris":{"android":"levelo://app?vid=7f34cc3e-1832-464c-aeb1-9c3765c74a5a","ios":"levelo://app?vid=7f34cc3e-1832-464c-aeb1-9c3765c74a5a"},"vehicle_type_id":"4","last_reported":1740928107,"current_range_meters":8400,"station_id":"ce4bhih2rcd13ifvqfs0","pricing_plan_id":"cebpf4jnsgd1na2vs0mg"},{"bike_id":"06bf7d19-a545-4a84-8368-fc75a66a8acd","system_id":"levelo_inurba_marseille","lat":43.25719,"lon":5.41112,"is_reserved":false,"is_disabled":false,"rental_uris":{"android":"levelo://app?vid=06bf7d19-a545-4a84-8368-fc75a66a8acd","ios":"levelo://app?vid=06bf7d19-a545-4a84-8368-fc75a66a8acd"},"vehicle_type_id":"4","last_reported":1740928107,"current_range_meters":8400,"station_id":"ce4bhkp2rcd13ifvqgd0","pricing_plan_id":"cebpf4jnsgd1na2vs0mg"},{"bike_id":"0b98e7e8-dc07-4ea0-a7b9-18759bfad524","system_id":"levelo_inurba_marseille","lat":43.22968,"lon":5.35436,"is_reserved":false,"is_disabled":false,"rental_uris":{"android":"levelo://app?vid=0b98e7e8-dc07-4ea0-a7b9-18759bfad524","ios":"levelo://app?vid=0b98e7e8-dc07-4ea0-a7b9-18759bfad524"},"vehicle_type_id":"4","last_reported":1740928107,"current_range_meters":8800,"station_id":"","pricing_plan_id":"cebpf4jnsgd1na2vs0mg"},{"bike_id":"0e4d5d36-7d5d-4fbf-9597-759cc9a1b223","system_id":"levelo_inurba_marseille","lat":43.30563,"lon":5.37246,"is_reserved":false,"is_disabled":false,"rental_uris":{"android":"levelo://app?vid=0e4d5d36-7d5d-4fbf-9597-759cc9a1b223","ios":"levelo://app?vid=0e4d5d36-7d5d-4fbf-9597-759cc9a1b223"},"vehicle_type_id":"4","last_reported":1740928107,"current_range_meters":8800,"station_id":"","pricing_plan_id":"cebpf4jnsgd1na2vs0mg"},{"bike_id":"fa1b9bb6-d2fb-48f0-9498-dbf786d36311","system_id":"levelo_inurba_marseille","lat":43.28467,"lon":5.35883,"is_reserved":false,"is_disabled":false,"rental_uris":{"android":"levelo://app?vid=fa1b9bb6-d2fb-48f0-9498-dbf786d36311","ios":"levelo://app?vid=fa1b9bb6-d2fb-48f0-9498-dbf786d36311"},"vehicle_type_id":"4","last_reported":1740928107,"current_range_meters":8800,"station_id":"ce4bhah2rcd13ifvqei0","pricing_plan_id":"cebpf4jnsgd1na2vs0mg"},{"bike_id":"a85e54c7-442c-45ec-aab2-b4137af33452","system_id":"levelo_inurba_marseille","lat":43.28416,"lon":5.34978,"is_reserved":false,"is_disabled":false,"rental_uris":{"android":"levelo://app?vid=a85e54c7-442c-45ec-aab2-b4137af33452","ios":"levelo://app?vid=a85e54c7-442c-45ec-aab2-b4137af33452"},"vehicle_type_id":"4","last_reported":1740928107,"current_range_meters":8800,"station_id":"ce4bhbh2rcd13ifvqepg","pricing_plan_id":"cebpf4jnsgd1na2vs0mg"},{"bike_id":"2ead0f9b-5ed2-48c6-a3c8-f653342b6078","system_id":"levelo_inurba_marseille","lat":43.28262,"lon":5.35075,"is_reserved":false,"is_disabled":false,"rental_uris":{"android":"levelo://app?vid=2ead0f9b-5ed2-48c6-a3c8-f653342b6078","ios":"levelo://app?vid=2ead0f9b-5ed2-48c6-a3c8-f653342b6078"},"vehicle_type_id":"4","last_reported":1740928107,"current_range_meters":8800,"station_id":"ce4bhbp2rcd13ifvqerg","pricing_plan_id":"cebpf4jnsgd1na2vs0mg"},{"bike_id":"bc0c0076-b990-4aa9-8b03-b2e5badde225","system_id":"levelo_inurba_marseille","lat":43.28268,"lon":5.35066,"is_reserved":false,"is_disabled":false,"rental_uris":{"android":"levelo://app?vid=bc0c0076-b990-4aa9-8b03-b2e5badde225","ios":"levelo://app?vid=bc0c0076-b990-4aa9-8b03-b2e5badde225"},"vehicle_type_id":"4","last_reported":1740928107,"current_range_meters":8800,"station_id":"ce4bhbp2rcd13ifvqerg","pricing_plan_id":"cebpf4jnsgd1na2vs0mg"},{"bike_id":"259d7138-5d9c-48a2-b6cb-30127d32f76b","system_id":"levelo_inurba_marseille","lat":43.24811,"lon":5.37458,"is_reserved":false,"is_disabled":false,"rental_uris":{"android":"levelo://app?vid=259d7138-5d9c-48a2-b6cb-30127d32f76b","ios":"levelo://app?vid=259d7138-5d9c-48a2-b6cb-30127d32f76b"},"vehicle_type_id":"4","last_reported":1740928107,"current_range_meters":8800,"station_id":"ce4bhgh2rcd13ifvqfb0","pricing_plan_id":"cebpf4jnsgd1na2vs0mg"},{"bike_id":"5d34db1e-338f-4da1-bfb0-ce7dd9dafcb7","system_id":"levelo_inurba_marseille","lat":43.23037,"lon":5.35474,"is_reserved":false,"is_disabled":false,"rental_uris":{"android":"levelo://app?vid=5d34db1e-338f-4da1-bfb0-ce7dd9dafcb7","ios":"levelo://app?vid=5d34db1e-338f-4da1-bfb0-ce7dd9dafcb7"},"vehicle_type_id":"4","last_reported":1740928107,"current_range_meters":8800,"station_id":"cpo3342slgdg3j2ifvpg","pricing_plan_id":"cebpf4jnsgd1na2vs0mg"},{"bike_id":"0693b9d6-4a9d-4e38-bfa2-80f934bcc2e3","system_id":"levelo_inurba_marseille","lat":43.24177,"lon":5.36389,"is_reserved":false,"is_disabled":false,"rental_uris":{"android":"levelo://app?vid=0693b9d6-4a9d-4e38-bfa2-80f934bcc2e3","ios":"levelo://app?vid=0693b9d6-4a9d-4e38-bfa2-80f934bcc2e3"},"vehicle_type_id":"4","last_reported":1740928107,"current_range_meters":8800,"station_id":"cpo36qri1sfpv3e86is0","pricing_plan_id":"cebpf4jnsgd1na2vs0mg"},{"bike_id":"d3a3a861-e56a-4886-9ee1-35b1baeb467d","system_id":"levelo_inurba_marseille","lat":43.28848,"lon":5.39298,"is_reserved":false,"is_disabled":false,"rental_uris":{"android":"levelo://app?vid=d3a3a861-e56a-4886-9ee1-35b1baeb467d","ios":"levelo://app?vid=d3a3a861-e56a-4886-9ee1-35b1baeb467d"},"vehicle_type_id":"4","last_reported":1740928107,"current_range_meters":9200,"station_id":"ce4bh2p2rcd13ifvqdi0","pricing_plan_id":"cebpf4jnsgd1na2vs0mg"},{"bike_id":"3afbfc90-347a-4437-872d-d5c653dee146","system_id":"levelo_inurba_marseille","lat":43.26236,"lon":5.39324,"is_reserved":false,"is_disabled":false,"rental_uris":{"android":"levelo://app?vid=3afbfc90-347a-4437-872d-d5c653dee146","ios":"levelo://app?vid=3afbfc90-347a-4437-872d-d5c653dee146"},"vehicle_type_id":"4","last_reported":1740928107,"current_range_meters":9200,"station_id":"ce4bh692rcd13ifvqe90","pricing_plan_id":"cebpf4jnsgd1na2vs0mg"},{"bike_id":"0c6ae537-229a-4d33-bc48-a3b75a80f5df","system_id":"levelo_inurba_marseille","lat":43.28414,"lon":5.34981,"is_reserved":false,"is_disabled":false,"rental_uris":{"android":"levelo://app?vid=0c6ae537-229a-4d33-bc48-a3b75a80f5df","ios":"levelo://app?vid=0c6ae537-229a-4d33-bc48-a3b75a80f5df"},"vehicle_type_id":"4","last_reported":1740928107,"current_range_meters":9200,"station_id":"ce4bhbh2rcd13ifvqepg","pricing_plan_id":"cebpf4jnsgd1na2vs0mg"},{"bike_id":"70d4979c-4327-47ac-844c-ca2d993fb09b","system_id":"levelo_inurba_marseille","lat":43.28281,"lon":5.35081,"is_reserved":false,"is_disabled":false,"rental_uris":{"android":"levelo://app?vid=70d4979c-4327-47ac-844c-ca2d993fb09b","ios":"levelo://app?vid=70d4979c-4327-47ac-844c-ca2d993fb09b"},"vehicle_type_id":"4","last_reported":1740928107,"current_range_meters":9200,"station_id":"ce4bhbp2rcd13ifvqerg","pricing_plan_id":"cebpf4jnsgd1na2vs0mg"},{"bike_id":"a1d80310-b2d3-4710-9639-f81e49023626","system_id":"levelo_inurba_marseille","lat":43.2396,"lon":5.36643,"is_reserved":false,"is_disabled":false,"rental_uris":{"android":"levelo://app?vid=a1d80310-b2d3-4710-9639-f81e49023626","ios":"levelo://app?vid=a1d80310-b2d3-4710-9639-f81e49023626"},"vehicle_type_id":"4","last_reported":1740928107,"current_range_meters":9200,"station_id":"ce4bhi12rcd13ifvqfp0","pricing_plan_id":"cebpf4jnsgd1na2vs0mg"},{"bike_id":"1697087c-3a15-4d2b-8fbc-57126afe45c3","system_id":"levelo_inurba_marseille","lat":43.23154,"lon":5.43709,"is_reserved":false,"is_disabled":false,"rental_uris":{"android":"levelo://app?vid=1697087c-3a15-4d2b-8fbc-57126afe45c3","ios":"levelo://app?vid=1697087c-3a15-4d2b-8fbc-57126afe45c3"},"vehicle_type_id":"4","last_reported":1740928107,"current_range_meters":9200,"station_id":"ce4bhmp2rcd13ifvqgog","pricing_plan_id":"cebpf4jnsgd1na2vs0mg"},{"bike_id":"5a93161c-e5c0-48ca-8037-39920e07dd69","system_id":"levelo_inurba_marseille","lat":43.23153,"lon":5.4371,"is_reserved":false,"is_disabled":false,"rental_uris":{"android":"levelo://app?vid=5a93161c-e5c0-48ca-8037-39920e07dd69","ios":"levelo://app?vid=5a93161c-e5c0-48ca-8037-39920e07dd69"},"vehicle_type_id":"4","last_reported":1740928107,"current_range_meters":9200,"station_id":"ce4bhmp2rcd13ifvqgog","pricing_plan_id":"cebpf4jnsgd1na2vs0mg"},{"bike_id":"43fc25eb-994d-4d6d-90bf-dce0957bf871","system_id":"levelo_inurba_marseille","lat":43.23066,"lon":5.35492,"is_reserved":false,"is_disabled":false,"rental_uris":{"android":"levelo://app?vid=43fc25eb-994d-4d6d-90bf-dce0957bf871","ios":"levelo://app?vid=43fc25eb-994d-4d6d-90bf-dce0957bf871"},"vehicle_type_id":"4","last_reported":1740928107,"current_range_meters":9200,"station_id":"cpo3342slgdg3j2ifvpg","pricing_plan_id":"cebpf4jnsgd1na2vs0mg"},{"bike_id":"b1a9b66a-afab-415a-bb50-dad75252634f","system_id":"levelo_inurba_marseille","lat":43.31683,"lon":5.4047,"is_reserved":false,"is_disabled":false,"rental_uris":{"android":"levelo://app?vid=b1a9b66a-afab-415a-bb50-dad75252634f","ios":"levelo://app?vid=b1a9b66a-afab-415a-bb50-dad75252634f"},"vehicle_type_id":"4","last_reported":1740928107,"current_range_meters":9600,"station_id":"ce4bh012rcd13ifvqd00","pricing_plan_id":"cebpf4jnsgd1na2vs0mg"},{"bike_id":"b8729eab-79d9-460b-90d1-aaf7a92e0614","system_id":"levelo_inurba_marseille","lat":43.23964,"lon":5.36632,"is_reserved":false,"is_disabled":false,"rental_uris":{"android":"levelo://app?vid=b8729eab-79d9-460b-90d1-aaf7a92e0614","ios":"levelo://app?vid=b8729eab-79d9-460b-90d1-aaf7a92e0614"},"vehicle_type_id":"4","last_reported":1740928107,"current_range_meters":9600,"station_id":"ce4bhi12rcd13ifvqfp0","pricing_plan_id":"cebpf4jnsgd1na2vs0mg"},{"bike_id":"7d943100-6c50-4dd3-b70b-c6a3ad34c0ef","system_id":"levelo_inurba_marseille","lat":43.25825,"lon":5.39436,"is_reserved":false,"is_disabled":false,"rental_uris":{"android":"levelo://app?vid=7d943100-6c50-4dd3-b70b-c6a3ad34c0ef","ios":"levelo://app?vid=7d943100-6c50-4dd3-b70b-c6a3ad34c0ef"},"vehicle_type_id":"4","last_reported":1740928107,"current_range_meters":9600,"station_id":"ce4bhip2rcd13ifvqft0","pricing_plan_id":"cebpf4jnsgd1na2vs0mg"},{"bike_id":"5365f3e3-1095-4284-be0e-5e73a795384b","system_id":"levelo_inurba_marseille","lat":43.25865,"lon":5.40889,"is_reserved":false,"is_disabled":false,"rental_uris":{"android":"levelo://app?vid=5365f3e3-1095-4284-be0e-5e73a795384b","ios":"levelo://app?vid=5365f3e3-1095-4284-be0e-5e73a795384b"},"vehicle_type_id":"4","last_reported":1740928107,"current_range_meters":9600,"station_id":"ce4bhkp2rcd13ifvqgd0","pricing_plan_id":"cebpf4jnsgd1na2vs0mg"},{"bike_id":"f4af2fc5-12b1-413f-b3e8-70775a52b007","system_id":"levelo_inurba_marseille","lat":43.24185,"lon":5.3972,"is_reserved":false,"is_disabled":false,"rental_uris":{"android":"levelo://app?vid=f4af2fc5-12b1-413f-b3e8-70775a52b007","ios":"levelo://app?vid=f4af2fc5-12b1-413f-b3e8-70775a52b007"},"vehicle_type_id":"4","last_reported":1740928107,"current_range_meters":9600,"station_id":"ce4bhn12rcd13ifvqgpg","pricing_plan_id":"cebpf4jnsgd1na2vs0mg"},{"bike_id":"79e33670-35cf-4351-9d50-9b0309fc9adb","system_id":"levelo_inurba_marseille","lat":43.23052,"lon":5.35508,"is_reserved":false,"is_disabled":false,"rental_uris":{"android":"levelo://app?vid=79e33670-35cf-4351-9d50-9b0309fc9adb","ios":"levelo://app?vid=79e33670-35cf-4351-9d50-9b0309fc9adb"},"vehicle_type_id":"4","last_reported":1740928107,"current_range_meters":9600,"station_id":"cpo3342slgdg3j2ifvpg","pricing_plan_id":"cebpf4jnsgd1na2vs0mg"},{"bike_id":"13985eab-e3f9-4cc2-ba2f-d24a29935124","system_id":"levelo_inurba_marseille","lat":43.30799,"lon":5.37364,"is_reserved":false,"is_disabled":false,"rental_uris":{"android":"levelo://app?vid=13985eab-e3f9-4cc2-ba2f-d24a29935124","ios":"levelo://app?vid=13985eab-e3f9-4cc2-ba2f-d24a29935124"},"vehicle_type_id":"4","last_reported":1740928107,"current_range_meters":10000,"station_id":"","pricing_plan_id":"cebpf4jnsgd1na2vs0mg"},{"bike_id":"1d72a8d9-f5c8-44bd-93b5-a4d98eba0460","system_id":"levelo_inurba_marseille","lat":43.28473,"lon":5.38417,"is_reserved":false,"is_disabled":false,"rental_uris":{"android":"levelo://app?vid=1d72a8d9-f5c8-44bd-93b5-a4d98eba0460","ios":"levelo://app?vid=1d72a8d9-f5c8-44bd-93b5-a4d98eba0460"},"vehicle_type_id":"4","last_reported":1740928107,"current_range_meters":10000,"station_id":"ce4bh512rcd13ifvqe3g","pricing_plan_id":"cebpf4jnsgd1na2vs0mg"},{"bike_id":"f711a177-8c95-4e96-bcaf-e6e0dc33f59e","system_id":"levelo_inurba_marseille","lat":43.24388,"lon":5.37049,"is_reserved":false,"is_disabled":false,"rental_uris":{"android":"levelo://app?vid=f711a177-8c95-4e96-bcaf-e6e0dc33f59e","ios":"levelo://app?vid=f711a177-8c95-4e96-bcaf-e6e0dc33f59e"},"vehicle_type_id":"4","last_reported":1740928107,"current_range_meters":10000,"station_id":"ce4bhhh2rcd13ifvqfk0","pricing_plan_id":"cebpf4jnsgd1na2vs0mg"},{"bike_id":"d40bd3ed-f9b3-4cdc-aad9-29c926f844ab","system_id":"levelo_inurba_marseille","lat":43.24091,"lon":5.37759,"is_reserved":false,"is_disabled":false,"rental_uris":{"android":"levelo://app?vid=d40bd3ed-f9b3-4cdc-aad9-29c926f844ab","ios":"levelo://app?vid=d40bd3ed-f9b3-4cdc-aad9-29c926f844ab"},"vehicle_type_id":"4","last_reported":1740928107,"current_range_meters":10000,"station_id":"ce4bhnp2rcd13ifvqgvg","pricing_plan_id":"cebpf4jnsgd1na2vs0mg"},{"bike_id":"e8d99899-b3de-4f52-a03a-97d8c4121ef2","system_id":"levelo_inurba_marseille","lat":43.28263,"lon":5.35071,"is_reserved":false,"is_disabled":false,"rental_uris":{"android":"levelo://app?vid=e8d99899-b3de-4f52-a03a-97d8c4121ef2","ios":"levelo://app?vid=e8d99899-b3de-4f52-a03a-97d8c4121ef2"},"vehicle_type_id":"4","last_reported":1740928107,"current_range_meters":10800,"station_id":"ce4bhbp2rcd13ifvqerg","pricing_plan_id":"cebpf4jnsgd1na2vs0mg"},{"bike_id":"9f2bbafd-9a89-4d79-a69a-a929085d6a4e","system_id":"levelo_inurba_marseille","lat":43.24815,"lon":5.37453,"is_reserved":false,"is_disabled":false,"rental_uris":{"android":"levelo://app?vid=9f2bbafd-9a89-4d79-a69a-a929085d6a4e","ios":"levelo://app?vid=9f2bbafd-9a89-4d79-a69a-a929085d6a4e"},"vehicle_type_id":"4","last_reported":1740928107,"current_range_meters":10800,"station_id":"ce4bhgh2rcd13ifvqfb0","pricing_plan_id":"cebpf4jnsgd1na2vs0mg"},{"bike_id":"10f746a9-5a94-4f57-ae07-76e73917a288","system_id":"levelo_inurba_marseille","lat":43.23156,"lon":5.43726,"is_reserved":false,"is_disabled":false,"rental_uris":{"android":"levelo://app?vid=10f746a9-5a94-4f57-ae07-76e73917a288","ios":"levelo://app?vid=10f746a9-5a94-4f57-ae07-76e73917a288"},"vehicle_type_id":"4","last_reported":1740928107,"current_range_meters":10800,"station_id":"ce4bhmp2rcd13ifvqgog","pricing_plan_id":"cebpf4jnsgd1na2vs0mg"},{"bike_id":"c66a61e8-acac-4c53-8abb-0a01ae4beade","system_id":"levelo_inurba_marseille","lat":43.24817,"lon":5.37453,"is_reserved":false,"is_disabled":false,"rental_uris":{"android":"levelo://app?vid=c66a61e8-acac-4c53-8abb-0a01ae4beade","ios":"levelo://app?vid=c66a61e8-acac-4c53-8abb-0a01ae4beade"},"vehicle_type_id":"4","last_reported":1740928107,"current_range_meters":11200,"station_id":"ce4bhgh2rcd13ifvqfb0","pricing_plan_id":"cebpf4jnsgd1na2vs0mg"},{"bike_id":"e209765a-af47-4142-a090-f1ed5f6d4ba6","system_id":"levelo_inurba_marseille","lat":43.25006,"lon":5.38916,"is_reserved":false,"is_disabled":false,"rental_uris":{"android":"levelo://app?vid=e209765a-af47-4142-a090-f1ed5f6d4ba6","ios":"levelo://app?vid=e209765a-af47-4142-a090-f1ed5f6d4ba6"},"vehicle_type_id":"4","last_reported":1740928107,"current_range_meters":11200,"station_id":"ce4bhgp2rcd13ifvqfd0","pricing_plan_id":"cebpf4jnsgd1na2vs0mg"},{"bike_id":"cadf90da-37b9-4732-855f-a9cd1d61a101","system_id":"levelo_inurba_marseille","lat":43.26229,"lon":5.4045,"is_reserved":false,"is_disabled":false,"rental_uris":{"android":"levelo://app?vid=cadf90da-37b9-4732-855f-a9cd1d61a101","ios":"levelo://app?vid=cadf90da-37b9-4732-855f-a9cd1d61a101"},"vehicle_type_id":"4","last_reported":1740928107,"current_range_meters":11200,"station_id":"ce4bhmh2rcd13ifvqgmg","pricing_plan_id":"cebpf4jnsgd1na2vs0mg"},{"bike_id":"2bdb8b61-809b-4a10-8d71-2f56e4a6fa2d","system_id":"levelo_inurba_marseille","lat":43.26456,"lon":5.37326,"is_reserved":false,"is_disabled":false,"rental_uris":{"android":"levelo://app?vid=2bdb8b61-809b-4a10-8d71-2f56e4a6fa2d","ios":"levelo://app?vid=2bdb8b61-809b-4a10-8d71-2f56e4a6fa2d"},"vehicle_type_id":"4","last_reported":1740928107,"current_range_meters":11600,"station_id":"","pricing_plan_id":"cebpf4jnsgd1na2vs0mg"},{"bike_id":"3da1231d-2177-46ae-932d-e7573824107a","system_id":"levelo_inurba_marseille","lat":43.27367,"lon":5.36255,"is_reserved":false,"is_disabled":false,"rental_uris":{"android":"levelo://app?vid=3da1231d-2177-46ae-932d-e7573824107a","ios":"levelo://app?vid=3da1231d-2177-46ae-932d-e7573824107a"},"vehicle_type_id":"4","last_reported":1740928107,"current_range_meters":11600,"station_id":"ce4bhbh2rcd13ifvqeo0","pricing_plan_id":"cebpf4jnsgd1na2vs0mg"},{"bike_id":"e9281800-89ae-463d-bf71-0245836aa272","system_id":"levelo_inurba_marseille","lat":43.28413,"lon":5.34978,"is_reserved":false,"is_disabled":false,"rental_uris":{"android":"levelo://app?vid=e9281800-89ae-463d-bf71-0245836aa272","ios":"levelo://app?vid=e9281800-89ae-463d-bf71-0245836aa272"},"vehicle_type_id":"4","last_reported":1740928107,"current_range_meters":11600,"station_id":"ce4bhbh2rcd13ifvqepg","pricing_plan_id":"cebpf4jnsgd1na2vs0mg"},{"bike_id":"fc4fbbc4-3ba4-429f-8121-8efe16b3448e","system_id":"levelo_inurba_marseille","lat":43.2306,"lon":5.35484,"is_reserved":false,"is_disabled":false,"rental_uris":{"android":"levelo://app?vid=fc4fbbc4-3ba4-429f-8121-8efe16b3448e","ios":"levelo://app?vid=fc4fbbc4-3ba4-429f-8121-8efe16b3448e"},"vehicle_type_id":"4","last_reported":1740928107,"current_range_meters":11600,"station_id":"cpo3342slgdg3j2ifvpg","pricing_plan_id":"cebpf4jnsgd1na2vs0mg"},{"bike_id":"3c9c65ff-a2a8-4c52-a6f4-62bcc77556ef","system_id":"levelo_inurba_marseille","lat":43.24163,"lon":5.36411,"is_reserved":false,"is_disabled":false,"rental_uris":{"android":"levelo://app?vid=3c9c65ff-a2a8-4c52-a6f4-62bcc77556ef","ios":"levelo://app?vid=3c9c65ff-a2a8-4c52-a6f4-62bcc77556ef"},"vehicle_type_id":"4","last_reported":1740928107,"current_range_meters":11600,"station_id":"cpo36qri1sfpv3e86is0","pricing_plan_id":"cebpf4jnsgd1na2vs0mg"},{"bike_id":"88d09cbc-1497-4fea-99b9-c1fe29ff58f0","system_id":"levelo_inurba_marseille","lat":43.28041,"lon":5.366086,"is_reserved":false,"is_disabled":false,"rental_uris":{"android":"levelo://app?vid=88d09cbc-1497-4fea-99b9-c1fe29ff58f0","ios":"levelo://app?vid=88d09cbc-1497-4fea-99b9-c1fe29ff58f0"},"vehicle_type_id":"4","last_reported":1740928107,"current_range_meters":12000,"station_id":"","pricing_plan_id":"cebpf4jnsgd1na2vs0mg"},{"bike_id":"8c528749-43df-40d6-b9b4-e80d7e8bda23","system_id":"levelo_inurba_marseille","lat":43.26564,"lon":5.37308,"is_reserved":false,"is_disabled":false,"rental_uris":{"android":"levelo://app?vid=8c528749-43df-40d6-b9b4-e80d7e8bda23","ios":"levelo://app?vid=8c528749-43df-40d6-b9b4-e80d7e8bda23"},"vehicle_type_id":"4","last_reported":1740928107,"current_range_meters":12000,"station_id":"ce4bhg12rcd13ifvqf70","pricing_plan_id":"cebpf4jnsgd1na2vs0mg"},{"bike_id":"ccab9dd3-2745-4c8d-9831-6d29bb2ae6f8","system_id":"levelo_inurba_marseille","lat":43.24665,"lon":5.38169,"is_reserved":false,"is_disabled":false,"rental_uris":{"android":"levelo://app?vid=ccab9dd3-2745-4c8d-9831-6d29bb2ae6f8","ios":"levelo://app?vid=ccab9dd3-2745-4c8d-9831-6d29bb2ae6f8"},"vehicle_type_id":"4","last_reported":1740928107,"current_range_meters":12000,"station_id":"ce4bhih2rcd13ifvqfr0","pricing_plan_id":"cebpf4jnsgd1na2vs0mg"},{"bike_id":"0e37a980-00c1-4d93-96e8-ebfff90a65df","system_id":"levelo_inurba_marseille","lat":43.23038,"lon":5.35561,"is_reserved":false,"is_disabled":false,"rental_uris":{"android":"levelo://app?vid=0e37a980-00c1-4d93-96e8-ebfff90a65df","ios":"levelo://app?vid=0e37a980-00c1-4d93-96e8-ebfff90a65df"},"vehicle_type_id":"4","last_reported":1740928107,"current_range_meters":12000,"station_id":"cpo3342slgdg3j2ifvpg","pricing_plan_id":"cebpf4jnsgd1na2vs0mg"},{"bike_id":"0804729d-ab0a-474a-b041-5588e6d77ba7","system_id":"levelo_inurba_marseille","lat":43.29845,"lon":5.36278,"is_reserved":false,"is_disabled":false,"rental_uris":{"android":"levelo://app?vid=0804729d-ab0a-474a-b041-5588e6d77ba7","ios":"levelo://app?vid=0804729d-ab0a-474a-b041-5588e6d77ba7"},"vehicle_type_id":"4","last_reported":1740928107,"current_range_meters":12400,"station_id":"ce4bgpp2rcd13ifvqc3g","pricing_plan_id":"cebpf4jnsgd1na2vs0mg"},{"bike_id":"2a79837c-e0f7-49eb-b990-8ffed5a8b84b","system_id":"levelo_inurba_marseille","lat":43.2842,"lon":5.34993,"is_reserved":false,"is_disabled":false,"rental_uris":{"android":"levelo://app?vid=2a79837c-e0f7-49eb-b990-8ffed5a8b84b","ios":"levelo://app?vid=2a79837c-e0f7-49eb-b990-8ffed5a8b84b"},"vehicle_type_id":"4","last_reported":1740928107,"current_range_meters":12400,"station_id":"ce4bhbh2rcd13ifvqepg","pricing_plan_id":"cebpf4jnsgd1na2vs0mg"},{"bike_id":"427bc3ee-e008-499f-9305-6248c5a98569","system_id":"levelo_inurba_marseille","lat":43.32049,"lon":5.41564,"is_reserved":false,"is_disabled":false,"rental_uris":{"android":"levelo://app?vid=427bc3ee-e008-499f-9305-6248c5a98569","ios":"levelo://app?vid=427bc3ee-e008-499f-9305-6248c5a98569"},"vehicle_type_id":"4","last_reported":1740928107,"current_range_meters":12400,"station_id":"ce4bhq92rcd13ifvqhkg","pricing_plan_id":"cebpf4jnsgd1na2vs0mg"},{"bike_id":"b89b9e97-65c4-4473-a19f-c73995b54f7e","system_id":"levelo_inurba_marseille","lat":43.230681,"lon":5.354977,"is_reserved":false,"is_disabled":false,"rental_uris":{"android":"levelo://app?vid=b89b9e97-65c4-4473-a19f-c73995b54f7e","ios":"levelo://app?vid=b89b9e97-65c4-4473-a19f-c73995b54f7e"},"vehicle_type_id":"4","last_reported":1740928107,"current_range_meters":12400,"station_id":"cpo3342slgdg3j2ifvpg","pricing_plan_id":"cebpf4jnsgd1na2vs0mg"},{"bike_id":"fd52364b-51e2-4dfe-a157-8694d87b8ead","system_id":"levelo_inurba_marseille","lat":43.24998,"lon":5.38917,"is_reserved":false,"is_disabled":false,"rental_uris":{"android":"levelo://app?vid=fd52364b-51e2-4dfe-a157-8694d87b8ead","ios":"levelo://app?vid=fd52364b-51e2-4dfe-a157-8694d87b8ead"},"vehicle_type_id":"4","last_reported":1740928107,"current_range_meters":12800,"station_id":"ce4bhgp2rcd13ifvqfd0","pricing_plan_id":"cebpf4jnsgd1na2vs0mg"},{"bike_id":"70775753-b571-4bcf-bc75-320e08bf7dd9","system_id":"levelo_inurba_marseille","lat":43.250992,"lon":5.403313,"is_reserved":false,"is_disabled":false,"rental_uris":{"android":"levelo://app?vid=70775753-b571-4bcf-bc75-320e08bf7dd9","ios":"levelo://app?vid=70775753-b571-4bcf-bc75-320e08bf7dd9"},"vehicle_type_id":"4","last_reported":1740928107,"current_range_meters":12800,"station_id":"ce4bhlh2rcd13ifvqgig","pricing_plan_id":"cebpf4jnsgd1na2vs0mg"},{"bike_id":"d582d420-ad76-4943-9aaa-ec3ad66c7cfa","system_id":"levelo_inurba_marseille","lat":43.24057,"lon":5.37762,"is_reserved":false,"is_disabled":false,"rental_uris":{"android":"levelo://app?vid=d582d420-ad76-4943-9aaa-ec3ad66c7cfa","ios":"levelo://app?vid=d582d420-ad76-4943-9aaa-ec3ad66c7cfa"},"vehicle_type_id":"4","last_reported":1740928107,"current_range_meters":12800,"station_id":"ce4bhnp2rcd13ifvqgvg","pricing_plan_id":"cebpf4jnsgd1na2vs0mg"},{"bike_id":"4987e077-b9c1-4ad1-bae1-66cf51f9ba1d","system_id":"levelo_inurba_marseille","lat":43.23194,"lon":5.35554,"is_reserved":false,"is_disabled":false,"rental_uris":{"android":"levelo://app?vid=4987e077-b9c1-4ad1-bae1-66cf51f9ba1d","ios":"levelo://app?vid=4987e077-b9c1-4ad1-bae1-66cf51f9ba1d"},"vehicle_type_id":"4","last_reported":1740928107,"current_range_meters":12800,"station_id":"ce4bhu92rcd13ifvqi70","pricing_plan_id":"cebpf4jnsgd1na2vs0mg"},{"bike_id":"61e3c74e-7012-4cb6-8ef4-17db5d82fdf7","system_id":"levelo_inurba_marseille","lat":43.25317,"lon":5.3927,"is_reserved":false,"is_disabled":false,"rental_uris":{"android":"levelo://app?vid=61e3c74e-7012-4cb6-8ef4-17db5d82fdf7","ios":"levelo://app?vid=61e3c74e-7012-4cb6-8ef4-17db5d82fdf7"},"vehicle_type_id":"4","last_reported":1740928107,"current_range_meters":13600,"station_id":"","pricing_plan_id":"cebpf4jnsgd1na2vs0mg"},{"bike_id":"12ab922a-f881-4968-9e63-ec8d58f2ca05","system_id":"levelo_inurba_marseille","lat":43.24803,"lon":5.37475,"is_reserved":false,"is_disabled":false,"rental_uris":{"android":"levelo://app?vid=12ab922a-f881-4968-9e63-ec8d58f2ca05","ios":"levelo://app?vid=12ab922a-f881-4968-9e63-ec8d58f2ca05"},"vehicle_type_id":"4","last_reported":1740928107,"current_range_meters":13600,"station_id":"ce4bhgh2rcd13ifvqfb0","pricing_plan_id":"cebpf4jnsgd1na2vs0mg"},{"bike_id":"e1a973e8-2cbd-47d5-8517-a16e8e0d81ba","system_id":"levelo_inurba_marseille","lat":43.32489,"lon":5.36562,"is_reserved":false,"is_disabled":false,"rental_uris":{"android":"levelo://app?vid=e1a973e8-2cbd-47d5-8517-a16e8e0d81ba","ios":"levelo://app?vid=e1a973e8-2cbd-47d5-8517-a16e8e0d81ba"},"vehicle_type_id":"4","last_reported":1740928107,"current_range_meters":13600,"station_id":"ce4bhs12rcd13ifvqhvg","pricing_plan_id":"cebpf4jnsgd1na2vs0mg"},{"bike_id":"dc07e06d-0854-459d-a227-3d6eb13e343d","system_id":"levelo_inurba_marseille","lat":43.23192,"lon":5.3556,"is_reserved":false,"is_disabled":false,"rental_uris":{"android":"levelo://app?vid=dc07e06d-0854-459d-a227-3d6eb13e343d","ios":"levelo://app?vid=dc07e06d-0854-459d-a227-3d6eb13e343d"},"vehicle_type_id":"4","last_reported":1740928107,"current_range_meters":13600,"station_id":"ce4bhu92rcd13ifvqi70","pricing_plan_id":"cebpf4jnsgd1na2vs0mg"},{"bike_id":"1e0aad7d-954b-4f33-b8db-414e30343e89","system_id":"levelo_inurba_marseille","lat":43.31073,"lon":5.38351,"is_reserved":false,"is_disabled":false,"rental_uris":{"android":"levelo://app?vid=1e0aad7d-954b-4f33-b8db-414e30343e89","ios":"levelo://app?vid=1e0aad7d-954b-4f33-b8db-414e30343e89"},"vehicle_type_id":"4","last_reported":1740928107,"current_range_meters":14000,"station_id":"ce4bgv92rcd13ifvqcr0","pricing_plan_id":"cebpf4jnsgd1na2vs0mg"},{"bike_id":"8965f7e0-47f9-40e4-a2ea-5e1c24282eda","system_id":"levelo_inurba_marseille","lat":43.27368,"lon":5.36257,"is_reserved":false,"is_disabled":false,"rental_uris":{"android":"levelo://app?vid=8965f7e0-47f9-40e4-a2ea-5e1c24282eda","ios":"levelo://app?vid=8965f7e0-47f9-40e4-a2ea-5e1c24282eda"},"vehicle_type_id":"4","last_reported":1740928107,"current_range_meters":14000,"station_id":"ce4bhbh2rcd13ifvqeo0","pricing_plan_id":"cebpf4jnsgd1na2vs0mg"},{"bike_id":"186f4738-14ff-4b24-ba42-5c5311a94d3d","system_id":"levelo_inurba_marseille","lat":43.27361,"lon":5.36254,"is_reserved":false,"is_disabled":false,"rental_uris":{"android":"levelo://app?vid=186f4738-14ff-4b24-ba42-5c5311a94d3d","ios":"levelo://app?vid=186f4738-14ff-4b24-ba42-5c5311a94d3d"},"vehicle_type_id":"4","last_reported":1740928107,"current_range_meters":14000,"station_id":"ce4bhbh2rcd13ifvqeo0","pricing_plan_id":"cebpf4jnsgd1na2vs0mg"},{"bike_id":"0f05a555-e598-43c7-bb27-5b9b48daab9f","system_id":"levelo_inurba_marseille","lat":43.24397,"lon":5.37044,"is_reserved":false,"is_disabled":false,"rental_uris":{"android":"levelo://app?vid=0f05a555-e598-43c7-bb27-5b9b48daab9f","ios":"levelo://app?vid=0f05a555-e598-43c7-bb27-5b9b48daab9f"},"vehicle_type_id":"4","last_reported":1740928107,"current_range_meters":14000,"station_id":"ce4bhhh2rcd13ifvqfk0","pricing_plan_id":"cebpf4jnsgd1na2vs0mg"},{"bike_id":"7ee8b473-5f24-443c-b1a9-185831e40175","system_id":"levelo_inurba_marseille","lat":43.24396,"lon":5.37057,"is_reserved":false,"is_disabled":false,"rental_uris":{"android":"levelo://app?vid=7ee8b473-5f24-443c-b1a9-185831e40175","ios":"levelo://app?vid=7ee8b473-5f24-443c-b1a9-185831e40175"},"vehicle_type_id":"4","last_reported":1740928107,"current_range_meters":14000,"station_id":"ce4bhhh2rcd13ifvqfk0","pricing_plan_id":"cebpf4jnsgd1na2vs0mg"},{"bike_id":"e5a52438-cfdc-4d2c-bea9-c3ac740c704b","system_id":"levelo_inurba_marseille","lat":43.23152,"lon":5.43702,"is_reserved":false,"is_disabled":false,"rental_uris":{"android":"levelo://app?vid=e5a52438-cfdc-4d2c-bea9-c3ac740c704b","ios":"levelo://app?vid=e5a52438-cfdc-4d2c-bea9-c3ac740c704b"},"vehicle_type_id":"4","last_reported":1740928107,"current_range_meters":14000,"station_id":"ce4bhmp2rcd13ifvqgog","pricing_plan_id":"cebpf4jnsgd1na2vs0mg"},{"bike_id":"d23f519a-ec51-4d19-821b-41d2d8ce3029","system_id":"levelo_inurba_marseille","lat":43.23189,"lon":5.39986,"is_reserved":false,"is_disabled":false,"rental_uris":{"android":"levelo://app?vid=d23f519a-ec51-4d19-821b-41d2d8ce3029","ios":"levelo://app?vid=d23f519a-ec51-4d19-821b-41d2d8ce3029"},"vehicle_type_id":"4","last_reported":1740928107,"current_range_meters":14000,"station_id":"ce4bhn12rcd13ifvqgqg","pricing_plan_id":"cebpf4jnsgd1na2vs0mg"},{"bike_id":"f92cdb3e-8200-406c-a004-1416ff1d1dbb","system_id":"levelo_inurba_marseille","lat":43.28857,"lon":5.43305,"is_reserved":false,"is_disabled":false,"rental_uris":{"android":"levelo://app?vid=f92cdb3e-8200-406c-a004-1416ff1d1dbb","ios":"levelo://app?vid=f92cdb3e-8200-406c-a004-1416ff1d1dbb"},"vehicle_type_id":"4","last_reported":1740928107,"current_range_meters":14400,"station_id":"","pricing_plan_id":"cebpf4jnsgd1na2vs0mg"},{"bike_id":"464820c7-bc0e-4618-9a58-083f84cfbc98","system_id":"levelo_inurba_marseille","lat":43.31224,"lon":5.36861,"is_reserved":false,"is_disabled":false,"rental_uris":{"android":"levelo://app?vid=464820c7-bc0e-4618-9a58-083f84cfbc98","ios":"levelo://app?vid=464820c7-bc0e-4618-9a58-083f84cfbc98"},"vehicle_type_id":"4","last_reported":1740928107,"current_range_meters":14400,"station_id":"ce4bgl92rcd13ifvqbq0","pricing_plan_id":"cebpf4jnsgd1na2vs0mg"},{"bike_id":"09e7b03d-b6ce-4df7-9c5a-62e2d2054c70","system_id":"levelo_inurba_marseille","lat":43.305498,"lon":5.365202,"is_reserved":false,"is_disabled":false,"rental_uris":{"android":"levelo://app?vid=09e7b03d-b6ce-4df7-9c5a-62e2d2054c70","ios":"levelo://app?vid=09e7b03d-b6ce-4df7-9c5a-62e2d2054c70"},"vehicle_type_id":"4","last_reported":1740928107,"current_range_meters":14400,"station_id":"ce4bgs12rcd13ifvqcag","pricing_plan_id":"cebpf4jnsgd1na2vs0mg"},{"bike_id":"b18cd12d-f7f4-4fe1-aad8-800a36bfd2b5","system_id":"levelo_inurba_marseille","lat":43.30277,"lon":5.37696,"is_reserved":false,"is_disabled":false,"rental_uris":{"android":"levelo://app?vid=b18cd12d-f7f4-4fe1-aad8-800a36bfd2b5","ios":"levelo://app?vid=b18cd12d-f7f4-4fe1-aad8-800a36bfd2b5"},"vehicle_type_id":"4","last_reported":1740928107,"current_range_meters":14400,"station_id":"ce4bguh2rcd13ifvqcj0","pricing_plan_id":"cebpf4jnsgd1na2vs0mg"},{"bike_id":"d23a376a-d7c8-4b88-8733-00e018f6b59f","system_id":"levelo_inurba_marseille","lat":43.27383,"lon":5.36253,"is_reserved":false,"is_disabled":false,"rental_uris":{"android":"levelo://app?vid=d23a376a-d7c8-4b88-8733-00e018f6b59f","ios":"levelo://app?vid=d23a376a-d7c8-4b88-8733-00e018f6b59f"},"vehicle_type_id":"4","last_reported":1740928107,"current_range_meters":14400,"station_id":"ce4bhbh2rcd13ifvqeo0","pricing_plan_id":"cebpf4jnsgd1na2vs0mg"},{"bike_id":"95cd5fee-78de-4f04-9458-0bcee2561cff","system_id":"levelo_inurba_marseille","lat":43.28617,"lon":5.35082,"is_reserved":false,"is_disabled":false,"rental_uris":{"android":"levelo://app?vid=95cd5fee-78de-4f04-9458-0bcee2561cff","ios":"levelo://app?vid=95cd5fee-78de-4f04-9458-0bcee2561cff"},"vehicle_type_id":"4","last_reported":1740928107,"current_range_meters":14400,"station_id":"ce4bhch2rcd13ifvqeug","pricing_plan_id":"cebpf4jnsgd1na2vs0mg"},{"bike_id":"0a18d990-9fb5-449d-85ff-bc45b7f0ff4a","system_id":"levelo_inurba_marseille","lat":43.30355,"lon":5.41877,"is_reserved":false,"is_disabled":false,"rental_uris":{"android":"levelo://app?vid=0a18d990-9fb5-449d-85ff-bc45b7f0ff4a","ios":"levelo://app?vid=0a18d990-9fb5-449d-85ff-bc45b7f0ff4a"},"vehicle_type_id":"4","last_reported":1740928107,"current_range_meters":14400,"station_id":"ce4bhop2rcd13ifvqh7g","pricing_plan_id":"cebpf4jnsgd1na2vs0mg"},{"bike_id":"eb7c10b7-5f79-4f40-a199-e6e8ab6cac1d","system_id":"levelo_inurba_marseille","lat":43.236028,"lon":5.361763,"is_reserved":false,"is_disabled":false,"rental_uris":{"android":"levelo://app?vid=eb7c10b7-5f79-4f40-a199-e6e8ab6cac1d","ios":"levelo://app?vid=eb7c10b7-5f79-4f40-a199-e6e8ab6cac1d"},"vehicle_type_id":"4","last_reported":1740928107,"current_range_meters":14400,"station_id":"cpo3342slgdg3j2ifvpg","pricing_plan_id":"cebpf4jnsgd1na2vs0mg"},{"bike_id":"cbc49db8-4cfb-45b9-8d87-9162bd6455fa","system_id":"levelo_inurba_marseille","lat":43.23962,"lon":5.36639,"is_reserved":false,"is_disabled":false,"rental_uris":{"android":"levelo://app?vid=cbc49db8-4cfb-45b9-8d87-9162bd6455fa","ios":"levelo://app?vid=cbc49db8-4cfb-45b9-8d87-9162bd6455fa"},"vehicle_type_id":"4","last_reported":1740928107,"current_range_meters":14800,"station_id":"ce4bhi12rcd13ifvqfp0","pricing_plan_id":"cebpf4jnsgd1na2vs0mg"},{"bike_id":"89dc3b79-cdc1-4672-86c6-e3e4d12f6d6c","system_id":"levelo_inurba_marseille","lat":43.26951,"lon":5.40255,"is_reserved":false,"is_disabled":false,"rental_uris":{"android":"levelo://app?vid=89dc3b79-cdc1-4672-86c6-e3e4d12f6d6c","ios":"levelo://app?vid=89dc3b79-cdc1-4672-86c6-e3e4d12f6d6c"},"vehicle_type_id":"4","last_reported":1740928107,"current_range_meters":14800,"station_id":"cjm6bp8fraef2m0cb0m0","pricing_plan_id":"cebpf4jnsgd1na2vs0mg"},{"bike_id":"18ed809a-93be-4ceb-a90d-b4661309b51d","system_id":"levelo_inurba_marseille","lat":43.30946,"lon":5.37479,"is_reserved":false,"is_disabled":false,"rental_uris":{"android":"levelo://app?vid=18ed809a-93be-4ceb-a90d-b4661309b51d","ios":"levelo://app?vid=18ed809a-93be-4ceb-a90d-b4661309b51d"},"vehicle_type_id":"4","last_reported":1740928107,"current_range_meters":15200,"station_id":"","pricing_plan_id":"cebpf4jnsgd1na2vs0mg"},{"bike_id":"04004e1e-17ca-403c-ac1f-0773735adf97","system_id":"levelo_inurba_marseille","lat":43.27371,"lon":5.3626,"is_reserved":false,"is_disabled":false,"rental_uris":{"android":"levelo://app?vid=04004e1e-17ca-403c-ac1f-0773735adf97","ios":"levelo://app?vid=04004e1e-17ca-403c-ac1f-0773735adf97"},"vehicle_type_id":"4","last_reported":1740928107,"current_range_meters":15200,"station_id":"ce4bhbh2rcd13ifvqeo0","pricing_plan_id":"cebpf4jnsgd1na2vs0mg"},{"bike_id":"fb213a6c-c03c-4543-a737-2a9479c4c6a6","system_id":"levelo_inurba_marseille","lat":43.27061,"lon":5.40269,"is_reserved":false,"is_disabled":false,"rental_uris":{"android":"levelo://app?vid=fb213a6c-c03c-4543-a737-2a9479c4c6a6","ios":"levelo://app?vid=fb213a6c-c03c-4543-a737-2a9479c4c6a6"},"vehicle_type_id":"4","last_reported":1740928107,"current_range_meters":15200,"station_id":"ce4bhk92rcd13ifvqgc0","pricing_plan_id":"cebpf4jnsgd1na2vs0mg"},{"bike_id":"c5b35fc3-133b-4fcd-9bc1-000b1b46221f","system_id":"levelo_inurba_marseille","lat":43.24181,"lon":5.36393,"is_reserved":false,"is_disabled":false,"rental_uris":{"android":"levelo://app?vid=c5b35fc3-133b-4fcd-9bc1-000b1b46221f","ios":"levelo://app?vid=c5b35fc3-133b-4fcd-9bc1-000b1b46221f"},"vehicle_type_id":"4","last_reported":1740928107,"current_range_meters":15200,"station_id":"cpo36qri1sfpv3e86is0","pricing_plan_id":"cebpf4jnsgd1na2vs0mg"},{"bike_id":"cc836fe0-3cfd-4fe9-beb4-1fec15d76872","system_id":"levelo_inurba_marseille","lat":43.30428,"lon":5.37332,"is_reserved":false,"is_disabled":false,"rental_uris":{"android":"levelo://app?vid=cc836fe0-3cfd-4fe9-beb4-1fec15d76872","ios":"levelo://app?vid=cc836fe0-3cfd-4fe9-beb4-1fec15d76872"},"vehicle_type_id":"4","last_reported":1740928107,"current_range_meters":16000,"station_id":"","pricing_plan_id":"cebpf4jnsgd1na2vs0mg"},{"bike_id":"5cc3e7f4-3d39-4b69-ba74-c6f26f45395c","system_id":"levelo_inurba_marseille","lat":43.28624,"lon":5.35099,"is_reserved":false,"is_disabled":false,"rental_uris":{"android":"levelo://app?vid=5cc3e7f4-3d39-4b69-ba74-c6f26f45395c","ios":"levelo://app?vid=5cc3e7f4-3d39-4b69-ba74-c6f26f45395c"},"vehicle_type_id":"4","last_reported":1740928107,"current_range_meters":16000,"station_id":"ce4bhch2rcd13ifvqeug","pricing_plan_id":"cebpf4jnsgd1na2vs0mg"},{"bike_id":"35de5d9e-453d-4b6e-a49a-d72de279088a","system_id":"levelo_inurba_marseille","lat":43.26183,"lon":5.37468,"is_reserved":false,"is_disabled":false,"rental_uris":{"android":"levelo://app?vid=35de5d9e-453d-4b6e-a49a-d72de279088a","ios":"levelo://app?vid=35de5d9e-453d-4b6e-a49a-d72de279088a"},"vehicle_type_id":"4","last_reported":1740928107,"current_range_meters":16000,"station_id":"ce4bhgp2rcd13ifvqfc0","pricing_plan_id":"cebpf4jnsgd1na2vs0mg"},{"bike_id":"8c418afa-4a43-45d0-83c2-1c17c420fa81","system_id":"levelo_inurba_marseille","lat":43.26215,"lon":5.37445,"is_reserved":false,"is_disabled":false,"rental_uris":{"android":"levelo://app?vid=8c418afa-4a43-45d0-83c2-1c17c420fa81","ios":"levelo://app?vid=8c418afa-4a43-45d0-83c2-1c17c420fa81"},"vehicle_type_id":"4","last_reported":1740928107,"current_range_meters":16000,"station_id":"ce4bhgp2rcd13ifvqfc0","pricing_plan_id":"cebpf4jnsgd1na2vs0mg"},{"bike_id":"66aaba27-7f81-4cef-87fe-88194ba0b2a5","system_id":"levelo_inurba_marseille","lat":43.26197,"lon":5.37933,"is_reserved":false,"is_disabled":false,"rental_uris":{"android":"levelo://app?vid=66aaba27-7f81-4cef-87fe-88194ba0b2a5","ios":"levelo://app?vid=66aaba27-7f81-4cef-87fe-88194ba0b2a5"},"vehicle_type_id":"4","last_reported":1740928107,"current_range_meters":16000,"station_id":"ce4bhjp2rcd13ifvqg90","pricing_plan_id":"cebpf4jnsgd1na2vs0mg"},{"bike_id":"982a6c2e-2f14-45e6-81c3-569abb57b097","system_id":"levelo_inurba_marseille","lat":43.2305,"lon":5.3553,"is_reserved":false,"is_disabled":false,"rental_uris":{"android":"levelo://app?vid=982a6c2e-2f14-45e6-81c3-569abb57b097","ios":"levelo://app?vid=982a6c2e-2f14-45e6-81c3-569abb57b097"},"vehicle_type_id":"4","last_reported":1740928107,"current_range_meters":16000,"station_id":"cpo3342slgdg3j2ifvpg","pricing_plan_id":"cebpf4jnsgd1na2vs0mg"},{"bike_id":"d29e82e5-442b-4177-903e-3742ab7d0a8c","system_id":"levelo_inurba_marseille","lat":43.30039,"lon":5.37405,"is_reserved":false,"is_disabled":false,"rental_uris":{"android":"levelo://app?vid=d29e82e5-442b-4177-903e-3742ab7d0a8c","ios":"levelo://app?vid=d29e82e5-442b-4177-903e-3742ab7d0a8c"},"vehicle_type_id":"4","last_reported":1740928107,"current_range_meters":16400,"station_id":"","pricing_plan_id":"cebpf4jnsgd1na2vs0mg"},{"bike_id":"f5ace16b-5927-4aa3-a56f-a2f4b6f53741","system_id":"levelo_inurba_marseille","lat":43.337444,"lon":5.374475,"is_reserved":false,"is_disabled":false,"rental_uris":{"android":"levelo://app?vid=f5ace16b-5927-4aa3-a56f-a2f4b6f53741","ios":"levelo://app?vid=f5ace16b-5927-4aa3-a56f-a2f4b6f53741"},"vehicle_type_id":"4","last_reported":1740928107,"current_range_meters":16400,"station_id":"","pricing_plan_id":"cebpf4jnsgd1na2vs0mg"},{"bike_id":"7e6b71f3-10ef-4cca-a877-c7e90946667d","system_id":"levelo_inurba_marseille","lat":43.27377,"lon":5.36261,"is_reserved":false,"is_disabled":false,"rental_uris":{"android":"levelo://app?vid=7e6b71f3-10ef-4cca-a877-c7e90946667d","ios":"levelo://app?vid=7e6b71f3-10ef-4cca-a877-c7e90946667d"},"vehicle_type_id":"4","last_reported":1740928107,"current_range_meters":16400,"station_id":"ce4bhbh2rcd13ifvqeo0","pricing_plan_id":"cebpf4jnsgd1na2vs0mg"},{"bike_id":"46b42730-9dd3-44c5-91a9-d6d931f385c3","system_id":"levelo_inurba_marseille","lat":43.2549,"lon":5.37651,"is_reserved":false,"is_disabled":false,"rental_uris":{"android":"levelo://app?vid=46b42730-9dd3-44c5-91a9-d6d931f385c3","ios":"levelo://app?vid=46b42730-9dd3-44c5-91a9-d6d931f385c3"},"vehicle_type_id":"4","last_reported":1740928107,"current_range_meters":16400,"station_id":"ce4bhh12rcd13ifvqff0","pricing_plan_id":"cebpf4jnsgd1na2vs0mg"},{"bike_id":"670122a3-157a-4ef1-82d1-a5574649dac0","system_id":"levelo_inurba_marseille","lat":43.23957,"lon":5.36644,"is_reserved":false,"is_disabled":false,"rental_uris":{"android":"levelo://app?vid=670122a3-157a-4ef1-82d1-a5574649dac0","ios":"levelo://app?vid=670122a3-157a-4ef1-82d1-a5574649dac0"},"vehicle_type_id":"4","last_reported":1740928107,"current_range_meters":16400,"station_id":"ce4bhi12rcd13ifvqfp0","pricing_plan_id":"cebpf4jnsgd1na2vs0mg"},{"bike_id":"83bf10a6-fe49-41be-bada-3c7a1d60f118","system_id":"levelo_inurba_marseille","lat":43.23191,"lon":5.35555,"is_reserved":false,"is_disabled":false,"rental_uris":{"android":"levelo://app?vid=83bf10a6-fe49-41be-bada-3c7a1d60f118","ios":"levelo://app?vid=83bf10a6-fe49-41be-bada-3c7a1d60f118"},"vehicle_type_id":"4","last_reported":1740928107,"current_range_meters":16400,"station_id":"ce4bhu92rcd13ifvqi70","pricing_plan_id":"cebpf4jnsgd1na2vs0mg"},{"bike_id":"7fce597a-2ae4-4b5b-8d68-103f0938622e","system_id":"levelo_inurba_marseille","lat":43.25081,"lon":5.4041,"is_reserved":false,"is_disabled":false,"rental_uris":{"android":"levelo://app?vid=7fce597a-2ae4-4b5b-8d68-103f0938622e","ios":"levelo://app?vid=7fce597a-2ae4-4b5b-8d68-103f0938622e"},"vehicle_type_id":"4","last_reported":1740928107,"current_range_meters":16800,"station_id":"","pricing_plan_id":"cebpf4jnsgd1na2vs0mg"},{"bike_id":"b09b8693-03ff-437b-993e-1c3bc9c9ff72","system_id":"levelo_inurba_marseille","lat":43.30549,"lon":5.36541,"is_reserved":false,"is_disabled":false,"rental_uris":{"android":"levelo://app?vid=b09b8693-03ff-437b-993e-1c3bc9c9ff72","ios":"levelo://app?vid=b09b8693-03ff-437b-993e-1c3bc9c9ff72"},"vehicle_type_id":"4","last_reported":1740928107,"current_range_meters":16800,"station_id":"ce4bgs12rcd13ifvqcag","pricing_plan_id":"cebpf4jnsgd1na2vs0mg"},{"bike_id":"417fbd7d-d6d8-4c3a-98dd-ce0156edb9f1","system_id":"levelo_inurba_marseille","lat":43.28428,"lon":5.34978,"is_reserved":false,"is_disabled":false,"rental_uris":{"android":"levelo://app?vid=417fbd7d-d6d8-4c3a-98dd-ce0156edb9f1","ios":"levelo://app?vid=417fbd7d-d6d8-4c3a-98dd-ce0156edb9f1"},"vehicle_type_id":"4","last_reported":1740928107,"current_range_meters":16800,"station_id":"ce4bhbh2rcd13ifvqepg","pricing_plan_id":"cebpf4jnsgd1na2vs0mg"},{"bike_id":"f3b31c8d-5039-4d90-945e-8620c60b6c7b","system_id":"levelo_inurba_marseille","lat":43.28622,"lon":5.35114,"is_reserved":false,"is_disabled":false,"rental_uris":{"android":"levelo://app?vid=f3b31c8d-5039-4d90-945e-8620c60b6c7b","ios":"levelo://app?vid=f3b31c8d-5039-4d90-945e-8620c60b6c7b"},"vehicle_type_id":"4","last_reported":1740928107,"current_range_meters":16800,"station_id":"ce4bhch2rcd13ifvqeug","pricing_plan_id":"cebpf4jnsgd1na2vs0mg"},{"bike_id":"84a21489-e7c4-40fb-8156-acb06b20eaff","system_id":"levelo_inurba_marseille","lat":43.23151,"lon":5.43713,"is_reserved":false,"is_disabled":false,"rental_uris":{"android":"levelo://app?vid=84a21489-e7c4-40fb-8156-acb06b20eaff","ios":"levelo://app?vid=84a21489-e7c4-40fb-8156-acb06b20eaff"},"vehicle_type_id":"4","last_reported":1740928107,"current_range_meters":16800,"station_id":"ce4bhmp2rcd13ifvqgog","pricing_plan_id":"cebpf4jnsgd1na2vs0mg"},{"bike_id":"803ced7a-60d3-4f68-a71d-19a5cba39b57","system_id":"levelo_inurba_marseille","lat":43.23164,"lon":5.43701,"is_reserved":false,"is_disabled":false,"rental_uris":{"android":"levelo://app?vid=803ced7a-60d3-4f68-a71d-19a5cba39b57","ios":"levelo://app?vid=803ced7a-60d3-4f68-a71d-19a5cba39b57"},"vehicle_type_id":"4","last_reported":1740928107,"current_range_meters":16800,"station_id":"ce4bhmp2rcd13ifvqgog","pricing_plan_id":"cebpf4jnsgd1na2vs0mg"},{"bike_id":"1959ccfb-277b-452c-a788-00d94e096625","system_id":"levelo_inurba_marseille","lat":43.22937,"lon":5.35381,"is_reserved":false,"is_disabled":false,"rental_uris":{"android":"levelo://app?vid=1959ccfb-277b-452c-a788-00d94e096625","ios":"levelo://app?vid=1959ccfb-277b-452c-a788-00d94e096625"},"vehicle_type_id":"4","last_reported":1740928107,"current_range_meters":16800,"station_id":"cpo3532slgdg3j2ikp40","pricing_plan_id":"cebpf4jnsgd1na2vs0mg"},{"bike_id":"625e7b30-fc68-485a-b217-7594904123b3","system_id":"levelo_inurba_marseille","lat":43.31233,"lon":5.36889,"is_reserved":false,"is_disabled":false,"rental_uris":{"android":"levelo://app?vid=625e7b30-fc68-485a-b217-7594904123b3","ios":"levelo://app?vid=625e7b30-fc68-485a-b217-7594904123b3"},"vehicle_type_id":"4","last_reported":1740928107,"current_range_meters":17200,"station_id":"ce4bgl92rcd13ifvqbq0","pricing_plan_id":"cebpf4jnsgd1na2vs0mg"},{"bike_id":"a0203017-7af2-42d1-8cbe-20465dd07b9e","system_id":"levelo_inurba_marseille","lat":43.31719,"lon":5.40478,"is_reserved":false,"is_disabled":false,"rental_uris":{"android":"levelo://app?vid=a0203017-7af2-42d1-8cbe-20465dd07b9e","ios":"levelo://app?vid=a0203017-7af2-42d1-8cbe-20465dd07b9e"},"vehicle_type_id":"4","last_reported":1740928107,"current_range_meters":17200,"station_id":"ce4bh012rcd13ifvqd00","pricing_plan_id":"cebpf4jnsgd1na2vs0mg"},{"bike_id":"bdff9713-8ae0-4746-ae41-f9cfbb7d53ea","system_id":"levelo_inurba_marseille","lat":43.28408,"lon":5.34976,"is_reserved":false,"is_disabled":false,"rental_uris":{"android":"levelo://app?vid=bdff9713-8ae0-4746-ae41-f9cfbb7d53ea","ios":"levelo://app?vid=bdff9713-8ae0-4746-ae41-f9cfbb7d53ea"},"vehicle_type_id":"4","last_reported":1740928107,"current_range_meters":17200,"station_id":"ce4bhbh2rcd13ifvqepg","pricing_plan_id":"cebpf4jnsgd1na2vs0mg"},{"bike_id":"249e666f-4c98-4a84-9cda-76b8d10d7156","system_id":"levelo_inurba_marseille","lat":43.28623,"lon":5.35103,"is_reserved":false,"is_disabled":false,"rental_uris":{"android":"levelo://app?vid=249e666f-4c98-4a84-9cda-76b8d10d7156","ios":"levelo://app?vid=249e666f-4c98-4a84-9cda-76b8d10d7156"},"vehicle_type_id":"4","last_reported":1740928107,"current_range_meters":17200,"station_id":"ce4bhch2rcd13ifvqeug","pricing_plan_id":"cebpf4jnsgd1na2vs0mg"},{"bike_id":"1a585af0-45ea-44dd-a385-c7f4e120de88","system_id":"levelo_inurba_marseille","lat":43.26208,"lon":5.3745,"is_reserved":false,"is_disabled":false,"rental_uris":{"android":"levelo://app?vid=1a585af0-45ea-44dd-a385-c7f4e120de88","ios":"levelo://app?vid=1a585af0-45ea-44dd-a385-c7f4e120de88"},"vehicle_type_id":"4","last_reported":1740928107,"current_range_meters":17200,"station_id":"ce4bhgp2rcd13ifvqfc0","pricing_plan_id":"cebpf4jnsgd1na2vs0mg"},{"bike_id":"205cd8d9-67d9-45d7-adf1-085b71047ed3","system_id":"levelo_inurba_marseille","lat":43.24167,"lon":5.36398,"is_reserved":false,"is_disabled":false,"rental_uris":{"android":"levelo://app?vid=205cd8d9-67d9-45d7-adf1-085b71047ed3","ios":"levelo://app?vid=205cd8d9-67d9-45d7-adf1-085b71047ed3"},"vehicle_type_id":"4","last_reported":1740928107,"current_range_meters":17200,"station_id":"cpo36qri1sfpv3e86is0","pricing_plan_id":"cebpf4jnsgd1na2vs0mg"},{"bike_id":"ac68484c-81fe-4010-ac4e-36e4a51f4fac","system_id":"levelo_inurba_marseille","lat":43.24547,"lon":5.39528,"is_reserved":false,"is_disabled":false,"rental_uris":{"android":"levelo://app?vid=ac68484c-81fe-4010-ac4e-36e4a51f4fac","ios":"levelo://app?vid=ac68484c-81fe-4010-ac4e-36e4a51f4fac"},"vehicle_type_id":"4","last_reported":1740928107,"current_range_meters":17600,"station_id":"ce4bhlp2rcd13ifvqgjg","pricing_plan_id":"cebpf4jnsgd1na2vs0mg"},{"bike_id":"9a27fda4-273f-4107-807e-48e395856808","system_id":"levelo_inurba_marseille","lat":43.24162,"lon":5.36397,"is_reserved":false,"is_disabled":false,"rental_uris":{"android":"levelo://app?vid=9a27fda4-273f-4107-807e-48e395856808","ios":"levelo://app?vid=9a27fda4-273f-4107-807e-48e395856808"},"vehicle_type_id":"4","last_reported":1740928107,"current_range_meters":17600,"station_id":"cpo36qri1sfpv3e86is0","pricing_plan_id":"cebpf4jnsgd1na2vs0mg"},{"bike_id":"f7b89fa7-f298-4c42-b3c8-4e2c96db2547","system_id":"levelo_inurba_marseille","lat":43.28965,"lon":5.37255,"is_reserved":false,"is_disabled":false,"rental_uris":{"android":"levelo://app?vid=f7b89fa7-f298-4c42-b3c8-4e2c96db2547","ios":"levelo://app?vid=f7b89fa7-f298-4c42-b3c8-4e2c96db2547"},"vehicle_type_id":"4","last_reported":1740928107,"current_range_meters":18000,"station_id":"","pricing_plan_id":"cebpf4jnsgd1na2vs0mg"},{"bike_id":"76f0ecc2-74d2-4458-9089-c4bdf8553e65","system_id":"levelo_inurba_marseille","lat":43.27238,"lon":5.41784,"is_reserved":false,"is_disabled":false,"rental_uris":{"android":"levelo://app?vid=76f0ecc2-74d2-4458-9089-c4bdf8553e65","ios":"levelo://app?vid=76f0ecc2-74d2-4458-9089-c4bdf8553e65"},"vehicle_type_id":"4","last_reported":1740928107,"current_range_meters":18000,"station_id":"","pricing_plan_id":"cebpf4jnsgd1na2vs0mg"},{"bike_id":"ab3cdf46-9068-40d7-8549-0df1260012c9","system_id":"levelo_inurba_marseille","lat":43.2738,"lon":5.36253,"is_reserved":false,"is_disabled":false,"rental_uris":{"android":"levelo://app?vid=ab3cdf46-9068-40d7-8549-0df1260012c9","ios":"levelo://app?vid=ab3cdf46-9068-40d7-8549-0df1260012c9"},"vehicle_type_id":"4","last_reported":1740928107,"current_range_meters":18000,"station_id":"ce4bhbh2rcd13ifvqeo0","pricing_plan_id":"cebpf4jnsgd1na2vs0mg"},{"bike_id":"03c791ce-4db7-40cb-9651-cd2e3f84d920","system_id":"levelo_inurba_marseille","lat":43.28257,"lon":5.35066,"is_reserved":false,"is_disabled":false,"rental_uris":{"android":"levelo://app?vid=03c791ce-4db7-40cb-9651-cd2e3f84d920","ios":"levelo://app?vid=03c791ce-4db7-40cb-9651-cd2e3f84d920"},"vehicle_type_id":"4","last_reported":1740928107,"current_range_meters":18000,"station_id":"ce4bhbp2rcd13ifvqerg","pricing_plan_id":"cebpf4jnsgd1na2vs0mg"},{"bike_id":"b9519b76-44b7-4b2a-8116-cf6f7949d079","system_id":"levelo_inurba_marseille","lat":43.23197,"lon":5.39971,"is_reserved":false,"is_disabled":false,"rental_uris":{"android":"levelo://app?vid=b9519b76-44b7-4b2a-8116-cf6f7949d079","ios":"levelo://app?vid=b9519b76-44b7-4b2a-8116-cf6f7949d079"},"vehicle_type_id":"4","last_reported":1740928107,"current_range_meters":18000,"station_id":"ce4bhn12rcd13ifvqgqg","pricing_plan_id":"cebpf4jnsgd1na2vs0mg"},{"bike_id":"6f9f3f95-0161-4973-849a-64e64d8388fc","system_id":"levelo_inurba_marseille","lat":43.232,"lon":5.35553,"is_reserved":false,"is_disabled":false,"rental_uris":{"android":"levelo://app?vid=6f9f3f95-0161-4973-849a-64e64d8388fc","ios":"levelo://app?vid=6f9f3f95-0161-4973-849a-64e64d8388fc"},"vehicle_type_id":"4","last_reported":1740928107,"current_range_meters":18000,"station_id":"ce4bhu92rcd13ifvqi70","pricing_plan_id":"cebpf4jnsgd1na2vs0mg"},{"bike_id":"d1c0e715-6329-4d33-8e66-23065f23123c","system_id":"levelo_inurba_marseille","lat":43.28424,"lon":5.35006,"is_reserved":false,"is_disabled":false,"rental_uris":{"android":"levelo://app?vid=d1c0e715-6329-4d33-8e66-23065f23123c","ios":"levelo://app?vid=d1c0e715-6329-4d33-8e66-23065f23123c"},"vehicle_type_id":"4","last_reported":1740928107,"current_range_meters":18800,"station_id":"ce4bhbh2rcd13ifvqepg","pricing_plan_id":"cebpf4jnsgd1na2vs0mg"},{"bike_id":"6e2a849e-ed37-4f99-ba8e-78c189f03796","system_id":"levelo_inurba_marseille","lat":43.25495,"lon":5.37642,"is_reserved":false,"is_disabled":false,"rental_uris":{"android":"levelo://app?vid=6e2a849e-ed37-4f99-ba8e-78c189f03796","ios":"levelo://app?vid=6e2a849e-ed37-4f99-ba8e-78c189f03796"},"vehicle_type_id":"4","last_reported":1740928107,"current_range_meters":18800,"station_id":"ce4bhh12rcd13ifvqff0","pricing_plan_id":"cebpf4jnsgd1na2vs0mg"},{"bike_id":"51453599-2f62-4fac-9d57-fe8e056e3cd4","system_id":"levelo_inurba_marseille","lat":43.23962,"lon":5.36631,"is_reserved":false,"is_disabled":false,"rental_uris":{"android":"levelo://app?vid=51453599-2f62-4fac-9d57-fe8e056e3cd4","ios":"levelo://app?vid=51453599-2f62-4fac-9d57-fe8e056e3cd4"},"vehicle_type_id":"4","last_reported":1740928107,"current_range_meters":18800,"station_id":"ce4bhi12rcd13ifvqfp0","pricing_plan_id":"cebpf4jnsgd1na2vs0mg"},{"bike_id":"b66d4e9e-4be4-4262-bf2f-e6d1cbff9499","system_id":"levelo_inurba_marseille","lat":43.2319,"lon":5.3996,"is_reserved":false,"is_disabled":false,"rental_uris":{"android":"levelo://app?vid=b66d4e9e-4be4-4262-bf2f-e6d1cbff9499","ios":"levelo://app?vid=b66d4e9e-4be4-4262-bf2f-e6d1cbff9499"},"vehicle_type_id":"4","last_reported":1740928107,"current_range_meters":18800,"station_id":"ce4bhn12rcd13ifvqgqg","pricing_plan_id":"cebpf4jnsgd1na2vs0mg"},{"bike_id":"6b154712-3a43-41da-8242-6d5b2f897b36","system_id":"levelo_inurba_marseille","lat":43.2407,"lon":5.37751,"is_reserved":false,"is_disabled":false,"rental_uris":{"android":"levelo://app?vid=6b154712-3a43-41da-8242-6d5b2f897b36","ios":"levelo://app?vid=6b154712-3a43-41da-8242-6d5b2f897b36"},"vehicle_type_id":"4","last_reported":1740928107,"current_range_meters":18800,"station_id":"ce4bhnp2rcd13ifvqgvg","pricing_plan_id":"cebpf4jnsgd1na2vs0mg"},{"bike_id":"619b2925-dbb3-48e7-90c5-93b3a6d675f9","system_id":"levelo_inurba_marseille","lat":43.23191,"lon":5.35562,"is_reserved":false,"is_disabled":false,"rental_uris":{"android":"levelo://app?vid=619b2925-dbb3-48e7-90c5-93b3a6d675f9","ios":"levelo://app?vid=619b2925-dbb3-48e7-90c5-93b3a6d675f9"},"vehicle_type_id":"4","last_reported":1740928107,"current_range_meters":18800,"station_id":"ce4bhu92rcd13ifvqi70","pricing_plan_id":"cebpf4jnsgd1na2vs0mg"},{"bike_id":"76394e5b-b5d3-409a-954a-e09b2559a295","system_id":"levelo_inurba_marseille","lat":43.23196,"lon":5.35559,"is_reserved":false,"is_disabled":false,"rental_uris":{"android":"levelo://app?vid=76394e5b-b5d3-409a-954a-e09b2559a295","ios":"levelo://app?vid=76394e5b-b5d3-409a-954a-e09b2559a295"},"vehicle_type_id":"4","last_reported":1740928107,"current_range_meters":18800,"station_id":"ce4bhu92rcd13ifvqi70","pricing_plan_id":"cebpf4jnsgd1na2vs0mg"},{"bike_id":"cf817c6e-dbb8-468f-90aa-3f0f78ebb8ff","system_id":"levelo_inurba_marseille","lat":43.230664,"lon":5.355048,"is_reserved":false,"is_disabled":false,"rental_uris":{"android":"levelo://app?vid=cf817c6e-dbb8-468f-90aa-3f0f78ebb8ff","ios":"levelo://app?vid=cf817c6e-dbb8-468f-90aa-3f0f78ebb8ff"},"vehicle_type_id":"4","last_reported":1740928107,"current_range_meters":18800,"station_id":"cpo3342slgdg3j2ifvpg","pricing_plan_id":"cebpf4jnsgd1na2vs0mg"},{"bike_id":"ee64b076-db53-4a07-8a61-f790fb3d7f18","system_id":"levelo_inurba_marseille","lat":43.29598,"lon":5.37335,"is_reserved":false,"is_disabled":false,"rental_uris":{"android":"levelo://app?vid=ee64b076-db53-4a07-8a61-f790fb3d7f18","ios":"levelo://app?vid=ee64b076-db53-4a07-8a61-f790fb3d7f18"},"vehicle_type_id":"4","last_reported":1740928107,"current_range_meters":19200,"station_id":"","pricing_plan_id":"cebpf4jnsgd1na2vs0mg"},{"bike_id":"e1a79c87-f3ef-40fe-8d85-c403d144b186","system_id":"levelo_inurba_marseille","lat":43.28042,"lon":5.36953,"is_reserved":false,"is_disabled":false,"rental_uris":{"android":"levelo://app?vid=e1a79c87-f3ef-40fe-8d85-c403d144b186","ios":"levelo://app?vid=e1a79c87-f3ef-40fe-8d85-c403d144b186"},"vehicle_type_id":"4","last_reported":1740928107,"current_range_meters":19200,"station_id":"ce4bha12rcd13ifvqef0","pricing_plan_id":"cebpf4jnsgd1na2vs0mg"},{"bike_id":"360cb8fb-ae2d-4942-a777-0b20fe1843ea","system_id":"levelo_inurba_marseille","lat":43.26561,"lon":5.37267,"is_reserved":false,"is_disabled":false,"rental_uris":{"android":"levelo://app?vid=360cb8fb-ae2d-4942-a777-0b20fe1843ea","ios":"levelo://app?vid=360cb8fb-ae2d-4942-a777-0b20fe1843ea"},"vehicle_type_id":"4","last_reported":1740928107,"current_range_meters":19200,"station_id":"ce4bhg12rcd13ifvqf70","pricing_plan_id":"cebpf4jnsgd1na2vs0mg"},{"bike_id":"36d29dde-7632-43bc-ae49-e52071070d55","system_id":"levelo_inurba_marseille","lat":43.25501,"lon":5.37652,"is_reserved":false,"is_disabled":false,"rental_uris":{"android":"levelo://app?vid=36d29dde-7632-43bc-ae49-e52071070d55","ios":"levelo://app?vid=36d29dde-7632-43bc-ae49-e52071070d55"},"vehicle_type_id":"4","last_reported":1740928107,"current_range_meters":19200,"station_id":"ce4bhh12rcd13ifvqff0","pricing_plan_id":"cebpf4jnsgd1na2vs0mg"},{"bike_id":"f04c35ef-f9f2-4c37-ab3b-694d67f2ddba","system_id":"levelo_inurba_marseille","lat":43.25681,"lon":5.41127,"is_reserved":false,"is_disabled":false,"rental_uris":{"android":"levelo://app?vid=f04c35ef-f9f2-4c37-ab3b-694d67f2ddba","ios":"levelo://app?vid=f04c35ef-f9f2-4c37-ab3b-694d67f2ddba"},"vehicle_type_id":"4","last_reported":1740928107,"current_range_meters":19200,"station_id":"ce4bhkp2rcd13ifvqgd0","pricing_plan_id":"cebpf4jnsgd1na2vs0mg"},{"bike_id":"81389cd8-51fb-45ff-ad9c-7bca8b462d46","system_id":"levelo_inurba_marseille","lat":43.25932,"lon":5.40903,"is_reserved":false,"is_disabled":false,"rental_uris":{"android":"levelo://app?vid=81389cd8-51fb-45ff-ad9c-7bca8b462d46","ios":"levelo://app?vid=81389cd8-51fb-45ff-ad9c-7bca8b462d46"},"vehicle_type_id":"4","last_reported":1740928107,"current_range_meters":19200,"station_id":"ce4bhm92rcd13ifvqglg","pricing_plan_id":"cebpf4jnsgd1na2vs0mg"},{"bike_id":"eb3dac2a-ddc4-44d0-954a-687d2d7a0cea","system_id":"levelo_inurba_marseille","lat":43.23064,"lon":5.35498,"is_reserved":false,"is_disabled":false,"rental_uris":{"android":"levelo://app?vid=eb3dac2a-ddc4-44d0-954a-687d2d7a0cea","ios":"levelo://app?vid=eb3dac2a-ddc4-44d0-954a-687d2d7a0cea"},"vehicle_type_id":"4","last_reported":1740928107,"current_range_meters":19200,"station_id":"cpo3342slgdg3j2ifvpg","pricing_plan_id":"cebpf4jnsgd1na2vs0mg"},{"bike_id":"f6ef5af4-8b6c-4ce8-8811-2339c401d643","system_id":"levelo_inurba_marseille","lat":43.29804,"lon":5.38139,"is_reserved":false,"is_disabled":false,"rental_uris":{"android":"levelo://app?vid=f6ef5af4-8b6c-4ce8-8811-2339c401d643","ios":"levelo://app?vid=f6ef5af4-8b6c-4ce8-8811-2339c401d643"},"vehicle_type_id":"4","last_reported":1740928107,"current_range_meters":19600,"station_id":"ce4bgip2rcd13ifvqbb0","pricing_plan_id":"cebpf4jnsgd1na2vs0mg"},{"bike_id":"ed125c69-990a-4ba6-ba97-acfbf6363197","system_id":"levelo_inurba_marseille","lat":43.30296,"lon":5.39214,"is_reserved":false,"is_disabled":false,"rental_uris":{"android":"levelo://app?vid=ed125c69-990a-4ba6-ba97-acfbf6363197","ios":"levelo://app?vid=ed125c69-990a-4ba6-ba97-acfbf6363197"},"vehicle_type_id":"4","last_reported":1740928107,"current_range_meters":19600,"station_id":"ce4bgkh2rcd13ifvqbk0","pricing_plan_id":"cebpf4jnsgd1na2vs0mg"},{"bike_id":"ca94c74c-9f34-4fe3-9b6e-aa3001eea73a","system_id":"levelo_inurba_marseille","lat":43.3122,"lon":5.36849,"is_reserved":false,"is_disabled":false,"rental_uris":{"android":"levelo://app?vid=ca94c74c-9f34-4fe3-9b6e-aa3001eea73a","ios":"levelo://app?vid=ca94c74c-9f34-4fe3-9b6e-aa3001eea73a"},"vehicle_type_id":"4","last_reported":1740928107,"current_range_meters":19600,"station_id":"ce4bgl92rcd13ifvqbq0","pricing_plan_id":"cebpf4jnsgd1na2vs0mg"},{"bike_id":"4fb82f53-d921-4e34-9bfd-63bd8822c151","system_id":"levelo_inurba_marseille","lat":43.30286,"lon":5.37683,"is_reserved":false,"is_disabled":false,"rental_uris":{"android":"levelo://app?vid=4fb82f53-d921-4e34-9bfd-63bd8822c151","ios":"levelo://app?vid=4fb82f53-d921-4e34-9bfd-63bd8822c151"},"vehicle_type_id":"4","last_reported":1740928107,"current_range_meters":19600,"station_id":"ce4bguh2rcd13ifvqcj0","pricing_plan_id":"cebpf4jnsgd1na2vs0mg"},{"bike_id":"5a8ce779-7201-4463-9439-d30f64df0b57","system_id":"levelo_inurba_marseille","lat":43.282665,"lon":5.350518,"is_reserved":false,"is_disabled":false,"rental_uris":{"android":"levelo://app?vid=5a8ce779-7201-4463-9439-d30f64df0b57","ios":"levelo://app?vid=5a8ce779-7201-4463-9439-d30f64df0b57"},"vehicle_type_id":"4","last_reported":1740928107,"current_range_meters":19600,"station_id":"ce4bh412rcd13ifvqdr0","pricing_plan_id":"cebpf4jnsgd1na2vs0mg"},{"bike_id":"b67e963f-beb1-4d6b-b469-1f3815d2cbbb","system_id":"levelo_inurba_marseille","lat":43.23959,"lon":5.3665,"is_reserved":false,"is_disabled":false,"rental_uris":{"android":"levelo://app?vid=b67e963f-beb1-4d6b-b469-1f3815d2cbbb","ios":"levelo://app?vid=b67e963f-beb1-4d6b-b469-1f3815d2cbbb"},"vehicle_type_id":"4","last_reported":1740928107,"current_range_meters":19600,"station_id":"ce4bhi12rcd13ifvqfp0","pricing_plan_id":"cebpf4jnsgd1na2vs0mg"},{"bike_id":"123d5adf-8e93-46cc-93b8-80cd2a012f7c","system_id":"levelo_inurba_marseille","lat":43.27069,"lon":5.42289,"is_reserved":false,"is_disabled":false,"rental_uris":{"android":"levelo://app?vid=123d5adf-8e93-46cc-93b8-80cd2a012f7c","ios":"levelo://app?vid=123d5adf-8e93-46cc-93b8-80cd2a012f7c"},"vehicle_type_id":"4","last_reported":1740928107,"current_range_meters":19600,"station_id":"ce4bhk92rcd13ifvqgb0","pricing_plan_id":"cebpf4jnsgd1na2vs0mg"},{"bike_id":"e0cd1450-a731-40a4-bb3e-1751dbdcd706","system_id":"levelo_inurba_marseille","lat":43.23204,"lon":5.35551,"is_reserved":false,"is_disabled":false,"rental_uris":{"android":"levelo://app?vid=e0cd1450-a731-40a4-bb3e-1751dbdcd706","ios":"levelo://app?vid=e0cd1450-a731-40a4-bb3e-1751dbdcd706"},"vehicle_type_id":"4","last_reported":1740928107,"current_range_meters":19600,"station_id":"ce4bhu92rcd13ifvqi70","pricing_plan_id":"cebpf4jnsgd1na2vs0mg"},