{"last_updated":1726182622,"ttl":30,"version":"2.2","data":{"bikes":[{"bike_id":"5bf687b2-d448-4537-a802-6ca69f538405","system_id":"levelo_inurba_marseille","lat":43.26952,"lon":5.38626,"is_reserved":false,"is_disabled":false,"rental_uris":{"android":"levelo://app?vid=5bf687b2-d448-4537-a802-6ca69f538405","ios":"levelo://app?vid=5bf687b2-d448-4537-a802-6ca69f538405"},"vehicle_type_id":"4","last_reported":1726182622,"current_range_meters":28400,"station_id":"ce4bhh92rcd13ifvqfh0","pricing_plan_id":"cebpf4jnsgd1na2vs0mg"},{"bike_id":"2ca2fd52-6283-4397-ac7e-8db28b0c8f78","system_id":"levelo_inurba_marseille","lat":43.23207,"lon":5.35547,"is_reserved":false,"is_disabled":false,"rental_uris":{"android":"levelo://app?vid=2ca2fd52-6283-4397-ac7e-8db28b0c8f78","ios":"levelo://app?vid=2ca2fd52-6283-4397-ac7e-8db28b0c8f78"},"vehicle_type_id":"4","last_reported":1726182622,"current_range_meters":16000,"station_id":"ce4bhu92rcd13ifvqi70","pricing_plan_id":"cebpf4jnsgd1na2vs0mg"},{"bike_id":"9b633d55-16bf-493b-aaf9-bf563c4bdace","system_id":"levelo_inurba_marseille","lat":43.28456,"lon":5.35879,"is_reserved":false,"is_disabled":false,"rental_uris":{"android":"levelo://app?vid=9b633d55-16bf-493b-aaf9-bf563c4bdace","ios":"levelo://app?vid=9b633d55-16bf-493b-aaf9-bf563c4bdace"},"vehicle_type_id":"4","last_reported":1726182622,"current_range_meters":39200,"station_id":"ce4bhah2rcd13ifvqei0","pricing_plan_id":"cebpf4jnsgd1na2vs0mg"},{"bike_id":"2d1b920d-273d-4634-aaa0-63e273489083","system_id":"levelo_inurba_marseille","lat":43.28707,"lon":5.3999,"is_reserved":false,"is_disabled":false,"rental_uris":{"android":"levelo://app?vid=2d1b920d-273d-4634-aaa0-63e273489083","ios":"levelo://app?vid=2d1b920d-273d-4634-aaa0-63e273489083"},"vehicle_type_id":"4","last_reported":1726182622,"current_range_meters":7200,"station_id":"ce4bho92rcd13ifvqh3g","pricing_plan_id":"cebpf4jnsgd1na2vs0mg"},{"bike_id":"f88a018b-ad33-45da-9f69-40b516a58ee7","system_id":"levelo_inurba_marseille","lat":43.24078,"lon":5.37766,"is_reserved":false,"is_disabled":false,"rental_uris":{"android":"levelo://app?vid=f88a018b-ad33-45da-9f69-40b516a58ee7","ios":"levelo://app?vid=f88a018b-ad33-45da-9f69-40b516a58ee7"},"vehicle_type_id":"4","last_reported":1726182622,"current_range_meters":25200,"station_id":"ce4bhnp2rcd13ifvqgvg","pricing_plan_id":"cebpf4jnsgd1na2vs0mg"},{"bike_id":"bb17f3f3-09bb-47e3-a688-a5b6fbb363bb","system_id":"levelo_inurba_marseille","lat":43.26943,"lon":5.40263,"is_reserved":false,"is_disabled":false,"rental_uris":{"android":"levelo://app?vid=bb17f3f3-09bb-47e3-a688-a5b6fbb363bb","ios":"levelo://app?vid=bb17f3f3-09bb-47e3-a688-a5b6fbb363bb"},"vehicle_type_id":"4","last_reported":1726182622,"current_range_meters":24000,"station_id":"cjm6bp8fraef2m0cb0m0","pricing_plan_id":"cebpf4jnsgd1na2vs0mg"},{"bike_id":"ae8c7bd4-e320-4650-aaec-5acdea38c512","system_id":"levelo_inurba_marseille","lat":43.28089,"lon":5.38698,"is_reserved":false,"is_disabled":false,"rental_uris":{"android":"levelo://app?vid=ae8c7bd4-e320-4650-aaec-5acdea38c512","ios":"levelo://app?vid=ae8c7bd4-e320-4650-aaec-5acdea38c512"},"vehicle_type_id":"4","last_reported":1726182622,"current_range_meters":24800,"station_id":"","pricing_plan_id":"cebpf4jnsgd1na2vs0mg"},{"bike_id":"7441f699-f366-410e-aa79-e82f36d07fc7","system_id":"levelo_inurba_marseille","lat":43.3025,"lon":5.40041,"is_reserved":false,"is_disabled":false,"rental_uris":{"android":"levelo://app?vid=7441f699-f366-410e-aa79-e82f36d07fc7","ios":"levelo://app?vid=7441f699-f366-410e-aa79-e82f36d07fc7"},"vehicle_type_id":"4","last_reported":1726182622,"current_range_meters":32800,"station_id":"ce4bgvh2rcd13ifvqcs0","pricing_plan_id":"cebpf4jnsgd1na2vs0mg"},{"bike_id":"0ac293a5-409b-4c77-9d1b-336bd09deec1","system_id":"levelo_inurba_marseille","lat":43.31507,"lon":5.37279,"is_reserved":false,"is_disabled":false,"rental_uris":{"android":"levelo://app?vid=0ac293a5-409b-4c77-9d1b-336bd09deec1","ios":"levelo://app?vid=0ac293a5-409b-4c77-9d1b-336bd09deec1"},"vehicle_type_id":"4","last_reported":1726182622,"current_range_meters":38800,"station_id":"ce4bgt12rcd13ifvqcd0","pricing_plan_id":"cebpf4jnsgd1na2vs0mg"},{"bike_id":"6857c5d1-5581-450d-a969-e54e4e134161","system_id":"levelo_inurba_marseille","lat":43.27573,"lon":5.38436,"is_reserved":false,"is_disabled":false,"rental_uris":{"android":"levelo://app?vid=6857c5d1-5581-450d-a969-e54e4e134161","ios":"levelo://app?vid=6857c5d1-5581-450d-a969-e54e4e134161"},"vehicle_type_id":"4","last_reported":1726182622,"current_range_meters":32000,"station_id":"ce4bhh92rcd13ifvqfi0","pricing_plan_id":"cebpf4jnsgd1na2vs0mg"},{"bike_id":"f92c3a54-323b-444b-b936-977057aedfcd","system_id":"levelo_inurba_marseille","lat":43.30794,"lon":5.38154,"is_reserved":false,"is_disabled":false,"rental_uris":{"android":"levelo://app?vid=f92c3a54-323b-444b-b936-977057aedfcd","ios":"levelo://app?vid=f92c3a54-323b-444b-b936-977057aedfcd"},"vehicle_type_id":"4","last_reported":1726182622,"current_range_meters":38000,"station_id":"ce4bgt12rcd13ifvqce0","pricing_plan_id":"cebpf4jnsgd1na2vs0mg"},{"bike_id":"7cb0e429-1782-492e-99a4-93d2b14305cb","system_id":"levelo_inurba_marseille","lat":43.29918,"lon":5.37481,"is_reserved":false,"is_disabled":false,"rental_uris":{"android":"levelo://app?vid=7cb0e429-1782-492e-99a4-93d2b14305cb","ios":"levelo://app?vid=7cb0e429-1782-492e-99a4-93d2b14305cb"},"vehicle_type_id":"4","last_reported":1726182622,"current_range_meters":39200,"station_id":"ce4bgjh2rcd13ifvqbg0","pricing_plan_id":"cebpf4jnsgd1na2vs0mg"},{"bike_id":"d965a696-db9d-4364-84dc-dd64b965c8ce","system_id":"levelo_inurba_marseille","lat":43.29192,"lon":5.39314,"is_reserved":false,"is_disabled":false,"rental_uris":{"android":"levelo://app?vid=d965a696-db9d-4364-84dc-dd64b965c8ce","ios":"levelo://app?vid=d965a696-db9d-4364-84dc-dd64b965c8ce"},"vehicle_type_id":"4","last_reported":1726182622,"current_range_meters":38400,"station_id":"ce4bh192rcd13ifvqdd0","pricing_plan_id":"cebpf4jnsgd1na2vs0mg"},{"bike_id":"b7989343-5246-407a-b930-d10e6ab1df20","system_id":"levelo_inurba_marseille","lat":43.29051,"lon":5.35918,"is_reserved":false,"is_disabled":false,"rental_uris":{"android":"levelo://app?vid=b7989343-5246-407a-b930-d10e6ab1df20","ios":"levelo://app?vid=b7989343-5246-407a-b930-d10e6ab1df20"},"vehicle_type_id":"4","last_reported":1726182622,"current_range_meters":39200,"station_id":"ce4bha92rcd13ifvqeg0","pricing_plan_id":"cebpf4jnsgd1na2vs0mg"},{"bike_id":"1fff329e-5ee2-4ccd-ad4e-7c9483989fbd","system_id":"levelo_inurba_marseille","lat":43.308,"lon":5.3815,"is_reserved":false,"is_disabled":false,"rental_uris":{"android":"levelo://app?vid=1fff329e-5ee2-4ccd-ad4e-7c9483989fbd","ios":"levelo://app?vid=1fff329e-5ee2-4ccd-ad4e-7c9483989fbd"},"vehicle_type_id":"4","last_reported":1726182622,"current_range_meters":27600,"station_id":"ce4bgt12rcd13ifvqce0","pricing_plan_id":"cebpf4jnsgd1na2vs0mg"},{"bike_id":"e47b7ac8-925d-4859-9d8d-e98952a0499a","system_id":"levelo_inurba_marseille","lat":43.24806,"lon":5.37458,"is_reserved":false,"is_disabled":false,"rental_uris":{"android":"levelo://app?vid=e47b7ac8-925d-4859-9d8d-e98952a0499a","ios":"levelo://app?vid=e47b7ac8-925d-4859-9d8d-e98952a0499a"},"vehicle_type_id":"4","last_reported":1726182622,"current_range_meters":12000,"station_id":"ce4bhgh2rcd13ifvqfb0","pricing_plan_id":"cebpf4jnsgd1na2vs0mg"},{"bike_id":"f8d0fba0-b375-496d-9fb6-aac6b8a7715f","system_id":"levelo_inurba_marseille","lat":43.31704,"lon":5.37769,"is_reserved":false,"is_disabled":false,"rental_uris":{"android":"levelo://app?vid=f8d0fba0-b375-496d-9fb6-aac6b8a7715f","ios":"levelo://app?vid=f8d0fba0-b375-496d-9fb6-aac6b8a7715f"},"vehicle_type_id":"4","last_reported":1726182622,"current_range_meters":12000,"station_id":"ce4bgth2rcd13ifvqch0","pricing_plan_id":"cebpf4jnsgd1na2vs0mg"},{"bike_id":"5153a7af-9d3d-4a28-aa5e-32bc2777baff","system_id":"levelo_inurba_marseille","lat":43.2512,"lon":5.4032,"is_reserved":false,"is_disabled":false,"rental_uris":{"android":"levelo://app?vid=5153a7af-9d3d-4a28-aa5e-32bc2777baff","ios":"levelo://app?vid=5153a7af-9d3d-4a28-aa5e-32bc2777baff"},"vehicle_type_id":"4","last_reported":1726182622,"current_range_meters":39200,"station_id":"ce4bhlh2rcd13ifvqgig","pricing_plan_id":"cebpf4jnsgd1na2vs0mg"},{"bike_id":"4e378ba7-e144-417b-bddf-998c558952c0","system_id":"levelo_inurba_marseille","lat":43.26206,"lon":5.37929,"is_reserved":false,"is_disabled":false,"rental_uris":{"android":"levelo://app?vid=4e378ba7-e144-417b-bddf-998c558952c0","ios":"levelo://app?vid=4e378ba7-e144-417b-bddf-998c558952c0"},"vehicle_type_id":"4","last_reported":1726182622,"current_range_meters":5600,"station_id":"ce4bhjp2rcd13ifvqg90","pricing_plan_id":"cebpf4jnsgd1na2vs0mg"},{"bike_id":"13ec4916-f0ea-4897-8afc-596425b42c42","system_id":"levelo_inurba_marseille","lat":43.23193,"lon":5.35557,"is_reserved":false,"is_disabled":false,"rental_uris":{"android":"levelo://app?vid=13ec4916-f0ea-4897-8afc-596425b42c42","ios":"levelo://app?vid=13ec4916-f0ea-4897-8afc-596425b42c42"},"vehicle_type_id":"4","last_reported":1726182622,"current_range_meters":35600,"station_id":"ce4bhu92rcd13ifvqi70","pricing_plan_id":"cebpf4jnsgd1na2vs0mg"},{"bike_id":"b620d509-8da0-4979-9d23-fef6c70ac3cc","system_id":"levelo_inurba_marseille","lat":43.28417,"lon":5.3752,"is_reserved":false,"is_disabled":false,"rental_uris":{"android":"levelo://app?vid=b620d509-8da0-4979-9d23-fef6c70ac3cc","ios":"levelo://app?vid=b620d509-8da0-4979-9d23-fef6c70ac3cc"},"vehicle_type_id":"4","last_reported":1726182622,"current_range_meters":38000,"station_id":"ce4bh412rcd13ifvqds0","pricing_plan_id":"cebpf4jnsgd1na2vs0mg"},{"bike_id":"d6317b62-4510-4ed3-aefd-feea6e1502be","system_id":"levelo_inurba_marseille","lat":43.30251,"lon":5.40052,"is_reserved":false,"is_disabled":false,"rental_uris":{"android":"levelo://app?vid=d6317b62-4510-4ed3-aefd-feea6e1502be","ios":"levelo://app?vid=d6317b62-4510-4ed3-aefd-feea6e1502be"},"vehicle_type_id":"4","last_reported":1726182622,"current_range_meters":39200,"station_id":"ce4bgvh2rcd13ifvqcs0","pricing_plan_id":"cebpf4jnsgd1na2vs0mg"},{"bike_id":"f19eec8e-9a77-4128-864b-267db058fb23","system_id":"levelo_inurba_marseille","lat":43.26938,"lon":5.38919,"is_reserved":false,"is_disabled":false,"rental_uris":{"android":"levelo://app?vid=f19eec8e-9a77-4128-864b-267db058fb23","ios":"levelo://app?vid=f19eec8e-9a77-4128-864b-267db058fb23"},"vehicle_type_id":"4","last_reported":1726182622,"current_range_meters":37600,"station_id":"ce4bhhh2rcd13ifvqfl0","pricing_plan_id":"cebpf4jnsgd1na2vs0mg"},{"bike_id":"d13844ac-d8d5-4630-a735-d14a8cd8cfc2","system_id":"levelo_inurba_marseille","lat":43.24671,"lon":5.38159,"is_reserved":false,"is_disabled":false,"rental_uris":{"android":"levelo://app?vid=d13844ac-d8d5-4630-a735-d14a8cd8cfc2","ios":"levelo://app?vid=d13844ac-d8d5-4630-a735-d14a8cd8cfc2"},"vehicle_type_id":"4","last_reported":1726182622,"current_range_meters":38000,"station_id":"ce4bhih2rcd13ifvqfr0","pricing_plan_id":"cebpf4jnsgd1na2vs0mg"},{"bike_id":"a59d64a6-0c90-478e-8726-6eda2f84c2f7","system_id":"levelo_inurba_marseille","lat":43.26032,"lon":5.37548,"is_reserved":false,"is_disabled":false,"rental_uris":{"android":"levelo://app?vid=a59d64a6-0c90-478e-8726-6eda2f84c2f7","ios":"levelo://app?vid=a59d64a6-0c90-478e-8726-6eda2f84c2f7"},"vehicle_type_id":"4","last_reported":1726182622,"current_range_meters":7200,"station_id":"ce4bhgh2rcd13ifvqfa0","pricing_plan_id":"cebpf4jnsgd1na2vs0mg"},{"bike_id":"d035d579-2e69-4a79-8e97-e3875f643f43","system_id":"levelo_inurba_marseille","lat":43.25825,"lon":5.39424,"is_reserved":false,"is_disabled":false,"rental_uris":{"android":"levelo://app?vid=d035d579-2e69-4a79-8e97-e3875f643f43","ios":"levelo://app?vid=d035d579-2e69-4a79-8e97-e3875f643f43"},"vehicle_type_id":"4","last_reported":1726182622,"current_range_meters":38000,"station_id":"ce4bhip2rcd13ifvqft0","pricing_plan_id":"cebpf4jnsgd1na2vs0mg"},{"bike_id":"acd8a3d5-a9db-4ea3-b234-2a790cfd605a","system_id":"levelo_inurba_marseille","lat":43.23966,"lon":5.36628,"is_reserved":false,"is_disabled":false,"rental_uris":{"android":"levelo://app?vid=acd8a3d5-a9db-4ea3-b234-2a790cfd605a","ios":"levelo://app?vid=acd8a3d5-a9db-4ea3-b234-2a790cfd605a"},"vehicle_type_id":"4","last_reported":1726182622,"current_range_meters":18000,"station_id":"ce4bhi12rcd13ifvqfp0","pricing_plan_id":"cebpf4jnsgd1na2vs0mg"},{"bike_id":"ace0ecad-0c66-4c3c-adfb-8d60c244cb6d","system_id":"levelo_inurba_marseille","lat":43.32,"lon":5.38155,"is_reserved":false,"is_disabled":false,"rental_uris":{"android":"levelo://app?vid=ace0ecad-0c66-4c3c-adfb-8d60c244cb6d","ios":"levelo://app?vid=ace0ecad-0c66-4c3c-adfb-8d60c244cb6d"},"vehicle_type_id":"4","last_reported":1726182622,"current_range_meters":37600,"station_id":"ce4bhr12rcd13ifvqhpg","pricing_plan_id":"cebpf4jnsgd1na2vs0mg"},{"bike_id":"6c33dae3-fcf3-499f-846d-c96896dd451f","system_id":"levelo_inurba_marseille","lat":43.23191,"lon":5.39984,"is_reserved":false,"is_disabled":false,"rental_uris":{"android":"levelo://app?vid=6c33dae3-fcf3-499f-846d-c96896dd451f","ios":"levelo://app?vid=6c33dae3-fcf3-499f-846d-c96896dd451f"},"vehicle_type_id":"4","last_reported":1726182622,"current_range_meters":32000,"station_id":"ce4bhn12rcd13ifvqgqg","pricing_plan_id":"cebpf4jnsgd1na2vs0mg"},{"bike_id":"ee5bd0a5-1257-48de-9343-ea8521c36cdd","system_id":"levelo_inurba_marseille","lat":43.23203,"lon":5.35555,"is_reserved":false,"is_disabled":false,"rental_uris":{"android":"levelo://app?vid=ee5bd0a5-1257-48de-9343-ea8521c36cdd","ios":"levelo://app?vid=ee5bd0a5-1257-48de-9343-ea8521c36cdd"},"vehicle_type_id":"4","last_reported":1726182622,"current_range_meters":6800,"station_id":"ce4bhu92rcd13ifvqi70","pricing_plan_id":"cebpf4jnsgd1na2vs0mg"},{"bike_id":"995d3a7e-289e-4ebd-b785-9d2da426ad57","system_id":"levelo_inurba_marseille","lat":43.23194,"lon":5.35546,"is_reserved":false,"is_disabled":false,"rental_uris":{"android":"levelo://app?vid=995d3a7e-289e-4ebd-b785-9d2da426ad57","ios":"levelo://app?vid=995d3a7e-289e-4ebd-b785-9d2da426ad57"},"vehicle_type_id":"4","last_reported":1726182622,"current_range_meters":27200,"station_id":"ce4bhu92rcd13ifvqi70","pricing_plan_id":"cebpf4jnsgd1na2vs0mg"},{"bike_id":"74c67d55-8a5f-40c9-8066-d68354718f8c","system_id":"levelo_inurba_marseille","lat":43.23198,"lon":5.35551,"is_reserved":false,"is_disabled":false,"rental_uris":{"android":"levelo://app?vid=74c67d55-8a5f-40c9-8066-d68354718f8c","ios":"levelo://app?vid=74c67d55-8a5f-40c9-8066-d68354718f8c"},"vehicle_type_id":"4","last_reported":1726182622,"current_range_meters":29600,"station_id":"ce4bhu92rcd13ifvqi70","pricing_plan_id":"cebpf4jnsgd1na2vs0mg"},{"bike_id":"81af7538-7eb7-440b-8a8e-8de3725bf681","system_id":"levelo_inurba_marseille","lat":43.24545,"lon":5.39522,"is_reserved":false,"is_disabled":false,"rental_uris":{"android":"levelo://app?vid=81af7538-7eb7-440b-8a8e-8de3725bf681","ios":"levelo://app?vid=81af7538-7eb7-440b-8a8e-8de3725bf681"},"vehicle_type_id":"4","last_reported":1726182622,"current_range_meters":5600,"station_id":"ce4bhlp2rcd13ifvqgjg","pricing_plan_id":"cebpf4jnsgd1na2vs0mg"},{"bike_id":"f49285f2-c96a-4629-9c9e-8992440fa281","system_id":"levelo_inurba_marseille","lat":43.3066,"lon":5.40067,"is_reserved":false,"is_disabled":false,"rental_uris":{"android":"levelo://app?vid=f49285f2-c96a-4629-9c9e-8992440fa281","ios":"levelo://app?vid=f49285f2-c96a-4629-9c9e-8992440fa281"},"vehicle_type_id":"4","last_reported":1726182622,"current_range_meters":35200,"station_id":"ce4bh112rcd13ifvqda0","pricing_plan_id":"cebpf4jnsgd1na2vs0mg"},{"bike_id":"bba10fbc-27ee-4a23-8606-788b1a50295f","system_id":"levelo_inurba_marseille","lat":43.29042,"lon":5.39962,"is_reserved":false,"is_disabled":false,"rental_uris":{"android":"levelo://app?vid=bba10fbc-27ee-4a23-8606-788b1a50295f","ios":"levelo://app?vid=bba10fbc-27ee-4a23-8606-788b1a50295f"},"vehicle_type_id":"4","last_reported":1726182622,"current_range_meters":24800,"station_id":"ce4bh392rcd13ifvqdm0","pricing_plan_id":"cebpf4jnsgd1na2vs0mg"},{"bike_id":"c7a72c95-d3e6-46b3-8c83-3114a189ce35","system_id":"levelo_inurba_marseille","lat":43.2558,"lon":5.38242,"is_reserved":false,"is_disabled":false,"rental_uris":{"android":"levelo://app?vid=c7a72c95-d3e6-46b3-8c83-3114a189ce35","ios":"levelo://app?vid=c7a72c95-d3e6-46b3-8c83-3114a189ce35"},"vehicle_type_id":"4","last_reported":1726182622,"current_range_meters":11600,"station_id":"ce4bhih2rcd13ifvqfs0","pricing_plan_id":"cebpf4jnsgd1na2vs0mg"},{"bike_id":"2518b103-2087-4e9f-ada3-03685009aa2b","system_id":"levelo_inurba_marseille","lat":43.32003,"lon":5.3816,"is_reserved":false,"is_disabled":false,"rental_uris":{"android":"levelo://app?vid=2518b103-2087-4e9f-ada3-03685009aa2b","ios":"levelo://app?vid=2518b103-2087-4e9f-ada3-03685009aa2b"},"vehicle_type_id":"4","last_reported":1726182622,"current_range_meters":16800,"station_id":"ce4bhr12rcd13ifvqhpg","pricing_plan_id":"cebpf4jnsgd1na2vs0mg"},{"bike_id":"f61bc5ff-0ca9-4a0a-9ac8-51023b441bc8","system_id":"levelo_inurba_marseille","lat":43.3087,"lon":5.39631,"is_reserved":false,"is_disabled":false,"rental_uris":{"android":"levelo://app?vid=f61bc5ff-0ca9-4a0a-9ac8-51023b441bc8","ios":"levelo://app?vid=f61bc5ff-0ca9-4a0a-9ac8-51023b441bc8"},"vehicle_type_id":"4","last_reported":1726182622,"current_range_meters":37600,"station_id":"ce4bh012rcd13ifvqcv0","pricing_plan_id":"cebpf4jnsgd1na2vs0mg"},{"bike_id":"8df50ca4-18cb-412c-8c9a-bd702f229545","system_id":"levelo_inurba_marseille","lat":43.30945,"lon":5.40144,"is_reserved":false,"is_disabled":false,"rental_uris":{"android":"levelo://app?vid=8df50ca4-18cb-412c-8c9a-bd702f229545","ios":"levelo://app?vid=8df50ca4-18cb-412c-8c9a-bd702f229545"},"vehicle_type_id":"4","last_reported":1726182622,"current_range_meters":37600,"station_id":"ce4bgvp2rcd13ifvqct0","pricing_plan_id":"cebpf4jnsgd1na2vs0mg"},{"bike_id":"7f7d711b-d42e-403c-8bf5-e4217831a361","system_id":"levelo_inurba_marseille","lat":43.28342,"lon":5.38102,"is_reserved":false,"is_disabled":false,"rental_uris":{"android":"levelo://app?vid=7f7d711b-d42e-403c-8bf5-e4217831a361","ios":"levelo://app?vid=7f7d711b-d42e-403c-8bf5-e4217831a361"},"vehicle_type_id":"4","last_reported":1726182622,"current_range_meters":20400,"station_id":"ce4bh412rcd13ifvqdr0","pricing_plan_id":"cebpf4jnsgd1na2vs0mg"},{"bike_id":"9e1990ee-f9cd-4f72-942d-e0669ce7ac13","system_id":"levelo_inurba_marseille","lat":43.31115,"lon":5.37772,"is_reserved":false,"is_disabled":false,"rental_uris":{"android":"levelo://app?vid=9e1990ee-f9cd-4f72-942d-e0669ce7ac13","ios":"levelo://app?vid=9e1990ee-f9cd-4f72-942d-e0669ce7ac13"},"vehicle_type_id":"4","last_reported":1726182622,"current_range_meters":38800,"station_id":"ce4bgt92rcd13ifvqcg0","pricing_plan_id":"cebpf4jnsgd1na2vs0mg"},{"bike_id":"56876d26-e268-48c7-8903-55aa55f5f7f6","system_id":"levelo_inurba_marseille","lat":43.2884,"lon":5.35854,"is_reserved":false,"is_disabled":false,"rental_uris":{"android":"levelo://app?vid=56876d26-e268-48c7-8903-55aa55f5f7f6","ios":"levelo://app?vid=56876d26-e268-48c7-8903-55aa55f5f7f6"},"vehicle_type_id":"4","last_reported":1726182622,"current_range_meters":13600,"station_id":"ce4bhb12rcd13ifvqem0","pricing_plan_id":"cebpf4jnsgd1na2vs0mg"},{"bike_id":"6e60b6e8-db02-40bf-839f-032c2b1282c4","system_id":"levelo_inurba_marseille","lat":43.27981,"lon":5.3874,"is_reserved":false,"is_disabled":false,"rental_uris":{"android":"levelo://app?vid=6e60b6e8-db02-40bf-839f-032c2b1282c4","ios":"levelo://app?vid=6e60b6e8-db02-40bf-839f-032c2b1282c4"},"vehicle_type_id":"4","last_reported":1726182622,"current_range_meters":35600,"station_id":"ce4bhg12rcd13ifvqf80","pricing_plan_id":"cebpf4jnsgd1na2vs0mg"},{"bike_id":"10a91319-b90e-4912-be8e-1cffd731bab1","system_id":"levelo_inurba_marseille","lat":43.28076,"lon":5.3965,"is_reserved":false,"is_disabled":false,"rental_uris":{"android":"levelo://app?vid=10a91319-b90e-4912-be8e-1cffd731bab1","ios":"levelo://app?vid=10a91319-b90e-4912-be8e-1cffd731bab1"},"vehicle_type_id":"4","last_reported":1726182622,"current_range_meters":27200,"station_id":"ce4bho12rcd13ifvqh2g","pricing_plan_id":"cebpf4jnsgd1na2vs0mg"},{"bike_id":"1c9cb63d-d211-4cf8-a71e-f204f05a13cd","system_id":"levelo_inurba_marseille","lat":43.24665,"lon":5.38163,"is_reserved":false,"is_disabled":false,"rental_uris":{"android":"levelo://app?vid=1c9cb63d-d211-4cf8-a71e-f204f05a13cd","ios":"levelo://app?vid=1c9cb63d-d211-4cf8-a71e-f204f05a13cd"},"vehicle_type_id":"4","last_reported":1726182622,"current_range_meters":34800,"station_id":"ce4bhih2rcd13ifvqfr0","pricing_plan_id":"cebpf4jnsgd1na2vs0mg"},{"bike_id":"414f5e7e-3903-4c7e-9e13-9530da24b6b1","system_id":"levelo_inurba_marseille","lat":43.29199,"lon":5.3932,"is_reserved":false,"is_disabled":false,"rental_uris":{"android":"levelo://app?vid=414f5e7e-3903-4c7e-9e13-9530da24b6b1","ios":"levelo://app?vid=414f5e7e-3903-4c7e-9e13-9530da24b6b1"},"vehicle_type_id":"4","last_reported":1726182622,"current_range_meters":39200,"station_id":"ce4bh192rcd13ifvqdd0","pricing_plan_id":"cebpf4jnsgd1na2vs0mg"},{"bike_id":"281115a1-44c2-45f0-84b6-2e74cc57714a","system_id":"levelo_inurba_marseille","lat":43.32341,"lon":5.40625,"is_reserved":false,"is_disabled":false,"rental_uris":{"android":"levelo://app?vid=281115a1-44c2-45f0-84b6-2e74cc57714a","ios":"levelo://app?vid=281115a1-44c2-45f0-84b6-2e74cc57714a"},"vehicle_type_id":"4","last_reported":1726182622,"current_range_meters":26800,"station_id":"ce4bhq92rcd13ifvqhjg","pricing_plan_id":"cebpf4jnsgd1na2vs0mg"},{"bike_id":"d54209f6-3398-4e00-8b3a-a3ed0a88f3b6","system_id":"levelo_inurba_marseille","lat":43.2456,"lon":5.37313,"is_reserved":false,"is_disabled":false,"rental_uris":{"android":"levelo://app?vid=d54209f6-3398-4e00-8b3a-a3ed0a88f3b6","ios":"levelo://app?vid=d54209f6-3398-4e00-8b3a-a3ed0a88f3b6"},"vehicle_type_id":"4","last_reported":1726182622,"current_range_meters":30800,"station_id":"","pricing_plan_id":"cebpf4jnsgd1na2vs0mg"},{"bike_id":"7d7afa66-5ef1-4b1a-aae4-392d03730027","system_id":"levelo_inurba_marseille","lat":43.27911,"lon":5.39575,"is_reserved":false,"is_disabled":false,"rental_uris":{"android":"levelo://app?vid=7d7afa66-5ef1-4b1a-aae4-392d03730027","ios":"levelo://app?vid=7d7afa66-5ef1-4b1a-aae4-392d03730027"},"vehicle_type_id":"4","last_reported":1726182622,"current_range_meters":6000,"station_id":"ce4bhf92rcd13ifvqf40","pricing_plan_id":"cebpf4jnsgd1na2vs0mg"},{"bike_id":"49be7d2b-83ea-4414-9d0f-9747930e161d","system_id":"levelo_inurba_marseille","lat":43.3088,"lon":5.39631,"is_reserved":false,"is_disabled":false,"rental_uris":{"android":"levelo://app?vid=49be7d2b-83ea-4414-9d0f-9747930e161d","ios":"levelo://app?vid=49be7d2b-83ea-4414-9d0f-9747930e161d"},"vehicle_type_id":"4","last_reported":1726182622,"current_range_meters":16400,"station_id":"ce4bh012rcd13ifvqcv0","pricing_plan_id":"cebpf4jnsgd1na2vs0mg"},{"bike_id":"9d302fd2-cf2d-4d06-b7d7-4f621dedcd6a","system_id":"levelo_inurba_marseille","lat":43.32362,"lon":5.3889,"is_reserved":false,"is_disabled":false,"rental_uris":{"android":"levelo://app?vid=9d302fd2-cf2d-4d06-b7d7-4f621dedcd6a","ios":"levelo://app?vid=9d302fd2-cf2d-4d06-b7d7-4f621dedcd6a"},"vehicle_type_id":"4","last_reported":1726182622,"current_range_meters":24000,"station_id":"ce4bhqp2rcd13ifvqhog","pricing_plan_id":"cebpf4jnsgd1na2vs0mg"},{"bike_id":"e46e7b90-db61-40f4-a346-b3460264d71b","system_id":"levelo_inurba_marseille","lat":43.30898,"lon":5.39643,"is_reserved":false,"is_disabled":false,"rental_uris":{"android":"levelo://app?vid=e46e7b90-db61-40f4-a346-b3460264d71b","ios":"levelo://app?vid=e46e7b90-db61-40f4-a346-b3460264d71b"},"vehicle_type_id":"4","last_reported":1726182622,"current_range_meters":38400,"station_id":"ce4bh012rcd13ifvqcv0","pricing_plan_id":"cebpf4jnsgd1na2vs0mg"},{"bike_id":"8263ea4a-64d0-4c72-9510-874ccbb3b8e8","system_id":"levelo_inurba_marseille","lat":43.2868,"lon":5.36349,"is_reserved":false,"is_disabled":false,"rental_uris":{"android":"levelo://app?vid=8263ea4a-64d0-4c72-9510-874ccbb3b8e8","ios":"levelo://app?vid=8263ea4a-64d0-4c72-9510-874ccbb3b8e8"},"vehicle_type_id":"4","last_reported":1726182622,"current_range_meters":4400,"station_id":"ce4bhah2rcd13ifvqej0","pricing_plan_id":"cebpf4jnsgd1na2vs0mg"},{"bike_id":"d80f338e-c7b9-4843-a0cc-56dcfe3a81de","system_id":"levelo_inurba_marseille","lat":43.26216,"lon":5.37439,"is_reserved":false,"is_disabled":false,"rental_uris":{"android":"levelo://app?vid=d80f338e-c7b9-4843-a0cc-56dcfe3a81de","ios":"levelo://app?vid=d80f338e-c7b9-4843-a0cc-56dcfe3a81de"},"vehicle_type_id":"4","last_reported":1726182622,"current_range_meters":38800,"station_id":"ce4bhgp2rcd13ifvqfc0","pricing_plan_id":"cebpf4jnsgd1na2vs0mg"},{"bike_id":"3fd95b83-0fdb-4146-a785-5a14738680ad","system_id":"levelo_inurba_marseille","lat":43.25724,"lon":5.41118,"is_reserved":false,"is_disabled":false,"rental_uris":{"android":"levelo://app?vid=3fd95b83-0fdb-4146-a785-5a14738680ad","ios":"levelo://app?vid=3fd95b83-0fdb-4146-a785-5a14738680ad"},"vehicle_type_id":"4","last_reported":1726182622,"current_range_meters":36400,"station_id":"ce4bhkp2rcd13ifvqgd0","pricing_plan_id":"cebpf4jnsgd1na2vs0mg"},{"bike_id":"9ced008f-ae08-4331-b6bc-4d140a97a4b2","system_id":"levelo_inurba_marseille","lat":43.31539,"lon":5.38035,"is_reserved":false,"is_disabled":false,"rental_uris":{"android":"levelo://app?vid=9ced008f-ae08-4331-b6bc-4d140a97a4b2","ios":"levelo://app?vid=9ced008f-ae08-4331-b6bc-4d140a97a4b2"},"vehicle_type_id":"4","last_reported":1726182622,"current_range_meters":38800,"station_id":"ce4bhsp2rcd13ifvqi50","pricing_plan_id":"cebpf4jnsgd1na2vs0mg"},{"bike_id":"d4ca384e-a23d-4802-be23-f450736c27cb","system_id":"levelo_inurba_marseille","lat":43.2791,"lon":5.38006,"is_reserved":false,"is_disabled":false,"rental_uris":{"android":"levelo://app?vid=d4ca384e-a23d-4802-be23-f450736c27cb","ios":"levelo://app?vid=d4ca384e-a23d-4802-be23-f450736c27cb"},"vehicle_type_id":"4","last_reported":1726182622,"current_range_meters":25600,"station_id":"ce4bhf92rcd13ifvqf50","pricing_plan_id":"cebpf4jnsgd1na2vs0mg"},{"bike_id":"8e3fa3c4-0578-445b-a91d-9a9f0137a0dd","system_id":"levelo_inurba_marseille","lat":43.2669,"lon":5.38271,"is_reserved":false,"is_disabled":false,"rental_uris":{"android":"levelo://app?vid=8e3fa3c4-0578-445b-a91d-9a9f0137a0dd","ios":"levelo://app?vid=8e3fa3c4-0578-445b-a91d-9a9f0137a0dd"},"vehicle_type_id":"4","last_reported":1726182622,"current_range_meters":27200,"station_id":"ce4bhg92rcd13ifvqf90","pricing_plan_id":"cebpf4jnsgd1na2vs0mg"},{"bike_id":"9f1ce198-d330-4b17-9e80-6919f0fa4133","system_id":"levelo_inurba_marseille","lat":43.31081,"lon":5.38351,"is_reserved":false,"is_disabled":false,"rental_uris":{"android":"levelo://app?vid=9f1ce198-d330-4b17-9e80-6919f0fa4133","ios":"levelo://app?vid=9f1ce198-d330-4b17-9e80-6919f0fa4133"},"vehicle_type_id":"4","last_reported":1726182622,"current_range_meters":7200,"station_id":"ce4bgv92rcd13ifvqcr0","pricing_plan_id":"cebpf4jnsgd1na2vs0mg"},{"bike_id":"e3320e68-dfa0-4bc4-adc1-b1a0d7991732","system_id":"levelo_inurba_marseille","lat":43.255005,"lon":5.376502,"is_reserved":false,"is_disabled":false,"rental_uris":{"android":"levelo://app?vid=e3320e68-dfa0-4bc4-adc1-b1a0d7991732","ios":"levelo://app?vid=e3320e68-dfa0-4bc4-adc1-b1a0d7991732"},"vehicle_type_id":"4","last_reported":1726182622,"current_range_meters":37600,"station_id":"ce4bhh12rcd13ifvqff0","pricing_plan_id":"cebpf4jnsgd1na2vs0mg"},{"bike_id":"900a59e0-d4df-402b-851e-a05dc84a45ad","system_id":"levelo_inurba_marseille","lat":43.29966,"lon":5.38494,"is_reserved":false,"is_disabled":false,"rental_uris":{"android":"levelo://app?vid=900a59e0-d4df-402b-851e-a05dc84a45ad","ios":"levelo://app?vid=900a59e0-d4df-402b-851e-a05dc84a45ad"},"vehicle_type_id":"4","last_reported":1726182622,"current_range_meters":16000,"station_id":"ce4bgj92rcd13ifvqbd0","pricing_plan_id":"cebpf4jnsgd1na2vs0mg"},{"bike_id":"c5cba1c4-5d62-494b-9dbe-75faa51bf8d0","system_id":"levelo_inurba_marseille","lat":43.28055,"lon":5.36947,"is_reserved":false,"is_disabled":false,"rental_uris":{"android":"levelo://app?vid=c5cba1c4-5d62-494b-9dbe-75faa51bf8d0","ios":"levelo://app?vid=c5cba1c4-5d62-494b-9dbe-75faa51bf8d0"},"vehicle_type_id":"4","last_reported":1726182622,"current_range_meters":10000,"station_id":"ce4bha12rcd13ifvqef0","pricing_plan_id":"cebpf4jnsgd1na2vs0mg"},{"bike_id":"ddd8d07b-96c6-4a6d-8f23-ec5dfa9353ab","system_id":"levelo_inurba_marseille","lat":43.28673,"lon":5.38675,"is_reserved":false,"is_disabled":false,"rental_uris":{"android":"levelo://app?vid=ddd8d07b-96c6-4a6d-8f23-ec5dfa9353ab","ios":"levelo://app?vid=ddd8d07b-96c6-4a6d-8f23-ec5dfa9353ab"},"vehicle_type_id":"4","last_reported":1726182622,"current_range_meters":31200,"station_id":"ce4bh492rcd13ifvqdug","pricing_plan_id":"cebpf4jnsgd1na2vs0mg"},{"bike_id":"83ac9e25-2268-4367-87ed-acf4518566e4","system_id":"levelo_inurba_marseille","lat":43.27076,"lon":5.42278,"is_reserved":false,"is_disabled":false,"rental_uris":{"android":"levelo://app?vid=83ac9e25-2268-4367-87ed-acf4518566e4","ios":"levelo://app?vid=83ac9e25-2268-4367-87ed-acf4518566e4"},"vehicle_type_id":"4","last_reported":1726182622,"current_range_meters":20800,"station_id":"ce4bhk92rcd13ifvqgb0","pricing_plan_id":"cebpf4jnsgd1na2vs0mg"},{"bike_id":"86b6a2b1-86a4-46ee-8c7e-90cb86d3d820","system_id":"levelo_inurba_marseille","lat":43.31332,"lon":5.39698,"is_reserved":false,"is_disabled":false,"rental_uris":{"android":"levelo://app?vid=86b6a2b1-86a4-46ee-8c7e-90cb86d3d820","ios":"levelo://app?vid=86b6a2b1-86a4-46ee-8c7e-90cb86d3d820"},"vehicle_type_id":"4","last_reported":1726182622,"current_range_meters":38800,"station_id":"ce4bgvp2rcd13ifvqcu0","pricing_plan_id":"cebpf4jnsgd1na2vs0mg"},{"bike_id":"b86bd22c-759d-41d6-9ca6-9c56e72a0cc3","system_id":"levelo_inurba_marseille","lat":43.3094,"lon":5.4014,"is_reserved":false,"is_disabled":false,"rental_uris":{"android":"levelo://app?vid=b86bd22c-759d-41d6-9ca6-9c56e72a0cc3","ios":"levelo://app?vid=b86bd22c-759d-41d6-9ca6-9c56e72a0cc3"},"vehicle_type_id":"4","last_reported":1726182622,"current_range_meters":29600,"station_id":"ce4bgvp2rcd13ifvqct0","pricing_plan_id":"cebpf4jnsgd1na2vs0mg"},{"bike_id":"e3a5129c-bff7-4d01-9368-49c334e7212e","system_id":"levelo_inurba_marseille","lat":43.29443,"lon":5.39747,"is_reserved":false,"is_disabled":false,"rental_uris":{"android":"levelo://app?vid=e3a5129c-bff7-4d01-9368-49c334e7212e","ios":"levelo://app?vid=e3a5129c-bff7-4d01-9368-49c334e7212e"},"vehicle_type_id":"4","last_reported":1726182622,"current_range_meters":29600,"station_id":"ce4bh3h2rcd13ifvqdo0","pricing_plan_id":"cebpf4jnsgd1na2vs0mg"},{"bike_id":"6a81ada9-c4f5-4d4c-acd0-9aa1a1ab1123","system_id":"levelo_inurba_marseille","lat":43.2804,"lon":5.40614,"is_reserved":false,"is_disabled":false,"rental_uris":{"android":"levelo://app?vid=6a81ada9-c4f5-4d4c-acd0-9aa1a1ab1123","ios":"levelo://app?vid=6a81ada9-c4f5-4d4c-acd0-9aa1a1ab1123"},"vehicle_type_id":"4","last_reported":1726182622,"current_range_meters":28400,"station_id":"","pricing_plan_id":"cebpf4jnsgd1na2vs0mg"},{"bike_id":"8e98efbc-337e-43f7-aebb-3708ed1326a7","system_id":"levelo_inurba_marseille","lat":43.28408,"lon":5.37526,"is_reserved":false,"is_disabled":false,"rental_uris":{"android":"levelo://app?vid=8e98efbc-337e-43f7-aebb-3708ed1326a7","ios":"levelo://app?vid=8e98efbc-337e-43f7-aebb-3708ed1326a7"},"vehicle_type_id":"4","last_reported":1726182622,"current_range_meters":24800,"station_id":"ce4bh412rcd13ifvqds0","pricing_plan_id":"cebpf4jnsgd1na2vs0mg"},{"bike_id":"7a1438cb-49ef-45e0-b4f2-8d8919c254de","system_id":"levelo_inurba_marseille","lat":43.30936,"lon":5.40146,"is_reserved":false,"is_disabled":false,"rental_uris":{"android":"levelo://app?vid=7a1438cb-49ef-45e0-b4f2-8d8919c254de","ios":"levelo://app?vid=7a1438cb-49ef-45e0-b4f2-8d8919c254de"},"vehicle_type_id":"4","last_reported":1726182622,"current_range_meters":39200,"station_id":"ce4bgvp2rcd13ifvqct0","pricing_plan_id":"cebpf4jnsgd1na2vs0mg"},{"bike_id":"af86506f-f8fe-4c34-9939-464ebed8523b","system_id":"levelo_inurba_marseille","lat":43.31757,"lon":5.39018,"is_reserved":false,"is_disabled":false,"rental_uris":{"android":"levelo://app?vid=af86506f-f8fe-4c34-9939-464ebed8523b","ios":"levelo://app?vid=af86506f-f8fe-4c34-9939-464ebed8523b"},"vehicle_type_id":"4","last_reported":1726182622,"current_range_meters":39200,"station_id":"ce4bhqp2rcd13ifvqhng","pricing_plan_id":"cebpf4jnsgd1na2vs0mg"},{"bike_id":"4067cf6c-6e3d-4ac9-99bf-c1b92b69f736","system_id":"levelo_inurba_marseille","lat":43.32495,"lon":5.36564,"is_reserved":false,"is_disabled":false,"rental_uris":{"android":"levelo://app?vid=4067cf6c-6e3d-4ac9-99bf-c1b92b69f736","ios":"levelo://app?vid=4067cf6c-6e3d-4ac9-99bf-c1b92b69f736"},"vehicle_type_id":"4","last_reported":1726182622,"current_range_meters":27600,"station_id":"ce4bhs12rcd13ifvqhvg","pricing_plan_id":"cebpf4jnsgd1na2vs0mg"},{"bike_id":"9a294201-177a-42e2-b4e6-ec74738f7951","system_id":"levelo_inurba_marseille","lat":43.26959,"lon":5.38627,"is_reserved":false,"is_disabled":false,"rental_uris":{"android":"levelo://app?vid=9a294201-177a-42e2-b4e6-ec74738f7951","ios":"levelo://app?vid=9a294201-177a-42e2-b4e6-ec74738f7951"},"vehicle_type_id":"4","last_reported":1726182622,"current_range_meters":35200,"station_id":"ce4bhh92rcd13ifvqfh0","pricing_plan_id":"cebpf4jnsgd1na2vs0mg"},{"bike_id":"13de77b8-d5ac-460c-9ea6-9ccccce3ea1f","system_id":"levelo_inurba_marseille","lat":43.27912,"lon":5.39572,"is_reserved":false,"is_disabled":false,"rental_uris":{"android":"levelo://app?vid=13de77b8-d5ac-460c-9ea6-9ccccce3ea1f","ios":"levelo://app?vid=13de77b8-d5ac-460c-9ea6-9ccccce3ea1f"},"vehicle_type_id":"4","last_reported":1726182622,"current_range_meters":38800,"station_id":"ce4bhf92rcd13ifvqf40","pricing_plan_id":"cebpf4jnsgd1na2vs0mg"},{"bike_id":"b4690210-bc85-4d1c-b4b2-bd188e8e13d0","system_id":"levelo_inurba_marseille","lat":43.30777,"lon":5.37656,"is_reserved":false,"is_disabled":false,"rental_uris":{"android":"levelo://app?vid=b4690210-bc85-4d1c-b4b2-bd188e8e13d0","ios":"levelo://app?vid=b4690210-bc85-4d1c-b4b2-bd188e8e13d0"},"vehicle_type_id":"4","last_reported":1726182622,"current_range_meters":6000,"station_id":"ce4bgv92rcd13ifvqcq0","pricing_plan_id":"cebpf4jnsgd1na2vs0mg"},{"bike_id":"02388115-3e7a-485f-9e4c-ab36cd10850f","system_id":"levelo_inurba_marseille","lat":43.28682,"lon":5.36345,"is_reserved":false,"is_disabled":false,"rental_uris":{"android":"levelo://app?vid=02388115-3e7a-485f-9e4c-ab36cd10850f","ios":"levelo://app?vid=02388115-3e7a-485f-9e4c-ab36cd10850f"},"vehicle_type_id":"4","last_reported":1726182622,"current_range_meters":5600,"station_id":"ce4bhah2rcd13ifvqej0","pricing_plan_id":"cebpf4jnsgd1na2vs0mg"},{"bike_id":"eaf3218e-3b2a-4dde-9c15-99a6c4254e56","system_id":"levelo_inurba_marseille","lat":43.29896,"lon":5.43658,"is_reserved":false,"is_disabled":false,"rental_uris":{"android":"levelo://app?vid=eaf3218e-3b2a-4dde-9c15-99a6c4254e56","ios":"levelo://app?vid=eaf3218e-3b2a-4dde-9c15-99a6c4254e56"},"vehicle_type_id":"4","last_reported":1726182622,"current_range_meters":39200,"station_id":"ce4bhpp2rcd13ifvqhfg","pricing_plan_id":"cebpf4jnsgd1na2vs0mg"},{"bike_id":"e457aa6e-9797-4725-bcb7-f770893e3247","system_id":"levelo_inurba_marseille","lat":43.32339,"lon":5.40618,"is_reserved":false,"is_disabled":false,"rental_uris":{"android":"levelo://app?vid=e457aa6e-9797-4725-bcb7-f770893e3247","ios":"levelo://app?vid=e457aa6e-9797-4725-bcb7-f770893e3247"},"vehicle_type_id":"4","last_reported":1726182622,"current_range_meters":39200,"station_id":"ce4bhq92rcd13ifvqhjg","pricing_plan_id":"cebpf4jnsgd1na2vs0mg"},{"bike_id":"8627c546-9d7f-4fb7-b68e-aa6339a7259c","system_id":"levelo_inurba_marseille","lat":43.29612,"lon":5.38102,"is_reserved":false,"is_disabled":false,"rental_uris":{"android":"levelo://app?vid=8627c546-9d7f-4fb7-b68e-aa6339a7259c","ios":"levelo://app?vid=8627c546-9d7f-4fb7-b68e-aa6339a7259c"},"vehicle_type_id":"4","last_reported":1726182622,"current_range_meters":18800,"station_id":"ce4bgl12rcd13ifvqbo0","pricing_plan_id":"cebpf4jnsgd1na2vs0mg"},{"bike_id":"cecface1-56d7-4ab5-8598-175ab47731bd","system_id":"levelo_inurba_marseille","lat":43.29639,"lon":5.40602,"is_reserved":false,"is_disabled":false,"rental_uris":{"android":"levelo://app?vid=cecface1-56d7-4ab5-8598-175ab47731bd","ios":"levelo://app?vid=cecface1-56d7-4ab5-8598-175ab47731bd"},"vehicle_type_id":"4","last_reported":1726182622,"current_range_meters":30000,"station_id":"ce4bh0h2rcd13ifvqd60","pricing_plan_id":"cebpf4jnsgd1na2vs0mg"},{"bike_id":"baa68333-5ce5-4d97-9d8d-15e7b1289bc4","system_id":"levelo_inurba_marseille","lat":43.28407,"lon":5.3751,"is_reserved":false,"is_disabled":false,"rental_uris":{"android":"levelo://app?vid=baa68333-5ce5-4d97-9d8d-15e7b1289bc4","ios":"levelo://app?vid=baa68333-5ce5-4d97-9d8d-15e7b1289bc4"},"vehicle_type_id":"4","last_reported":1726182622,"current_range_meters":24400,"station_id":"ce4bh412rcd13ifvqds0","pricing_plan_id":"cebpf4jnsgd1na2vs0mg"},{"bike_id":"e1a7639c-7174-475c-ad2b-19afe11370ad","system_id":"levelo_inurba_marseille","lat":43.30934,"lon":5.40147,"is_reserved":false,"is_disabled":false,"rental_uris":{"android":"levelo://app?vid=e1a7639c-7174-475c-ad2b-19afe11370ad","ios":"levelo://app?vid=e1a7639c-7174-475c-ad2b-19afe11370ad"},"vehicle_type_id":"4","last_reported":1726182622,"current_range_meters":24400,"station_id":"ce4bgvp2rcd13ifvqct0","pricing_plan_id":"cebpf4jnsgd1na2vs0mg"},{"bike_id":"4db079ec-c65a-43df-bfcc-9b7a2e2d7a2a","system_id":"levelo_inurba_marseille","lat":43.28446,"lon":5.39182,"is_reserved":false,"is_disabled":false,"rental_uris":{"android":"levelo://app?vid=4db079ec-c65a-43df-bfcc-9b7a2e2d7a2a","ios":"levelo://app?vid=4db079ec-c65a-43df-bfcc-9b7a2e2d7a2a"},"vehicle_type_id":"4","last_reported":1726182622,"current_range_meters":38800,"station_id":"ce4bhoh2rcd13ifvqh5g","pricing_plan_id":"cebpf4jnsgd1na2vs0mg"},{"bike_id":"ed2556c2-3ae8-4cd9-96da-9d8dfef2b271","system_id":"levelo_inurba_marseille","lat":43.27921,"lon":5.39575,"is_reserved":false,"is_disabled":false,"rental_uris":{"android":"levelo://app?vid=ed2556c2-3ae8-4cd9-96da-9d8dfef2b271","ios":"levelo://app?vid=ed2556c2-3ae8-4cd9-96da-9d8dfef2b271"},"vehicle_type_id":"4","last_reported":1726182622,"current_range_meters":24800,"station_id":"ce4bhf92rcd13ifvqf40","pricing_plan_id":"cebpf4jnsgd1na2vs0mg"},{"bike_id":"89b52cf9-f28f-4fbf-9f58-9f98a82c41c7","system_id":"levelo_inurba_marseille","lat":43.28458,"lon":5.35877,"is_reserved":false,"is_disabled":false,"rental_uris":{"android":"levelo://app?vid=89b52cf9-f28f-4fbf-9f58-9f98a82c41c7","ios":"levelo://app?vid=89b52cf9-f28f-4fbf-9f58-9f98a82c41c7"},"vehicle_type_id":"4","last_reported":1726182622,"current_range_meters":5600,"station_id":"ce4bhah2rcd13ifvqei0","pricing_plan_id":"cebpf4jnsgd1na2vs0mg"},{"bike_id":"46cf5587-ec03-47b0-9a29-cf537021b470","system_id":"levelo_inurba_marseille","lat":43.32366,"lon":5.38881,"is_reserved":false,"is_disabled":false,"rental_uris":{"android":"levelo://app?vid=46cf5587-ec03-47b0-9a29-cf537021b470","ios":"levelo://app?vid=46cf5587-ec03-47b0-9a29-cf537021b470"},"vehicle_type_id":"4","last_reported":1726182622,"current_range_meters":19600,"station_id":"ce4bhqp2rcd13ifvqhog","pricing_plan_id":"cebpf4jnsgd1na2vs0mg"},{"bike_id":"8a2cc269-df03-483d-8cae-4e5c81d88fc8","system_id":"levelo_inurba_marseille","lat":43.28714,"lon":5.39974,"is_reserved":false,"is_disabled":false,"rental_uris":{"android":"levelo://app?vid=8a2cc269-df03-483d-8cae-4e5c81d88fc8","ios":"levelo://app?vid=8a2cc269-df03-483d-8cae-4e5c81d88fc8"},"vehicle_type_id":"4","last_reported":1726182622,"current_range_meters":11200,"station_id":"ce4bho92rcd13ifvqh3g","pricing_plan_id":"cebpf4jnsgd1na2vs0mg"},{"bike_id":"8764129a-9b8d-4490-a1c9-f9fa60b4a560","system_id":"levelo_inurba_marseille","lat":43.33614,"lon":5.41026,"is_reserved":false,"is_disabled":false,"rental_uris":{"android":"levelo://app?vid=8764129a-9b8d-4490-a1c9-f9fa60b4a560","ios":"levelo://app?vid=8764129a-9b8d-4490-a1c9-f9fa60b4a560"},"vehicle_type_id":"4","last_reported":1726182622,"current_range_meters":39200,"station_id":"ce4bhqh2rcd13ifvqhmg","pricing_plan_id":"cebpf4jnsgd1na2vs0mg"},{"bike_id":"cdb7f7b4-ad89-4f18-9858-49d0e878e14f","system_id":"levelo_inurba_marseille","lat":43.32546,"lon":5.41431,"is_reserved":false,"is_disabled":false,"rental_uris":{"android":"levelo://app?vid=cdb7f7b4-ad89-4f18-9858-49d0e878e14f","ios":"levelo://app?vid=cdb7f7b4-ad89-4f18-9858-49d0e878e14f"},"vehicle_type_id":"4","last_reported":1726182622,"current_range_meters":2800,"station_id":"ce4bhq12rcd13ifvqhhg","pricing_plan_id":"cebpf4jnsgd1na2vs0mg"},{"bike_id":"6516f0c6-d4ca-4768-a850-967ced0d59bb","system_id":"levelo_inurba_marseille","lat":43.298,"lon":5.39338,"is_reserved":false,"is_disabled":false,"rental_uris":{"android":"levelo://app?vid=6516f0c6-d4ca-4768-a850-967ced0d59bb","ios":"levelo://app?vid=6516f0c6-d4ca-4768-a850-967ced0d59bb"},"vehicle_type_id":"4","last_reported":1726182622,"current_range_meters":35200,"station_id":"chh1huq6cuj3fo74tm60","pricing_plan_id":"cebpf4jnsgd1na2vs0mg"},{"bike_id":"96cb29cb-8da1-4dd6-bd35-ee190827a973","system_id":"levelo_inurba_marseille","lat":43.26558,"lon":5.37284,"is_reserved":false,"is_disabled":false,"rental_uris":{"android":"levelo://app?vid=96cb29cb-8da1-4dd6-bd35-ee190827a973","ios":"levelo://app?vid=96cb29cb-8da1-4dd6-bd35-ee190827a973"},"vehicle_type_id":"4","last_reported":1726182622,"current_range_meters":8400,"station_id":"ce4bhg12rcd13ifvqf70","pricing_plan_id":"cebpf4jnsgd1na2vs0mg"},{"bike_id":"a61c9e04-bce5-4e44-99ea-7dd65bcde295","system_id":"levelo_inurba_marseille","lat":43.2901,"lon":5.3562,"is_reserved":false,"is_disabled":false,"rental_uris":{"android":"levelo://app?vid=a61c9e04-bce5-4e44-99ea-7dd65bcde295","ios":"levelo://app?vid=a61c9e04-bce5-4e44-99ea-7dd65bcde295"},"vehicle_type_id":"4","last_reported":1726182622,"current_range_meters":28000,"station_id":"ce4bhb92rcd13ifvqen0","pricing_plan_id":"cebpf4jnsgd1na2vs0mg"},{"bike_id":"cd75701b-d41a-41fb-929e-c69d8fbf02a7","system_id":"levelo_inurba_marseille","lat":43.23972,"lon":5.36632,"is_reserved":false,"is_disabled":false,"rental_uris":{"android":"levelo://app?vid=cd75701b-d41a-41fb-929e-c69d8fbf02a7","ios":"levelo://app?vid=cd75701b-d41a-41fb-929e-c69d8fbf02a7"},"vehicle_type_id":"4","last_reported":1726182622,"current_range_meters":30000,"station_id":"ce4bhi12rcd13ifvqfp0","pricing_plan_id":"cebpf4jnsgd1na2vs0mg"},{"bike_id":"012e77e7-347d-4ec8-8319-260ab680b165","system_id":"levelo_inurba_marseille","lat":43.28103,"lon":5.37843,"is_reserved":false,"is_disabled":false,"rental_uris":{"android":"levelo://app?vid=012e77e7-347d-4ec8-8319-260ab680b165","ios":"levelo://app?vid=012e77e7-347d-4ec8-8319-260ab680b165"},"vehicle_type_id":"4","last_reported":1726182622,"current_range_meters":14400,"station_id":"ce4bha12rcd13ifvqee0","pricing_plan_id":"cebpf4jnsgd1na2vs0mg"},{"bike_id":"9b49fc06-69dc-4375-9bc8-2ab31283d424","system_id":"levelo_inurba_marseille","lat":43.29899,"lon":5.43658,"is_reserved":false,"is_disabled":false,"rental_uris":{"android":"levelo://app?vid=9b49fc06-69dc-4375-9bc8-2ab31283d424","ios":"levelo://app?vid=9b49fc06-69dc-4375-9bc8-2ab31283d424"},"vehicle_type_id":"4","last_reported":1726182622,"current_range_meters":38800,"station_id":"ce4bhpp2rcd13ifvqhfg","pricing_plan_id":"cebpf4jnsgd1na2vs0mg"},{"bike_id":"7cb88d9c-4fcb-4cf8-989f-12f6d423e8b3","system_id":"levelo_inurba_marseille","lat":43.27074,"lon":5.42279,"is_reserved":false,"is_disabled":false,"rental_uris":{"android":"levelo://app?vid=7cb88d9c-4fcb-4cf8-989f-12f6d423e8b3","ios":"levelo://app?vid=7cb88d9c-4fcb-4cf8-989f-12f6d423e8b3"},"vehicle_type_id":"4","last_reported":1726182622,"current_range_meters":32000,"station_id":"ce4bhk92rcd13ifvqgb0","pricing_plan_id":"cebpf4jnsgd1na2vs0mg"},{"bike_id":"2a5b8669-a39c-418c-95de-04ed7a3b697d","system_id":"levelo_inurba_marseille","lat":43.28113,"lon":5.3785,"is_reserved":false,"is_disabled":false,"rental_uris":{"android":"levelo://app?vid=2a5b8669-a39c-418c-95de-04ed7a3b697d","ios":"levelo://app?vid=2a5b8669-a39c-418c-95de-04ed7a3b697d"},"vehicle_type_id":"4","last_reported":1726182622,"current_range_meters":38000,"station_id":"ce4bha12rcd13ifvqee0","pricing_plan_id":"cebpf4jnsgd1na2vs0mg"},{"bike_id":"34ede407-fce7-4386-8202-618277aaeb81","system_id":"levelo_inurba_marseille","lat":43.27818,"lon":5.40712,"is_reserved":false,"is_disabled":false,"rental_uris":{"android":"levelo://app?vid=34ede407-fce7-4386-8202-618277aaeb81","ios":"levelo://app?vid=34ede407-fce7-4386-8202-618277aaeb81"},"vehicle_type_id":"4","last_reported":1726182622,"current_range_meters":30400,"station_id":"ce4bhnh2rcd13ifvqgtg","pricing_plan_id":"cebpf4jnsgd1na2vs0mg"},{"bike_id":"a9537a4b-a7c4-46fd-ac30-52f5354b0ad6","system_id":"levelo_inurba_marseille","lat":43.31704,"lon":5.40478,"is_reserved":false,"is_disabled":false,"rental_uris":{"android":"levelo://app?vid=a9537a4b-a7c4-46fd-ac30-52f5354b0ad6","ios":"levelo://app?vid=a9537a4b-a7c4-46fd-ac30-52f5354b0ad6"},"vehicle_type_id":"4","last_reported":1726182622,"current_range_meters":38800,"station_id":"ce4bh012rcd13ifvqd00","pricing_plan_id":"cebpf4jnsgd1na2vs0mg"},{"bike_id":"98c41a42-a764-442b-bc30-ebd49030c355","system_id":"levelo_inurba_marseille","lat":43.28466,"lon":5.35883,"is_reserved":false,"is_disabled":false,"rental_uris":{"android":"levelo://app?vid=98c41a42-a764-442b-bc30-ebd49030c355","ios":"levelo://app?vid=98c41a42-a764-442b-bc30-ebd49030c355"},"vehicle_type_id":"4","last_reported":1726182622,"current_range_meters":36000,"station_id":"ce4bhah2rcd13ifvqei0","pricing_plan_id":"cebpf4jnsgd1na2vs0mg"},{"bike_id":"d60c1bbd-cf31-4e27-a0d2-a8f58c6e7cd3","system_id":"levelo_inurba_marseille","lat":43.27922,"lon":5.39584,"is_reserved":false,"is_disabled":false,"rental_uris":{"android":"levelo://app?vid=d60c1bbd-cf31-4e27-a0d2-a8f58c6e7cd3","ios":"levelo://app?vid=d60c1bbd-cf31-4e27-a0d2-a8f58c6e7cd3"},"vehicle_type_id":"4","last_reported":1726182622,"current_range_meters":36400,"station_id":"ce4bhf92rcd13ifvqf40","pricing_plan_id":"cebpf4jnsgd1na2vs0mg"},{"bike_id":"4d128cdd-31dd-4351-924e-8767472eb71e","system_id":"levelo_inurba_marseille","lat":43.30325,"lon":5.4044,"is_reserved":false,"is_disabled":false,"rental_uris":{"android":"levelo://app?vid=4d128cdd-31dd-4351-924e-8767472eb71e","ios":"levelo://app?vid=4d128cdd-31dd-4351-924e-8767472eb71e"},"vehicle_type_id":"4","last_reported":1726182622,"current_range_meters":38800,"station_id":"ce4bh012rcd13ifvqd10","pricing_plan_id":"cebpf4jnsgd1na2vs0mg"},{"bike_id":"eb01f971-c89c-4dfc-9a31-66ce9efd20ca","system_id":"levelo_inurba_marseille","lat":43.27186,"lon":5.40994,"is_reserved":false,"is_disabled":false,"rental_uris":{"android":"levelo://app?vid=eb01f971-c89c-4dfc-9a31-66ce9efd20ca","ios":"levelo://app?vid=eb01f971-c89c-4dfc-9a31-66ce9efd20ca"},"vehicle_type_id":"4","last_reported":1726182622,"current_range_meters":39200,"station_id":"ce4bhl12rcd13ifvqgf0","pricing_plan_id":"cebpf4jnsgd1na2vs0mg"},{"bike_id":"cac78a6e-a1e0-4f97-9b48-10fba0a2004d","system_id":"levelo_inurba_marseille","lat":43.2319,"lon":5.35545,"is_reserved":false,"is_disabled":false,"rental_uris":{"android":"levelo://app?vid=cac78a6e-a1e0-4f97-9b48-10fba0a2004d","ios":"levelo://app?vid=cac78a6e-a1e0-4f97-9b48-10fba0a2004d"},"vehicle_type_id":"4","last_reported":1726182622,"current_range_meters":4400,"station_id":"ce4bhu92rcd13ifvqi70","pricing_plan_id":"cebpf4jnsgd1na2vs0mg"},{"bike_id":"b5ba5ac8-678a-41d2-9961-9039434fc335","system_id":"levelo_inurba_marseille","lat":43.26577,"lon":5.39004,"is_reserved":false,"is_disabled":false,"rental_uris":{"android":"levelo://app?vid=b5ba5ac8-678a-41d2-9961-9039434fc335","ios":"levelo://app?vid=b5ba5ac8-678a-41d2-9961-9039434fc335"},"vehicle_type_id":"4","last_reported":1726182622,"current_range_meters":16800,"station_id":"ce4bhe12rcd13ifvqf30","pricing_plan_id":"cebpf4jnsgd1na2vs0mg"},{"bike_id":"861a336d-0e09-4cc7-8925-1f7d3461fcaa","system_id":"levelo_inurba_marseille","lat":43.23966,"lon":5.36635,"is_reserved":false,"is_disabled":false,"rental_uris":{"android":"levelo://app?vid=861a336d-0e09-4cc7-8925-1f7d3461fcaa","ios":"levelo://app?vid=861a336d-0e09-4cc7-8925-1f7d3461fcaa"},"vehicle_type_id":"4","last_reported":1726182622,"current_range_meters":16000,"station_id":"ce4bhi12rcd13ifvqfp0","pricing_plan_id":"cebpf4jnsgd1na2vs0mg"},{"bike_id":"72b517d2-6987-46d8-857e-779bc7604f01","system_id":"levelo_inurba_marseille","lat":43.26027,"lon":5.37556,"is_reserved":false,"is_disabled":false,"rental_uris":{"android":"levelo://app?vid=72b517d2-6987-46d8-857e-779bc7604f01","ios":"levelo://app?vid=72b517d2-6987-46d8-857e-779bc7604f01"},"vehicle_type_id":"4","last_reported":1726182622,"current_range_meters":23200,"station_id":"ce4bhgh2rcd13ifvqfa0","pricing_plan_id":"cebpf4jnsgd1na2vs0mg"},{"bike_id":"53d2bf3d-4905-49f9-89c4-324506aca78e","system_id":"levelo_inurba_marseille","lat":43.31853,"lon":5.4092,"is_reserved":false,"is_disabled":false,"rental_uris":{"android":"levelo://app?vid=53d2bf3d-4905-49f9-89c4-324506aca78e","ios":"levelo://app?vid=53d2bf3d-4905-49f9-89c4-324506aca78e"},"vehicle_type_id":"4","last_reported":1726182622,"current_range_meters":20400,"station_id":"","pricing_plan_id":"cebpf4jnsgd1na2vs0mg"},{"bike_id":"305f8fcc-dafb-4f16-b7bc-8693ccbd4dec","system_id":"levelo_inurba_marseille","lat":43.27658,"lon":5.39742,"is_reserved":false,"is_disabled":false,"rental_uris":{"android":"levelo://app?vid=305f8fcc-dafb-4f16-b7bc-8693ccbd4dec","ios":"levelo://app?vid=305f8fcc-dafb-4f16-b7bc-8693ccbd4dec"},"vehicle_type_id":"4","last_reported":1726182622,"current_range_meters":22400,"station_id":"","pricing_plan_id":"cebpf4jnsgd1na2vs0mg"},{"bike_id":"a2cd8b1a-5149-423f-b006-3a9bf1a7a464","system_id":"levelo_inurba_marseille","lat":43.27504,"lon":5.42449,"is_reserved":false,"is_disabled":false,"rental_uris":{"android":"levelo://app?vid=a2cd8b1a-5149-423f-b006-3a9bf1a7a464","ios":"levelo://app?vid=a2cd8b1a-5149-423f-b006-3a9bf1a7a464"},"vehicle_type_id":"4","last_reported":1726182622,"current_range_meters":18000,"station_id":"ce4bhn92rcd13ifvqgrg","pricing_plan_id":"cebpf4jnsgd1na2vs0mg"},{"bike_id":"34657d35-d936-4f69-90d2-9138dbc7b9fc","system_id":"levelo_inurba_marseille","lat":43.31178,"lon":5.38711,"is_reserved":false,"is_disabled":false,"rental_uris":{"android":"levelo://app?vid=34657d35-d936-4f69-90d2-9138dbc7b9fc","ios":"levelo://app?vid=34657d35-d936-4f69-90d2-9138dbc7b9fc"},"vehicle_type_id":"4","last_reported":1726182622,"current_range_meters":36000,"station_id":"ce4bgv12rcd13ifvqcp0","pricing_plan_id":"cebpf4jnsgd1na2vs0mg"},{"bike_id":"2c4577b3-3689-495e-a3c3-a78eafd4dc43","system_id":"levelo_inurba_marseille","lat":43.26555,"lon":5.37285,"is_reserved":false,"is_disabled":false,"rental_uris":{"android":"levelo://app?vid=2c4577b3-3689-495e-a3c3-a78eafd4dc43","ios":"levelo://app?vid=2c4577b3-3689-495e-a3c3-a78eafd4dc43"},"vehicle_type_id":"4","last_reported":1726182622,"current_range_meters":24800,"station_id":"ce4bhg12rcd13ifvqf70","pricing_plan_id":"cebpf4jnsgd1na2vs0mg"},{"bike_id":"b987e281-6572-47ee-8fda-d36a70a015e1","system_id":"levelo_inurba_marseille","lat":43.28108,"lon":5.37842,"is_reserved":false,"is_disabled":false,"rental_uris":{"android":"levelo://app?vid=b987e281-6572-47ee-8fda-d36a70a015e1","ios":"levelo://app?vid=b987e281-6572-47ee-8fda-d36a70a015e1"},"vehicle_type_id":"4","last_reported":1726182622,"current_range_meters":25200,"station_id":"ce4bha12rcd13ifvqee0","pricing_plan_id":"cebpf4jnsgd1na2vs0mg"},{"bike_id":"6c9ac6be-0029-4a2d-bb72-5c51035bba42","system_id":"levelo_inurba_marseille","lat":43.33615,"lon":5.41031,"is_reserved":false,"is_disabled":false,"rental_uris":{"android":"levelo://app?vid=6c9ac6be-0029-4a2d-bb72-5c51035bba42","ios":"levelo://app?vid=6c9ac6be-0029-4a2d-bb72-5c51035bba42"},"vehicle_type_id":"4","last_reported":1726182622,"current_range_meters":38800,"station_id":"ce4bhqh2rcd13ifvqhmg","pricing_plan_id":"cebpf4jnsgd1na2vs0mg"},{"bike_id":"a7a63bcc-485a-458b-bd7a-820f59d6b41a","system_id":"levelo_inurba_marseille","lat":43.25092,"lon":5.39514,"is_reserved":false,"is_disabled":false,"rental_uris":{"android":"levelo://app?vid=a7a63bcc-485a-458b-bd7a-820f59d6b41a","ios":"levelo://app?vid=a7a63bcc-485a-458b-bd7a-820f59d6b41a"},"vehicle_type_id":"4","last_reported":1726182622,"current_range_meters":38800,"station_id":"ce4bhm12rcd13ifvqgkg","pricing_plan_id":"cebpf4jnsgd1na2vs0mg"},{"bike_id":"7dea9175-0fb5-4d49-ac6e-d13b7c47ac00","system_id":"levelo_inurba_marseille","lat":43.25716,"lon":5.41108,"is_reserved":false,"is_disabled":false,"rental_uris":{"android":"levelo://app?vid=7dea9175-0fb5-4d49-ac6e-d13b7c47ac00","ios":"levelo://app?vid=7dea9175-0fb5-4d49-ac6e-d13b7c47ac00"},"vehicle_type_id":"4","last_reported":1726182622,"current_range_meters":39200,"station_id":"ce4bhkp2rcd13ifvqgd0","pricing_plan_id":"cebpf4jnsgd1na2vs0mg"},{"bike_id":"60d5bda9-f640-405a-935d-62d1314e50fa","system_id":"levelo_inurba_marseille","lat":43.23967,"lon":5.36637,"is_reserved":false,"is_disabled":false,"rental_uris":{"android":"levelo://app?vid=60d5bda9-f640-405a-935d-62d1314e50fa","ios":"levelo://app?vid=60d5bda9-f640-405a-935d-62d1314e50fa"},"vehicle_type_id":"4","last_reported":1726182622,"current_range_meters":27600,"station_id":"ce4bhi12rcd13ifvqfp0","pricing_plan_id":"cebpf4jnsgd1na2vs0mg"},{"bike_id":"33f03670-cf2a-43f9-bafe-26c48df8fd80","system_id":"levelo_inurba_marseille","lat":43.31082,"lon":5.42428,"is_reserved":false,"is_disabled":false,"rental_uris":{"android":"levelo://app?vid=33f03670-cf2a-43f9-bafe-26c48df8fd80","ios":"levelo://app?vid=33f03670-cf2a-43f9-bafe-26c48df8fd80"},"vehicle_type_id":"4","last_reported":1726182622,"current_range_meters":38400,"station_id":"ce4bhp92rcd13ifvqhag","pricing_plan_id":"cebpf4jnsgd1na2vs0mg"},{"bike_id":"8761f521-f54e-423f-9730-c275c561095d","system_id":"levelo_inurba_marseille","lat":43.3133,"lon":5.39691,"is_reserved":false,"is_disabled":false,"rental_uris":{"android":"levelo://app?vid=8761f521-f54e-423f-9730-c275c561095d","ios":"levelo://app?vid=8761f521-f54e-423f-9730-c275c561095d"},"vehicle_type_id":"4","last_reported":1726182622,"current_range_meters":14000,"station_id":"ce4bgvp2rcd13ifvqcu0","pricing_plan_id":"cebpf4jnsgd1na2vs0mg"},{"bike_id":"1f0d280d-cb62-4cf3-9345-e479b5302a1c","system_id":"levelo_inurba_marseille","lat":43.25586,"lon":5.38243,"is_reserved":false,"is_disabled":false,"rental_uris":{"android":"levelo://app?vid=1f0d280d-cb62-4cf3-9345-e479b5302a1c","ios":"levelo://app?vid=1f0d280d-cb62-4cf3-9345-e479b5302a1c"},"vehicle_type_id":"4","last_reported":1726182622,"current_range_meters":28000,"station_id":"ce4bhih2rcd13ifvqfs0","pricing_plan_id":"cebpf4jnsgd1na2vs0mg"},{"bike_id":"a7268f0f-6e61-464e-bac6-a20bf636ddf4","system_id":"levelo_inurba_marseille","lat":43.299766,"lon":5.371848,"is_reserved":false,"is_disabled":false,"rental_uris":{"android":"levelo://app?vid=a7268f0f-6e61-464e-bac6-a20bf636ddf4","ios":"levelo://app?vid=a7268f0f-6e61-464e-bac6-a20bf636ddf4"},"vehicle_type_id":"4","last_reported":1726182622,"current_range_meters":19600,"station_id":"ce4bgr92rcd13ifvqc7g","pricing_plan_id":"cebpf4jnsgd1na2vs0mg"},{"bike_id":"423a4cab-8a31-4718-8b7a-239bcdca67af","system_id":"levelo_inurba_marseille","lat":43.24191,"lon":5.39715,"is_reserved":false,"is_disabled":false,"rental_uris":{"android":"levelo://app?vid=423a4cab-8a31-4718-8b7a-239bcdca67af","ios":"levelo://app?vid=423a4cab-8a31-4718-8b7a-239bcdca67af"},"vehicle_type_id":"4","last_reported":1726182622,"current_range_meters":38400,"station_id":"ce4bhn12rcd13ifvqgpg","pricing_plan_id":"cebpf4jnsgd1na2vs0mg"},{"bike_id":"9163cc20-d457-4a59-bb69-e012a5ecf5a9","system_id":"levelo_inurba_marseille","lat":43.28456,"lon":5.35884,"is_reserved":false,"is_disabled":false,"rental_uris":{"android":"levelo://app?vid=9163cc20-d457-4a59-bb69-e012a5ecf5a9","ios":"levelo://app?vid=9163cc20-d457-4a59-bb69-e012a5ecf5a9"},"vehicle_type_id":"4","last_reported":1726182622,"current_range_meters":38000,"station_id":"ce4bhah2rcd13ifvqei0","pricing_plan_id":"cebpf4jnsgd1na2vs0mg"},{"bike_id":"7d9e718d-8ff6-4fb2-bd50-448d074a86d8","system_id":"levelo_inurba_marseille","lat":43.24809,"lon":5.37456,"is_reserved":false,"is_disabled":false,"rental_uris":{"android":"levelo://app?vid=7d9e718d-8ff6-4fb2-bd50-448d074a86d8","ios":"levelo://app?vid=7d9e718d-8ff6-4fb2-bd50-448d074a86d8"},"vehicle_type_id":"4","last_reported":1726182622,"current_range_meters":18800,"station_id":"ce4bhgh2rcd13ifvqfb0","pricing_plan_id":"cebpf4jnsgd1na2vs0mg"},{"bike_id":"4c7b72ff-b5a4-413b-91fa-e1ac3cf6ee63","system_id":"levelo_inurba_marseille","lat":43.28931,"lon":5.36392,"is_reserved":false,"is_disabled":false,"rental_uris":{"android":"levelo://app?vid=4c7b72ff-b5a4-413b-91fa-e1ac3cf6ee63","ios":"levelo://app?vid=4c7b72ff-b5a4-413b-91fa-e1ac3cf6ee63"},"vehicle_type_id":"4","last_reported":1726182622,"current_range_meters":28800,"station_id":"ce4bhc92rcd13ifvqetg","pricing_plan_id":"cebpf4jnsgd1na2vs0mg"},{"bike_id":"8bc2c575-8c93-44ca-8843-580bc3c1fb9a","system_id":"levelo_inurba_marseille","lat":43.3093,"lon":5.40146,"is_reserved":false,"is_disabled":false,"rental_uris":{"android":"levelo://app?vid=8bc2c575-8c93-44ca-8843-580bc3c1fb9a","ios":"levelo://app?vid=8bc2c575-8c93-44ca-8843-580bc3c1fb9a"},"vehicle_type_id":"4","last_reported":1726182622,"current_range_meters":24800,"station_id":"ce4bgvp2rcd13ifvqct0","pricing_plan_id":"cebpf4jnsgd1na2vs0mg"},{"bike_id":"5174d76d-7c6b-41e9-aceb-a48450e5301e","system_id":"levelo_inurba_marseille","lat":43.26953,"lon":5.40246,"is_reserved":false,"is_disabled":false,"rental_uris":{"android":"levelo://app?vid=5174d76d-7c6b-41e9-aceb-a48450e5301e","ios":"levelo://app?vid=5174d76d-7c6b-41e9-aceb-a48450e5301e"},"vehicle_type_id":"4","last_reported":1726182622,"current_range_meters":38800,"station_id":"cjm6bp8fraef2m0cb0m0","pricing_plan_id":"cebpf4jnsgd1na2vs0mg"},{"bike_id":"0f5d1e4e-5cdd-41aa-9f16-247b92ec8386","system_id":"levelo_inurba_marseille","lat":43.29966,"lon":5.41329,"is_reserved":false,"is_disabled":false,"rental_uris":{"android":"levelo://app?vid=0f5d1e4e-5cdd-41aa-9f16-247b92ec8386","ios":"levelo://app?vid=0f5d1e4e-5cdd-41aa-9f16-247b92ec8386"},"vehicle_type_id":"4","last_reported":1726182622,"current_range_meters":38800,"station_id":"ce4bhp12rcd13ifvqh9g","pricing_plan_id":"cebpf4jnsgd1na2vs0mg"},{"bike_id":"11404ee4-c057-4144-a2de-c8dc7bcd7a92","system_id":"levelo_inurba_marseille","lat":43.30428,"lon":5.38889,"is_reserved":false,"is_disabled":false,"rental_uris":{"android":"levelo://app?vid=11404ee4-c057-4144-a2de-c8dc7bcd7a92","ios":"levelo://app?vid=11404ee4-c057-4144-a2de-c8dc7bcd7a92"},"vehicle_type_id":"4","last_reported":1726182622,"current_range_meters":32800,"station_id":"ce4bgk12rcd13ifvqbi0","pricing_plan_id":"cebpf4jnsgd1na2vs0mg"},{"bike_id":"d54606db-b8a9-4fd9-8161-d0537b37344e","system_id":"levelo_inurba_marseille","lat":43.31539,"lon":5.38029,"is_reserved":false,"is_disabled":false,"rental_uris":{"android":"levelo://app?vid=d54606db-b8a9-4fd9-8161-d0537b37344e","ios":"levelo://app?vid=d54606db-b8a9-4fd9-8161-d0537b37344e"},"vehicle_type_id":"4","last_reported":1726182622,"current_range_meters":30400,"station_id":"ce4bhsp2rcd13ifvqi50","pricing_plan_id":"cebpf4jnsgd1na2vs0mg"},{"bike_id":"2d9f6a36-1e8d-46ce-8819-b2bb04006d43","system_id":"levelo_inurba_marseille","lat":43.25589,"lon":5.38222,"is_reserved":false,"is_disabled":false,"rental_uris":{"android":"levelo://app?vid=2d9f6a36-1e8d-46ce-8819-b2bb04006d43","ios":"levelo://app?vid=2d9f6a36-1e8d-46ce-8819-b2bb04006d43"},"vehicle_type_id":"4","last_reported":1726182622,"current_range_meters":34800,"station_id":"ce4bhih2rcd13ifvqfs0","pricing_plan_id":"cebpf4jnsgd1na2vs0mg"},{"bike_id":"a23e80f1-de4d-445e-8443-cf95d257caa5","system_id":"levelo_inurba_marseille","lat":43.28467,"lon":5.35884,"is_reserved":false,"is_disabled":false,"rental_uris":{"android":"levelo://app?vid=a23e80f1-de4d-445e-8443-cf95d257caa5","ios":"levelo://app?vid=a23e80f1-de4d-445e-8443-cf95d257caa5"},"vehicle_type_id":"4","last_reported":1726182622,"current_range_meters":37600,"station_id":"ce4bhah2rcd13ifvqei0","pricing_plan_id":"cebpf4jnsgd1na2vs0mg"},{"bike_id":"0a5a12b3-5d22-4e5d-b7e5-ed6a2bf9ffdc","system_id":"levelo_inurba_marseille","lat":43.28831,"lon":5.35854,"is_reserved":false,"is_disabled":false,"rental_uris":{"android":"levelo://app?vid=0a5a12b3-5d22-4e5d-b7e5-ed6a2bf9ffdc","ios":"levelo://app?vid=0a5a12b3-5d22-4e5d-b7e5-ed6a2bf9ffdc"},"vehicle_type_id":"4","last_reported":1726182622,"current_range_meters":30000,"station_id":"ce4bhb12rcd13ifvqem0","pricing_plan_id":"cebpf4jnsgd1na2vs0mg"},{"bike_id":"c39b024e-1649-48fb-802d-6735c6caa472","system_id":"levelo_inurba_marseille","lat":43.31698,"lon":5.37765,"is_reserved":false,"is_disabled":false,"rental_uris":{"android":"levelo://app?vid=c39b024e-1649-48fb-802d-6735c6caa472","ios":"levelo://app?vid=c39b024e-1649-48fb-802d-6735c6caa472"},"vehicle_type_id":"4","last_reported":1726182622,"current_range_meters":36800,"station_id":"ce4bgth2rcd13ifvqch0","pricing_plan_id":"cebpf4jnsgd1na2vs0mg"},{"bike_id":"1e0df5ba-fa4d-4573-807a-e855b81fe691","system_id":"levelo_inurba_marseille","lat":43.23962,"lon":5.36638,"is_reserved":false,"is_disabled":false,"rental_uris":{"android":"levelo://app?vid=1e0df5ba-fa4d-4573-807a-e855b81fe691","ios":"levelo://app?vid=1e0df5ba-fa4d-4573-807a-e855b81fe691"},"vehicle_type_id":"4","last_reported":1726182622,"current_range_meters":32800,"station_id":"ce4bhi12rcd13ifvqfp0","pricing_plan_id":"cebpf4jnsgd1na2vs0mg"},{"bike_id":"e62c8c71-b14f-4c94-8aa4-e0afcaaf93b6","system_id":"levelo_inurba_marseille","lat":43.24818,"lon":5.37464,"is_reserved":false,"is_disabled":false,"rental_uris":{"android":"levelo://app?vid=e62c8c71-b14f-4c94-8aa4-e0afcaaf93b6","ios":"levelo://app?vid=e62c8c71-b14f-4c94-8aa4-e0afcaaf93b6"},"vehicle_type_id":"4","last_reported":1726182622,"current_range_meters":35600,"station_id":"ce4bhgh2rcd13ifvqfb0","pricing_plan_id":"cebpf4jnsgd1na2vs0mg"},{"bike_id":"9a667fe3-33aa-400f-a26f-60d230d85838","system_id":"levelo_inurba_marseille","lat":43.24998,"lon":5.38939,"is_reserved":false,"is_disabled":false,"rental_uris":{"android":"levelo://app?vid=9a667fe3-33aa-400f-a26f-60d230d85838","ios":"levelo://app?vid=9a667fe3-33aa-400f-a26f-60d230d85838"},"vehicle_type_id":"4","last_reported":1726182622,"current_range_meters":30800,"station_id":"ce4bhgp2rcd13ifvqfd0","pricing_plan_id":"cebpf4jnsgd1na2vs0mg"},{"bike_id":"94ce844f-45b7-4e47-92e8-fd6ad38bc186","system_id":"levelo_inurba_marseille","lat":43.31076,"lon":5.38362,"is_reserved":false,"is_disabled":false,"rental_uris":{"android":"levelo://app?vid=94ce844f-45b7-4e47-92e8-fd6ad38bc186","ios":"levelo://app?vid=94ce844f-45b7-4e47-92e8-fd6ad38bc186"},"vehicle_type_id":"4","last_reported":1726182622,"current_range_meters":39200,"station_id":"ce4bgv92rcd13ifvqcr0","pricing_plan_id":"cebpf4jnsgd1na2vs0mg"},{"bike_id":"2d93f995-060e-401b-affd-9b2062ea63fb","system_id":"levelo_inurba_marseille","lat":43.2837,"lon":5.38619,"is_reserved":false,"is_disabled":false,"rental_uris":{"android":"levelo://app?vid=2d93f995-060e-401b-affd-9b2062ea63fb","ios":"levelo://app?vid=2d93f995-060e-401b-affd-9b2062ea63fb"},"vehicle_type_id":"4","last_reported":1726182622,"current_range_meters":19200,"station_id":"ce4bh492rcd13ifvqdvg","pricing_plan_id":"cebpf4jnsgd1na2vs0mg"},{"bike_id":"987bb27e-01e0-4259-b072-bcfafecde045","system_id":"levelo_inurba_marseille","lat":43.27429,"lon":5.39415,"is_reserved":false,"is_disabled":false,"rental_uris":{"android":"levelo://app?vid=987bb27e-01e0-4259-b072-bcfafecde045","ios":"levelo://app?vid=987bb27e-01e0-4259-b072-bcfafecde045"},"vehicle_type_id":"4","last_reported":1726182622,"current_range_meters":30000,"station_id":"ce4bhdp2rcd13ifvqf20","pricing_plan_id":"cebpf4jnsgd1na2vs0mg"},{"bike_id":"768174ed-8e87-4dfb-8f24-a534a0005560","system_id":"levelo_inurba_marseille","lat":43.29002,"lon":5.35616,"is_reserved":false,"is_disabled":false,"rental_uris":{"android":"levelo://app?vid=768174ed-8e87-4dfb-8f24-a534a0005560","ios":"levelo://app?vid=768174ed-8e87-4dfb-8f24-a534a0005560"},"vehicle_type_id":"4","last_reported":1726182622,"current_range_meters":38400,"station_id":"ce4bhb92rcd13ifvqen0","pricing_plan_id":"cebpf4jnsgd1na2vs0mg"},{"bike_id":"8a7e2c73-7464-42af-bfd7-cf056727dff7","system_id":"levelo_inurba_marseille","lat":43.34145,"lon":5.40912,"is_reserved":false,"is_disabled":false,"rental_uris":{"android":"levelo://app?vid=8a7e2c73-7464-42af-bfd7-cf056727dff7","ios":"levelo://app?vid=8a7e2c73-7464-42af-bfd7-cf056727dff7"},"vehicle_type_id":"4","last_reported":1726182622,"current_range_meters":25200,"station_id":"ce4bhqh2rcd13ifvqhlg","pricing_plan_id":"cebpf4jnsgd1na2vs0mg"},{"bike_id":"842384b1-aff1-4c4a-b7d9-f881d6937fbd","system_id":"levelo_inurba_marseille","lat":43.32071,"lon":5.41565,"is_reserved":false,"is_disabled":false,"rental_uris":{"android":"levelo://app?vid=842384b1-aff1-4c4a-b7d9-f881d6937fbd","ios":"levelo://app?vid=842384b1-aff1-4c4a-b7d9-f881d6937fbd"},"vehicle_type_id":"4","last_reported":1726182622,"current_range_meters":4800,"station_id":"ce4bhq92rcd13ifvqhkg","pricing_plan_id":"cebpf4jnsgd1na2vs0mg"},{"bike_id":"59a2b5a9-0f56-40d5-a59c-cb2592419b75","system_id":"levelo_inurba_marseille","lat":43.25601,"lon":5.38248,"is_reserved":false,"is_disabled":false,"rental_uris":{"android":"levelo://app?vid=59a2b5a9-0f56-40d5-a59c-cb2592419b75","ios":"levelo://app?vid=59a2b5a9-0f56-40d5-a59c-cb2592419b75"},"vehicle_type_id":"4","last_reported":1726182622,"current_range_meters":38800,"station_id":"ce4bhih2rcd13ifvqfs0","pricing_plan_id":"cebpf4jnsgd1na2vs0mg"},{"bike_id":"7dc55c88-404a-433c-90d5-05daf2e2d002","system_id":"levelo_inurba_marseille","lat":43.28272,"lon":5.35078,"is_reserved":false,"is_disabled":false,"rental_uris":{"android":"levelo://app?vid=7dc55c88-404a-433c-90d5-05daf2e2d002","ios":"levelo://app?vid=7dc55c88-404a-433c-90d5-05daf2e2d002"},"vehicle_type_id":"4","last_reported":1726182622,"current_range_meters":35200,"station_id":"ce4bhbp2rcd13ifvqerg","pricing_plan_id":"cebpf4jnsgd1na2vs0mg"},{"bike_id":"91ce77ce-18ef-47d8-9533-f401393ecd0b","system_id":"levelo_inurba_marseille","lat":43.28617,"lon":5.35108,"is_reserved":false,"is_disabled":false,"rental_uris":{"android":"levelo://app?vid=91ce77ce-18ef-47d8-9533-f401393ecd0b","ios":"levelo://app?vid=91ce77ce-18ef-47d8-9533-f401393ecd0b"},"vehicle_type_id":"4","last_reported":1726182622,"current_range_meters":20000,"station_id":"ce4bhch2rcd13ifvqeug","pricing_plan_id":"cebpf4jnsgd1na2vs0mg"},{"bike_id":"40d214a7-3f5c-47db-a6ce-57c2b9914a32","system_id":"levelo_inurba_marseille","lat":43.31332,"lon":5.39701,"is_reserved":false,"is_disabled":false,"rental_uris":{"android":"levelo://app?vid=40d214a7-3f5c-47db-a6ce-57c2b9914a32","ios":"levelo://app?vid=40d214a7-3f5c-47db-a6ce-57c2b9914a32"},"vehicle_type_id":"4","last_reported":1726182622,"current_range_meters":12400,"station_id":"ce4bgvp2rcd13ifvqcu0","pricing_plan_id":"cebpf4jnsgd1na2vs0mg"},{"bike_id":"b6a55e8b-3ff3-46c8-a72a-6c10f7cc2db1","system_id":"levelo_inurba_marseille","lat":43.29961,"lon":5.41317,"is_reserved":false,"is_disabled":false,"rental_uris":{"android":"levelo://app?vid=b6a55e8b-3ff3-46c8-a72a-6c10f7cc2db1","ios":"levelo://app?vid=b6a55e8b-3ff3-46c8-a72a-6c10f7cc2db1"},"vehicle_type_id":"4","last_reported":1726182622,"current_range_meters":38800,"station_id":"ce4bhp12rcd13ifvqh9g","pricing_plan_id":"cebpf4jnsgd1na2vs0mg"},{"bike_id":"6f94ccb4-e5b0-4f7a-90a2-94c6f5d54a44","system_id":"levelo_inurba_marseille","lat":43.28365,"lon":5.38619,"is_reserved":false,"is_disabled":false,"rental_uris":{"android":"levelo://app?vid=6f94ccb4-e5b0-4f7a-90a2-94c6f5d54a44","ios":"levelo://app?vid=6f94ccb4-e5b0-4f7a-90a2-94c6f5d54a44"},"vehicle_type_id":"4","last_reported":1726182622,"current_range_meters":38800,"station_id":"ce4bh492rcd13ifvqdvg","pricing_plan_id":"cebpf4jnsgd1na2vs0mg"},{"bike_id":"d608f0a9-6c51-4c68-be81-d6c79550be85","system_id":"levelo_inurba_marseille","lat":43.31717,"lon":5.43709,"is_reserved":false,"is_disabled":false,"rental_uris":{"android":"levelo://app?vid=d608f0a9-6c51-4c68-be81-d6c79550be85","ios":"levelo://app?vid=d608f0a9-6c51-4c68-be81-d6c79550be85"},"vehicle_type_id":"4","last_reported":1726182622,"current_range_meters":39200,"station_id":"ce4bhp92rcd13ifvqhcg","pricing_plan_id":"cebpf4jnsgd1na2vs0mg"},{"bike_id":"a7225787-a1fe-4f9c-8189-093e4e1002aa","system_id":"levelo_inurba_marseille","lat":43.29004,"lon":5.35598,"is_reserved":false,"is_disabled":false,"rental_uris":{"android":"levelo://app?vid=a7225787-a1fe-4f9c-8189-093e4e1002aa","ios":"levelo://app?vid=a7225787-a1fe-4f9c-8189-093e4e1002aa"},"vehicle_type_id":"4","last_reported":1726182622,"current_range_meters":38800,"station_id":"ce4bhb92rcd13ifvqen0","pricing_plan_id":"cebpf4jnsgd1na2vs0mg"},{"bike_id":"7f99c5ef-5127-486e-b53b-6cc4316e0084","system_id":"levelo_inurba_marseille","lat":43.29436,"lon":5.39753,"is_reserved":false,"is_disabled":false,"rental_uris":{"android":"levelo://app?vid=7f99c5ef-5127-486e-b53b-6cc4316e0084","ios":"levelo://app?vid=7f99c5ef-5127-486e-b53b-6cc4316e0084"},"vehicle_type_id":"4","last_reported":1726182622,"current_range_meters":22400,"station_id":"ce4bh3h2rcd13ifvqdo0","pricing_plan_id":"cebpf4jnsgd1na2vs0mg"},{"bike_id":"ff218519-0c0d-4ef9-b959-3a5d35d21448","system_id":"levelo_inurba_marseille","lat":43.2954,"lon":5.38564,"is_reserved":false,"is_disabled":false,"rental_uris":{"android":"levelo://app?vid=ff218519-0c0d-4ef9-b959-3a5d35d21448","ios":"levelo://app?vid=ff218519-0c0d-4ef9-b959-3a5d35d21448"},"vehicle_type_id":"4","last_reported":1726182622,"current_range_meters":36800,"station_id":"ce4bgih2rcd13ifvqba0","pricing_plan_id":"cebpf4jnsgd1na2vs0mg"},{"bike_id":"bfd2a3d6-ad57-4d1a-86b2-4eeb3c6695bb","system_id":"levelo_inurba_marseille","lat":43.31088,"lon":5.38356,"is_reserved":false,"is_disabled":false,"rental_uris":{"android":"levelo://app?vid=bfd2a3d6-ad57-4d1a-86b2-4eeb3c6695bb","ios":"levelo://app?vid=bfd2a3d6-ad57-4d1a-86b2-4eeb3c6695bb"},"vehicle_type_id":"4","last_reported":1726182622,"current_range_meters":38800,"station_id":"ce4bgv92rcd13ifvqcr0","pricing_plan_id":"cebpf4jnsgd1na2vs0mg"},{"bike_id":"deaeb920-23ab-4b51-a90a-3a4d369b9959","system_id":"levelo_inurba_marseille","lat":43.26561,"lon":5.37287,"is_reserved":false,"is_disabled":false,"rental_uris":{"android":"levelo://app?vid=deaeb920-23ab-4b51-a90a-3a4d369b9959","ios":"levelo://app?vid=deaeb920-23ab-4b51-a90a-3a4d369b9959"},"vehicle_type_id":"4","last_reported":1726182622,"current_range_meters":10000,"station_id":"ce4bhg12rcd13ifvqf70","pricing_plan_id":"cebpf4jnsgd1na2vs0mg"},{"bike_id":"2978c8ef-7735-4057-b33e-747fe355072e","system_id":"levelo_inurba_marseille","lat":43.25909,"lon":5.37601,"is_reserved":false,"is_disabled":false,"rental_uris":{"android":"levelo://app?vid=2978c8ef-7735-4057-b33e-747fe355072e","ios":"levelo://app?vid=2978c8ef-7735-4057-b33e-747fe355072e"},"vehicle_type_id":"4","last_reported":1726182622,"current_range_meters":3600,"station_id":"","pricing_plan_id":"cebpf4jnsgd1na2vs0mg"},{"bike_id":"a1059e3e-1f13-4c6e-b9aa-ae2ce9790d5c","system_id":"levelo_inurba_marseille","lat":43.23183,"lon":5.39993,"is_reserved":false,"is_disabled":false,"rental_uris":{"android":"levelo://app?vid=a1059e3e-1f13-4c6e-b9aa-ae2ce9790d5c","ios":"levelo://app?vid=a1059e3e-1f13-4c6e-b9aa-ae2ce9790d5c"},"vehicle_type_id":"4","last_reported":1726182622,"current_range_meters":9600,"station_id":"ce4bhn12rcd13ifvqgqg","pricing_plan_id":"cebpf4jnsgd1na2vs0mg"},{"bike_id":"3eeb48c1-864f-4164-85f1-eb4bf2655da1","system_id":"levelo_inurba_marseille","lat":43.30939,"lon":5.40152,"is_reserved":false,"is_disabled":false,"rental_uris":{"android":"levelo://app?vid=3eeb48c1-864f-4164-85f1-eb4bf2655da1","ios":"levelo://app?vid=3eeb48c1-864f-4164-85f1-eb4bf2655da1"},"vehicle_type_id":"4","last_reported":1726182622,"current_range_meters":39200,"station_id":"ce4bgvp2rcd13ifvqct0","pricing_plan_id":"cebpf4jnsgd1na2vs0mg"},{"bike_id":"77e8c26c-edd1-4069-ab96-9ed9fd81b42a","system_id":"levelo_inurba_marseille","lat":43.31084,"lon":5.42432,"is_reserved":false,"is_disabled":false,"rental_uris":{"android":"levelo://app?vid=77e8c26c-edd1-4069-ab96-9ed9fd81b42a","ios":"levelo://app?vid=77e8c26c-edd1-4069-ab96-9ed9fd81b42a"},"vehicle_type_id":"4","last_reported":1726182622,"current_range_meters":12000,"station_id":"ce4bhp92rcd13ifvqhag","pricing_plan_id":"cebpf4jnsgd1na2vs0mg"},{"bike_id":"0a5c7982-28f1-44b8-a901-7e32bdbe3e0d","system_id":"levelo_inurba_marseille","lat":43.25498,"lon":5.37647,"is_reserved":false,"is_disabled":false,"rental_uris":{"android":"levelo://app?vid=0a5c7982-28f1-44b8-a901-7e32bdbe3e0d","ios":"levelo://app?vid=0a5c7982-28f1-44b8-a901-7e32bdbe3e0d"},"vehicle_type_id":"4","last_reported":1726182622,"current_range_meters":33200,"station_id":"ce4bhh12rcd13ifvqff0","pricing_plan_id":"cebpf4jnsgd1na2vs0mg"},{"bike_id":"4803fd1e-7b74-4c02-8e24-055c99930fd0","system_id":"levelo_inurba_marseille","lat":43.29008,"lon":5.35606,"is_reserved":false,"is_disabled":false,"rental_uris":{"android":"levelo://app?vid=4803fd1e-7b74-4c02-8e24-055c99930fd0","ios":"levelo://app?vid=4803fd1e-7b74-4c02-8e24-055c99930fd0"},"vehicle_type_id":"4","last_reported":1726182622,"current_range_meters":36400,"station_id":"ce4bhb92rcd13ifvqen0","pricing_plan_id":"cebpf4jnsgd1na2vs0mg"},{"bike_id":"819826e9-9ed2-47d7-9c3f-7b5d1ce2de7d","system_id":"levelo_inurba_marseille","lat":43.25868,"lon":5.39903,"is_reserved":false,"is_disabled":false,"rental_uris":{"android":"levelo://app?vid=819826e9-9ed2-47d7-9c3f-7b5d1ce2de7d","ios":"levelo://app?vid=819826e9-9ed2-47d7-9c3f-7b5d1ce2de7d"},"vehicle_type_id":"4","last_reported":1726182622,"current_range_meters":38000,"station_id":"ce4bhl92rcd13ifvqghg","pricing_plan_id":"cebpf4jnsgd1na2vs0mg"},{"bike_id":"42b974c0-bea4-4736-a8f2-b8d071433ca3","system_id":"levelo_inurba_marseille","lat":43.32665,"lon":5.40989,"is_reserved":false,"is_disabled":false,"rental_uris":{"android":"levelo://app?vid=42b974c0-bea4-4736-a8f2-b8d071433ca3","ios":"levelo://app?vid=42b974c0-bea4-4736-a8f2-b8d071433ca3"},"vehicle_type_id":"4","last_reported":1726182622,"current_range_meters":16400,"station_id":"ce4bhpp2rcd13ifvqhgg","pricing_plan_id":"cebpf4jnsgd1na2vs0mg"},{"bike_id":"354f39e5-3cba-4fe2-85c6-e0aa8cff4500","system_id":"levelo_inurba_marseille","lat":43.296888,"lon":5.373645,"is_reserved":false,"is_disabled":false,"rental_uris":{"android":"levelo://app?vid=354f39e5-3cba-4fe2-85c6-e0aa8cff4500","ios":"levelo://app?vid=354f39e5-3cba-4fe2-85c6-e0aa8cff4500"},"vehicle_type_id":"4","last_reported":1726182622,"current_range_meters":36800,"station_id":"ce4bguh2rcd13ifvqckg","pricing_plan_id":"cebpf4jnsgd1na2vs0mg"},{"bike_id":"23efb075-becb-495e-b531-a865d6f6cb25","system_id":"levelo_inurba_marseille","lat":43.27321,"lon":5.3909,"is_reserved":false,"is_disabled":false,"rental_uris":{"android":"levelo://app?vid=23efb075-becb-495e-b531-a865d6f6cb25","ios":"levelo://app?vid=23efb075-becb-495e-b531-a865d6f6cb25"},"vehicle_type_id":"4","last_reported":1726182622,"current_range_meters":37600,"station_id":"ce4bhgp2rcd13ifvqfe0","pricing_plan_id":"cebpf4jnsgd1na2vs0mg"},{"bike_id":"543c5192-7201-4553-97e0-e7b85b8e0671","system_id":"levelo_inurba_marseille","lat":43.30639,"lon":5.40069,"is_reserved":false,"is_disabled":false,"rental_uris":{"android":"levelo://app?vid=543c5192-7201-4553-97e0-e7b85b8e0671","ios":"levelo://app?vid=543c5192-7201-4553-97e0-e7b85b8e0671"},"vehicle_type_id":"4","last_reported":1726182622,"current_range_meters":32800,"station_id":"ce4bh112rcd13ifvqda0","pricing_plan_id":"cebpf4jnsgd1na2vs0mg"},{"bike_id":"c5e96473-727a-418c-919e-8d3acae62332","system_id":"levelo_inurba_marseille","lat":43.29235,"lon":5.36058,"is_reserved":false,"is_disabled":false,"rental_uris":{"android":"levelo://app?vid=c5e96473-727a-418c-919e-8d3acae62332","ios":"levelo://app?vid=c5e96473-727a-418c-919e-8d3acae62332"},"vehicle_type_id":"4","last_reported":1726182622,"current_range_meters":38800,"station_id":"ce4bhbh2rcd13ifvqeqg","pricing_plan_id":"cebpf4jnsgd1na2vs0mg"},{"bike_id":"dcd008b8-fee5-45d0-a806-9c54ab8a09da","system_id":"levelo_inurba_marseille","lat":43.29881,"lon":5.38904,"is_reserved":false,"is_disabled":false,"rental_uris":{"android":"levelo://app?vid=dcd008b8-fee5-45d0-a806-9c54ab8a09da","ios":"levelo://app?vid=dcd008b8-fee5-45d0-a806-9c54ab8a09da"},"vehicle_type_id":"4","last_reported":1726182622,"current_range_meters":24000,"station_id":"ce4bh392rcd13ifvqdl0","pricing_plan_id":"cebpf4jnsgd1na2vs0mg"},{"bike_id":"586a8a04-2bc4-442a-9e9b-fc6e8ce7cc89","system_id":"levelo_inurba_marseille","lat":43.2921,"lon":5.39323,"is_reserved":false,"is_disabled":false,"rental_uris":{"android":"levelo://app?vid=586a8a04-2bc4-442a-9e9b-fc6e8ce7cc89","ios":"levelo://app?vid=586a8a04-2bc4-442a-9e9b-fc6e8ce7cc89"},"vehicle_type_id":"4","last_reported":1726182622,"current_range_meters":38800,"station_id":"ce4bh192rcd13ifvqdd0","pricing_plan_id":"cebpf4jnsgd1na2vs0mg"},{"bike_id":"1b6b4677-9c6b-4e29-9bf6-abb793cfb377","system_id":"levelo_inurba_marseille","lat":43.29226,"lon":5.36047,"is_reserved":false,"is_disabled":false,"rental_uris":{"android":"levelo://app?vid=1b6b4677-9c6b-4e29-9bf6-abb793cfb377","ios":"levelo://app?vid=1b6b4677-9c6b-4e29-9bf6-abb793cfb377"},"vehicle_type_id":"4","last_reported":1726182622,"current_range_meters":38800,"station_id":"ce4bhbh2rcd13ifvqeqg","pricing_plan_id":"cebpf4jnsgd1na2vs0mg"},{"bike_id":"42730b64-4326-485c-ac36-4ff31138a499","system_id":"levelo_inurba_marseille","lat":43.31334,"lon":5.39698,"is_reserved":false,"is_disabled":false,"rental_uris":{"android":"levelo://app?vid=42730b64-4326-485c-ac36-4ff31138a499","ios":"levelo://app?vid=42730b64-4326-485c-ac36-4ff31138a499"},"vehicle_type_id":"4","last_reported":1726182622,"current_range_meters":9200,"station_id":"ce4bgvp2rcd13ifvqcu0","pricing_plan_id":"cebpf4jnsgd1na2vs0mg"},{"bike_id":"9cb9ab69-3148-4b2f-a970-03143086caba","system_id":"levelo_inurba_marseille","lat":43.29008,"lon":5.35615,"is_reserved":false,"is_disabled":false,"rental_uris":{"android":"levelo://app?vid=9cb9ab69-3148-4b2f-a970-03143086caba","ios":"levelo://app?vid=9cb9ab69-3148-4b2f-a970-03143086caba"},"vehicle_type_id":"4","last_reported":1726182622,"current_range_meters":38800,"station_id":"ce4bhb92rcd13ifvqen0","pricing_plan_id":"cebpf4jnsgd1na2vs0mg"},{"bike_id":"4afb8b00-be3a-4d15-9b8b-47916e625762","system_id":"levelo_inurba_marseille","lat":43.28532,"lon":5.44227,"is_reserved":false,"is_disabled":false,"rental_uris":{"android":"levelo://app?vid=4afb8b00-be3a-4d15-9b8b-47916e625762","ios":"levelo://app?vid=4afb8b00-be3a-4d15-9b8b-47916e625762"},"vehicle_type_id":"4","last_reported":1726182622,"current_range_meters":30000,"station_id":"","pricing_plan_id":"cebpf4jnsgd1na2vs0mg"},{"bike_id":"bb7acf50-b6bc-4b2d-adf4-833abc23b24c","system_id":"levelo_inurba_marseille","lat":43.2319,"lon":5.35546,"is_reserved":false,"is_disabled":false,"rental_uris":{"android":"levelo://app?vid=bb7acf50-b6bc-4b2d-adf4-833abc23b24c","ios":"levelo://app?vid=bb7acf50-b6bc-4b2d-adf4-833abc23b24c"},"vehicle_type_id":"4","last_reported":1726182622,"current_range_meters":39200,"station_id":"ce4bhu92rcd13ifvqi70","pricing_plan_id":"cebpf4jnsgd1na2vs0mg"},{"bike_id":"ae9eb73b-054c-41a2-875a-2a980c700d6a","system_id":"levelo_inurba_marseille","lat":43.30603,"lon":5.37232,"is_reserved":false,"is_disabled":false,"rental_uris":{"android":"levelo://app?vid=ae9eb73b-054c-41a2-875a-2a980c700d6a","ios":"levelo://app?vid=ae9eb73b-054c-41a2-875a-2a980c700d6a"},"vehicle_type_id":"4","last_reported":1726182622,"current_range_meters":16800,"station_id":"ce4bgqh2rcd13ifvqc4g","pricing_plan_id":"cebpf4jnsgd1na2vs0mg"},{"bike_id":"4d82deed-46f4-4ede-b400-33da4682094f","system_id":"levelo_inurba_marseille","lat":43.26065,"lon":5.39396,"is_reserved":false,"is_disabled":false,"rental_uris":{"android":"levelo://app?vid=4d82deed-46f4-4ede-b400-33da4682094f","ios":"levelo://app?vid=4d82deed-46f4-4ede-b400-33da4682094f"},"vehicle_type_id":"4","last_reported":1726182622,"current_range_meters":24800,"station_id":"ce4bhh92rcd13ifvqfj0","pricing_plan_id":"cebpf4jnsgd1na2vs0mg"},{"bike_id":"8eff384a-46bc-44b5-a7c3-c23a94eadd4c","system_id":"levelo_inurba_marseille","lat":43.24391,"lon":5.37056,"is_reserved":false,"is_disabled":false,"rental_uris":{"android":"levelo://app?vid=8eff384a-46bc-44b5-a7c3-c23a94eadd4c","ios":"levelo://app?vid=8eff384a-46bc-44b5-a7c3-c23a94eadd4c"},"vehicle_type_id":"4","last_reported":1726182622,"current_range_meters":29600,"station_id":"ce4bhhh2rcd13ifvqfk0","pricing_plan_id":"cebpf4jnsgd1na2vs0mg"},{"bike_id":"f0688d67-cf24-485f-b6eb-5709935e8360","system_id":"levelo_inurba_marseille","lat":43.31334,"lon":5.39701,"is_reserved":false,"is_disabled":false,"rental_uris":{"android":"levelo://app?vid=f0688d67-cf24-485f-b6eb-5709935e8360","ios":"levelo://app?vid=f0688d67-cf24-485f-b6eb-5709935e8360"},"vehicle_type_id":"4","last_reported":1726182622,"current_range_meters":38800,"station_id":"ce4bgvp2rcd13ifvqcu0","pricing_plan_id":"cebpf4jnsgd1na2vs0mg"},{"bike_id":"60347762-8015-44ff-b3f6-749b7ab61b1b","system_id":"levelo_inurba_marseille","lat":43.30884,"lon":5.39631,"is_reserved":false,"is_disabled":false,"rental_uris":{"android":"levelo://app?vid=60347762-8015-44ff-b3f6-749b7ab61b1b","ios":"levelo://app?vid=60347762-8015-44ff-b3f6-749b7ab61b1b"},"vehicle_type_id":"4","last_reported":1726182622,"current_range_meters":24400,"station_id":"ce4bh012rcd13ifvqcv0","pricing_plan_id":"cebpf4jnsgd1na2vs0mg"},{"bike_id":"86f19a36-bb1a-4269-88e8-5864eaf9f751","system_id":"levelo_inurba_marseille","lat":43.25087,"lon":5.39521,"is_reserved":false,"is_disabled":false,"rental_uris":{"android":"levelo://app?vid=86f19a36-bb1a-4269-88e8-5864eaf9f751","ios":"levelo://app?vid=86f19a36-bb1a-4269-88e8-5864eaf9f751"},"vehicle_type_id":"4","last_reported":1726182622,"current_range_meters":39200,"station_id":"ce4bhm12rcd13ifvqgkg","pricing_plan_id":"cebpf4jnsgd1na2vs0mg"},{"bike_id":"73ef2374-2c15-4db8-bb3e-865e19980f98","system_id":"levelo_inurba_marseille","lat":43.33614,"lon":5.41026,"is_reserved":false,"is_disabled":false,"rental_uris":{"android":"levelo://app?vid=73ef2374-2c15-4db8-bb3e-865e19980f98","ios":"levelo://app?vid=73ef2374-2c15-4db8-bb3e-865e19980f98"},"vehicle_type_id":"4","last_reported":1726182622,"current_range_meters":19200,"station_id":"ce4bhqh2rcd13ifvqhmg","pricing_plan_id":"cebpf4jnsgd1na2vs0mg"},{"bike_id":"0dc36234-9f71-48cf-9b11-a68c7260185d","system_id":"levelo_inurba_marseille","lat":43.314974,"lon":5.373111,"is_reserved":false,"is_disabled":false,"rental_uris":{"android":"levelo://app?vid=0dc36234-9f71-48cf-9b11-a68c7260185d","ios":"levelo://app?vid=0dc36234-9f71-48cf-9b11-a68c7260185d"},"vehicle_type_id":"4","last_reported":1726182622,"current_range_meters":34000,"station_id":"ce4bgrh2rcd13ifvqc8g","pricing_plan_id":"cebpf4jnsgd1na2vs0mg"},{"bike_id":"b3164423-c1d6-4c23-94da-c35826df918c","system_id":"levelo_inurba_marseille","lat":43.29574,"lon":5.39965,"is_reserved":false,"is_disabled":false,"rental_uris":{"android":"levelo://app?vid=b3164423-c1d6-4c23-94da-c35826df918c","ios":"levelo://app?vid=b3164423-c1d6-4c23-94da-c35826df918c"},"vehicle_type_id":"4","last_reported":1726182622,"current_range_meters":38800,"station_id":"ce4bh312rcd13ifvqdj0","pricing_plan_id":"cebpf4jnsgd1na2vs0mg"},{"bike_id":"96e5fa71-72f8-4fee-b693-67ac33f6098f","system_id":"levelo_inurba_marseille","lat":43.23184,"lon":5.39986,"is_reserved":false,"is_disabled":false,"rental_uris":{"android":"levelo://app?vid=96e5fa71-72f8-4fee-b693-67ac33f6098f","ios":"levelo://app?vid=96e5fa71-72f8-4fee-b693-67ac33f6098f"},"vehicle_type_id":"4","last_reported":1726182622,"current_range_meters":38800,"station_id":"ce4bhn12rcd13ifvqgqg","pricing_plan_id":"cebpf4jnsgd1na2vs0mg"},{"bike_id":"4718f576-3563-4264-b290-0b60da9587fa","system_id":"levelo_inurba_marseille","lat":43.30418,"lon":5.4129,"is_reserved":false,"is_disabled":false,"rental_uris":{"android":"levelo://app?vid=4718f576-3563-4264-b290-0b60da9587fa","ios":"levelo://app?vid=4718f576-3563-4264-b290-0b60da9587fa"},"vehicle_type_id":"4","last_reported":1726182622,"current_range_meters":39200,"station_id":"ce4bhop2rcd13ifvqh8g","pricing_plan_id":"cebpf4jnsgd1na2vs0mg"},{"bike_id":"80a1e38e-0713-4fd0-b0c2-78281e4d4d93","system_id":"levelo_inurba_marseille","lat":43.31499,"lon":5.37301,"is_reserved":false,"is_disabled":false,"rental_uris":{"android":"levelo://app?vid=80a1e38e-0713-4fd0-b0c2-78281e4d4d93","ios":"levelo://app?vid=80a1e38e-0713-4fd0-b0c2-78281e4d4d93"},"vehicle_type_id":"4","last_reported":1726182622,"current_range_meters":33600,"station_id":"ce4bgt12rcd13ifvqcd0","pricing_plan_id":"cebpf4jnsgd1na2vs0mg"},{"bike_id":"dd2d66a6-976d-43e6-83be-d6211ff78acc","system_id":"levelo_inurba_marseille","lat":43.33729,"lon":5.39183,"is_reserved":false,"is_disabled":false,"rental_uris":{"android":"levelo://app?vid=dd2d66a6-976d-43e6-83be-d6211ff78acc","ios":"levelo://app?vid=dd2d66a6-976d-43e6-83be-d6211ff78acc"},"vehicle_type_id":"4","last_reported":1726182622,"current_range_meters":9200,"station_id":"ce4bhr92rcd13ifvqhsg","pricing_plan_id":"cebpf4jnsgd1na2vs0mg"},{"bike_id":"5ef7b96a-1cb8-4f42-af16-3a0d049b19cc","system_id":"levelo_inurba_marseille","lat":43.29562,"lon":5.42277,"is_reserved":false,"is_disabled":false,"rental_uris":{"android":"levelo://app?vid=5ef7b96a-1cb8-4f42-af16-3a0d049b19cc","ios":"levelo://app?vid=5ef7b96a-1cb8-4f42-af16-3a0d049b19cc"},"vehicle_type_id":"4","last_reported":1726182622,"current_range_meters":12400,"station_id":"ce4bhph2rcd13ifvqhdg","pricing_plan_id":"cebpf4jnsgd1na2vs0mg"},{"bike_id":"0dc49644-dd17-4c5c-83cd-a89bebf1e2d8","system_id":"levelo_inurba_marseille","lat":43.30938,"lon":5.4014,"is_reserved":false,"is_disabled":false,"rental_uris":{"android":"levelo://app?vid=0dc49644-dd17-4c5c-83cd-a89bebf1e2d8","ios":"levelo://app?vid=0dc49644-dd17-4c5c-83cd-a89bebf1e2d8"},"vehicle_type_id":"4","last_reported":1726182622,"current_range_meters":10000,"station_id":"ce4bgvp2rcd13ifvqct0","pricing_plan_id":"cebpf4jnsgd1na2vs0mg"},{"bike_id":"a4134a87-ba6c-4a20-99b8-e34d44318498","system_id":"levelo_inurba_marseille","lat":43.25114,"lon":5.40322,"is_reserved":false,"is_disabled":false,"rental_uris":{"android":"levelo://app?vid=a4134a87-ba6c-4a20-99b8-e34d44318498","ios":"levelo://app?vid=a4134a87-ba6c-4a20-99b8-e34d44318498"},"vehicle_type_id":"4","last_reported":1726182622,"current_range_meters":31200,"station_id":"ce4bhlh2rcd13ifvqgig","pricing_plan_id":"cebpf4jnsgd1na2vs0mg"},{"bike_id":"70d01362-c996-4b67-a938-62813ca3d0c5","system_id":"levelo_inurba_marseille","lat":43.33035,"lon":5.39048,"is_reserved":false,"is_disabled":false,"rental_uris":{"android":"levelo://app?vid=70d01362-c996-4b67-a938-62813ca3d0c5","ios":"levelo://app?vid=70d01362-c996-4b67-a938-62813ca3d0c5"},"vehicle_type_id":"4","last_reported":1726182622,"current_range_meters":7200,"station_id":"ce4bhr92rcd13ifvqhrg","pricing_plan_id":"cebpf4jnsgd1na2vs0mg"},{"bike_id":"04ca3046-4259-4712-8964-4e6174e28d88","system_id":"levelo_inurba_marseille","lat":43.26688,"lon":5.38273,"is_reserved":false,"is_disabled":false,"rental_uris":{"android":"levelo://app?vid=04ca3046-4259-4712-8964-4e6174e28d88","ios":"levelo://app?vid=04ca3046-4259-4712-8964-4e6174e28d88"},"vehicle_type_id":"4","last_reported":1726182622,"current_range_meters":19600,"station_id":"ce4bhg92rcd13ifvqf90","pricing_plan_id":"cebpf4jnsgd1na2vs0mg"},{"bike_id":"c28ff0f1-1713-431a-bccf-4e7a21e8e39b","system_id":"levelo_inurba_marseille","lat":43.25503,"lon":5.37652,"is_reserved":false,"is_disabled":false,"rental_uris":{"android":"levelo://app?vid=c28ff0f1-1713-431a-bccf-4e7a21e8e39b","ios":"levelo://app?vid=c28ff0f1-1713-431a-bccf-4e7a21e8e39b"},"vehicle_type_id":"4","last_reported":1726182622,"current_range_meters":39200,"station_id":"ce4bhh12rcd13ifvqff0","pricing_plan_id":"cebpf4jnsgd1na2vs0mg"},{"bike_id":"df6f412c-9695-40ef-9db4-7bd907155eb7","system_id":"levelo_inurba_marseille","lat":43.30804,"lon":5.38168,"is_reserved":false,"is_disabled":false,"rental_uris":{"android":"levelo://app?vid=df6f412c-9695-40ef-9db4-7bd907155eb7","ios":"levelo://app?vid=df6f412c-9695-40ef-9db4-7bd907155eb7"},"vehicle_type_id":"4","last_reported":1726182622,"current_range_meters":39200,"station_id":"ce4bgt12rcd13ifvqce0","pricing_plan_id":"cebpf4jnsgd1na2vs0mg"},{"bike_id":"65ddcb7e-72cd-4f0a-b26a-dc2bb79f607e","system_id":"levelo_inurba_marseille","lat":43.26819,"lon":5.4026,"is_reserved":false,"is_disabled":false,"rental_uris":{"android":"levelo://app?vid=65ddcb7e-72cd-4f0a-b26a-dc2bb79f607e","ios":"levelo://app?vid=65ddcb7e-72cd-4f0a-b26a-dc2bb79f607e"},"vehicle_type_id":"4","last_reported":1726182622,"current_range_meters":38800,"station_id":"ce501612rcd8frsf0b60","pricing_plan_id":"cebpf4jnsgd1na2vs0mg"},{"bike_id":"d63b08fd-7716-422a-94e4-8f1dfff5bb11","system_id":"levelo_inurba_marseille","lat":43.28616,"lon":5.35102,"is_reserved":false,"is_disabled":false,"rental_uris":{"android":"levelo://app?vid=d63b08fd-7716-422a-94e4-8f1dfff5bb11","ios":"levelo://app?vid=d63b08fd-7716-422a-94e4-8f1dfff5bb11"},"vehicle_type_id":"4","last_reported":1726182622,"current_range_meters":16400,"station_id":"ce4bhch2rcd13ifvqeug","pricing_plan_id":"cebpf4jnsgd1na2vs0mg"},{"bike_id":"7bd1dd35-a3b5-49cc-95f1-d5c0d116bb14","system_id":"levelo_inurba_marseille","lat":43.27996,"lon":5.41659,"is_reserved":false,"is_disabled":false,"rental_uris":{"android":"levelo://app?vid=7bd1dd35-a3b5-49cc-95f1-d5c0d116bb14","ios":"levelo://app?vid=7bd1dd35-a3b5-49cc-95f1-d5c0d116bb14"},"vehicle_type_id":"4","last_reported":1726182622,"current_range_meters":38800,"station_id":"ce4bho12rcd13ifvqh1g","pricing_plan_id":"cebpf4jnsgd1na2vs0mg"},{"bike_id":"f5548eb8-9c38-48ce-979e-38bdd5c931fd","system_id":"levelo_inurba_marseille","lat":43.2842,"lon":5.37525,"is_reserved":false,"is_disabled":false,"rental_uris":{"android":"levelo://app?vid=f5548eb8-9c38-48ce-979e-38bdd5c931fd","ios":"levelo://app?vid=f5548eb8-9c38-48ce-979e-38bdd5c931fd"},"vehicle_type_id":"4","last_reported":1726182622,"current_range_meters":33200,"station_id":"ce4bh412rcd13ifvqds0","pricing_plan_id":"cebpf4jnsgd1na2vs0mg"},{"bike_id":"599eaaf8-a1b9-4b78-8074-8ec83fd4d3da","system_id":"levelo_inurba_marseille","lat":43.23189,"lon":5.35544,"is_reserved":false,"is_disabled":false,"rental_uris":{"android":"levelo://app?vid=599eaaf8-a1b9-4b78-8074-8ec83fd4d3da","ios":"levelo://app?vid=599eaaf8-a1b9-4b78-8074-8ec83fd4d3da"},"vehicle_type_id":"4","last_reported":1726182622,"current_range_meters":6400,"station_id":"ce4bhu92rcd13ifvqi70","pricing_plan_id":"cebpf4jnsgd1na2vs0mg"},{"bike_id":"765fecf5-afa0-4002-8c27-190672219484","system_id":"levelo_inurba_marseille","lat":43.27977,"lon":5.38738,"is_reserved":false,"is_disabled":false,"rental_uris":{"android":"levelo://app?vid=765fecf5-afa0-4002-8c27-190672219484","ios":"levelo://app?vid=765fecf5-afa0-4002-8c27-190672219484"},"vehicle_type_id":"4","last_reported":1726182622,"current_range_meters":36800,"station_id":"ce4bhg12rcd13ifvqf80","pricing_plan_id":"cebpf4jnsgd1na2vs0mg"},{"bike_id":"148226b5-ef6b-48fa-ac5f-bd479379f9f4","system_id":"levelo_inurba_marseille","lat":43.296229,"lon":5.374897,"is_reserved":false,"is_disabled":false,"rental_uris":{"android":"levelo://app?vid=148226b5-ef6b-48fa-ac5f-bd479379f9f4","ios":"levelo://app?vid=148226b5-ef6b-48fa-ac5f-bd479379f9f4"},"vehicle_type_id":"4","last_reported":1726182622,"current_range_meters":38800,"station_id":"ce4bgkp2rcd13ifvqbmg","pricing_plan_id":"cebpf4jnsgd1na2vs0mg"},{"bike_id":"3a67dceb-2208-4645-8d77-5a80401ac781","system_id":"levelo_inurba_marseille","lat":43.28699,"lon":5.39975,"is_reserved":false,"is_disabled":false,"rental_uris":{"android":"levelo://app?vid=3a67dceb-2208-4645-8d77-5a80401ac781","ios":"levelo://app?vid=3a67dceb-2208-4645-8d77-5a80401ac781"},"vehicle_type_id":"4","last_reported":1726182622,"current_range_meters":37600,"station_id":"ce4bho92rcd13ifvqh3g","pricing_plan_id":"cebpf4jnsgd1na2vs0mg"},{"bike_id":"eb469417-9127-4000-9144-4534b30e1176","system_id":"levelo_inurba_marseille","lat":43.28704,"lon":5.39987,"is_reserved":false,"is_disabled":false,"rental_uris":{"android":"levelo://app?vid=eb469417-9127-4000-9144-4534b30e1176","ios":"levelo://app?vid=eb469417-9127-4000-9144-4534b30e1176"},"vehicle_type_id":"4","last_reported":1726182622,"current_range_meters":24800,"station_id":"ce4bho92rcd13ifvqh3g","pricing_plan_id":"cebpf4jnsgd1na2vs0mg"},{"bike_id":"70053e28-f973-41f0-8fad-26885f86d154","system_id":"levelo_inurba_marseille","lat":43.29094,"lon":5.38136,"is_reserved":false,"is_disabled":false,"rental_uris":{"android":"levelo://app?vid=70053e28-f973-41f0-8fad-26885f86d154","ios":"levelo://app?vid=70053e28-f973-41f0-8fad-26885f86d154"},"vehicle_type_id":"4","last_reported":1726182622,"current_range_meters":20000,"station_id":"ce4bh512rcd13ifvqe2g","pricing_plan_id":"cebpf4jnsgd1na2vs0mg"},{"bike_id":"680dc768-0acb-456e-8ccd-04aa53eb4c6d","system_id":"levelo_inurba_marseille","lat":43.31319,"lon":5.3971,"is_reserved":false,"is_disabled":false,"rental_uris":{"android":"levelo://app?vid=680dc768-0acb-456e-8ccd-04aa53eb4c6d","ios":"levelo://app?vid=680dc768-0acb-456e-8ccd-04aa53eb4c6d"},"vehicle_type_id":"4","last_reported":1726182622,"current_range_meters":18000,"station_id":"ce4bgvp2rcd13ifvqcu0","pricing_plan_id":"cebpf4jnsgd1na2vs0mg"},{"bike_id":"71e5bd5f-9941-45ed-83eb-1729c01b5303","system_id":"levelo_inurba_marseille","lat":43.22929,"lon":5.35374,"is_reserved":false,"is_disabled":false,"rental_uris":{"android":"levelo://app?vid=71e5bd5f-9941-45ed-83eb-1729c01b5303","ios":"levelo://app?vid=71e5bd5f-9941-45ed-83eb-1729c01b5303"},"vehicle_type_id":"4","last_reported":1726182622,"current_range_meters":37600,"station_id":"cpo3532slgdg3j2ikp40","pricing_plan_id":"cebpf4jnsgd1na2vs0mg"},{"bike_id":"f40d933f-001d-480a-9c32-a9179a899c6d","system_id":"levelo_inurba_marseille","lat":43.31761,"lon":5.39021,"is_reserved":false,"is_disabled":false,"rental_uris":{"android":"levelo://app?vid=f40d933f-001d-480a-9c32-a9179a899c6d","ios":"levelo://app?vid=f40d933f-001d-480a-9c32-a9179a899c6d"},"vehicle_type_id":"4","last_reported":1726182622,"current_range_meters":8800,"station_id":"ce4bhqp2rcd13ifvqhng","pricing_plan_id":"cebpf4jnsgd1na2vs0mg"},{"bike_id":"e338fa51-8016-4c55-ab8d-ca674b9118dc","system_id":"levelo_inurba_marseille","lat":43.24662,"lon":5.38163,"is_reserved":false,"is_disabled":false,"rental_uris":{"android":"levelo://app?vid=e338fa51-8016-4c55-ab8d-ca674b9118dc","ios":"levelo://app?vid=e338fa51-8016-4c55-ab8d-ca674b9118dc"},"vehicle_type_id":"4","last_reported":1726182622,"current_range_meters":28400,"station_id":"ce4bhih2rcd13ifvqfr0","pricing_plan_id":"cebpf4jnsgd1na2vs0mg"},{"bike_id":"f34e4332-f141-4c32-ae42-947df569dade","system_id":"levelo_inurba_marseille","lat":43.29572,"lon":5.39969,"is_reserved":false,"is_disabled":false,"rental_uris":{"android":"levelo://app?vid=f34e4332-f141-4c32-ae42-947df569dade","ios":"levelo://app?vid=f34e4332-f141-4c32-ae42-947df569dade"},"vehicle_type_id":"4","last_reported":1726182622,"current_range_meters":36400,"station_id":"ce4bh312rcd13ifvqdj0","pricing_plan_id":"cebpf4jnsgd1na2vs0mg"},{"bike_id":"e307b25e-5f61-43a7-a3cc-d604c4b40b20","system_id":"levelo_inurba_marseille","lat":43.28933,"lon":5.36397,"is_reserved":false,"is_disabled":false,"rental_uris":{"android":"levelo://app?vid=e307b25e-5f61-43a7-a3cc-d604c4b40b20","ios":"levelo://app?vid=e307b25e-5f61-43a7-a3cc-d604c4b40b20"},"vehicle_type_id":"4","last_reported":1726182622,"current_range_meters":38800,"station_id":"ce4bhc92rcd13ifvqetg","pricing_plan_id":"cebpf4jnsgd1na2vs0mg"},{"bike_id":"ca715f06-5514-4bfc-a733-a4b9b127308f","system_id":"levelo_inurba_marseille","lat":43.28701,"lon":5.39982,"is_reserved":false,"is_disabled":false,"rental_uris":{"android":"levelo://app?vid=ca715f06-5514-4bfc-a733-a4b9b127308f","ios":"levelo://app?vid=ca715f06-5514-4bfc-a733-a4b9b127308f"},"vehicle_type_id":"4","last_reported":1726182622,"current_range_meters":34000,"station_id":"ce4bho92rcd13ifvqh3g","pricing_plan_id":"cebpf4jnsgd1na2vs0mg"},{"bike_id":"7d89cc23-c665-4205-9521-063830aac172","system_id":"levelo_inurba_marseille","lat":43.30799,"lon":5.38161,"is_reserved":false,"is_disabled":false,"rental_uris":{"android":"levelo://app?vid=7d89cc23-c665-4205-9521-063830aac172","ios":"levelo://app?vid=7d89cc23-c665-4205-9521-063830aac172"},"vehicle_type_id":"4","last_reported":1726182622,"current_range_meters":38800,"station_id":"ce4bgt12rcd13ifvqce0","pricing_plan_id":"cebpf4jnsgd1na2vs0mg"},{"bike_id":"4501ade5-14f2-4760-a406-df8c308f4bfa","system_id":"levelo_inurba_marseille","lat":43.30811,"lon":5.38155,"is_reserved":false,"is_disabled":false,"rental_uris":{"android":"levelo://app?vid=4501ade5-14f2-4760-a406-df8c308f4bfa","ios":"levelo://app?vid=4501ade5-14f2-4760-a406-df8c308f4bfa"},"vehicle_type_id":"4","last_reported":1726182622,"current_range_meters":35200,"station_id":"ce4bgt12rcd13ifvqce0","pricing_plan_id":"cebpf4jnsgd1na2vs0mg"},{"bike_id":"fa02e1ab-12a4-42d7-99e9-040959fdad4f","system_id":"levelo_inurba_marseille","lat":43.22931,"lon":5.35374,"is_reserved":false,"is_disabled":false,"rental_uris":{"android":"levelo://app?vid=fa02e1ab-12a4-42d7-99e9-040959fdad4f","ios":"levelo://app?vid=fa02e1ab-12a4-42d7-99e9-040959fdad4f"},"vehicle_type_id":"4","last_reported":1726182622,"current_range_meters":30000,"station_id":"cpo3532slgdg3j2ikp40","pricing_plan_id":"cebpf4jnsgd1na2vs0mg"},{"bike_id":"d4fdf67c-a8ff-49f0-96db-677021653e0e","system_id":"levelo_inurba_marseille","lat":43.30146,"lon":5.39872,"is_reserved":false,"is_disabled":false,"rental_uris":{"android":"levelo://app?vid=d4fdf67c-a8ff-49f0-96db-677021653e0e","ios":"levelo://app?vid=d4fdf67c-a8ff-49f0-96db-677021653e0e"},"vehicle_type_id":"4","last_reported":1726182622,"current_range_meters":22000,"station_id":"ce4bh0h2rcd13ifvqd40","pricing_plan_id":"cebpf4jnsgd1na2vs0mg"},{"bike_id":"cd7a17d5-ac03-424f-bca6-691b3cbbc859","system_id":"levelo_inurba_marseille","lat":43.31366,"lon":5.38495,"is_reserved":false,"is_disabled":false,"rental_uris":{"android":"levelo://app?vid=cd7a17d5-ac03-424f-bca6-691b3cbbc859","ios":"levelo://app?vid=cd7a17d5-ac03-424f-bca6-691b3cbbc859"},"vehicle_type_id":"4","last_reported":1726182622,"current_range_meters":38800,"station_id":"ce4bgt92rcd13ifvqcf0","pricing_plan_id":"cebpf4jnsgd1na2vs0mg"},{"bike_id":"1f014aad-d79b-4a5b-bc7a-6b1fc1057101","system_id":"levelo_inurba_marseille","lat":43.31717,"lon":5.43716,"is_reserved":false,"is_disabled":false,"rental_uris":{"android":"levelo://app?vid=1f014aad-d79b-4a5b-bc7a-6b1fc1057101","ios":"levelo://app?vid=1f014aad-d79b-4a5b-bc7a-6b1fc1057101"},"vehicle_type_id":"4","last_reported":1726182622,"current_range_meters":37600,"station_id":"ce4bhp92rcd13ifvqhcg","pricing_plan_id":"cebpf4jnsgd1na2vs0mg"},{"bike_id":"6a8c3e6d-d1b0-4792-9d73-bc3adada54f9","system_id":"levelo_inurba_marseille","lat":43.28669,"lon":5.36339,"is_reserved":false,"is_disabled":false,"rental_uris":{"android":"levelo://app?vid=6a8c3e6d-d1b0-4792-9d73-bc3adada54f9","ios":"levelo://app?vid=6a8c3e6d-d1b0-4792-9d73-bc3adada54f9"},"vehicle_type_id":"4","last_reported":1726182622,"current_range_meters":15200,"station_id":"ce4bhah2rcd13ifvqej0","pricing_plan_id":"cebpf4jnsgd1na2vs0mg"},{"bike_id":"dc686f47-01f5-4a98-ac1c-77d1cebffb8c","system_id":"levelo_inurba_marseille","lat":43.23963,"lon":5.36631,"is_reserved":false,"is_disabled":false,"rental_uris":{"android":"levelo://app?vid=dc686f47-01f5-4a98-ac1c-77d1cebffb8c","ios":"levelo://app?vid=dc686f47-01f5-4a98-ac1c-77d1cebffb8c"},"vehicle_type_id":"4","last_reported":1726182622,"current_range_meters":24800,"station_id":"ce4bhi12rcd13ifvqfp0","pricing_plan_id":"cebpf4jnsgd1na2vs0mg"},