{"last_updated":1711987749,"ttl":30,"version":"2.2","data":{"bikes":[{"bike_id":"90fcb6c3-049c-4297-a839-605339c2e5eb","system_id":"levelo_inurba_marseille","lat":43.313391,"lon":5.36706,"is_reserved":false,"is_disabled":false,"rental_uris":{"android":"levelo://app?vid=90fcb6c3-049c-4297-a839-605339c2e5eb","ios":"levelo://app?vid=90fcb6c3-049c-4297-a839-605339c2e5eb"},"vehicle_type_id":"4","last_reported":1711987749,"current_range_meters":18400,"station_id":"ce4bgr92rcd13ifvqc6g","pricing_plan_id":"cebpf4jnsgd1na2vs0mg"},{"bike_id":"521ac311-ee98-4186-8d28-d060c5ffe646","system_id":"levelo_inurba_marseille","lat":43.31341,"lon":5.367098,"is_reserved":false,"is_disabled":false,"rental_uris":{"android":"levelo://app?vid=521ac311-ee98-4186-8d28-d060c5ffe646","ios":"levelo://app?vid=521ac311-ee98-4186-8d28-d060c5ffe646"},"vehicle_type_id":"4","last_reported":1711987749,"current_range_meters":18400,"station_id":"ce4bgr92rcd13ifvqc6g","pricing_plan_id":"cebpf4jnsgd1na2vs0mg"},{"bike_id":"9647b857-c5cb-4e31-abee-152b0fadb761","system_id":"levelo_inurba_marseille","lat":43.31341,"lon":5.367098,"is_reserved":false,"is_disabled":false,"rental_uris":{"android":"levelo://app?vid=9647b857-c5cb-4e31-abee-152b0fadb761","ios":"levelo://app?vid=9647b857-c5cb-4e31-abee-152b0fadb761"},"vehicle_type_id":"4","last_reported":1711987749,"current_range_meters":26000,"station_id":"ce4bgr92rcd13ifvqc6g","pricing_plan_id":"cebpf4jnsgd1na2vs0mg"},{"bike_id":"575057c4-d799-4674-adda-ba59c65b9e71","system_id":"levelo_inurba_marseille","lat":43.31341,"lon":5.367098,"is_reserved":false,"is_disabled":false,"rental_uris":{"android":"levelo://app?vid=575057c4-d799-4674-adda-ba59c65b9e71","ios":"levelo://app?vid=575057c4-d799-4674-adda-ba59c65b9e71"},"vehicle_type_id":"4","last_reported":1711987749,"current_range_meters":8400,"station_id":"ce4bgr92rcd13ifvqc6g","pricing_plan_id":"cebpf4jnsgd1na2vs0mg"},{"bike_id":"ecb32b6a-d39c-49bb-aab8-1867c926a3e2","system_id":"levelo_inurba_marseille","lat":43.31341,"lon":5.367098,"is_reserved":false,"is_disabled":false,"rental_uris":{"android":"levelo://app?vid=ecb32b6a-d39c-49bb-aab8-1867c926a3e2","ios":"levelo://app?vid=ecb32b6a-d39c-49bb-aab8-1867c926a3e2"},"vehicle_type_id":"4","last_reported":1711987749,"current_range_meters":31200,"station_id":"ce4bgr92rcd13ifvqc6g","pricing_plan_id":"cebpf4jnsgd1na2vs0mg"},{"bike_id":"de839a4d-cacf-46ab-805e-6be34a129f6b","system_id":"levelo_inurba_marseille","lat":43.31341,"lon":5.367098,"is_reserved":false,"is_disabled":false,"rental_uris":{"android":"levelo://app?vid=de839a4d-cacf-46ab-805e-6be34a129f6b","ios":"levelo://app?vid=de839a4d-cacf-46ab-805e-6be34a129f6b"},"vehicle_type_id":"4","last_reported":1711987749,"current_range_meters":8800,"station_id":"ce4bgr92rcd13ifvqc6g","pricing_plan_id":"cebpf4jnsgd1na2vs0mg"},{"bike_id":"0aa7ac01-5628-4ebc-8f78-5683c7a0ffb9","system_id":"levelo_inurba_marseille","lat":43.30912,"lon":5.36844,"is_reserved":false,"is_disabled":false,"rental_uris":{"android":"levelo://app?vid=0aa7ac01-5628-4ebc-8f78-5683c7a0ffb9","ios":"levelo://app?vid=0aa7ac01-5628-4ebc-8f78-5683c7a0ffb9"},"vehicle_type_id":"4","last_reported":1711987749,"current_range_meters":9200,"station_id":"ce4bgn92rcd13ifvqbvg","pricing_plan_id":"cebpf4jnsgd1na2vs0mg"},{"bike_id":"59db69ba-75c3-42d5-834c-aeb7e7845da5","system_id":"levelo_inurba_marseille","lat":43.314811,"lon":5.373103,"is_reserved":false,"is_disabled":false,"rental_uris":{"android":"levelo://app?vid=59db69ba-75c3-42d5-834c-aeb7e7845da5","ios":"levelo://app?vid=59db69ba-75c3-42d5-834c-aeb7e7845da5"},"vehicle_type_id":"4","last_reported":1711987749,"current_range_meters":19200,"station_id":"ce4bgt12rcd13ifvqcd0","pricing_plan_id":"cebpf4jnsgd1na2vs0mg"},{"bike_id":"8e6b680f-7372-4765-b587-3dcffe29c762","system_id":"levelo_inurba_marseille","lat":43.314811,"lon":5.373103,"is_reserved":false,"is_disabled":false,"rental_uris":{"android":"levelo://app?vid=8e6b680f-7372-4765-b587-3dcffe29c762","ios":"levelo://app?vid=8e6b680f-7372-4765-b587-3dcffe29c762"},"vehicle_type_id":"4","last_reported":1711987749,"current_range_meters":6000,"station_id":"ce4bgt12rcd13ifvqcd0","pricing_plan_id":"cebpf4jnsgd1na2vs0mg"},{"bike_id":"838064a5-3c08-40ae-b096-da073de8f710","system_id":"levelo_inurba_marseille","lat":43.324771,"lon":5.36557,"is_reserved":false,"is_disabled":false,"rental_uris":{"android":"levelo://app?vid=838064a5-3c08-40ae-b096-da073de8f710","ios":"levelo://app?vid=838064a5-3c08-40ae-b096-da073de8f710"},"vehicle_type_id":"4","last_reported":1711987749,"current_range_meters":0,"station_id":"ce4bhs12rcd13ifvqhvg","pricing_plan_id":"cebpf4jnsgd1na2vs0mg"},{"bike_id":"c26367de-9325-4038-a9fa-541094bbaa6e","system_id":"levelo_inurba_marseille","lat":43.30537,"lon":5.367345,"is_reserved":false,"is_disabled":false,"rental_uris":{"android":"levelo://app?vid=c26367de-9325-4038-a9fa-541094bbaa6e","ios":"levelo://app?vid=c26367de-9325-4038-a9fa-541094bbaa6e"},"vehicle_type_id":"4","last_reported":1711987749,"current_range_meters":7600,"station_id":"ce4bgrp2rcd13ifvqc9g","pricing_plan_id":"cebpf4jnsgd1na2vs0mg"},{"bike_id":"3b201d52-1287-4655-879e-9b0c146df87a","system_id":"levelo_inurba_marseille","lat":43.30544,"lon":5.36549,"is_reserved":false,"is_disabled":false,"rental_uris":{"android":"levelo://app?vid=3b201d52-1287-4655-879e-9b0c146df87a","ios":"levelo://app?vid=3b201d52-1287-4655-879e-9b0c146df87a"},"vehicle_type_id":"4","last_reported":1711987749,"current_range_meters":8400,"station_id":"ce4bgs12rcd13ifvqcag","pricing_plan_id":"cebpf4jnsgd1na2vs0mg"},{"bike_id":"3e4c9197-455c-47f5-9870-e8806a3dd3dc","system_id":"levelo_inurba_marseille","lat":43.30537,"lon":5.367345,"is_reserved":false,"is_disabled":false,"rental_uris":{"android":"levelo://app?vid=3e4c9197-455c-47f5-9870-e8806a3dd3dc","ios":"levelo://app?vid=3e4c9197-455c-47f5-9870-e8806a3dd3dc"},"vehicle_type_id":"4","last_reported":1711987749,"current_range_meters":2000,"station_id":"ce4bgrp2rcd13ifvqc9g","pricing_plan_id":"cebpf4jnsgd1na2vs0mg"},{"bike_id":"4c62de14-4fc8-4154-a710-bace6f8d8ad9","system_id":"levelo_inurba_marseille","lat":43.305714,"lon":5.365633,"is_reserved":false,"is_disabled":false,"rental_uris":{"android":"levelo://app?vid=4c62de14-4fc8-4154-a710-bace6f8d8ad9","ios":"levelo://app?vid=4c62de14-4fc8-4154-a710-bace6f8d8ad9"},"vehicle_type_id":"4","last_reported":1711987749,"current_range_meters":18000,"station_id":"ce4bgs12rcd13ifvqcag","pricing_plan_id":"cebpf4jnsgd1na2vs0mg"},{"bike_id":"f7f2e7bd-2ec6-4dd2-8d25-f484ddf6b88e","system_id":"levelo_inurba_marseille","lat":43.305291,"lon":5.367106,"is_reserved":false,"is_disabled":false,"rental_uris":{"android":"levelo://app?vid=f7f2e7bd-2ec6-4dd2-8d25-f484ddf6b88e","ios":"levelo://app?vid=f7f2e7bd-2ec6-4dd2-8d25-f484ddf6b88e"},"vehicle_type_id":"4","last_reported":1711987749,"current_range_meters":0,"station_id":"ce4bgrp2rcd13ifvqc9g","pricing_plan_id":"cebpf4jnsgd1na2vs0mg"},{"bike_id":"de895d60-778f-4d8c-90c8-bdcca9ff7eb2","system_id":"levelo_inurba_marseille","lat":43.30534,"lon":5.36545,"is_reserved":false,"is_disabled":false,"rental_uris":{"android":"levelo://app?vid=de895d60-778f-4d8c-90c8-bdcca9ff7eb2","ios":"levelo://app?vid=de895d60-778f-4d8c-90c8-bdcca9ff7eb2"},"vehicle_type_id":"4","last_reported":1711987749,"current_range_meters":0,"station_id":"ce4bgs12rcd13ifvqcag","pricing_plan_id":"cebpf4jnsgd1na2vs0mg"},{"bike_id":"a10c309a-740f-4ecf-ba64-264eb4533fc1","system_id":"levelo_inurba_marseille","lat":43.30604,"lon":5.37235,"is_reserved":false,"is_disabled":false,"rental_uris":{"android":"levelo://app?vid=a10c309a-740f-4ecf-ba64-264eb4533fc1","ios":"levelo://app?vid=a10c309a-740f-4ecf-ba64-264eb4533fc1"},"vehicle_type_id":"4","last_reported":1711987749,"current_range_meters":29200,"station_id":"ce4bgqh2rcd13ifvqc4g","pricing_plan_id":"cebpf4jnsgd1na2vs0mg"},{"bike_id":"02e65d08-fc55-4484-b0bf-0f4205b97def","system_id":"levelo_inurba_marseille","lat":43.305989,"lon":5.37225,"is_reserved":false,"is_disabled":false,"rental_uris":{"android":"levelo://app?vid=02e65d08-fc55-4484-b0bf-0f4205b97def","ios":"levelo://app?vid=02e65d08-fc55-4484-b0bf-0f4205b97def"},"vehicle_type_id":"4","last_reported":1711987749,"current_range_meters":1600,"station_id":"ce4bgqh2rcd13ifvqc4g","pricing_plan_id":"cebpf4jnsgd1na2vs0mg"},{"bike_id":"f21a02d3-f9c8-472a-9452-98fec01a4e73","system_id":"levelo_inurba_marseille","lat":43.311125,"lon":5.377624,"is_reserved":false,"is_disabled":false,"rental_uris":{"android":"levelo://app?vid=f21a02d3-f9c8-472a-9452-98fec01a4e73","ios":"levelo://app?vid=f21a02d3-f9c8-472a-9452-98fec01a4e73"},"vehicle_type_id":"4","last_reported":1711987749,"current_range_meters":2400,"station_id":"ce4bgt92rcd13ifvqcg0","pricing_plan_id":"cebpf4jnsgd1na2vs0mg"},{"bike_id":"0b187c71-2ea6-4975-b306-1e09e9b6a5f7","system_id":"levelo_inurba_marseille","lat":43.311131,"lon":5.377651,"is_reserved":false,"is_disabled":false,"rental_uris":{"android":"levelo://app?vid=0b187c71-2ea6-4975-b306-1e09e9b6a5f7","ios":"levelo://app?vid=0b187c71-2ea6-4975-b306-1e09e9b6a5f7"},"vehicle_type_id":"4","last_reported":1711987749,"current_range_meters":28000,"station_id":"ce4bgt92rcd13ifvqcg0","pricing_plan_id":"cebpf4jnsgd1na2vs0mg"},{"bike_id":"aa744a99-8981-4227-a28a-3a9b13548f16","system_id":"levelo_inurba_marseille","lat":43.311125,"lon":5.377624,"is_reserved":false,"is_disabled":false,"rental_uris":{"android":"levelo://app?vid=aa744a99-8981-4227-a28a-3a9b13548f16","ios":"levelo://app?vid=aa744a99-8981-4227-a28a-3a9b13548f16"},"vehicle_type_id":"4","last_reported":1711987749,"current_range_meters":5200,"station_id":"ce4bgt92rcd13ifvqcg0","pricing_plan_id":"cebpf4jnsgd1na2vs0mg"},{"bike_id":"45b94bd4-c838-44a1-9549-6247ef10d23c","system_id":"levelo_inurba_marseille","lat":43.307945,"lon":5.376487,"is_reserved":false,"is_disabled":false,"rental_uris":{"android":"levelo://app?vid=45b94bd4-c838-44a1-9549-6247ef10d23c","ios":"levelo://app?vid=45b94bd4-c838-44a1-9549-6247ef10d23c"},"vehicle_type_id":"4","last_reported":1711987749,"current_range_meters":17200,"station_id":"ce4bgv92rcd13ifvqcq0","pricing_plan_id":"cebpf4jnsgd1na2vs0mg"},{"bike_id":"0890eaad-951d-47fd-b1c4-6019df92ee65","system_id":"levelo_inurba_marseille","lat":43.285848,"lon":5.350787,"is_reserved":false,"is_disabled":false,"rental_uris":{"android":"levelo://app?vid=0890eaad-951d-47fd-b1c4-6019df92ee65","ios":"levelo://app?vid=0890eaad-951d-47fd-b1c4-6019df92ee65"},"vehicle_type_id":"4","last_reported":1711987749,"current_range_meters":2000,"station_id":"ce4bhch2rcd13ifvqeug","pricing_plan_id":"cebpf4jnsgd1na2vs0mg"},{"bike_id":"f62bbd8e-743d-4945-96c6-feb368dfe6f5","system_id":"levelo_inurba_marseille","lat":43.317075,"lon":5.377367,"is_reserved":false,"is_disabled":false,"rental_uris":{"android":"levelo://app?vid=f62bbd8e-743d-4945-96c6-feb368dfe6f5","ios":"levelo://app?vid=f62bbd8e-743d-4945-96c6-feb368dfe6f5"},"vehicle_type_id":"4","last_reported":1711987749,"current_range_meters":10000,"station_id":"ce4bgth2rcd13ifvqch0","pricing_plan_id":"cebpf4jnsgd1na2vs0mg"},{"bike_id":"bbfed310-f5ca-41c8-bf3a-f83cd6959697","system_id":"levelo_inurba_marseille","lat":43.313254,"lon":5.37881,"is_reserved":false,"is_disabled":false,"rental_uris":{"android":"levelo://app?vid=bbfed310-f5ca-41c8-bf3a-f83cd6959697","ios":"levelo://app?vid=bbfed310-f5ca-41c8-bf3a-f83cd6959697"},"vehicle_type_id":"4","last_reported":1711987749,"current_range_meters":20000,"station_id":"","pricing_plan_id":"cebpf4jnsgd1na2vs0mg"},{"bike_id":"9764c075-571d-4324-a922-869f5c4149f0","system_id":"levelo_inurba_marseille","lat":43.317075,"lon":5.377367,"is_reserved":false,"is_disabled":false,"rental_uris":{"android":"levelo://app?vid=9764c075-571d-4324-a922-869f5c4149f0","ios":"levelo://app?vid=9764c075-571d-4324-a922-869f5c4149f0"},"vehicle_type_id":"4","last_reported":1711987749,"current_range_meters":13200,"station_id":"ce4bgth2rcd13ifvqch0","pricing_plan_id":"cebpf4jnsgd1na2vs0mg"},{"bike_id":"c2b56bb4-6ff7-4a77-a40e-e8522e7b5f23","system_id":"levelo_inurba_marseille","lat":43.317075,"lon":5.377367,"is_reserved":false,"is_disabled":false,"rental_uris":{"android":"levelo://app?vid=c2b56bb4-6ff7-4a77-a40e-e8522e7b5f23","ios":"levelo://app?vid=c2b56bb4-6ff7-4a77-a40e-e8522e7b5f23"},"vehicle_type_id":"4","last_reported":1711987749,"current_range_meters":28800,"station_id":"ce4bgth2rcd13ifvqch0","pricing_plan_id":"cebpf4jnsgd1na2vs0mg"},{"bike_id":"f29dc2a6-0203-42d5-808a-dee09d2539d2","system_id":"levelo_inurba_marseille","lat":43.317075,"lon":5.377367,"is_reserved":false,"is_disabled":false,"rental_uris":{"android":"levelo://app?vid=f29dc2a6-0203-42d5-808a-dee09d2539d2","ios":"levelo://app?vid=f29dc2a6-0203-42d5-808a-dee09d2539d2"},"vehicle_type_id":"4","last_reported":1711987749,"current_range_meters":24400,"station_id":"ce4bgth2rcd13ifvqch0","pricing_plan_id":"cebpf4jnsgd1na2vs0mg"},{"bike_id":"8cd88985-58db-43df-875e-2459b6cbd6cf","system_id":"levelo_inurba_marseille","lat":43.303046,"lon":5.368981,"is_reserved":false,"is_disabled":false,"rental_uris":{"android":"levelo://app?vid=8cd88985-58db-43df-875e-2459b6cbd6cf","ios":"levelo://app?vid=8cd88985-58db-43df-875e-2459b6cbd6cf"},"vehicle_type_id":"4","last_reported":1711987749,"current_range_meters":0,"station_id":"ce4bgqh2rcd13ifvqc5g","pricing_plan_id":"cebpf4jnsgd1na2vs0mg"},{"bike_id":"27ffeefc-6d3c-4581-b96f-2b4c68639ff9","system_id":"levelo_inurba_marseille","lat":43.303046,"lon":5.368981,"is_reserved":false,"is_disabled":false,"rental_uris":{"android":"levelo://app?vid=27ffeefc-6d3c-4581-b96f-2b4c68639ff9","ios":"levelo://app?vid=27ffeefc-6d3c-4581-b96f-2b4c68639ff9"},"vehicle_type_id":"4","last_reported":1711987749,"current_range_meters":12800,"station_id":"ce4bgqh2rcd13ifvqc5g","pricing_plan_id":"cebpf4jnsgd1na2vs0mg"},{"bike_id":"24f4e232-cabb-47c9-b897-5bcbbfe35da2","system_id":"levelo_inurba_marseille","lat":43.303046,"lon":5.368981,"is_reserved":false,"is_disabled":false,"rental_uris":{"android":"levelo://app?vid=24f4e232-cabb-47c9-b897-5bcbbfe35da2","ios":"levelo://app?vid=24f4e232-cabb-47c9-b897-5bcbbfe35da2"},"vehicle_type_id":"4","last_reported":1711987749,"current_range_meters":800,"station_id":"ce4bgqh2rcd13ifvqc5g","pricing_plan_id":"cebpf4jnsgd1na2vs0mg"},{"bike_id":"3028eec3-6cc6-4e82-ba44-cf1f7114d6e5","system_id":"levelo_inurba_marseille","lat":43.3154,"lon":5.38025,"is_reserved":false,"is_disabled":false,"rental_uris":{"android":"levelo://app?vid=3028eec3-6cc6-4e82-ba44-cf1f7114d6e5","ios":"levelo://app?vid=3028eec3-6cc6-4e82-ba44-cf1f7114d6e5"},"vehicle_type_id":"4","last_reported":1711987749,"current_range_meters":20400,"station_id":"ce4bhsp2rcd13ifvqi50","pricing_plan_id":"cebpf4jnsgd1na2vs0mg"},{"bike_id":"ba71fa5d-cc21-45e3-82a8-9cbb61937845","system_id":"levelo_inurba_marseille","lat":43.31533,"lon":5.38029,"is_reserved":false,"is_disabled":false,"rental_uris":{"android":"levelo://app?vid=ba71fa5d-cc21-45e3-82a8-9cbb61937845","ios":"levelo://app?vid=ba71fa5d-cc21-45e3-82a8-9cbb61937845"},"vehicle_type_id":"4","last_reported":1711987749,"current_range_meters":14000,"station_id":"ce4bhsp2rcd13ifvqi50","pricing_plan_id":"cebpf4jnsgd1na2vs0mg"},{"bike_id":"353e244d-ac4f-4a41-b7f0-6812eb67ffc9","system_id":"levelo_inurba_marseille","lat":43.31535,"lon":5.38034,"is_reserved":false,"is_disabled":false,"rental_uris":{"android":"levelo://app?vid=353e244d-ac4f-4a41-b7f0-6812eb67ffc9","ios":"levelo://app?vid=353e244d-ac4f-4a41-b7f0-6812eb67ffc9"},"vehicle_type_id":"4","last_reported":1711987749,"current_range_meters":9200,"station_id":"ce4bhsp2rcd13ifvqi50","pricing_plan_id":"cebpf4jnsgd1na2vs0mg"},{"bike_id":"1bc9d8e1-5c01-43d7-817e-ce5e5c202906","system_id":"levelo_inurba_marseille","lat":43.31531,"lon":5.3804,"is_reserved":false,"is_disabled":false,"rental_uris":{"android":"levelo://app?vid=1bc9d8e1-5c01-43d7-817e-ce5e5c202906","ios":"levelo://app?vid=1bc9d8e1-5c01-43d7-817e-ce5e5c202906"},"vehicle_type_id":"4","last_reported":1711987749,"current_range_meters":13600,"station_id":"ce4bhsp2rcd13ifvqi50","pricing_plan_id":"cebpf4jnsgd1na2vs0mg"},{"bike_id":"016bcc7e-3793-494e-a3c4-c27b9c45db3e","system_id":"levelo_inurba_marseille","lat":43.28039,"lon":5.369297,"is_reserved":false,"is_disabled":false,"rental_uris":{"android":"levelo://app?vid=016bcc7e-3793-494e-a3c4-c27b9c45db3e","ios":"levelo://app?vid=016bcc7e-3793-494e-a3c4-c27b9c45db3e"},"vehicle_type_id":"4","last_reported":1711987749,"current_range_meters":800,"station_id":"ce4bha12rcd13ifvqef0","pricing_plan_id":"cebpf4jnsgd1na2vs0mg"},{"bike_id":"1179b424-e642-4cc9-8eef-6573e93ba9dd","system_id":"levelo_inurba_marseille","lat":43.302957,"lon":5.372327,"is_reserved":false,"is_disabled":false,"rental_uris":{"android":"levelo://app?vid=1179b424-e642-4cc9-8eef-6573e93ba9dd","ios":"levelo://app?vid=1179b424-e642-4cc9-8eef-6573e93ba9dd"},"vehicle_type_id":"4","last_reported":1711987749,"current_range_meters":14800,"station_id":"","pricing_plan_id":"cebpf4jnsgd1na2vs0mg"},{"bike_id":"37a6deb4-165e-4850-a63d-d5a5e70f72a5","system_id":"levelo_inurba_marseille","lat":43.3019,"lon":5.36607,"is_reserved":false,"is_disabled":false,"rental_uris":{"android":"levelo://app?vid=37a6deb4-165e-4850-a63d-d5a5e70f72a5","ios":"levelo://app?vid=37a6deb4-165e-4850-a63d-d5a5e70f72a5"},"vehicle_type_id":"4","last_reported":1711987749,"current_range_meters":4800,"station_id":"ce4bgrh2rcd13ifvqc8g","pricing_plan_id":"cebpf4jnsgd1na2vs0mg"},{"bike_id":"cd41a898-5065-40d0-9d6c-73e6cd2c9c10","system_id":"levelo_inurba_marseille","lat":43.301939,"lon":5.366286,"is_reserved":false,"is_disabled":false,"rental_uris":{"android":"levelo://app?vid=cd41a898-5065-40d0-9d6c-73e6cd2c9c10","ios":"levelo://app?vid=cd41a898-5065-40d0-9d6c-73e6cd2c9c10"},"vehicle_type_id":"4","last_reported":1711987749,"current_range_meters":1600,"station_id":"ce4bgrh2rcd13ifvqc8g","pricing_plan_id":"cebpf4jnsgd1na2vs0mg"},{"bike_id":"769ec272-a556-4f18-8792-f805d67a74a5","system_id":"levelo_inurba_marseille","lat":43.301939,"lon":5.366286,"is_reserved":false,"is_disabled":false,"rental_uris":{"android":"levelo://app?vid=769ec272-a556-4f18-8792-f805d67a74a5","ios":"levelo://app?vid=769ec272-a556-4f18-8792-f805d67a74a5"},"vehicle_type_id":"4","last_reported":1711987749,"current_range_meters":6000,"station_id":"ce4bgrh2rcd13ifvqc8g","pricing_plan_id":"cebpf4jnsgd1na2vs0mg"},{"bike_id":"b09b6c0b-9d6d-45fc-ad31-7f40f89d9e09","system_id":"levelo_inurba_marseille","lat":43.308012,"lon":5.381511,"is_reserved":false,"is_disabled":false,"rental_uris":{"android":"levelo://app?vid=b09b6c0b-9d6d-45fc-ad31-7f40f89d9e09","ios":"levelo://app?vid=b09b6c0b-9d6d-45fc-ad31-7f40f89d9e09"},"vehicle_type_id":"4","last_reported":1711987749,"current_range_meters":3600,"station_id":"ce4bgt12rcd13ifvqce0","pricing_plan_id":"cebpf4jnsgd1na2vs0mg"},{"bike_id":"8ea9527d-fcdb-4205-aaf6-7f519021288f","system_id":"levelo_inurba_marseille","lat":43.324771,"lon":5.36557,"is_reserved":false,"is_disabled":false,"rental_uris":{"android":"levelo://app?vid=8ea9527d-fcdb-4205-aaf6-7f519021288f","ios":"levelo://app?vid=8ea9527d-fcdb-4205-aaf6-7f519021288f"},"vehicle_type_id":"4","last_reported":1711987749,"current_range_meters":2800,"station_id":"ce4bhs12rcd13ifvqhvg","pricing_plan_id":"cebpf4jnsgd1na2vs0mg"},{"bike_id":"a3666b40-4777-4f01-a89c-44b14287a6ff","system_id":"levelo_inurba_marseille","lat":43.304699,"lon":5.379044,"is_reserved":false,"is_disabled":false,"rental_uris":{"android":"levelo://app?vid=a3666b40-4777-4f01-a89c-44b14287a6ff","ios":"levelo://app?vid=a3666b40-4777-4f01-a89c-44b14287a6ff"},"vehicle_type_id":"4","last_reported":1711987749,"current_range_meters":14800,"station_id":"","pricing_plan_id":"cebpf4jnsgd1na2vs0mg"},{"bike_id":"a1bc6daf-4b6e-4d0a-b5a9-6cb335b9856d","system_id":"levelo_inurba_marseille","lat":43.304606,"lon":5.379026,"is_reserved":false,"is_disabled":false,"rental_uris":{"android":"levelo://app?vid=a1bc6daf-4b6e-4d0a-b5a9-6cb335b9856d","ios":"levelo://app?vid=a1bc6daf-4b6e-4d0a-b5a9-6cb335b9856d"},"vehicle_type_id":"4","last_reported":1711987749,"current_range_meters":30800,"station_id":"ce4bgup2rcd13ifvqcn0","pricing_plan_id":"cebpf4jnsgd1na2vs0mg"},{"bike_id":"f87fb54b-c3fc-4a85-804d-6b0474285753","system_id":"levelo_inurba_marseille","lat":43.294162,"lon":5.386292,"is_reserved":false,"is_disabled":false,"rental_uris":{"android":"levelo://app?vid=f87fb54b-c3fc-4a85-804d-6b0474285753","ios":"levelo://app?vid=f87fb54b-c3fc-4a85-804d-6b0474285753"},"vehicle_type_id":"4","last_reported":1711987749,"current_range_meters":7600,"station_id":"ce4bh2h2rcd13ifvqdh0","pricing_plan_id":"cebpf4jnsgd1na2vs0mg"},{"bike_id":"535ef4ef-297c-4d72-901d-24ae195e94ef","system_id":"levelo_inurba_marseille","lat":43.324771,"lon":5.36557,"is_reserved":false,"is_disabled":false,"rental_uris":{"android":"levelo://app?vid=535ef4ef-297c-4d72-901d-24ae195e94ef","ios":"levelo://app?vid=535ef4ef-297c-4d72-901d-24ae195e94ef"},"vehicle_type_id":"4","last_reported":1711987749,"current_range_meters":15600,"station_id":"ce4bhs12rcd13ifvqhvg","pricing_plan_id":"cebpf4jnsgd1na2vs0mg"},{"bike_id":"ee90edf0-1805-45fb-98df-d22bd3a01aec","system_id":"levelo_inurba_marseille","lat":43.324771,"lon":5.36557,"is_reserved":false,"is_disabled":false,"rental_uris":{"android":"levelo://app?vid=ee90edf0-1805-45fb-98df-d22bd3a01aec","ios":"levelo://app?vid=ee90edf0-1805-45fb-98df-d22bd3a01aec"},"vehicle_type_id":"4","last_reported":1711987749,"current_range_meters":24000,"station_id":"ce4bhs12rcd13ifvqhvg","pricing_plan_id":"cebpf4jnsgd1na2vs0mg"},{"bike_id":"b69eb4e9-6a06-4e49-9463-0467fee1bdb8","system_id":"levelo_inurba_marseille","lat":43.324771,"lon":5.36557,"is_reserved":false,"is_disabled":false,"rental_uris":{"android":"levelo://app?vid=b69eb4e9-6a06-4e49-9463-0467fee1bdb8","ios":"levelo://app?vid=b69eb4e9-6a06-4e49-9463-0467fee1bdb8"},"vehicle_type_id":"4","last_reported":1711987749,"current_range_meters":27200,"station_id":"ce4bhs12rcd13ifvqhvg","pricing_plan_id":"cebpf4jnsgd1na2vs0mg"},{"bike_id":"a47d18d1-58b8-4180-8a69-25f81aa5de1b","system_id":"levelo_inurba_marseille","lat":43.324771,"lon":5.36557,"is_reserved":false,"is_disabled":false,"rental_uris":{"android":"levelo://app?vid=a47d18d1-58b8-4180-8a69-25f81aa5de1b","ios":"levelo://app?vid=a47d18d1-58b8-4180-8a69-25f81aa5de1b"},"vehicle_type_id":"4","last_reported":1711987749,"current_range_meters":16800,"station_id":"ce4bhs12rcd13ifvqhvg","pricing_plan_id":"cebpf4jnsgd1na2vs0mg"},{"bike_id":"93b002c0-01eb-4a5e-838c-35d520bad3fc","system_id":"levelo_inurba_marseille","lat":43.324771,"lon":5.36557,"is_reserved":false,"is_disabled":false,"rental_uris":{"android":"levelo://app?vid=93b002c0-01eb-4a5e-838c-35d520bad3fc","ios":"levelo://app?vid=93b002c0-01eb-4a5e-838c-35d520bad3fc"},"vehicle_type_id":"4","last_reported":1711987749,"current_range_meters":20000,"station_id":"ce4bhs12rcd13ifvqhvg","pricing_plan_id":"cebpf4jnsgd1na2vs0mg"},{"bike_id":"cdbf7076-7e1c-4277-9d57-17692054ed98","system_id":"levelo_inurba_marseille","lat":43.32481,"lon":5.36581,"is_reserved":false,"is_disabled":false,"rental_uris":{"android":"levelo://app?vid=cdbf7076-7e1c-4277-9d57-17692054ed98","ios":"levelo://app?vid=cdbf7076-7e1c-4277-9d57-17692054ed98"},"vehicle_type_id":"4","last_reported":1711987749,"current_range_meters":26400,"station_id":"ce4bhs12rcd13ifvqhvg","pricing_plan_id":"cebpf4jnsgd1na2vs0mg"},{"bike_id":"401bc7b5-9ce9-443b-a290-c2f943b6888e","system_id":"levelo_inurba_marseille","lat":43.324771,"lon":5.36557,"is_reserved":false,"is_disabled":false,"rental_uris":{"android":"levelo://app?vid=401bc7b5-9ce9-443b-a290-c2f943b6888e","ios":"levelo://app?vid=401bc7b5-9ce9-443b-a290-c2f943b6888e"},"vehicle_type_id":"4","last_reported":1711987749,"current_range_meters":24400,"station_id":"ce4bhs12rcd13ifvqhvg","pricing_plan_id":"cebpf4jnsgd1na2vs0mg"},{"bike_id":"c3bd56c1-e72a-442f-8628-8c0fca4e57d8","system_id":"levelo_inurba_marseille","lat":43.324771,"lon":5.36557,"is_reserved":false,"is_disabled":false,"rental_uris":{"android":"levelo://app?vid=c3bd56c1-e72a-442f-8628-8c0fca4e57d8","ios":"levelo://app?vid=c3bd56c1-e72a-442f-8628-8c0fca4e57d8"},"vehicle_type_id":"4","last_reported":1711987749,"current_range_meters":24400,"station_id":"ce4bhs12rcd13ifvqhvg","pricing_plan_id":"cebpf4jnsgd1na2vs0mg"},{"bike_id":"98c5afdd-1eb6-4789-8095-aa6f6d85259c","system_id":"levelo_inurba_marseille","lat":43.324832,"lon":5.365676,"is_reserved":false,"is_disabled":false,"rental_uris":{"android":"levelo://app?vid=98c5afdd-1eb6-4789-8095-aa6f6d85259c","ios":"levelo://app?vid=98c5afdd-1eb6-4789-8095-aa6f6d85259c"},"vehicle_type_id":"4","last_reported":1711987749,"current_range_meters":18000,"station_id":"ce4bhs12rcd13ifvqhvg","pricing_plan_id":"cebpf4jnsgd1na2vs0mg"},{"bike_id":"3933c208-afb2-45ee-92a4-2a4fc6ee3abe","system_id":"levelo_inurba_marseille","lat":43.324771,"lon":5.36557,"is_reserved":false,"is_disabled":false,"rental_uris":{"android":"levelo://app?vid=3933c208-afb2-45ee-92a4-2a4fc6ee3abe","ios":"levelo://app?vid=3933c208-afb2-45ee-92a4-2a4fc6ee3abe"},"vehicle_type_id":"4","last_reported":1711987749,"current_range_meters":25200,"station_id":"ce4bhs12rcd13ifvqhvg","pricing_plan_id":"cebpf4jnsgd1na2vs0mg"},{"bike_id":"bebf9b22-c84c-4571-a014-1cca25e28554","system_id":"levelo_inurba_marseille","lat":43.324771,"lon":5.36557,"is_reserved":false,"is_disabled":false,"rental_uris":{"android":"levelo://app?vid=bebf9b22-c84c-4571-a014-1cca25e28554","ios":"levelo://app?vid=bebf9b22-c84c-4571-a014-1cca25e28554"},"vehicle_type_id":"4","last_reported":1711987749,"current_range_meters":26800,"station_id":"ce4bhs12rcd13ifvqhvg","pricing_plan_id":"cebpf4jnsgd1na2vs0mg"},{"bike_id":"84d40b34-f825-4804-8b82-51d8ef1b4ff9","system_id":"levelo_inurba_marseille","lat":43.324771,"lon":5.36557,"is_reserved":false,"is_disabled":false,"rental_uris":{"android":"levelo://app?vid=84d40b34-f825-4804-8b82-51d8ef1b4ff9","ios":"levelo://app?vid=84d40b34-f825-4804-8b82-51d8ef1b4ff9"},"vehicle_type_id":"4","last_reported":1711987749,"current_range_meters":18400,"station_id":"ce4bhs12rcd13ifvqhvg","pricing_plan_id":"cebpf4jnsgd1na2vs0mg"},{"bike_id":"e9ed05f5-be52-4263-930f-30c22a466d11","system_id":"levelo_inurba_marseille","lat":43.324771,"lon":5.36557,"is_reserved":false,"is_disabled":false,"rental_uris":{"android":"levelo://app?vid=e9ed05f5-be52-4263-930f-30c22a466d11","ios":"levelo://app?vid=e9ed05f5-be52-4263-930f-30c22a466d11"},"vehicle_type_id":"4","last_reported":1711987749,"current_range_meters":25200,"station_id":"ce4bhs12rcd13ifvqhvg","pricing_plan_id":"cebpf4jnsgd1na2vs0mg"},{"bike_id":"6a4a5801-0df6-45c8-84c9-cce427058bf0","system_id":"levelo_inurba_marseille","lat":43.324771,"lon":5.36557,"is_reserved":false,"is_disabled":false,"rental_uris":{"android":"levelo://app?vid=6a4a5801-0df6-45c8-84c9-cce427058bf0","ios":"levelo://app?vid=6a4a5801-0df6-45c8-84c9-cce427058bf0"},"vehicle_type_id":"4","last_reported":1711987749,"current_range_meters":5200,"station_id":"ce4bhs12rcd13ifvqhvg","pricing_plan_id":"cebpf4jnsgd1na2vs0mg"},{"bike_id":"bdb768fc-dfa8-44ea-abdf-2f214d608d70","system_id":"levelo_inurba_marseille","lat":43.310804,"lon":5.38359,"is_reserved":false,"is_disabled":false,"rental_uris":{"android":"levelo://app?vid=bdb768fc-dfa8-44ea-abdf-2f214d608d70","ios":"levelo://app?vid=bdb768fc-dfa8-44ea-abdf-2f214d608d70"},"vehicle_type_id":"4","last_reported":1711987749,"current_range_meters":0,"station_id":"ce4bgv92rcd13ifvqcr0","pricing_plan_id":"cebpf4jnsgd1na2vs0mg"},{"bike_id":"63e409bf-d06e-49fc-9042-43c6a317543f","system_id":"levelo_inurba_marseille","lat":43.310804,"lon":5.38359,"is_reserved":false,"is_disabled":false,"rental_uris":{"android":"levelo://app?vid=63e409bf-d06e-49fc-9042-43c6a317543f","ios":"levelo://app?vid=63e409bf-d06e-49fc-9042-43c6a317543f"},"vehicle_type_id":"4","last_reported":1711987749,"current_range_meters":18400,"station_id":"ce4bgv92rcd13ifvqcr0","pricing_plan_id":"cebpf4jnsgd1na2vs0mg"},{"bike_id":"ecac4be7-9197-4cb6-9f6a-76635e47a14e","system_id":"levelo_inurba_marseille","lat":43.3027,"lon":5.37702,"is_reserved":false,"is_disabled":false,"rental_uris":{"android":"levelo://app?vid=ecac4be7-9197-4cb6-9f6a-76635e47a14e","ios":"levelo://app?vid=ecac4be7-9197-4cb6-9f6a-76635e47a14e"},"vehicle_type_id":"4","last_reported":1711987749,"current_range_meters":15600,"station_id":"","pricing_plan_id":"cebpf4jnsgd1na2vs0mg"},{"bike_id":"32c92d31-69ca-46e4-b64a-bbde623729e6","system_id":"levelo_inurba_marseille","lat":43.301429,"lon":5.37413,"is_reserved":false,"is_disabled":false,"rental_uris":{"android":"levelo://app?vid=32c92d31-69ca-46e4-b64a-bbde623729e6","ios":"levelo://app?vid=32c92d31-69ca-46e4-b64a-bbde623729e6"},"vehicle_type_id":"4","last_reported":1711987749,"current_range_meters":19200,"station_id":"ce4bgs92rcd13ifvqcc0","pricing_plan_id":"cebpf4jnsgd1na2vs0mg"},{"bike_id":"ca3b1487-df13-406c-aa15-b0aad3dfbe72","system_id":"levelo_inurba_marseille","lat":43.302784,"lon":5.377158,"is_reserved":false,"is_disabled":false,"rental_uris":{"android":"levelo://app?vid=ca3b1487-df13-406c-aa15-b0aad3dfbe72","ios":"levelo://app?vid=ca3b1487-df13-406c-aa15-b0aad3dfbe72"},"vehicle_type_id":"4","last_reported":1711987749,"current_range_meters":30800,"station_id":"ce4bguh2rcd13ifvqcj0","pricing_plan_id":"cebpf4jnsgd1na2vs0mg"},{"bike_id":"5283cec1-7ee2-4e9c-a255-6d60311e6e04","system_id":"levelo_inurba_marseille","lat":43.302784,"lon":5.377158,"is_reserved":false,"is_disabled":false,"rental_uris":{"android":"levelo://app?vid=5283cec1-7ee2-4e9c-a255-6d60311e6e04","ios":"levelo://app?vid=5283cec1-7ee2-4e9c-a255-6d60311e6e04"},"vehicle_type_id":"4","last_reported":1711987749,"current_range_meters":29200,"station_id":"ce4bguh2rcd13ifvqcj0","pricing_plan_id":"cebpf4jnsgd1na2vs0mg"},{"bike_id":"27275d80-284e-4183-9d1d-cc493a3f2a23","system_id":"levelo_inurba_marseille","lat":43.30143,"lon":5.37413,"is_reserved":false,"is_disabled":false,"rental_uris":{"android":"levelo://app?vid=27275d80-284e-4183-9d1d-cc493a3f2a23","ios":"levelo://app?vid=27275d80-284e-4183-9d1d-cc493a3f2a23"},"vehicle_type_id":"4","last_reported":1711987749,"current_range_meters":6000,"station_id":"ce4bgs92rcd13ifvqcc0","pricing_plan_id":"cebpf4jnsgd1na2vs0mg"},{"bike_id":"64b9aed1-01c9-495a-a5aa-d5d74f3adea2","system_id":"levelo_inurba_marseille","lat":43.302784,"lon":5.377158,"is_reserved":false,"is_disabled":false,"rental_uris":{"android":"levelo://app?vid=64b9aed1-01c9-495a-a5aa-d5d74f3adea2","ios":"levelo://app?vid=64b9aed1-01c9-495a-a5aa-d5d74f3adea2"},"vehicle_type_id":"4","last_reported":1711987749,"current_range_meters":26400,"station_id":"ce4bguh2rcd13ifvqcj0","pricing_plan_id":"cebpf4jnsgd1na2vs0mg"},{"bike_id":"0eede5a8-188f-4591-99fc-d2e0f19ff528","system_id":"levelo_inurba_marseille","lat":43.302784,"lon":5.377158,"is_reserved":false,"is_disabled":false,"rental_uris":{"android":"levelo://app?vid=0eede5a8-188f-4591-99fc-d2e0f19ff528","ios":"levelo://app?vid=0eede5a8-188f-4591-99fc-d2e0f19ff528"},"vehicle_type_id":"4","last_reported":1711987749,"current_range_meters":28400,"station_id":"ce4bguh2rcd13ifvqcj0","pricing_plan_id":"cebpf4jnsgd1na2vs0mg"},{"bike_id":"450d7977-c299-497b-817c-d38d6c0b534e","system_id":"levelo_inurba_marseille","lat":43.302784,"lon":5.377158,"is_reserved":false,"is_disabled":false,"rental_uris":{"android":"levelo://app?vid=450d7977-c299-497b-817c-d38d6c0b534e","ios":"levelo://app?vid=450d7977-c299-497b-817c-d38d6c0b534e"},"vehicle_type_id":"4","last_reported":1711987749,"current_range_meters":0,"station_id":"ce4bguh2rcd13ifvqcj0","pricing_plan_id":"cebpf4jnsgd1na2vs0mg"},{"bike_id":"9b1d4d20-0656-4f5a-8f4d-d242578e496f","system_id":"levelo_inurba_marseille","lat":43.301429,"lon":5.37413,"is_reserved":false,"is_disabled":false,"rental_uris":{"android":"levelo://app?vid=9b1d4d20-0656-4f5a-8f4d-d242578e496f","ios":"levelo://app?vid=9b1d4d20-0656-4f5a-8f4d-d242578e496f"},"vehicle_type_id":"4","last_reported":1711987749,"current_range_meters":16000,"station_id":"ce4bgs92rcd13ifvqcc0","pricing_plan_id":"cebpf4jnsgd1na2vs0mg"},{"bike_id":"c9b3a5cf-305b-4377-9299-c9b160201639","system_id":"levelo_inurba_marseille","lat":43.301423,"lon":5.374165,"is_reserved":false,"is_disabled":false,"rental_uris":{"android":"levelo://app?vid=c9b3a5cf-305b-4377-9299-c9b160201639","ios":"levelo://app?vid=c9b3a5cf-305b-4377-9299-c9b160201639"},"vehicle_type_id":"4","last_reported":1711987749,"current_range_meters":0,"station_id":"ce4bgs92rcd13ifvqcc0","pricing_plan_id":"cebpf4jnsgd1na2vs0mg"},{"bike_id":"9a03e054-a0ee-4578-9019-4ada4f3c9c0a","system_id":"levelo_inurba_marseille","lat":43.302784,"lon":5.377158,"is_reserved":false,"is_disabled":false,"rental_uris":{"android":"levelo://app?vid=9a03e054-a0ee-4578-9019-4ada4f3c9c0a","ios":"levelo://app?vid=9a03e054-a0ee-4578-9019-4ada4f3c9c0a"},"vehicle_type_id":"4","last_reported":1711987749,"current_range_meters":8800,"station_id":"ce4bguh2rcd13ifvqcj0","pricing_plan_id":"cebpf4jnsgd1na2vs0mg"},{"bike_id":"58f147b9-9f66-4510-aeda-317af26e596a","system_id":"levelo_inurba_marseille","lat":43.301429,"lon":5.37413,"is_reserved":false,"is_disabled":false,"rental_uris":{"android":"levelo://app?vid=58f147b9-9f66-4510-aeda-317af26e596a","ios":"levelo://app?vid=58f147b9-9f66-4510-aeda-317af26e596a"},"vehicle_type_id":"4","last_reported":1711987749,"current_range_meters":15200,"station_id":"ce4bgs92rcd13ifvqcc0","pricing_plan_id":"cebpf4jnsgd1na2vs0mg"},{"bike_id":"8a9628e8-d133-404b-ab43-d89dd87eb5c2","system_id":"levelo_inurba_marseille","lat":43.30141,"lon":5.37418,"is_reserved":false,"is_disabled":false,"rental_uris":{"android":"levelo://app?vid=8a9628e8-d133-404b-ab43-d89dd87eb5c2","ios":"levelo://app?vid=8a9628e8-d133-404b-ab43-d89dd87eb5c2"},"vehicle_type_id":"4","last_reported":1711987749,"current_range_meters":29200,"station_id":"ce4bgs92rcd13ifvqcc0","pricing_plan_id":"cebpf4jnsgd1na2vs0mg"},{"bike_id":"ffdc9f89-4849-416e-8795-8e2eb7b4a5fe","system_id":"levelo_inurba_marseille","lat":43.302784,"lon":5.377158,"is_reserved":false,"is_disabled":false,"rental_uris":{"android":"levelo://app?vid=ffdc9f89-4849-416e-8795-8e2eb7b4a5fe","ios":"levelo://app?vid=ffdc9f89-4849-416e-8795-8e2eb7b4a5fe"},"vehicle_type_id":"4","last_reported":1711987749,"current_range_meters":27200,"station_id":"ce4bguh2rcd13ifvqcj0","pricing_plan_id":"cebpf4jnsgd1na2vs0mg"},{"bike_id":"15e7444d-01f7-4f2e-bf62-c3dd75b2eccd","system_id":"levelo_inurba_marseille","lat":43.302784,"lon":5.377158,"is_reserved":false,"is_disabled":false,"rental_uris":{"android":"levelo://app?vid=15e7444d-01f7-4f2e-bf62-c3dd75b2eccd","ios":"levelo://app?vid=15e7444d-01f7-4f2e-bf62-c3dd75b2eccd"},"vehicle_type_id":"4","last_reported":1711987749,"current_range_meters":8400,"station_id":"ce4bguh2rcd13ifvqcj0","pricing_plan_id":"cebpf4jnsgd1na2vs0mg"},{"bike_id":"ae660158-02ab-423a-bb25-368f9308cfbe","system_id":"levelo_inurba_marseille","lat":43.302784,"lon":5.377158,"is_reserved":false,"is_disabled":false,"rental_uris":{"android":"levelo://app?vid=ae660158-02ab-423a-bb25-368f9308cfbe","ios":"levelo://app?vid=ae660158-02ab-423a-bb25-368f9308cfbe"},"vehicle_type_id":"4","last_reported":1711987749,"current_range_meters":15600,"station_id":"ce4bguh2rcd13ifvqcj0","pricing_plan_id":"cebpf4jnsgd1na2vs0mg"},{"bike_id":"c0085a54-bf42-4804-a7c2-1fe4d66ac2b5","system_id":"levelo_inurba_marseille","lat":43.302784,"lon":5.377158,"is_reserved":false,"is_disabled":false,"rental_uris":{"android":"levelo://app?vid=c0085a54-bf42-4804-a7c2-1fe4d66ac2b5","ios":"levelo://app?vid=c0085a54-bf42-4804-a7c2-1fe4d66ac2b5"},"vehicle_type_id":"4","last_reported":1711987749,"current_range_meters":23600,"station_id":"ce4bguh2rcd13ifvqcj0","pricing_plan_id":"cebpf4jnsgd1na2vs0mg"},{"bike_id":"79e4c9dd-28df-479e-b69c-31dce51ce590","system_id":"levelo_inurba_marseille","lat":43.30143,"lon":5.37413,"is_reserved":false,"is_disabled":false,"rental_uris":{"android":"levelo://app?vid=79e4c9dd-28df-479e-b69c-31dce51ce590","ios":"levelo://app?vid=79e4c9dd-28df-479e-b69c-31dce51ce590"},"vehicle_type_id":"4","last_reported":1711987749,"current_range_meters":22000,"station_id":"ce4bgs92rcd13ifvqcc0","pricing_plan_id":"cebpf4jnsgd1na2vs0mg"},{"bike_id":"83c4b162-ba2e-4672-900c-f6fb8cee32b5","system_id":"levelo_inurba_marseille","lat":43.319931,"lon":5.381448,"is_reserved":false,"is_disabled":false,"rental_uris":{"android":"levelo://app?vid=83c4b162-ba2e-4672-900c-f6fb8cee32b5","ios":"levelo://app?vid=83c4b162-ba2e-4672-900c-f6fb8cee32b5"},"vehicle_type_id":"4","last_reported":1711987749,"current_range_meters":17600,"station_id":"ce4bhr12rcd13ifvqhpg","pricing_plan_id":"cebpf4jnsgd1na2vs0mg"},{"bike_id":"d5e62f71-6706-4bc6-81b2-d3ea836ba196","system_id":"levelo_inurba_marseille","lat":43.319923,"lon":5.381519,"is_reserved":false,"is_disabled":false,"rental_uris":{"android":"levelo://app?vid=d5e62f71-6706-4bc6-81b2-d3ea836ba196","ios":"levelo://app?vid=d5e62f71-6706-4bc6-81b2-d3ea836ba196"},"vehicle_type_id":"4","last_reported":1711987749,"current_range_meters":17200,"station_id":"ce4bhr12rcd13ifvqhpg","pricing_plan_id":"cebpf4jnsgd1na2vs0mg"},{"bike_id":"05b089d9-059f-4f78-9b9e-fd54a5f970ee","system_id":"levelo_inurba_marseille","lat":43.319935,"lon":5.381699,"is_reserved":false,"is_disabled":false,"rental_uris":{"android":"levelo://app?vid=05b089d9-059f-4f78-9b9e-fd54a5f970ee","ios":"levelo://app?vid=05b089d9-059f-4f78-9b9e-fd54a5f970ee"},"vehicle_type_id":"4","last_reported":1711987749,"current_range_meters":8800,"station_id":"ce4bhr12rcd13ifvqhpg","pricing_plan_id":"cebpf4jnsgd1na2vs0mg"},{"bike_id":"86a2e2ed-ef3c-4a15-a784-914ef06db1a3","system_id":"levelo_inurba_marseille","lat":43.319935,"lon":5.381699,"is_reserved":false,"is_disabled":false,"rental_uris":{"android":"levelo://app?vid=86a2e2ed-ef3c-4a15-a784-914ef06db1a3","ios":"levelo://app?vid=86a2e2ed-ef3c-4a15-a784-914ef06db1a3"},"vehicle_type_id":"4","last_reported":1711987749,"current_range_meters":0,"station_id":"ce4bhr12rcd13ifvqhpg","pricing_plan_id":"cebpf4jnsgd1na2vs0mg"},{"bike_id":"3e53b316-d05a-40b4-a0ff-b001d78a8b25","system_id":"levelo_inurba_marseille","lat":43.319935,"lon":5.381699,"is_reserved":false,"is_disabled":false,"rental_uris":{"android":"levelo://app?vid=3e53b316-d05a-40b4-a0ff-b001d78a8b25","ios":"levelo://app?vid=3e53b316-d05a-40b4-a0ff-b001d78a8b25"},"vehicle_type_id":"4","last_reported":1711987749,"current_range_meters":15200,"station_id":"ce4bhr12rcd13ifvqhpg","pricing_plan_id":"cebpf4jnsgd1na2vs0mg"},{"bike_id":"6db7ffa2-fcae-4d85-b744-a7a8e99aa321","system_id":"levelo_inurba_marseille","lat":43.313571,"lon":5.384829,"is_reserved":false,"is_disabled":false,"rental_uris":{"android":"levelo://app?vid=6db7ffa2-fcae-4d85-b744-a7a8e99aa321","ios":"levelo://app?vid=6db7ffa2-fcae-4d85-b744-a7a8e99aa321"},"vehicle_type_id":"4","last_reported":1711987749,"current_range_meters":26000,"station_id":"ce4bgt92rcd13ifvqcf0","pricing_plan_id":"cebpf4jnsgd1na2vs0mg"},{"bike_id":"f94681af-ccc3-4781-ae62-04c48621df9e","system_id":"levelo_inurba_marseille","lat":43.313571,"lon":5.384829,"is_reserved":false,"is_disabled":false,"rental_uris":{"android":"levelo://app?vid=f94681af-ccc3-4781-ae62-04c48621df9e","ios":"levelo://app?vid=f94681af-ccc3-4781-ae62-04c48621df9e"},"vehicle_type_id":"4","last_reported":1711987749,"current_range_meters":28400,"station_id":"ce4bgt92rcd13ifvqcf0","pricing_plan_id":"cebpf4jnsgd1na2vs0mg"},{"bike_id":"d52da355-816c-4d4a-8ca8-5a51c48f3d3c","system_id":"levelo_inurba_marseille","lat":43.31363,"lon":5.38491,"is_reserved":false,"is_disabled":false,"rental_uris":{"android":"levelo://app?vid=d52da355-816c-4d4a-8ca8-5a51c48f3d3c","ios":"levelo://app?vid=d52da355-816c-4d4a-8ca8-5a51c48f3d3c"},"vehicle_type_id":"4","last_reported":1711987749,"current_range_meters":8000,"station_id":"ce4bgt92rcd13ifvqcf0","pricing_plan_id":"cebpf4jnsgd1na2vs0mg"},{"bike_id":"4a1bd48a-000f-419b-8616-ff0a8d02a0f2","system_id":"levelo_inurba_marseille","lat":43.29937,"lon":5.36707,"is_reserved":false,"is_disabled":false,"rental_uris":{"android":"levelo://app?vid=4a1bd48a-000f-419b-8616-ff0a8d02a0f2","ios":"levelo://app?vid=4a1bd48a-000f-419b-8616-ff0a8d02a0f2"},"vehicle_type_id":"4","last_reported":1711987749,"current_range_meters":0,"station_id":"","pricing_plan_id":"cebpf4jnsgd1na2vs0mg"},{"bike_id":"dd2f1c7f-d3c8-43a0-b917-333b2c47444a","system_id":"levelo_inurba_marseille","lat":43.299222,"lon":5.365554,"is_reserved":false,"is_disabled":false,"rental_uris":{"android":"levelo://app?vid=dd2f1c7f-d3c8-43a0-b917-333b2c47444a","ios":"levelo://app?vid=dd2f1c7f-d3c8-43a0-b917-333b2c47444a"},"vehicle_type_id":"4","last_reported":1711987749,"current_range_meters":11600,"station_id":"ce4bgm92rcd13ifvqbr0","pricing_plan_id":"cebpf4jnsgd1na2vs0mg"},{"bike_id":"3d88dcbc-012f-4ffb-994d-48ac0c181d3f","system_id":"levelo_inurba_marseille","lat":43.299724,"lon":5.371829,"is_reserved":false,"is_disabled":false,"rental_uris":{"android":"levelo://app?vid=3d88dcbc-012f-4ffb-994d-48ac0c181d3f","ios":"levelo://app?vid=3d88dcbc-012f-4ffb-994d-48ac0c181d3f"},"vehicle_type_id":"4","last_reported":1711987749,"current_range_meters":15200,"station_id":"ce4bgr92rcd13ifvqc7g","pricing_plan_id":"cebpf4jnsgd1na2vs0mg"},{"bike_id":"39deecae-94c4-42c1-82a7-6bfc7dd92d9f","system_id":"levelo_inurba_marseille","lat":43.299222,"lon":5.365554,"is_reserved":false,"is_disabled":false,"rental_uris":{"android":"levelo://app?vid=39deecae-94c4-42c1-82a7-6bfc7dd92d9f","ios":"levelo://app?vid=39deecae-94c4-42c1-82a7-6bfc7dd92d9f"},"vehicle_type_id":"4","last_reported":1711987749,"current_range_meters":4400,"station_id":"ce4bgm92rcd13ifvqbr0","pricing_plan_id":"cebpf4jnsgd1na2vs0mg"},{"bike_id":"1369d52c-3019-47a0-a264-c0a14ae8078e","system_id":"levelo_inurba_marseille","lat":43.299222,"lon":5.365554,"is_reserved":false,"is_disabled":false,"rental_uris":{"android":"levelo://app?vid=1369d52c-3019-47a0-a264-c0a14ae8078e","ios":"levelo://app?vid=1369d52c-3019-47a0-a264-c0a14ae8078e"},"vehicle_type_id":"4","last_reported":1711987749,"current_range_meters":12800,"station_id":"ce4bgm92rcd13ifvqbr0","pricing_plan_id":"cebpf4jnsgd1na2vs0mg"},{"bike_id":"74db7567-14ed-4c34-81c9-db9ad7da9855","system_id":"levelo_inurba_marseille","lat":43.299222,"lon":5.365554,"is_reserved":false,"is_disabled":false,"rental_uris":{"android":"levelo://app?vid=74db7567-14ed-4c34-81c9-db9ad7da9855","ios":"levelo://app?vid=74db7567-14ed-4c34-81c9-db9ad7da9855"},"vehicle_type_id":"4","last_reported":1711987749,"current_range_meters":0,"station_id":"ce4bgm92rcd13ifvqbr0","pricing_plan_id":"cebpf4jnsgd1na2vs0mg"},{"bike_id":"b0e7b66c-b0da-4c93-971f-f3441a03d47f","system_id":"levelo_inurba_marseille","lat":43.299126,"lon":5.364958,"is_reserved":false,"is_disabled":false,"rental_uris":{"android":"levelo://app?vid=b0e7b66c-b0da-4c93-971f-f3441a03d47f","ios":"levelo://app?vid=b0e7b66c-b0da-4c93-971f-f3441a03d47f"},"vehicle_type_id":"4","last_reported":1711987749,"current_range_meters":0,"station_id":"ce4bgm92rcd13ifvqbr0","pricing_plan_id":"cebpf4jnsgd1na2vs0mg"},{"bike_id":"e89ad0d0-46d9-4e96-8f21-1d13905d1f32","system_id":"levelo_inurba_marseille","lat":43.30213,"lon":5.37996,"is_reserved":false,"is_disabled":false,"rental_uris":{"android":"levelo://app?vid=e89ad0d0-46d9-4e96-8f21-1d13905d1f32","ios":"levelo://app?vid=e89ad0d0-46d9-4e96-8f21-1d13905d1f32"},"vehicle_type_id":"4","last_reported":1711987749,"current_range_meters":14400,"station_id":"","pricing_plan_id":"cebpf4jnsgd1na2vs0mg"},{"bike_id":"592f1aa2-83eb-4296-b877-30ebe5e82a19","system_id":"levelo_inurba_marseille","lat":43.297163,"lon":5.365866,"is_reserved":false,"is_disabled":false,"rental_uris":{"android":"levelo://app?vid=592f1aa2-83eb-4296-b877-30ebe5e82a19","ios":"levelo://app?vid=592f1aa2-83eb-4296-b877-30ebe5e82a19"},"vehicle_type_id":"4","last_reported":1711987749,"current_range_meters":6400,"station_id":"ce4bgn12rcd13ifvqbt0","pricing_plan_id":"cebpf4jnsgd1na2vs0mg"},{"bike_id":"77ec0168-f3cb-4db3-8f31-611a569ccb24","system_id":"levelo_inurba_marseille","lat":43.298433,"lon":5.362774,"is_reserved":false,"is_disabled":false,"rental_uris":{"android":"levelo://app?vid=77ec0168-f3cb-4db3-8f31-611a569ccb24","ios":"levelo://app?vid=77ec0168-f3cb-4db3-8f31-611a569ccb24"},"vehicle_type_id":"4","last_reported":1711987749,"current_range_meters":0,"station_id":"ce4bgpp2rcd13ifvqc3g","pricing_plan_id":"cebpf4jnsgd1na2vs0mg"},{"bike_id":"d9fbc05f-50a2-41de-bcad-1bd97dc99cfc","system_id":"levelo_inurba_marseille","lat":43.305364,"lon":5.384119,"is_reserved":false,"is_disabled":false,"rental_uris":{"android":"levelo://app?vid=d9fbc05f-50a2-41de-bcad-1bd97dc99cfc","ios":"levelo://app?vid=d9fbc05f-50a2-41de-bcad-1bd97dc99cfc"},"vehicle_type_id":"4","last_reported":1711987749,"current_range_meters":4400,"station_id":"ce4bgg92rcd13ifvqb30","pricing_plan_id":"cebpf4jnsgd1na2vs0mg"},{"bike_id":"8d281123-8120-45fa-8fe5-0b929a2aafdc","system_id":"levelo_inurba_marseille","lat":43.298433,"lon":5.362774,"is_reserved":false,"is_disabled":false,"rental_uris":{"android":"levelo://app?vid=8d281123-8120-45fa-8fe5-0b929a2aafdc","ios":"levelo://app?vid=8d281123-8120-45fa-8fe5-0b929a2aafdc"},"vehicle_type_id":"4","last_reported":1711987749,"current_range_meters":1600,"station_id":"ce4bgpp2rcd13ifvqc3g","pricing_plan_id":"cebpf4jnsgd1na2vs0mg"},{"bike_id":"aa0033c3-3a16-4dc1-9c31-0f7945d776cc","system_id":"levelo_inurba_marseille","lat":43.260225,"lon":5.375455,"is_reserved":false,"is_disabled":false,"rental_uris":{"android":"levelo://app?vid=aa0033c3-3a16-4dc1-9c31-0f7945d776cc","ios":"levelo://app?vid=aa0033c3-3a16-4dc1-9c31-0f7945d776cc"},"vehicle_type_id":"4","last_reported":1711987749,"current_range_meters":2000,"station_id":"ce4bhgh2rcd13ifvqfa0","pricing_plan_id":"cebpf4jnsgd1na2vs0mg"},{"bike_id":"6611d83f-7d88-4610-ac30-1bec46b63994","system_id":"levelo_inurba_marseille","lat":43.305364,"lon":5.384119,"is_reserved":false,"is_disabled":false,"rental_uris":{"android":"levelo://app?vid=6611d83f-7d88-4610-ac30-1bec46b63994","ios":"levelo://app?vid=6611d83f-7d88-4610-ac30-1bec46b63994"},"vehicle_type_id":"4","last_reported":1711987749,"current_range_meters":8800,"station_id":"ce4bgg92rcd13ifvqb30","pricing_plan_id":"cebpf4jnsgd1na2vs0mg"},{"bike_id":"73435e5e-8770-4345-8d8f-b03a70f73824","system_id":"levelo_inurba_marseille","lat":43.298433,"lon":5.362774,"is_reserved":false,"is_disabled":false,"rental_uris":{"android":"levelo://app?vid=73435e5e-8770-4345-8d8f-b03a70f73824","ios":"levelo://app?vid=73435e5e-8770-4345-8d8f-b03a70f73824"},"vehicle_type_id":"4","last_reported":1711987749,"current_range_meters":13200,"station_id":"ce4bgpp2rcd13ifvqc3g","pricing_plan_id":"cebpf4jnsgd1na2vs0mg"},{"bike_id":"22d2cd0b-515c-48f0-9008-39cfb3332ef5","system_id":"levelo_inurba_marseille","lat":43.299243,"lon":5.374807,"is_reserved":false,"is_disabled":false,"rental_uris":{"android":"levelo://app?vid=22d2cd0b-515c-48f0-9008-39cfb3332ef5","ios":"levelo://app?vid=22d2cd0b-515c-48f0-9008-39cfb3332ef5"},"vehicle_type_id":"4","last_reported":1711987749,"current_range_meters":29600,"station_id":"ce4bgjh2rcd13ifvqbg0","pricing_plan_id":"cebpf4jnsgd1na2vs0mg"},{"bike_id":"b672481d-a33e-40b1-9487-4c48d6f547fe","system_id":"levelo_inurba_marseille","lat":43.30515,"lon":5.38434,"is_reserved":false,"is_disabled":false,"rental_uris":{"android":"levelo://app?vid=b672481d-a33e-40b1-9487-4c48d6f547fe","ios":"levelo://app?vid=b672481d-a33e-40b1-9487-4c48d6f547fe"},"vehicle_type_id":"4","last_reported":1711987749,"current_range_meters":0,"station_id":"ce4bgg92rcd13ifvqb30","pricing_plan_id":"cebpf4jnsgd1na2vs0mg"},{"bike_id":"7b654c1f-9517-40a1-90b4-e5f14b0289a9","system_id":"levelo_inurba_marseille","lat":43.311722,"lon":5.387247,"is_reserved":false,"is_disabled":false,"rental_uris":{"android":"levelo://app?vid=7b654c1f-9517-40a1-90b4-e5f14b0289a9","ios":"levelo://app?vid=7b654c1f-9517-40a1-90b4-e5f14b0289a9"},"vehicle_type_id":"4","last_reported":1711987749,"current_range_meters":800,"station_id":"ce4bgv12rcd13ifvqcp0","pricing_plan_id":"cebpf4jnsgd1na2vs0mg"},{"bike_id":"c9629e57-803c-41af-baa6-dd3d429933a3","system_id":"levelo_inurba_marseille","lat":43.311722,"lon":5.387247,"is_reserved":false,"is_disabled":false,"rental_uris":{"android":"levelo://app?vid=c9629e57-803c-41af-baa6-dd3d429933a3","ios":"levelo://app?vid=c9629e57-803c-41af-baa6-dd3d429933a3"},"vehicle_type_id":"4","last_reported":1711987749,"current_range_meters":0,"station_id":"ce4bgv12rcd13ifvqcp0","pricing_plan_id":"cebpf4jnsgd1na2vs0mg"},{"bike_id":"0be0d559-3c93-446b-962e-978017e572e9","system_id":"levelo_inurba_marseille","lat":43.32285,"lon":5.3826,"is_reserved":false,"is_disabled":false,"rental_uris":{"android":"levelo://app?vid=0be0d559-3c93-446b-962e-978017e572e9","ios":"levelo://app?vid=0be0d559-3c93-446b-962e-978017e572e9"},"vehicle_type_id":"4","last_reported":1711987749,"current_range_meters":14800,"station_id":"ce4bhr12rcd13ifvqhqg","pricing_plan_id":"cebpf4jnsgd1na2vs0mg"},{"bike_id":"a4aca6ff-da01-4033-b41a-ff4ac5cba88c","system_id":"levelo_inurba_marseille","lat":43.297794,"lon":5.370888,"is_reserved":false,"is_disabled":false,"rental_uris":{"android":"levelo://app?vid=a4aca6ff-da01-4033-b41a-ff4ac5cba88c","ios":"levelo://app?vid=a4aca6ff-da01-4033-b41a-ff4ac5cba88c"},"vehicle_type_id":"4","last_reported":1711987749,"current_range_meters":3600,"station_id":"ce4bgop2rcd13ifvqc1g","pricing_plan_id":"cebpf4jnsgd1na2vs0mg"},{"bike_id":"f53fdd79-9293-409d-8cdc-a30301757225","system_id":"levelo_inurba_marseille","lat":43.3229,"lon":5.3826,"is_reserved":false,"is_disabled":false,"rental_uris":{"android":"levelo://app?vid=f53fdd79-9293-409d-8cdc-a30301757225","ios":"levelo://app?vid=f53fdd79-9293-409d-8cdc-a30301757225"},"vehicle_type_id":"4","last_reported":1711987749,"current_range_meters":30400,"station_id":"ce4bhr12rcd13ifvqhqg","pricing_plan_id":"cebpf4jnsgd1na2vs0mg"},{"bike_id":"c68f42d7-5ceb-4280-a4f1-873166ae8525","system_id":"levelo_inurba_marseille","lat":43.322872,"lon":5.382756,"is_reserved":false,"is_disabled":false,"rental_uris":{"android":"levelo://app?vid=c68f42d7-5ceb-4280-a4f1-873166ae8525","ios":"levelo://app?vid=c68f42d7-5ceb-4280-a4f1-873166ae8525"},"vehicle_type_id":"4","last_reported":1711987749,"current_range_meters":26800,"station_id":"ce4bhr12rcd13ifvqhqg","pricing_plan_id":"cebpf4jnsgd1na2vs0mg"},{"bike_id":"8ecca55b-c8a2-45f7-97c4-3a06042059b9","system_id":"levelo_inurba_marseille","lat":43.322872,"lon":5.382756,"is_reserved":false,"is_disabled":false,"rental_uris":{"android":"levelo://app?vid=8ecca55b-c8a2-45f7-97c4-3a06042059b9","ios":"levelo://app?vid=8ecca55b-c8a2-45f7-97c4-3a06042059b9"},"vehicle_type_id":"4","last_reported":1711987749,"current_range_meters":5600,"station_id":"ce4bhr12rcd13ifvqhqg","pricing_plan_id":"cebpf4jnsgd1na2vs0mg"},{"bike_id":"c2b6ec39-cf52-44eb-ae94-bbedc38fd17f","system_id":"levelo_inurba_marseille","lat":43.322872,"lon":5.382756,"is_reserved":false,"is_disabled":false,"rental_uris":{"android":"levelo://app?vid=c2b6ec39-cf52-44eb-ae94-bbedc38fd17f","ios":"levelo://app?vid=c2b6ec39-cf52-44eb-ae94-bbedc38fd17f"},"vehicle_type_id":"4","last_reported":1711987749,"current_range_meters":0,"station_id":"ce4bhr12rcd13ifvqhqg","pricing_plan_id":"cebpf4jnsgd1na2vs0mg"},{"bike_id":"b554c75f-7c2f-473e-934d-75c22c27be51","system_id":"levelo_inurba_marseille","lat":43.322922,"lon":5.382667,"is_reserved":false,"is_disabled":false,"rental_uris":{"android":"levelo://app?vid=b554c75f-7c2f-473e-934d-75c22c27be51","ios":"levelo://app?vid=b554c75f-7c2f-473e-934d-75c22c27be51"},"vehicle_type_id":"4","last_reported":1711987749,"current_range_meters":15600,"station_id":"ce4bhr12rcd13ifvqhqg","pricing_plan_id":"cebpf4jnsgd1na2vs0mg"},{"bike_id":"135f7f16-2517-4380-bcf8-f29778b10fb2","system_id":"levelo_inurba_marseille","lat":43.322889,"lon":5.382709,"is_reserved":false,"is_disabled":false,"rental_uris":{"android":"levelo://app?vid=135f7f16-2517-4380-bcf8-f29778b10fb2","ios":"levelo://app?vid=135f7f16-2517-4380-bcf8-f29778b10fb2"},"vehicle_type_id":"4","last_reported":1711987749,"current_range_meters":30800,"station_id":"ce4bhr12rcd13ifvqhqg","pricing_plan_id":"cebpf4jnsgd1na2vs0mg"},{"bike_id":"daad3144-008d-4c70-83c5-cbb99de5cc8c","system_id":"levelo_inurba_marseille","lat":43.322872,"lon":5.382756,"is_reserved":false,"is_disabled":false,"rental_uris":{"android":"levelo://app?vid=daad3144-008d-4c70-83c5-cbb99de5cc8c","ios":"levelo://app?vid=daad3144-008d-4c70-83c5-cbb99de5cc8c"},"vehicle_type_id":"4","last_reported":1711987749,"current_range_meters":13200,"station_id":"ce4bhr12rcd13ifvqhqg","pricing_plan_id":"cebpf4jnsgd1na2vs0mg"},{"bike_id":"10099c05-c94c-45d3-97e9-a6b3aab30da2","system_id":"levelo_inurba_marseille","lat":43.322872,"lon":5.382756,"is_reserved":false,"is_disabled":false,"rental_uris":{"android":"levelo://app?vid=10099c05-c94c-45d3-97e9-a6b3aab30da2","ios":"levelo://app?vid=10099c05-c94c-45d3-97e9-a6b3aab30da2"},"vehicle_type_id":"4","last_reported":1711987749,"current_range_meters":10000,"station_id":"ce4bhr12rcd13ifvqhqg","pricing_plan_id":"cebpf4jnsgd1na2vs0mg"},{"bike_id":"74273bea-3575-4550-b555-5ff5cb6fb480","system_id":"levelo_inurba_marseille","lat":43.322872,"lon":5.382756,"is_reserved":false,"is_disabled":false,"rental_uris":{"android":"levelo://app?vid=74273bea-3575-4550-b555-5ff5cb6fb480","ios":"levelo://app?vid=74273bea-3575-4550-b555-5ff5cb6fb480"},"vehicle_type_id":"4","last_reported":1711987749,"current_range_meters":16800,"station_id":"ce4bhr12rcd13ifvqhqg","pricing_plan_id":"cebpf4jnsgd1na2vs0mg"},{"bike_id":"e7bb4eba-90c9-4d46-8f88-c4063d2e98fb","system_id":"levelo_inurba_marseille","lat":43.322911,"lon":5.382703,"is_reserved":false,"is_disabled":false,"rental_uris":{"android":"levelo://app?vid=e7bb4eba-90c9-4d46-8f88-c4063d2e98fb","ios":"levelo://app?vid=e7bb4eba-90c9-4d46-8f88-c4063d2e98fb"},"vehicle_type_id":"4","last_reported":1711987749,"current_range_meters":16400,"station_id":"ce4bhr12rcd13ifvqhqg","pricing_plan_id":"cebpf4jnsgd1na2vs0mg"},{"bike_id":"35195ee1-bb08-4c3b-997d-bf52f02f6b5a","system_id":"levelo_inurba_marseille","lat":43.322872,"lon":5.382756,"is_reserved":false,"is_disabled":false,"rental_uris":{"android":"levelo://app?vid=35195ee1-bb08-4c3b-997d-bf52f02f6b5a","ios":"levelo://app?vid=35195ee1-bb08-4c3b-997d-bf52f02f6b5a"},"vehicle_type_id":"4","last_reported":1711987749,"current_range_meters":2800,"station_id":"ce4bhr12rcd13ifvqhqg","pricing_plan_id":"cebpf4jnsgd1na2vs0mg"},{"bike_id":"6db4ba56-cdbd-44f6-826d-1abf96302385","system_id":"levelo_inurba_marseille","lat":43.322872,"lon":5.382756,"is_reserved":false,"is_disabled":false,"rental_uris":{"android":"levelo://app?vid=6db4ba56-cdbd-44f6-826d-1abf96302385","ios":"levelo://app?vid=6db4ba56-cdbd-44f6-826d-1abf96302385"},"vehicle_type_id":"4","last_reported":1711987749,"current_range_meters":31200,"station_id":"ce4bhr12rcd13ifvqhqg","pricing_plan_id":"cebpf4jnsgd1na2vs0mg"},{"bike_id":"5c7aa406-4d4c-4cc2-bc9c-18a9e95a1981","system_id":"levelo_inurba_marseille","lat":43.297774,"lon":5.370875,"is_reserved":false,"is_disabled":false,"rental_uris":{"android":"levelo://app?vid=5c7aa406-4d4c-4cc2-bc9c-18a9e95a1981","ios":"levelo://app?vid=5c7aa406-4d4c-4cc2-bc9c-18a9e95a1981"},"vehicle_type_id":"4","last_reported":1711987749,"current_range_meters":18800,"station_id":"ce4bgop2rcd13ifvqc1g","pricing_plan_id":"cebpf4jnsgd1na2vs0mg"},{"bike_id":"5ed1088d-e0ad-4614-a220-0449cb3d1e58","system_id":"levelo_inurba_marseille","lat":43.322872,"lon":5.382756,"is_reserved":false,"is_disabled":false,"rental_uris":{"android":"levelo://app?vid=5ed1088d-e0ad-4614-a220-0449cb3d1e58","ios":"levelo://app?vid=5ed1088d-e0ad-4614-a220-0449cb3d1e58"},"vehicle_type_id":"4","last_reported":1711987749,"current_range_meters":11600,"station_id":"ce4bhr12rcd13ifvqhqg","pricing_plan_id":"cebpf4jnsgd1na2vs0mg"},{"bike_id":"23d5a553-29e1-425b-9559-506779798ad0","system_id":"levelo_inurba_marseille","lat":43.322872,"lon":5.382756,"is_reserved":false,"is_disabled":false,"rental_uris":{"android":"levelo://app?vid=23d5a553-29e1-425b-9559-506779798ad0","ios":"levelo://app?vid=23d5a553-29e1-425b-9559-506779798ad0"},"vehicle_type_id":"4","last_reported":1711987749,"current_range_meters":1200,"station_id":"ce4bhr12rcd13ifvqhqg","pricing_plan_id":"cebpf4jnsgd1na2vs0mg"},{"bike_id":"af91ee66-ebec-4e5f-b566-646a8b5863b7","system_id":"levelo_inurba_marseille","lat":43.322872,"lon":5.382756,"is_reserved":false,"is_disabled":false,"rental_uris":{"android":"levelo://app?vid=af91ee66-ebec-4e5f-b566-646a8b5863b7","ios":"levelo://app?vid=af91ee66-ebec-4e5f-b566-646a8b5863b7"},"vehicle_type_id":"4","last_reported":1711987749,"current_range_meters":12800,"station_id":"ce4bhr12rcd13ifvqhqg","pricing_plan_id":"cebpf4jnsgd1na2vs0mg"},{"bike_id":"dedc4631-51f8-4916-a749-c45ed77872be","system_id":"levelo_inurba_marseille","lat":43.322872,"lon":5.382756,"is_reserved":false,"is_disabled":false,"rental_uris":{"android":"levelo://app?vid=dedc4631-51f8-4916-a749-c45ed77872be","ios":"levelo://app?vid=dedc4631-51f8-4916-a749-c45ed77872be"},"vehicle_type_id":"4","last_reported":1711987749,"current_range_meters":17200,"station_id":"ce4bhr12rcd13ifvqhqg","pricing_plan_id":"cebpf4jnsgd1na2vs0mg"},{"bike_id":"0d7f5d23-fe82-4ada-81eb-9d09b9cd9724","system_id":"levelo_inurba_marseille","lat":43.296743,"lon":5.372927,"is_reserved":false,"is_disabled":false,"rental_uris":{"android":"levelo://app?vid=0d7f5d23-fe82-4ada-81eb-9d09b9cd9724","ios":"levelo://app?vid=0d7f5d23-fe82-4ada-81eb-9d09b9cd9724"},"vehicle_type_id":"4","last_reported":1711987749,"current_range_meters":14800,"station_id":"ce4bgk12rcd13ifvqbj0","pricing_plan_id":"cebpf4jnsgd1na2vs0mg"},{"bike_id":"1d4ae978-d9bc-491f-8eeb-ad08b2e594e4","system_id":"levelo_inurba_marseille","lat":43.296131,"lon":5.370791,"is_reserved":false,"is_disabled":false,"rental_uris":{"android":"levelo://app?vid=1d4ae978-d9bc-491f-8eeb-ad08b2e594e4","ios":"levelo://app?vid=1d4ae978-d9bc-491f-8eeb-ad08b2e594e4"},"vehicle_type_id":"4","last_reported":1711987749,"current_range_meters":10400,"station_id":"ce4bgnh2rcd13ifvqc0g","pricing_plan_id":"cebpf4jnsgd1na2vs0mg"},{"bike_id":"dc04a329-55a3-40e5-bfcb-8e6e70329e89","system_id":"levelo_inurba_marseille","lat":43.296129,"lon":5.370777,"is_reserved":false,"is_disabled":false,"rental_uris":{"android":"levelo://app?vid=dc04a329-55a3-40e5-bfcb-8e6e70329e89","ios":"levelo://app?vid=dc04a329-55a3-40e5-bfcb-8e6e70329e89"},"vehicle_type_id":"4","last_reported":1711987749,"current_range_meters":2800,"station_id":"ce4bgnh2rcd13ifvqc0g","pricing_plan_id":"cebpf4jnsgd1na2vs0mg"},{"bike_id":"2f998b4c-b194-42ad-8737-8af8c4948a04","system_id":"levelo_inurba_marseille","lat":43.309589,"lon":5.390258,"is_reserved":false,"is_disabled":false,"rental_uris":{"android":"levelo://app?vid=2f998b4c-b194-42ad-8737-8af8c4948a04","ios":"levelo://app?vid=2f998b4c-b194-42ad-8737-8af8c4948a04"},"vehicle_type_id":"4","last_reported":1711987749,"current_range_meters":26400,"station_id":"ce4bgup2rcd13ifvqco0","pricing_plan_id":"cebpf4jnsgd1na2vs0mg"},{"bike_id":"1709c6df-1b58-480b-8f16-9a7cd3f5f4a4","system_id":"levelo_inurba_marseille","lat":43.309589,"lon":5.390258,"is_reserved":false,"is_disabled":false,"rental_uris":{"android":"levelo://app?vid=1709c6df-1b58-480b-8f16-9a7cd3f5f4a4","ios":"levelo://app?vid=1709c6df-1b58-480b-8f16-9a7cd3f5f4a4"},"vehicle_type_id":"4","last_reported":1711987749,"current_range_meters":0,"station_id":"ce4bgup2rcd13ifvqco0","pricing_plan_id":"cebpf4jnsgd1na2vs0mg"},{"bike_id":"340a751c-85ae-41bf-906b-0785b31634be","system_id":"levelo_inurba_marseille","lat":43.317557,"lon":5.390173,"is_reserved":false,"is_disabled":false,"rental_uris":{"android":"levelo://app?vid=340a751c-85ae-41bf-906b-0785b31634be","ios":"levelo://app?vid=340a751c-85ae-41bf-906b-0785b31634be"},"vehicle_type_id":"4","last_reported":1711987749,"current_range_meters":4000,"station_id":"ce4bhqp2rcd13ifvqhng","pricing_plan_id":"cebpf4jnsgd1na2vs0mg"},{"bike_id":"afac73fc-1d0e-4f9e-b82d-80ca360c5a25","system_id":"levelo_inurba_marseille","lat":43.296921,"lon":5.377446,"is_reserved":false,"is_disabled":false,"rental_uris":{"android":"levelo://app?vid=afac73fc-1d0e-4f9e-b82d-80ca360c5a25","ios":"levelo://app?vid=afac73fc-1d0e-4f9e-b82d-80ca360c5a25"},"vehicle_type_id":"4","last_reported":1711987749,"current_range_meters":23600,"station_id":"","pricing_plan_id":"cebpf4jnsgd1na2vs0mg"},{"bike_id":"df6df9cc-7fda-49a2-87f5-3894aaf5ff5c","system_id":"levelo_inurba_marseille","lat":43.29805,"lon":5.38099,"is_reserved":false,"is_disabled":false,"rental_uris":{"android":"levelo://app?vid=df6df9cc-7fda-49a2-87f5-3894aaf5ff5c","ios":"levelo://app?vid=df6df9cc-7fda-49a2-87f5-3894aaf5ff5c"},"vehicle_type_id":"4","last_reported":1711987749,"current_range_meters":10400,"station_id":"ce4bgip2rcd13ifvqbb0","pricing_plan_id":"cebpf4jnsgd1na2vs0mg"},{"bike_id":"dbf5123b-6d22-4899-8812-f344b89b7aa3","system_id":"levelo_inurba_marseille","lat":43.295748,"lon":5.37522,"is_reserved":false,"is_disabled":false,"rental_uris":{"android":"levelo://app?vid=dbf5123b-6d22-4899-8812-f344b89b7aa3","ios":"levelo://app?vid=dbf5123b-6d22-4899-8812-f344b89b7aa3"},"vehicle_type_id":"4","last_reported":1711987749,"current_range_meters":800,"station_id":"ce4bgh92rcd13ifvqb50","pricing_plan_id":"cebpf4jnsgd1na2vs0mg"},{"bike_id":"fa7c056f-d2eb-4bc1-a6a3-7ca94faed3c9","system_id":"levelo_inurba_marseille","lat":43.298037,"lon":5.381066,"is_reserved":false,"is_disabled":false,"rental_uris":{"android":"levelo://app?vid=fa7c056f-d2eb-4bc1-a6a3-7ca94faed3c9","ios":"levelo://app?vid=fa7c056f-d2eb-4bc1-a6a3-7ca94faed3c9"},"vehicle_type_id":"4","last_reported":1711987749,"current_range_meters":1200,"station_id":"ce4bgip2rcd13ifvqbb0","pricing_plan_id":"cebpf4jnsgd1na2vs0mg"},{"bike_id":"e637e4e6-bc23-484c-bb9d-c588426193b9","system_id":"levelo_inurba_marseille","lat":43.29796,"lon":5.38095,"is_reserved":false,"is_disabled":false,"rental_uris":{"android":"levelo://app?vid=e637e4e6-bc23-484c-bb9d-c588426193b9","ios":"levelo://app?vid=e637e4e6-bc23-484c-bb9d-c588426193b9"},"vehicle_type_id":"4","last_reported":1711987749,"current_range_meters":19200,"station_id":"ce4bgip2rcd13ifvqbb0","pricing_plan_id":"cebpf4jnsgd1na2vs0mg"},{"bike_id":"977814a4-b3b5-4b6c-b170-600532994c8a","system_id":"levelo_inurba_marseille","lat":43.29575,"lon":5.37504,"is_reserved":false,"is_disabled":false,"rental_uris":{"android":"levelo://app?vid=977814a4-b3b5-4b6c-b170-600532994c8a","ios":"levelo://app?vid=977814a4-b3b5-4b6c-b170-600532994c8a"},"vehicle_type_id":"4","last_reported":1711987749,"current_range_meters":0,"station_id":"ce4bgh92rcd13ifvqb50","pricing_plan_id":"cebpf4jnsgd1na2vs0mg"},{"bike_id":"8e9b5b56-3c7a-4abb-8b07-afd63be4b477","system_id":"levelo_inurba_marseille","lat":43.295748,"lon":5.37522,"is_reserved":false,"is_disabled":false,"rental_uris":{"android":"levelo://app?vid=8e9b5b56-3c7a-4abb-8b07-afd63be4b477","ios":"levelo://app?vid=8e9b5b56-3c7a-4abb-8b07-afd63be4b477"},"vehicle_type_id":"4","last_reported":1711987749,"current_range_meters":12000,"station_id":"ce4bgh92rcd13ifvqb50","pricing_plan_id":"cebpf4jnsgd1na2vs0mg"},{"bike_id":"d0fcd19b-6824-4605-b326-0617c7fd4ccb","system_id":"levelo_inurba_marseille","lat":43.295748,"lon":5.37522,"is_reserved":false,"is_disabled":false,"rental_uris":{"android":"levelo://app?vid=d0fcd19b-6824-4605-b326-0617c7fd4ccb","ios":"levelo://app?vid=d0fcd19b-6824-4605-b326-0617c7fd4ccb"},"vehicle_type_id":"4","last_reported":1711987749,"current_range_meters":4000,"station_id":"ce4bgh92rcd13ifvqb50","pricing_plan_id":"cebpf4jnsgd1na2vs0mg"},{"bike_id":"a568940f-5a5e-444a-8036-286dba375865","system_id":"levelo_inurba_marseille","lat":43.2957,"lon":5.37532,"is_reserved":false,"is_disabled":false,"rental_uris":{"android":"levelo://app?vid=a568940f-5a5e-444a-8036-286dba375865","ios":"levelo://app?vid=a568940f-5a5e-444a-8036-286dba375865"},"vehicle_type_id":"4","last_reported":1711987749,"current_range_meters":0,"station_id":"ce4bgh92rcd13ifvqb50","pricing_plan_id":"cebpf4jnsgd1na2vs0mg"},{"bike_id":"9bd7b6c7-32f7-4c86-b7f4-69a893ee19e9","system_id":"levelo_inurba_marseille","lat":43.295748,"lon":5.37522,"is_reserved":false,"is_disabled":false,"rental_uris":{"android":"levelo://app?vid=9bd7b6c7-32f7-4c86-b7f4-69a893ee19e9","ios":"levelo://app?vid=9bd7b6c7-32f7-4c86-b7f4-69a893ee19e9"},"vehicle_type_id":"4","last_reported":1711987749,"current_range_meters":0,"station_id":"ce4bgh92rcd13ifvqb50","pricing_plan_id":"cebpf4jnsgd1na2vs0mg"},{"bike_id":"5a6e832c-6a02-407b-851b-243a2d24e2ed","system_id":"levelo_inurba_marseille","lat":43.295748,"lon":5.37522,"is_reserved":false,"is_disabled":false,"rental_uris":{"android":"levelo://app?vid=5a6e832c-6a02-407b-851b-243a2d24e2ed","ios":"levelo://app?vid=5a6e832c-6a02-407b-851b-243a2d24e2ed"},"vehicle_type_id":"4","last_reported":1711987749,"current_range_meters":0,"station_id":"ce4bgh92rcd13ifvqb50","pricing_plan_id":"cebpf4jnsgd1na2vs0mg"},{"bike_id":"da6b191e-22e3-4eb9-ad5f-2f0c322e7fcb","system_id":"levelo_inurba_marseille","lat":43.296277,"lon":5.377108,"is_reserved":false,"is_disabled":false,"rental_uris":{"android":"levelo://app?vid=da6b191e-22e3-4eb9-ad5f-2f0c322e7fcb","ios":"levelo://app?vid=da6b191e-22e3-4eb9-ad5f-2f0c322e7fcb"},"vehicle_type_id":"4","last_reported":1711987749,"current_range_meters":15600,"station_id":"ce4bgi92rcd13ifvqb90","pricing_plan_id":"cebpf4jnsgd1na2vs0mg"},{"bike_id":"4d89ca7b-d02d-4359-ac73-332527c46471","system_id":"levelo_inurba_marseille","lat":43.291994,"lon":5.357886,"is_reserved":false,"is_disabled":false,"rental_uris":{"android":"levelo://app?vid=4d89ca7b-d02d-4359-ac73-332527c46471","ios":"levelo://app?vid=4d89ca7b-d02d-4359-ac73-332527c46471"},"vehicle_type_id":"4","last_reported":1711987749,"current_range_meters":16000,"station_id":"ce4bhb12rcd13ifvqel0","pricing_plan_id":"cebpf4jnsgd1na2vs0mg"},{"bike_id":"509cc67a-94fc-4857-acbc-b1d3e883367c","system_id":"levelo_inurba_marseille","lat":43.2978,"lon":5.38119,"is_reserved":false,"is_disabled":false,"rental_uris":{"android":"levelo://app?vid=509cc67a-94fc-4857-acbc-b1d3e883367c","ios":"levelo://app?vid=509cc67a-94fc-4857-acbc-b1d3e883367c"},"vehicle_type_id":"4","last_reported":1711987749,"current_range_meters":21600,"station_id":"ce4bgip2rcd13ifvqbb0","pricing_plan_id":"cebpf4jnsgd1na2vs0mg"},{"bike_id":"5e34afad-bb3b-4bdd-8b7e-fc65c359d50b","system_id":"levelo_inurba_marseille","lat":43.296263,"lon":5.377094,"is_reserved":false,"is_disabled":false,"rental_uris":{"android":"levelo://app?vid=5e34afad-bb3b-4bdd-8b7e-fc65c359d50b","ios":"levelo://app?vid=5e34afad-bb3b-4bdd-8b7e-fc65c359d50b"},"vehicle_type_id":"4","last_reported":1711987749,"current_range_meters":0,"station_id":"ce4bgi92rcd13ifvqb90","pricing_plan_id":"cebpf4jnsgd1na2vs0mg"},{"bike_id":"ae271063-a39a-4c00-9e6e-450e9dfc52c0","system_id":"levelo_inurba_marseille","lat":43.29616,"lon":5.37727,"is_reserved":false,"is_disabled":false,"rental_uris":{"android":"levelo://app?vid=ae271063-a39a-4c00-9e6e-450e9dfc52c0","ios":"levelo://app?vid=ae271063-a39a-4c00-9e6e-450e9dfc52c0"},"vehicle_type_id":"4","last_reported":1711987749,"current_range_meters":26400,"station_id":"ce4bgi92rcd13ifvqb90","pricing_plan_id":"cebpf4jnsgd1na2vs0mg"},{"bike_id":"1ffa2238-eae5-4dee-8bd0-7cd0f4119ef1","system_id":"levelo_inurba_marseille","lat":43.296277,"lon":5.377108,"is_reserved":false,"is_disabled":false,"rental_uris":{"android":"levelo://app?vid=1ffa2238-eae5-4dee-8bd0-7cd0f4119ef1","ios":"levelo://app?vid=1ffa2238-eae5-4dee-8bd0-7cd0f4119ef1"},"vehicle_type_id":"4","last_reported":1711987749,"current_range_meters":0,"station_id":"ce4bgi92rcd13ifvqb90","pricing_plan_id":"cebpf4jnsgd1na2vs0mg"},{"bike_id":"3d143ec9-1514-414e-8e83-306e71fe8f5e","system_id":"levelo_inurba_marseille","lat":43.296108,"lon":5.377167,"is_reserved":false,"is_disabled":false,"rental_uris":{"android":"levelo://app?vid=3d143ec9-1514-414e-8e83-306e71fe8f5e","ios":"levelo://app?vid=3d143ec9-1514-414e-8e83-306e71fe8f5e"},"vehicle_type_id":"4","last_reported":1711987749,"current_range_meters":0,"station_id":"ce4bgi92rcd13ifvqb90","pricing_plan_id":"cebpf4jnsgd1na2vs0mg"},{"bike_id":"4dd438f5-dce7-4bfc-b661-6808226b1a8f","system_id":"levelo_inurba_marseille","lat":43.29971,"lon":5.38488,"is_reserved":false,"is_disabled":false,"rental_uris":{"android":"levelo://app?vid=4dd438f5-dce7-4bfc-b661-6808226b1a8f","ios":"levelo://app?vid=4dd438f5-dce7-4bfc-b661-6808226b1a8f"},"vehicle_type_id":"4","last_reported":1711987749,"current_range_meters":0,"station_id":"","pricing_plan_id":"cebpf4jnsgd1na2vs0mg"},{"bike_id":"efa5891a-995a-4e0a-a1d1-739bc873dc4a","system_id":"levelo_inurba_marseille","lat":43.29515,"lon":5.37518,"is_reserved":false,"is_disabled":false,"rental_uris":{"android":"levelo://app?vid=efa5891a-995a-4e0a-a1d1-739bc873dc4a","ios":"levelo://app?vid=efa5891a-995a-4e0a-a1d1-739bc873dc4a"},"vehicle_type_id":"4","last_reported":1711987749,"current_range_meters":16800,"station_id":"ce4bgkp2rcd13ifvqbmg","pricing_plan_id":"cebpf4jnsgd1na2vs0mg"},{"bike_id":"a630fa56-75de-4abe-a526-e40f6f94c6fd","system_id":"levelo_inurba_marseille","lat":43.295279,"lon":5.375048,"is_reserved":false,"is_disabled":false,"rental_uris":{"android":"levelo://app?vid=a630fa56-75de-4abe-a526-e40f6f94c6fd","ios":"levelo://app?vid=a630fa56-75de-4abe-a526-e40f6f94c6fd"},"vehicle_type_id":"4","last_reported":1711987749,"current_range_meters":0,"station_id":"ce4bgkp2rcd13ifvqbmg","pricing_plan_id":"cebpf4jnsgd1na2vs0mg"},{"bike_id":"a7139ce8-a352-4d57-8aac-2c55f8217d5f","system_id":"levelo_inurba_marseille","lat":43.32371,"lon":5.3888,"is_reserved":false,"is_disabled":false,"rental_uris":{"android":"levelo://app?vid=a7139ce8-a352-4d57-8aac-2c55f8217d5f","ios":"levelo://app?vid=a7139ce8-a352-4d57-8aac-2c55f8217d5f"},"vehicle_type_id":"4","last_reported":1711987749,"current_range_meters":0,"station_id":"ce4bhqp2rcd13ifvqhog","pricing_plan_id":"cebpf4jnsgd1na2vs0mg"},{"bike_id":"e52addb4-691b-4922-b428-40a74241eeeb","system_id":"levelo_inurba_marseille","lat":43.3237,"lon":5.38885,"is_reserved":false,"is_disabled":false,"rental_uris":{"android":"levelo://app?vid=e52addb4-691b-4922-b428-40a74241eeeb","ios":"levelo://app?vid=e52addb4-691b-4922-b428-40a74241eeeb"},"vehicle_type_id":"4","last_reported":1711987749,"current_range_meters":14400,"station_id":"ce4bhqp2rcd13ifvqhog","pricing_plan_id":"cebpf4jnsgd1na2vs0mg"},{"bike_id":"3713a5ac-20e3-4334-9bd3-baa6db7c53de","system_id":"levelo_inurba_marseille","lat":43.29601,"lon":5.381084,"is_reserved":false,"is_disabled":false,"rental_uris":{"android":"levelo://app?vid=3713a5ac-20e3-4334-9bd3-baa6db7c53de","ios":"levelo://app?vid=3713a5ac-20e3-4334-9bd3-baa6db7c53de"},"vehicle_type_id":"4","last_reported":1711987749,"current_range_meters":0,"station_id":"ce4bgl12rcd13ifvqbo0","pricing_plan_id":"cebpf4jnsgd1na2vs0mg"},{"bike_id":"e03a3af8-4654-49a3-a2df-9bc20840885a","system_id":"levelo_inurba_marseille","lat":43.293259,"lon":5.371586,"is_reserved":false,"is_disabled":false,"rental_uris":{"android":"levelo://app?vid=e03a3af8-4654-49a3-a2df-9bc20840885a","ios":"levelo://app?vid=e03a3af8-4654-49a3-a2df-9bc20840885a"},"vehicle_type_id":"4","last_reported":1711987749,"current_range_meters":20800,"station_id":"ce4bgh92rcd13ifvqb40","pricing_plan_id":"cebpf4jnsgd1na2vs0mg"},{"bike_id":"1ecfcea5-a73b-41cb-b788-957649007e2a","system_id":"levelo_inurba_marseille","lat":43.29279,"lon":5.36844,"is_reserved":false,"is_disabled":false,"rental_uris":{"android":"levelo://app?vid=1ecfcea5-a73b-41cb-b788-957649007e2a","ios":"levelo://app?vid=1ecfcea5-a73b-41cb-b788-957649007e2a"},"vehicle_type_id":"4","last_reported":1711987749,"current_range_meters":0,"station_id":"ce4bhbp2rcd13ifvqesg","pricing_plan_id":"cebpf4jnsgd1na2vs0mg"},{"bike_id":"310ff146-f857-4f39-b4d0-ddc623b161ab","system_id":"levelo_inurba_marseille","lat":43.292749,"lon":5.368402,"is_reserved":false,"is_disabled":false,"rental_uris":{"android":"levelo://app?vid=310ff146-f857-4f39-b4d0-ddc623b161ab","ios":"levelo://app?vid=310ff146-f857-4f39-b4d0-ddc623b161ab"},"vehicle_type_id":"4","last_reported":1711987749,"current_range_meters":7600,"station_id":"ce4bhbp2rcd13ifvqesg","pricing_plan_id":"cebpf4jnsgd1na2vs0mg"},{"bike_id":"97004366-526f-44d8-9491-ef80a4c69be6","system_id":"levelo_inurba_marseille","lat":43.29277,"lon":5.3685,"is_reserved":false,"is_disabled":false,"rental_uris":{"android":"levelo://app?vid=97004366-526f-44d8-9491-ef80a4c69be6","ios":"levelo://app?vid=97004366-526f-44d8-9491-ef80a4c69be6"},"vehicle_type_id":"4","last_reported":1711987749,"current_range_meters":6400,"station_id":"ce4bhbp2rcd13ifvqesg","pricing_plan_id":"cebpf4jnsgd1na2vs0mg"},{"bike_id":"a9a57f59-cf4d-4f36-85d7-1bf24d7301e9","system_id":"levelo_inurba_marseille","lat":43.292749,"lon":5.368402,"is_reserved":false,"is_disabled":false,"rental_uris":{"android":"levelo://app?vid=a9a57f59-cf4d-4f36-85d7-1bf24d7301e9","ios":"levelo://app?vid=a9a57f59-cf4d-4f36-85d7-1bf24d7301e9"},"vehicle_type_id":"4","last_reported":1711987749,"current_range_meters":9200,"station_id":"ce4bhbp2rcd13ifvqesg","pricing_plan_id":"cebpf4jnsgd1na2vs0mg"},{"bike_id":"271398a2-cce9-4e6f-84fb-027f9a94ea84","system_id":"levelo_inurba_marseille","lat":43.292749,"lon":5.368402,"is_reserved":false,"is_disabled":false,"rental_uris":{"android":"levelo://app?vid=271398a2-cce9-4e6f-84fb-027f9a94ea84","ios":"levelo://app?vid=271398a2-cce9-4e6f-84fb-027f9a94ea84"},"vehicle_type_id":"4","last_reported":1711987749,"current_range_meters":28800,"station_id":"ce4bhbp2rcd13ifvqesg","pricing_plan_id":"cebpf4jnsgd1na2vs0mg"},{"bike_id":"9cf23181-586a-4d1f-bda0-bdf611b6e7b6","system_id":"levelo_inurba_marseille","lat":43.292749,"lon":5.368402,"is_reserved":false,"is_disabled":false,"rental_uris":{"android":"levelo://app?vid=9cf23181-586a-4d1f-bda0-bdf611b6e7b6","ios":"levelo://app?vid=9cf23181-586a-4d1f-bda0-bdf611b6e7b6"},"vehicle_type_id":"4","last_reported":1711987749,"current_range_meters":10400,"station_id":"ce4bhbp2rcd13ifvqesg","pricing_plan_id":"cebpf4jnsgd1na2vs0mg"},{"bike_id":"0180ec21-7fce-46ac-8ff6-be7ab8b0b025","system_id":"levelo_inurba_marseille","lat":43.292683,"lon":5.368489,"is_reserved":false,"is_disabled":false,"rental_uris":{"android":"levelo://app?vid=0180ec21-7fce-46ac-8ff6-be7ab8b0b025","ios":"levelo://app?vid=0180ec21-7fce-46ac-8ff6-be7ab8b0b025"},"vehicle_type_id":"4","last_reported":1711987749,"current_range_meters":27600,"station_id":"ce4bhbp2rcd13ifvqesg","pricing_plan_id":"cebpf4jnsgd1na2vs0mg"},{"bike_id":"f038e3c6-4cf9-4daa-8a1c-2cfc93636761","system_id":"levelo_inurba_marseille","lat":43.292749,"lon":5.368402,"is_reserved":false,"is_disabled":false,"rental_uris":{"android":"levelo://app?vid=f038e3c6-4cf9-4daa-8a1c-2cfc93636761","ios":"levelo://app?vid=f038e3c6-4cf9-4daa-8a1c-2cfc93636761"},"vehicle_type_id":"4","last_reported":1711987749,"current_range_meters":28000,"station_id":"ce4bhbp2rcd13ifvqesg","pricing_plan_id":"cebpf4jnsgd1na2vs0mg"},{"bike_id":"17f9e919-b367-45c9-b8fb-47480c42b74a","system_id":"levelo_inurba_marseille","lat":43.293009,"lon":5.374584,"is_reserved":false,"is_disabled":false,"rental_uris":{"android":"levelo://app?vid=17f9e919-b367-45c9-b8fb-47480c42b74a","ios":"levelo://app?vid=17f9e919-b367-45c9-b8fb-47480c42b74a"},"vehicle_type_id":"4","last_reported":1711987749,"current_range_meters":6800,"station_id":"ce4bgi12rcd13ifvqb70","pricing_plan_id":"cebpf4jnsgd1na2vs0mg"},{"bike_id":"270129ec-afbf-4690-bb10-815148e93073","system_id":"levelo_inurba_marseille","lat":43.293009,"lon":5.374584,"is_reserved":false,"is_disabled":false,"rental_uris":{"android":"levelo://app?vid=270129ec-afbf-4690-bb10-815148e93073","ios":"levelo://app?vid=270129ec-afbf-4690-bb10-815148e93073"},"vehicle_type_id":"4","last_reported":1711987749,"current_range_meters":17200,"station_id":"ce4bgi12rcd13ifvqb70","pricing_plan_id":"cebpf4jnsgd1na2vs0mg"},{"bike_id":"6356222c-784b-46c8-b864-6decaf3ffd4e","system_id":"levelo_inurba_marseille","lat":43.293009,"lon":5.374584,"is_reserved":false,"is_disabled":false,"rental_uris":{"android":"levelo://app?vid=6356222c-784b-46c8-b864-6decaf3ffd4e","ios":"levelo://app?vid=6356222c-784b-46c8-b864-6decaf3ffd4e"},"vehicle_type_id":"4","last_reported":1711987749,"current_range_meters":16400,"station_id":"ce4bgi12rcd13ifvqb70","pricing_plan_id":"cebpf4jnsgd1na2vs0mg"},{"bike_id":"9f72b74f-b46e-431e-b1d6-99512893980a","system_id":"levelo_inurba_marseille","lat":43.305994,"lon":5.393687,"is_reserved":false,"is_disabled":false,"rental_uris":{"android":"levelo://app?vid=9f72b74f-b46e-431e-b1d6-99512893980a","ios":"levelo://app?vid=9f72b74f-b46e-431e-b1d6-99512893980a"},"vehicle_type_id":"4","last_reported":1711987749,"current_range_meters":23200,"station_id":"ce4bh0p2rcd13ifvqd80","pricing_plan_id":"cebpf4jnsgd1na2vs0mg"},{"bike_id":"d1f0abbe-ff91-44a6-8833-3cfe18cad4aa","system_id":"levelo_inurba_marseille","lat":43.293009,"lon":5.374584,"is_reserved":false,"is_disabled":false,"rental_uris":{"android":"levelo://app?vid=d1f0abbe-ff91-44a6-8833-3cfe18cad4aa","ios":"levelo://app?vid=d1f0abbe-ff91-44a6-8833-3cfe18cad4aa"},"vehicle_type_id":"4","last_reported":1711987749,"current_range_meters":17600,"station_id":"ce4bgi12rcd13ifvqb70","pricing_plan_id":"cebpf4jnsgd1na2vs0mg"},{"bike_id":"bc31077a-731f-4ecb-8666-5ac046e7bb9d","system_id":"levelo_inurba_marseille","lat":43.293009,"lon":5.374584,"is_reserved":false,"is_disabled":false,"rental_uris":{"android":"levelo://app?vid=bc31077a-731f-4ecb-8666-5ac046e7bb9d","ios":"levelo://app?vid=bc31077a-731f-4ecb-8666-5ac046e7bb9d"},"vehicle_type_id":"4","last_reported":1711987749,"current_range_meters":15600,"station_id":"ce4bgi12rcd13ifvqb70","pricing_plan_id":"cebpf4jnsgd1na2vs0mg"},{"bike_id":"cf16cafc-7abe-4cfe-9a7b-bd03647c2c60","system_id":"levelo_inurba_marseille","lat":43.293009,"lon":5.374584,"is_reserved":false,"is_disabled":false,"rental_uris":{"android":"levelo://app?vid=cf16cafc-7abe-4cfe-9a7b-bd03647c2c60","ios":"levelo://app?vid=cf16cafc-7abe-4cfe-9a7b-bd03647c2c60"},"vehicle_type_id":"4","last_reported":1711987749,"current_range_meters":21200,"station_id":"ce4bgi12rcd13ifvqb70","pricing_plan_id":"cebpf4jnsgd1na2vs0mg"},{"bike_id":"f81a28fa-7aa4-4fbd-9d7c-5c0cfc4f1ffb","system_id":"levelo_inurba_marseille","lat":43.293009,"lon":5.374584,"is_reserved":false,"is_disabled":false,"rental_uris":{"android":"levelo://app?vid=f81a28fa-7aa4-4fbd-9d7c-5c0cfc4f1ffb","ios":"levelo://app?vid=f81a28fa-7aa4-4fbd-9d7c-5c0cfc4f1ffb"},"vehicle_type_id":"4","last_reported":1711987749,"current_range_meters":8800,"station_id":"ce4bgi12rcd13ifvqb70","pricing_plan_id":"cebpf4jnsgd1na2vs0mg"},{"bike_id":"4b992944-aee6-469f-afe2-66190b1bb3fb","system_id":"levelo_inurba_marseille","lat":43.293009,"lon":5.374584,"is_reserved":false,"is_disabled":false,"rental_uris":{"android":"levelo://app?vid=4b992944-aee6-469f-afe2-66190b1bb3fb","ios":"levelo://app?vid=4b992944-aee6-469f-afe2-66190b1bb3fb"},"vehicle_type_id":"4","last_reported":1711987749,"current_range_meters":17600,"station_id":"ce4bgi12rcd13ifvqb70","pricing_plan_id":"cebpf4jnsgd1na2vs0mg"},{"bike_id":"4b3dda73-f250-4424-bad9-2aef2085235b","system_id":"levelo_inurba_marseille","lat":43.293009,"lon":5.374584,"is_reserved":false,"is_disabled":false,"rental_uris":{"android":"levelo://app?vid=4b3dda73-f250-4424-bad9-2aef2085235b","ios":"levelo://app?vid=4b3dda73-f250-4424-bad9-2aef2085235b"},"vehicle_type_id":"4","last_reported":1711987749,"current_range_meters":2400,"station_id":"ce4bgi12rcd13ifvqb70","pricing_plan_id":"cebpf4jnsgd1na2vs0mg"},{"bike_id":"af214062-5779-4cb7-82c6-81b138771b5c","system_id":"levelo_inurba_marseille","lat":43.293009,"lon":5.374584,"is_reserved":false,"is_disabled":false,"rental_uris":{"android":"levelo://app?vid=af214062-5779-4cb7-82c6-81b138771b5c","ios":"levelo://app?vid=af214062-5779-4cb7-82c6-81b138771b5c"},"vehicle_type_id":"4","last_reported":1711987749,"current_range_meters":18800,"station_id":"ce4bgi12rcd13ifvqb70","pricing_plan_id":"cebpf4jnsgd1na2vs0mg"},{"bike_id":"80fc8071-6870-4dc9-827a-a602f02fc228","system_id":"levelo_inurba_marseille","lat":43.2936,"lon":5.37835,"is_reserved":false,"is_disabled":false,"rental_uris":{"android":"levelo://app?vid=80fc8071-6870-4dc9-827a-a602f02fc228","ios":"levelo://app?vid=80fc8071-6870-4dc9-827a-a602f02fc228"},"vehicle_type_id":"4","last_reported":1711987749,"current_range_meters":5600,"station_id":"ce4bgjh2rcd13ifvqbf0","pricing_plan_id":"cebpf4jnsgd1na2vs0mg"},{"bike_id":"134e8493-a7f9-4920-a59c-22ef92bf1068","system_id":"levelo_inurba_marseille","lat":43.292256,"lon":5.360651,"is_reserved":false,"is_disabled":false,"rental_uris":{"android":"levelo://app?vid=134e8493-a7f9-4920-a59c-22ef92bf1068","ios":"levelo://app?vid=134e8493-a7f9-4920-a59c-22ef92bf1068"},"vehicle_type_id":"4","last_reported":1711987749,"current_range_meters":0,"station_id":"","pricing_plan_id":"cebpf4jnsgd1na2vs0mg"},{"bike_id":"1f783dfb-f6ba-4fd7-9a3c-23070bded2b3","system_id":"levelo_inurba_marseille","lat":43.2936,"lon":5.37835,"is_reserved":false,"is_disabled":false,"rental_uris":{"android":"levelo://app?vid=1f783dfb-f6ba-4fd7-9a3c-23070bded2b3","ios":"levelo://app?vid=1f783dfb-f6ba-4fd7-9a3c-23070bded2b3"},"vehicle_type_id":"4","last_reported":1711987749,"current_range_meters":0,"station_id":"ce4bgjh2rcd13ifvqbf0","pricing_plan_id":"cebpf4jnsgd1na2vs0mg"},{"bike_id":"d8e5daac-570e-4069-a1f6-64872dbf4916","system_id":"levelo_inurba_marseille","lat":43.292311,"lon":5.360731,"is_reserved":false,"is_disabled":false,"rental_uris":{"android":"levelo://app?vid=d8e5daac-570e-4069-a1f6-64872dbf4916","ios":"levelo://app?vid=d8e5daac-570e-4069-a1f6-64872dbf4916"},"vehicle_type_id":"4","last_reported":1711987749,"current_range_meters":1200,"station_id":"ce4bhbh2rcd13ifvqeqg","pricing_plan_id":"cebpf4jnsgd1na2vs0mg"},{"bike_id":"80c9b066-d75c-495b-992a-13533003f4ae","system_id":"levelo_inurba_marseille","lat":43.292311,"lon":5.360731,"is_reserved":false,"is_disabled":false,"rental_uris":{"android":"levelo://app?vid=80c9b066-d75c-495b-992a-13533003f4ae","ios":"levelo://app?vid=80c9b066-d75c-495b-992a-13533003f4ae"},"vehicle_type_id":"4","last_reported":1711987749,"current_range_meters":10000,"station_id":"ce4bhbh2rcd13ifvqeqg","pricing_plan_id":"cebpf4jnsgd1na2vs0mg"},{"bike_id":"f475e623-d67a-4998-9815-fdb304968663","system_id":"levelo_inurba_marseille","lat":43.292311,"lon":5.360731,"is_reserved":false,"is_disabled":false,"rental_uris":{"android":"levelo://app?vid=f475e623-d67a-4998-9815-fdb304968663","ios":"levelo://app?vid=f475e623-d67a-4998-9815-fdb304968663"},"vehicle_type_id":"4","last_reported":1711987749,"current_range_meters":8000,"station_id":"ce4bhbh2rcd13ifvqeqg","pricing_plan_id":"cebpf4jnsgd1na2vs0mg"},{"bike_id":"2f60ed82-5848-4024-b492-0855c4ad6e60","system_id":"levelo_inurba_marseille","lat":43.29875,"lon":5.389051,"is_reserved":false,"is_disabled":false,"rental_uris":{"android":"levelo://app?vid=2f60ed82-5848-4024-b492-0855c4ad6e60","ios":"levelo://app?vid=2f60ed82-5848-4024-b492-0855c4ad6e60"},"vehicle_type_id":"4","last_reported":1711987749,"current_range_meters":0,"station_id":"ce4bh392rcd13ifvqdl0","pricing_plan_id":"cebpf4jnsgd1na2vs0mg"},{"bike_id":"2db994cc-0471-4f95-b0c9-f1ef121b1b37","system_id":"levelo_inurba_marseille","lat":43.291671,"lon":5.371575,"is_reserved":false,"is_disabled":false,"rental_uris":{"android":"levelo://app?vid=2db994cc-0471-4f95-b0c9-f1ef121b1b37","ios":"levelo://app?vid=2db994cc-0471-4f95-b0c9-f1ef121b1b37"},"vehicle_type_id":"4","last_reported":1711987749,"current_range_meters":22000,"station_id":"ce4bha92rcd13ifvqeh0","pricing_plan_id":"cebpf4jnsgd1na2vs0mg"},{"bike_id":"2973e6ec-c91a-40f5-be53-8330747acb00","system_id":"levelo_inurba_marseille","lat":43.291671,"lon":5.371575,"is_reserved":false,"is_disabled":false,"rental_uris":{"android":"levelo://app?vid=2973e6ec-c91a-40f5-be53-8330747acb00","ios":"levelo://app?vid=2973e6ec-c91a-40f5-be53-8330747acb00"},"vehicle_type_id":"4","last_reported":1711987749,"current_range_meters":11200,"station_id":"ce4bha92rcd13ifvqeh0","pricing_plan_id":"cebpf4jnsgd1na2vs0mg"},{"bike_id":"c8a06adf-1c1a-48bb-aa28-82b7fd3605bd","system_id":"levelo_inurba_marseille","lat":43.292005,"lon":5.357875,"is_reserved":false,"is_disabled":false,"rental_uris":{"android":"levelo://app?vid=c8a06adf-1c1a-48bb-aa28-82b7fd3605bd","ios":"levelo://app?vid=c8a06adf-1c1a-48bb-aa28-82b7fd3605bd"},"vehicle_type_id":"4","last_reported":1711987749,"current_range_meters":1200,"station_id":"ce4bhb12rcd13ifvqel0","pricing_plan_id":"cebpf4jnsgd1na2vs0mg"},{"bike_id":"3cbdba4a-7307-4047-8c34-716a00604c6f","system_id":"levelo_inurba_marseille","lat":43.31326,"lon":5.39684,"is_reserved":false,"is_disabled":false,"rental_uris":{"android":"levelo://app?vid=3cbdba4a-7307-4047-8c34-716a00604c6f","ios":"levelo://app?vid=3cbdba4a-7307-4047-8c34-716a00604c6f"},"vehicle_type_id":"4","last_reported":1711987749,"current_range_meters":10800,"station_id":"ce4bgvp2rcd13ifvqcu0","pricing_plan_id":"cebpf4jnsgd1na2vs0mg"},{"bike_id":"398cbc2d-ad90-4ab4-a166-07608eb87c18","system_id":"levelo_inurba_marseille","lat":43.309047,"lon":5.396551,"is_reserved":false,"is_disabled":false,"rental_uris":{"android":"levelo://app?vid=398cbc2d-ad90-4ab4-a166-07608eb87c18","ios":"levelo://app?vid=398cbc2d-ad90-4ab4-a166-07608eb87c18"},"vehicle_type_id":"4","last_reported":1711987749,"current_range_meters":4000,"station_id":"ce4bh012rcd13ifvqcv0","pricing_plan_id":"cebpf4jnsgd1na2vs0mg"},{"bike_id":"afc683ee-eef3-4d87-8ed2-6551545539cf","system_id":"levelo_inurba_marseille","lat":43.309038,"lon":5.396546,"is_reserved":false,"is_disabled":false,"rental_uris":{"android":"levelo://app?vid=afc683ee-eef3-4d87-8ed2-6551545539cf","ios":"levelo://app?vid=afc683ee-eef3-4d87-8ed2-6551545539cf"},"vehicle_type_id":"4","last_reported":1711987749,"current_range_meters":0,"station_id":"ce4bh012rcd13ifvqcv0","pricing_plan_id":"cebpf4jnsgd1na2vs0mg"},{"bike_id":"ded7f386-8bba-4214-b24e-550bc379c66e","system_id":"levelo_inurba_marseille","lat":43.309038,"lon":5.396546,"is_reserved":false,"is_disabled":false,"rental_uris":{"android":"levelo://app?vid=ded7f386-8bba-4214-b24e-550bc379c66e","ios":"levelo://app?vid=ded7f386-8bba-4214-b24e-550bc379c66e"},"vehicle_type_id":"4","last_reported":1711987749,"current_range_meters":9600,"station_id":"ce4bh012rcd13ifvqcv0","pricing_plan_id":"cebpf4jnsgd1na2vs0mg"},{"bike_id":"f22d4333-445b-4ae8-a65b-bf448216468f","system_id":"levelo_inurba_marseille","lat":43.309038,"lon":5.396546,"is_reserved":false,"is_disabled":false,"rental_uris":{"android":"levelo://app?vid=f22d4333-445b-4ae8-a65b-bf448216468f","ios":"levelo://app?vid=f22d4333-445b-4ae8-a65b-bf448216468f"},"vehicle_type_id":"4","last_reported":1711987749,"current_range_meters":12400,"station_id":"ce4bh012rcd13ifvqcv0","pricing_plan_id":"cebpf4jnsgd1na2vs0mg"},{"bike_id":"4d9e6fc1-1f31-466d-8985-a92f23498114","system_id":"levelo_inurba_marseille","lat":43.309047,"lon":5.396551,"is_reserved":false,"is_disabled":false,"rental_uris":{"android":"levelo://app?vid=4d9e6fc1-1f31-466d-8985-a92f23498114","ios":"levelo://app?vid=4d9e6fc1-1f31-466d-8985-a92f23498114"},"vehicle_type_id":"4","last_reported":1711987749,"current_range_meters":20000,"station_id":"ce4bh012rcd13ifvqcv0","pricing_plan_id":"cebpf4jnsgd1na2vs0mg"},{"bike_id":"fece8d4b-e43c-42da-9229-7e3745d76c4a","system_id":"levelo_inurba_marseille","lat":43.29529,"lon":5.385581,"is_reserved":false,"is_disabled":false,"rental_uris":{"android":"levelo://app?vid=fece8d4b-e43c-42da-9229-7e3745d76c4a","ios":"levelo://app?vid=fece8d4b-e43c-42da-9229-7e3745d76c4a"},"vehicle_type_id":"4","last_reported":1711987749,"current_range_meters":0,"station_id":"ce4bgih2rcd13ifvqba0","pricing_plan_id":"cebpf4jnsgd1na2vs0mg"},{"bike_id":"cd9726eb-b2ce-4eed-9317-0a13a6f65185","system_id":"levelo_inurba_marseille","lat":43.29538,"lon":5.38545,"is_reserved":false,"is_disabled":false,"rental_uris":{"android":"levelo://app?vid=cd9726eb-b2ce-4eed-9317-0a13a6f65185","ios":"levelo://app?vid=cd9726eb-b2ce-4eed-9317-0a13a6f65185"},"vehicle_type_id":"4","last_reported":1711987749,"current_range_meters":20000,"station_id":"ce4bgih2rcd13ifvqba0","pricing_plan_id":"cebpf4jnsgd1na2vs0mg"},{"bike_id":"a52d2c81-8880-49ce-8d75-7ac49e8d9da8","system_id":"levelo_inurba_marseille","lat":43.29529,"lon":5.385581,"is_reserved":false,"is_disabled":false,"rental_uris":{"android":"levelo://app?vid=a52d2c81-8880-49ce-8d75-7ac49e8d9da8","ios":"levelo://app?vid=a52d2c81-8880-49ce-8d75-7ac49e8d9da8"},"vehicle_type_id":"4","last_reported":1711987749,"current_range_meters":0,"station_id":"ce4bgih2rcd13ifvqba0","pricing_plan_id":"cebpf4jnsgd1na2vs0mg"},{"bike_id":"ab7d77c9-25e5-4198-8376-39f43ff21875","system_id":"levelo_inurba_marseille","lat":43.29529,"lon":5.385581,"is_reserved":false,"is_disabled":false,"rental_uris":{"android":"levelo://app?vid=ab7d77c9-25e5-4198-8376-39f43ff21875","ios":"levelo://app?vid=ab7d77c9-25e5-4198-8376-39f43ff21875"},"vehicle_type_id":"4","last_reported":1711987749,"current_range_meters":400,"station_id":"ce4bgih2rcd13ifvqba0","pricing_plan_id":"cebpf4jnsgd1na2vs0mg"},{"bike_id":"984a45c1-d8df-47b6-ab32-6e5479c96bb0","system_id":"levelo_inurba_marseille","lat":43.29531,"lon":5.38545,"is_reserved":false,"is_disabled":false,"rental_uris":{"android":"levelo://app?vid=984a45c1-d8df-47b6-ab32-6e5479c96bb0","ios":"levelo://app?vid=984a45c1-d8df-47b6-ab32-6e5479c96bb0"},"vehicle_type_id":"4","last_reported":1711987749,"current_range_meters":2000,"station_id":"ce4bgih2rcd13ifvqba0","pricing_plan_id":"cebpf4jnsgd1na2vs0mg"},{"bike_id":"1d38a90b-4463-4513-b130-9ee1d095ff44","system_id":"levelo_inurba_marseille","lat":43.29529,"lon":5.38542,"is_reserved":false,"is_disabled":false,"rental_uris":{"android":"levelo://app?vid=1d38a90b-4463-4513-b130-9ee1d095ff44","ios":"levelo://app?vid=1d38a90b-4463-4513-b130-9ee1d095ff44"},"vehicle_type_id":"4","last_reported":1711987749,"current_range_meters":2400,"station_id":"ce4bgih2rcd13ifvqba0","pricing_plan_id":"cebpf4jnsgd1na2vs0mg"},{"bike_id":"3a61d156-b47e-4dd9-9d29-a6ecca89144d","system_id":"levelo_inurba_marseille","lat":43.29528,"lon":5.38547,"is_reserved":false,"is_disabled":false,"rental_uris":{"android":"levelo://app?vid=3a61d156-b47e-4dd9-9d29-a6ecca89144d","ios":"levelo://app?vid=3a61d156-b47e-4dd9-9d29-a6ecca89144d"},"vehicle_type_id":"4","last_reported":1711987749,"current_range_meters":2400,"station_id":"ce4bgih2rcd13ifvqba0","pricing_plan_id":"cebpf4jnsgd1na2vs0mg"},{"bike_id":"553be6ba-c65d-4cef-80a9-9bd5e9dea82e","system_id":"levelo_inurba_marseille","lat":43.328077,"lon":5.388814,"is_reserved":false,"is_disabled":false,"rental_uris":{"android":"levelo://app?vid=553be6ba-c65d-4cef-80a9-9bd5e9dea82e","ios":"levelo://app?vid=553be6ba-c65d-4cef-80a9-9bd5e9dea82e"},"vehicle_type_id":"4","last_reported":1711987749,"current_range_meters":400,"station_id":"","pricing_plan_id":"cebpf4jnsgd1na2vs0mg"},{"bike_id":"ec32d02f-5b2e-4aff-b8a8-c2c105e18c9d","system_id":"levelo_inurba_marseille","lat":43.290779,"lon":5.371482,"is_reserved":false,"is_disabled":false,"rental_uris":{"android":"levelo://app?vid=ec32d02f-5b2e-4aff-b8a8-c2c105e18c9d","ios":"levelo://app?vid=ec32d02f-5b2e-4aff-b8a8-c2c105e18c9d"},"vehicle_type_id":"4","last_reported":1711987749,"current_range_meters":24000,"station_id":"ce4bh5p2rcd13ifvqe4g","pricing_plan_id":"cebpf4jnsgd1na2vs0mg"},{"bike_id":"82f12124-5d4e-4dfb-a5ca-f52c41bd7bb9","system_id":"levelo_inurba_marseille","lat":43.290779,"lon":5.371482,"is_reserved":false,"is_disabled":false,"rental_uris":{"android":"levelo://app?vid=82f12124-5d4e-4dfb-a5ca-f52c41bd7bb9","ios":"levelo://app?vid=82f12124-5d4e-4dfb-a5ca-f52c41bd7bb9"},"vehicle_type_id":"4","last_reported":1711987749,"current_range_meters":31200,"station_id":"ce4bh5p2rcd13ifvqe4g","pricing_plan_id":"cebpf4jnsgd1na2vs0mg"},{"bike_id":"56a0130c-f8a6-46bd-ad6c-f10e0d2492cd","system_id":"levelo_inurba_marseille","lat":43.29772,"lon":5.3904,"is_reserved":false,"is_disabled":false,"rental_uris":{"android":"levelo://app?vid=56a0130c-f8a6-46bd-ad6c-f10e0d2492cd","ios":"levelo://app?vid=56a0130c-f8a6-46bd-ad6c-f10e0d2492cd"},"vehicle_type_id":"4","last_reported":1711987749,"current_range_meters":16400,"station_id":"chh1huq6cuj3fo74tm60","pricing_plan_id":"cebpf4jnsgd1na2vs0mg"},{"bike_id":"84094b43-f75d-4325-aa2b-4705338de8af","system_id":"levelo_inurba_marseille","lat":43.29433,"lon":5.386257,"is_reserved":false,"is_disabled":false,"rental_uris":{"android":"levelo://app?vid=84094b43-f75d-4325-aa2b-4705338de8af","ios":"levelo://app?vid=84094b43-f75d-4325-aa2b-4705338de8af"},"vehicle_type_id":"4","last_reported":1711987749,"current_range_meters":0,"station_id":"ce4bh2h2rcd13ifvqdh0","pricing_plan_id":"cebpf4jnsgd1na2vs0mg"},{"bike_id":"a2d95ac7-9122-4fed-a59c-1d0ea3dd6693","system_id":"levelo_inurba_marseille","lat":43.294153,"lon":5.386305,"is_reserved":false,"is_disabled":false,"rental_uris":{"android":"levelo://app?vid=a2d95ac7-9122-4fed-a59c-1d0ea3dd6693","ios":"levelo://app?vid=a2d95ac7-9122-4fed-a59c-1d0ea3dd6693"},"vehicle_type_id":"4","last_reported":1711987749,"current_range_meters":4400,"station_id":"ce4bh2h2rcd13ifvqdh0","pricing_plan_id":"cebpf4jnsgd1na2vs0mg"},{"bike_id":"6e39ce00-2eba-4dfd-bdec-c4c90a56a851","system_id":"levelo_inurba_marseille","lat":43.289517,"lon":5.366248,"is_reserved":false,"is_disabled":false,"rental_uris":{"android":"levelo://app?vid=6e39ce00-2eba-4dfd-bdec-c4c90a56a851","ios":"levelo://app?vid=6e39ce00-2eba-4dfd-bdec-c4c90a56a851"},"vehicle_type_id":"4","last_reported":1711987749,"current_range_meters":0,"station_id":"ce4bhap2rcd13ifvqek0","pricing_plan_id":"cebpf4jnsgd1na2vs0mg"},{"bike_id":"8c5e7b88-a3b2-4536-936a-8a6ec5b24b97","system_id":"levelo_inurba_marseille","lat":43.294162,"lon":5.386292,"is_reserved":false,"is_disabled":false,"rental_uris":{"android":"levelo://app?vid=8c5e7b88-a3b2-4536-936a-8a6ec5b24b97","ios":"levelo://app?vid=8c5e7b88-a3b2-4536-936a-8a6ec5b24b97"},"vehicle_type_id":"4","last_reported":1711987749,"current_range_meters":12400,"station_id":"ce4bh2h2rcd13ifvqdh0","pricing_plan_id":"cebpf4jnsgd1na2vs0mg"},{"bike_id":"80e4ac49-b8bd-4ea3-a822-49d01ef26ba1","system_id":"levelo_inurba_marseille","lat":43.294162,"lon":5.386292,"is_reserved":false,"is_disabled":false,"rental_uris":{"android":"levelo://app?vid=80e4ac49-b8bd-4ea3-a822-49d01ef26ba1","ios":"levelo://app?vid=80e4ac49-b8bd-4ea3-a822-49d01ef26ba1"},"vehicle_type_id":"4","last_reported":1711987749,"current_range_meters":0,"station_id":"ce4bh2h2rcd13ifvqdh0","pricing_plan_id":"cebpf4jnsgd1na2vs0mg"},{"bike_id":"bd96b160-22d6-4d26-88b4-555039997b6d","system_id":"levelo_inurba_marseille","lat":43.290319,"lon":5.375732,"is_reserved":false,"is_disabled":false,"rental_uris":{"android":"levelo://app?vid=bd96b160-22d6-4d26-88b4-555039997b6d","ios":"levelo://app?vid=bd96b160-22d6-4d26-88b4-555039997b6d"},"vehicle_type_id":"4","last_reported":1711987749,"current_range_meters":2800,"station_id":"ce4bh692rcd13ifvqe90","pricing_plan_id":"cebpf4jnsgd1na2vs0mg"},{"bike_id":"241711e3-388e-4736-88c4-6ad4828f792d","system_id":"levelo_inurba_marseille","lat":43.29419,"lon":5.38626,"is_reserved":false,"is_disabled":false,"rental_uris":{"android":"levelo://app?vid=241711e3-388e-4736-88c4-6ad4828f792d","ios":"levelo://app?vid=241711e3-388e-4736-88c4-6ad4828f792d"},"vehicle_type_id":"4","last_reported":1711987749,"current_range_meters":0,"station_id":"ce4bh2h2rcd13ifvqdh0","pricing_plan_id":"cebpf4jnsgd1na2vs0mg"},{"bike_id":"758c99ca-e705-48eb-a700-01a0b9265454","system_id":"levelo_inurba_marseille","lat":43.290327,"lon":5.375711,"is_reserved":false,"is_disabled":false,"rental_uris":{"android":"levelo://app?vid=758c99ca-e705-48eb-a700-01a0b9265454","ios":"levelo://app?vid=758c99ca-e705-48eb-a700-01a0b9265454"},"vehicle_type_id":"4","last_reported":1711987749,"current_range_meters":30400,"station_id":"ce4bh692rcd13ifvqe90","pricing_plan_id":"cebpf4jnsgd1na2vs0mg"},{"bike_id":"b719a790-a467-4d5f-969a-342db261093c","system_id":"levelo_inurba_marseille","lat":43.28932,"lon":5.36638,"is_reserved":false,"is_disabled":false,"rental_uris":{"android":"levelo://app?vid=b719a790-a467-4d5f-969a-342db261093c","ios":"levelo://app?vid=b719a790-a467-4d5f-969a-342db261093c"},"vehicle_type_id":"4","last_reported":1711987749,"current_range_meters":0,"station_id":"ce4bhap2rcd13ifvqek0","pricing_plan_id":"cebpf4jnsgd1na2vs0mg"},{"bike_id":"943d8912-703e-478d-a571-5ce9fab3812f","system_id":"levelo_inurba_marseille","lat":43.289468,"lon":5.363719,"is_reserved":false,"is_disabled":false,"rental_uris":{"android":"levelo://app?vid=943d8912-703e-478d-a571-5ce9fab3812f","ios":"levelo://app?vid=943d8912-703e-478d-a571-5ce9fab3812f"},"vehicle_type_id":"4","last_reported":1711987749,"current_range_meters":9600,"station_id":"ce4bhc92rcd13ifvqetg","pricing_plan_id":"cebpf4jnsgd1na2vs0mg"},{"bike_id":"61b8f9a7-6c75-4ea9-86c6-d12dd01a9fcb","system_id":"levelo_inurba_marseille","lat":43.2893,"lon":5.3637,"is_reserved":false,"is_disabled":false,"rental_uris":{"android":"levelo://app?vid=61b8f9a7-6c75-4ea9-86c6-d12dd01a9fcb","ios":"levelo://app?vid=61b8f9a7-6c75-4ea9-86c6-d12dd01a9fcb"},"vehicle_type_id":"4","last_reported":1711987749,"current_range_meters":29600,"station_id":"ce4bhc92rcd13ifvqetg","pricing_plan_id":"cebpf4jnsgd1na2vs0mg"},{"bike_id":"9689d9cf-c863-4a8c-9a2c-02db8142af71","system_id":"levelo_inurba_marseille","lat":43.292642,"lon":5.384254,"is_reserved":false,"is_disabled":false,"rental_uris":{"android":"levelo://app?vid=9689d9cf-c863-4a8c-9a2c-02db8142af71","ios":"levelo://app?vid=9689d9cf-c863-4a8c-9a2c-02db8142af71"},"vehicle_type_id":"4","last_reported":1711987749,"current_range_meters":21200,"station_id":"ce4bh692rcd13ifvqea0","pricing_plan_id":"cebpf4jnsgd1na2vs0mg"},{"bike_id":"ab69a4f4-535f-4aef-a4fa-87274c7d47bc","system_id":"levelo_inurba_marseille","lat":43.29272,"lon":5.38446,"is_reserved":false,"is_disabled":false,"rental_uris":{"android":"levelo://app?vid=ab69a4f4-535f-4aef-a4fa-87274c7d47bc","ios":"levelo://app?vid=ab69a4f4-535f-4aef-a4fa-87274c7d47bc"},"vehicle_type_id":"4","last_reported":1711987749,"current_range_meters":0,"station_id":"ce4bh692rcd13ifvqea0","pricing_plan_id":"cebpf4jnsgd1na2vs0mg"},{"bike_id":"ace9e0e3-4376-4172-8b61-f30e1d98fe01","system_id":"levelo_inurba_marseille","lat":43.292644,"lon":5.384257,"is_reserved":false,"is_disabled":false,"rental_uris":{"android":"levelo://app?vid=ace9e0e3-4376-4172-8b61-f30e1d98fe01","ios":"levelo://app?vid=ace9e0e3-4376-4172-8b61-f30e1d98fe01"},"vehicle_type_id":"4","last_reported":1711987749,"current_range_meters":22400,"station_id":"ce4bh692rcd13ifvqea0","pricing_plan_id":"cebpf4jnsgd1na2vs0mg"},{"bike_id":"56716580-7a5e-4cbf-be20-29ae218701d7","system_id":"levelo_inurba_marseille","lat":43.304274,"lon":5.397513,"is_reserved":false,"is_disabled":false,"rental_uris":{"android":"levelo://app?vid=56716580-7a5e-4cbf-be20-29ae218701d7","ios":"levelo://app?vid=56716580-7a5e-4cbf-be20-29ae218701d7"},"vehicle_type_id":"4","last_reported":1711987749,"current_range_meters":9600,"station_id":"ce4bh092rcd13ifvqd20","pricing_plan_id":"cebpf4jnsgd1na2vs0mg"},{"bike_id":"e9b5ffbb-f5cc-483d-b3ad-9876c688e1f9","system_id":"levelo_inurba_marseille","lat":43.304296,"lon":5.397513,"is_reserved":false,"is_disabled":false,"rental_uris":{"android":"levelo://app?vid=e9b5ffbb-f5cc-483d-b3ad-9876c688e1f9","ios":"levelo://app?vid=e9b5ffbb-f5cc-483d-b3ad-9876c688e1f9"},"vehicle_type_id":"4","last_reported":1711987749,"current_range_meters":800,"station_id":"ce4bh092rcd13ifvqd20","pricing_plan_id":"cebpf4jnsgd1na2vs0mg"},{"bike_id":"4e24b01a-e3c1-4c8f-aef1-67129388c8cf","system_id":"levelo_inurba_marseille","lat":43.292644,"lon":5.384257,"is_reserved":false,"is_disabled":false,"rental_uris":{"android":"levelo://app?vid=4e24b01a-e3c1-4c8f-aef1-67129388c8cf","ios":"levelo://app?vid=4e24b01a-e3c1-4c8f-aef1-67129388c8cf"},