{"last_updated":1705856780,"ttl":30,"version":"2.2","data":{"bikes":[{"bike_id":"640832be-a651-4075-b7e4-b81713489a64","system_id":"levelo_inurba_marseille","lat":43.31341,"lon":5.367098,"is_reserved":false,"is_disabled":false,"rental_uris":{"android":"levelo://app?vid=640832be-a651-4075-b7e4-b81713489a64","ios":"levelo://app?vid=640832be-a651-4075-b7e4-b81713489a64"},"vehicle_type_id":"4","last_reported":1705856780,"current_range_meters":30400,"station_id":"ce4bgr92rcd13ifvqc6g","pricing_plan_id":"free"},{"bike_id":"9c81b178-173d-451e-af61-52499845343c","system_id":"levelo_inurba_marseille","lat":43.31356,"lon":5.367059,"is_reserved":false,"is_disabled":false,"rental_uris":{"android":"levelo://app?vid=9c81b178-173d-451e-af61-52499845343c","ios":"levelo://app?vid=9c81b178-173d-451e-af61-52499845343c"},"vehicle_type_id":"4","last_reported":1705856780,"current_range_meters":7200,"station_id":"ce4bgr92rcd13ifvqc6g","pricing_plan_id":"free"},{"bike_id":"21a017f6-bd7c-4ad2-9671-1d034f0ed682","system_id":"levelo_inurba_marseille","lat":43.3136,"lon":5.367036,"is_reserved":false,"is_disabled":false,"rental_uris":{"android":"levelo://app?vid=21a017f6-bd7c-4ad2-9671-1d034f0ed682","ios":"levelo://app?vid=21a017f6-bd7c-4ad2-9671-1d034f0ed682"},"vehicle_type_id":"4","last_reported":1705856780,"current_range_meters":5200,"station_id":"ce4bgr92rcd13ifvqc6g","pricing_plan_id":"free"},{"bike_id":"51147ab2-387a-4039-ac98-c807f47d0e86","system_id":"levelo_inurba_marseille","lat":43.312239,"lon":5.368562,"is_reserved":false,"is_disabled":false,"rental_uris":{"android":"levelo://app?vid=51147ab2-387a-4039-ac98-c807f47d0e86","ios":"levelo://app?vid=51147ab2-387a-4039-ac98-c807f47d0e86"},"vehicle_type_id":"4","last_reported":1705856780,"current_range_meters":31200,"station_id":"ce4bgl92rcd13ifvqbq0","pricing_plan_id":"free"},{"bike_id":"bfeb0a48-c60e-4901-83eb-d48f1106fd6f","system_id":"levelo_inurba_marseille","lat":43.312239,"lon":5.368562,"is_reserved":false,"is_disabled":false,"rental_uris":{"android":"levelo://app?vid=bfeb0a48-c60e-4901-83eb-d48f1106fd6f","ios":"levelo://app?vid=bfeb0a48-c60e-4901-83eb-d48f1106fd6f"},"vehicle_type_id":"4","last_reported":1705856780,"current_range_meters":31200,"station_id":"ce4bgl92rcd13ifvqbq0","pricing_plan_id":"free"},{"bike_id":"943a2086-b16e-494b-8e5a-c9e0d1bf046b","system_id":"levelo_inurba_marseille","lat":43.312239,"lon":5.368562,"is_reserved":false,"is_disabled":false,"rental_uris":{"android":"levelo://app?vid=943a2086-b16e-494b-8e5a-c9e0d1bf046b","ios":"levelo://app?vid=943a2086-b16e-494b-8e5a-c9e0d1bf046b"},"vehicle_type_id":"4","last_reported":1705856780,"current_range_meters":17200,"station_id":"ce4bgl92rcd13ifvqbq0","pricing_plan_id":"free"},{"bike_id":"901170c0-a174-450f-a246-fae40a70d736","system_id":"levelo_inurba_marseille","lat":43.312239,"lon":5.368562,"is_reserved":false,"is_disabled":false,"rental_uris":{"android":"levelo://app?vid=901170c0-a174-450f-a246-fae40a70d736","ios":"levelo://app?vid=901170c0-a174-450f-a246-fae40a70d736"},"vehicle_type_id":"4","last_reported":1705856780,"current_range_meters":16800,"station_id":"ce4bgl92rcd13ifvqbq0","pricing_plan_id":"free"},{"bike_id":"63713002-1d6d-47f5-9a7f-4a76b18d63ea","system_id":"levelo_inurba_marseille","lat":43.312239,"lon":5.368562,"is_reserved":false,"is_disabled":false,"rental_uris":{"android":"levelo://app?vid=63713002-1d6d-47f5-9a7f-4a76b18d63ea","ios":"levelo://app?vid=63713002-1d6d-47f5-9a7f-4a76b18d63ea"},"vehicle_type_id":"4","last_reported":1705856780,"current_range_meters":22400,"station_id":"ce4bgl92rcd13ifvqbq0","pricing_plan_id":"free"},{"bike_id":"8b50ce20-ad4c-49b2-abfb-3b4d4b851370","system_id":"levelo_inurba_marseille","lat":43.312239,"lon":5.368562,"is_reserved":false,"is_disabled":false,"rental_uris":{"android":"levelo://app?vid=8b50ce20-ad4c-49b2-abfb-3b4d4b851370","ios":"levelo://app?vid=8b50ce20-ad4c-49b2-abfb-3b4d4b851370"},"vehicle_type_id":"4","last_reported":1705856780,"current_range_meters":27200,"station_id":"ce4bgl92rcd13ifvqbq0","pricing_plan_id":"free"},{"bike_id":"4fcbe57a-326a-428b-a284-e60821cf5946","system_id":"levelo_inurba_marseille","lat":43.312239,"lon":5.368562,"is_reserved":false,"is_disabled":false,"rental_uris":{"android":"levelo://app?vid=4fcbe57a-326a-428b-a284-e60821cf5946","ios":"levelo://app?vid=4fcbe57a-326a-428b-a284-e60821cf5946"},"vehicle_type_id":"4","last_reported":1705856780,"current_range_meters":26400,"station_id":"ce4bgl92rcd13ifvqbq0","pricing_plan_id":"free"},{"bike_id":"5f575660-f4fe-4f09-b2ea-0165cee526ba","system_id":"levelo_inurba_marseille","lat":43.312239,"lon":5.368562,"is_reserved":false,"is_disabled":false,"rental_uris":{"android":"levelo://app?vid=5f575660-f4fe-4f09-b2ea-0165cee526ba","ios":"levelo://app?vid=5f575660-f4fe-4f09-b2ea-0165cee526ba"},"vehicle_type_id":"4","last_reported":1705856780,"current_range_meters":4800,"station_id":"ce4bgl92rcd13ifvqbq0","pricing_plan_id":"free"},{"bike_id":"bc7b21f6-9eb5-410e-9457-bf487eeae083","system_id":"levelo_inurba_marseille","lat":43.309076,"lon":5.368465,"is_reserved":false,"is_disabled":false,"rental_uris":{"android":"levelo://app?vid=bc7b21f6-9eb5-410e-9457-bf487eeae083","ios":"levelo://app?vid=bc7b21f6-9eb5-410e-9457-bf487eeae083"},"vehicle_type_id":"4","last_reported":1705856780,"current_range_meters":31200,"station_id":"ce4bgn92rcd13ifvqbvg","pricing_plan_id":"free"},{"bike_id":"7e9e1560-2cee-4cd1-a961-2508388a3e2f","system_id":"levelo_inurba_marseille","lat":43.309076,"lon":5.368465,"is_reserved":false,"is_disabled":false,"rental_uris":{"android":"levelo://app?vid=7e9e1560-2cee-4cd1-a961-2508388a3e2f","ios":"levelo://app?vid=7e9e1560-2cee-4cd1-a961-2508388a3e2f"},"vehicle_type_id":"4","last_reported":1705856780,"current_range_meters":24400,"station_id":"ce4bgn92rcd13ifvqbvg","pricing_plan_id":"free"},{"bike_id":"57283201-fc4e-4d24-8536-5ad0d12fd0f2","system_id":"levelo_inurba_marseille","lat":43.314811,"lon":5.373104,"is_reserved":false,"is_disabled":false,"rental_uris":{"android":"levelo://app?vid=57283201-fc4e-4d24-8536-5ad0d12fd0f2","ios":"levelo://app?vid=57283201-fc4e-4d24-8536-5ad0d12fd0f2"},"vehicle_type_id":"4","last_reported":1705856780,"current_range_meters":8000,"station_id":"ce4bgt12rcd13ifvqcd0","pricing_plan_id":"free"},{"bike_id":"e896a121-d4f3-45cd-8588-ffec4ed7eea6","system_id":"levelo_inurba_marseille","lat":43.314811,"lon":5.373104,"is_reserved":false,"is_disabled":false,"rental_uris":{"android":"levelo://app?vid=e896a121-d4f3-45cd-8588-ffec4ed7eea6","ios":"levelo://app?vid=e896a121-d4f3-45cd-8588-ffec4ed7eea6"},"vehicle_type_id":"4","last_reported":1705856780,"current_range_meters":0,"station_id":"ce4bgt12rcd13ifvqcd0","pricing_plan_id":"free"},{"bike_id":"4f55d0fa-20f0-4edf-85bc-ce1b4029f9d7","system_id":"levelo_inurba_marseille","lat":43.309039,"lon":5.371797,"is_reserved":false,"is_disabled":false,"rental_uris":{"android":"levelo://app?vid=4f55d0fa-20f0-4edf-85bc-ce1b4029f9d7","ios":"levelo://app?vid=4f55d0fa-20f0-4edf-85bc-ce1b4029f9d7"},"vehicle_type_id":"4","last_reported":1705856780,"current_range_meters":4000,"station_id":"ce4bguh2rcd13ifvqckg","pricing_plan_id":"free"},{"bike_id":"a5ee8b74-9313-4eba-8641-bb9c001e301b","system_id":"levelo_inurba_marseille","lat":43.298433,"lon":5.362774,"is_reserved":false,"is_disabled":false,"rental_uris":{"android":"levelo://app?vid=a5ee8b74-9313-4eba-8641-bb9c001e301b","ios":"levelo://app?vid=a5ee8b74-9313-4eba-8641-bb9c001e301b"},"vehicle_type_id":"4","last_reported":1705856780,"current_range_meters":23200,"station_id":"ce4bgpp2rcd13ifvqc3g","pricing_plan_id":"free"},{"bike_id":"5544c8d7-d201-412b-bd1e-52cec3f27d67","system_id":"levelo_inurba_marseille","lat":43.309039,"lon":5.371797,"is_reserved":false,"is_disabled":false,"rental_uris":{"android":"levelo://app?vid=5544c8d7-d201-412b-bd1e-52cec3f27d67","ios":"levelo://app?vid=5544c8d7-d201-412b-bd1e-52cec3f27d67"},"vehicle_type_id":"4","last_reported":1705856780,"current_range_meters":9600,"station_id":"ce4bguh2rcd13ifvqckg","pricing_plan_id":"free"},{"bike_id":"a6f0584b-04d9-4b40-8600-4d375589f103","system_id":"levelo_inurba_marseille","lat":43.309039,"lon":5.371797,"is_reserved":false,"is_disabled":false,"rental_uris":{"android":"levelo://app?vid=a6f0584b-04d9-4b40-8600-4d375589f103","ios":"levelo://app?vid=a6f0584b-04d9-4b40-8600-4d375589f103"},"vehicle_type_id":"4","last_reported":1705856780,"current_range_meters":20000,"station_id":"ce4bguh2rcd13ifvqckg","pricing_plan_id":"free"},{"bike_id":"490a4aa8-d669-42af-9fdc-345c93140c20","system_id":"levelo_inurba_marseille","lat":43.305368,"lon":5.367343,"is_reserved":false,"is_disabled":false,"rental_uris":{"android":"levelo://app?vid=490a4aa8-d669-42af-9fdc-345c93140c20","ios":"levelo://app?vid=490a4aa8-d669-42af-9fdc-345c93140c20"},"vehicle_type_id":"4","last_reported":1705856780,"current_range_meters":15600,"station_id":"ce4bgrp2rcd13ifvqc9g","pricing_plan_id":"free"},{"bike_id":"b7999044-8ed9-4f97-9f6a-add51fc8b234","system_id":"levelo_inurba_marseille","lat":43.305368,"lon":5.367343,"is_reserved":false,"is_disabled":false,"rental_uris":{"android":"levelo://app?vid=b7999044-8ed9-4f97-9f6a-add51fc8b234","ios":"levelo://app?vid=b7999044-8ed9-4f97-9f6a-add51fc8b234"},"vehicle_type_id":"4","last_reported":1705856780,"current_range_meters":30000,"station_id":"ce4bgrp2rcd13ifvqc9g","pricing_plan_id":"free"},{"bike_id":"00ac23e2-f7ea-4673-ac6b-35c845130800","system_id":"levelo_inurba_marseille","lat":43.305706,"lon":5.365654,"is_reserved":false,"is_disabled":false,"rental_uris":{"android":"levelo://app?vid=00ac23e2-f7ea-4673-ac6b-35c845130800","ios":"levelo://app?vid=00ac23e2-f7ea-4673-ac6b-35c845130800"},"vehicle_type_id":"4","last_reported":1705856780,"current_range_meters":2800,"station_id":"ce4bgs12rcd13ifvqcag","pricing_plan_id":"free"},{"bike_id":"a43527eb-750d-41b6-b1e8-cd4a4f169a32","system_id":"levelo_inurba_marseille","lat":43.305714,"lon":5.365633,"is_reserved":false,"is_disabled":false,"rental_uris":{"android":"levelo://app?vid=a43527eb-750d-41b6-b1e8-cd4a4f169a32","ios":"levelo://app?vid=a43527eb-750d-41b6-b1e8-cd4a4f169a32"},"vehicle_type_id":"4","last_reported":1705856780,"current_range_meters":2800,"station_id":"ce4bgs12rcd13ifvqcag","pricing_plan_id":"free"},{"bike_id":"d17293b9-1c64-4825-ad4d-726579f79409","system_id":"levelo_inurba_marseille","lat":43.305989,"lon":5.37225,"is_reserved":false,"is_disabled":false,"rental_uris":{"android":"levelo://app?vid=d17293b9-1c64-4825-ad4d-726579f79409","ios":"levelo://app?vid=d17293b9-1c64-4825-ad4d-726579f79409"},"vehicle_type_id":"4","last_reported":1705856780,"current_range_meters":18000,"station_id":"ce4bgqh2rcd13ifvqc4g","pricing_plan_id":"free"},{"bike_id":"54c8a752-e607-463c-86d9-2029f8be57f1","system_id":"levelo_inurba_marseille","lat":43.30589,"lon":5.37179,"is_reserved":false,"is_disabled":false,"rental_uris":{"android":"levelo://app?vid=54c8a752-e607-463c-86d9-2029f8be57f1","ios":"levelo://app?vid=54c8a752-e607-463c-86d9-2029f8be57f1"},"vehicle_type_id":"4","last_reported":1705856780,"current_range_meters":28400,"station_id":"ce4bgqh2rcd13ifvqc4g","pricing_plan_id":"free"},{"bike_id":"40a4e439-1d68-401a-9e1f-3fd07d6924c4","system_id":"levelo_inurba_marseille","lat":43.305368,"lon":5.367343,"is_reserved":false,"is_disabled":false,"rental_uris":{"android":"levelo://app?vid=40a4e439-1d68-401a-9e1f-3fd07d6924c4","ios":"levelo://app?vid=40a4e439-1d68-401a-9e1f-3fd07d6924c4"},"vehicle_type_id":"4","last_reported":1705856780,"current_range_meters":30000,"station_id":"ce4bgrp2rcd13ifvqc9g","pricing_plan_id":"free"},{"bike_id":"89bd933b-2f13-45ee-a144-bab8bdca1e40","system_id":"levelo_inurba_marseille","lat":43.311125,"lon":5.377624,"is_reserved":false,"is_disabled":false,"rental_uris":{"android":"levelo://app?vid=89bd933b-2f13-45ee-a144-bab8bdca1e40","ios":"levelo://app?vid=89bd933b-2f13-45ee-a144-bab8bdca1e40"},"vehicle_type_id":"4","last_reported":1705856780,"current_range_meters":26400,"station_id":"ce4bgt92rcd13ifvqcg0","pricing_plan_id":"free"},{"bike_id":"4e23995f-2b27-45bd-b2e0-f205e1aa93f9","system_id":"levelo_inurba_marseille","lat":43.311125,"lon":5.377624,"is_reserved":false,"is_disabled":false,"rental_uris":{"android":"levelo://app?vid=4e23995f-2b27-45bd-b2e0-f205e1aa93f9","ios":"levelo://app?vid=4e23995f-2b27-45bd-b2e0-f205e1aa93f9"},"vehicle_type_id":"4","last_reported":1705856780,"current_range_meters":1200,"station_id":"ce4bgt92rcd13ifvqcg0","pricing_plan_id":"free"},{"bike_id":"d7854f2c-e25b-4567-9ca1-100b79dde627","system_id":"levelo_inurba_marseille","lat":43.317058,"lon":5.376824,"is_reserved":false,"is_disabled":false,"rental_uris":{"android":"levelo://app?vid=d7854f2c-e25b-4567-9ca1-100b79dde627","ios":"levelo://app?vid=d7854f2c-e25b-4567-9ca1-100b79dde627"},"vehicle_type_id":"4","last_reported":1705856780,"current_range_meters":22800,"station_id":"ce4bgth2rcd13ifvqch0","pricing_plan_id":"free"},{"bike_id":"e1e34c98-085c-452d-be1e-5fde4decc04b","system_id":"levelo_inurba_marseille","lat":43.307945,"lon":5.376487,"is_reserved":false,"is_disabled":false,"rental_uris":{"android":"levelo://app?vid=e1e34c98-085c-452d-be1e-5fde4decc04b","ios":"levelo://app?vid=e1e34c98-085c-452d-be1e-5fde4decc04b"},"vehicle_type_id":"4","last_reported":1705856780,"current_range_meters":7200,"station_id":"ce4bgv92rcd13ifvqcq0","pricing_plan_id":"free"},{"bike_id":"2dcf9ae1-f20f-4524-9eb5-283eb45fd705","system_id":"levelo_inurba_marseille","lat":43.307945,"lon":5.376487,"is_reserved":false,"is_disabled":false,"rental_uris":{"android":"levelo://app?vid=2dcf9ae1-f20f-4524-9eb5-283eb45fd705","ios":"levelo://app?vid=2dcf9ae1-f20f-4524-9eb5-283eb45fd705"},"vehicle_type_id":"4","last_reported":1705856780,"current_range_meters":10800,"station_id":"ce4bgv92rcd13ifvqcq0","pricing_plan_id":"free"},{"bike_id":"619b142a-1e48-4c47-971a-d9993b97e245","system_id":"levelo_inurba_marseille","lat":43.307945,"lon":5.376487,"is_reserved":false,"is_disabled":false,"rental_uris":{"android":"levelo://app?vid=619b142a-1e48-4c47-971a-d9993b97e245","ios":"levelo://app?vid=619b142a-1e48-4c47-971a-d9993b97e245"},"vehicle_type_id":"4","last_reported":1705856780,"current_range_meters":3600,"station_id":"ce4bgv92rcd13ifvqcq0","pricing_plan_id":"free"},{"bike_id":"0f67dad4-af0e-4948-872c-6e5a919fd5dd","system_id":"levelo_inurba_marseille","lat":43.317075,"lon":5.377367,"is_reserved":false,"is_disabled":false,"rental_uris":{"android":"levelo://app?vid=0f67dad4-af0e-4948-872c-6e5a919fd5dd","ios":"levelo://app?vid=0f67dad4-af0e-4948-872c-6e5a919fd5dd"},"vehicle_type_id":"4","last_reported":1705856780,"current_range_meters":25600,"station_id":"ce4bgth2rcd13ifvqch0","pricing_plan_id":"free"},{"bike_id":"9270ff06-d0b1-4f85-a26e-b929ac32db75","system_id":"levelo_inurba_marseille","lat":43.317075,"lon":5.377367,"is_reserved":false,"is_disabled":false,"rental_uris":{"android":"levelo://app?vid=9270ff06-d0b1-4f85-a26e-b929ac32db75","ios":"levelo://app?vid=9270ff06-d0b1-4f85-a26e-b929ac32db75"},"vehicle_type_id":"4","last_reported":1705856780,"current_range_meters":12800,"station_id":"ce4bgth2rcd13ifvqch0","pricing_plan_id":"free"},{"bike_id":"a91f1b0c-c2f2-4f8d-95b4-3dc81767a0bd","system_id":"levelo_inurba_marseille","lat":43.317075,"lon":5.377367,"is_reserved":false,"is_disabled":false,"rental_uris":{"android":"levelo://app?vid=a91f1b0c-c2f2-4f8d-95b4-3dc81767a0bd","ios":"levelo://app?vid=a91f1b0c-c2f2-4f8d-95b4-3dc81767a0bd"},"vehicle_type_id":"4","last_reported":1705856780,"current_range_meters":31600,"station_id":"ce4bgth2rcd13ifvqch0","pricing_plan_id":"free"},{"bike_id":"87fb347d-0d5a-42ca-b501-27f395eb73a5","system_id":"levelo_inurba_marseille","lat":43.317075,"lon":5.377367,"is_reserved":false,"is_disabled":false,"rental_uris":{"android":"levelo://app?vid=87fb347d-0d5a-42ca-b501-27f395eb73a5","ios":"levelo://app?vid=87fb347d-0d5a-42ca-b501-27f395eb73a5"},"vehicle_type_id":"4","last_reported":1705856780,"current_range_meters":20800,"station_id":"ce4bgth2rcd13ifvqch0","pricing_plan_id":"free"},{"bike_id":"bc5fa535-88b3-406b-bd14-afa0bf9eb036","system_id":"levelo_inurba_marseille","lat":43.317013,"lon":5.377627,"is_reserved":false,"is_disabled":false,"rental_uris":{"android":"levelo://app?vid=bc5fa535-88b3-406b-bd14-afa0bf9eb036","ios":"levelo://app?vid=bc5fa535-88b3-406b-bd14-afa0bf9eb036"},"vehicle_type_id":"4","last_reported":1705856780,"current_range_meters":4800,"station_id":"ce4bgth2rcd13ifvqch0","pricing_plan_id":"free"},{"bike_id":"12c26ea7-bf34-4d48-af42-41fcadc8a32d","system_id":"levelo_inurba_marseille","lat":43.317075,"lon":5.377367,"is_reserved":false,"is_disabled":false,"rental_uris":{"android":"levelo://app?vid=12c26ea7-bf34-4d48-af42-41fcadc8a32d","ios":"levelo://app?vid=12c26ea7-bf34-4d48-af42-41fcadc8a32d"},"vehicle_type_id":"4","last_reported":1705856780,"current_range_meters":29200,"station_id":"ce4bgth2rcd13ifvqch0","pricing_plan_id":"free"},{"bike_id":"6ebeedd7-2d43-4c4c-8ce3-3a6e7fb2d01e","system_id":"levelo_inurba_marseille","lat":43.317075,"lon":5.377367,"is_reserved":false,"is_disabled":false,"rental_uris":{"android":"levelo://app?vid=6ebeedd7-2d43-4c4c-8ce3-3a6e7fb2d01e","ios":"levelo://app?vid=6ebeedd7-2d43-4c4c-8ce3-3a6e7fb2d01e"},"vehicle_type_id":"4","last_reported":1705856780,"current_range_meters":29600,"station_id":"ce4bgth2rcd13ifvqch0","pricing_plan_id":"free"},{"bike_id":"602fe5e0-2b79-417c-a85b-e4cea8943f65","system_id":"levelo_inurba_marseille","lat":43.303046,"lon":5.368981,"is_reserved":false,"is_disabled":false,"rental_uris":{"android":"levelo://app?vid=602fe5e0-2b79-417c-a85b-e4cea8943f65","ios":"levelo://app?vid=602fe5e0-2b79-417c-a85b-e4cea8943f65"},"vehicle_type_id":"4","last_reported":1705856780,"current_range_meters":19200,"station_id":"ce4bgqh2rcd13ifvqc5g","pricing_plan_id":"free"},{"bike_id":"934d8baa-dbf4-49e6-8c21-0cecde64ff8d","system_id":"levelo_inurba_marseille","lat":43.308012,"lon":5.381511,"is_reserved":false,"is_disabled":false,"rental_uris":{"android":"levelo://app?vid=934d8baa-dbf4-49e6-8c21-0cecde64ff8d","ios":"levelo://app?vid=934d8baa-dbf4-49e6-8c21-0cecde64ff8d"},"vehicle_type_id":"4","last_reported":1705856780,"current_range_meters":8400,"station_id":"ce4bgt12rcd13ifvqce0","pricing_plan_id":"free"},{"bike_id":"09ae7c40-24e2-41a3-ab3a-b4ea83ebdc09","system_id":"levelo_inurba_marseille","lat":43.308012,"lon":5.381511,"is_reserved":false,"is_disabled":false,"rental_uris":{"android":"levelo://app?vid=09ae7c40-24e2-41a3-ab3a-b4ea83ebdc09","ios":"levelo://app?vid=09ae7c40-24e2-41a3-ab3a-b4ea83ebdc09"},"vehicle_type_id":"4","last_reported":1705856780,"current_range_meters":6400,"station_id":"ce4bgt12rcd13ifvqce0","pricing_plan_id":"free"},{"bike_id":"1947e696-0f5b-4909-9264-b27393c0e019","system_id":"levelo_inurba_marseille","lat":43.308012,"lon":5.381511,"is_reserved":false,"is_disabled":false,"rental_uris":{"android":"levelo://app?vid=1947e696-0f5b-4909-9264-b27393c0e019","ios":"levelo://app?vid=1947e696-0f5b-4909-9264-b27393c0e019"},"vehicle_type_id":"4","last_reported":1705856780,"current_range_meters":14800,"station_id":"ce4bgt12rcd13ifvqce0","pricing_plan_id":"free"},{"bike_id":"1ca8a1dd-8149-474a-825a-9648a86248aa","system_id":"levelo_inurba_marseille","lat":43.324771,"lon":5.36557,"is_reserved":false,"is_disabled":false,"rental_uris":{"android":"levelo://app?vid=1ca8a1dd-8149-474a-825a-9648a86248aa","ios":"levelo://app?vid=1ca8a1dd-8149-474a-825a-9648a86248aa"},"vehicle_type_id":"4","last_reported":1705856780,"current_range_meters":8400,"station_id":"ce4bhs12rcd13ifvqhvg","pricing_plan_id":"free"},{"bike_id":"45e53cc7-d61c-430f-b657-244f5655295a","system_id":"levelo_inurba_marseille","lat":43.324771,"lon":5.36557,"is_reserved":false,"is_disabled":false,"rental_uris":{"android":"levelo://app?vid=45e53cc7-d61c-430f-b657-244f5655295a","ios":"levelo://app?vid=45e53cc7-d61c-430f-b657-244f5655295a"},"vehicle_type_id":"4","last_reported":1705856780,"current_range_meters":7200,"station_id":"ce4bhs12rcd13ifvqhvg","pricing_plan_id":"free"},{"bike_id":"51a49e23-9a9d-4d3d-84ea-05c93c1254f0","system_id":"levelo_inurba_marseille","lat":43.30143,"lon":5.37413,"is_reserved":false,"is_disabled":false,"rental_uris":{"android":"levelo://app?vid=51a49e23-9a9d-4d3d-84ea-05c93c1254f0","ios":"levelo://app?vid=51a49e23-9a9d-4d3d-84ea-05c93c1254f0"},"vehicle_type_id":"4","last_reported":1705856780,"current_range_meters":19600,"station_id":"ce4bgs92rcd13ifvqcc0","pricing_plan_id":"free"},{"bike_id":"ad784774-e5d3-43f8-a57d-89707bddcea5","system_id":"levelo_inurba_marseille","lat":43.30272,"lon":5.37713,"is_reserved":false,"is_disabled":false,"rental_uris":{"android":"levelo://app?vid=ad784774-e5d3-43f8-a57d-89707bddcea5","ios":"levelo://app?vid=ad784774-e5d3-43f8-a57d-89707bddcea5"},"vehicle_type_id":"4","last_reported":1705856780,"current_range_meters":31200,"station_id":"","pricing_plan_id":"free"},{"bike_id":"ca84a045-b0e4-40fa-8762-ecee68e5d30e","system_id":"levelo_inurba_marseille","lat":43.301429,"lon":5.37413,"is_reserved":false,"is_disabled":false,"rental_uris":{"android":"levelo://app?vid=ca84a045-b0e4-40fa-8762-ecee68e5d30e","ios":"levelo://app?vid=ca84a045-b0e4-40fa-8762-ecee68e5d30e"},"vehicle_type_id":"4","last_reported":1705856780,"current_range_meters":11200,"station_id":"ce4bgs92rcd13ifvqcc0","pricing_plan_id":"free"},{"bike_id":"16dc70bb-c19b-49f8-8c12-4e6836392df7","system_id":"levelo_inurba_marseille","lat":43.301414,"lon":5.374164,"is_reserved":false,"is_disabled":false,"rental_uris":{"android":"levelo://app?vid=16dc70bb-c19b-49f8-8c12-4e6836392df7","ios":"levelo://app?vid=16dc70bb-c19b-49f8-8c12-4e6836392df7"},"vehicle_type_id":"4","last_reported":1705856780,"current_range_meters":11200,"station_id":"ce4bgs92rcd13ifvqcc0","pricing_plan_id":"free"},{"bike_id":"6c8981de-4a5d-4e63-9312-bd83e92d59b9","system_id":"levelo_inurba_marseille","lat":43.301429,"lon":5.37413,"is_reserved":false,"is_disabled":false,"rental_uris":{"android":"levelo://app?vid=6c8981de-4a5d-4e63-9312-bd83e92d59b9","ios":"levelo://app?vid=6c8981de-4a5d-4e63-9312-bd83e92d59b9"},"vehicle_type_id":"4","last_reported":1705856780,"current_range_meters":22000,"station_id":"ce4bgs92rcd13ifvqcc0","pricing_plan_id":"free"},{"bike_id":"a5605478-720f-48fe-b19d-580b9c358f06","system_id":"levelo_inurba_marseille","lat":43.319935,"lon":5.381699,"is_reserved":false,"is_disabled":false,"rental_uris":{"android":"levelo://app?vid=a5605478-720f-48fe-b19d-580b9c358f06","ios":"levelo://app?vid=a5605478-720f-48fe-b19d-580b9c358f06"},"vehicle_type_id":"4","last_reported":1705856780,"current_range_meters":22400,"station_id":"ce4bhr12rcd13ifvqhpg","pricing_plan_id":"free"},{"bike_id":"f0e6f343-5d11-4ccd-b521-fba2ec1496b9","system_id":"levelo_inurba_marseille","lat":43.319935,"lon":5.381699,"is_reserved":false,"is_disabled":false,"rental_uris":{"android":"levelo://app?vid=f0e6f343-5d11-4ccd-b521-fba2ec1496b9","ios":"levelo://app?vid=f0e6f343-5d11-4ccd-b521-fba2ec1496b9"},"vehicle_type_id":"4","last_reported":1705856780,"current_range_meters":5200,"station_id":"ce4bhr12rcd13ifvqhpg","pricing_plan_id":"free"},{"bike_id":"b56b44a8-4957-45a0-ab05-24598deb6b43","system_id":"levelo_inurba_marseille","lat":43.31996,"lon":5.38147,"is_reserved":false,"is_disabled":false,"rental_uris":{"android":"levelo://app?vid=b56b44a8-4957-45a0-ab05-24598deb6b43","ios":"levelo://app?vid=b56b44a8-4957-45a0-ab05-24598deb6b43"},"vehicle_type_id":"4","last_reported":1705856780,"current_range_meters":28800,"station_id":"ce4bhr12rcd13ifvqhpg","pricing_plan_id":"free"},{"bike_id":"677ce82c-cb12-4db9-beea-aa440699ec62","system_id":"levelo_inurba_marseille","lat":43.319935,"lon":5.381699,"is_reserved":false,"is_disabled":false,"rental_uris":{"android":"levelo://app?vid=677ce82c-cb12-4db9-beea-aa440699ec62","ios":"levelo://app?vid=677ce82c-cb12-4db9-beea-aa440699ec62"},"vehicle_type_id":"4","last_reported":1705856780,"current_range_meters":0,"station_id":"ce4bhr12rcd13ifvqhpg","pricing_plan_id":"free"},{"bike_id":"186cb614-f469-4264-9084-8ab2eca54b38","system_id":"levelo_inurba_marseille","lat":43.299755,"lon":5.365466,"is_reserved":false,"is_disabled":false,"rental_uris":{"android":"levelo://app?vid=186cb614-f469-4264-9084-8ab2eca54b38","ios":"levelo://app?vid=186cb614-f469-4264-9084-8ab2eca54b38"},"vehicle_type_id":"4","last_reported":1705856780,"current_range_meters":13200,"station_id":"ce4bgm92rcd13ifvqbr0","pricing_plan_id":"free"},{"bike_id":"db439171-e5b2-4f03-b1ea-dd41c4b45fff","system_id":"levelo_inurba_marseille","lat":43.299724,"lon":5.371829,"is_reserved":false,"is_disabled":false,"rental_uris":{"android":"levelo://app?vid=db439171-e5b2-4f03-b1ea-dd41c4b45fff","ios":"levelo://app?vid=db439171-e5b2-4f03-b1ea-dd41c4b45fff"},"vehicle_type_id":"4","last_reported":1705856780,"current_range_meters":21600,"station_id":"ce4bgr92rcd13ifvqc7g","pricing_plan_id":"free"},{"bike_id":"05b4b48a-87cc-4ec8-b79e-6144be1149c6","system_id":"levelo_inurba_marseille","lat":43.299209,"lon":5.365547,"is_reserved":false,"is_disabled":false,"rental_uris":{"android":"levelo://app?vid=05b4b48a-87cc-4ec8-b79e-6144be1149c6","ios":"levelo://app?vid=05b4b48a-87cc-4ec8-b79e-6144be1149c6"},"vehicle_type_id":"4","last_reported":1705856780,"current_range_meters":24400,"station_id":"ce4bgm92rcd13ifvqbr0","pricing_plan_id":"free"},{"bike_id":"4bafe7d9-35a7-4f43-844c-3020c9ea1337","system_id":"levelo_inurba_marseille","lat":43.299724,"lon":5.371829,"is_reserved":false,"is_disabled":false,"rental_uris":{"android":"levelo://app?vid=4bafe7d9-35a7-4f43-844c-3020c9ea1337","ios":"levelo://app?vid=4bafe7d9-35a7-4f43-844c-3020c9ea1337"},"vehicle_type_id":"4","last_reported":1705856780,"current_range_meters":28400,"station_id":"ce4bgr92rcd13ifvqc7g","pricing_plan_id":"free"},{"bike_id":"08f96683-caba-44ff-a57e-f1822aa89e29","system_id":"levelo_inurba_marseille","lat":43.299724,"lon":5.371829,"is_reserved":false,"is_disabled":false,"rental_uris":{"android":"levelo://app?vid=08f96683-caba-44ff-a57e-f1822aa89e29","ios":"levelo://app?vid=08f96683-caba-44ff-a57e-f1822aa89e29"},"vehicle_type_id":"4","last_reported":1705856780,"current_range_meters":1200,"station_id":"ce4bgr92rcd13ifvqc7g","pricing_plan_id":"free"},{"bike_id":"41a3f096-f0cd-4ee7-9869-995a67c52e7e","system_id":"levelo_inurba_marseille","lat":43.29931,"lon":5.3654,"is_reserved":false,"is_disabled":false,"rental_uris":{"android":"levelo://app?vid=41a3f096-f0cd-4ee7-9869-995a67c52e7e","ios":"levelo://app?vid=41a3f096-f0cd-4ee7-9869-995a67c52e7e"},"vehicle_type_id":"4","last_reported":1705856780,"current_range_meters":21600,"station_id":"ce4bgm92rcd13ifvqbr0","pricing_plan_id":"free"},{"bike_id":"e1681293-3689-4afa-a5c3-bf6ba7a9b851","system_id":"levelo_inurba_marseille","lat":43.299315,"lon":5.365214,"is_reserved":false,"is_disabled":false,"rental_uris":{"android":"levelo://app?vid=e1681293-3689-4afa-a5c3-bf6ba7a9b851","ios":"levelo://app?vid=e1681293-3689-4afa-a5c3-bf6ba7a9b851"},"vehicle_type_id":"4","last_reported":1705856780,"current_range_meters":28400,"station_id":"","pricing_plan_id":"free"},{"bike_id":"cb112531-17bb-43d4-b85c-c04ad301534d","system_id":"levelo_inurba_marseille","lat":43.299222,"lon":5.365554,"is_reserved":false,"is_disabled":false,"rental_uris":{"android":"levelo://app?vid=cb112531-17bb-43d4-b85c-c04ad301534d","ios":"levelo://app?vid=cb112531-17bb-43d4-b85c-c04ad301534d"},"vehicle_type_id":"4","last_reported":1705856780,"current_range_meters":29600,"station_id":"ce4bgm92rcd13ifvqbr0","pricing_plan_id":"free"},{"bike_id":"4113987b-853d-4b44-818d-0acfee44ee53","system_id":"levelo_inurba_marseille","lat":43.299222,"lon":5.365554,"is_reserved":false,"is_disabled":false,"rental_uris":{"android":"levelo://app?vid=4113987b-853d-4b44-818d-0acfee44ee53","ios":"levelo://app?vid=4113987b-853d-4b44-818d-0acfee44ee53"},"vehicle_type_id":"4","last_reported":1705856780,"current_range_meters":12400,"station_id":"ce4bgm92rcd13ifvqbr0","pricing_plan_id":"free"},{"bike_id":"1b77187a-a2ce-4a26-ae11-1f7edcb034fd","system_id":"levelo_inurba_marseille","lat":43.299209,"lon":5.365547,"is_reserved":false,"is_disabled":false,"rental_uris":{"android":"levelo://app?vid=1b77187a-a2ce-4a26-ae11-1f7edcb034fd","ios":"levelo://app?vid=1b77187a-a2ce-4a26-ae11-1f7edcb034fd"},"vehicle_type_id":"4","last_reported":1705856780,"current_range_meters":23600,"station_id":"ce4bgm92rcd13ifvqbr0","pricing_plan_id":"free"},{"bike_id":"c453203c-0ef4-4e2f-b480-ebdc9fdd8735","system_id":"levelo_inurba_marseille","lat":43.299197,"lon":5.365273,"is_reserved":false,"is_disabled":false,"rental_uris":{"android":"levelo://app?vid=c453203c-0ef4-4e2f-b480-ebdc9fdd8735","ios":"levelo://app?vid=c453203c-0ef4-4e2f-b480-ebdc9fdd8735"},"vehicle_type_id":"4","last_reported":1705856780,"current_range_meters":31200,"station_id":"ce4bgm92rcd13ifvqbr0","pricing_plan_id":"free"},{"bike_id":"48019d45-6e44-4ac4-bf7a-c8a37e851565","system_id":"levelo_inurba_marseille","lat":43.305364,"lon":5.384119,"is_reserved":false,"is_disabled":false,"rental_uris":{"android":"levelo://app?vid=48019d45-6e44-4ac4-bf7a-c8a37e851565","ios":"levelo://app?vid=48019d45-6e44-4ac4-bf7a-c8a37e851565"},"vehicle_type_id":"4","last_reported":1705856780,"current_range_meters":1600,"station_id":"ce4bgg92rcd13ifvqb30","pricing_plan_id":"free"},{"bike_id":"d93f0771-8cbc-4784-b35e-a38fc68878b3","system_id":"levelo_inurba_marseille","lat":43.305364,"lon":5.384119,"is_reserved":false,"is_disabled":false,"rental_uris":{"android":"levelo://app?vid=d93f0771-8cbc-4784-b35e-a38fc68878b3","ios":"levelo://app?vid=d93f0771-8cbc-4784-b35e-a38fc68878b3"},"vehicle_type_id":"4","last_reported":1705856780,"current_range_meters":8400,"station_id":"ce4bgg92rcd13ifvqb30","pricing_plan_id":"free"},{"bike_id":"298e52cb-df99-429e-9465-684efda38851","system_id":"levelo_inurba_marseille","lat":43.305364,"lon":5.384119,"is_reserved":false,"is_disabled":false,"rental_uris":{"android":"levelo://app?vid=298e52cb-df99-429e-9465-684efda38851","ios":"levelo://app?vid=298e52cb-df99-429e-9465-684efda38851"},"vehicle_type_id":"4","last_reported":1705856780,"current_range_meters":12800,"station_id":"ce4bgg92rcd13ifvqb30","pricing_plan_id":"free"},{"bike_id":"dd42d167-e199-4bee-acad-bb0622355a00","system_id":"levelo_inurba_marseille","lat":43.305364,"lon":5.384119,"is_reserved":false,"is_disabled":false,"rental_uris":{"android":"levelo://app?vid=dd42d167-e199-4bee-acad-bb0622355a00","ios":"levelo://app?vid=dd42d167-e199-4bee-acad-bb0622355a00"},"vehicle_type_id":"4","last_reported":1705856780,"current_range_meters":19600,"station_id":"ce4bgg92rcd13ifvqb30","pricing_plan_id":"free"},{"bike_id":"ca4044ee-47ae-470f-a567-3117c58ac9ae","system_id":"levelo_inurba_marseille","lat":43.299243,"lon":5.374807,"is_reserved":false,"is_disabled":false,"rental_uris":{"android":"levelo://app?vid=ca4044ee-47ae-470f-a567-3117c58ac9ae","ios":"levelo://app?vid=ca4044ee-47ae-470f-a567-3117c58ac9ae"},"vehicle_type_id":"4","last_reported":1705856780,"current_range_meters":6000,"station_id":"ce4bgjh2rcd13ifvqbg0","pricing_plan_id":"free"},{"bike_id":"2e2d4140-13dc-4790-b8cc-ed5ea07e396a","system_id":"levelo_inurba_marseille","lat":43.299243,"lon":5.374807,"is_reserved":false,"is_disabled":false,"rental_uris":{"android":"levelo://app?vid=2e2d4140-13dc-4790-b8cc-ed5ea07e396a","ios":"levelo://app?vid=2e2d4140-13dc-4790-b8cc-ed5ea07e396a"},"vehicle_type_id":"4","last_reported":1705856780,"current_range_meters":12800,"station_id":"ce4bgjh2rcd13ifvqbg0","pricing_plan_id":"free"},{"bike_id":"f9916cb2-e4ac-4a8c-9514-4aa292454431","system_id":"levelo_inurba_marseille","lat":43.299243,"lon":5.37481,"is_reserved":false,"is_disabled":false,"rental_uris":{"android":"levelo://app?vid=f9916cb2-e4ac-4a8c-9514-4aa292454431","ios":"levelo://app?vid=f9916cb2-e4ac-4a8c-9514-4aa292454431"},"vehicle_type_id":"4","last_reported":1705856780,"current_range_meters":14800,"station_id":"ce4bgjh2rcd13ifvqbg0","pricing_plan_id":"free"},{"bike_id":"3e82df4f-787f-415f-8763-2448bff02e9c","system_id":"levelo_inurba_marseille","lat":43.311722,"lon":5.387247,"is_reserved":false,"is_disabled":false,"rental_uris":{"android":"levelo://app?vid=3e82df4f-787f-415f-8763-2448bff02e9c","ios":"levelo://app?vid=3e82df4f-787f-415f-8763-2448bff02e9c"},"vehicle_type_id":"4","last_reported":1705856780,"current_range_meters":18400,"station_id":"ce4bgv12rcd13ifvqcp0","pricing_plan_id":"free"},{"bike_id":"c2f3330e-52f5-46f5-ae94-4cae155e97b5","system_id":"levelo_inurba_marseille","lat":43.299243,"lon":5.37481,"is_reserved":false,"is_disabled":false,"rental_uris":{"android":"levelo://app?vid=c2f3330e-52f5-46f5-ae94-4cae155e97b5","ios":"levelo://app?vid=c2f3330e-52f5-46f5-ae94-4cae155e97b5"},"vehicle_type_id":"4","last_reported":1705856780,"current_range_meters":14000,"station_id":"ce4bgjh2rcd13ifvqbg0","pricing_plan_id":"free"},{"bike_id":"f0df0d6c-c167-4405-b4d7-9245d1b1b1b8","system_id":"levelo_inurba_marseille","lat":43.311722,"lon":5.387247,"is_reserved":false,"is_disabled":false,"rental_uris":{"android":"levelo://app?vid=f0df0d6c-c167-4405-b4d7-9245d1b1b1b8","ios":"levelo://app?vid=f0df0d6c-c167-4405-b4d7-9245d1b1b1b8"},"vehicle_type_id":"4","last_reported":1705856780,"current_range_meters":16000,"station_id":"ce4bgv12rcd13ifvqcp0","pricing_plan_id":"free"},{"bike_id":"8ebdece9-edaf-4c19-9e64-f256c5c462ac","system_id":"levelo_inurba_marseille","lat":43.299243,"lon":5.37481,"is_reserved":false,"is_disabled":false,"rental_uris":{"android":"levelo://app?vid=8ebdece9-edaf-4c19-9e64-f256c5c462ac","ios":"levelo://app?vid=8ebdece9-edaf-4c19-9e64-f256c5c462ac"},"vehicle_type_id":"4","last_reported":1705856780,"current_range_meters":5200,"station_id":"ce4bgjh2rcd13ifvqbg0","pricing_plan_id":"free"},{"bike_id":"e49ac95d-546d-4297-937b-0e03ad58df78","system_id":"levelo_inurba_marseille","lat":43.299243,"lon":5.374807,"is_reserved":false,"is_disabled":false,"rental_uris":{"android":"levelo://app?vid=e49ac95d-546d-4297-937b-0e03ad58df78","ios":"levelo://app?vid=e49ac95d-546d-4297-937b-0e03ad58df78"},"vehicle_type_id":"4","last_reported":1705856780,"current_range_meters":31200,"station_id":"ce4bgjh2rcd13ifvqbg0","pricing_plan_id":"free"},{"bike_id":"bad2db30-98a3-4e90-b500-49d7be5c00e2","system_id":"levelo_inurba_marseille","lat":43.311722,"lon":5.387247,"is_reserved":false,"is_disabled":false,"rental_uris":{"android":"levelo://app?vid=bad2db30-98a3-4e90-b500-49d7be5c00e2","ios":"levelo://app?vid=bad2db30-98a3-4e90-b500-49d7be5c00e2"},"vehicle_type_id":"4","last_reported":1705856780,"current_range_meters":9600,"station_id":"ce4bgv12rcd13ifvqcp0","pricing_plan_id":"free"},{"bike_id":"033dc4b7-16c8-413a-bdb6-b518d3fed1fc","system_id":"levelo_inurba_marseille","lat":43.311722,"lon":5.387247,"is_reserved":false,"is_disabled":false,"rental_uris":{"android":"levelo://app?vid=033dc4b7-16c8-413a-bdb6-b518d3fed1fc","ios":"levelo://app?vid=033dc4b7-16c8-413a-bdb6-b518d3fed1fc"},"vehicle_type_id":"4","last_reported":1705856780,"current_range_meters":15200,"station_id":"ce4bgv12rcd13ifvqcp0","pricing_plan_id":"free"},{"bike_id":"40636a00-f5b2-415a-9b39-7a27f677df20","system_id":"levelo_inurba_marseille","lat":43.311722,"lon":5.387247,"is_reserved":false,"is_disabled":false,"rental_uris":{"android":"levelo://app?vid=40636a00-f5b2-415a-9b39-7a27f677df20","ios":"levelo://app?vid=40636a00-f5b2-415a-9b39-7a27f677df20"},"vehicle_type_id":"4","last_reported":1705856780,"current_range_meters":22400,"station_id":"ce4bgv12rcd13ifvqcp0","pricing_plan_id":"free"},{"bike_id":"f01cb6e0-4cd7-4241-8a8d-c7fd21e7ebc0","system_id":"levelo_inurba_marseille","lat":43.297794,"lon":5.370888,"is_reserved":false,"is_disabled":false,"rental_uris":{"android":"levelo://app?vid=f01cb6e0-4cd7-4241-8a8d-c7fd21e7ebc0","ios":"levelo://app?vid=f01cb6e0-4cd7-4241-8a8d-c7fd21e7ebc0"},"vehicle_type_id":"4","last_reported":1705856780,"current_range_meters":24800,"station_id":"ce4bgop2rcd13ifvqc1g","pricing_plan_id":"free"},{"bike_id":"c3ab95e9-b05f-4b19-b4ee-7abea1f52c27","system_id":"levelo_inurba_marseille","lat":43.322872,"lon":5.382756,"is_reserved":false,"is_disabled":false,"rental_uris":{"android":"levelo://app?vid=c3ab95e9-b05f-4b19-b4ee-7abea1f52c27","ios":"levelo://app?vid=c3ab95e9-b05f-4b19-b4ee-7abea1f52c27"},"vehicle_type_id":"4","last_reported":1705856780,"current_range_meters":31200,"station_id":"ce4bhr12rcd13ifvqhqg","pricing_plan_id":"free"},{"bike_id":"d1da8d70-f4c2-4064-bac5-ba3f328c4021","system_id":"levelo_inurba_marseille","lat":43.322859,"lon":5.3827,"is_reserved":false,"is_disabled":false,"rental_uris":{"android":"levelo://app?vid=d1da8d70-f4c2-4064-bac5-ba3f328c4021","ios":"levelo://app?vid=d1da8d70-f4c2-4064-bac5-ba3f328c4021"},"vehicle_type_id":"4","last_reported":1705856780,"current_range_meters":13200,"station_id":"ce4bhr12rcd13ifvqhqg","pricing_plan_id":"free"},{"bike_id":"ea0178f3-2c6b-4af6-b062-91b0b8dde1df","system_id":"levelo_inurba_marseille","lat":43.328219,"lon":5.366788,"is_reserved":false,"is_disabled":false,"rental_uris":{"android":"levelo://app?vid=ea0178f3-2c6b-4af6-b062-91b0b8dde1df","ios":"levelo://app?vid=ea0178f3-2c6b-4af6-b062-91b0b8dde1df"},"vehicle_type_id":"4","last_reported":1705856780,"current_range_meters":19200,"station_id":"ce4bhs92rcd13ifvqi0g","pricing_plan_id":"free"},{"bike_id":"8c76cce8-dc76-403d-a9b8-0a976afb5aaf","system_id":"levelo_inurba_marseille","lat":43.328226,"lon":5.366759,"is_reserved":false,"is_disabled":false,"rental_uris":{"android":"levelo://app?vid=8c76cce8-dc76-403d-a9b8-0a976afb5aaf","ios":"levelo://app?vid=8c76cce8-dc76-403d-a9b8-0a976afb5aaf"},"vehicle_type_id":"4","last_reported":1705856780,"current_range_meters":20800,"station_id":"ce4bhs92rcd13ifvqi0g","pricing_plan_id":"free"},{"bike_id":"85cedcff-9e9a-415d-8415-195178ea3cb7","system_id":"levelo_inurba_marseille","lat":43.328237,"lon":5.366781,"is_reserved":false,"is_disabled":false,"rental_uris":{"android":"levelo://app?vid=85cedcff-9e9a-415d-8415-195178ea3cb7","ios":"levelo://app?vid=85cedcff-9e9a-415d-8415-195178ea3cb7"},"vehicle_type_id":"4","last_reported":1705856780,"current_range_meters":21200,"station_id":"ce4bhs92rcd13ifvqi0g","pricing_plan_id":"free"},{"bike_id":"572c30ca-2698-4ebb-9720-28d9ee8291d9","system_id":"levelo_inurba_marseille","lat":43.32824,"lon":5.36678,"is_reserved":false,"is_disabled":false,"rental_uris":{"android":"levelo://app?vid=572c30ca-2698-4ebb-9720-28d9ee8291d9","ios":"levelo://app?vid=572c30ca-2698-4ebb-9720-28d9ee8291d9"},"vehicle_type_id":"4","last_reported":1705856780,"current_range_meters":25600,"station_id":"ce4bhs92rcd13ifvqi0g","pricing_plan_id":"free"},{"bike_id":"a1372ffa-3076-49e1-851b-6ec0ac400a60","system_id":"levelo_inurba_marseille","lat":43.32825,"lon":5.36688,"is_reserved":false,"is_disabled":false,"rental_uris":{"android":"levelo://app?vid=a1372ffa-3076-49e1-851b-6ec0ac400a60","ios":"levelo://app?vid=a1372ffa-3076-49e1-851b-6ec0ac400a60"},"vehicle_type_id":"4","last_reported":1705856780,"current_range_meters":28400,"station_id":"ce4bhs92rcd13ifvqi0g","pricing_plan_id":"free"},{"bike_id":"289d6ba1-3edf-4a84-8210-90b472d195a5","system_id":"levelo_inurba_marseille","lat":43.32826,"lon":5.36677,"is_reserved":false,"is_disabled":false,"rental_uris":{"android":"levelo://app?vid=289d6ba1-3edf-4a84-8210-90b472d195a5","ios":"levelo://app?vid=289d6ba1-3edf-4a84-8210-90b472d195a5"},"vehicle_type_id":"4","last_reported":1705856780,"current_range_meters":25600,"station_id":"ce4bhs92rcd13ifvqi0g","pricing_plan_id":"free"},{"bike_id":"447532c0-56ca-46ac-9000-fea47d81b433","system_id":"levelo_inurba_marseille","lat":43.32827,"lon":5.36681,"is_reserved":false,"is_disabled":false,"rental_uris":{"android":"levelo://app?vid=447532c0-56ca-46ac-9000-fea47d81b433","ios":"levelo://app?vid=447532c0-56ca-46ac-9000-fea47d81b433"},"vehicle_type_id":"4","last_reported":1705856780,"current_range_meters":9600,"station_id":"ce4bhs92rcd13ifvqi0g","pricing_plan_id":"free"},{"bike_id":"c72c6ea8-4778-4d06-aa52-7aa60ab6c6de","system_id":"levelo_inurba_marseille","lat":43.32827,"lon":5.36677,"is_reserved":false,"is_disabled":false,"rental_uris":{"android":"levelo://app?vid=c72c6ea8-4778-4d06-aa52-7aa60ab6c6de","ios":"levelo://app?vid=c72c6ea8-4778-4d06-aa52-7aa60ab6c6de"},"vehicle_type_id":"4","last_reported":1705856780,"current_range_meters":10400,"station_id":"ce4bhs92rcd13ifvqi0g","pricing_plan_id":"free"},{"bike_id":"fab9598c-9b3b-47db-b513-0d4024b6aa91","system_id":"levelo_inurba_marseille","lat":43.32828,"lon":5.36686,"is_reserved":false,"is_disabled":false,"rental_uris":{"android":"levelo://app?vid=fab9598c-9b3b-47db-b513-0d4024b6aa91","ios":"levelo://app?vid=fab9598c-9b3b-47db-b513-0d4024b6aa91"},"vehicle_type_id":"4","last_reported":1705856780,"current_range_meters":0,"station_id":"ce4bhs92rcd13ifvqi0g","pricing_plan_id":"free"},{"bike_id":"6da9db5a-42ba-4fa8-afc9-4fdbb45498c1","system_id":"levelo_inurba_marseille","lat":43.32828,"lon":5.3668,"is_reserved":false,"is_disabled":false,"rental_uris":{"android":"levelo://app?vid=6da9db5a-42ba-4fa8-afc9-4fdbb45498c1","ios":"levelo://app?vid=6da9db5a-42ba-4fa8-afc9-4fdbb45498c1"},"vehicle_type_id":"4","last_reported":1705856780,"current_range_meters":10800,"station_id":"ce4bhs92rcd13ifvqi0g","pricing_plan_id":"free"},{"bike_id":"36478f2b-b1fb-49bb-9075-c7b7b66d5e11","system_id":"levelo_inurba_marseille","lat":43.32832,"lon":5.36684,"is_reserved":false,"is_disabled":false,"rental_uris":{"android":"levelo://app?vid=36478f2b-b1fb-49bb-9075-c7b7b66d5e11","ios":"levelo://app?vid=36478f2b-b1fb-49bb-9075-c7b7b66d5e11"},"vehicle_type_id":"4","last_reported":1705856780,"current_range_meters":8400,"station_id":"ce4bhs92rcd13ifvqi0g","pricing_plan_id":"free"},{"bike_id":"101b1725-b0d3-4e75-95a0-14ba67a19be4","system_id":"levelo_inurba_marseille","lat":43.297163,"lon":5.365866,"is_reserved":false,"is_disabled":false,"rental_uris":{"android":"levelo://app?vid=101b1725-b0d3-4e75-95a0-14ba67a19be4","ios":"levelo://app?vid=101b1725-b0d3-4e75-95a0-14ba67a19be4"},"vehicle_type_id":"4","last_reported":1705856780,"current_range_meters":10000,"station_id":"ce4bgn12rcd13ifvqbt0","pricing_plan_id":"free"},{"bike_id":"5fe45976-b092-4ff8-b563-4011f6e24dc4","system_id":"levelo_inurba_marseille","lat":43.297163,"lon":5.365866,"is_reserved":false,"is_disabled":false,"rental_uris":{"android":"levelo://app?vid=5fe45976-b092-4ff8-b563-4011f6e24dc4","ios":"levelo://app?vid=5fe45976-b092-4ff8-b563-4011f6e24dc4"},"vehicle_type_id":"4","last_reported":1705856780,"current_range_meters":26800,"station_id":"ce4bgn12rcd13ifvqbt0","pricing_plan_id":"free"},{"bike_id":"38082c03-fac1-44d3-a79f-5142b4a113a9","system_id":"levelo_inurba_marseille","lat":43.328373,"lon":5.366902,"is_reserved":false,"is_disabled":false,"rental_uris":{"android":"levelo://app?vid=38082c03-fac1-44d3-a79f-5142b4a113a9","ios":"levelo://app?vid=38082c03-fac1-44d3-a79f-5142b4a113a9"},"vehicle_type_id":"4","last_reported":1705856780,"current_range_meters":22800,"station_id":"ce4bhs92rcd13ifvqi0g","pricing_plan_id":"free"},{"bike_id":"3c7d0715-466a-4fce-b1e4-f3fbe1a26cd2","system_id":"levelo_inurba_marseille","lat":43.297163,"lon":5.365866,"is_reserved":false,"is_disabled":false,"rental_uris":{"android":"levelo://app?vid=3c7d0715-466a-4fce-b1e4-f3fbe1a26cd2","ios":"levelo://app?vid=3c7d0715-466a-4fce-b1e4-f3fbe1a26cd2"},"vehicle_type_id":"4","last_reported":1705856780,"current_range_meters":15200,"station_id":"ce4bgn12rcd13ifvqbt0","pricing_plan_id":"free"},{"bike_id":"48897add-904d-47cb-a3bc-1170264204c8","system_id":"levelo_inurba_marseille","lat":43.297163,"lon":5.365866,"is_reserved":false,"is_disabled":false,"rental_uris":{"android":"levelo://app?vid=48897add-904d-47cb-a3bc-1170264204c8","ios":"levelo://app?vid=48897add-904d-47cb-a3bc-1170264204c8"},"vehicle_type_id":"4","last_reported":1705856780,"current_range_meters":14400,"station_id":"ce4bgn12rcd13ifvqbt0","pricing_plan_id":"free"},{"bike_id":"fd178aa1-7a70-4e54-9db4-63feba70fec5","system_id":"levelo_inurba_marseille","lat":43.297163,"lon":5.365866,"is_reserved":false,"is_disabled":false,"rental_uris":{"android":"levelo://app?vid=fd178aa1-7a70-4e54-9db4-63feba70fec5","ios":"levelo://app?vid=fd178aa1-7a70-4e54-9db4-63feba70fec5"},"vehicle_type_id":"4","last_reported":1705856780,"current_range_meters":16800,"station_id":"ce4bgn12rcd13ifvqbt0","pricing_plan_id":"free"},{"bike_id":"1d5e9ab0-02b7-466c-b421-d22189cde29e","system_id":"levelo_inurba_marseille","lat":43.297163,"lon":5.365866,"is_reserved":false,"is_disabled":false,"rental_uris":{"android":"levelo://app?vid=1d5e9ab0-02b7-466c-b421-d22189cde29e","ios":"levelo://app?vid=1d5e9ab0-02b7-466c-b421-d22189cde29e"},"vehicle_type_id":"4","last_reported":1705856780,"current_range_meters":28000,"station_id":"ce4bgn12rcd13ifvqbt0","pricing_plan_id":"free"},{"bike_id":"57a3deac-4b87-4154-a6b3-d876938a5117","system_id":"levelo_inurba_marseille","lat":43.315024,"lon":5.389414,"is_reserved":false,"is_disabled":false,"rental_uris":{"android":"levelo://app?vid=57a3deac-4b87-4154-a6b3-d876938a5117","ios":"levelo://app?vid=57a3deac-4b87-4154-a6b3-d876938a5117"},"vehicle_type_id":"4","last_reported":1705856780,"current_range_meters":25600,"station_id":"","pricing_plan_id":"free"},{"bike_id":"43ce4802-7931-487e-9f5c-f811d996493a","system_id":"levelo_inurba_marseille","lat":43.32852,"lon":5.37484,"is_reserved":false,"is_disabled":false,"rental_uris":{"android":"levelo://app?vid=43ce4802-7931-487e-9f5c-f811d996493a","ios":"levelo://app?vid=43ce4802-7931-487e-9f5c-f811d996493a"},"vehicle_type_id":"4","last_reported":1705856780,"current_range_meters":28800,"station_id":"","pricing_plan_id":"free"},{"bike_id":"6fe21010-1988-493d-859d-ba3e80ec4a21","system_id":"levelo_inurba_marseille","lat":43.29573,"lon":5.367355,"is_reserved":false,"is_disabled":false,"rental_uris":{"android":"levelo://app?vid=6fe21010-1988-493d-859d-ba3e80ec4a21","ios":"levelo://app?vid=6fe21010-1988-493d-859d-ba3e80ec4a21"},"vehicle_type_id":"4","last_reported":1705856780,"current_range_meters":0,"station_id":"ce4bgph2rcd13ifvqc2g","pricing_plan_id":"free"},{"bike_id":"1e37f13c-a5b0-4bf6-90a0-65756099eee0","system_id":"levelo_inurba_marseille","lat":43.29582,"lon":5.36747,"is_reserved":false,"is_disabled":false,"rental_uris":{"android":"levelo://app?vid=1e37f13c-a5b0-4bf6-90a0-65756099eee0","ios":"levelo://app?vid=1e37f13c-a5b0-4bf6-90a0-65756099eee0"},"vehicle_type_id":"4","last_reported":1705856780,"current_range_meters":0,"station_id":"ce4bgph2rcd13ifvqc2g","pricing_plan_id":"free"},{"bike_id":"6c29d6c7-864b-404d-a9de-ab34fb358996","system_id":"levelo_inurba_marseille","lat":43.295825,"lon":5.367753,"is_reserved":false,"is_disabled":false,"rental_uris":{"android":"levelo://app?vid=6c29d6c7-864b-404d-a9de-ab34fb358996","ios":"levelo://app?vid=6c29d6c7-864b-404d-a9de-ab34fb358996"},"vehicle_type_id":"4","last_reported":1705856780,"current_range_meters":25200,"station_id":"","pricing_plan_id":"free"},{"bike_id":"9bbe6ce1-8ad5-4abe-bdf2-512945cc0cb6","system_id":"levelo_inurba_marseille","lat":43.296131,"lon":5.370773,"is_reserved":false,"is_disabled":false,"rental_uris":{"android":"levelo://app?vid=9bbe6ce1-8ad5-4abe-bdf2-512945cc0cb6","ios":"levelo://app?vid=9bbe6ce1-8ad5-4abe-bdf2-512945cc0cb6"},"vehicle_type_id":"4","last_reported":1705856780,"current_range_meters":23600,"station_id":"ce4bgnh2rcd13ifvqc0g","pricing_plan_id":"free"},{"bike_id":"f4a40503-ccfe-48bd-8480-f8d5139a17a0","system_id":"levelo_inurba_marseille","lat":43.299028,"lon":5.381509,"is_reserved":false,"is_disabled":false,"rental_uris":{"android":"levelo://app?vid=f4a40503-ccfe-48bd-8480-f8d5139a17a0","ios":"levelo://app?vid=f4a40503-ccfe-48bd-8480-f8d5139a17a0"},"vehicle_type_id":"4","last_reported":1705856780,"current_range_meters":27200,"station_id":"ce4bgj12rcd13ifvqbc0","pricing_plan_id":"free"},{"bike_id":"14a4d9b1-71be-4c55-816d-5a57e5d6012d","system_id":"levelo_inurba_marseille","lat":43.299028,"lon":5.381509,"is_reserved":false,"is_disabled":false,"rental_uris":{"android":"levelo://app?vid=14a4d9b1-71be-4c55-816d-5a57e5d6012d","ios":"levelo://app?vid=14a4d9b1-71be-4c55-816d-5a57e5d6012d"},"vehicle_type_id":"4","last_reported":1705856780,"current_range_meters":0,"station_id":"ce4bgj12rcd13ifvqbc0","pricing_plan_id":"free"},{"bike_id":"346b58ba-0cd5-479c-b561-41057597879f","system_id":"levelo_inurba_marseille","lat":43.299028,"lon":5.381509,"is_reserved":false,"is_disabled":false,"rental_uris":{"android":"levelo://app?vid=346b58ba-0cd5-479c-b561-41057597879f","ios":"levelo://app?vid=346b58ba-0cd5-479c-b561-41057597879f"},"vehicle_type_id":"4","last_reported":1705856780,"current_range_meters":24000,"station_id":"ce4bgj12rcd13ifvqbc0","pricing_plan_id":"free"},{"bike_id":"342593bb-a79a-47ab-ad2b-1d187c3db03d","system_id":"levelo_inurba_marseille","lat":43.299028,"lon":5.381509,"is_reserved":false,"is_disabled":false,"rental_uris":{"android":"levelo://app?vid=342593bb-a79a-47ab-ad2b-1d187c3db03d","ios":"levelo://app?vid=342593bb-a79a-47ab-ad2b-1d187c3db03d"},"vehicle_type_id":"4","last_reported":1705856780,"current_range_meters":24400,"station_id":"ce4bgj12rcd13ifvqbc0","pricing_plan_id":"free"},{"bike_id":"eea2f6ac-e2bf-4986-b5f2-037c93fbb906","system_id":"levelo_inurba_marseille","lat":43.309589,"lon":5.390258,"is_reserved":false,"is_disabled":false,"rental_uris":{"android":"levelo://app?vid=eea2f6ac-e2bf-4986-b5f2-037c93fbb906","ios":"levelo://app?vid=eea2f6ac-e2bf-4986-b5f2-037c93fbb906"},"vehicle_type_id":"4","last_reported":1705856780,"current_range_meters":14000,"station_id":"ce4bgup2rcd13ifvqco0","pricing_plan_id":"free"},{"bike_id":"f9dc5cce-e3ae-491a-b782-01aa7a3d3afd","system_id":"levelo_inurba_marseille","lat":43.317557,"lon":5.390173,"is_reserved":false,"is_disabled":false,"rental_uris":{"android":"levelo://app?vid=f9dc5cce-e3ae-491a-b782-01aa7a3d3afd","ios":"levelo://app?vid=f9dc5cce-e3ae-491a-b782-01aa7a3d3afd"},"vehicle_type_id":"4","last_reported":1705856780,"current_range_meters":31200,"station_id":"ce4bhqp2rcd13ifvqhng","pricing_plan_id":"free"},{"bike_id":"d2a564de-714e-4efa-8fb0-f19d62eb8017","system_id":"levelo_inurba_marseille","lat":43.317557,"lon":5.390173,"is_reserved":false,"is_disabled":false,"rental_uris":{"android":"levelo://app?vid=d2a564de-714e-4efa-8fb0-f19d62eb8017","ios":"levelo://app?vid=d2a564de-714e-4efa-8fb0-f19d62eb8017"},"vehicle_type_id":"4","last_reported":1705856780,"current_range_meters":0,"station_id":"ce4bhqp2rcd13ifvqhng","pricing_plan_id":"free"},{"bike_id":"455c41a7-8f34-427d-9086-013c81e6c83f","system_id":"levelo_inurba_marseille","lat":43.298037,"lon":5.381066,"is_reserved":false,"is_disabled":false,"rental_uris":{"android":"levelo://app?vid=455c41a7-8f34-427d-9086-013c81e6c83f","ios":"levelo://app?vid=455c41a7-8f34-427d-9086-013c81e6c83f"},"vehicle_type_id":"4","last_reported":1705856780,"current_range_meters":3600,"station_id":"ce4bgip2rcd13ifvqbb0","pricing_plan_id":"free"},{"bike_id":"f8e3599a-217e-4732-a3b2-e27b48e2db8a","system_id":"levelo_inurba_marseille","lat":43.304274,"lon":5.388873,"is_reserved":false,"is_disabled":false,"rental_uris":{"android":"levelo://app?vid=f8e3599a-217e-4732-a3b2-e27b48e2db8a","ios":"levelo://app?vid=f8e3599a-217e-4732-a3b2-e27b48e2db8a"},"vehicle_type_id":"4","last_reported":1705856780,"current_range_meters":14000,"station_id":"ce4bgk12rcd13ifvqbi0","pricing_plan_id":"free"},{"bike_id":"ba5b8c05-c0c8-4123-b93e-a8c3c73eee18","system_id":"levelo_inurba_marseille","lat":43.304278,"lon":5.388868,"is_reserved":false,"is_disabled":false,"rental_uris":{"android":"levelo://app?vid=ba5b8c05-c0c8-4123-b93e-a8c3c73eee18","ios":"levelo://app?vid=ba5b8c05-c0c8-4123-b93e-a8c3c73eee18"},"vehicle_type_id":"4","last_reported":1705856780,"current_range_meters":8000,"station_id":"ce4bgk12rcd13ifvqbi0","pricing_plan_id":"free"},{"bike_id":"de4822d0-839c-4bd3-8eed-8984f09da29b","system_id":"levelo_inurba_marseille","lat":43.304278,"lon":5.388868,"is_reserved":false,"is_disabled":false,"rental_uris":{"android":"levelo://app?vid=de4822d0-839c-4bd3-8eed-8984f09da29b","ios":"levelo://app?vid=de4822d0-839c-4bd3-8eed-8984f09da29b"},"vehicle_type_id":"4","last_reported":1705856780,"current_range_meters":0,"station_id":"ce4bgk12rcd13ifvqbi0","pricing_plan_id":"free"},{"bike_id":"90d3aa13-5e1e-4a80-8fe1-8f8bd0df2eb2","system_id":"levelo_inurba_marseille","lat":43.30424,"lon":5.38894,"is_reserved":false,"is_disabled":false,"rental_uris":{"android":"levelo://app?vid=90d3aa13-5e1e-4a80-8fe1-8f8bd0df2eb2","ios":"levelo://app?vid=90d3aa13-5e1e-4a80-8fe1-8f8bd0df2eb2"},"vehicle_type_id":"4","last_reported":1705856780,"current_range_meters":400,"station_id":"ce4bgk12rcd13ifvqbi0","pricing_plan_id":"free"},{"bike_id":"59183893-1eab-4b3b-a8e3-998f1afa5320","system_id":"levelo_inurba_marseille","lat":43.296263,"lon":5.377094,"is_reserved":false,"is_disabled":false,"rental_uris":{"android":"levelo://app?vid=59183893-1eab-4b3b-a8e3-998f1afa5320","ios":"levelo://app?vid=59183893-1eab-4b3b-a8e3-998f1afa5320"},"vehicle_type_id":"4","last_reported":1705856780,"current_range_meters":17200,"station_id":"ce4bgi92rcd13ifvqb90","pricing_plan_id":"free"},{"bike_id":"4aa9a632-b217-4b20-8550-c8789a1d8525","system_id":"levelo_inurba_marseille","lat":43.29604,"lon":5.37705,"is_reserved":false,"is_disabled":false,"rental_uris":{"android":"levelo://app?vid=4aa9a632-b217-4b20-8550-c8789a1d8525","ios":"levelo://app?vid=4aa9a632-b217-4b20-8550-c8789a1d8525"},"vehicle_type_id":"4","last_reported":1705856780,"current_range_meters":0,"station_id":"ce4bgi92rcd13ifvqb90","pricing_plan_id":"free"},{"bike_id":"5339480f-20e3-44d8-85e5-f17e0ffcff60","system_id":"levelo_inurba_marseille","lat":43.296263,"lon":5.377094,"is_reserved":false,"is_disabled":false,"rental_uris":{"android":"levelo://app?vid=5339480f-20e3-44d8-85e5-f17e0ffcff60","ios":"levelo://app?vid=5339480f-20e3-44d8-85e5-f17e0ffcff60"},"vehicle_type_id":"4","last_reported":1705856780,"current_range_meters":28400,"station_id":"ce4bgi92rcd13ifvqb90","pricing_plan_id":"free"},{"bike_id":"912d3264-343e-467a-b818-23ac62d3f4ca","system_id":"levelo_inurba_marseille","lat":43.296277,"lon":5.377108,"is_reserved":false,"is_disabled":false,"rental_uris":{"android":"levelo://app?vid=912d3264-343e-467a-b818-23ac62d3f4ca","ios":"levelo://app?vid=912d3264-343e-467a-b818-23ac62d3f4ca"},"vehicle_type_id":"4","last_reported":1705856780,"current_range_meters":11200,"station_id":"ce4bgi92rcd13ifvqb90","pricing_plan_id":"free"},{"bike_id":"7eac87cc-6c74-420f-9c56-f13cddb09450","system_id":"levelo_inurba_marseille","lat":43.295279,"lon":5.375048,"is_reserved":false,"is_disabled":false,"rental_uris":{"android":"levelo://app?vid=7eac87cc-6c74-420f-9c56-f13cddb09450","ios":"levelo://app?vid=7eac87cc-6c74-420f-9c56-f13cddb09450"},"vehicle_type_id":"4","last_reported":1705856780,"current_range_meters":29600,"station_id":"ce4bgkp2rcd13ifvqbmg","pricing_plan_id":"free"},{"bike_id":"bdaab062-b84e-46d0-8cb3-22005818e04f","system_id":"levelo_inurba_marseille","lat":43.29965,"lon":5.38489,"is_reserved":false,"is_disabled":false,"rental_uris":{"android":"levelo://app?vid=bdaab062-b84e-46d0-8cb3-22005818e04f","ios":"levelo://app?vid=bdaab062-b84e-46d0-8cb3-22005818e04f"},"vehicle_type_id":"4","last_reported":1705856780,"current_range_meters":0,"station_id":"ce4bgj92rcd13ifvqbd0","pricing_plan_id":"free"},{"bike_id":"829b7f7d-5ac0-47a6-82d5-6dec4eab844c","system_id":"levelo_inurba_marseille","lat":43.299717,"lon":5.384845,"is_reserved":false,"is_disabled":false,"rental_uris":{"android":"levelo://app?vid=829b7f7d-5ac0-47a6-82d5-6dec4eab844c","ios":"levelo://app?vid=829b7f7d-5ac0-47a6-82d5-6dec4eab844c"},"vehicle_type_id":"4","last_reported":1705856780,"current_range_meters":1600,"station_id":"ce4bgj92rcd13ifvqbd0","pricing_plan_id":"free"},{"bike_id":"02806411-61fa-4c25-934d-d3690171e1f3","system_id":"levelo_inurba_marseille","lat":43.32364,"lon":5.38874,"is_reserved":false,"is_disabled":false,"rental_uris":{"android":"levelo://app?vid=02806411-61fa-4c25-934d-d3690171e1f3","ios":"levelo://app?vid=02806411-61fa-4c25-934d-d3690171e1f3"},"vehicle_type_id":"4","last_reported":1705856780,"current_range_meters":6400,"station_id":"ce4bhqp2rcd13ifvqhog","pricing_plan_id":"free"},{"bike_id":"6c22759b-23cf-4f53-8bcd-3d26f569b6f9","system_id":"levelo_inurba_marseille","lat":43.32367,"lon":5.388836,"is_reserved":false,"is_disabled":false,"rental_uris":{"android":"levelo://app?vid=6c22759b-23cf-4f53-8bcd-3d26f569b6f9","ios":"levelo://app?vid=6c22759b-23cf-4f53-8bcd-3d26f569b6f9"},"vehicle_type_id":"4","last_reported":1705856780,"current_range_meters":5600,"station_id":"ce4bhqp2rcd13ifvqhog","pricing_plan_id":"free"},{"bike_id":"bf880da1-008b-4021-9b04-dc53f8a59e66","system_id":"levelo_inurba_marseille","lat":43.32367,"lon":5.388836,"is_reserved":false,"is_disabled":false,"rental_uris":{"android":"levelo://app?vid=bf880da1-008b-4021-9b04-dc53f8a59e66","ios":"levelo://app?vid=bf880da1-008b-4021-9b04-dc53f8a59e66"},"vehicle_type_id":"4","last_reported":1705856780,"current_range_meters":1600,"station_id":"ce4bhqp2rcd13ifvqhog","pricing_plan_id":"free"},{"bike_id":"04764818-933e-4c82-b999-186039aa353e","system_id":"levelo_inurba_marseille","lat":43.32367,"lon":5.388836,"is_reserved":false,"is_disabled":false,"rental_uris":{"android":"levelo://app?vid=04764818-933e-4c82-b999-186039aa353e","ios":"levelo://app?vid=04764818-933e-4c82-b999-186039aa353e"},"vehicle_type_id":"4","last_reported":1705856780,"current_range_meters":4400,"station_id":"ce4bhqp2rcd13ifvqhog","pricing_plan_id":"free"},{"bike_id":"099bf60b-966b-498a-998e-72648b7d0e96","system_id":"levelo_inurba_marseille","lat":43.293293,"lon":5.372327,"is_reserved":false,"is_disabled":false,"rental_uris":{"android":"levelo://app?vid=099bf60b-966b-498a-998e-72648b7d0e96","ios":"levelo://app?vid=099bf60b-966b-498a-998e-72648b7d0e96"},"vehicle_type_id":"4","last_reported":1705856780,"current_range_meters":2000,"station_id":"ce4bgh92rcd13ifvqb40","pricing_plan_id":"free"},{"bike_id":"6fa25983-454f-4953-98a5-9b17c7cf867b","system_id":"levelo_inurba_marseille","lat":43.306412,"lon":5.401035,"is_reserved":false,"is_disabled":false,"rental_uris":{"android":"levelo://app?vid=6fa25983-454f-4953-98a5-9b17c7cf867b","ios":"levelo://app?vid=6fa25983-454f-4953-98a5-9b17c7cf867b"},"vehicle_type_id":"4","last_reported":1705856780,"current_range_meters":14400,"station_id":"ce4bh112rcd13ifvqda0","pricing_plan_id":"free"},{"bike_id":"407ed806-ec51-467c-a910-f49efcce88e1","system_id":"levelo_inurba_marseille","lat":43.293009,"lon":5.374584,"is_reserved":false,"is_disabled":false,"rental_uris":{"android":"levelo://app?vid=407ed806-ec51-467c-a910-f49efcce88e1","ios":"levelo://app?vid=407ed806-ec51-467c-a910-f49efcce88e1"},"vehicle_type_id":"4","last_reported":1705856780,"current_range_meters":0,"station_id":"ce4bgi12rcd13ifvqb70","pricing_plan_id":"free"},{"bike_id":"caa89ddf-7885-4ef9-b6e4-7d7ee4e52928","system_id":"levelo_inurba_marseille","lat":43.293009,"lon":5.374584,"is_reserved":false,"is_disabled":false,"rental_uris":{"android":"levelo://app?vid=caa89ddf-7885-4ef9-b6e4-7d7ee4e52928","ios":"levelo://app?vid=caa89ddf-7885-4ef9-b6e4-7d7ee4e52928"},"vehicle_type_id":"4","last_reported":1705856780,"current_range_meters":7200,"station_id":"ce4bgi12rcd13ifvqb70","pricing_plan_id":"free"},{"bike_id":"ce960be1-df59-4ee7-92d4-dd1b5d27f815","system_id":"levelo_inurba_marseille","lat":43.293009,"lon":5.374584,"is_reserved":false,"is_disabled":false,"rental_uris":{"android":"levelo://app?vid=ce960be1-df59-4ee7-92d4-dd1b5d27f815","ios":"levelo://app?vid=ce960be1-df59-4ee7-92d4-dd1b5d27f815"},"vehicle_type_id":"4","last_reported":1705856780,"current_range_meters":6400,"station_id":"ce4bgi12rcd13ifvqb70","pricing_plan_id":"free"},{"bike_id":"d6f7465b-af18-40d6-aa3e-fec496b8328a","system_id":"levelo_inurba_marseille","lat":43.305994,"lon":5.393687,"is_reserved":false,"is_disabled":false,"rental_uris":{"android":"levelo://app?vid=d6f7465b-af18-40d6-aa3e-fec496b8328a","ios":"levelo://app?vid=d6f7465b-af18-40d6-aa3e-fec496b8328a"},"vehicle_type_id":"4","last_reported":1705856780,"current_range_meters":800,"station_id":"ce4bh0p2rcd13ifvqd80","pricing_plan_id":"free"},{"bike_id":"665894e7-4f89-4376-bcf6-6f7f7da8d3d7","system_id":"levelo_inurba_marseille","lat":43.302983,"lon":5.39198,"is_reserved":false,"is_disabled":false,"rental_uris":{"android":"levelo://app?vid=665894e7-4f89-4376-bcf6-6f7f7da8d3d7","ios":"levelo://app?vid=665894e7-4f89-4376-bcf6-6f7f7da8d3d7"},"vehicle_type_id":"4","last_reported":1705856780,"current_range_meters":20800,"station_id":"ce4bgkh2rcd13ifvqbk0","pricing_plan_id":"free"},{"bike_id":"c889a952-e6a8-42fc-9159-94e3acf4d62a","system_id":"levelo_inurba_marseille","lat":43.302992,"lon":5.392136,"is_reserved":false,"is_disabled":false,"rental_uris":{"android":"levelo://app?vid=c889a952-e6a8-42fc-9159-94e3acf4d62a","ios":"levelo://app?vid=c889a952-e6a8-42fc-9159-94e3acf4d62a"},"vehicle_type_id":"4","last_reported":1705856780,"current_range_meters":19200,"station_id":"ce4bgkh2rcd13ifvqbk0","pricing_plan_id":"free"},{"bike_id":"18dad972-77c2-4f17-9530-fa45d4c3d4c0","system_id":"levelo_inurba_marseille","lat":43.2936,"lon":5.37835,"is_reserved":false,"is_disabled":false,"rental_uris":{"android":"levelo://app?vid=18dad972-77c2-4f17-9530-fa45d4c3d4c0","ios":"levelo://app?vid=18dad972-77c2-4f17-9530-fa45d4c3d4c0"},"vehicle_type_id":"4","last_reported":1705856780,"current_range_meters":12000,"station_id":"ce4bgjh2rcd13ifvqbf0","pricing_plan_id":"free"},{"bike_id":"d9b253c3-eba6-4230-aa83-2ec447ca6952","system_id":"levelo_inurba_marseille","lat":43.2936,"lon":5.37835,"is_reserved":false,"is_disabled":false,"rental_uris":{"android":"levelo://app?vid=d9b253c3-eba6-4230-aa83-2ec447ca6952","ios":"levelo://app?vid=d9b253c3-eba6-4230-aa83-2ec447ca6952"},"vehicle_type_id":"4","last_reported":1705856780,"current_range_meters":0,"station_id":"ce4bgjh2rcd13ifvqbf0","pricing_plan_id":"free"},{"bike_id":"6cf4d737-3b52-4be6-85ab-287dddf9231d","system_id":"levelo_inurba_marseille","lat":43.29174,"lon":5.36642,"is_reserved":false,"is_disabled":false,"rental_uris":{"android":"levelo://app?vid=6cf4d737-3b52-4be6-85ab-287dddf9231d","ios":"levelo://app?vid=6cf4d737-3b52-4be6-85ab-287dddf9231d"},"vehicle_type_id":"4","last_reported":1705856780,"current_range_meters":6400,"station_id":"","pricing_plan_id":"free"},{"bike_id":"36c8aa7c-b0ee-4551-8d2d-9c3f7dda6400","system_id":"levelo_inurba_marseille","lat":43.300852,"lon":5.390859,"is_reserved":false,"is_disabled":false,"rental_uris":{"android":"levelo://app?vid=36c8aa7c-b0ee-4551-8d2d-9c3f7dda6400","ios":"levelo://app?vid=36c8aa7c-b0ee-4551-8d2d-9c3f7dda6400"},"vehicle_type_id":"4","last_reported":1705856780,"current_range_meters":27600,"station_id":"ce4bh192rcd13ifvqdb0","pricing_plan_id":"free"},{"bike_id":"1bbf89fd-4661-4b39-a0d0-396d91551803","system_id":"levelo_inurba_marseille","lat":43.298763,"lon":5.38911,"is_reserved":false,"is_disabled":false,"rental_uris":{"android":"levelo://app?vid=1bbf89fd-4661-4b39-a0d0-396d91551803","ios":"levelo://app?vid=1bbf89fd-4661-4b39-a0d0-396d91551803"},"vehicle_type_id":"4","last_reported":1705856780,"current_range_meters":0,"station_id":"ce4bh392rcd13ifvqdl0","pricing_plan_id":"free"},{"bike_id":"887128b9-5941-441c-ade4-7d2c63ba3548","system_id":"levelo_inurba_marseille","lat":43.291675,"lon":5.371583,"is_reserved":false,"is_disabled":false,"rental_uris":{"android":"levelo://app?vid=887128b9-5941-441c-ade4-7d2c63ba3548","ios":"levelo://app?vid=887128b9-5941-441c-ade4-7d2c63ba3548"},"vehicle_type_id":"4","last_reported":1705856780,"current_range_meters":26000,"station_id":"ce4bha92rcd13ifvqeh0","pricing_plan_id":"free"},{"bike_id":"aa6cbc73-416a-4ee7-b3c4-55829122aa6d","system_id":"levelo_inurba_marseille","lat":43.291671,"lon":5.371575,"is_reserved":false,"is_disabled":false,"rental_uris":{"android":"levelo://app?vid=aa6cbc73-416a-4ee7-b3c4-55829122aa6d","ios":"levelo://app?vid=aa6cbc73-416a-4ee7-b3c4-55829122aa6d"},"vehicle_type_id":"4","last_reported":1705856780,"current_range_meters":16800,"station_id":"ce4bha92rcd13ifvqeh0","pricing_plan_id":"free"},{"bike_id":"b02bf41d-9e09-4bc3-b8f6-ee88aaff6c18","system_id":"levelo_inurba_marseille","lat":43.302348,"lon":5.392667,"is_reserved":false,"is_disabled":false,"rental_uris":{"android":"levelo://app?vid=b02bf41d-9e09-4bc3-b8f6-ee88aaff6c18","ios":"levelo://app?vid=b02bf41d-9e09-4bc3-b8f6-ee88aaff6c18"},"vehicle_type_id":"4","last_reported":1705856780,"current_range_meters":4000,"station_id":"","pricing_plan_id":"free"},{"bike_id":"3fc1b655-9948-4abd-af94-dd4730bc2664","system_id":"levelo_inurba_marseille","lat":43.309038,"lon":5.396546,"is_reserved":false,"is_disabled":false,"rental_uris":{"android":"levelo://app?vid=3fc1b655-9948-4abd-af94-dd4730bc2664","ios":"levelo://app?vid=3fc1b655-9948-4abd-af94-dd4730bc2664"},"vehicle_type_id":"4","last_reported":1705856780,"current_range_meters":400,"station_id":"ce4bh012rcd13ifvqcv0","pricing_plan_id":"free"},{"bike_id":"b143fd46-608a-4eac-8bee-831cc49921c8","system_id":"levelo_inurba_marseille","lat":43.313291,"lon":5.396838,"is_reserved":false,"is_disabled":false,"rental_uris":{"android":"levelo://app?vid=b143fd46-608a-4eac-8bee-831cc49921c8","ios":"levelo://app?vid=b143fd46-608a-4eac-8bee-831cc49921c8"},"vehicle_type_id":"4","last_reported":1705856780,"current_range_meters":22400,"station_id":"ce4bgvp2rcd13ifvqcu0","pricing_plan_id":"free"},{"bike_id":"cf87029e-f251-43f3-8aee-99502350047f","system_id":"levelo_inurba_marseille","lat":43.31326,"lon":5.39684,"is_reserved":false,"is_disabled":false,"rental_uris":{"android":"levelo://app?vid=cf87029e-f251-43f3-8aee-99502350047f","ios":"levelo://app?vid=cf87029e-f251-43f3-8aee-99502350047f"},"vehicle_type_id":"4","last_reported":1705856780,"current_range_meters":8400,"station_id":"ce4bgvp2rcd13ifvqcu0","pricing_plan_id":"free"},{"bike_id":"9c573f08-c27b-4296-ac17-651856a64019","system_id":"levelo_inurba_marseille","lat":43.291994,"lon":5.357886,"is_reserved":false,"is_disabled":false,"rental_uris":{"android":"levelo://app?vid=9c573f08-c27b-4296-ac17-651856a64019","ios":"levelo://app?vid=9c573f08-c27b-4296-ac17-651856a64019"},"vehicle_type_id":"4","last_reported":1705856780,"current_range_meters":16400,"station_id":"ce4bhb12rcd13ifvqel0","pricing_plan_id":"free"},{"bike_id":"9dff20f3-8128-4707-8397-5bb8e922e6dc","system_id":"levelo_inurba_marseille","lat":43.309038,"lon":5.396546,"is_reserved":false,"is_disabled":false,"rental_uris":{"android":"levelo://app?vid=9dff20f3-8128-4707-8397-5bb8e922e6dc","ios":"levelo://app?vid=9dff20f3-8128-4707-8397-5bb8e922e6dc"},"vehicle_type_id":"4","last_reported":1705856780,"current_range_meters":10000,"station_id":"ce4bh012rcd13ifvqcv0","pricing_plan_id":"free"},{"bike_id":"017959cc-add8-4e7d-9426-ed3295abb619","system_id":"levelo_inurba_marseille","lat":43.298037,"lon":5.381066,"is_reserved":false,"is_disabled":false,"rental_uris":{"android":"levelo://app?vid=017959cc-add8-4e7d-9426-ed3295abb619","ios":"levelo://app?vid=017959cc-add8-4e7d-9426-ed3295abb619"},"vehicle_type_id":"4","last_reported":1705856780,"current_range_meters":800,"station_id":"ce4bgip2rcd13ifvqbb0","pricing_plan_id":"free"},{"bike_id":"4138f246-dcaa-4988-9fb7-aa4dd2c10407","system_id":"levelo_inurba_marseille","lat":43.309038,"lon":5.396546,"is_reserved":false,"is_disabled":false,"rental_uris":{"android":"levelo://app?vid=4138f246-dcaa-4988-9fb7-aa4dd2c10407","ios":"levelo://app?vid=4138f246-dcaa-4988-9fb7-aa4dd2c10407"},"vehicle_type_id":"4","last_reported":1705856780,"current_range_meters":10400,"station_id":"ce4bh012rcd13ifvqcv0","pricing_plan_id":"free"},{"bike_id":"2f1567f5-668f-4477-a5b6-c5d9e5bd79cd","system_id":"levelo_inurba_marseille","lat":43.309038,"lon":5.396546,"is_reserved":false,"is_disabled":false,"rental_uris":{"android":"levelo://app?vid=2f1567f5-668f-4477-a5b6-c5d9e5bd79cd","ios":"levelo://app?vid=2f1567f5-668f-4477-a5b6-c5d9e5bd79cd"},"vehicle_type_id":"4","last_reported":1705856780,"current_range_meters":800,"station_id":"ce4bh012rcd13ifvqcv0","pricing_plan_id":"free"},{"bike_id":"8ccd3840-25cf-4cea-817a-c8bb38886761","system_id":"levelo_inurba_marseille","lat":43.29529,"lon":5.385581,"is_reserved":false,"is_disabled":false,"rental_uris":{"android":"levelo://app?vid=8ccd3840-25cf-4cea-817a-c8bb38886761","ios":"levelo://app?vid=8ccd3840-25cf-4cea-817a-c8bb38886761"},"vehicle_type_id":"4","last_reported":1705856780,"current_range_meters":9200,"station_id":"ce4bgih2rcd13ifvqba0","pricing_plan_id":"free"},{"bike_id":"72f7b3cf-a6f1-43d3-85b7-07e215296e77","system_id":"levelo_inurba_marseille","lat":43.305364,"lon":5.384119,"is_reserved":false,"is_disabled":false,"rental_uris":{"android":"levelo://app?vid=72f7b3cf-a6f1-43d3-85b7-07e215296e77","ios":"levelo://app?vid=72f7b3cf-a6f1-43d3-85b7-07e215296e77"},"vehicle_type_id":"4","last_reported":1705856780,"current_range_meters":12400,"station_id":"ce4bgg92rcd13ifvqb30","pricing_plan_id":"free"},{"bike_id":"ca59a6bd-45bb-49a1-a70b-d554134bce63","system_id":"levelo_inurba_marseille","lat":43.290779,"lon":5.371482,"is_reserved":false,"is_disabled":false,"rental_uris":{"android":"levelo://app?vid=ca59a6bd-45bb-49a1-a70b-d554134bce63","ios":"levelo://app?vid=ca59a6bd-45bb-49a1-a70b-d554134bce63"},"vehicle_type_id":"4","last_reported":1705856780,"current_range_meters":8800,"station_id":"ce4bh5p2rcd13ifvqe4g","pricing_plan_id":"free"},{"bike_id":"d6171166-acde-4f8f-9fe9-540ca9791122","system_id":"levelo_inurba_marseille","lat":43.294153,"lon":5.386305,"is_reserved":false,"is_disabled":false,"rental_uris":{"android":"levelo://app?vid=d6171166-acde-4f8f-9fe9-540ca9791122","ios":"levelo://app?vid=d6171166-acde-4f8f-9fe9-540ca9791122"},"vehicle_type_id":"4","last_reported":1705856780,"current_range_meters":1600,"station_id":"ce4bh2h2rcd13ifvqdh0","pricing_plan_id":"free"},{"bike_id":"83c7e632-40bd-490d-94b9-ce640e1c3038","system_id":"levelo_inurba_marseille","lat":43.294162,"lon":5.386292,"is_reserved":false,"is_disabled":false,"rental_uris":{"android":"levelo://app?vid=83c7e632-40bd-490d-94b9-ce640e1c3038","ios":"levelo://app?vid=83c7e632-40bd-490d-94b9-ce640e1c3038"},"vehicle_type_id":"4","last_reported":1705856780,"current_range_meters":9200,"station_id":"ce4bh2h2rcd13ifvqdh0","pricing_plan_id":"free"},{"bike_id":"831ac165-383e-4e62-aa58-8c70235fbb01","system_id":"levelo_inurba_marseille","lat":43.289517,"lon":5.363953,"is_reserved":false,"is_disabled":false,"rental_uris":{"android":"levelo://app?vid=831ac165-383e-4e62-aa58-8c70235fbb01","ios":"levelo://app?vid=831ac165-383e-4e62-aa58-8c70235fbb01"},"vehicle_type_id":"4","last_reported":1705856780,"current_range_meters":27200,"station_id":"ce4bhc92rcd13ifvqetg","pricing_plan_id":"free"},{"bike_id":"d63c50ff-17bd-4b61-8a98-a99202f16d76","system_id":"levelo_inurba_marseille","lat":43.294153,"lon":5.386305,"is_reserved":false,"is_disabled":false,"rental_uris":{"android":"levelo://app?vid=d63c50ff-17bd-4b61-8a98-a99202f16d76","ios":"levelo://app?vid=d63c50ff-17bd-4b61-8a98-a99202f16d76"},"vehicle_type_id":"4","last_reported":1705856780,"current_range_meters":0,"station_id":"ce4bh2h2rcd13ifvqdh0","pricing_plan_id":"free"},{"bike_id":"ad62aebc-b7bc-4c59-80c9-55c22d7569bf","system_id":"levelo_inurba_marseille","lat":43.289184,"lon":5.366408,"is_reserved":false,"is_disabled":false,"rental_uris":{"android":"levelo://app?vid=ad62aebc-b7bc-4c59-80c9-55c22d7569bf","ios":"levelo://app?vid=ad62aebc-b7bc-4c59-80c9-55c22d7569bf"},"vehicle_type_id":"4","last_reported":1705856780,"current_range_meters":27200,"station_id":"ce4bhap2rcd13ifvqek0","pricing_plan_id":"free"},{"bike_id":"2049b5e7-e69f-451d-9be2-cd1bd39b5a4c","system_id":"levelo_inurba_marseille","lat":43.289184,"lon":5.366408,"is_reserved":false,"is_disabled":false,"rental_uris":{"android":"levelo://app?vid=2049b5e7-e69f-451d-9be2-cd1bd39b5a4c","ios":"levelo://app?vid=2049b5e7-e69f-451d-9be2-cd1bd39b5a4c"},"vehicle_type_id":"4","last_reported":1705856780,"current_range_meters":25200,"station_id":"ce4bhap2rcd13ifvqek0","pricing_plan_id":"free"},{"bike_id":"9549246b-8e18-4398-8ad4-1493d714f4f3","system_id":"levelo_inurba_marseille","lat":43.292642,"lon":5.384254,"is_reserved":false,"is_disabled":false,"rental_uris":{"android":"levelo://app?vid=9549246b-8e18-4398-8ad4-1493d714f4f3","ios":"levelo://app?vid=9549246b-8e18-4398-8ad4-1493d714f4f3"},"vehicle_type_id":"4","last_reported":1705856780,"current_range_meters":2800,"station_id":"ce4bh692rcd13ifvqea0","pricing_plan_id":"free"},{"bike_id":"5b6d18b6-a8e8-4eb0-97fe-580c30d43a33","system_id":"levelo_inurba_marseille","lat":43.304296,"lon":5.397513,"is_reserved":false,"is_disabled":false,"rental_uris":{"android":"levelo://app?vid=5b6d18b6-a8e8-4eb0-97fe-580c30d43a33","ios":"levelo://app?vid=5b6d18b6-a8e8-4eb0-97fe-580c30d43a33"},"vehicle_type_id":"4","last_reported":1705856780,"current_range_meters":16800,"station_id":"ce4bh092rcd13ifvqd20","pricing_plan_id":"free"},{"bike_id":"31e0e28a-74f7-4392-8dcd-6e6a54219c11","system_id":"levelo_inurba_marseille","lat":43.304296,"lon":5.397513,"is_reserved":false,"is_disabled":false,"rental_uris":{"android":"levelo://app?vid=31e0e28a-74f7-4392-8dcd-6e6a54219c11","ios":"levelo://app?vid=31e0e28a-74f7-4392-8dcd-6e6a54219c11"},"vehicle_type_id":"4","last_reported":1705856780,"current_range_meters":8400,"station_id":"ce4bh092rcd13ifvqd20","pricing_plan_id":"free"},{"bike_id":"554dd186-5873-46d7-ac49-a3e8e8a05573","system_id":"levelo_inurba_marseille","lat":43.292644,"lon":5.384257,"is_reserved":false,"is_disabled":false,"rental_uris":{"android":"levelo://app?vid=554dd186-5873-46d7-ac49-a3e8e8a05573","ios":"levelo://app?vid=554dd186-5873-46d7-ac49-a3e8e8a05573"},"vehicle_type_id":"4","last_reported":1705856780,"current_range_meters":15600,"station_id":"ce4bh692rcd13ifvqea0","pricing_plan_id":"free"},{"bike_id":"48b3b299-6ac7-42cc-8fc0-14c3280c0f80","system_id":"levelo_inurba_marseille","lat":43.304296,"lon":5.397513,"is_reserved":false,"is_disabled":false,"rental_uris":{"android":"levelo://app?vid=48b3b299-6ac7-42cc-8fc0-14c3280c0f80","ios":"levelo://app?vid=48b3b299-6ac7-42cc-8fc0-14c3280c0f80"},"vehicle_type_id":"4","last_reported":1705856780,"current_range_meters":4800,"station_id":"ce4bh092rcd13ifvqd20","pricing_plan_id":"free"},{"bike_id":"0863cb14-4fc1-4443-8ab8-96b6fc45f748","system_id":"levelo_inurba_marseille","lat":43.292642,"lon":5.384254,"is_reserved":false,"is_disabled":false,"rental_uris":{"android":"levelo://app?vid=0863cb14-4fc1-4443-8ab8-96b6fc45f748","ios":"levelo://app?vid=0863cb14-4fc1-4443-8ab8-96b6fc45f748"},"vehicle_type_id":"4","last_reported":1705856780,"current_range_meters":18400,"station_id":"ce4bh692rcd13ifvqea0","pricing_plan_id":"free"},{"bike_id":"5ed935ed-896e-4e63-8c90-57d58e755199","system_id":"levelo_inurba_marseille","lat":43.297777,"lon":5.393217,"is_reserved":false,"is_disabled":false,"rental_uris":{"android":"levelo://app?vid=5ed935ed-896e-4e63-8c90-57d58e755199","ios":"levelo://app?vid=5ed935ed-896e-4e63-8c90-57d58e755199"},"vehicle_type_id":"4","last_reported":1705856780,"current_range_meters":3200,"station_id":"chh1huq6cuj3fo74tm60","pricing_plan_id":"free"},{"bike_id":"5c65c1d0-528a-4864-b28a-b5bfc2a4d6bf","system_id":"levelo_inurba_marseille","lat":43.289743,"lon":5.378304,"is_reserved":false,"is_disabled":false,"rental_uris":{"android":"levelo://app?vid=5c65c1d0-528a-4864-b28a-b5bfc2a4d6bf","ios":"levelo://app?vid=5c65c1d0-528a-4864-b28a-b5bfc2a4d6bf"},"vehicle_type_id":"4","last_reported":1705856780,"current_range_meters":26400,"station_id":"ce4bh9p2rcd13ifvqed0","pricing_plan_id":"free"},{"bike_id":"77f89468-23f4-42b0-aa40-da8db5c2b420","system_id":"levelo_inurba_marseille","lat":43.330442,"lon":5.389148,"is_reserved":false,"is_disabled":false,"rental_uris":{"android":"levelo://app?vid=77f89468-23f4-42b0-aa40-da8db5c2b420","ios":"levelo://app?vid=77f89468-23f4-42b0-aa40-da8db5c2b420"},"vehicle_type_id":"4","last_reported":1705856780,"current_range_meters":23600,"station_id":"ce4bhr92rcd13ifvqhrg","pricing_plan_id":"free"},{"bike_id":"01a18f5c-7388-4d6c-9f58-2e46c49240cb","system_id":"levelo_inurba_marseille","lat":43.289743,"lon":5.378304,"is_reserved":false,"is_disabled":false,"rental_uris":{"android":"levelo://app?vid=01a18f5c-7388-4d6c-9f58-2e46c49240cb","ios":"levelo://app?vid=01a18f5c-7388-4d6c-9f58-2e46c49240cb"},"vehicle_type_id":"4","last_reported":1705856780,"current_range_meters":17200,"station_id":"ce4bh9p2rcd13ifvqed0","pricing_plan_id":"free"},{"bike_id":"abd48582-9a4b-433f-98f3-500b663ea872","system_id":"levelo_inurba_marseille","lat":43.33022,"lon":5.3904,"is_reserved":false,"is_disabled":false,"rental_uris":{"android":"levelo://app?vid=abd48582-9a4b-433f-98f3-500b663ea872","ios":"levelo://app?vid=abd48582-9a4b-433f-98f3-500b663ea872"},"vehicle_type_id":"4","last_reported":1705856780,"current_range_meters":26800,"station_id":"ce4bhr92rcd13ifvqhrg","pricing_plan_id":"free"},{"bike_id":"29e877ab-529b-4edc-bb8e-073152c3463c","system_id":"levelo_inurba_marseille","lat":43.33025,"lon":5.39037,"is_reserved":false,"is_disabled":false,"rental_uris":{"android":"levelo://app?vid=29e877ab-529b-4edc-bb8e-073152c3463c","ios":"levelo://app?vid=29e877ab-529b-4edc-bb8e-073152c3463c"},"vehicle_type_id":"4","last_reported":1705856780,"current_range_meters":2800,"station_id":"ce4bhr92rcd13ifvqhrg","pricing_plan_id":"free"},{"bike_id":"40566484-89da-412d-a858-1a427538b942","system_id":"levelo_inurba_marseille","lat":43.330442,"lon":5.389148,"is_reserved":false,"is_disabled":false,"rental_uris":{"android":"levelo://app?vid=40566484-89da-412d-a858-1a427538b942","ios":"levelo://app?vid=40566484-89da-412d-a858-1a427538b942"},"vehicle_type_id":"4","last_reported":1705856780,"current_range_meters":6000,"station_id":"ce4bhr92rcd13ifvqhrg","pricing_plan_id":"free"},{"bike_id":"3e644e07-b3c8-452b-b4f2-79c00d67e841","system_id":"levelo_inurba_marseille","lat":43.330245,"lon":5.390392,"is_reserved":false,"is_disabled":false,"rental_uris":{"android":"levelo://app?vid=3e644e07-b3c8-452b-b4f2-79c00d67e841","ios":"levelo://app?vid=3e644e07-b3c8-452b-b4f2-79c00d67e841"},"vehicle_type_id":"4","last_reported":1705856780,"current_range_meters":26400,"station_id":"ce4bhr92rcd13ifvqhrg","pricing_plan_id":"free"},{"bike_id":"ab001c16-e197-4d75-bc32-a8f3a5199351","system_id":"levelo_inurba_marseille","lat":43.33027,"lon":5.39041,"is_reserved":false,"is_disabled":false,"rental_uris":{"android":"levelo://app?vid=ab001c16-e197-4d75-bc32-a8f3a5199351","ios":"levelo://app?vid=ab001c16-e197-4d75-bc32-a8f3a5199351"},"vehicle_type_id":"4","last_reported":1705856780,"current_range_meters":10800,"station_id":"ce4bhr92rcd13ifvqhrg","pricing_plan_id":"free"},{"bike_id":"925eaff5-3e49-4fa2-bc92-9f7181735632","system_id":"levelo_inurba_marseille","lat":43.330251,"lon":5.390447,"is_reserved":false,"is_disabled":false,"rental_uris":{"android":"levelo://app?vid=925eaff5-3e49-4fa2-bc92-9f7181735632","ios":"levelo://app?vid=925eaff5-3e49-4fa2-bc92-9f7181735632"},"vehicle_type_id":"4","last_reported":1705856780,"current_range_meters":17200,"station_id":"ce4bhr92rcd13ifvqhrg","pricing_plan_id":"free"},{"bike_id":"6da24cd2-b24b-42ea-9493-a9777d405b03","system_id":"levelo_inurba_marseille","lat":43.330442,"lon":5.389148,"is_reserved":false,"is_disabled":false,"rental_uris":{"android":"levelo://app?vid=6da24cd2-b24b-42ea-9493-a9777d405b03","ios":"levelo://app?vid=6da24cd2-b24b-42ea-9493-a9777d405b03"},"vehicle_type_id":"4","last_reported":1705856780,"current_range_meters":22400,"station_id":"ce4bhr92rcd13ifvqhrg","pricing_plan_id":"free"},{"bike_id":"bba31cbf-8b2c-4169-be26-83924f4e87dd","system_id":"levelo_inurba_marseille","lat":43.290094,"lon":5.381264,"is_reserved":false,"is_disabled":false,"rental_uris":{"android":"levelo://app?vid=bba31cbf-8b2c-4169-be26-83924f4e87dd","ios":"levelo://app?vid=bba31cbf-8b2c-4169-be26-83924f4e87dd"},"vehicle_type_id":"4","last_reported":1705856780,"current_range_meters":3200,"station_id":"ce4bh4p2rcd13ifvqe1g","pricing_plan_id":"free"},{"bike_id":"9ef1336c-7d49-43a2-b56d-42903a5b5548","system_id":"levelo_inurba_marseille","lat":43.28856,"lon":5.358371,"is_reserved":false,"is_disabled":false,"rental_uris":{"android":"levelo://app?vid=9ef1336c-7d49-43a2-b56d-42903a5b5548","ios":"levelo://app?vid=9ef1336c-7d49-43a2-b56d-42903a5b5548"},"vehicle_type_id":"4","last_reported":1705856780,"current_range_meters":15600,"station_id":"ce4bhb12rcd13ifvqem0","pricing_plan_id":"free"},{"bike_id":"41bcab67-3b90-4cac-879c-0e9f9033ccf5","system_id":"levelo_inurba_marseille","lat":43.28856,"lon":5.358371,"is_reserved":false,"is_disabled":false,"rental_uris":{"android":"levelo://app?vid=41bcab67-3b90-4cac-879c-0e9f9033ccf5","ios":"levelo://app?vid=41bcab67-3b90-4cac-879c-0e9f9033ccf5"},"vehicle_type_id":"4","last_reported":1705856780,"current_range_meters":5200,"station_id":"ce4bhb12rcd13ifvqem0","pricing_plan_id":"free"},{"bike_id":"71636f7f-1932-49b2-8597-35b030f967a2","system_id":"levelo_inurba_marseille","lat":43.28856,"lon":5.358371,"is_reserved":false,"is_disabled":false,"rental_uris":{"android":"levelo://app?vid=71636f7f-1932-49b2-8597-35b030f967a2","ios":"levelo://app?vid=71636f7f-1932-49b2-8597-35b030f967a2"},"vehicle_type_id":"4","last_reported":1705856780,"current_range_meters":16800,"station_id":"ce4bhb12rcd13ifvqem0","pricing_plan_id":"free"},{"bike_id":"587c3baf-bc55-4d33-b3d8-479b90019f90","system_id":"levelo_inurba_marseille","lat":43.30675,"lon":5.40031,"is_reserved":false,"is_disabled":false,"rental_uris":{"android":"levelo://app?vid=587c3baf-bc55-4d33-b3d8-479b90019f90","ios":"levelo://app?vid=587c3baf-bc55-4d33-b3d8-479b90019f90"},"vehicle_type_id":"4","last_reported":1705856780,"current_range_meters":20400,"station_id":"","pricing_plan_id":"free"},{"bike_id":"cef71d98-dff7-443b-a24b-d16b281d8c24","system_id":"levelo_inurba_marseille","lat":43.309371,"lon":5.401449,"is_reserved":false,"is_disabled":false,"rental_uris":{"android":"levelo://app?vid=cef71d98-dff7-443b-a24b-d16b281d8c24","ios":"levelo://app?vid=cef71d98-dff7-443b-a24b-d16b281d8c24"},"vehicle_type_id":"4","last_reported":1705856780,"current_range_meters":3600,"station_id":"ce4bgvp2rcd13ifvqct0","pricing_plan_id":"free"},{"bike_id":"4d574bc3-94dc-4a08-b7f3-e348a8b6099e","system_id":"levelo_inurba_marseille","lat":43.306412,"lon":5.401035,"is_reserved":false,"is_disabled":false,"rental_uris":{"android":"levelo://app?vid=4d574bc3-94dc-4a08-b7f3-e348a8b6099e","ios":"levelo://app?vid=4d574bc3-94dc-4a08-b7f3-e348a8b6099e"},"vehicle_type_id":"4","last_reported":1705856780,"current_range_meters":12800,"station_id":"ce4bh112rcd13ifvqda0","pricing_plan_id":"free"},{"bike_id":"7b7b0ca3-faf3-4ec9-971f-6ab3aeea3623","system_id":"levelo_inurba_marseille","lat":43.30642,"lon":5.401031,"is_reserved":false,"is_disabled":false,"rental_uris":{"android":"levelo://app?vid=7b7b0ca3-faf3-4ec9-971f-6ab3aeea3623","ios":"levelo://app?vid=7b7b0ca3-faf3-4ec9-971f-6ab3aeea3623"},"vehicle_type_id":"4","last_reported":1705856780,"current_range_meters":30400,"station_id":"ce4bh112rcd13ifvqda0","pricing_plan_id":"free"},{"bike_id":"d55e3038-8842-4542-b1f3-bdc0bb2393b2","system_id":"levelo_inurba_marseille","lat":43.30642,"lon":5.401031,"is_reserved":false,"is_disabled":false,"rental_uris":{"android":"levelo://app?vid=d55e3038-8842-4542-b1f3-bdc0bb2393b2","ios":"levelo://app?vid=d55e3038-8842-4542-b1f3-bdc0bb2393b2"},"vehicle_type_id":"4","last_reported":1705856780,"current_range_meters":0,"station_id":"ce4bh112rcd13ifvqda0","pricing_plan_id":"free"},{"bike_id":"163bcccc-f883-4e93-ac1f-abb54bfe5b94","system_id":"levelo_inurba_marseille","lat":43.33768,"lon":5.374823,"is_reserved":false,"is_disabled":false,"rental_uris":{"android":"levelo://app?vid=163bcccc-f883-4e93-ac1f-abb54bfe5b94","ios":"levelo://app?vid=163bcccc-f883-4e93-ac1f-abb54bfe5b94"},"vehicle_type_id":"4","last_reported":1705856780,"current_range_meters":4800,"station_id":"","pricing_plan_id":"free"},{"bike_id":"133da274-f834-46ed-bfd5-b6d10b4fbc7c","system_id":"levelo_inurba_marseille","lat":43.33769,"lon":5.37481,"is_reserved":false,"is_disabled":false,"rental_uris":{"android":"levelo://app?vid=133da274-f834-46ed-bfd5-b6d10b4fbc7c","ios":"levelo://app?vid=133da274-f834-46ed-bfd5-b6d10b4fbc7c"},"vehicle_type_id":"4","last_reported":1705856780,"current_range_meters":0,"station_id":"","pricing_plan_id":"free"},{"bike_id":"9fb37c41-94a1-408b-ba76-0e0b97ca49b5","system_id":"levelo_inurba_marseille","lat":43.28727,"lon":5.36078,"is_reserved":false,"is_disabled":false,"rental_uris":{"android":"levelo://app?vid=9fb37c41-94a1-408b-ba76-0e0b97ca49b5","ios":"levelo://app?vid=9fb37c41-94a1-408b-ba76-0e0b97ca49b5"},"vehicle_type_id":"4","last_reported":1705856780,"current_range_meters":6000,"station_id":"cki0cbj6b192h4jlfktg","pricing_plan_id":"free"},{"bike_id":"2870fa91-f7f9-4ff7-831a-63dd76e81a48","system_id":"levelo_inurba_marseille","lat":43.298681,"lon":5.397225,"is_reserved":false,"is_disabled":false,"rental_uris":{"android":"levelo://app?vid=2870fa91-f7f9-4ff7-831a-63dd76e81a48","ios":"levelo://app?vid=2870fa91-f7f9-4ff7-831a-63dd76e81a48"},"vehicle_type_id":"4","last_reported":1705856780,"current_range_meters":400,"station_id":"ce4bh0h2rcd13ifvqd50","pricing_plan_id":"free"},{"bike_id":"196a231f-b5aa-4b4d-8e0f-b04f50be1e05","system_id":"levelo_inurba_marseille","lat":43.286961,"lon":5.373785,"is_reserved":false,"is_disabled":false,"rental_uris":{"android":"levelo://app?vid=196a231f-b5aa-4b4d-8e0f-b04f50be1e05","ios":"levelo://app?vid=196a231f-b5aa-4b4d-8e0f-b04f50be1e05"},"vehicle_type_id":"4","last_reported":1705856780,"current_range_meters":20400,"station_id":"ce4bh3p2rcd13ifvqdq0","pricing_plan_id":"free"},{"bike_id":"5f837b05-c36c-4bd1-a710-cc5d8a737c34","system_id":"levelo_inurba_marseille","lat":43.298681,"lon":5.397225,"is_reserved":false,"is_disabled":false,"rental_uris":{"android":"levelo://app?vid=5f837b05-c36c-4bd1-a710-cc5d8a737c34","ios":"levelo://app?vid=5f837b05-c36c-4bd1-a710-cc5d8a737c34"},"vehicle_type_id":"4","last_reported":1705856780,"current_range_meters":15200,"station_id":"ce4bh0h2rcd13ifvqd50","pricing_plan_id":"free"},{"bike_id":"a243049c-cdfe-41f2-b36e-1c7d5bc95b67","system_id":"levelo_inurba_marseille","lat":43.286591,"lon":5.363346,"is_reserved":false,"is_disabled":false,"rental_uris":{"android":"levelo://app?vid=a243049c-cdfe-41f2-b36e-1c7d5bc95b67","ios":"levelo://app?vid=a243049c-cdfe-41f2-b36e-1c7d5bc95b67"},"vehicle_type_id":"4","last_reported":1705856780,"current_range_meters":18400,"station_id":"ce4bhah2rcd13ifvqej0","pricing_plan_id":"free"},{"bike_id":"0f99cd81-d20c-46c4-869d-6c1c98e83002","system_id":"levelo_inurba_marseille","lat":43.286591,"lon":5.363346,"is_reserved":false,"is_disabled":false,"rental_uris":{"android":"levelo://app?vid=0f99cd81-d20c-46c4-869d-6c1c98e83002","ios":"levelo://app?vid=0f99cd81-d20c-46c4-869d-6c1c98e83002"},"vehicle_type_id":"4","last_reported":1705856780,"current_range_meters":18400,"station_id":"ce4bhah2rcd13ifvqej0","pricing_plan_id":"free"},{"bike_id":"40ca0ad9-4d65-4b9a-bb60-0032b41fc126","system_id":"levelo_inurba_marseille","lat":43.286591,"lon":5.363346,"is_reserved":false,"is_disabled":false,"rental_uris":{"android":"levelo://app?vid=40ca0ad9-4d65-4b9a-bb60-0032b41fc126","ios":"levelo://app?vid=40ca0ad9-4d65-4b9a-bb60-0032b41fc126"},"vehicle_type_id":"4","last_reported":1705856780,"current_range_meters":27600,"station_id":"ce4bhah2rcd13ifvqej0","pricing_plan_id":"free"},{"bike_id":"aea9d195-2ae0-4fe3-a1f9-5c11773720cc","system_id":"levelo_inurba_marseille","lat":43.2866,"lon":5.36353,"is_reserved":false,"is_disabled":false,"rental_uris":{"android":"levelo://app?vid=aea9d195-2ae0-4fe3-a1f9-5c11773720cc","ios":"levelo://app?vid=aea9d195-2ae0-4fe3-a1f9-5c11773720cc"},"vehicle_type_id":"4","last_reported":1705856780,"current_range_meters":31200,"station_id":"ce4bhah2rcd13ifvqej0","pricing_plan_id":"free"},{"bike_id":"d5b015c3-7707-4017-a0f7-9a289d3c8e8e","system_id":"levelo_inurba_marseille","lat":43.298681,"lon":5.397225,"is_reserved":false,"is_disabled":false,"rental_uris":{"android":"levelo://app?vid=d5b015c3-7707-4017-a0f7-9a289d3c8e8e","ios":"levelo://app?vid=d5b015c3-7707-4017-a0f7-9a289d3c8e8e"},"vehicle_type_id":"4","last_reported":1705856780,"current_range_meters":19600,"station_id":"ce4bh0h2rcd13ifvqd50","pricing_plan_id":"free"},{"bike_id":"fadef340-1e29-416f-a4b5-6420aaedaf47","system_id":"levelo_inurba_marseille","lat":43.286593,"lon":5.363346,"is_reserved":false,"is_disabled":false,"rental_uris":{"android":"levelo://app?vid=fadef340-1e29-416f-a4b5-6420aaedaf47","ios":"levelo://app?vid=fadef340-1e29-416f-a4b5-6420aaedaf47"},"vehicle_type_id":"4","last_reported":1705856780,"current_range_meters":20000,"station_id":"ce4bhah2rcd13ifvqej0","pricing_plan_id":"free"},{"bike_id":"e402a46e-710e-4e16-875a-9e376c035908","system_id":"levelo_inurba_marseille","lat":43.295196,"lon":5.39397,"is_reserved":false,"is_disabled":false,"rental_uris":{"android":"levelo://app?vid=e402a46e-710e-4e16-875a-9e376c035908","ios":"levelo://app?vid=e402a46e-710e-4e16-875a-9e376c035908"},"vehicle_type_id":"4","last_reported":1705856780,"current_range_meters":27200,"station_id":"ce4bh292rcd13ifvqdf0","pricing_plan_id":"free"},{"bike_id":"68ea820d-0074-4ad0-9509-770e4123772e","system_id":"levelo_inurba_marseille","lat":43.295194,"lon":5.39397,"is_reserved":false,"is_disabled":false,"rental_uris":{"android":"levelo://app?vid=68ea820d-0074-4ad0-9509-770e4123772e","ios":"levelo://app?vid=68ea820d-0074-4ad0-9509-770e4123772e"},"vehicle_type_id":"4","last_reported":1705856780,"current_range_meters":1200,"station_id":"ce4bh292rcd13ifvqdf0","pricing_plan_id":"free"},{"bike_id":"48d994dd-a3a0-478c-b7f0-21a26afd4479","system_id":"levelo_inurba_marseille","lat":43.29039,"lon":5.38646,"is_reserved":false,"is_disabled":false,"rental_uris":{"android":"levelo://app?vid=48d994dd-a3a0-478c-b7f0-21a26afd4479","ios":"levelo://app?vid=48d994dd-a3a0-478c-b7f0-21a26afd4479"},"vehicle_type_id":"4","last_reported":1705856780,"current_range_meters":7200,"station_id":"ce4bh4p2rcd13ifvqe0g","pricing_plan_id":"free"},{"bike_id":"d3c3fdf0-10d1-4e10-bb99-4fdf9ed3ec91","system_id":"levelo_inurba_marseille","lat":43.295196,"lon":5.39397,"is_reserved":false,"is_disabled":false,"rental_uris":{"android":"levelo://app?vid=d3c3fdf0-10d1-4e10-bb99-4fdf9ed3ec91","ios":"levelo://app?vid=d3c3fdf0-10d1-4e10-bb99-4fdf9ed3ec91"},"vehicle_type_id":"4","last_reported":1705856780,"current_range_meters":25600,"station_id":"ce4bh292rcd13ifvqdf0","pricing_plan_id":"free"},{"bike_id":"ef8d11ab-e8d5-4f5d-8699-0725a72b2c16","system_id":"levelo_inurba_marseille","lat":43.29037,"lon":5.386477,"is_reserved":false,"is_disabled":false,"rental_uris":{"android":"levelo://app?vid=ef8d11ab-e8d5-4f5d-8699-0725a72b2c16","ios":"levelo://app?vid=ef8d11ab-e8d5-4f5d-8699-0725a72b2c16"},"vehicle_type_id":"4","last_reported":1705856780,"current_range_meters":7200,"station_id":"ce4bh4p2rcd13ifvqe0g","pricing_plan_id":"free"},{"bike_id":"e1a11faf-bcc1-4e11-b90d-8e4b393e7d64","system_id":"levelo_inurba_marseille","lat":43.29023,"lon":5.38634,"is_reserved":false,"is_disabled":false,"rental_uris":{"android":"levelo://app?vid=e1a11faf-bcc1-4e11-b90d-8e4b393e7d64","ios":"levelo://app?vid=e1a11faf-bcc1-4e11-b90d-8e4b393e7d64"},"vehicle_type_id":"4","last_reported":1705856780,"current_range_meters":26000,"station_id":"ce4bh4p2rcd13ifvqe0g","pricing_plan_id":"free"},{"bike_id":"23a7ad59-caff-4e03-9119-5e384db64950","system_id":"levelo_inurba_marseille","lat":43.302507,"lon":5.40069,"is_reserved":false,"is_disabled":false,"rental_uris":{"android":"levelo://app?vid=23a7ad59-caff-4e03-9119-5e384db64950","ios":"levelo://app?vid=23a7ad59-caff-4e03-9119-5e384db64950"},"vehicle_type_id":"4","last_reported":1705856780,"current_range_meters":0,"station_id":"ce4bgvh2rcd13ifvqcs0","pricing_plan_id":"free"},{"bike_id":"0fe177a9-be76-419f-ace5-19afd0ec9538","system_id":"levelo_inurba_marseille","lat":43.289307,"lon":5.38406,"is_reserved":false,"is_disabled":false,"rental_uris":{"android":"levelo://app?vid=0fe177a9-be76-419f-ace5-19afd0ec9538","ios":"levelo://app?vid=0fe177a9-be76-419f-ace5-19afd0ec9538"},"vehicle_type_id":"4","last_reported":1705856780,"current_range_meters":23200,"station_id":"ce4bh612rcd13ifvqe6g","pricing_plan_id":"free"},{"bike_id":"bec7d781-bce6-49df-a42e-6297be6c1a3a","system_id":"levelo_inurba_marseille","lat":43.290336,"lon":5.386425,"is_reserved":false,"is_disabled":false,"rental_uris":{"android":"levelo://app?vid=bec7d781-bce6-49df-a42e-6297be6c1a3a","ios":"levelo://app?vid=bec7d781-bce6-49df-a42e-6297be6c1a3a"},"vehicle_type_id":"4","last_reported":1705856780,"current_range_meters":11600,"station_id":"ce4bh4p2rcd13ifvqe0g","pricing_plan_id":"free"},{"bike_id":"b1d1690f-a43a-4fb9-bcc0-632b47de3dce","system_id":"levelo_inurba_marseille","lat":43.290336,"lon":5.386425,"is_reserved":false,"is_disabled":false,"rental_uris":{"android":"levelo://app?vid=b1d1690f-a43a-4fb9-bcc0-632b47de3dce","ios":"levelo://app?vid=b1d1690f-a43a-4fb9-bcc0-632b47de3dce"},"vehicle_type_id":"4","last_reported":1705856780,"current_range_meters":14800,"station_id":"ce4bh4p2rcd13ifvqe0g","pricing_plan_id":"free"},{"bike_id":"532f2b40-5b96-4c3d-b85a-1580057b80f3","system_id":"levelo_inurba_marseille","lat":43.286039,"lon":5.370679,"is_reserved":false,"is_disabled":false,"rental_uris":{"android":"levelo://app?vid=532f2b40-5b96-4c3d-b85a-1580057b80f3","ios":"levelo://app?vid=532f2b40-5b96-4c3d-b85a-1580057b80f3"},"vehicle_type_id":"4","last_reported":1705856780,"current_range_meters":19600,"station_id":"ce4bht12rcd13ifvqi60","pricing_plan_id":"free"},{"bike_id":"350e88f5-3b30-4170-a22a-a78ef6251a86","system_id":"levelo_inurba_marseille","lat":43.286039,"lon":5.370679,"is_reserved":false,"is_disabled":false,"rental_uris":{"android":"levelo://app?vid=350e88f5-3b30-4170-a22a-a78ef6251a86","ios":"levelo://app?vid=350e88f5-3b30-4170-a22a-a78ef6251a86"},"vehicle_type_id":"4","last_reported":1705856780,"current_range_meters":31200,"station_id":"ce4bht12rcd13ifvqi60","pricing_plan_id":"free"},{"bike_id":"262dfe03-d743-42fe-92ce-41301d974bd4","system_id":"levelo_inurba_marseille","lat":43.286039,"lon":5.370679,"is_reserved":false,"is_disabled":false,"rental_uris":{"android":"levelo://app?vid=262dfe03-d743-42fe-92ce-41301d974bd4","ios":"levelo://app?vid=262dfe03-d743-42fe-92ce-41301d974bd4"},"vehicle_type_id":"4","last_reported":1705856780,"current_range_meters":9600,"station_id":"ce4bht12rcd13ifvqi60","pricing_plan_id":"free"},{"bike_id":"cf2653c3-51d0-40bd-8f20-b59522a85abb","system_id":"levelo_inurba_marseille","lat":43.286039,"lon":5.370681,"is_reserved":false,"is_disabled":false,"rental_uris":{"android":"levelo://app?vid=cf2653c3-51d0-40bd-8f20-b59522a85abb","ios":"levelo://app?vid=cf2653c3-51d0-40bd-8f20-b59522a85abb"},"vehicle_type_id":"4","last_reported":1705856780,"current_range_meters":0,"station_id":"ce4bht12rcd13ifvqi60","pricing_plan_id":"free"},{"bike_id":"f11ae0af-9b2c-44fe-8040-db84d0dc34b6","system_id":"levelo_inurba_marseille","lat":43.287184,"lon":5.37937,"is_reserved":false,"is_disabled":false,"rental_uris":{"android":"levelo://app?vid=f11ae0af-9b2c-44fe-8040-db84d0dc34b6","ios":"levelo://app?vid=f11ae0af-9b2c-44fe-8040-db84d0dc34b6"},"vehicle_type_id":"4","last_reported":1705856780,"current_range_meters":8000,"station_id":"ce4bh9p2rcd13ifvqec0","pricing_plan_id":"free"},{"bike_id":"52bb99c9-d642-406c-a3e0-50496bee9f56","system_id":"levelo_inurba_marseille","lat":43.287184,"lon":5.37937,"is_reserved":false,"is_disabled":false,"rental_uris":{"android":"levelo://app?vid=52bb99c9-d642-406c-a3e0-50496bee9f56","ios":"levelo://app?vid=52bb99c9-d642-406c-a3e0-50496bee9f56"},"vehicle_type_id":"4","last_reported":1705856780,"current_range_meters":9600,"station_id":"ce4bh9p2rcd13ifvqec0","pricing_plan_id":"free"},{"bike_id":"c7853af9-13a6-4a06-8d5a-674e8822f420","system_id":"levelo_inurba_marseille","lat":43.287184,"lon":5.37937,"is_reserved":false,"is_disabled":false,"rental_uris":{"android":"levelo://app?vid=c7853af9-13a6-4a06-8d5a-674e8822f420","ios":"levelo://app?vid=c7853af9-13a6-4a06-8d5a-674e8822f420"},"vehicle_type_id":"4","last_reported":1705856780,"current_range_meters":15200,"station_id":"ce4bh9p2rcd13ifvqec0","pricing_plan_id":"free"},{"bike_id":"9c1a748d-17e5-4305-aae1-4e758ba640d8","system_id":"levelo_inurba_marseille","lat":43.28979,"lon":5.388,"is_reserved":false,"is_disabled":false,"rental_uris":{"android":"levelo://app?vid=9c1a748d-17e5-4305-aae1-4e758ba640d8","ios":"levelo://app?vid=9c1a748d-17e5-4305-aae1-4e758ba640d8"},"vehicle_type_id":"4","last_reported":1705856780,"current_range_meters":26400,"station_id":"ce4bh4p2rcd13ifvqe0g","pricing_plan_id":"free"},{"bike_id":"eca104f4-5a73-4e2a-b0a4-68a84ee93aae","system_id":"levelo_inurba_marseille","lat":43.316909,"lon":5.40458,"is_reserved":false,"is_disabled":false,"rental_uris":{"android":"levelo://app?vid=eca104f4-5a73-4e2a-b0a4-68a84ee93aae","ios":"levelo://app?vid=eca104f4-5a73-4e2a-b0a4-68a84ee93aae"},"vehicle_type_id":"4","last_reported":1705856780,"current_range_meters":30000,"station_id":"ce4bh012rcd13ifvqd00","pricing_plan_id":"free"},{"bike_id":"70a4f4b1-130d-46ae-8ae7-05caab9f3b5f","system_id":"levelo_inurba_marseille","lat":43.31695,"lon":5.40467,"is_reserved":false,"is_disabled":false,"rental_uris":{"android":"levelo://app?vid=70a4f4b1-130d-46ae-8ae7-05caab9f3b5f","ios":"levelo://app?vid=70a4f4b1-130d-46ae-8ae7-05caab9f3b5f"},"vehicle_type_id":"4","last_reported":1705856780,"current_range_meters":23200,"station_id":"ce4bh012rcd13ifvqd00","pricing_plan_id":"free"},{"bike_id":"7e0fca35-e963-43d1-b024-ecd419334c34","system_id":"levelo_inurba_marseille","lat":43.31698,"lon":5.40471,"is_reserved":false,"is_disabled":false,"rental_uris":{"android":"levelo://app?vid=7e0fca35-e963-43d1-b024-ecd419334c34","ios":"levelo://app?vid=7e0fca35-e963-43d1-b024-ecd419334c34"},"vehicle_type_id":"4","last_reported":1705856780,"current_range_meters":14000,"station_id":"ce4bh012rcd13ifvqd00","pricing_plan_id":"free"},{"bike_id":"404301b5-1e93-488f-86be-67ddba377e0f","system_id":"levelo_inurba_marseille","lat":43.31683,"lon":5.40489,"is_reserved":false,"is_disabled":false,"rental_uris":{"android":"levelo://app?vid=404301b5-1e93-488f-86be-67ddba377e0f","ios":"levelo://app?vid=404301b5-1e93-488f-86be-67ddba377e0f"},"vehicle_type_id":"4","last_reported":1705856780,"current_range_meters":20000,"station_id":"ce4bh012rcd13ifvqd00","pricing_plan_id":"free"},{"bike_id":"7e4866e6-6370-4a11-b725-9cb87066b600","system_id":"levelo_inurba_marseille","lat":43.291994,"lon":5.392907,"is_reserved":false,"is_disabled":false,"rental_uris":{"android":"levelo://app?vid=7e4866e6-6370-4a11-b725-9cb87066b600","ios":"levelo://app?vid=7e4866e6-6370-4a11-b725-9cb87066b600"},"vehicle_type_id":"4","last_reported":1705856780,"current_range_meters":27600,"station_id":"ce4bh192rcd13ifvqdd0","pricing_plan_id":"free"},{"bike_id":"8f2a5469-cb8d-4a3d-a453-519949d7035b","system_id":"levelo_inurba_marseille","lat":43.291994,"lon":5.392907,"is_reserved":false,"is_disabled":false,"rental_uris":{"android":"levelo://app?vid=8f2a5469-cb8d-4a3d-a453-519949d7035b","ios":"levelo://app?vid=8f2a5469-cb8d-4a3d-a453-519949d7035b"},"vehicle_type_id":"4","last_reported":1705856780,"current_range_meters":12400,"station_id":"ce4bh192rcd13ifvqdd0","pricing_plan_id":"free"},{"bike_id":"ef5b8425-9ef6-406e-a7af-926082daa3e8","system_id":"levelo_inurba_marseille","lat":43.2846,"lon":5.35887,"is_reserved":false,"is_disabled":false,"rental_uris":{"android":"levelo://app?vid=ef5b8425-9ef6-406e-a7af-926082daa3e8","ios":"levelo://app?vid=ef5b8425-9ef6-406e-a7af-926082daa3e8"},"vehicle_type_id":"4","last_reported":1705856780,"current_range_meters":0,"station_id":"ce4bhah2rcd13ifvqei0","pricing_plan_id":"free"},