{"last_updated":1741709524,"ttl":60,"version":"2.2","data":{"bikes":[{"bike_id":"9ca55634-bb08-42a8-ba0e-edd2059844df","system_id":"levelo_inurba_marseille","lat":43.29273,"lon":5.37204,"is_reserved":false,"is_disabled":false,"rental_uris":{"android":"levelo://app?vid=9ca55634-bb08-42a8-ba0e-edd2059844df","ios":"levelo://app?vid=9ca55634-bb08-42a8-ba0e-edd2059844df"},"vehicle_type_id":"4","last_reported":1741709524,"current_range_meters":2800,"station_id":"ce4bgh92rcd13ifvqb40","pricing_plan_id":"cebpf4jnsgd1na2vs0mg"},{"bike_id":"b104001a-10f7-4c93-b613-2b76cb885027","system_id":"levelo_inurba_marseille","lat":43.31156,"lon":5.37115,"is_reserved":false,"is_disabled":false,"rental_uris":{"android":"levelo://app?vid=b104001a-10f7-4c93-b613-2b76cb885027","ios":"levelo://app?vid=b104001a-10f7-4c93-b613-2b76cb885027"},"vehicle_type_id":"4","last_reported":1741709524,"current_range_meters":3200,"station_id":"","pricing_plan_id":"cebpf4jnsgd1na2vs0mg"},{"bike_id":"2fbb2f0e-b64e-445e-a2b3-ee5227dc63e4","system_id":"levelo_inurba_marseille","lat":43.26918,"lon":5.3671,"is_reserved":false,"is_disabled":false,"rental_uris":{"android":"levelo://app?vid=2fbb2f0e-b64e-445e-a2b3-ee5227dc63e4","ios":"levelo://app?vid=2fbb2f0e-b64e-445e-a2b3-ee5227dc63e4"},"vehicle_type_id":"4","last_reported":1741709524,"current_range_meters":3600,"station_id":"","pricing_plan_id":"cebpf4jnsgd1na2vs0mg"},{"bike_id":"168cbdfd-bccb-4788-9213-16ff3f19dcd3","system_id":"levelo_inurba_marseille","lat":43.31069,"lon":5.38348,"is_reserved":false,"is_disabled":false,"rental_uris":{"android":"levelo://app?vid=168cbdfd-bccb-4788-9213-16ff3f19dcd3","ios":"levelo://app?vid=168cbdfd-bccb-4788-9213-16ff3f19dcd3"},"vehicle_type_id":"4","last_reported":1741709524,"current_range_meters":3600,"station_id":"ce4bgv92rcd13ifvqcr0","pricing_plan_id":"cebpf4jnsgd1na2vs0mg"},{"bike_id":"bf6c88dd-c58a-4451-aa13-11b212d8894c","system_id":"levelo_inurba_marseille","lat":43.3106,"lon":5.38345,"is_reserved":false,"is_disabled":false,"rental_uris":{"android":"levelo://app?vid=bf6c88dd-c58a-4451-aa13-11b212d8894c","ios":"levelo://app?vid=bf6c88dd-c58a-4451-aa13-11b212d8894c"},"vehicle_type_id":"4","last_reported":1741709524,"current_range_meters":4000,"station_id":"ce4bgv92rcd13ifvqcr0","pricing_plan_id":"cebpf4jnsgd1na2vs0mg"},{"bike_id":"7f08542c-3622-4bee-8852-d0974c0ec085","system_id":"levelo_inurba_marseille","lat":43.24184,"lon":5.36319,"is_reserved":false,"is_disabled":false,"rental_uris":{"android":"levelo://app?vid=7f08542c-3622-4bee-8852-d0974c0ec085","ios":"levelo://app?vid=7f08542c-3622-4bee-8852-d0974c0ec085"},"vehicle_type_id":"4","last_reported":1741709524,"current_range_meters":4000,"station_id":"","pricing_plan_id":"cebpf4jnsgd1na2vs0mg"},{"bike_id":"f8e2ab3f-e9d5-493e-8f74-2ff78a11cc4b","system_id":"levelo_inurba_marseille","lat":43.29873,"lon":5.39736,"is_reserved":false,"is_disabled":false,"rental_uris":{"android":"levelo://app?vid=f8e2ab3f-e9d5-493e-8f74-2ff78a11cc4b","ios":"levelo://app?vid=f8e2ab3f-e9d5-493e-8f74-2ff78a11cc4b"},"vehicle_type_id":"4","last_reported":1741709524,"current_range_meters":4800,"station_id":"ce4bh0h2rcd13ifvqd50","pricing_plan_id":"cebpf4jnsgd1na2vs0mg"},{"bike_id":"148190b4-7e65-41e6-9f23-90582424918f","system_id":"levelo_inurba_marseille","lat":43.26941,"lon":5.40262,"is_reserved":false,"is_disabled":false,"rental_uris":{"android":"levelo://app?vid=148190b4-7e65-41e6-9f23-90582424918f","ios":"levelo://app?vid=148190b4-7e65-41e6-9f23-90582424918f"},"vehicle_type_id":"4","last_reported":1741709524,"current_range_meters":4800,"station_id":"cjm6bp8fraef2m0cb0m0","pricing_plan_id":"cebpf4jnsgd1na2vs0mg"},{"bike_id":"2a5b0257-c764-417a-9ea8-d351156d13a7","system_id":"levelo_inurba_marseille","lat":43.28462,"lon":5.35892,"is_reserved":false,"is_disabled":false,"rental_uris":{"android":"levelo://app?vid=2a5b0257-c764-417a-9ea8-d351156d13a7","ios":"levelo://app?vid=2a5b0257-c764-417a-9ea8-d351156d13a7"},"vehicle_type_id":"4","last_reported":1741709524,"current_range_meters":4800,"station_id":"ce4bhah2rcd13ifvqei0","pricing_plan_id":"cebpf4jnsgd1na2vs0mg"},{"bike_id":"032b1844-bd2a-407a-ad02-73450238b458","system_id":"levelo_inurba_marseille","lat":43.259438,"lon":5.409086,"is_reserved":false,"is_disabled":false,"rental_uris":{"android":"levelo://app?vid=032b1844-bd2a-407a-ad02-73450238b458","ios":"levelo://app?vid=032b1844-bd2a-407a-ad02-73450238b458"},"vehicle_type_id":"4","last_reported":1741709524,"current_range_meters":4800,"station_id":"ce4bh312rcd13ifvqdk0","pricing_plan_id":"cebpf4jnsgd1na2vs0mg"},{"bike_id":"4db736b9-68d3-4f2a-9431-002ce7a44183","system_id":"levelo_inurba_marseille","lat":43.23156,"lon":5.43702,"is_reserved":false,"is_disabled":false,"rental_uris":{"android":"levelo://app?vid=4db736b9-68d3-4f2a-9431-002ce7a44183","ios":"levelo://app?vid=4db736b9-68d3-4f2a-9431-002ce7a44183"},"vehicle_type_id":"4","last_reported":1741709524,"current_range_meters":4800,"station_id":"ce4bhmp2rcd13ifvqgog","pricing_plan_id":"cebpf4jnsgd1na2vs0mg"},{"bike_id":"e2111d68-6b13-4bda-8d79-8537217dfd9e","system_id":"levelo_inurba_marseille","lat":43.30108,"lon":5.39057,"is_reserved":false,"is_disabled":false,"rental_uris":{"android":"levelo://app?vid=e2111d68-6b13-4bda-8d79-8537217dfd9e","ios":"levelo://app?vid=e2111d68-6b13-4bda-8d79-8537217dfd9e"},"vehicle_type_id":"4","last_reported":1741709524,"current_range_meters":6000,"station_id":"ce4bh192rcd13ifvqdb0","pricing_plan_id":"cebpf4jnsgd1na2vs0mg"},{"bike_id":"c0042d76-6eb9-4507-8004-d614a3b13b33","system_id":"levelo_inurba_marseille","lat":43.31069,"lon":5.38335,"is_reserved":false,"is_disabled":false,"rental_uris":{"android":"levelo://app?vid=c0042d76-6eb9-4507-8004-d614a3b13b33","ios":"levelo://app?vid=c0042d76-6eb9-4507-8004-d614a3b13b33"},"vehicle_type_id":"4","last_reported":1741709524,"current_range_meters":6000,"station_id":"ce4bgv92rcd13ifvqcr0","pricing_plan_id":"cebpf4jnsgd1na2vs0mg"},{"bike_id":"240e5725-dbc2-45bf-a677-7748c9fd91c5","system_id":"levelo_inurba_marseille","lat":43.30432,"lon":5.38883,"is_reserved":false,"is_disabled":false,"rental_uris":{"android":"levelo://app?vid=240e5725-dbc2-45bf-a677-7748c9fd91c5","ios":"levelo://app?vid=240e5725-dbc2-45bf-a677-7748c9fd91c5"},"vehicle_type_id":"4","last_reported":1741709524,"current_range_meters":6000,"station_id":"ce4bgk12rcd13ifvqbi0","pricing_plan_id":"cebpf4jnsgd1na2vs0mg"},{"bike_id":"edb857b4-1bfb-4342-b5b8-95cfecfaa77c","system_id":"levelo_inurba_marseille","lat":43.250035,"lon":5.389347,"is_reserved":false,"is_disabled":false,"rental_uris":{"android":"levelo://app?vid=edb857b4-1bfb-4342-b5b8-95cfecfaa77c","ios":"levelo://app?vid=edb857b4-1bfb-4342-b5b8-95cfecfaa77c"},"vehicle_type_id":"4","last_reported":1741709524,"current_range_meters":6400,"station_id":"ce4bhgp2rcd13ifvqfd0","pricing_plan_id":"cebpf4jnsgd1na2vs0mg"},{"bike_id":"1fd84d66-831e-43e5-9874-a3003b2d7563","system_id":"levelo_inurba_marseille","lat":43.26554,"lon":5.37284,"is_reserved":false,"is_disabled":false,"rental_uris":{"android":"levelo://app?vid=1fd84d66-831e-43e5-9874-a3003b2d7563","ios":"levelo://app?vid=1fd84d66-831e-43e5-9874-a3003b2d7563"},"vehicle_type_id":"4","last_reported":1741709524,"current_range_meters":6400,"station_id":"ce4bhg12rcd13ifvqf70","pricing_plan_id":"cebpf4jnsgd1na2vs0mg"},{"bike_id":"18ff302f-a07d-4ad1-919f-b3ea9443856d","system_id":"levelo_inurba_marseille","lat":43.32661,"lon":5.40988,"is_reserved":false,"is_disabled":false,"rental_uris":{"android":"levelo://app?vid=18ff302f-a07d-4ad1-919f-b3ea9443856d","ios":"levelo://app?vid=18ff302f-a07d-4ad1-919f-b3ea9443856d"},"vehicle_type_id":"4","last_reported":1741709524,"current_range_meters":6400,"station_id":"ce4bhpp2rcd13ifvqhgg","pricing_plan_id":"cebpf4jnsgd1na2vs0mg"},{"bike_id":"42b8606a-5a39-4c18-ab8e-ae2998dcaace","system_id":"levelo_inurba_marseille","lat":43.29891,"lon":5.43673,"is_reserved":false,"is_disabled":false,"rental_uris":{"android":"levelo://app?vid=42b8606a-5a39-4c18-ab8e-ae2998dcaace","ios":"levelo://app?vid=42b8606a-5a39-4c18-ab8e-ae2998dcaace"},"vehicle_type_id":"4","last_reported":1741709524,"current_range_meters":6800,"station_id":"ce4bhpp2rcd13ifvqhfg","pricing_plan_id":"cebpf4jnsgd1na2vs0mg"},{"bike_id":"1fca603f-9aa1-4356-8638-4d79a0841409","system_id":"levelo_inurba_marseille","lat":43.29541,"lon":5.38544,"is_reserved":false,"is_disabled":false,"rental_uris":{"android":"levelo://app?vid=1fca603f-9aa1-4356-8638-4d79a0841409","ios":"levelo://app?vid=1fca603f-9aa1-4356-8638-4d79a0841409"},"vehicle_type_id":"4","last_reported":1741709524,"current_range_meters":6800,"station_id":"ce4bgih2rcd13ifvqba0","pricing_plan_id":"cebpf4jnsgd1na2vs0mg"},{"bike_id":"b70687ef-cc13-4c06-86e0-82b67c36b411","system_id":"levelo_inurba_marseille","lat":43.29794,"lon":5.38094,"is_reserved":false,"is_disabled":false,"rental_uris":{"android":"levelo://app?vid=b70687ef-cc13-4c06-86e0-82b67c36b411","ios":"levelo://app?vid=b70687ef-cc13-4c06-86e0-82b67c36b411"},"vehicle_type_id":"4","last_reported":1741709524,"current_range_meters":6800,"station_id":"ce4bgip2rcd13ifvqbb0","pricing_plan_id":"cebpf4jnsgd1na2vs0mg"},{"bike_id":"dc42e161-3661-4fd6-b581-259d0f327bf6","system_id":"levelo_inurba_marseille","lat":43.23183,"lon":5.39986,"is_reserved":false,"is_disabled":false,"rental_uris":{"android":"levelo://app?vid=dc42e161-3661-4fd6-b581-259d0f327bf6","ios":"levelo://app?vid=dc42e161-3661-4fd6-b581-259d0f327bf6"},"vehicle_type_id":"4","last_reported":1741709524,"current_range_meters":6800,"station_id":"ce4bhn12rcd13ifvqgqg","pricing_plan_id":"cebpf4jnsgd1na2vs0mg"},{"bike_id":"f1459b28-1738-42f1-b12a-1bb0ad48378e","system_id":"levelo_inurba_marseille","lat":43.24657,"lon":5.38156,"is_reserved":false,"is_disabled":false,"rental_uris":{"android":"levelo://app?vid=f1459b28-1738-42f1-b12a-1bb0ad48378e","ios":"levelo://app?vid=f1459b28-1738-42f1-b12a-1bb0ad48378e"},"vehicle_type_id":"4","last_reported":1741709524,"current_range_meters":6800,"station_id":"ce4bhih2rcd13ifvqfr0","pricing_plan_id":"cebpf4jnsgd1na2vs0mg"},{"bike_id":"2a12c545-dc5a-4078-9a4e-2e3a727ce132","system_id":"levelo_inurba_marseille","lat":43.311739,"lon":5.387206,"is_reserved":false,"is_disabled":false,"rental_uris":{"android":"levelo://app?vid=2a12c545-dc5a-4078-9a4e-2e3a727ce132","ios":"levelo://app?vid=2a12c545-dc5a-4078-9a4e-2e3a727ce132"},"vehicle_type_id":"4","last_reported":1741709524,"current_range_meters":6800,"station_id":"ce4bgv12rcd13ifvqcp0","pricing_plan_id":"cebpf4jnsgd1na2vs0mg"},{"bike_id":"c86d68f5-55ee-4a68-ba82-758fa1373f1d","system_id":"levelo_inurba_marseille","lat":43.31714,"lon":5.43688,"is_reserved":false,"is_disabled":false,"rental_uris":{"android":"levelo://app?vid=c86d68f5-55ee-4a68-ba82-758fa1373f1d","ios":"levelo://app?vid=c86d68f5-55ee-4a68-ba82-758fa1373f1d"},"vehicle_type_id":"4","last_reported":1741709524,"current_range_meters":7200,"station_id":"ce4bhp92rcd13ifvqhcg","pricing_plan_id":"cebpf4jnsgd1na2vs0mg"},{"bike_id":"6b42988a-de91-4a30-b407-bb1347588844","system_id":"levelo_inurba_marseille","lat":43.2782,"lon":5.40714,"is_reserved":false,"is_disabled":false,"rental_uris":{"android":"levelo://app?vid=6b42988a-de91-4a30-b407-bb1347588844","ios":"levelo://app?vid=6b42988a-de91-4a30-b407-bb1347588844"},"vehicle_type_id":"4","last_reported":1741709524,"current_range_meters":7200,"station_id":"ce4bhnh2rcd13ifvqgtg","pricing_plan_id":"cebpf4jnsgd1na2vs0mg"},{"bike_id":"dc1e5de0-ad07-4ce5-9e57-797861af1a90","system_id":"levelo_inurba_marseille","lat":43.24388,"lon":5.37064,"is_reserved":false,"is_disabled":false,"rental_uris":{"android":"levelo://app?vid=dc1e5de0-ad07-4ce5-9e57-797861af1a90","ios":"levelo://app?vid=dc1e5de0-ad07-4ce5-9e57-797861af1a90"},"vehicle_type_id":"4","last_reported":1741709524,"current_range_meters":7200,"station_id":"ce4bhhh2rcd13ifvqfk0","pricing_plan_id":"cebpf4jnsgd1na2vs0mg"},{"bike_id":"d903a03d-e39d-4af7-b28b-e7df5d1dccac","system_id":"levelo_inurba_marseille","lat":43.26061,"lon":5.39398,"is_reserved":false,"is_disabled":false,"rental_uris":{"android":"levelo://app?vid=d903a03d-e39d-4af7-b28b-e7df5d1dccac","ios":"levelo://app?vid=d903a03d-e39d-4af7-b28b-e7df5d1dccac"},"vehicle_type_id":"4","last_reported":1741709524,"current_range_meters":7200,"station_id":"ce4bhh92rcd13ifvqfj0","pricing_plan_id":"cebpf4jnsgd1na2vs0mg"},{"bike_id":"76ccce98-afb2-4b3d-8011-197bb3238735","system_id":"levelo_inurba_marseille","lat":43.30902,"lon":5.37182,"is_reserved":false,"is_disabled":false,"rental_uris":{"android":"levelo://app?vid=76ccce98-afb2-4b3d-8011-197bb3238735","ios":"levelo://app?vid=76ccce98-afb2-4b3d-8011-197bb3238735"},"vehicle_type_id":"4","last_reported":1741709524,"current_range_meters":8000,"station_id":"ce4bguh2rcd13ifvqckg","pricing_plan_id":"cebpf4jnsgd1na2vs0mg"},{"bike_id":"cbd6f8ee-d91a-4c06-a50f-8aefa40d8ceb","system_id":"levelo_inurba_marseille","lat":43.2989,"lon":5.43668,"is_reserved":false,"is_disabled":false,"rental_uris":{"android":"levelo://app?vid=cbd6f8ee-d91a-4c06-a50f-8aefa40d8ceb","ios":"levelo://app?vid=cbd6f8ee-d91a-4c06-a50f-8aefa40d8ceb"},"vehicle_type_id":"4","last_reported":1741709524,"current_range_meters":8000,"station_id":"ce4bhpp2rcd13ifvqhfg","pricing_plan_id":"cebpf4jnsgd1na2vs0mg"},{"bike_id":"29c0b409-6aa7-44a9-9a61-6bd316be15ba","system_id":"levelo_inurba_marseille","lat":43.2572,"lon":5.41112,"is_reserved":false,"is_disabled":false,"rental_uris":{"android":"levelo://app?vid=29c0b409-6aa7-44a9-9a61-6bd316be15ba","ios":"levelo://app?vid=29c0b409-6aa7-44a9-9a61-6bd316be15ba"},"vehicle_type_id":"4","last_reported":1741709524,"current_range_meters":8000,"station_id":"ce4bhkp2rcd13ifvqgd0","pricing_plan_id":"cebpf4jnsgd1na2vs0mg"},{"bike_id":"03690356-08e9-4ea7-b9a3-8e88bf471e93","system_id":"levelo_inurba_marseille","lat":43.337444,"lon":5.374475,"is_reserved":false,"is_disabled":false,"rental_uris":{"android":"levelo://app?vid=03690356-08e9-4ea7-b9a3-8e88bf471e93","ios":"levelo://app?vid=03690356-08e9-4ea7-b9a3-8e88bf471e93"},"vehicle_type_id":"4","last_reported":1741709524,"current_range_meters":8000,"station_id":"","pricing_plan_id":"cebpf4jnsgd1na2vs0mg"},{"bike_id":"acc1658b-7ea3-44a5-a65b-40f1faa0438d","system_id":"levelo_inurba_marseille","lat":43.32538,"lon":5.41449,"is_reserved":false,"is_disabled":false,"rental_uris":{"android":"levelo://app?vid=acc1658b-7ea3-44a5-a65b-40f1faa0438d","ios":"levelo://app?vid=acc1658b-7ea3-44a5-a65b-40f1faa0438d"},"vehicle_type_id":"4","last_reported":1741709524,"current_range_meters":8400,"station_id":"ce4bhq12rcd13ifvqhhg","pricing_plan_id":"cebpf4jnsgd1na2vs0mg"},{"bike_id":"0a0d7e94-573b-4213-aa9e-18f9fab7c66a","system_id":"levelo_inurba_marseille","lat":43.26788,"lon":5.39411,"is_reserved":false,"is_disabled":false,"rental_uris":{"android":"levelo://app?vid=0a0d7e94-573b-4213-aa9e-18f9fab7c66a","ios":"levelo://app?vid=0a0d7e94-573b-4213-aa9e-18f9fab7c66a"},"vehicle_type_id":"4","last_reported":1741709524,"current_range_meters":8400,"station_id":"ce4bhh12rcd13ifvqfg0","pricing_plan_id":"cebpf4jnsgd1na2vs0mg"},{"bike_id":"8dc2c2dc-de0f-4fd2-b739-faf253fff5e5","system_id":"levelo_inurba_marseille","lat":43.23152,"lon":5.43715,"is_reserved":false,"is_disabled":false,"rental_uris":{"android":"levelo://app?vid=8dc2c2dc-de0f-4fd2-b739-faf253fff5e5","ios":"levelo://app?vid=8dc2c2dc-de0f-4fd2-b739-faf253fff5e5"},"vehicle_type_id":"4","last_reported":1741709524,"current_range_meters":8400,"station_id":"ce4bhmp2rcd13ifvqgog","pricing_plan_id":"cebpf4jnsgd1na2vs0mg"},{"bike_id":"bff15a5b-a1dd-4788-9a9c-dc988df9f19b","system_id":"levelo_inurba_marseille","lat":43.26789,"lon":5.39417,"is_reserved":false,"is_disabled":false,"rental_uris":{"android":"levelo://app?vid=bff15a5b-a1dd-4788-9a9c-dc988df9f19b","ios":"levelo://app?vid=bff15a5b-a1dd-4788-9a9c-dc988df9f19b"},"vehicle_type_id":"4","last_reported":1741709524,"current_range_meters":8400,"station_id":"ce4bhh12rcd13ifvqfg0","pricing_plan_id":"cebpf4jnsgd1na2vs0mg"},{"bike_id":"fe0de4ce-f100-43bf-be6a-ef3d7559f692","system_id":"levelo_inurba_marseille","lat":43.31255,"lon":5.36835,"is_reserved":false,"is_disabled":false,"rental_uris":{"android":"levelo://app?vid=fe0de4ce-f100-43bf-be6a-ef3d7559f692","ios":"levelo://app?vid=fe0de4ce-f100-43bf-be6a-ef3d7559f692"},"vehicle_type_id":"4","last_reported":1741709524,"current_range_meters":8400,"station_id":"ce4bgl92rcd13ifvqbq0","pricing_plan_id":"cebpf4jnsgd1na2vs0mg"},{"bike_id":"a750f97e-9923-49f6-85ba-96e222be5f41","system_id":"levelo_inurba_marseille","lat":43.27817,"lon":5.40701,"is_reserved":false,"is_disabled":false,"rental_uris":{"android":"levelo://app?vid=a750f97e-9923-49f6-85ba-96e222be5f41","ios":"levelo://app?vid=a750f97e-9923-49f6-85ba-96e222be5f41"},"vehicle_type_id":"4","last_reported":1741709524,"current_range_meters":8400,"station_id":"ce4bhnh2rcd13ifvqgtg","pricing_plan_id":"cebpf4jnsgd1na2vs0mg"},{"bike_id":"bf2feb02-4272-4476-92f9-9420844c4078","system_id":"levelo_inurba_marseille","lat":43.31166,"lon":5.376,"is_reserved":false,"is_disabled":false,"rental_uris":{"android":"levelo://app?vid=bf2feb02-4272-4476-92f9-9420844c4078","ios":"levelo://app?vid=bf2feb02-4272-4476-92f9-9420844c4078"},"vehicle_type_id":"4","last_reported":1741709524,"current_range_meters":8400,"station_id":"","pricing_plan_id":"cebpf4jnsgd1na2vs0mg"},{"bike_id":"09bbb690-af86-458c-bbad-70d10e2033ee","system_id":"levelo_inurba_marseille","lat":43.23055,"lon":5.355,"is_reserved":false,"is_disabled":false,"rental_uris":{"android":"levelo://app?vid=09bbb690-af86-458c-bbad-70d10e2033ee","ios":"levelo://app?vid=09bbb690-af86-458c-bbad-70d10e2033ee"},"vehicle_type_id":"4","last_reported":1741709524,"current_range_meters":8400,"station_id":"cpo3342slgdg3j2ifvpg","pricing_plan_id":"cebpf4jnsgd1na2vs0mg"},{"bike_id":"80771939-f406-42f7-81c5-33180fd8a338","system_id":"levelo_inurba_marseille","lat":43.23222,"lon":5.35536,"is_reserved":false,"is_disabled":false,"rental_uris":{"android":"levelo://app?vid=80771939-f406-42f7-81c5-33180fd8a338","ios":"levelo://app?vid=80771939-f406-42f7-81c5-33180fd8a338"},"vehicle_type_id":"4","last_reported":1741709524,"current_range_meters":8400,"station_id":"ce4bhu92rcd13ifvqi70","pricing_plan_id":"cebpf4jnsgd1na2vs0mg"},{"bike_id":"8a49ff3e-4b2f-45dd-a573-cb01049d5051","system_id":"levelo_inurba_marseille","lat":43.3302,"lon":5.39036,"is_reserved":false,"is_disabled":false,"rental_uris":{"android":"levelo://app?vid=8a49ff3e-4b2f-45dd-a573-cb01049d5051","ios":"levelo://app?vid=8a49ff3e-4b2f-45dd-a573-cb01049d5051"},"vehicle_type_id":"4","last_reported":1741709524,"current_range_meters":8400,"station_id":"ce4bhr92rcd13ifvqhrg","pricing_plan_id":"cebpf4jnsgd1na2vs0mg"},{"bike_id":"970771d0-665e-4468-98fc-68584e8af67f","system_id":"levelo_inurba_marseille","lat":43.28036,"lon":5.369537,"is_reserved":false,"is_disabled":false,"rental_uris":{"android":"levelo://app?vid=970771d0-665e-4468-98fc-68584e8af67f","ios":"levelo://app?vid=970771d0-665e-4468-98fc-68584e8af67f"},"vehicle_type_id":"4","last_reported":1741709524,"current_range_meters":8400,"station_id":"ce4bha12rcd13ifvqef0","pricing_plan_id":"cebpf4jnsgd1na2vs0mg"},{"bike_id":"b7670b57-cd81-45b6-863d-e5ba879fc226","system_id":"levelo_inurba_marseille","lat":43.28491,"lon":5.3842,"is_reserved":false,"is_disabled":false,"rental_uris":{"android":"levelo://app?vid=b7670b57-cd81-45b6-863d-e5ba879fc226","ios":"levelo://app?vid=b7670b57-cd81-45b6-863d-e5ba879fc226"},"vehicle_type_id":"4","last_reported":1741709524,"current_range_meters":8400,"station_id":"ce4bh512rcd13ifvqe3g","pricing_plan_id":"cebpf4jnsgd1na2vs0mg"},{"bike_id":"8227630a-87bb-47d1-b3e5-db75f7bf6372","system_id":"levelo_inurba_marseille","lat":43.30797,"lon":5.38174,"is_reserved":false,"is_disabled":false,"rental_uris":{"android":"levelo://app?vid=8227630a-87bb-47d1-b3e5-db75f7bf6372","ios":"levelo://app?vid=8227630a-87bb-47d1-b3e5-db75f7bf6372"},"vehicle_type_id":"4","last_reported":1741709524,"current_range_meters":7200,"station_id":"ce4bgt12rcd13ifvqce0","pricing_plan_id":"cebpf4jnsgd1na2vs0mg"},{"bike_id":"0a04a9bc-bb4d-439d-a325-dbdf29b73c04","system_id":"levelo_inurba_marseille","lat":43.25826,"lon":5.39434,"is_reserved":false,"is_disabled":false,"rental_uris":{"android":"levelo://app?vid=0a04a9bc-bb4d-439d-a325-dbdf29b73c04","ios":"levelo://app?vid=0a04a9bc-bb4d-439d-a325-dbdf29b73c04"},"vehicle_type_id":"4","last_reported":1741709524,"current_range_meters":8800,"station_id":"ce4bhip2rcd13ifvqft0","pricing_plan_id":"cebpf4jnsgd1na2vs0mg"},{"bike_id":"a987ddd7-2876-46bf-875f-93e3ec29042b","system_id":"levelo_inurba_marseille","lat":43.31242,"lon":5.36866,"is_reserved":false,"is_disabled":false,"rental_uris":{"android":"levelo://app?vid=a987ddd7-2876-46bf-875f-93e3ec29042b","ios":"levelo://app?vid=a987ddd7-2876-46bf-875f-93e3ec29042b"},"vehicle_type_id":"4","last_reported":1741709524,"current_range_meters":8800,"station_id":"ce4bgl92rcd13ifvqbq0","pricing_plan_id":"cebpf4jnsgd1na2vs0mg"},{"bike_id":"5986df55-306f-495f-a5f7-7c26c54f0754","system_id":"levelo_inurba_marseille","lat":43.29811,"lon":5.38106,"is_reserved":false,"is_disabled":false,"rental_uris":{"android":"levelo://app?vid=5986df55-306f-495f-a5f7-7c26c54f0754","ios":"levelo://app?vid=5986df55-306f-495f-a5f7-7c26c54f0754"},"vehicle_type_id":"4","last_reported":1741709524,"current_range_meters":8800,"station_id":"ce4bgip2rcd13ifvqbb0","pricing_plan_id":"cebpf4jnsgd1na2vs0mg"},{"bike_id":"9cde68da-b18a-40b4-91c1-1919e6c834c0","system_id":"levelo_inurba_marseille","lat":43.27814,"lon":5.40713,"is_reserved":false,"is_disabled":false,"rental_uris":{"android":"levelo://app?vid=9cde68da-b18a-40b4-91c1-1919e6c834c0","ios":"levelo://app?vid=9cde68da-b18a-40b4-91c1-1919e6c834c0"},"vehicle_type_id":"4","last_reported":1741709524,"current_range_meters":8800,"station_id":"ce4bhnh2rcd13ifvqgtg","pricing_plan_id":"cebpf4jnsgd1na2vs0mg"},{"bike_id":"9d3e472e-a042-4b73-8cc3-da2526aad51c","system_id":"levelo_inurba_marseille","lat":43.24806,"lon":5.37461,"is_reserved":false,"is_disabled":false,"rental_uris":{"android":"levelo://app?vid=9d3e472e-a042-4b73-8cc3-da2526aad51c","ios":"levelo://app?vid=9d3e472e-a042-4b73-8cc3-da2526aad51c"},"vehicle_type_id":"4","last_reported":1741709524,"current_range_meters":9200,"station_id":"ce4bhgh2rcd13ifvqfb0","pricing_plan_id":"cebpf4jnsgd1na2vs0mg"},{"bike_id":"c645f84a-3a46-4b6d-abe2-babf64ad0b3b","system_id":"levelo_inurba_marseille","lat":43.29797,"lon":5.39343,"is_reserved":false,"is_disabled":false,"rental_uris":{"android":"levelo://app?vid=c645f84a-3a46-4b6d-abe2-babf64ad0b3b","ios":"levelo://app?vid=c645f84a-3a46-4b6d-abe2-babf64ad0b3b"},"vehicle_type_id":"4","last_reported":1741709524,"current_range_meters":9200,"station_id":"chh1huq6cuj3fo74tm60","pricing_plan_id":"cebpf4jnsgd1na2vs0mg"},{"bike_id":"a6907114-91e5-4406-958d-4b895c3084d0","system_id":"levelo_inurba_marseille","lat":43.29892,"lon":5.43675,"is_reserved":false,"is_disabled":false,"rental_uris":{"android":"levelo://app?vid=a6907114-91e5-4406-958d-4b895c3084d0","ios":"levelo://app?vid=a6907114-91e5-4406-958d-4b895c3084d0"},"vehicle_type_id":"4","last_reported":1741709524,"current_range_meters":9200,"station_id":"ce4bhpp2rcd13ifvqhfg","pricing_plan_id":"cebpf4jnsgd1na2vs0mg"},{"bike_id":"7aa4cc6c-13e4-4414-85d1-0f721845c517","system_id":"levelo_inurba_marseille","lat":43.29965,"lon":5.38498,"is_reserved":false,"is_disabled":false,"rental_uris":{"android":"levelo://app?vid=7aa4cc6c-13e4-4414-85d1-0f721845c517","ios":"levelo://app?vid=7aa4cc6c-13e4-4414-85d1-0f721845c517"},"vehicle_type_id":"4","last_reported":1741709524,"current_range_meters":9200,"station_id":"ce4bgj92rcd13ifvqbd0","pricing_plan_id":"cebpf4jnsgd1na2vs0mg"},{"bike_id":"399adae0-1760-437e-86fe-b74f65487b0c","system_id":"levelo_inurba_marseille","lat":43.27984,"lon":5.41703,"is_reserved":false,"is_disabled":false,"rental_uris":{"android":"levelo://app?vid=399adae0-1760-437e-86fe-b74f65487b0c","ios":"levelo://app?vid=399adae0-1760-437e-86fe-b74f65487b0c"},"vehicle_type_id":"4","last_reported":1741709524,"current_range_meters":9200,"station_id":"ce4bho12rcd13ifvqh1g","pricing_plan_id":"cebpf4jnsgd1na2vs0mg"},{"bike_id":"4cec564b-d941-4722-88de-c697f9c7fe7c","system_id":"levelo_inurba_marseille","lat":43.29885,"lon":5.38124,"is_reserved":false,"is_disabled":false,"rental_uris":{"android":"levelo://app?vid=4cec564b-d941-4722-88de-c697f9c7fe7c","ios":"levelo://app?vid=4cec564b-d941-4722-88de-c697f9c7fe7c"},"vehicle_type_id":"4","last_reported":1741709524,"current_range_meters":9200,"station_id":"ce4bgj12rcd13ifvqbc0","pricing_plan_id":"cebpf4jnsgd1na2vs0mg"},{"bike_id":"0d9431e1-f868-427a-acb7-8ddd048ba317","system_id":"levelo_inurba_marseille","lat":43.29842,"lon":5.36285,"is_reserved":false,"is_disabled":false,"rental_uris":{"android":"levelo://app?vid=0d9431e1-f868-427a-acb7-8ddd048ba317","ios":"levelo://app?vid=0d9431e1-f868-427a-acb7-8ddd048ba317"},"vehicle_type_id":"4","last_reported":1741709524,"current_range_meters":9200,"station_id":"ce4bgpp2rcd13ifvqc3g","pricing_plan_id":"cebpf4jnsgd1na2vs0mg"},{"bike_id":"a4651500-0781-416a-b6f3-1ff032ec9869","system_id":"levelo_inurba_marseille","lat":43.28705,"lon":5.37373,"is_reserved":false,"is_disabled":false,"rental_uris":{"android":"levelo://app?vid=a4651500-0781-416a-b6f3-1ff032ec9869","ios":"levelo://app?vid=a4651500-0781-416a-b6f3-1ff032ec9869"},"vehicle_type_id":"4","last_reported":1741709524,"current_range_meters":9200,"station_id":"ce4bh3p2rcd13ifvqdq0","pricing_plan_id":"cebpf4jnsgd1na2vs0mg"},{"bike_id":"6ccdf2f5-414f-41cc-bb56-6956a18cbb51","system_id":"levelo_inurba_marseille","lat":43.2681,"lon":5.39375,"is_reserved":false,"is_disabled":false,"rental_uris":{"android":"levelo://app?vid=6ccdf2f5-414f-41cc-bb56-6956a18cbb51","ios":"levelo://app?vid=6ccdf2f5-414f-41cc-bb56-6956a18cbb51"},"vehicle_type_id":"4","last_reported":1741709524,"current_range_meters":9200,"station_id":"ce4bhh12rcd13ifvqfg0","pricing_plan_id":"cebpf4jnsgd1na2vs0mg"},{"bike_id":"b9680ac6-d12e-4a12-9dd8-1396db5e067b","system_id":"levelo_inurba_marseille","lat":43.23195,"lon":5.43631,"is_reserved":false,"is_disabled":false,"rental_uris":{"android":"levelo://app?vid=b9680ac6-d12e-4a12-9dd8-1396db5e067b","ios":"levelo://app?vid=b9680ac6-d12e-4a12-9dd8-1396db5e067b"},"vehicle_type_id":"4","last_reported":1741709524,"current_range_meters":9600,"station_id":"ce4bhmp2rcd13ifvqgog","pricing_plan_id":"cebpf4jnsgd1na2vs0mg"},{"bike_id":"2f08d6ac-552f-4591-a545-27a8b0a844a5","system_id":"levelo_inurba_marseille","lat":43.3047,"lon":5.38215,"is_reserved":false,"is_disabled":false,"rental_uris":{"android":"levelo://app?vid=2f08d6ac-552f-4591-a545-27a8b0a844a5","ios":"levelo://app?vid=2f08d6ac-552f-4591-a545-27a8b0a844a5"},"vehicle_type_id":"4","last_reported":1741709524,"current_range_meters":9600,"station_id":"","pricing_plan_id":"cebpf4jnsgd1na2vs0mg"},{"bike_id":"879668bd-6cb5-493d-b5b4-74771aa97449","system_id":"levelo_inurba_marseille","lat":43.29015,"lon":5.38145,"is_reserved":false,"is_disabled":false,"rental_uris":{"android":"levelo://app?vid=879668bd-6cb5-493d-b5b4-74771aa97449","ios":"levelo://app?vid=879668bd-6cb5-493d-b5b4-74771aa97449"},"vehicle_type_id":"4","last_reported":1741709524,"current_range_meters":9600,"station_id":"ce4bh4p2rcd13ifvqe1g","pricing_plan_id":"cebpf4jnsgd1na2vs0mg"},{"bike_id":"485c1a28-1b14-4d48-a9dc-804590b1c873","system_id":"levelo_inurba_marseille","lat":43.24649,"lon":5.38897,"is_reserved":false,"is_disabled":false,"rental_uris":{"android":"levelo://app?vid=485c1a28-1b14-4d48-a9dc-804590b1c873","ios":"levelo://app?vid=485c1a28-1b14-4d48-a9dc-804590b1c873"},"vehicle_type_id":"4","last_reported":1741709524,"current_range_meters":9600,"station_id":"ce4bhg12rcd13ifvqf60","pricing_plan_id":"cebpf4jnsgd1na2vs0mg"},{"bike_id":"bfe76b26-4cce-4a8d-8e2e-190cbae21f24","system_id":"levelo_inurba_marseille","lat":43.27176,"lon":5.40981,"is_reserved":false,"is_disabled":false,"rental_uris":{"android":"levelo://app?vid=bfe76b26-4cce-4a8d-8e2e-190cbae21f24","ios":"levelo://app?vid=bfe76b26-4cce-4a8d-8e2e-190cbae21f24"},"vehicle_type_id":"4","last_reported":1741709524,"current_range_meters":9600,"station_id":"ce4bhl12rcd13ifvqgf0","pricing_plan_id":"cebpf4jnsgd1na2vs0mg"},{"bike_id":"c835eee2-01bf-4ff1-a164-4c90e0a065d9","system_id":"levelo_inurba_marseille","lat":43.25004,"lon":5.38931,"is_reserved":false,"is_disabled":false,"rental_uris":{"android":"levelo://app?vid=c835eee2-01bf-4ff1-a164-4c90e0a065d9","ios":"levelo://app?vid=c835eee2-01bf-4ff1-a164-4c90e0a065d9"},"vehicle_type_id":"4","last_reported":1741709524,"current_range_meters":9600,"station_id":"ce4bhgp2rcd13ifvqfd0","pricing_plan_id":"cebpf4jnsgd1na2vs0mg"},{"bike_id":"f640465e-8c9e-425a-8e36-08d8d5201bf6","system_id":"levelo_inurba_marseille","lat":43.23209,"lon":5.35516,"is_reserved":false,"is_disabled":false,"rental_uris":{"android":"levelo://app?vid=f640465e-8c9e-425a-8e36-08d8d5201bf6","ios":"levelo://app?vid=f640465e-8c9e-425a-8e36-08d8d5201bf6"},"vehicle_type_id":"4","last_reported":1741709524,"current_range_meters":9600,"station_id":"ce4bhu92rcd13ifvqi70","pricing_plan_id":"cebpf4jnsgd1na2vs0mg"},{"bike_id":"05388ace-665a-4114-a828-939b708a2589","system_id":"levelo_inurba_marseille","lat":43.23177,"lon":5.39989,"is_reserved":false,"is_disabled":false,"rental_uris":{"android":"levelo://app?vid=05388ace-665a-4114-a828-939b708a2589","ios":"levelo://app?vid=05388ace-665a-4114-a828-939b708a2589"},"vehicle_type_id":"4","last_reported":1741709524,"current_range_meters":9600,"station_id":"ce4bhn12rcd13ifvqgqg","pricing_plan_id":"cebpf4jnsgd1na2vs0mg"},{"bike_id":"58d1b5b3-d322-4418-97d0-3066ec3d9afc","system_id":"levelo_inurba_marseille","lat":43.23196,"lon":5.35549,"is_reserved":false,"is_disabled":false,"rental_uris":{"android":"levelo://app?vid=58d1b5b3-d322-4418-97d0-3066ec3d9afc","ios":"levelo://app?vid=58d1b5b3-d322-4418-97d0-3066ec3d9afc"},"vehicle_type_id":"4","last_reported":1741709524,"current_range_meters":9600,"station_id":"ce4bhu92rcd13ifvqi70","pricing_plan_id":"cebpf4jnsgd1na2vs0mg"},{"bike_id":"553e069d-a104-48a7-9531-9d676b17d4ee","system_id":"levelo_inurba_marseille","lat":43.33024,"lon":5.39033,"is_reserved":false,"is_disabled":false,"rental_uris":{"android":"levelo://app?vid=553e069d-a104-48a7-9531-9d676b17d4ee","ios":"levelo://app?vid=553e069d-a104-48a7-9531-9d676b17d4ee"},"vehicle_type_id":"4","last_reported":1741709524,"current_range_meters":10000,"station_id":"ce4bhr92rcd13ifvqhrg","pricing_plan_id":"cebpf4jnsgd1na2vs0mg"},{"bike_id":"dcbfd8f4-37b9-44f3-99be-fde80d8a0a1f","system_id":"levelo_inurba_marseille","lat":43.29417,"lon":5.3862,"is_reserved":false,"is_disabled":false,"rental_uris":{"android":"levelo://app?vid=dcbfd8f4-37b9-44f3-99be-fde80d8a0a1f","ios":"levelo://app?vid=dcbfd8f4-37b9-44f3-99be-fde80d8a0a1f"},"vehicle_type_id":"4","last_reported":1741709524,"current_range_meters":10000,"station_id":"ce4bh2h2rcd13ifvqdh0","pricing_plan_id":"cebpf4jnsgd1na2vs0mg"},{"bike_id":"415e7a31-245d-4ead-9f33-dad092a04302","system_id":"levelo_inurba_marseille","lat":43.230633,"lon":5.354891,"is_reserved":false,"is_disabled":false,"rental_uris":{"android":"levelo://app?vid=415e7a31-245d-4ead-9f33-dad092a04302","ios":"levelo://app?vid=415e7a31-245d-4ead-9f33-dad092a04302"},"vehicle_type_id":"4","last_reported":1741709524,"current_range_meters":10800,"station_id":"cpo3342slgdg3j2ifvpg","pricing_plan_id":"cebpf4jnsgd1na2vs0mg"},{"bike_id":"4d95add8-b4da-48cd-bde7-731ee35dfb77","system_id":"levelo_inurba_marseille","lat":43.29521,"lon":5.39027,"is_reserved":false,"is_disabled":false,"rental_uris":{"android":"levelo://app?vid=4d95add8-b4da-48cd-bde7-731ee35dfb77","ios":"levelo://app?vid=4d95add8-b4da-48cd-bde7-731ee35dfb77"},"vehicle_type_id":"4","last_reported":1741709524,"current_range_meters":10800,"station_id":"ce4bh3p2rcd13ifvqdp0","pricing_plan_id":"cebpf4jnsgd1na2vs0mg"},{"bike_id":"8478e797-8cf7-4146-ac51-75ce7da30633","system_id":"levelo_inurba_marseille","lat":43.28491,"lon":5.38415,"is_reserved":false,"is_disabled":false,"rental_uris":{"android":"levelo://app?vid=8478e797-8cf7-4146-ac51-75ce7da30633","ios":"levelo://app?vid=8478e797-8cf7-4146-ac51-75ce7da30633"},"vehicle_type_id":"4","last_reported":1741709524,"current_range_meters":10800,"station_id":"ce4bh512rcd13ifvqe3g","pricing_plan_id":"cebpf4jnsgd1na2vs0mg"},{"bike_id":"8b247aa2-93c4-4945-a3c3-e200b81b95a3","system_id":"levelo_inurba_marseille","lat":43.32371,"lon":5.38894,"is_reserved":false,"is_disabled":false,"rental_uris":{"android":"levelo://app?vid=8b247aa2-93c4-4945-a3c3-e200b81b95a3","ios":"levelo://app?vid=8b247aa2-93c4-4945-a3c3-e200b81b95a3"},"vehicle_type_id":"4","last_reported":1741709524,"current_range_meters":10800,"station_id":"ce4bhqp2rcd13ifvqhog","pricing_plan_id":"cebpf4jnsgd1na2vs0mg"},{"bike_id":"9acab34d-76c9-4fd5-bed6-0265a89df8bb","system_id":"levelo_inurba_marseille","lat":43.25741,"lon":5.41111,"is_reserved":false,"is_disabled":false,"rental_uris":{"android":"levelo://app?vid=9acab34d-76c9-4fd5-bed6-0265a89df8bb","ios":"levelo://app?vid=9acab34d-76c9-4fd5-bed6-0265a89df8bb"},"vehicle_type_id":"4","last_reported":1741709524,"current_range_meters":10800,"station_id":"ce4bhkp2rcd13ifvqgd0","pricing_plan_id":"cebpf4jnsgd1na2vs0mg"},{"bike_id":"ac0df14a-2150-4f09-8e80-7c81ae45567e","system_id":"levelo_inurba_marseille","lat":43.30785,"lon":5.37632,"is_reserved":false,"is_disabled":false,"rental_uris":{"android":"levelo://app?vid=ac0df14a-2150-4f09-8e80-7c81ae45567e","ios":"levelo://app?vid=ac0df14a-2150-4f09-8e80-7c81ae45567e"},"vehicle_type_id":"4","last_reported":1741709524,"current_range_meters":10800,"station_id":"ce4bgv92rcd13ifvqcq0","pricing_plan_id":"cebpf4jnsgd1na2vs0mg"},{"bike_id":"b3f874aa-63dc-4e8e-975b-3f9672352b6e","system_id":"levelo_inurba_marseille","lat":43.284838,"lon":5.384097,"is_reserved":false,"is_disabled":false,"rental_uris":{"android":"levelo://app?vid=b3f874aa-63dc-4e8e-975b-3f9672352b6e","ios":"levelo://app?vid=b3f874aa-63dc-4e8e-975b-3f9672352b6e"},"vehicle_type_id":"4","last_reported":1741709524,"current_range_meters":10800,"station_id":"ce4bh512rcd13ifvqe3g","pricing_plan_id":"cebpf4jnsgd1na2vs0mg"},{"bike_id":"8c5205d7-f2dc-4277-a3ee-4b4d12897496","system_id":"levelo_inurba_marseille","lat":43.30408,"lon":5.40103,"is_reserved":false,"is_disabled":false,"rental_uris":{"android":"levelo://app?vid=8c5205d7-f2dc-4277-a3ee-4b4d12897496","ios":"levelo://app?vid=8c5205d7-f2dc-4277-a3ee-4b4d12897496"},"vehicle_type_id":"4","last_reported":1741709524,"current_range_meters":11200,"station_id":"ce4bhq92rcd13ifvqhjg","pricing_plan_id":"cebpf4jnsgd1na2vs0mg"},{"bike_id":"3a5f45b2-9e5f-4b8c-acda-a10ea5dadf24","system_id":"levelo_inurba_marseille","lat":43.27995,"lon":5.4165,"is_reserved":false,"is_disabled":false,"rental_uris":{"android":"levelo://app?vid=3a5f45b2-9e5f-4b8c-acda-a10ea5dadf24","ios":"levelo://app?vid=3a5f45b2-9e5f-4b8c-acda-a10ea5dadf24"},"vehicle_type_id":"4","last_reported":1741709524,"current_range_meters":11200,"station_id":"ce4bho12rcd13ifvqh1g","pricing_plan_id":"cebpf4jnsgd1na2vs0mg"},{"bike_id":"fb629ba8-b376-4f9a-a280-fa2aa29efcd1","system_id":"levelo_inurba_marseille","lat":43.29853,"lon":5.36284,"is_reserved":false,"is_disabled":false,"rental_uris":{"android":"levelo://app?vid=fb629ba8-b376-4f9a-a280-fa2aa29efcd1","ios":"levelo://app?vid=fb629ba8-b376-4f9a-a280-fa2aa29efcd1"},"vehicle_type_id":"4","last_reported":1741709524,"current_range_meters":11200,"station_id":"ce4bgpp2rcd13ifvqc3g","pricing_plan_id":"cebpf4jnsgd1na2vs0mg"},{"bike_id":"191eb5a3-d10f-4928-a383-911714d2c850","system_id":"levelo_inurba_marseille","lat":43.28702,"lon":5.37398,"is_reserved":false,"is_disabled":false,"rental_uris":{"android":"levelo://app?vid=191eb5a3-d10f-4928-a383-911714d2c850","ios":"levelo://app?vid=191eb5a3-d10f-4928-a383-911714d2c850"},"vehicle_type_id":"4","last_reported":1741709524,"current_range_meters":11200,"station_id":"ce4bh3p2rcd13ifvqdq0","pricing_plan_id":"cebpf4jnsgd1na2vs0mg"},{"bike_id":"2daa6b57-4c5d-4283-92e9-46eccb65202e","system_id":"levelo_inurba_marseille","lat":43.29022,"lon":5.38142,"is_reserved":false,"is_disabled":false,"rental_uris":{"android":"levelo://app?vid=2daa6b57-4c5d-4283-92e9-46eccb65202e","ios":"levelo://app?vid=2daa6b57-4c5d-4283-92e9-46eccb65202e"},"vehicle_type_id":"4","last_reported":1741709524,"current_range_meters":11600,"station_id":"ce4bh4p2rcd13ifvqe1g","pricing_plan_id":"cebpf4jnsgd1na2vs0mg"},{"bike_id":"b77b75c9-7325-44de-8443-6a82a6d2fc74","system_id":"levelo_inurba_marseille","lat":43.26222,"lon":5.40452,"is_reserved":false,"is_disabled":false,"rental_uris":{"android":"levelo://app?vid=b77b75c9-7325-44de-8443-6a82a6d2fc74","ios":"levelo://app?vid=b77b75c9-7325-44de-8443-6a82a6d2fc74"},"vehicle_type_id":"4","last_reported":1741709524,"current_range_meters":11600,"station_id":"ce4bhmh2rcd13ifvqgmg","pricing_plan_id":"cebpf4jnsgd1na2vs0mg"},{"bike_id":"594622e2-4853-481a-9a88-7c8df2a4c15e","system_id":"levelo_inurba_marseille","lat":43.30151,"lon":5.37421,"is_reserved":false,"is_disabled":false,"rental_uris":{"android":"levelo://app?vid=594622e2-4853-481a-9a88-7c8df2a4c15e","ios":"levelo://app?vid=594622e2-4853-481a-9a88-7c8df2a4c15e"},"vehicle_type_id":"4","last_reported":1741709524,"current_range_meters":11600,"station_id":"ce4bgs92rcd13ifvqcc0","pricing_plan_id":"cebpf4jnsgd1na2vs0mg"},{"bike_id":"38561443-53df-45dd-bd86-a6b67cc7380d","system_id":"levelo_inurba_marseille","lat":43.29529,"lon":5.39027,"is_reserved":false,"is_disabled":false,"rental_uris":{"android":"levelo://app?vid=38561443-53df-45dd-bd86-a6b67cc7380d","ios":"levelo://app?vid=38561443-53df-45dd-bd86-a6b67cc7380d"},"vehicle_type_id":"4","last_reported":1741709524,"current_range_meters":12000,"station_id":"ce4bh3p2rcd13ifvqdp0","pricing_plan_id":"cebpf4jnsgd1na2vs0mg"},{"bike_id":"f0281310-9844-4d8f-846f-4b36e6b2c2c7","system_id":"levelo_inurba_marseille","lat":43.26181,"lon":5.37457,"is_reserved":false,"is_disabled":false,"rental_uris":{"android":"levelo://app?vid=f0281310-9844-4d8f-846f-4b36e6b2c2c7","ios":"levelo://app?vid=f0281310-9844-4d8f-846f-4b36e6b2c2c7"},"vehicle_type_id":"4","last_reported":1741709524,"current_range_meters":12000,"station_id":"ce4bhgp2rcd13ifvqfc0","pricing_plan_id":"cebpf4jnsgd1na2vs0mg"},{"bike_id":"29a2eadf-a51e-4030-aaa6-2edfad4c2148","system_id":"levelo_inurba_marseille","lat":43.28461,"lon":5.3589,"is_reserved":false,"is_disabled":false,"rental_uris":{"android":"levelo://app?vid=29a2eadf-a51e-4030-aaa6-2edfad4c2148","ios":"levelo://app?vid=29a2eadf-a51e-4030-aaa6-2edfad4c2148"},"vehicle_type_id":"4","last_reported":1741709524,"current_range_meters":12000,"station_id":"ce4bhah2rcd13ifvqei0","pricing_plan_id":"cebpf4jnsgd1na2vs0mg"},{"bike_id":"ebdc0adc-86d4-4882-8983-2d6c86413625","system_id":"levelo_inurba_marseille","lat":43.23161,"lon":5.43706,"is_reserved":false,"is_disabled":false,"rental_uris":{"android":"levelo://app?vid=ebdc0adc-86d4-4882-8983-2d6c86413625","ios":"levelo://app?vid=ebdc0adc-86d4-4882-8983-2d6c86413625"},"vehicle_type_id":"4","last_reported":1741709524,"current_range_meters":12000,"station_id":"ce4bhmp2rcd13ifvqgog","pricing_plan_id":"cebpf4jnsgd1na2vs0mg"},{"bike_id":"2931d81f-abb3-45b8-9224-dc3fce2fae31","system_id":"levelo_inurba_marseille","lat":43.32369,"lon":5.36767,"is_reserved":false,"is_disabled":false,"rental_uris":{"android":"levelo://app?vid=2931d81f-abb3-45b8-9224-dc3fce2fae31","ios":"levelo://app?vid=2931d81f-abb3-45b8-9224-dc3fce2fae31"},"vehicle_type_id":"4","last_reported":1741709524,"current_range_meters":12000,"station_id":"ce4bhsh2rcd13ifvqi2g","pricing_plan_id":"cebpf4jnsgd1na2vs0mg"},{"bike_id":"13f63330-4766-45bb-aee0-085c1ae0e786","system_id":"levelo_inurba_marseille","lat":43.28347,"lon":5.38115,"is_reserved":false,"is_disabled":false,"rental_uris":{"android":"levelo://app?vid=13f63330-4766-45bb-aee0-085c1ae0e786","ios":"levelo://app?vid=13f63330-4766-45bb-aee0-085c1ae0e786"},"vehicle_type_id":"4","last_reported":1741709524,"current_range_meters":12000,"station_id":"ce4bh412rcd13ifvqdr0","pricing_plan_id":"cebpf4jnsgd1na2vs0mg"},{"bike_id":"20c1e358-1c7f-4912-9588-5a74dcb84090","system_id":"levelo_inurba_marseille","lat":43.24995,"lon":5.38943,"is_reserved":false,"is_disabled":false,"rental_uris":{"android":"levelo://app?vid=20c1e358-1c7f-4912-9588-5a74dcb84090","ios":"levelo://app?vid=20c1e358-1c7f-4912-9588-5a74dcb84090"},"vehicle_type_id":"4","last_reported":1741709524,"current_range_meters":12000,"station_id":"ce4bhgp2rcd13ifvqfd0","pricing_plan_id":"cebpf4jnsgd1na2vs0mg"},{"bike_id":"4cce856f-8450-4187-bdbb-5105bd596b02","system_id":"levelo_inurba_marseille","lat":43.28622,"lon":5.351,"is_reserved":false,"is_disabled":false,"rental_uris":{"android":"levelo://app?vid=4cce856f-8450-4187-bdbb-5105bd596b02","ios":"levelo://app?vid=4cce856f-8450-4187-bdbb-5105bd596b02"},"vehicle_type_id":"4","last_reported":1741709524,"current_range_meters":12000,"station_id":"ce4bhch2rcd13ifvqeug","pricing_plan_id":"cebpf4jnsgd1na2vs0mg"},{"bike_id":"8679fefc-1bde-44f4-9f91-6230b417411b","system_id":"levelo_inurba_marseille","lat":43.31118,"lon":5.37774,"is_reserved":false,"is_disabled":false,"rental_uris":{"android":"levelo://app?vid=8679fefc-1bde-44f4-9f91-6230b417411b","ios":"levelo://app?vid=8679fefc-1bde-44f4-9f91-6230b417411b"},"vehicle_type_id":"4","last_reported":1741709524,"current_range_meters":12000,"station_id":"ce4bgt92rcd13ifvqcg0","pricing_plan_id":"cebpf4jnsgd1na2vs0mg"},{"bike_id":"fbf84a88-6512-4aea-9845-46fa2369eb7b","system_id":"levelo_inurba_marseille","lat":43.279675,"lon":5.38615,"is_reserved":false,"is_disabled":false,"rental_uris":{"android":"levelo://app?vid=fbf84a88-6512-4aea-9845-46fa2369eb7b","ios":"levelo://app?vid=fbf84a88-6512-4aea-9845-46fa2369eb7b"},"vehicle_type_id":"4","last_reported":1741709524,"current_range_meters":12000,"station_id":"","pricing_plan_id":"cebpf4jnsgd1na2vs0mg"},{"bike_id":"a1a61f35-c835-4ebd-8124-f5eb60ba2e4c","system_id":"levelo_inurba_marseille","lat":43.272072,"lon":5.39186,"is_reserved":false,"is_disabled":false,"rental_uris":{"android":"levelo://app?vid=a1a61f35-c835-4ebd-8124-f5eb60ba2e4c","ios":"levelo://app?vid=a1a61f35-c835-4ebd-8124-f5eb60ba2e4c"},"vehicle_type_id":"4","last_reported":1741709524,"current_range_meters":12000,"station_id":"ce4bhhp2rcd13ifvqfm0","pricing_plan_id":"cebpf4jnsgd1na2vs0mg"},{"bike_id":"5d687fa7-1e0f-4109-b5bb-a1ca4269ac76","system_id":"levelo_inurba_marseille","lat":43.29516,"lon":5.39412,"is_reserved":false,"is_disabled":false,"rental_uris":{"android":"levelo://app?vid=5d687fa7-1e0f-4109-b5bb-a1ca4269ac76","ios":"levelo://app?vid=5d687fa7-1e0f-4109-b5bb-a1ca4269ac76"},"vehicle_type_id":"4","last_reported":1741709524,"current_range_meters":12000,"station_id":"ce4bh292rcd13ifvqdf0","pricing_plan_id":"cebpf4jnsgd1na2vs0mg"},{"bike_id":"9776d519-3376-4f51-aaa3-2da63911d7cc","system_id":"levelo_inurba_marseille","lat":43.25083,"lon":5.39515,"is_reserved":false,"is_disabled":false,"rental_uris":{"android":"levelo://app?vid=9776d519-3376-4f51-aaa3-2da63911d7cc","ios":"levelo://app?vid=9776d519-3376-4f51-aaa3-2da63911d7cc"},"vehicle_type_id":"4","last_reported":1741709524,"current_range_meters":12400,"station_id":"ce4bhm12rcd13ifvqgkg","pricing_plan_id":"cebpf4jnsgd1na2vs0mg"},{"bike_id":"128f7f3b-8968-466b-8c4c-fa0afafe4af9","system_id":"levelo_inurba_marseille","lat":43.30799,"lon":5.3815,"is_reserved":false,"is_disabled":false,"rental_uris":{"android":"levelo://app?vid=128f7f3b-8968-466b-8c4c-fa0afafe4af9","ios":"levelo://app?vid=128f7f3b-8968-466b-8c4c-fa0afafe4af9"},"vehicle_type_id":"4","last_reported":1741709524,"current_range_meters":12400,"station_id":"ce4bgt12rcd13ifvqce0","pricing_plan_id":"cebpf4jnsgd1na2vs0mg"},{"bike_id":"21a98077-97a5-4182-b1fc-3570e927fac1","system_id":"levelo_inurba_marseille","lat":43.25828,"lon":5.39438,"is_reserved":false,"is_disabled":false,"rental_uris":{"android":"levelo://app?vid=21a98077-97a5-4182-b1fc-3570e927fac1","ios":"levelo://app?vid=21a98077-97a5-4182-b1fc-3570e927fac1"},"vehicle_type_id":"4","last_reported":1741709524,"current_range_meters":12400,"station_id":"ce4bhip2rcd13ifvqft0","pricing_plan_id":"cebpf4jnsgd1na2vs0mg"},{"bike_id":"51bead88-7696-4efb-9522-148994f0510e","system_id":"levelo_inurba_marseille","lat":43.32536,"lon":5.4146,"is_reserved":false,"is_disabled":false,"rental_uris":{"android":"levelo://app?vid=51bead88-7696-4efb-9522-148994f0510e","ios":"levelo://app?vid=51bead88-7696-4efb-9522-148994f0510e"},"vehicle_type_id":"4","last_reported":1741709524,"current_range_meters":12800,"station_id":"ce4bhq12rcd13ifvqhhg","pricing_plan_id":"cebpf4jnsgd1na2vs0mg"},{"bike_id":"9880b3b3-4334-44f1-88d3-e581c8981652","system_id":"levelo_inurba_marseille","lat":43.27042,"lon":5.40262,"is_reserved":false,"is_disabled":false,"rental_uris":{"android":"levelo://app?vid=9880b3b3-4334-44f1-88d3-e581c8981652","ios":"levelo://app?vid=9880b3b3-4334-44f1-88d3-e581c8981652"},"vehicle_type_id":"4","last_reported":1741709524,"current_range_meters":12800,"station_id":"ce4bhk92rcd13ifvqgc0","pricing_plan_id":"cebpf4jnsgd1na2vs0mg"},{"bike_id":"c1fdf776-5ff6-4f38-96ad-d3bee4a7cebb","system_id":"levelo_inurba_marseille","lat":43.23159,"lon":5.43722,"is_reserved":false,"is_disabled":false,"rental_uris":{"android":"levelo://app?vid=c1fdf776-5ff6-4f38-96ad-d3bee4a7cebb","ios":"levelo://app?vid=c1fdf776-5ff6-4f38-96ad-d3bee4a7cebb"},"vehicle_type_id":"4","last_reported":1741709524,"current_range_meters":12800,"station_id":"ce4bhmp2rcd13ifvqgog","pricing_plan_id":"cebpf4jnsgd1na2vs0mg"},{"bike_id":"a3e991cd-2936-493d-9fcb-48f77e04aeb1","system_id":"levelo_inurba_marseille","lat":43.30546,"lon":5.36522,"is_reserved":false,"is_disabled":false,"rental_uris":{"android":"levelo://app?vid=a3e991cd-2936-493d-9fcb-48f77e04aeb1","ios":"levelo://app?vid=a3e991cd-2936-493d-9fcb-48f77e04aeb1"},"vehicle_type_id":"4","last_reported":1741709524,"current_range_meters":13600,"station_id":"ce4bgs12rcd13ifvqcag","pricing_plan_id":"cebpf4jnsgd1na2vs0mg"},{"bike_id":"2ea1d74a-2093-4f16-b7d4-12214c0c94c1","system_id":"levelo_inurba_marseille","lat":43.23061,"lon":5.35489,"is_reserved":false,"is_disabled":false,"rental_uris":{"android":"levelo://app?vid=2ea1d74a-2093-4f16-b7d4-12214c0c94c1","ios":"levelo://app?vid=2ea1d74a-2093-4f16-b7d4-12214c0c94c1"},"vehicle_type_id":"4","last_reported":1741709524,"current_range_meters":13600,"station_id":"cpo3342slgdg3j2ifvpg","pricing_plan_id":"cebpf4jnsgd1na2vs0mg"},{"bike_id":"b8d5ff53-02b2-4873-9828-9005324130ee","system_id":"levelo_inurba_marseille","lat":43.31324,"lon":5.39696,"is_reserved":false,"is_disabled":false,"rental_uris":{"android":"levelo://app?vid=b8d5ff53-02b2-4873-9828-9005324130ee","ios":"levelo://app?vid=b8d5ff53-02b2-4873-9828-9005324130ee"},"vehicle_type_id":"4","last_reported":1741709524,"current_range_meters":13600,"station_id":"ce4bgvp2rcd13ifvqcu0","pricing_plan_id":"cebpf4jnsgd1na2vs0mg"},{"bike_id":"26060215-f632-4973-8f89-a06d755c336e","system_id":"levelo_inurba_marseille","lat":43.30547,"lon":5.38424,"is_reserved":false,"is_disabled":false,"rental_uris":{"android":"levelo://app?vid=26060215-f632-4973-8f89-a06d755c336e","ios":"levelo://app?vid=26060215-f632-4973-8f89-a06d755c336e"},"vehicle_type_id":"4","last_reported":1741709524,"current_range_meters":13600,"station_id":"ce4bgg92rcd13ifvqb30","pricing_plan_id":"cebpf4jnsgd1na2vs0mg"},{"bike_id":"511a478b-16c6-4549-a89d-177a4b1ec633","system_id":"levelo_inurba_marseille","lat":43.26557,"lon":5.37298,"is_reserved":false,"is_disabled":false,"rental_uris":{"android":"levelo://app?vid=511a478b-16c6-4549-a89d-177a4b1ec633","ios":"levelo://app?vid=511a478b-16c6-4549-a89d-177a4b1ec633"},"vehicle_type_id":"4","last_reported":1741709524,"current_range_meters":13600,"station_id":"ce4bhg12rcd13ifvqf70","pricing_plan_id":"cebpf4jnsgd1na2vs0mg"},{"bike_id":"78346970-6fbb-44f0-a494-061d5504d95b","system_id":"levelo_inurba_marseille","lat":43.26555,"lon":5.37284,"is_reserved":false,"is_disabled":false,"rental_uris":{"android":"levelo://app?vid=78346970-6fbb-44f0-a494-061d5504d95b","ios":"levelo://app?vid=78346970-6fbb-44f0-a494-061d5504d95b"},"vehicle_type_id":"4","last_reported":1741709524,"current_range_meters":13600,"station_id":"ce4bhg12rcd13ifvqf70","pricing_plan_id":"cebpf4jnsgd1na2vs0mg"},{"bike_id":"1db51981-97cb-4524-901f-28266a6ea665","system_id":"levelo_inurba_marseille","lat":43.2509,"lon":5.39526,"is_reserved":false,"is_disabled":false,"rental_uris":{"android":"levelo://app?vid=1db51981-97cb-4524-901f-28266a6ea665","ios":"levelo://app?vid=1db51981-97cb-4524-901f-28266a6ea665"},"vehicle_type_id":"4","last_reported":1741709524,"current_range_meters":14000,"station_id":"ce4bhm12rcd13ifvqgkg","pricing_plan_id":"cebpf4jnsgd1na2vs0mg"},{"bike_id":"fd92b730-09c3-460a-a0ef-ad06c08a5b15","system_id":"levelo_inurba_marseille","lat":43.31236,"lon":5.36835,"is_reserved":false,"is_disabled":false,"rental_uris":{"android":"levelo://app?vid=fd92b730-09c3-460a-a0ef-ad06c08a5b15","ios":"levelo://app?vid=fd92b730-09c3-460a-a0ef-ad06c08a5b15"},"vehicle_type_id":"4","last_reported":1741709524,"current_range_meters":14000,"station_id":"ce4bgl92rcd13ifvqbq0","pricing_plan_id":"cebpf4jnsgd1na2vs0mg"},{"bike_id":"03fcef79-f017-4d15-a10d-891c5cd96db2","system_id":"levelo_inurba_marseille","lat":43.23057,"lon":5.35497,"is_reserved":false,"is_disabled":false,"rental_uris":{"android":"levelo://app?vid=03fcef79-f017-4d15-a10d-891c5cd96db2","ios":"levelo://app?vid=03fcef79-f017-4d15-a10d-891c5cd96db2"},"vehicle_type_id":"4","last_reported":1741709524,"current_range_meters":14400,"station_id":"cpo3342slgdg3j2ifvpg","pricing_plan_id":"cebpf4jnsgd1na2vs0mg"},{"bike_id":"33a65f8c-3928-4c3f-8da6-b8d9c42a41bb","system_id":"levelo_inurba_marseille","lat":43.28157,"lon":5.42648,"is_reserved":false,"is_disabled":false,"rental_uris":{"android":"levelo://app?vid=33a65f8c-3928-4c3f-8da6-b8d9c42a41bb","ios":"levelo://app?vid=33a65f8c-3928-4c3f-8da6-b8d9c42a41bb"},"vehicle_type_id":"4","last_reported":1741709524,"current_range_meters":14400,"station_id":"ce4bhnh2rcd13ifvqgug","pricing_plan_id":"cebpf4jnsgd1na2vs0mg"},{"bike_id":"28ddcdf4-024a-4f42-80ff-fb3bac3f5f61","system_id":"levelo_inurba_marseille","lat":43.24165,"lon":5.36399,"is_reserved":false,"is_disabled":false,"rental_uris":{"android":"levelo://app?vid=28ddcdf4-024a-4f42-80ff-fb3bac3f5f61","ios":"levelo://app?vid=28ddcdf4-024a-4f42-80ff-fb3bac3f5f61"},"vehicle_type_id":"4","last_reported":1741709524,"current_range_meters":14800,"station_id":"cpo36qri1sfpv3e86is0","pricing_plan_id":"cebpf4jnsgd1na2vs0mg"},{"bike_id":"6844b895-60aa-4683-af92-200326fb7d55","system_id":"levelo_inurba_marseille","lat":43.29809,"lon":5.38102,"is_reserved":false,"is_disabled":false,"rental_uris":{"android":"levelo://app?vid=6844b895-60aa-4683-af92-200326fb7d55","ios":"levelo://app?vid=6844b895-60aa-4683-af92-200326fb7d55"},"vehicle_type_id":"4","last_reported":1741709524,"current_range_meters":14800,"station_id":"ce4bgip2rcd13ifvqbb0","pricing_plan_id":"cebpf4jnsgd1na2vs0mg"},{"bike_id":"099e8848-e71d-421b-ac58-442cdee5bd07","system_id":"levelo_inurba_marseille","lat":43.296279,"lon":5.377182,"is_reserved":false,"is_disabled":false,"rental_uris":{"android":"levelo://app?vid=099e8848-e71d-421b-ac58-442cdee5bd07","ios":"levelo://app?vid=099e8848-e71d-421b-ac58-442cdee5bd07"},"vehicle_type_id":"4","last_reported":1741709524,"current_range_meters":14800,"station_id":"ce4bh3p2rcd13ifvqdq0","pricing_plan_id":"cebpf4jnsgd1na2vs0mg"},{"bike_id":"92574190-5672-42af-956f-546c757a93c5","system_id":"levelo_inurba_marseille","lat":43.29202,"lon":5.39333,"is_reserved":false,"is_disabled":false,"rental_uris":{"android":"levelo://app?vid=92574190-5672-42af-956f-546c757a93c5","ios":"levelo://app?vid=92574190-5672-42af-956f-546c757a93c5"},"vehicle_type_id":"4","last_reported":1741709524,"current_range_meters":14800,"station_id":"ce4bh192rcd13ifvqdd0","pricing_plan_id":"cebpf4jnsgd1na2vs0mg"},{"bike_id":"f829a819-671e-4b71-9c22-56c5f8047725","system_id":"levelo_inurba_marseille","lat":43.32355,"lon":5.36748,"is_reserved":false,"is_disabled":false,"rental_uris":{"android":"levelo://app?vid=f829a819-671e-4b71-9c22-56c5f8047725","ios":"levelo://app?vid=f829a819-671e-4b71-9c22-56c5f8047725"},"vehicle_type_id":"4","last_reported":1741709524,"current_range_meters":14800,"station_id":"ce4bhsh2rcd13ifvqi2g","pricing_plan_id":"cebpf4jnsgd1na2vs0mg"},{"bike_id":"83569461-04d4-4f1b-bbc8-e40fa40b21aa","system_id":"levelo_inurba_marseille","lat":43.29632,"lon":5.40601,"is_reserved":false,"is_disabled":false,"rental_uris":{"android":"levelo://app?vid=83569461-04d4-4f1b-bbc8-e40fa40b21aa","ios":"levelo://app?vid=83569461-04d4-4f1b-bbc8-e40fa40b21aa"},"vehicle_type_id":"4","last_reported":1741709524,"current_range_meters":15200,"station_id":"ce4bh0h2rcd13ifvqd60","pricing_plan_id":"cebpf4jnsgd1na2vs0mg"},{"bike_id":"8bca6b52-28c0-4932-8ec1-82b13d2e0c6d","system_id":"levelo_inurba_marseille","lat":43.2926,"lon":5.376194,"is_reserved":false,"is_disabled":false,"rental_uris":{"android":"levelo://app?vid=8bca6b52-28c0-4932-8ec1-82b13d2e0c6d","ios":"levelo://app?vid=8bca6b52-28c0-4932-8ec1-82b13d2e0c6d"},"vehicle_type_id":"4","last_reported":1741709524,"current_range_meters":16000,"station_id":"ce4bgi12rcd13ifvqb80","pricing_plan_id":"cebpf4jnsgd1na2vs0mg"},{"bike_id":"1ed1a68a-1459-44c6-8baf-85fcda1e78ae","system_id":"levelo_inurba_marseille","lat":43.24396,"lon":5.37054,"is_reserved":false,"is_disabled":false,"rental_uris":{"android":"levelo://app?vid=1ed1a68a-1459-44c6-8baf-85fcda1e78ae","ios":"levelo://app?vid=1ed1a68a-1459-44c6-8baf-85fcda1e78ae"},"vehicle_type_id":"4","last_reported":1741709524,"current_range_meters":16000,"station_id":"ce4bhhh2rcd13ifvqfk0","pricing_plan_id":"cebpf4jnsgd1na2vs0mg"},{"bike_id":"064a7988-ef05-4b3d-80d9-de2409a89127","system_id":"levelo_inurba_marseille","lat":43.25084,"lon":5.39527,"is_reserved":false,"is_disabled":false,"rental_uris":{"android":"levelo://app?vid=064a7988-ef05-4b3d-80d9-de2409a89127","ios":"levelo://app?vid=064a7988-ef05-4b3d-80d9-de2409a89127"},"vehicle_type_id":"4","last_reported":1741709524,"current_range_meters":16000,"station_id":"ce4bhm12rcd13ifvqgkg","pricing_plan_id":"cebpf4jnsgd1na2vs0mg"},{"bike_id":"65ab0346-837e-4ad8-8d4d-c6c7ffee11b5","system_id":"levelo_inurba_marseille","lat":43.33438,"lon":5.40055,"is_reserved":false,"is_disabled":false,"rental_uris":{"android":"levelo://app?vid=65ab0346-837e-4ad8-8d4d-c6c7ffee11b5","ios":"levelo://app?vid=65ab0346-837e-4ad8-8d4d-c6c7ffee11b5"},"vehicle_type_id":"4","last_reported":1741709524,"current_range_meters":16000,"station_id":"","pricing_plan_id":"cebpf4jnsgd1na2vs0mg"},{"bike_id":"44f257e9-ff17-4c8d-8747-07e7faddde01","system_id":"levelo_inurba_marseille","lat":43.27979,"lon":5.41661,"is_reserved":false,"is_disabled":false,"rental_uris":{"android":"levelo://app?vid=44f257e9-ff17-4c8d-8747-07e7faddde01","ios":"levelo://app?vid=44f257e9-ff17-4c8d-8747-07e7faddde01"},"vehicle_type_id":"4","last_reported":1741709524,"current_range_meters":16000,"station_id":"ce4bho12rcd13ifvqh1g","pricing_plan_id":"cebpf4jnsgd1na2vs0mg"},{"bike_id":"51bb4d06-8f06-4c81-9967-3f775de2b65e","system_id":"levelo_inurba_marseille","lat":43.241693,"lon":5.36402,"is_reserved":false,"is_disabled":false,"rental_uris":{"android":"levelo://app?vid=51bb4d06-8f06-4c81-9967-3f775de2b65e","ios":"levelo://app?vid=51bb4d06-8f06-4c81-9967-3f775de2b65e"},"vehicle_type_id":"4","last_reported":1741709524,"current_range_meters":16000,"station_id":"cpo36qri1sfpv3e86is0","pricing_plan_id":"cebpf4jnsgd1na2vs0mg"},{"bike_id":"6388f9f2-ecf7-40a9-9181-266fca2da3da","system_id":"levelo_inurba_marseille","lat":43.24814,"lon":5.37459,"is_reserved":false,"is_disabled":false,"rental_uris":{"android":"levelo://app?vid=6388f9f2-ecf7-40a9-9181-266fca2da3da","ios":"levelo://app?vid=6388f9f2-ecf7-40a9-9181-266fca2da3da"},"vehicle_type_id":"4","last_reported":1741709524,"current_range_meters":16000,"station_id":"ce4bhgh2rcd13ifvqfb0","pricing_plan_id":"cebpf4jnsgd1na2vs0mg"},{"bike_id":"0eecd69f-4814-4099-9308-41706ca678d7","system_id":"levelo_inurba_marseille","lat":43.29932,"lon":5.36548,"is_reserved":false,"is_disabled":false,"rental_uris":{"android":"levelo://app?vid=0eecd69f-4814-4099-9308-41706ca678d7","ios":"levelo://app?vid=0eecd69f-4814-4099-9308-41706ca678d7"},"vehicle_type_id":"4","last_reported":1741709524,"current_range_meters":16000,"station_id":"ce4bgm92rcd13ifvqbr0","pricing_plan_id":"cebpf4jnsgd1na2vs0mg"},{"bike_id":"be04fb7b-49e7-491b-ab49-5893cbae4799","system_id":"levelo_inurba_marseille","lat":43.24999,"lon":5.38916,"is_reserved":false,"is_disabled":false,"rental_uris":{"android":"levelo://app?vid=be04fb7b-49e7-491b-ab49-5893cbae4799","ios":"levelo://app?vid=be04fb7b-49e7-491b-ab49-5893cbae4799"},"vehicle_type_id":"4","last_reported":1741709524,"current_range_meters":16000,"station_id":"ce4bhgp2rcd13ifvqfd0","pricing_plan_id":"cebpf4jnsgd1na2vs0mg"},{"bike_id":"2f8ecfaf-2a87-4f10-80ec-10a7eb94a1da","system_id":"levelo_inurba_marseille","lat":43.31523,"lon":5.38037,"is_reserved":false,"is_disabled":false,"rental_uris":{"android":"levelo://app?vid=2f8ecfaf-2a87-4f10-80ec-10a7eb94a1da","ios":"levelo://app?vid=2f8ecfaf-2a87-4f10-80ec-10a7eb94a1da"},"vehicle_type_id":"4","last_reported":1741709524,"current_range_meters":16000,"station_id":"ce4bhsp2rcd13ifvqi50","pricing_plan_id":"cebpf4jnsgd1na2vs0mg"},{"bike_id":"185dd92f-5ca3-4784-9453-5f8185d1714c","system_id":"levelo_inurba_marseille","lat":43.31328,"lon":5.39688,"is_reserved":false,"is_disabled":false,"rental_uris":{"android":"levelo://app?vid=185dd92f-5ca3-4784-9453-5f8185d1714c","ios":"levelo://app?vid=185dd92f-5ca3-4784-9453-5f8185d1714c"},"vehicle_type_id":"4","last_reported":1741709524,"current_range_meters":16000,"station_id":"ce4bgvp2rcd13ifvqcu0","pricing_plan_id":"cebpf4jnsgd1na2vs0mg"},{"bike_id":"44f2f3a1-4fe2-4241-9523-7a0ac1fe124a","system_id":"levelo_inurba_marseille","lat":43.28037,"lon":5.36949,"is_reserved":false,"is_disabled":false,"rental_uris":{"android":"levelo://app?vid=44f2f3a1-4fe2-4241-9523-7a0ac1fe124a","ios":"levelo://app?vid=44f2f3a1-4fe2-4241-9523-7a0ac1fe124a"},"vehicle_type_id":"4","last_reported":1741709524,"current_range_meters":16000,"station_id":"ce4bha12rcd13ifvqef0","pricing_plan_id":"cebpf4jnsgd1na2vs0mg"},{"bike_id":"e1067bdb-3b08-4c9f-a0c5-ccf85b034e12","system_id":"levelo_inurba_marseille","lat":43.28071,"lon":5.39643,"is_reserved":false,"is_disabled":false,"rental_uris":{"android":"levelo://app?vid=e1067bdb-3b08-4c9f-a0c5-ccf85b034e12","ios":"levelo://app?vid=e1067bdb-3b08-4c9f-a0c5-ccf85b034e12"},"vehicle_type_id":"4","last_reported":1741709524,"current_range_meters":16000,"station_id":"ce4bho12rcd13ifvqh2g","pricing_plan_id":"cebpf4jnsgd1na2vs0mg"},{"bike_id":"a4ce6389-69c8-41eb-a2cb-27e113df5153","system_id":"levelo_inurba_marseille","lat":43.28624,"lon":5.35107,"is_reserved":false,"is_disabled":false,"rental_uris":{"android":"levelo://app?vid=a4ce6389-69c8-41eb-a2cb-27e113df5153","ios":"levelo://app?vid=a4ce6389-69c8-41eb-a2cb-27e113df5153"},"vehicle_type_id":"4","last_reported":1741709524,"current_range_meters":16400,"station_id":"ce4bhch2rcd13ifvqeug","pricing_plan_id":"cebpf4jnsgd1na2vs0mg"},{"bike_id":"0a995a9a-6122-4f4b-b298-a8b06cbca7e2","system_id":"levelo_inurba_marseille","lat":43.25008,"lon":5.38912,"is_reserved":false,"is_disabled":false,"rental_uris":{"android":"levelo://app?vid=0a995a9a-6122-4f4b-b298-a8b06cbca7e2","ios":"levelo://app?vid=0a995a9a-6122-4f4b-b298-a8b06cbca7e2"},"vehicle_type_id":"4","last_reported":1741709524,"current_range_meters":16400,"station_id":"ce4bhgp2rcd13ifvqfd0","pricing_plan_id":"cebpf4jnsgd1na2vs0mg"},{"bike_id":"bd61afa9-c73c-4c27-baad-5bbcf752eafb","system_id":"levelo_inurba_marseille","lat":43.26695,"lon":5.3826,"is_reserved":false,"is_disabled":false,"rental_uris":{"android":"levelo://app?vid=bd61afa9-c73c-4c27-baad-5bbcf752eafb","ios":"levelo://app?vid=bd61afa9-c73c-4c27-baad-5bbcf752eafb"},"vehicle_type_id":"4","last_reported":1741709524,"current_range_meters":16400,"station_id":"ce4bhg92rcd13ifvqf90","pricing_plan_id":"cebpf4jnsgd1na2vs0mg"},{"bike_id":"0a6985ed-b84c-4033-8e3e-05aa091718f5","system_id":"levelo_inurba_marseille","lat":43.29881,"lon":5.39746,"is_reserved":false,"is_disabled":false,"rental_uris":{"android":"levelo://app?vid=0a6985ed-b84c-4033-8e3e-05aa091718f5","ios":"levelo://app?vid=0a6985ed-b84c-4033-8e3e-05aa091718f5"},"vehicle_type_id":"4","last_reported":1741709524,"current_range_meters":16400,"station_id":"ce4bh0h2rcd13ifvqd50","pricing_plan_id":"cebpf4jnsgd1na2vs0mg"},{"bike_id":"24b4b104-5c89-4fc6-8924-6d1684e13415","system_id":"levelo_inurba_marseille","lat":43.23147,"lon":5.43723,"is_reserved":false,"is_disabled":false,"rental_uris":{"android":"levelo://app?vid=24b4b104-5c89-4fc6-8924-6d1684e13415","ios":"levelo://app?vid=24b4b104-5c89-4fc6-8924-6d1684e13415"},"vehicle_type_id":"4","last_reported":1741709524,"current_range_meters":16400,"station_id":"ce4bhmp2rcd13ifvqgog","pricing_plan_id":"cebpf4jnsgd1na2vs0mg"},{"bike_id":"74282eb3-ed6a-41f0-912b-df071ae3820e","system_id":"levelo_inurba_marseille","lat":43.29196,"lon":5.3931,"is_reserved":false,"is_disabled":false,"rental_uris":{"android":"levelo://app?vid=74282eb3-ed6a-41f0-912b-df071ae3820e","ios":"levelo://app?vid=74282eb3-ed6a-41f0-912b-df071ae3820e"},"vehicle_type_id":"4","last_reported":1741709524,"current_range_meters":16400,"station_id":"ce4bh192rcd13ifvqdd0","pricing_plan_id":"cebpf4jnsgd1na2vs0mg"},{"bike_id":"fedb551e-7f3c-4b1c-bb6c-078cb7c5e9de","system_id":"levelo_inurba_marseille","lat":43.29038,"lon":5.38136,"is_reserved":false,"is_disabled":false,"rental_uris":{"android":"levelo://app?vid=fedb551e-7f3c-4b1c-bb6c-078cb7c5e9de","ios":"levelo://app?vid=fedb551e-7f3c-4b1c-bb6c-078cb7c5e9de"},"vehicle_type_id":"4","last_reported":1741709524,"current_range_meters":16400,"station_id":"ce4bh4p2rcd13ifvqe1g","pricing_plan_id":"cebpf4jnsgd1na2vs0mg"},{"bike_id":"ab57a9e0-206f-4dc5-a232-d496f4ff4f9b","system_id":"levelo_inurba_marseille","lat":43.28154,"lon":5.42649,"is_reserved":false,"is_disabled":false,"rental_uris":{"android":"levelo://app?vid=ab57a9e0-206f-4dc5-a232-d496f4ff4f9b","ios":"levelo://app?vid=ab57a9e0-206f-4dc5-a232-d496f4ff4f9b"},"vehicle_type_id":"4","last_reported":1741709524,"current_range_meters":16400,"station_id":"ce4bhnh2rcd13ifvqgug","pricing_plan_id":"cebpf4jnsgd1na2vs0mg"},{"bike_id":"3aa4708f-1fbe-4010-b42a-024b2427c80d","system_id":"levelo_inurba_marseille","lat":43.31127,"lon":5.37773,"is_reserved":false,"is_disabled":false,"rental_uris":{"android":"levelo://app?vid=3aa4708f-1fbe-4010-b42a-024b2427c80d","ios":"levelo://app?vid=3aa4708f-1fbe-4010-b42a-024b2427c80d"},"vehicle_type_id":"4","last_reported":1741709524,"current_range_meters":16400,"station_id":"ce4bgt92rcd13ifvqcg0","pricing_plan_id":"cebpf4jnsgd1na2vs0mg"},{"bike_id":"6dbc9b4a-c5a1-4dbf-a00f-5bb7462d2694","system_id":"levelo_inurba_marseille","lat":43.28119,"lon":5.39845,"is_reserved":false,"is_disabled":false,"rental_uris":{"android":"levelo://app?vid=6dbc9b4a-c5a1-4dbf-a00f-5bb7462d2694","ios":"levelo://app?vid=6dbc9b4a-c5a1-4dbf-a00f-5bb7462d2694"},"vehicle_type_id":"4","last_reported":1741709524,"current_range_meters":16400,"station_id":"","pricing_plan_id":"cebpf4jnsgd1na2vs0mg"},{"bike_id":"25937fb7-9dcc-40e4-8919-d293a5121ca0","system_id":"levelo_inurba_marseille","lat":43.28711,"lon":5.37942,"is_reserved":false,"is_disabled":false,"rental_uris":{"android":"levelo://app?vid=25937fb7-9dcc-40e4-8919-d293a5121ca0","ios":"levelo://app?vid=25937fb7-9dcc-40e4-8919-d293a5121ca0"},"vehicle_type_id":"4","last_reported":1741709524,"current_range_meters":16400,"station_id":"ce4bh9p2rcd13ifvqec0","pricing_plan_id":"cebpf4jnsgd1na2vs0mg"},{"bike_id":"b44022d5-a3c8-45f9-9984-eaba76929c7b","system_id":"levelo_inurba_marseille","lat":43.27822,"lon":5.40716,"is_reserved":false,"is_disabled":false,"rental_uris":{"android":"levelo://app?vid=b44022d5-a3c8-45f9-9984-eaba76929c7b","ios":"levelo://app?vid=b44022d5-a3c8-45f9-9984-eaba76929c7b"},"vehicle_type_id":"4","last_reported":1741709524,"current_range_meters":16400,"station_id":"ce4bhnh2rcd13ifvqgtg","pricing_plan_id":"cebpf4jnsgd1na2vs0mg"},{"bike_id":"45345445-a78a-493f-a730-c619602e3241","system_id":"levelo_inurba_marseille","lat":43.25561,"lon":5.38578,"is_reserved":false,"is_disabled":false,"rental_uris":{"android":"levelo://app?vid=45345445-a78a-493f-a730-c619602e3241","ios":"levelo://app?vid=45345445-a78a-493f-a730-c619602e3241"},"vehicle_type_id":"4","last_reported":1741709524,"current_range_meters":16800,"station_id":"","pricing_plan_id":"cebpf4jnsgd1na2vs0mg"},{"bike_id":"16b1eeae-ccba-420e-93fd-2b8bd91535fd","system_id":"levelo_inurba_marseille","lat":43.29923,"lon":5.37469,"is_reserved":false,"is_disabled":false,"rental_uris":{"android":"levelo://app?vid=16b1eeae-ccba-420e-93fd-2b8bd91535fd","ios":"levelo://app?vid=16b1eeae-ccba-420e-93fd-2b8bd91535fd"},"vehicle_type_id":"4","last_reported":1741709524,"current_range_meters":16400,"station_id":"ce4bgjh2rcd13ifvqbg0","pricing_plan_id":"cebpf4jnsgd1na2vs0mg"},{"bike_id":"faa3c226-f461-440a-a183-e777d2ab53f4","system_id":"levelo_inurba_marseille","lat":43.30138,"lon":5.38779,"is_reserved":false,"is_disabled":false,"rental_uris":{"android":"levelo://app?vid=faa3c226-f461-440a-a183-e777d2ab53f4","ios":"levelo://app?vid=faa3c226-f461-440a-a183-e777d2ab53f4"},"vehicle_type_id":"4","last_reported":1741709524,"current_range_meters":16800,"station_id":"ce4bgip2rcd13ifvqbb0","pricing_plan_id":"cebpf4jnsgd1na2vs0mg"},{"bike_id":"44bcec42-5c31-45f6-8cea-7c4bb56cda92","system_id":"levelo_inurba_marseille","lat":43.28715,"lon":5.361,"is_reserved":false,"is_disabled":false,"rental_uris":{"android":"levelo://app?vid=44bcec42-5c31-45f6-8cea-7c4bb56cda92","ios":"levelo://app?vid=44bcec42-5c31-45f6-8cea-7c4bb56cda92"},"vehicle_type_id":"4","last_reported":1741709524,"current_range_meters":16800,"station_id":"cki0cbj6b192h4jlfktg","pricing_plan_id":"cebpf4jnsgd1na2vs0mg"},{"bike_id":"4eb3e6aa-e088-4500-9ffc-033bca842c65","system_id":"levelo_inurba_marseille","lat":43.30786,"lon":5.37633,"is_reserved":false,"is_disabled":false,"rental_uris":{"android":"levelo://app?vid=4eb3e6aa-e088-4500-9ffc-033bca842c65","ios":"levelo://app?vid=4eb3e6aa-e088-4500-9ffc-033bca842c65"},"vehicle_type_id":"4","last_reported":1741709524,"current_range_meters":17200,"station_id":"ce4bgv92rcd13ifvqcq0","pricing_plan_id":"cebpf4jnsgd1na2vs0mg"},{"bike_id":"db8d34e3-b555-469f-a021-7f55584c9801","system_id":"levelo_inurba_marseille","lat":43.29348,"lon":5.42828,"is_reserved":false,"is_disabled":false,"rental_uris":{"android":"levelo://app?vid=db8d34e3-b555-469f-a021-7f55584c9801","ios":"levelo://app?vid=db8d34e3-b555-469f-a021-7f55584c9801"},"vehicle_type_id":"4","last_reported":1741709524,"current_range_meters":16800,"station_id":"","pricing_plan_id":"cebpf4jnsgd1na2vs0mg"},{"bike_id":"eb0eec9a-95e6-4a60-9455-121aa4ee38f1","system_id":"levelo_inurba_marseille","lat":43.2803,"lon":5.36947,"is_reserved":false,"is_disabled":false,"rental_uris":{"android":"levelo://app?vid=eb0eec9a-95e6-4a60-9455-121aa4ee38f1","ios":"levelo://app?vid=eb0eec9a-95e6-4a60-9455-121aa4ee38f1"},"vehicle_type_id":"4","last_reported":1741709524,"current_range_meters":16800,"station_id":"ce4bha12rcd13ifvqef0","pricing_plan_id":"cebpf4jnsgd1na2vs0mg"},{"bike_id":"26edd0a5-227c-4aea-957a-668a6f68212c","system_id":"levelo_inurba_marseille","lat":43.2843,"lon":5.3751,"is_reserved":false,"is_disabled":false,"rental_uris":{"android":"levelo://app?vid=26edd0a5-227c-4aea-957a-668a6f68212c","ios":"levelo://app?vid=26edd0a5-227c-4aea-957a-668a6f68212c"},"vehicle_type_id":"4","last_reported":1741709524,"current_range_meters":17200,"station_id":"ce4bh412rcd13ifvqds0","pricing_plan_id":"cebpf4jnsgd1na2vs0mg"},{"bike_id":"a98eb800-53eb-4ba1-b605-82b1f1235e80","system_id":"levelo_inurba_marseille","lat":43.30777,"lon":5.37654,"is_reserved":false,"is_disabled":false,"rental_uris":{"android":"levelo://app?vid=a98eb800-53eb-4ba1-b605-82b1f1235e80","ios":"levelo://app?vid=a98eb800-53eb-4ba1-b605-82b1f1235e80"},"vehicle_type_id":"4","last_reported":1741709524,"current_range_meters":17200,"station_id":"ce4bgv92rcd13ifvqcq0","pricing_plan_id":"cebpf4jnsgd1na2vs0mg"},{"bike_id":"9a53edbc-358c-4a02-be29-16a4ef0767ca","system_id":"levelo_inurba_marseille","lat":43.29689,"lon":5.3662,"is_reserved":false,"is_disabled":false,"rental_uris":{"android":"levelo://app?vid=9a53edbc-358c-4a02-be29-16a4ef0767ca","ios":"levelo://app?vid=9a53edbc-358c-4a02-be29-16a4ef0767ca"},"vehicle_type_id":"4","last_reported":1741709524,"current_range_meters":17200,"station_id":"ce4bgn12rcd13ifvqbt0","pricing_plan_id":"cebpf4jnsgd1na2vs0mg"},{"bike_id":"fe602428-f0b6-4efe-85a3-6a8a1a1ae9cb","system_id":"levelo_inurba_marseille","lat":43.29512,"lon":5.39045,"is_reserved":false,"is_disabled":false,"rental_uris":{"android":"levelo://app?vid=fe602428-f0b6-4efe-85a3-6a8a1a1ae9cb","ios":"levelo://app?vid=fe602428-f0b6-4efe-85a3-6a8a1a1ae9cb"},"vehicle_type_id":"4","last_reported":1741709524,"current_range_meters":17200,"station_id":"ce4bh3p2rcd13ifvqdp0","pricing_plan_id":"cebpf4jnsgd1na2vs0mg"},{"bike_id":"da269cec-a821-4689-b386-f42448964a75","system_id":"levelo_inurba_marseille","lat":43.24388,"lon":5.37061,"is_reserved":false,"is_disabled":false,"rental_uris":{"android":"levelo://app?vid=da269cec-a821-4689-b386-f42448964a75","ios":"levelo://app?vid=da269cec-a821-4689-b386-f42448964a75"},"vehicle_type_id":"4","last_reported":1741709524,"current_range_meters":17200,"station_id":"ce4bhhh2rcd13ifvqfk0","pricing_plan_id":"cebpf4jnsgd1na2vs0mg"},{"bike_id":"bbc3b890-debc-4a19-a72e-170063e098c1","system_id":"levelo_inurba_marseille","lat":43.29891,"lon":5.39727,"is_reserved":false,"is_disabled":false,"rental_uris":{"android":"levelo://app?vid=bbc3b890-debc-4a19-a72e-170063e098c1","ios":"levelo://app?vid=bbc3b890-debc-4a19-a72e-170063e098c1"},"vehicle_type_id":"4","last_reported":1741709524,"current_range_meters":17200,"station_id":"ce4bh0h2rcd13ifvqd50","pricing_plan_id":"cebpf4jnsgd1na2vs0mg"},{"bike_id":"cb8b5f3c-7631-48c2-8508-977457fbfd39","system_id":"levelo_inurba_marseille","lat":43.28997,"lon":5.38644,"is_reserved":false,"is_disabled":false,"rental_uris":{"android":"levelo://app?vid=cb8b5f3c-7631-48c2-8508-977457fbfd39","ios":"levelo://app?vid=cb8b5f3c-7631-48c2-8508-977457fbfd39"},"vehicle_type_id":"4","last_reported":1741709524,"current_range_meters":17200,"station_id":"ce4bh4p2rcd13ifvqe0g","pricing_plan_id":"cebpf4jnsgd1na2vs0mg"},{"bike_id":"fb55f9d1-18dc-4569-919c-3c5a2e705317","system_id":"levelo_inurba_marseille","lat":43.32514,"lon":5.36594,"is_reserved":false,"is_disabled":false,"rental_uris":{"android":"levelo://app?vid=fb55f9d1-18dc-4569-919c-3c5a2e705317","ios":"levelo://app?vid=fb55f9d1-18dc-4569-919c-3c5a2e705317"},"vehicle_type_id":"4","last_reported":1741709524,"current_range_meters":17200,"station_id":"","pricing_plan_id":"cebpf4jnsgd1na2vs0mg"},{"bike_id":"70db9f86-1d27-48f8-badd-922daad76659","system_id":"levelo_inurba_marseille","lat":43.26553,"lon":5.37284,"is_reserved":false,"is_disabled":false,"rental_uris":{"android":"levelo://app?vid=70db9f86-1d27-48f8-badd-922daad76659","ios":"levelo://app?vid=70db9f86-1d27-48f8-badd-922daad76659"},"vehicle_type_id":"4","last_reported":1741709524,"current_range_meters":17200,"station_id":"ce4bhg12rcd13ifvqf70","pricing_plan_id":"cebpf4jnsgd1na2vs0mg"},{"bike_id":"a5502eed-dac4-4ea9-87e0-fe659cec6f6c","system_id":"levelo_inurba_marseille","lat":43.30544,"lon":5.36526,"is_reserved":false,"is_disabled":true,"rental_uris":{"android":"levelo://app?vid=a5502eed-dac4-4ea9-87e0-fe659cec6f6c","ios":"levelo://app?vid=a5502eed-dac4-4ea9-87e0-fe659cec6f6c"},"vehicle_type_id":"4","last_reported":1741709524,"current_range_meters":17200,"station_id":"ce4bgs12rcd13ifvqcag","pricing_plan_id":"cebpf4jnsgd1na2vs0mg"},{"bike_id":"e6655740-a43c-44cd-a211-43e3ee8e6603","system_id":"levelo_inurba_marseille","lat":43.24169,"lon":5.39756,"is_reserved":false,"is_disabled":false,"rental_uris":{"android":"levelo://app?vid=e6655740-a43c-44cd-a211-43e3ee8e6603","ios":"levelo://app?vid=e6655740-a43c-44cd-a211-43e3ee8e6603"},"vehicle_type_id":"4","last_reported":1741709524,"current_range_meters":17200,"station_id":"ce4bhn12rcd13ifvqgpg","pricing_plan_id":"cebpf4jnsgd1na2vs0mg"},{"bike_id":"04cb9ec7-6fb3-44c8-bd12-70e65637ae30","system_id":"levelo_inurba_marseille","lat":43.28262,"lon":5.35062,"is_reserved":false,"is_disabled":false,"rental_uris":{"android":"levelo://app?vid=04cb9ec7-6fb3-44c8-bd12-70e65637ae30","ios":"levelo://app?vid=04cb9ec7-6fb3-44c8-bd12-70e65637ae30"},"vehicle_type_id":"4","last_reported":1741709524,"current_range_meters":16800,"station_id":"ce4bhbp2rcd13ifvqerg","pricing_plan_id":"cebpf4jnsgd1na2vs0mg"},{"bike_id":"903d8692-0e09-4948-b3bd-e44b5956ca85","system_id":"levelo_inurba_marseille","lat":43.27566,"lon":5.38404,"is_reserved":false,"is_disabled":false,"rental_uris":{"android":"levelo://app?vid=903d8692-0e09-4948-b3bd-e44b5956ca85","ios":"levelo://app?vid=903d8692-0e09-4948-b3bd-e44b5956ca85"},"vehicle_type_id":"4","last_reported":1741709524,"current_range_meters":17600,"station_id":"ce4bhh92rcd13ifvqfi0","pricing_plan_id":"cebpf4jnsgd1na2vs0mg"},{"bike_id":"e7e88df6-f1ca-46bb-bd71-ae3d4a6f7eeb","system_id":"levelo_inurba_marseille","lat":43.29922,"lon":5.3746,"is_reserved":false,"is_disabled":false,"rental_uris":{"android":"levelo://app?vid=e7e88df6-f1ca-46bb-bd71-ae3d4a6f7eeb","ios":"levelo://app?vid=e7e88df6-f1ca-46bb-bd71-ae3d4a6f7eeb"},"vehicle_type_id":"4","last_reported":1741709524,"current_range_meters":17600,"station_id":"ce4bgjh2rcd13ifvqbg0","pricing_plan_id":"cebpf4jnsgd1na2vs0mg"},{"bike_id":"93c8757a-b079-4429-9df1-8556ee987cba","system_id":"levelo_inurba_marseille","lat":43.296,"lon":5.38086,"is_reserved":false,"is_disabled":false,"rental_uris":{"android":"levelo://app?vid=93c8757a-b079-4429-9df1-8556ee987cba","ios":"levelo://app?vid=93c8757a-b079-4429-9df1-8556ee987cba"},"vehicle_type_id":"4","last_reported":1741709524,"current_range_meters":17600,"station_id":"ce4bgl12rcd13ifvqbo0","pricing_plan_id":"cebpf4jnsgd1na2vs0mg"},{"bike_id":"51ae426a-838f-4346-9ff0-1ddd15c1d4f4","system_id":"levelo_inurba_marseille","lat":43.2926,"lon":5.40898,"is_reserved":false,"is_disabled":false,"rental_uris":{"android":"levelo://app?vid=51ae426a-838f-4346-9ff0-1ddd15c1d4f4","ios":"levelo://app?vid=51ae426a-838f-4346-9ff0-1ddd15c1d4f4"},"vehicle_type_id":"4","last_reported":1741709524,"current_range_meters":17600,"station_id":"ce4bh192rcd13ifvqdc0","pricing_plan_id":"cebpf4jnsgd1na2vs0mg"},{"bike_id":"ebd4e792-a666-46a2-98a2-c70e9b7feb24","system_id":"levelo_inurba_marseille","lat":43.30532,"lon":5.36704,"is_reserved":false,"is_disabled":false,"rental_uris":{"android":"levelo://app?vid=ebd4e792-a666-46a2-98a2-c70e9b7feb24","ios":"levelo://app?vid=ebd4e792-a666-46a2-98a2-c70e9b7feb24"},"vehicle_type_id":"4","last_reported":1741709524,"current_range_meters":17600,"station_id":"ce4bgrp2rcd13ifvqc9g","pricing_plan_id":"cebpf4jnsgd1na2vs0mg"},{"bike_id":"8cb98100-8339-480d-872a-e2c4b7cea00c","system_id":"levelo_inurba_marseille","lat":43.281026,"lon":5.398605,"is_reserved":false,"is_disabled":false,"rental_uris":{"android":"levelo://app?vid=8cb98100-8339-480d-872a-e2c4b7cea00c","ios":"levelo://app?vid=8cb98100-8339-480d-872a-e2c4b7cea00c"},"vehicle_type_id":"4","last_reported":1741709524,"current_range_meters":17600,"station_id":"","pricing_plan_id":"cebpf4jnsgd1na2vs0mg"},{"bike_id":"9b0ae61a-543e-4f63-814a-2559ae675d15","system_id":"levelo_inurba_marseille","lat":43.29272,"lon":5.37452,"is_reserved":false,"is_disabled":false,"rental_uris":{"android":"levelo://app?vid=9b0ae61a-543e-4f63-814a-2559ae675d15","ios":"levelo://app?vid=9b0ae61a-543e-4f63-814a-2559ae675d15"},"vehicle_type_id":"4","last_reported":1741709524,"current_range_meters":17600,"station_id":"ce4bgi12rcd13ifvqb70","pricing_plan_id":"cebpf4jnsgd1na2vs0mg"},{"bike_id":"9b1e325e-0c89-4f45-b26c-32725eb097c7","system_id":"levelo_inurba_marseille","lat":43.29537,"lon":5.39395,"is_reserved":false,"is_disabled":false,"rental_uris":{"android":"levelo://app?vid=9b1e325e-0c89-4f45-b26c-32725eb097c7","ios":"levelo://app?vid=9b1e325e-0c89-4f45-b26c-32725eb097c7"},"vehicle_type_id":"4","last_reported":1741709524,"current_range_meters":17600,"station_id":"ce4bh292rcd13ifvqdf0","pricing_plan_id":"cebpf4jnsgd1na2vs0mg"},{"bike_id":"070482fa-08e5-4c92-86a2-963e7a8b42c4","system_id":"levelo_inurba_marseille","lat":43.3106,"lon":5.38345,"is_reserved":false,"is_disabled":false,"rental_uris":{"android":"levelo://app?vid=070482fa-08e5-4c92-86a2-963e7a8b42c4","ios":"levelo://app?vid=070482fa-08e5-4c92-86a2-963e7a8b42c4"},"vehicle_type_id":"4","last_reported":1741709524,"current_range_meters":17600,"station_id":"ce4bgv92rcd13ifvqcr0","pricing_plan_id":"cebpf4jnsgd1na2vs0mg"},{"bike_id":"a3451aab-34aa-4062-a82f-34f391d64d03","system_id":"levelo_inurba_marseille","lat":43.29966,"lon":5.38499,"is_reserved":false,"is_disabled":false,"rental_uris":{"android":"levelo://app?vid=a3451aab-34aa-4062-a82f-34f391d64d03","ios":"levelo://app?vid=a3451aab-34aa-4062-a82f-34f391d64d03"},"vehicle_type_id":"4","last_reported":1741709524,"current_range_meters":17600,"station_id":"ce4bgj92rcd13ifvqbd0","pricing_plan_id":"cebpf4jnsgd1na2vs0mg"},{"bike_id":"99dfd7fc-22f8-4502-baf2-e4f4ff5cd420","system_id":"levelo_inurba_marseille","lat":43.31083,"lon":5.42432,"is_reserved":false,"is_disabled":false,"rental_uris":{"android":"levelo://app?vid=99dfd7fc-22f8-4502-baf2-e4f4ff5cd420","ios":"levelo://app?vid=99dfd7fc-22f8-4502-baf2-e4f4ff5cd420"},"vehicle_type_id":"4","last_reported":1741709524,"current_range_meters":18000,"station_id":"ce4bhp92rcd13ifvqhag","pricing_plan_id":"cebpf4jnsgd1na2vs0mg"},{"bike_id":"e0718395-0e2e-4a7a-a474-5a05d3f79c13","system_id":"levelo_inurba_marseille","lat":43.28411,"lon":5.37514,"is_reserved":false,"is_disabled":false,"rental_uris":{"android":"levelo://app?vid=e0718395-0e2e-4a7a-a474-5a05d3f79c13","ios":"levelo://app?vid=e0718395-0e2e-4a7a-a474-5a05d3f79c13"},"vehicle_type_id":"4","last_reported":1741709524,"current_range_meters":18000,"station_id":"ce4bh412rcd13ifvqds0","pricing_plan_id":"cebpf4jnsgd1na2vs0mg"},{"bike_id":"253c82d7-68d6-4034-9467-ca2689c7ced7","system_id":"levelo_inurba_marseille","lat":43.31497,"lon":5.37305,"is_reserved":false,"is_disabled":false,"rental_uris":{"android":"levelo://app?vid=253c82d7-68d6-4034-9467-ca2689c7ced7","ios":"levelo://app?vid=253c82d7-68d6-4034-9467-ca2689c7ced7"},"vehicle_type_id":"4","last_reported":1741709524,"current_range_meters":18000,"station_id":"ce4bgt12rcd13ifvqcd0","pricing_plan_id":"cebpf4jnsgd1na2vs0mg"},{"bike_id":"86394c4c-de42-4a92-abd3-69db83f47f6e","system_id":"levelo_inurba_marseille","lat":43.287,"lon":5.37401,"is_reserved":false,"is_disabled":false,"rental_uris":{"android":"levelo://app?vid=86394c4c-de42-4a92-abd3-69db83f47f6e","ios":"levelo://app?vid=86394c4c-de42-4a92-abd3-69db83f47f6e"},"vehicle_type_id":"4","last_reported":1741709524,"current_range_meters":18000,"station_id":"ce4bh3p2rcd13ifvqdq0","pricing_plan_id":"cebpf4jnsgd1na2vs0mg"},{"bike_id":"56d4fb47-70b2-4695-8c00-a9ba054cd3fa","system_id":"levelo_inurba_marseille","lat":43.29191,"lon":5.39328,"is_reserved":false,"is_disabled":false,"rental_uris":{"android":"levelo://app?vid=56d4fb47-70b2-4695-8c00-a9ba054cd3fa","ios":"levelo://app?vid=56d4fb47-70b2-4695-8c00-a9ba054cd3fa"},"vehicle_type_id":"4","last_reported":1741709524,"current_range_meters":18000,"station_id":"ce4bh192rcd13ifvqdd0","pricing_plan_id":"cebpf4jnsgd1na2vs0mg"},{"bike_id":"6788ac72-97ba-4670-850c-82f03a027689","system_id":"levelo_inurba_marseille","lat":43.25079,"lon":5.39518,"is_reserved":false,"is_disabled":false,"rental_uris":{"android":"levelo://app?vid=6788ac72-97ba-4670-850c-82f03a027689","ios":"levelo://app?vid=6788ac72-97ba-4670-850c-82f03a027689"},"vehicle_type_id":"4","last_reported":1741709524,"current_range_meters":18000,"station_id":"ce4bhm12rcd13ifvqgkg","pricing_plan_id":"cebpf4jnsgd1na2vs0mg"},{"bike_id":"034d624a-df43-4eb0-8207-b3309271b8f1","system_id":"levelo_inurba_marseille","lat":43.313193,"lon":5.39712,"is_reserved":false,"is_disabled":false,"rental_uris":{"android":"levelo://app?vid=034d624a-df43-4eb0-8207-b3309271b8f1","ios":"levelo://app?vid=034d624a-df43-4eb0-8207-b3309271b8f1"},"vehicle_type_id":"4","last_reported":1741709524,"current_range_meters":18800,"station_id":"ce4bgvp2rcd13ifvqcu0","pricing_plan_id":"cebpf4jnsgd1na2vs0mg"},{"bike_id":"9ee3b534-911c-448d-bb36-2434c5536575","system_id":"levelo_inurba_marseille","lat":43.24727,"lon":5.40002,"is_reserved":false,"is_disabled":false,"rental_uris":{"android":"levelo://app?vid=9ee3b534-911c-448d-bb36-2434c5536575","ios":"levelo://app?vid=9ee3b534-911c-448d-bb36-2434c5536575"},"vehicle_type_id":"4","last_reported":1741709524,"current_range_meters":18800,"station_id":"ce4bhlp2rcd13ifvqgjg","pricing_plan_id":"cebpf4jnsgd1na2vs0mg"},{"bike_id":"febafa61-9fca-4f05-8642-7cd522524da9","system_id":"levelo_inurba_marseille","lat":43.31482,"lon":5.3728,"is_reserved":false,"is_disabled":false,"rental_uris":{"android":"levelo://app?vid=febafa61-9fca-4f05-8642-7cd522524da9","ios":"levelo://app?vid=febafa61-9fca-4f05-8642-7cd522524da9"},"vehicle_type_id":"4","last_reported":1741709524,"current_range_meters":18800,"station_id":"ce4bgt12rcd13ifvqcd0","pricing_plan_id":"cebpf4jnsgd1na2vs0mg"},{"bike_id":"5e36b6b8-6e77-45ed-9597-025342e46c0b","system_id":"levelo_inurba_marseille","lat":43.25501,"lon":5.37661,"is_reserved":false,"is_disabled":false,"rental_uris":{"android":"levelo://app?vid=5e36b6b8-6e77-45ed-9597-025342e46c0b","ios":"levelo://app?vid=5e36b6b8-6e77-45ed-9597-025342e46c0b"},"vehicle_type_id":"4","last_reported":1741709524,"current_range_meters":18800,"station_id":"ce4bhh12rcd13ifvqff0","pricing_plan_id":"cebpf4jnsgd1na2vs0mg"},{"bike_id":"3f7561ba-076d-463d-b689-8160b774d84c","system_id":"levelo_inurba_marseille","lat":43.29599,"lon":5.38111,"is_reserved":false,"is_disabled":false,"rental_uris":{"android":"levelo://app?vid=3f7561ba-076d-463d-b689-8160b774d84c","ios":"levelo://app?vid=3f7561ba-076d-463d-b689-8160b774d84c"},"vehicle_type_id":"4","last_reported":1741709524,"current_range_meters":18800,"station_id":"ce4bgl12rcd13ifvqbo0","pricing_plan_id":"cebpf4jnsgd1na2vs0mg"},{"bike_id":"65966d30-f94a-4b88-b9b9-f7bba5ada73c","system_id":"levelo_inurba_marseille","lat":43.29937,"lon":5.36556,"is_reserved":false,"is_disabled":false,"rental_uris":{"android":"levelo://app?vid=65966d30-f94a-4b88-b9b9-f7bba5ada73c","ios":"levelo://app?vid=65966d30-f94a-4b88-b9b9-f7bba5ada73c"},"vehicle_type_id":"4","last_reported":1741709524,"current_range_meters":18800,"station_id":"ce4bgm92rcd13ifvqbr0","pricing_plan_id":"cebpf4jnsgd1na2vs0mg"},{"bike_id":"c199115b-4cbc-4cf2-afd7-f295e38972d4","system_id":"levelo_inurba_marseille","lat":43.2989,"lon":5.38903,"is_reserved":false,"is_disabled":false,"rental_uris":{"android":"levelo://app?vid=c199115b-4cbc-4cf2-afd7-f295e38972d4","ios":"levelo://app?vid=c199115b-4cbc-4cf2-afd7-f295e38972d4"},"vehicle_type_id":"4","last_reported":1741709524,"current_range_meters":18800,"station_id":"ce4bh392rcd13ifvqdl0","pricing_plan_id":"cebpf4jnsgd1na2vs0mg"},{"bike_id":"80ed522e-a704-4033-be24-41d5f4c753ed","system_id":"levelo_inurba_marseille","lat":43.2871,"lon":5.37932,"is_reserved":false,"is_disabled":false,"rental_uris":{"android":"levelo://app?vid=80ed522e-a704-4033-be24-41d5f4c753ed","ios":"levelo://app?vid=80ed522e-a704-4033-be24-41d5f4c753ed"},"vehicle_type_id":"4","last_reported":1741709524,"current_range_meters":19200,"station_id":"ce4bh9p2rcd13ifvqec0","pricing_plan_id":"cebpf4jnsgd1na2vs0mg"},{"bike_id":"0a0f7e3c-7736-45d4-93bb-27f3c0db4db1","system_id":"levelo_inurba_marseille","lat":43.25869,"lon":5.39348,"is_reserved":false,"is_disabled":false,"rental_uris":{"android":"levelo://app?vid=0a0f7e3c-7736-45d4-93bb-27f3c0db4db1","ios":"levelo://app?vid=0a0f7e3c-7736-45d4-93bb-27f3c0db4db1"},"vehicle_type_id":"4","last_reported":1741709524,"current_range_meters":19200,"station_id":"","pricing_plan_id":"cebpf4jnsgd1na2vs0mg"},{"bike_id":"af8ce43a-cc73-4abd-86ba-ba69122ae133","system_id":"levelo_inurba_marseille","lat":43.26779,"lon":5.39414,"is_reserved":false,"is_disabled":false,"rental_uris":{"android":"levelo://app?vid=af8ce43a-cc73-4abd-86ba-ba69122ae133","ios":"levelo://app?vid=af8ce43a-cc73-4abd-86ba-ba69122ae133"},"vehicle_type_id":"4","last_reported":1741709524,"current_range_meters":19200,"station_id":"ce4bhh12rcd13ifvqfg0","pricing_plan_id":"cebpf4jnsgd1na2vs0mg"},{"bike_id":"d3ac1ba6-6349-4d47-99e4-9f85d3ef1aa5","system_id":"levelo_inurba_marseille","lat":43.28506,"lon":5.36877,"is_reserved":false,"is_disabled":false,"rental_uris":{"android":"levelo://app?vid=d3ac1ba6-6349-4d47-99e4-9f85d3ef1aa5","ios":"levelo://app?vid=d3ac1ba6-6349-4d47-99e4-9f85d3ef1aa5"},"vehicle_type_id":"4","last_reported":1741709524,"current_range_meters":19200,"station_id":"","pricing_plan_id":"cebpf4jnsgd1na2vs0mg"},{"bike_id":"4e8e4d54-268e-4c0f-b975-4cff6c065937","system_id":"levelo_inurba_marseille","lat":43.26189,"lon":5.37471,"is_reserved":false,"is_disabled":false,"rental_uris":{"android":"levelo://app?vid=4e8e4d54-268e-4c0f-b975-4cff6c065937","ios":"levelo://app?vid=4e8e4d54-268e-4c0f-b975-4cff6c065937"},"vehicle_type_id":"4","last_reported":1741709524,"current_range_meters":19200,"station_id":"ce4bhgp2rcd13ifvqfc0","pricing_plan_id":"cebpf4jnsgd1na2vs0mg"},{"bike_id":"c7b35e11-1387-46d4-9738-fca54d94d603","system_id":"levelo_inurba_marseille","lat":43.29983,"lon":5.38477,"is_reserved":false,"is_disabled":false,"rental_uris":{"android":"levelo://app?vid=c7b35e11-1387-46d4-9738-fca54d94d603","ios":"levelo://app?vid=c7b35e11-1387-46d4-9738-fca54d94d603"},"vehicle_type_id":"4","last_reported":1741709524,"current_range_meters":19200,"station_id":"ce4bgj92rcd13ifvqbd0","pricing_plan_id":"cebpf4jnsgd1na2vs0mg"},{"bike_id":"a5f8b5dc-b3cb-4644-a372-847a0b8da48e","system_id":"levelo_inurba_marseille","lat":43.28034,"lon":5.36941,"is_reserved":false,"is_disabled":false,"rental_uris":{"android":"levelo://app?vid=a5f8b5dc-b3cb-4644-a372-847a0b8da48e","ios":"levelo://app?vid=a5f8b5dc-b3cb-4644-a372-847a0b8da48e"},"vehicle_type_id":"4","last_reported":1741709524,"current_range_meters":19200,"station_id":"ce4bha12rcd13ifvqef0","pricing_plan_id":"cebpf4jnsgd1na2vs0mg"},{"bike_id":"da5bf86d-bf65-4df5-8f12-3efb02fd9a10","system_id":"levelo_inurba_marseille","lat":43.28942,"lon":5.39631,"is_reserved":false,"is_disabled":false,"rental_uris":{"android":"levelo://app?vid=da5bf86d-bf65-4df5-8f12-3efb02fd9a10","ios":"levelo://app?vid=da5bf86d-bf65-4df5-8f12-3efb02fd9a10"},"vehicle_type_id":"4","last_reported":1741709524,"current_range_meters":19200,"station_id":"ce4bh3h2rcd13ifvqdn0","pricing_plan_id":"cebpf4jnsgd1na2vs0mg"},{"bike_id":"b163a897-2123-480a-9769-19ef64f50813","system_id":"levelo_inurba_marseille","lat":43.25927,"lon":5.40912,"is_reserved":false,"is_disabled":false,"rental_uris":{"android":"levelo://app?vid=b163a897-2123-480a-9769-19ef64f50813","ios":"levelo://app?vid=b163a897-2123-480a-9769-19ef64f50813"},"vehicle_type_id":"4","last_reported":1741709524,"current_range_meters":19200,"station_id":"ce4bhm92rcd13ifvqglg","pricing_plan_id":"cebpf4jnsgd1na2vs0mg"},{"bike_id":"0196d479-6c1f-49e4-b7c0-c2f275915119","system_id":"levelo_inurba_marseille","lat":43.28058,"lon":5.36942,"is_reserved":false,"is_disabled":false,"rental_uris":{"android":"levelo://app?vid=0196d479-6c1f-49e4-b7c0-c2f275915119","ios":"levelo://app?vid=0196d479-6c1f-49e4-b7c0-c2f275915119"},"vehicle_type_id":"4","last_reported":1741709524,"current_range_meters":19200,"station_id":"ce4bha12rcd13ifvqef0","pricing_plan_id":"cebpf4jnsgd1na2vs0mg"},{"bike_id":"5dbca175-08ba-4c66-951c-9a78ef295916","system_id":"levelo_inurba_marseille","lat":43.28151,"lon":5.42648,"is_reserved":false,"is_disabled":false,"rental_uris":{"android":"levelo://app?vid=5dbca175-08ba-4c66-951c-9a78ef295916","ios":"levelo://app?vid=5dbca175-08ba-4c66-951c-9a78ef295916"},"vehicle_type_id":"4","last_reported":1741709524,"current_range_meters":19600,"station_id":"ce4bhnh2rcd13ifvqgug","pricing_plan_id":"cebpf4jnsgd1na2vs0mg"},{"bike_id":"5e010522-ee63-447e-9bd0-e4572fe6d490","system_id":"levelo_inurba_marseille","lat":43.296,"lon":5.36925,"is_reserved":false,"is_disabled":false,"rental_uris":{"android":"levelo://app?vid=5e010522-ee63-447e-9bd0-e4572fe6d490","ios":"levelo://app?vid=5e010522-ee63-447e-9bd0-e4572fe6d490"},"vehicle_type_id":"4","last_reported":1741709524,"current_range_meters":19600,"station_id":"","pricing_plan_id":"cebpf4jnsgd1na2vs0mg"},{"bike_id":"17c20471-c9c6-431d-9be4-066be0cb4842","system_id":"levelo_inurba_marseille","lat":43.31082,"lon":5.42429,"is_reserved":false,"is_disabled":false,"rental_uris":{"android":"levelo://app?vid=17c20471-c9c6-431d-9be4-066be0cb4842","ios":"levelo://app?vid=17c20471-c9c6-431d-9be4-066be0cb4842"},"vehicle_type_id":"4","last_reported":1741709524,"current_range_meters":19600,"station_id":"ce4bhp92rcd13ifvqhag","pricing_plan_id":"cebpf4jnsgd1na2vs0mg"},{"bike_id":"f73fc35c-bb76-4a21-a460-fedd0ae029ad","system_id":"levelo_inurba_marseille","lat":43.27997,"lon":5.40006,"is_reserved":false,"is_disabled":false,"rental_uris":{"android":"levelo://app?vid=f73fc35c-bb76-4a21-a460-fedd0ae029ad","ios":"levelo://app?vid=f73fc35c-bb76-4a21-a460-fedd0ae029ad"},"vehicle_type_id":"4","last_reported":1741709524,"current_range_meters":19600,"station_id":"ce4bho92rcd13ifvqh4g","pricing_plan_id":"cebpf4jnsgd1na2vs0mg"},{"bike_id":"a5490b0d-6778-4c0c-960c-3aa0b15c8435","system_id":"levelo_inurba_marseille","lat":43.30815,"lon":5.37341,"is_reserved":false,"is_disabled":false,"rental_uris":{"android":"levelo://app?vid=a5490b0d-6778-4c0c-960c-3aa0b15c8435","ios":"levelo://app?vid=a5490b0d-6778-4c0c-960c-3aa0b15c8435"},"vehicle_type_id":"4","last_reported":1741709524,"current_range_meters":19600,"station_id":"","pricing_plan_id":"cebpf4jnsgd1na2vs0mg"},{"bike_id":"84f2611c-4599-44a9-a346-25043d995907","system_id":"levelo_inurba_marseille","lat":43.2946,"lon":5.39748,"is_reserved":false,"is_disabled":false,"rental_uris":{"android":"levelo://app?vid=84f2611c-4599-44a9-a346-25043d995907","ios":"levelo://app?vid=84f2611c-4599-44a9-a346-25043d995907"},"vehicle_type_id":"4","last_reported":1741709524,"current_range_meters":19600,"station_id":"ce4bh3h2rcd13ifvqdo0","pricing_plan_id":"cebpf4jnsgd1na2vs0mg"},{"bike_id":"0118782e-a9be-4c57-a3c6-f989e8d3b9bf","system_id":"levelo_inurba_marseille","lat":43.24184,"lon":5.39727,"is_reserved":false,"is_disabled":false,"rental_uris":{"android":"levelo://app?vid=0118782e-a9be-4c57-a3c6-f989e8d3b9bf","ios":"levelo://app?vid=0118782e-a9be-4c57-a3c6-f989e8d3b9bf"},"vehicle_type_id":"4","last_reported":1741709524,"current_range_meters":19600,"station_id":"ce4bhn12rcd13ifvqgpg","pricing_plan_id":"cebpf4jnsgd1na2vs0mg"},{"bike_id":"a76d3dc4-179c-4b42-865b-a849c7725514","system_id":"levelo_inurba_marseille","lat":43.2957,"lon":5.37501,"is_reserved":false,"is_disabled":false,"rental_uris":{"android":"levelo://app?vid=a76d3dc4-179c-4b42-865b-a849c7725514","ios":"levelo://app?vid=a76d3dc4-179c-4b42-865b-a849c7725514"},"vehicle_type_id":"4","last_reported":1741709524,"current_range_meters":19600,"station_id":"ce4bgh92rcd13ifvqb50","pricing_plan_id":"cebpf4jnsgd1na2vs0mg"},{"bike_id":"ca762409-3e9b-49eb-b311-18b138aaa95f","system_id":"levelo_inurba_marseille","lat":43.3374,"lon":5.392,"is_reserved":false,"is_disabled":false,"rental_uris":{"android":"levelo://app?vid=ca762409-3e9b-49eb-b311-18b138aaa95f","ios":"levelo://app?vid=ca762409-3e9b-49eb-b311-18b138aaa95f"},"vehicle_type_id":"4","last_reported":1741709524,"current_range_meters":19600,"station_id":"ce4bhr92rcd13ifvqhsg","pricing_plan_id":"cebpf4jnsgd1na2vs0mg"},{"bike_id":"6d6e9650-5c70-46d5-a5bf-9b92b20ff87c","system_id":"levelo_inurba_marseille","lat":43.31528,"lon":5.38043,"is_reserved":false,"is_disabled":false,"rental_uris":{"android":"levelo://app?vid=6d6e9650-5c70-46d5-a5bf-9b92b20ff87c","ios":"levelo://app?vid=6d6e9650-5c70-46d5-a5bf-9b92b20ff87c"},"vehicle_type_id":"4","last_reported":1741709524,"current_range_meters":19600,"station_id":"ce4bhsp2rcd13ifvqi50","pricing_plan_id":"cebpf4jnsgd1na2vs0mg"},{"bike_id":"89e160eb-1701-4f00-b6fe-d657a294daf8","system_id":"levelo_inurba_marseille","lat":43.28485,"lon":5.38439,"is_reserved":false,"is_disabled":false,"rental_uris":{"android":"levelo://app?vid=89e160eb-1701-4f00-b6fe-d657a294daf8","ios":"levelo://app?vid=89e160eb-1701-4f00-b6fe-d657a294daf8"},"vehicle_type_id":"4","last_reported":1741709524,"current_range_meters":19600,"station_id":"ce4bh512rcd13ifvqe3g","pricing_plan_id":"cebpf4jnsgd1na2vs0mg"},{"bike_id":"8f9e82d2-2272-4296-b8ec-ee107a0be76b","system_id":"levelo_inurba_marseille","lat":43.28749,"lon":5.37952,"is_reserved":false,"is_disabled":false,"rental_uris":{"android":"levelo://app?vid=8f9e82d2-2272-4296-b8ec-ee107a0be76b","ios":"levelo://app?vid=8f9e82d2-2272-4296-b8ec-ee107a0be76b"},"vehicle_type_id":"4","last_reported":1741709524,"current_range_meters":20000,"station_id":"ce4bh9p2rcd13ifvqec0","pricing_plan_id":"cebpf4jnsgd1na2vs0mg"},{"bike_id":"f0269355-d277-4ff4-b83b-7d1c5d5455f9","system_id":"levelo_inurba_marseille","lat":43.28359,"lon":5.38107,"is_reserved":false,"is_disabled":false,"rental_uris":{"android":"levelo://app?vid=f0269355-d277-4ff4-b83b-7d1c5d5455f9","ios":"levelo://app?vid=f0269355-d277-4ff4-b83b-7d1c5d5455f9"},"vehicle_type_id":"4","last_reported":1741709524,"current_range_meters":20000,"station_id":"ce4bh412rcd13ifvqdr0","pricing_plan_id":"cebpf4jnsgd1na2vs0mg"},{"bike_id":"217589e8-e957-42db-b894-bb1dc27f50ef","system_id":"levelo_inurba_marseille","lat":43.259327,"lon":5.409033,"is_reserved":false,"is_disabled":false,"rental_uris":{"android":"levelo://app?vid=217589e8-e957-42db-b894-bb1dc27f50ef","ios":"levelo://app?vid=217589e8-e957-42db-b894-bb1dc27f50ef"},"vehicle_type_id":"4","last_reported":1741709524,"current_range_meters":20000,"station_id":"ce4bhm92rcd13ifvqglg","pricing_plan_id":"cebpf4jnsgd1na2vs0mg"},{"bike_id":"d1235ce3-1007-4d2d-9e28-ea39398a63a8","system_id":"levelo_inurba_marseille","lat":43.23194,"lon":5.35558,"is_reserved":false,"is_disabled":false,"rental_uris":{"android":"levelo://app?vid=d1235ce3-1007-4d2d-9e28-ea39398a63a8","ios":"levelo://app?vid=d1235ce3-1007-4d2d-9e28-ea39398a63a8"},"vehicle_type_id":"4","last_reported":1741709524,"current_range_meters":20000,"station_id":"ce4bhu92rcd13ifvqi70","pricing_plan_id":"cebpf4jnsgd1na2vs0mg"},{"bike_id":"b2d842e3-e48d-4edf-bbf2-f5724d2a321d","system_id":"levelo_inurba_marseille","lat":43.30579,"lon":5.36553,"is_reserved":false,"is_disabled":false,"rental_uris":{"android":"levelo://app?vid=b2d842e3-e48d-4edf-bbf2-f5724d2a321d","ios":"levelo://app?vid=b2d842e3-e48d-4edf-bbf2-f5724d2a321d"},"vehicle_type_id":"4","last_reported":1741709524,"current_range_meters":20000,"station_id":"ce4bgs12rcd13ifvqcag","pricing_plan_id":"cebpf4jnsgd1na2vs0mg"},{"bike_id":"bdf4b3e7-bdf2-445a-8a03-46e4164568b5","system_id":"levelo_inurba_marseille","lat":43.23062,"lon":5.3548,"is_reserved":false,"is_disabled":false,"rental_uris":{"android":"levelo://app?vid=bdf4b3e7-bdf2-445a-8a03-46e4164568b5","ios":"levelo://app?vid=bdf4b3e7-bdf2-445a-8a03-46e4164568b5"},"vehicle_type_id":"4","last_reported":1741709524,"current_range_meters":20000,"station_id":"cpo3342slgdg3j2ifvpg","pricing_plan_id":"cebpf4jnsgd1na2vs0mg"},{"bike_id":"96114f57-f074-443d-9ee4-282b0360c01e","system_id":"levelo_inurba_marseille","lat":43.2873,"lon":5.37925,"is_reserved":false,"is_disabled":false,"rental_uris":{"android":"levelo://app?vid=96114f57-f074-443d-9ee4-282b0360c01e","ios":"levelo://app?vid=96114f57-f074-443d-9ee4-282b0360c01e"},"vehicle_type_id":"4","last_reported":1741709524,"current_range_meters":20000,"station_id":"ce4bh9p2rcd13ifvqec0","pricing_plan_id":"cebpf4jnsgd1na2vs0mg"},{"bike_id":"66f3f350-4cd1-400b-82fc-c5d319009d68","system_id":"levelo_inurba_marseille","lat":43.26208,"lon":5.37444,"is_reserved":false,"is_disabled":false,"rental_uris":{"android":"levelo://app?vid=66f3f350-4cd1-400b-82fc-c5d319009d68","ios":"levelo://app?vid=66f3f350-4cd1-400b-82fc-c5d319009d68"},"vehicle_type_id":"4","last_reported":1741709524,"current_range_meters":20400,"station_id":"ce4bhgp2rcd13ifvqfc0","pricing_plan_id":"cebpf4jnsgd1na2vs0mg"},{"bike_id":"879a4c32-45b2-4013-bae3-c2e6b701b2d7","system_id":"levelo_inurba_marseille","lat":43.30133,"lon":5.37416,"is_reserved":false,"is_disabled":false,"rental_uris":{"android":"levelo://app?vid=879a4c32-45b2-4013-bae3-c2e6b701b2d7","ios":"levelo://app?vid=879a4c32-45b2-4013-bae3-c2e6b701b2d7"},"vehicle_type_id":"4","last_reported":1741709524,"current_range_meters":20400,"station_id":"ce4bgs92rcd13ifvqcc0","pricing_plan_id":"cebpf4jnsgd1na2vs0mg"},{"bike_id":"b86cb31e-cc97-46ad-bb96-9bec5f9e7054","system_id":"levelo_inurba_marseille","lat":43.28923,"lon":5.36632,"is_reserved":false,"is_disabled":false,"rental_uris":{"android":"levelo://app?vid=b86cb31e-cc97-46ad-bb96-9bec5f9e7054","ios":"levelo://app?vid=b86cb31e-cc97-46ad-bb96-9bec5f9e7054"},"vehicle_type_id":"4","last_reported":1741709524,"current_range_meters":20400,"station_id":"ce4bhap2rcd13ifvqek0","pricing_plan_id":"cebpf4jnsgd1na2vs0mg"},{"bike_id":"894adb72-eba3-4c31-be33-a34cdb918fbd","system_id":"levelo_inurba_marseille","lat":43.25727,"lon":5.41089,"is_reserved":false,"is_disabled":false,"rental_uris":{"android":"levelo://app?vid=894adb72-eba3-4c31-be33-a34cdb918fbd","ios":"levelo://app?vid=894adb72-eba3-4c31-be33-a34cdb918fbd"},"vehicle_type_id":"4","last_reported":1741709524,"current_range_meters":20400,"station_id":"ce4bhkp2rcd13ifvqgd0","pricing_plan_id":"cebpf4jnsgd1na2vs0mg"},{"bike_id":"d635fc4e-d0d5-48cd-9305-906594fe2b69","system_id":"levelo_inurba_marseille","lat":43.29936,"lon":5.36553,"is_reserved":false,"is_disabled":false,"rental_uris":{"android":"levelo://app?vid=d635fc4e-d0d5-48cd-9305-906594fe2b69","ios":"levelo://app?vid=d635fc4e-d0d5-48cd-9305-906594fe2b69"},"vehicle_type_id":"4","last_reported":1741709524,"current_range_meters":20400,"station_id":"ce4bgm92rcd13ifvqbr0","pricing_plan_id":"cebpf4jnsgd1na2vs0mg"},{"bike_id":"6f8a817b-9683-40fa-bfa4-b740fec02c70","system_id":"levelo_inurba_marseille","lat":43.24997,"lon":5.38937,"is_reserved":false,"is_disabled":false,"rental_uris":{"android":"levelo://app?vid=6f8a817b-9683-40fa-bfa4-b740fec02c70","ios":"levelo://app?vid=6f8a817b-9683-40fa-bfa4-b740fec02c70"},"vehicle_type_id":"4","last_reported":1741709524,"current_range_meters":20400,"station_id":"ce4bhgp2rcd13ifvqfd0","pricing_plan_id":"cebpf4jnsgd1na2vs0mg"},{"bike_id":"c8f5a7aa-328f-49c1-a785-9624fa888d07","system_id":"levelo_inurba_marseille","lat":43.25009,"lon":5.38902,"is_reserved":false,"is_disabled":false,"rental_uris":{"android":"levelo://app?vid=c8f5a7aa-328f-49c1-a785-9624fa888d07","ios":"levelo://app?vid=c8f5a7aa-328f-49c1-a785-9624fa888d07"},"vehicle_type_id":"4","last_reported":1741709524,"current_range_meters":20400,"station_id":"ce4bhgp2rcd13ifvqfd0","pricing_plan_id":"cebpf4jnsgd1na2vs0mg"},{"bike_id":"447445fd-5a3e-44f0-8af1-e0d82627b15f","system_id":"levelo_inurba_marseille","lat":43.29351,"lon":5.42837,"is_reserved":false,"is_disabled":false,"rental_uris":{"android":"levelo://app?vid=447445fd-5a3e-44f0-8af1-e0d82627b15f","ios":"levelo://app?vid=447445fd-5a3e-44f0-8af1-e0d82627b15f"},"vehicle_type_id":"4","last_reported":1741709524,"current_range_meters":20800,"station_id":"","pricing_plan_id":"cebpf4jnsgd1na2vs0mg"},