{"last_updated":1706468654,"ttl":30,"version":"2.2","data":{"bikes":[{"bike_id":"26eb7c4c-d820-4609-a57f-4739d1caec33","system_id":"levelo_inurba_marseille","lat":43.31341,"lon":5.367098,"is_reserved":false,"is_disabled":false,"rental_uris":{"android":"levelo://app?vid=26eb7c4c-d820-4609-a57f-4739d1caec33","ios":"levelo://app?vid=26eb7c4c-d820-4609-a57f-4739d1caec33"},"vehicle_type_id":"4","last_reported":1706468654,"current_range_meters":29200,"station_id":"ce4bgr92rcd13ifvqc6g","pricing_plan_id":"free"},{"bike_id":"c30aa6a0-4388-407a-aa5a-ad5e70411a1b","system_id":"levelo_inurba_marseille","lat":43.312239,"lon":5.368562,"is_reserved":false,"is_disabled":false,"rental_uris":{"android":"levelo://app?vid=c30aa6a0-4388-407a-aa5a-ad5e70411a1b","ios":"levelo://app?vid=c30aa6a0-4388-407a-aa5a-ad5e70411a1b"},"vehicle_type_id":"4","last_reported":1706468654,"current_range_meters":10400,"station_id":"ce4bgl92rcd13ifvqbq0","pricing_plan_id":"free"},{"bike_id":"48b4642c-4a3e-4ec0-b6a0-d1df5cfaafcf","system_id":"levelo_inurba_marseille","lat":43.312239,"lon":5.368562,"is_reserved":false,"is_disabled":false,"rental_uris":{"android":"levelo://app?vid=48b4642c-4a3e-4ec0-b6a0-d1df5cfaafcf","ios":"levelo://app?vid=48b4642c-4a3e-4ec0-b6a0-d1df5cfaafcf"},"vehicle_type_id":"4","last_reported":1706468654,"current_range_meters":9200,"station_id":"ce4bgl92rcd13ifvqbq0","pricing_plan_id":"free"},{"bike_id":"735165c4-64c4-4b08-bb51-409503b731c5","system_id":"levelo_inurba_marseille","lat":43.312239,"lon":5.368562,"is_reserved":false,"is_disabled":false,"rental_uris":{"android":"levelo://app?vid=735165c4-64c4-4b08-bb51-409503b731c5","ios":"levelo://app?vid=735165c4-64c4-4b08-bb51-409503b731c5"},"vehicle_type_id":"4","last_reported":1706468654,"current_range_meters":30000,"station_id":"ce4bgl92rcd13ifvqbq0","pricing_plan_id":"free"},{"bike_id":"b5c87cb0-8b67-483c-b86a-6297eb440102","system_id":"levelo_inurba_marseille","lat":43.312239,"lon":5.368562,"is_reserved":false,"is_disabled":false,"rental_uris":{"android":"levelo://app?vid=b5c87cb0-8b67-483c-b86a-6297eb440102","ios":"levelo://app?vid=b5c87cb0-8b67-483c-b86a-6297eb440102"},"vehicle_type_id":"4","last_reported":1706468654,"current_range_meters":10800,"station_id":"ce4bgl92rcd13ifvqbq0","pricing_plan_id":"free"},{"bike_id":"7dd3ff27-4e87-4cff-859a-d94a428d0541","system_id":"levelo_inurba_marseille","lat":43.312237,"lon":5.368627,"is_reserved":false,"is_disabled":false,"rental_uris":{"android":"levelo://app?vid=7dd3ff27-4e87-4cff-859a-d94a428d0541","ios":"levelo://app?vid=7dd3ff27-4e87-4cff-859a-d94a428d0541"},"vehicle_type_id":"4","last_reported":1706468654,"current_range_meters":19200,"station_id":"ce4bgl92rcd13ifvqbq0","pricing_plan_id":"free"},{"bike_id":"3b263267-9819-4497-89d7-6e1c9e2b521a","system_id":"levelo_inurba_marseille","lat":43.314811,"lon":5.373103,"is_reserved":false,"is_disabled":false,"rental_uris":{"android":"levelo://app?vid=3b263267-9819-4497-89d7-6e1c9e2b521a","ios":"levelo://app?vid=3b263267-9819-4497-89d7-6e1c9e2b521a"},"vehicle_type_id":"4","last_reported":1706468654,"current_range_meters":25600,"station_id":"ce4bgt12rcd13ifvqcd0","pricing_plan_id":"free"},{"bike_id":"96e1ab46-776f-4470-80d9-8769522d71d4","system_id":"levelo_inurba_marseille","lat":43.305989,"lon":5.37225,"is_reserved":false,"is_disabled":false,"rental_uris":{"android":"levelo://app?vid=96e1ab46-776f-4470-80d9-8769522d71d4","ios":"levelo://app?vid=96e1ab46-776f-4470-80d9-8769522d71d4"},"vehicle_type_id":"4","last_reported":1706468654,"current_range_meters":30400,"station_id":"ce4bgqh2rcd13ifvqc4g","pricing_plan_id":"free"},{"bike_id":"19a55894-7067-469c-859a-96378358df25","system_id":"levelo_inurba_marseille","lat":43.305989,"lon":5.37225,"is_reserved":false,"is_disabled":false,"rental_uris":{"android":"levelo://app?vid=19a55894-7067-469c-859a-96378358df25","ios":"levelo://app?vid=19a55894-7067-469c-859a-96378358df25"},"vehicle_type_id":"4","last_reported":1706468654,"current_range_meters":6000,"station_id":"ce4bgqh2rcd13ifvqc4g","pricing_plan_id":"free"},{"bike_id":"d987a502-ae91-4687-a21a-aa1dc2e933f0","system_id":"levelo_inurba_marseille","lat":43.311125,"lon":5.377624,"is_reserved":false,"is_disabled":false,"rental_uris":{"android":"levelo://app?vid=d987a502-ae91-4687-a21a-aa1dc2e933f0","ios":"levelo://app?vid=d987a502-ae91-4687-a21a-aa1dc2e933f0"},"vehicle_type_id":"4","last_reported":1706468654,"current_range_meters":19600,"station_id":"ce4bgt92rcd13ifvqcg0","pricing_plan_id":"free"},{"bike_id":"efe6323a-a422-45a9-a0d3-237bd7ae51ef","system_id":"levelo_inurba_marseille","lat":43.30787,"lon":5.37638,"is_reserved":false,"is_disabled":false,"rental_uris":{"android":"levelo://app?vid=efe6323a-a422-45a9-a0d3-237bd7ae51ef","ios":"levelo://app?vid=efe6323a-a422-45a9-a0d3-237bd7ae51ef"},"vehicle_type_id":"4","last_reported":1706468654,"current_range_meters":4800,"station_id":"ce4bgv92rcd13ifvqcq0","pricing_plan_id":"free"},{"bike_id":"dd76c2e5-a3fa-4485-925d-b52a2f624e9a","system_id":"levelo_inurba_marseille","lat":43.316982,"lon":5.377502,"is_reserved":false,"is_disabled":false,"rental_uris":{"android":"levelo://app?vid=dd76c2e5-a3fa-4485-925d-b52a2f624e9a","ios":"levelo://app?vid=dd76c2e5-a3fa-4485-925d-b52a2f624e9a"},"vehicle_type_id":"4","last_reported":1706468654,"current_range_meters":0,"station_id":"ce4bgth2rcd13ifvqch0","pricing_plan_id":"free"},{"bike_id":"bf70306f-e475-47ca-8724-a7e42b25d923","system_id":"levelo_inurba_marseille","lat":43.317075,"lon":5.377367,"is_reserved":false,"is_disabled":false,"rental_uris":{"android":"levelo://app?vid=bf70306f-e475-47ca-8724-a7e42b25d923","ios":"levelo://app?vid=bf70306f-e475-47ca-8724-a7e42b25d923"},"vehicle_type_id":"4","last_reported":1706468654,"current_range_meters":31200,"station_id":"ce4bgth2rcd13ifvqch0","pricing_plan_id":"free"},{"bike_id":"9bd95e53-94dd-4ba3-88c0-8c8188e6465b","system_id":"levelo_inurba_marseille","lat":43.30328,"lon":5.36579,"is_reserved":false,"is_disabled":false,"rental_uris":{"android":"levelo://app?vid=9bd95e53-94dd-4ba3-88c0-8c8188e6465b","ios":"levelo://app?vid=9bd95e53-94dd-4ba3-88c0-8c8188e6465b"},"vehicle_type_id":"4","last_reported":1706468654,"current_range_meters":3600,"station_id":"","pricing_plan_id":"free"},{"bike_id":"b83daeb9-a39c-4884-86e2-16a37c651f7f","system_id":"levelo_inurba_marseille","lat":43.31999,"lon":5.37626,"is_reserved":false,"is_disabled":false,"rental_uris":{"android":"levelo://app?vid=b83daeb9-a39c-4884-86e2-16a37c651f7f","ios":"levelo://app?vid=b83daeb9-a39c-4884-86e2-16a37c651f7f"},"vehicle_type_id":"4","last_reported":1706468654,"current_range_meters":4800,"station_id":"","pricing_plan_id":"free"},{"bike_id":"8d33dfa5-b21c-4793-abd9-67d093c9b10e","system_id":"levelo_inurba_marseille","lat":43.31535,"lon":5.38027,"is_reserved":false,"is_disabled":false,"rental_uris":{"android":"levelo://app?vid=8d33dfa5-b21c-4793-abd9-67d093c9b10e","ios":"levelo://app?vid=8d33dfa5-b21c-4793-abd9-67d093c9b10e"},"vehicle_type_id":"4","last_reported":1706468654,"current_range_meters":12400,"station_id":"ce4bhsp2rcd13ifvqi50","pricing_plan_id":"free"},{"bike_id":"dbbe92d2-890e-477b-b56f-772147ba4556","system_id":"levelo_inurba_marseille","lat":43.31535,"lon":5.3803,"is_reserved":false,"is_disabled":false,"rental_uris":{"android":"levelo://app?vid=dbbe92d2-890e-477b-b56f-772147ba4556","ios":"levelo://app?vid=dbbe92d2-890e-477b-b56f-772147ba4556"},"vehicle_type_id":"4","last_reported":1706468654,"current_range_meters":12400,"station_id":"ce4bhsp2rcd13ifvqi50","pricing_plan_id":"free"},{"bike_id":"88673df1-ee5e-4677-90c1-4ffdb9da3ae5","system_id":"levelo_inurba_marseille","lat":43.301939,"lon":5.366286,"is_reserved":false,"is_disabled":false,"rental_uris":{"android":"levelo://app?vid=88673df1-ee5e-4677-90c1-4ffdb9da3ae5","ios":"levelo://app?vid=88673df1-ee5e-4677-90c1-4ffdb9da3ae5"},"vehicle_type_id":"4","last_reported":1706468654,"current_range_meters":19600,"station_id":"ce4bgrh2rcd13ifvqc8g","pricing_plan_id":"free"},{"bike_id":"78307200-79b6-428d-9ffe-9497c687edaa","system_id":"levelo_inurba_marseille","lat":43.301939,"lon":5.366286,"is_reserved":false,"is_disabled":false,"rental_uris":{"android":"levelo://app?vid=78307200-79b6-428d-9ffe-9497c687edaa","ios":"levelo://app?vid=78307200-79b6-428d-9ffe-9497c687edaa"},"vehicle_type_id":"4","last_reported":1706468654,"current_range_meters":18000,"station_id":"ce4bgrh2rcd13ifvqc8g","pricing_plan_id":"free"},{"bike_id":"5433676f-7486-459e-a119-0d57b95846ab","system_id":"levelo_inurba_marseille","lat":43.30155,"lon":5.36974,"is_reserved":false,"is_disabled":false,"rental_uris":{"android":"levelo://app?vid=5433676f-7486-459e-a119-0d57b95846ab","ios":"levelo://app?vid=5433676f-7486-459e-a119-0d57b95846ab"},"vehicle_type_id":"4","last_reported":1706468654,"current_range_meters":8400,"station_id":"","pricing_plan_id":"free"},{"bike_id":"5f129a72-b5f0-483b-8d97-d8404d329dc5","system_id":"levelo_inurba_marseille","lat":43.308012,"lon":5.381511,"is_reserved":false,"is_disabled":false,"rental_uris":{"android":"levelo://app?vid=5f129a72-b5f0-483b-8d97-d8404d329dc5","ios":"levelo://app?vid=5f129a72-b5f0-483b-8d97-d8404d329dc5"},"vehicle_type_id":"4","last_reported":1706468654,"current_range_meters":15600,"station_id":"ce4bgt12rcd13ifvqce0","pricing_plan_id":"free"},{"bike_id":"4232161f-972f-43c4-8c89-776f1bd3fed5","system_id":"levelo_inurba_marseille","lat":43.304606,"lon":5.379026,"is_reserved":false,"is_disabled":false,"rental_uris":{"android":"levelo://app?vid=4232161f-972f-43c4-8c89-776f1bd3fed5","ios":"levelo://app?vid=4232161f-972f-43c4-8c89-776f1bd3fed5"},"vehicle_type_id":"4","last_reported":1706468654,"current_range_meters":22000,"station_id":"ce4bgup2rcd13ifvqcn0","pricing_plan_id":"free"},{"bike_id":"68393448-b2e8-40b6-918a-858dad69237a","system_id":"levelo_inurba_marseille","lat":43.304606,"lon":5.379026,"is_reserved":false,"is_disabled":false,"rental_uris":{"android":"levelo://app?vid=68393448-b2e8-40b6-918a-858dad69237a","ios":"levelo://app?vid=68393448-b2e8-40b6-918a-858dad69237a"},"vehicle_type_id":"4","last_reported":1706468654,"current_range_meters":5200,"station_id":"ce4bgup2rcd13ifvqcn0","pricing_plan_id":"free"},{"bike_id":"1dd95eb2-cc52-4a61-bd2b-a11ff28fec96","system_id":"levelo_inurba_marseille","lat":43.324771,"lon":5.36557,"is_reserved":false,"is_disabled":false,"rental_uris":{"android":"levelo://app?vid=1dd95eb2-cc52-4a61-bd2b-a11ff28fec96","ios":"levelo://app?vid=1dd95eb2-cc52-4a61-bd2b-a11ff28fec96"},"vehicle_type_id":"4","last_reported":1706468654,"current_range_meters":400,"station_id":"ce4bhs12rcd13ifvqhvg","pricing_plan_id":"free"},{"bike_id":"4c4b8ab9-5ef1-420c-9390-c3e236e87d90","system_id":"levelo_inurba_marseille","lat":43.324771,"lon":5.36557,"is_reserved":false,"is_disabled":false,"rental_uris":{"android":"levelo://app?vid=4c4b8ab9-5ef1-420c-9390-c3e236e87d90","ios":"levelo://app?vid=4c4b8ab9-5ef1-420c-9390-c3e236e87d90"},"vehicle_type_id":"4","last_reported":1706468654,"current_range_meters":4800,"station_id":"ce4bhs12rcd13ifvqhvg","pricing_plan_id":"free"},{"bike_id":"dc00bdf8-dc57-4b02-8d44-8ea4906debe3","system_id":"levelo_inurba_marseille","lat":43.324771,"lon":5.36557,"is_reserved":false,"is_disabled":false,"rental_uris":{"android":"levelo://app?vid=dc00bdf8-dc57-4b02-8d44-8ea4906debe3","ios":"levelo://app?vid=dc00bdf8-dc57-4b02-8d44-8ea4906debe3"},"vehicle_type_id":"4","last_reported":1706468654,"current_range_meters":16800,"station_id":"ce4bhs12rcd13ifvqhvg","pricing_plan_id":"free"},{"bike_id":"4e8e7e9f-0e12-415e-9f8a-232c8717aa9d","system_id":"levelo_inurba_marseille","lat":43.319935,"lon":5.381699,"is_reserved":false,"is_disabled":false,"rental_uris":{"android":"levelo://app?vid=4e8e7e9f-0e12-415e-9f8a-232c8717aa9d","ios":"levelo://app?vid=4e8e7e9f-0e12-415e-9f8a-232c8717aa9d"},"vehicle_type_id":"4","last_reported":1706468654,"current_range_meters":21200,"station_id":"ce4bhr12rcd13ifvqhpg","pricing_plan_id":"free"},{"bike_id":"d04b8280-041d-4553-b1db-a77dc0a9ad34","system_id":"levelo_inurba_marseille","lat":43.305364,"lon":5.384119,"is_reserved":false,"is_disabled":false,"rental_uris":{"android":"levelo://app?vid=d04b8280-041d-4553-b1db-a77dc0a9ad34","ios":"levelo://app?vid=d04b8280-041d-4553-b1db-a77dc0a9ad34"},"vehicle_type_id":"4","last_reported":1706468654,"current_range_meters":26400,"station_id":"ce4bgg92rcd13ifvqb30","pricing_plan_id":"free"},{"bike_id":"579639e1-85bb-470a-9d5f-c64a2ef896af","system_id":"levelo_inurba_marseille","lat":43.2992,"lon":5.37473,"is_reserved":false,"is_disabled":false,"rental_uris":{"android":"levelo://app?vid=579639e1-85bb-470a-9d5f-c64a2ef896af","ios":"levelo://app?vid=579639e1-85bb-470a-9d5f-c64a2ef896af"},"vehicle_type_id":"4","last_reported":1706468654,"current_range_meters":0,"station_id":"ce4bgjh2rcd13ifvqbg0","pricing_plan_id":"free"},{"bike_id":"9764bacb-1674-4f77-a37b-c30bc347448b","system_id":"levelo_inurba_marseille","lat":43.297794,"lon":5.370888,"is_reserved":false,"is_disabled":false,"rental_uris":{"android":"levelo://app?vid=9764bacb-1674-4f77-a37b-c30bc347448b","ios":"levelo://app?vid=9764bacb-1674-4f77-a37b-c30bc347448b"},"vehicle_type_id":"4","last_reported":1706468654,"current_range_meters":25600,"station_id":"ce4bgop2rcd13ifvqc1g","pricing_plan_id":"free"},{"bike_id":"fceedd04-a2ff-4e9a-b555-5c0e2ce22a83","system_id":"levelo_inurba_marseille","lat":43.322872,"lon":5.382756,"is_reserved":false,"is_disabled":false,"rental_uris":{"android":"levelo://app?vid=fceedd04-a2ff-4e9a-b555-5c0e2ce22a83","ios":"levelo://app?vid=fceedd04-a2ff-4e9a-b555-5c0e2ce22a83"},"vehicle_type_id":"4","last_reported":1706468654,"current_range_meters":22800,"station_id":"ce4bhr12rcd13ifvqhqg","pricing_plan_id":"free"},{"bike_id":"ef052ffe-e968-4eb8-b923-680910b4c6c0","system_id":"levelo_inurba_marseille","lat":43.322872,"lon":5.382756,"is_reserved":false,"is_disabled":false,"rental_uris":{"android":"levelo://app?vid=ef052ffe-e968-4eb8-b923-680910b4c6c0","ios":"levelo://app?vid=ef052ffe-e968-4eb8-b923-680910b4c6c0"},"vehicle_type_id":"4","last_reported":1706468654,"current_range_meters":20000,"station_id":"ce4bhr12rcd13ifvqhqg","pricing_plan_id":"free"},{"bike_id":"e1539f0d-02e3-46ca-8fd2-b115fd55a782","system_id":"levelo_inurba_marseille","lat":43.322872,"lon":5.382756,"is_reserved":false,"is_disabled":false,"rental_uris":{"android":"levelo://app?vid=e1539f0d-02e3-46ca-8fd2-b115fd55a782","ios":"levelo://app?vid=e1539f0d-02e3-46ca-8fd2-b115fd55a782"},"vehicle_type_id":"4","last_reported":1706468654,"current_range_meters":23600,"station_id":"ce4bhr12rcd13ifvqhqg","pricing_plan_id":"free"},{"bike_id":"9f9b4b90-bdbb-4ce1-adb6-03f6c8f005be","system_id":"levelo_inurba_marseille","lat":43.32823,"lon":5.36676,"is_reserved":false,"is_disabled":false,"rental_uris":{"android":"levelo://app?vid=9f9b4b90-bdbb-4ce1-adb6-03f6c8f005be","ios":"levelo://app?vid=9f9b4b90-bdbb-4ce1-adb6-03f6c8f005be"},"vehicle_type_id":"4","last_reported":1706468654,"current_range_meters":14000,"station_id":"ce4bhs92rcd13ifvqi0g","pricing_plan_id":"free"},{"bike_id":"bc53ba99-b807-415f-909d-56f38a2b6d95","system_id":"levelo_inurba_marseille","lat":43.328247,"lon":5.36684,"is_reserved":false,"is_disabled":false,"rental_uris":{"android":"levelo://app?vid=bc53ba99-b807-415f-909d-56f38a2b6d95","ios":"levelo://app?vid=bc53ba99-b807-415f-909d-56f38a2b6d95"},"vehicle_type_id":"4","last_reported":1706468654,"current_range_meters":1200,"station_id":"ce4bhs92rcd13ifvqi0g","pricing_plan_id":"free"},{"bike_id":"0f7b98a3-6434-4866-adac-ccd99f91e009","system_id":"levelo_inurba_marseille","lat":43.32827,"lon":5.36678,"is_reserved":false,"is_disabled":false,"rental_uris":{"android":"levelo://app?vid=0f7b98a3-6434-4866-adac-ccd99f91e009","ios":"levelo://app?vid=0f7b98a3-6434-4866-adac-ccd99f91e009"},"vehicle_type_id":"4","last_reported":1706468654,"current_range_meters":400,"station_id":"ce4bhs92rcd13ifvqi0g","pricing_plan_id":"free"},{"bike_id":"12edd8fe-ac42-424b-86a0-ddbc64b4f114","system_id":"levelo_inurba_marseille","lat":43.328371,"lon":5.366909,"is_reserved":false,"is_disabled":false,"rental_uris":{"android":"levelo://app?vid=12edd8fe-ac42-424b-86a0-ddbc64b4f114","ios":"levelo://app?vid=12edd8fe-ac42-424b-86a0-ddbc64b4f114"},"vehicle_type_id":"4","last_reported":1706468654,"current_range_meters":12400,"station_id":"ce4bhs92rcd13ifvqi0g","pricing_plan_id":"free"},{"bike_id":"1e3dac1e-79bb-416e-9a25-92222494a4ee","system_id":"levelo_inurba_marseille","lat":43.328371,"lon":5.366912,"is_reserved":false,"is_disabled":false,"rental_uris":{"android":"levelo://app?vid=1e3dac1e-79bb-416e-9a25-92222494a4ee","ios":"levelo://app?vid=1e3dac1e-79bb-416e-9a25-92222494a4ee"},"vehicle_type_id":"4","last_reported":1706468654,"current_range_meters":17200,"station_id":"ce4bhs92rcd13ifvqi0g","pricing_plan_id":"free"},{"bike_id":"af1c8fc0-8183-4d68-848c-9159b1d2bf45","system_id":"levelo_inurba_marseille","lat":43.328371,"lon":5.366909,"is_reserved":false,"is_disabled":false,"rental_uris":{"android":"levelo://app?vid=af1c8fc0-8183-4d68-848c-9159b1d2bf45","ios":"levelo://app?vid=af1c8fc0-8183-4d68-848c-9159b1d2bf45"},"vehicle_type_id":"4","last_reported":1706468654,"current_range_meters":8800,"station_id":"ce4bhs92rcd13ifvqi0g","pricing_plan_id":"free"},{"bike_id":"57eae886-be60-42dc-9011-3777cff3fb39","system_id":"levelo_inurba_marseille","lat":43.297163,"lon":5.365866,"is_reserved":false,"is_disabled":false,"rental_uris":{"android":"levelo://app?vid=57eae886-be60-42dc-9011-3777cff3fb39","ios":"levelo://app?vid=57eae886-be60-42dc-9011-3777cff3fb39"},"vehicle_type_id":"4","last_reported":1706468654,"current_range_meters":2400,"station_id":"ce4bgn12rcd13ifvqbt0","pricing_plan_id":"free"},{"bike_id":"1ec44b82-6956-4f5f-8dbf-5cb3ba41182b","system_id":"levelo_inurba_marseille","lat":43.296935,"lon":5.376544,"is_reserved":false,"is_disabled":false,"rental_uris":{"android":"levelo://app?vid=1ec44b82-6956-4f5f-8dbf-5cb3ba41182b","ios":"levelo://app?vid=1ec44b82-6956-4f5f-8dbf-5cb3ba41182b"},"vehicle_type_id":"4","last_reported":1706468654,"current_range_meters":17200,"station_id":"ce4bgkh2rcd13ifvqbl0","pricing_plan_id":"free"},{"bike_id":"c33dbbb8-9683-4cb9-862e-fcf95772abc5","system_id":"levelo_inurba_marseille","lat":43.299028,"lon":5.381509,"is_reserved":false,"is_disabled":false,"rental_uris":{"android":"levelo://app?vid=c33dbbb8-9683-4cb9-862e-fcf95772abc5","ios":"levelo://app?vid=c33dbbb8-9683-4cb9-862e-fcf95772abc5"},"vehicle_type_id":"4","last_reported":1706468654,"current_range_meters":17600,"station_id":"ce4bgj12rcd13ifvqbc0","pricing_plan_id":"free"},{"bike_id":"5073dd43-a5db-4751-86e8-d1919f59eb01","system_id":"levelo_inurba_marseille","lat":43.299028,"lon":5.381509,"is_reserved":false,"is_disabled":false,"rental_uris":{"android":"levelo://app?vid=5073dd43-a5db-4751-86e8-d1919f59eb01","ios":"levelo://app?vid=5073dd43-a5db-4751-86e8-d1919f59eb01"},"vehicle_type_id":"4","last_reported":1706468654,"current_range_meters":13200,"station_id":"ce4bgj12rcd13ifvqbc0","pricing_plan_id":"free"},{"bike_id":"f064ccb4-217f-45c2-96c9-0c7db8a4e390","system_id":"levelo_inurba_marseille","lat":43.317557,"lon":5.390173,"is_reserved":false,"is_disabled":false,"rental_uris":{"android":"levelo://app?vid=f064ccb4-217f-45c2-96c9-0c7db8a4e390","ios":"levelo://app?vid=f064ccb4-217f-45c2-96c9-0c7db8a4e390"},"vehicle_type_id":"4","last_reported":1706468654,"current_range_meters":26000,"station_id":"ce4bhqp2rcd13ifvqhng","pricing_plan_id":"free"},{"bike_id":"8dfa1e91-6be8-45ce-adda-cde2e30db97d","system_id":"levelo_inurba_marseille","lat":43.298005,"lon":5.38086,"is_reserved":false,"is_disabled":false,"rental_uris":{"android":"levelo://app?vid=8dfa1e91-6be8-45ce-adda-cde2e30db97d","ios":"levelo://app?vid=8dfa1e91-6be8-45ce-adda-cde2e30db97d"},"vehicle_type_id":"4","last_reported":1706468654,"current_range_meters":0,"station_id":"ce4bgip2rcd13ifvqbb0","pricing_plan_id":"free"},{"bike_id":"63176597-1718-477d-88c5-e593a3c24410","system_id":"levelo_inurba_marseille","lat":43.304278,"lon":5.388868,"is_reserved":false,"is_disabled":false,"rental_uris":{"android":"levelo://app?vid=63176597-1718-477d-88c5-e593a3c24410","ios":"levelo://app?vid=63176597-1718-477d-88c5-e593a3c24410"},"vehicle_type_id":"4","last_reported":1706468654,"current_range_meters":12400,"station_id":"ce4bgk12rcd13ifvqbi0","pricing_plan_id":"free"},{"bike_id":"b34b7087-dfa4-4b8f-a532-1b6298c656e3","system_id":"levelo_inurba_marseille","lat":43.295748,"lon":5.37522,"is_reserved":false,"is_disabled":false,"rental_uris":{"android":"levelo://app?vid=b34b7087-dfa4-4b8f-a532-1b6298c656e3","ios":"levelo://app?vid=b34b7087-dfa4-4b8f-a532-1b6298c656e3"},"vehicle_type_id":"4","last_reported":1706468654,"current_range_meters":0,"station_id":"ce4bgh92rcd13ifvqb50","pricing_plan_id":"free"},{"bike_id":"b217b1f4-8742-4098-aa11-4f3ddfa57840","system_id":"levelo_inurba_marseille","lat":43.304274,"lon":5.388873,"is_reserved":false,"is_disabled":false,"rental_uris":{"android":"levelo://app?vid=b217b1f4-8742-4098-aa11-4f3ddfa57840","ios":"levelo://app?vid=b217b1f4-8742-4098-aa11-4f3ddfa57840"},"vehicle_type_id":"4","last_reported":1706468654,"current_range_meters":9200,"station_id":"ce4bgk12rcd13ifvqbi0","pricing_plan_id":"free"},{"bike_id":"59a7f59b-4986-4400-9073-27863cc1d287","system_id":"levelo_inurba_marseille","lat":43.304274,"lon":5.388873,"is_reserved":false,"is_disabled":false,"rental_uris":{"android":"levelo://app?vid=59a7f59b-4986-4400-9073-27863cc1d287","ios":"levelo://app?vid=59a7f59b-4986-4400-9073-27863cc1d287"},"vehicle_type_id":"4","last_reported":1706468654,"current_range_meters":25200,"station_id":"ce4bgk12rcd13ifvqbi0","pricing_plan_id":"free"},{"bike_id":"55d80256-adfd-486e-966a-73a3db592673","system_id":"levelo_inurba_marseille","lat":43.295748,"lon":5.37522,"is_reserved":false,"is_disabled":false,"rental_uris":{"android":"levelo://app?vid=55d80256-adfd-486e-966a-73a3db592673","ios":"levelo://app?vid=55d80256-adfd-486e-966a-73a3db592673"},"vehicle_type_id":"4","last_reported":1706468654,"current_range_meters":0,"station_id":"ce4bgh92rcd13ifvqb50","pricing_plan_id":"free"},{"bike_id":"303d386e-9e5a-475d-b4fe-4fbec87131f9","system_id":"levelo_inurba_marseille","lat":43.295279,"lon":5.375048,"is_reserved":false,"is_disabled":false,"rental_uris":{"android":"levelo://app?vid=303d386e-9e5a-475d-b4fe-4fbec87131f9","ios":"levelo://app?vid=303d386e-9e5a-475d-b4fe-4fbec87131f9"},"vehicle_type_id":"4","last_reported":1706468654,"current_range_meters":18000,"station_id":"ce4bgkp2rcd13ifvqbmg","pricing_plan_id":"free"},{"bike_id":"a4b531cd-4ee1-42e1-b4cb-ffce01ba8282","system_id":"levelo_inurba_marseille","lat":43.299707,"lon":5.384859,"is_reserved":false,"is_disabled":false,"rental_uris":{"android":"levelo://app?vid=a4b531cd-4ee1-42e1-b4cb-ffce01ba8282","ios":"levelo://app?vid=a4b531cd-4ee1-42e1-b4cb-ffce01ba8282"},"vehicle_type_id":"4","last_reported":1706468654,"current_range_meters":11600,"station_id":"ce4bgj92rcd13ifvqbd0","pricing_plan_id":"free"},{"bike_id":"fd86cc51-e306-4f3f-b81b-cac5766f8e89","system_id":"levelo_inurba_marseille","lat":43.295279,"lon":5.375048,"is_reserved":false,"is_disabled":false,"rental_uris":{"android":"levelo://app?vid=fd86cc51-e306-4f3f-b81b-cac5766f8e89","ios":"levelo://app?vid=fd86cc51-e306-4f3f-b81b-cac5766f8e89"},"vehicle_type_id":"4","last_reported":1706468654,"current_range_meters":1600,"station_id":"ce4bgkp2rcd13ifvqbmg","pricing_plan_id":"free"},{"bike_id":"2295dc0c-2f1d-4394-bafd-c5d2e27bb7e8","system_id":"levelo_inurba_marseille","lat":43.299724,"lon":5.384848,"is_reserved":false,"is_disabled":false,"rental_uris":{"android":"levelo://app?vid=2295dc0c-2f1d-4394-bafd-c5d2e27bb7e8","ios":"levelo://app?vid=2295dc0c-2f1d-4394-bafd-c5d2e27bb7e8"},"vehicle_type_id":"4","last_reported":1706468654,"current_range_meters":26400,"station_id":"ce4bgj92rcd13ifvqbd0","pricing_plan_id":"free"},{"bike_id":"5bb51db2-3b85-424c-839e-bee1f69454ba","system_id":"levelo_inurba_marseille","lat":43.299707,"lon":5.384859,"is_reserved":false,"is_disabled":false,"rental_uris":{"android":"levelo://app?vid=5bb51db2-3b85-424c-839e-bee1f69454ba","ios":"levelo://app?vid=5bb51db2-3b85-424c-839e-bee1f69454ba"},"vehicle_type_id":"4","last_reported":1706468654,"current_range_meters":6400,"station_id":"ce4bgj92rcd13ifvqbd0","pricing_plan_id":"free"},{"bike_id":"d68e21e0-f101-4fe4-adad-3edc99116a12","system_id":"levelo_inurba_marseille","lat":43.32367,"lon":5.388836,"is_reserved":false,"is_disabled":false,"rental_uris":{"android":"levelo://app?vid=d68e21e0-f101-4fe4-adad-3edc99116a12","ios":"levelo://app?vid=d68e21e0-f101-4fe4-adad-3edc99116a12"},"vehicle_type_id":"4","last_reported":1706468654,"current_range_meters":18000,"station_id":"ce4bhqp2rcd13ifvqhog","pricing_plan_id":"free"},{"bike_id":"5784f68a-a96f-4468-9ac1-98fa0a6f03b7","system_id":"levelo_inurba_marseille","lat":43.29593,"lon":5.380928,"is_reserved":false,"is_disabled":false,"rental_uris":{"android":"levelo://app?vid=5784f68a-a96f-4468-9ac1-98fa0a6f03b7","ios":"levelo://app?vid=5784f68a-a96f-4468-9ac1-98fa0a6f03b7"},"vehicle_type_id":"4","last_reported":1706468654,"current_range_meters":0,"station_id":"ce4bgl12rcd13ifvqbo0","pricing_plan_id":"free"},{"bike_id":"d8569112-b66b-4694-a593-794f9928a0f1","system_id":"levelo_inurba_marseille","lat":43.29602,"lon":5.381084,"is_reserved":false,"is_disabled":false,"rental_uris":{"android":"levelo://app?vid=d8569112-b66b-4694-a593-794f9928a0f1","ios":"levelo://app?vid=d8569112-b66b-4694-a593-794f9928a0f1"},"vehicle_type_id":"4","last_reported":1706468654,"current_range_meters":10800,"station_id":"ce4bgl12rcd13ifvqbo0","pricing_plan_id":"free"},{"bike_id":"96c97a9f-74fa-495f-87d2-a34b29706f6b","system_id":"levelo_inurba_marseille","lat":43.29302,"lon":5.37173,"is_reserved":false,"is_disabled":false,"rental_uris":{"android":"levelo://app?vid=96c97a9f-74fa-495f-87d2-a34b29706f6b","ios":"levelo://app?vid=96c97a9f-74fa-495f-87d2-a34b29706f6b"},"vehicle_type_id":"4","last_reported":1706468654,"current_range_meters":0,"station_id":"ce4bgh92rcd13ifvqb40","pricing_plan_id":"free"},{"bike_id":"d5721dd4-b01b-410f-a8f6-a89f31e1bbed","system_id":"levelo_inurba_marseille","lat":43.30599,"lon":5.39346,"is_reserved":false,"is_disabled":false,"rental_uris":{"android":"levelo://app?vid=d5721dd4-b01b-410f-a8f6-a89f31e1bbed","ios":"levelo://app?vid=d5721dd4-b01b-410f-a8f6-a89f31e1bbed"},"vehicle_type_id":"4","last_reported":1706468654,"current_range_meters":15200,"station_id":"ce4bh0p2rcd13ifvqd80","pricing_plan_id":"free"},{"bike_id":"e3a8596b-c61a-4525-8458-598ca90c20af","system_id":"levelo_inurba_marseille","lat":43.293009,"lon":5.374584,"is_reserved":false,"is_disabled":false,"rental_uris":{"android":"levelo://app?vid=e3a8596b-c61a-4525-8458-598ca90c20af","ios":"levelo://app?vid=e3a8596b-c61a-4525-8458-598ca90c20af"},"vehicle_type_id":"4","last_reported":1706468654,"current_range_meters":0,"station_id":"ce4bgi12rcd13ifvqb70","pricing_plan_id":"free"},{"bike_id":"b2b81e02-8544-42c7-aed1-be71132a2b05","system_id":"levelo_inurba_marseille","lat":43.293009,"lon":5.374584,"is_reserved":false,"is_disabled":false,"rental_uris":{"android":"levelo://app?vid=b2b81e02-8544-42c7-aed1-be71132a2b05","ios":"levelo://app?vid=b2b81e02-8544-42c7-aed1-be71132a2b05"},"vehicle_type_id":"4","last_reported":1706468654,"current_range_meters":14800,"station_id":"ce4bgi12rcd13ifvqb70","pricing_plan_id":"free"},{"bike_id":"9f5f4737-03e2-4299-8da4-ed8ee4c84f55","system_id":"levelo_inurba_marseille","lat":43.305994,"lon":5.393687,"is_reserved":false,"is_disabled":false,"rental_uris":{"android":"levelo://app?vid=9f5f4737-03e2-4299-8da4-ed8ee4c84f55","ios":"levelo://app?vid=9f5f4737-03e2-4299-8da4-ed8ee4c84f55"},"vehicle_type_id":"4","last_reported":1706468654,"current_range_meters":25600,"station_id":"ce4bh0p2rcd13ifvqd80","pricing_plan_id":"free"},{"bike_id":"681269f3-c9ce-4700-8126-8ecec17d9024","system_id":"levelo_inurba_marseille","lat":43.305994,"lon":5.393687,"is_reserved":false,"is_disabled":false,"rental_uris":{"android":"levelo://app?vid=681269f3-c9ce-4700-8126-8ecec17d9024","ios":"levelo://app?vid=681269f3-c9ce-4700-8126-8ecec17d9024"},"vehicle_type_id":"4","last_reported":1706468654,"current_range_meters":2400,"station_id":"ce4bh0p2rcd13ifvqd80","pricing_plan_id":"free"},{"bike_id":"78f557a0-0d8e-480b-b3c7-ce7f88f951ba","system_id":"levelo_inurba_marseille","lat":43.293009,"lon":5.374584,"is_reserved":false,"is_disabled":false,"rental_uris":{"android":"levelo://app?vid=78f557a0-0d8e-480b-b3c7-ce7f88f951ba","ios":"levelo://app?vid=78f557a0-0d8e-480b-b3c7-ce7f88f951ba"},"vehicle_type_id":"4","last_reported":1706468654,"current_range_meters":15200,"station_id":"ce4bgi12rcd13ifvqb70","pricing_plan_id":"free"},{"bike_id":"bf4fac92-fd73-4902-98b9-8039201ac607","system_id":"levelo_inurba_marseille","lat":43.29295,"lon":5.37459,"is_reserved":false,"is_disabled":false,"rental_uris":{"android":"levelo://app?vid=bf4fac92-fd73-4902-98b9-8039201ac607","ios":"levelo://app?vid=bf4fac92-fd73-4902-98b9-8039201ac607"},"vehicle_type_id":"4","last_reported":1706468654,"current_range_meters":0,"station_id":"ce4bgi12rcd13ifvqb70","pricing_plan_id":"free"},{"bike_id":"25ba45b1-f3d1-4901-bdc6-b4c7c3ad3c1f","system_id":"levelo_inurba_marseille","lat":43.292925,"lon":5.374545,"is_reserved":false,"is_disabled":false,"rental_uris":{"android":"levelo://app?vid=25ba45b1-f3d1-4901-bdc6-b4c7c3ad3c1f","ios":"levelo://app?vid=25ba45b1-f3d1-4901-bdc6-b4c7c3ad3c1f"},"vehicle_type_id":"4","last_reported":1706468654,"current_range_meters":0,"station_id":"ce4bgi12rcd13ifvqb70","pricing_plan_id":"free"},{"bike_id":"64310429-5ccb-4003-b3e4-08adbdbb29de","system_id":"levelo_inurba_marseille","lat":43.305994,"lon":5.393687,"is_reserved":false,"is_disabled":false,"rental_uris":{"android":"levelo://app?vid=64310429-5ccb-4003-b3e4-08adbdbb29de","ios":"levelo://app?vid=64310429-5ccb-4003-b3e4-08adbdbb29de"},"vehicle_type_id":"4","last_reported":1706468654,"current_range_meters":8000,"station_id":"ce4bh0p2rcd13ifvqd80","pricing_plan_id":"free"},{"bike_id":"2b4348b6-581c-4357-a628-0ddc6a323632","system_id":"levelo_inurba_marseille","lat":43.2936,"lon":5.37835,"is_reserved":false,"is_disabled":false,"rental_uris":{"android":"levelo://app?vid=2b4348b6-581c-4357-a628-0ddc6a323632","ios":"levelo://app?vid=2b4348b6-581c-4357-a628-0ddc6a323632"},"vehicle_type_id":"4","last_reported":1706468654,"current_range_meters":11600,"station_id":"ce4bgjh2rcd13ifvqbf0","pricing_plan_id":"free"},{"bike_id":"5e889d2f-e1d3-4118-96f2-ccf0e39137a2","system_id":"levelo_inurba_marseille","lat":43.302992,"lon":5.392136,"is_reserved":false,"is_disabled":false,"rental_uris":{"android":"levelo://app?vid=5e889d2f-e1d3-4118-96f2-ccf0e39137a2","ios":"levelo://app?vid=5e889d2f-e1d3-4118-96f2-ccf0e39137a2"},"vehicle_type_id":"4","last_reported":1706468654,"current_range_meters":10400,"station_id":"ce4bgkh2rcd13ifvqbk0","pricing_plan_id":"free"},{"bike_id":"5c04cdd2-a73e-4e36-81a7-49b9ffd48e8c","system_id":"levelo_inurba_marseille","lat":43.2936,"lon":5.37835,"is_reserved":false,"is_disabled":false,"rental_uris":{"android":"levelo://app?vid=5c04cdd2-a73e-4e36-81a7-49b9ffd48e8c","ios":"levelo://app?vid=5c04cdd2-a73e-4e36-81a7-49b9ffd48e8c"},"vehicle_type_id":"4","last_reported":1706468654,"current_range_meters":4800,"station_id":"ce4bgjh2rcd13ifvqbf0","pricing_plan_id":"free"},{"bike_id":"b42c37f3-1faa-4e66-a798-9953853eeb1d","system_id":"levelo_inurba_marseille","lat":43.303002,"lon":5.392142,"is_reserved":false,"is_disabled":false,"rental_uris":{"android":"levelo://app?vid=b42c37f3-1faa-4e66-a798-9953853eeb1d","ios":"levelo://app?vid=b42c37f3-1faa-4e66-a798-9953853eeb1d"},"vehicle_type_id":"4","last_reported":1706468654,"current_range_meters":0,"station_id":"ce4bgkh2rcd13ifvqbk0","pricing_plan_id":"free"},{"bike_id":"132b0cb1-c2fa-4b68-afa2-941219582eda","system_id":"levelo_inurba_marseille","lat":43.30085,"lon":5.390856,"is_reserved":false,"is_disabled":false,"rental_uris":{"android":"levelo://app?vid=132b0cb1-c2fa-4b68-afa2-941219582eda","ios":"levelo://app?vid=132b0cb1-c2fa-4b68-afa2-941219582eda"},"vehicle_type_id":"4","last_reported":1706468654,"current_range_meters":24400,"station_id":"ce4bh192rcd13ifvqdb0","pricing_plan_id":"free"},{"bike_id":"c27e1cf6-f3ba-4a92-90dc-df4403cecfc8","system_id":"levelo_inurba_marseille","lat":43.292311,"lon":5.360731,"is_reserved":false,"is_disabled":false,"rental_uris":{"android":"levelo://app?vid=c27e1cf6-f3ba-4a92-90dc-df4403cecfc8","ios":"levelo://app?vid=c27e1cf6-f3ba-4a92-90dc-df4403cecfc8"},"vehicle_type_id":"4","last_reported":1706468654,"current_range_meters":9200,"station_id":"ce4bhbh2rcd13ifvqeqg","pricing_plan_id":"free"},{"bike_id":"e0e086dc-6a1a-4908-8175-199ec081b2d8","system_id":"levelo_inurba_marseille","lat":43.313291,"lon":5.396838,"is_reserved":false,"is_disabled":false,"rental_uris":{"android":"levelo://app?vid=e0e086dc-6a1a-4908-8175-199ec081b2d8","ios":"levelo://app?vid=e0e086dc-6a1a-4908-8175-199ec081b2d8"},"vehicle_type_id":"4","last_reported":1706468654,"current_range_meters":26000,"station_id":"ce4bgvp2rcd13ifvqcu0","pricing_plan_id":"free"},{"bike_id":"19a98a3e-6f28-4940-921f-3bd049ca887f","system_id":"levelo_inurba_marseille","lat":43.298764,"lon":5.388973,"is_reserved":false,"is_disabled":false,"rental_uris":{"android":"levelo://app?vid=19a98a3e-6f28-4940-921f-3bd049ca887f","ios":"levelo://app?vid=19a98a3e-6f28-4940-921f-3bd049ca887f"},"vehicle_type_id":"4","last_reported":1706468654,"current_range_meters":0,"station_id":"ce4bh392rcd13ifvqdl0","pricing_plan_id":"free"},{"bike_id":"ab244fc4-2d07-48ab-aa4e-d71c6b5ed2d8","system_id":"levelo_inurba_marseille","lat":43.291994,"lon":5.357886,"is_reserved":false,"is_disabled":false,"rental_uris":{"android":"levelo://app?vid=ab244fc4-2d07-48ab-aa4e-d71c6b5ed2d8","ios":"levelo://app?vid=ab244fc4-2d07-48ab-aa4e-d71c6b5ed2d8"},"vehicle_type_id":"4","last_reported":1706468654,"current_range_meters":6400,"station_id":"ce4bhb12rcd13ifvqel0","pricing_plan_id":"free"},{"bike_id":"37144e73-7770-46bd-a320-0c73b8c7cc84","system_id":"levelo_inurba_marseille","lat":43.291994,"lon":5.357886,"is_reserved":false,"is_disabled":false,"rental_uris":{"android":"levelo://app?vid=37144e73-7770-46bd-a320-0c73b8c7cc84","ios":"levelo://app?vid=37144e73-7770-46bd-a320-0c73b8c7cc84"},"vehicle_type_id":"4","last_reported":1706468654,"current_range_meters":11600,"station_id":"ce4bhb12rcd13ifvqel0","pricing_plan_id":"free"},{"bike_id":"36e1c0e7-15e3-4342-907e-b1949ec8c798","system_id":"levelo_inurba_marseille","lat":43.291994,"lon":5.357886,"is_reserved":false,"is_disabled":false,"rental_uris":{"android":"levelo://app?vid=36e1c0e7-15e3-4342-907e-b1949ec8c798","ios":"levelo://app?vid=36e1c0e7-15e3-4342-907e-b1949ec8c798"},"vehicle_type_id":"4","last_reported":1706468654,"current_range_meters":11600,"station_id":"ce4bhb12rcd13ifvqel0","pricing_plan_id":"free"},{"bike_id":"566f7c4d-44e5-40e9-8d72-136ea6ba604d","system_id":"levelo_inurba_marseille","lat":43.31331,"lon":5.39685,"is_reserved":false,"is_disabled":false,"rental_uris":{"android":"levelo://app?vid=566f7c4d-44e5-40e9-8d72-136ea6ba604d","ios":"levelo://app?vid=566f7c4d-44e5-40e9-8d72-136ea6ba604d"},"vehicle_type_id":"4","last_reported":1706468654,"current_range_meters":0,"station_id":"ce4bgvp2rcd13ifvqcu0","pricing_plan_id":"free"},{"bike_id":"d7a9c8e8-9647-4509-bb75-d6d378f8e2a8","system_id":"levelo_inurba_marseille","lat":43.309038,"lon":5.396546,"is_reserved":false,"is_disabled":false,"rental_uris":{"android":"levelo://app?vid=d7a9c8e8-9647-4509-bb75-d6d378f8e2a8","ios":"levelo://app?vid=d7a9c8e8-9647-4509-bb75-d6d378f8e2a8"},"vehicle_type_id":"4","last_reported":1706468654,"current_range_meters":14000,"station_id":"ce4bh012rcd13ifvqcv0","pricing_plan_id":"free"},{"bike_id":"7f3ecc81-79cb-4d9e-908c-7ece63af5067","system_id":"levelo_inurba_marseille","lat":43.313291,"lon":5.396838,"is_reserved":false,"is_disabled":false,"rental_uris":{"android":"levelo://app?vid=7f3ecc81-79cb-4d9e-908c-7ece63af5067","ios":"levelo://app?vid=7f3ecc81-79cb-4d9e-908c-7ece63af5067"},"vehicle_type_id":"4","last_reported":1706468654,"current_range_meters":25600,"station_id":"ce4bgvp2rcd13ifvqcu0","pricing_plan_id":"free"},{"bike_id":"360ae2f7-8bcb-471b-929d-3d8eedbf87b7","system_id":"levelo_inurba_marseille","lat":43.313291,"lon":5.396838,"is_reserved":false,"is_disabled":false,"rental_uris":{"android":"levelo://app?vid=360ae2f7-8bcb-471b-929d-3d8eedbf87b7","ios":"levelo://app?vid=360ae2f7-8bcb-471b-929d-3d8eedbf87b7"},"vehicle_type_id":"4","last_reported":1706468654,"current_range_meters":11600,"station_id":"ce4bgvp2rcd13ifvqcu0","pricing_plan_id":"free"},{"bike_id":"568bc16b-23ca-4680-a5be-0d3d4711f29c","system_id":"levelo_inurba_marseille","lat":43.309038,"lon":5.396546,"is_reserved":false,"is_disabled":false,"rental_uris":{"android":"levelo://app?vid=568bc16b-23ca-4680-a5be-0d3d4711f29c","ios":"levelo://app?vid=568bc16b-23ca-4680-a5be-0d3d4711f29c"},"vehicle_type_id":"4","last_reported":1706468654,"current_range_meters":5200,"station_id":"ce4bh012rcd13ifvqcv0","pricing_plan_id":"free"},{"bike_id":"c0dd02ca-8874-4437-bf2f-dbbecac6bed8","system_id":"levelo_inurba_marseille","lat":43.29185,"lon":5.35799,"is_reserved":false,"is_disabled":false,"rental_uris":{"android":"levelo://app?vid=c0dd02ca-8874-4437-bf2f-dbbecac6bed8","ios":"levelo://app?vid=c0dd02ca-8874-4437-bf2f-dbbecac6bed8"},"vehicle_type_id":"4","last_reported":1706468654,"current_range_meters":0,"station_id":"ce4bhb12rcd13ifvqel0","pricing_plan_id":"free"},{"bike_id":"5d23c927-60f8-413c-8bc7-c5c5abfeaa2f","system_id":"levelo_inurba_marseille","lat":43.29529,"lon":5.385581,"is_reserved":false,"is_disabled":false,"rental_uris":{"android":"levelo://app?vid=5d23c927-60f8-413c-8bc7-c5c5abfeaa2f","ios":"levelo://app?vid=5d23c927-60f8-413c-8bc7-c5c5abfeaa2f"},"vehicle_type_id":"4","last_reported":1706468654,"current_range_meters":15200,"station_id":"ce4bgih2rcd13ifvqba0","pricing_plan_id":"free"},{"bike_id":"1fa549f2-7e4d-4abd-bff2-66cc30f595fc","system_id":"levelo_inurba_marseille","lat":43.290779,"lon":5.371482,"is_reserved":false,"is_disabled":false,"rental_uris":{"android":"levelo://app?vid=1fa549f2-7e4d-4abd-bff2-66cc30f595fc","ios":"levelo://app?vid=1fa549f2-7e4d-4abd-bff2-66cc30f595fc"},"vehicle_type_id":"4","last_reported":1706468654,"current_range_meters":8400,"station_id":"ce4bh5p2rcd13ifvqe4g","pricing_plan_id":"free"},{"bike_id":"a15abd25-aff5-4940-ad50-188d1076cf87","system_id":"levelo_inurba_marseille","lat":43.290779,"lon":5.371482,"is_reserved":false,"is_disabled":false,"rental_uris":{"android":"levelo://app?vid=a15abd25-aff5-4940-ad50-188d1076cf87","ios":"levelo://app?vid=a15abd25-aff5-4940-ad50-188d1076cf87"},"vehicle_type_id":"4","last_reported":1706468654,"current_range_meters":8000,"station_id":"ce4bh5p2rcd13ifvqe4g","pricing_plan_id":"free"},{"bike_id":"6cb1ee70-e149-4d94-aa56-da5d3c151d55","system_id":"levelo_inurba_marseille","lat":43.290779,"lon":5.371482,"is_reserved":false,"is_disabled":false,"rental_uris":{"android":"levelo://app?vid=6cb1ee70-e149-4d94-aa56-da5d3c151d55","ios":"levelo://app?vid=6cb1ee70-e149-4d94-aa56-da5d3c151d55"},"vehicle_type_id":"4","last_reported":1706468654,"current_range_meters":21600,"station_id":"ce4bh5p2rcd13ifvqe4g","pricing_plan_id":"free"},{"bike_id":"b9d6ee85-2e6b-4e06-90dd-616edebd68b6","system_id":"levelo_inurba_marseille","lat":43.290605,"lon":5.3715,"is_reserved":false,"is_disabled":false,"rental_uris":{"android":"levelo://app?vid=b9d6ee85-2e6b-4e06-90dd-616edebd68b6","ios":"levelo://app?vid=b9d6ee85-2e6b-4e06-90dd-616edebd68b6"},"vehicle_type_id":"4","last_reported":1706468654,"current_range_meters":0,"station_id":"ce4bh5p2rcd13ifvqe4g","pricing_plan_id":"free"},{"bike_id":"36302ace-8b5b-4d33-a09b-d7df2162f733","system_id":"levelo_inurba_marseille","lat":43.302008,"lon":5.394694,"is_reserved":false,"is_disabled":false,"rental_uris":{"android":"levelo://app?vid=36302ace-8b5b-4d33-a09b-d7df2162f733","ios":"levelo://app?vid=36302ace-8b5b-4d33-a09b-d7df2162f733"},"vehicle_type_id":"4","last_reported":1706468654,"current_range_meters":0,"station_id":"ce4bh0p2rcd13ifvqd70","pricing_plan_id":"free"},{"bike_id":"c6c725ae-1b96-41e7-9859-1281692637c9","system_id":"levelo_inurba_marseille","lat":43.302048,"lon":5.394613,"is_reserved":false,"is_disabled":false,"rental_uris":{"android":"levelo://app?vid=c6c725ae-1b96-41e7-9859-1281692637c9","ios":"levelo://app?vid=c6c725ae-1b96-41e7-9859-1281692637c9"},"vehicle_type_id":"4","last_reported":1706468654,"current_range_meters":0,"station_id":"ce4bh0p2rcd13ifvqd70","pricing_plan_id":"free"},{"bike_id":"4c6e1a0b-2deb-4374-a8c4-1ecdbe091eab","system_id":"levelo_inurba_marseille","lat":43.290319,"lon":5.375732,"is_reserved":false,"is_disabled":false,"rental_uris":{"android":"levelo://app?vid=4c6e1a0b-2deb-4374-a8c4-1ecdbe091eab","ios":"levelo://app?vid=4c6e1a0b-2deb-4374-a8c4-1ecdbe091eab"},"vehicle_type_id":"4","last_reported":1706468654,"current_range_meters":4000,"station_id":"ce4bh692rcd13ifvqe90","pricing_plan_id":"free"},{"bike_id":"ec66efd6-d632-45fa-9344-bd23239e1195","system_id":"levelo_inurba_marseille","lat":43.294153,"lon":5.386305,"is_reserved":false,"is_disabled":false,"rental_uris":{"android":"levelo://app?vid=ec66efd6-d632-45fa-9344-bd23239e1195","ios":"levelo://app?vid=ec66efd6-d632-45fa-9344-bd23239e1195"},"vehicle_type_id":"4","last_reported":1706468654,"current_range_meters":0,"station_id":"ce4bh2h2rcd13ifvqdh0","pricing_plan_id":"free"},{"bike_id":"5d4ff776-356c-45bd-b11f-f98ab5a0b580","system_id":"levelo_inurba_marseille","lat":43.294153,"lon":5.386305,"is_reserved":false,"is_disabled":false,"rental_uris":{"android":"levelo://app?vid=5d4ff776-356c-45bd-b11f-f98ab5a0b580","ios":"levelo://app?vid=5d4ff776-356c-45bd-b11f-f98ab5a0b580"},"vehicle_type_id":"4","last_reported":1706468654,"current_range_meters":0,"station_id":"ce4bh2h2rcd13ifvqdh0","pricing_plan_id":"free"},{"bike_id":"b61913bf-3a5d-42eb-94aa-ba33e6d916a0","system_id":"levelo_inurba_marseille","lat":43.292642,"lon":5.384254,"is_reserved":false,"is_disabled":false,"rental_uris":{"android":"levelo://app?vid=b61913bf-3a5d-42eb-94aa-ba33e6d916a0","ios":"levelo://app?vid=b61913bf-3a5d-42eb-94aa-ba33e6d916a0"},"vehicle_type_id":"4","last_reported":1706468654,"current_range_meters":8400,"station_id":"ce4bh692rcd13ifvqea0","pricing_plan_id":"free"},{"bike_id":"07a60945-29a4-4a98-9f9d-498254f6e98c","system_id":"levelo_inurba_marseille","lat":43.28998,"lon":5.35619,"is_reserved":false,"is_disabled":false,"rental_uris":{"android":"levelo://app?vid=07a60945-29a4-4a98-9f9d-498254f6e98c","ios":"levelo://app?vid=07a60945-29a4-4a98-9f9d-498254f6e98c"},"vehicle_type_id":"4","last_reported":1706468654,"current_range_meters":0,"station_id":"ce4bhb92rcd13ifvqen0","pricing_plan_id":"free"},{"bike_id":"f6265580-8ccb-4d53-be3e-423be5252496","system_id":"levelo_inurba_marseille","lat":43.290995,"lon":5.381361,"is_reserved":false,"is_disabled":false,"rental_uris":{"android":"levelo://app?vid=f6265580-8ccb-4d53-be3e-423be5252496","ios":"levelo://app?vid=f6265580-8ccb-4d53-be3e-423be5252496"},"vehicle_type_id":"4","last_reported":1706468654,"current_range_meters":16800,"station_id":"ce4bh512rcd13ifvqe2g","pricing_plan_id":"free"},{"bike_id":"8720cb3e-2099-4fbc-b5f4-e26ec7b8ca65","system_id":"levelo_inurba_marseille","lat":43.29796,"lon":5.39341,"is_reserved":false,"is_disabled":false,"rental_uris":{"android":"levelo://app?vid=8720cb3e-2099-4fbc-b5f4-e26ec7b8ca65","ios":"levelo://app?vid=8720cb3e-2099-4fbc-b5f4-e26ec7b8ca65"},"vehicle_type_id":"4","last_reported":1706468654,"current_range_meters":4400,"station_id":"chh1huq6cuj3fo74tm60","pricing_plan_id":"free"},{"bike_id":"ca448a4d-d5f3-4655-9a83-02d05a02e944","system_id":"levelo_inurba_marseille","lat":43.297893,"lon":5.393352,"is_reserved":false,"is_disabled":false,"rental_uris":{"android":"levelo://app?vid=ca448a4d-d5f3-4655-9a83-02d05a02e944","ios":"levelo://app?vid=ca448a4d-d5f3-4655-9a83-02d05a02e944"},"vehicle_type_id":"4","last_reported":1706468654,"current_range_meters":14800,"station_id":"chh1huq6cuj3fo74tm60","pricing_plan_id":"free"},{"bike_id":"4d64b4b1-158d-4a82-9fff-bad52e8040f8","system_id":"levelo_inurba_marseille","lat":43.297972,"lon":5.39348,"is_reserved":false,"is_disabled":false,"rental_uris":{"android":"levelo://app?vid=4d64b4b1-158d-4a82-9fff-bad52e8040f8","ios":"levelo://app?vid=4d64b4b1-158d-4a82-9fff-bad52e8040f8"},"vehicle_type_id":"4","last_reported":1706468654,"current_range_meters":6000,"station_id":"chh1huq6cuj3fo74tm60","pricing_plan_id":"free"},{"bike_id":"b7706dd7-3786-4087-8965-0886b169ac4e","system_id":"levelo_inurba_marseille","lat":43.297815,"lon":5.393548,"is_reserved":false,"is_disabled":false,"rental_uris":{"android":"levelo://app?vid=b7706dd7-3786-4087-8965-0886b169ac4e","ios":"levelo://app?vid=b7706dd7-3786-4087-8965-0886b169ac4e"},"vehicle_type_id":"4","last_reported":1706468654,"current_range_meters":18000,"station_id":"chh1huq6cuj3fo74tm60","pricing_plan_id":"free"},{"bike_id":"2b9ede53-73e1-46be-b0b8-c7474e7c57dd","system_id":"levelo_inurba_marseille","lat":43.295169,"lon":5.390426,"is_reserved":false,"is_disabled":false,"rental_uris":{"android":"levelo://app?vid=2b9ede53-73e1-46be-b0b8-c7474e7c57dd","ios":"levelo://app?vid=2b9ede53-73e1-46be-b0b8-c7474e7c57dd"},"vehicle_type_id":"4","last_reported":1706468654,"current_range_meters":0,"station_id":"ce4bh3p2rcd13ifvqdp0","pricing_plan_id":"free"},{"bike_id":"142efe82-d460-4347-8d25-d2ccd67e7881","system_id":"levelo_inurba_marseille","lat":43.297815,"lon":5.393548,"is_reserved":false,"is_disabled":false,"rental_uris":{"android":"levelo://app?vid=142efe82-d460-4347-8d25-d2ccd67e7881","ios":"levelo://app?vid=142efe82-d460-4347-8d25-d2ccd67e7881"},"vehicle_type_id":"4","last_reported":1706468654,"current_range_meters":6800,"station_id":"chh1huq6cuj3fo74tm60","pricing_plan_id":"free"},{"bike_id":"01d0f14a-f067-4f27-97b5-c906871d77c2","system_id":"levelo_inurba_marseille","lat":43.2901,"lon":5.381269,"is_reserved":false,"is_disabled":false,"rental_uris":{"android":"levelo://app?vid=01d0f14a-f067-4f27-97b5-c906871d77c2","ios":"levelo://app?vid=01d0f14a-f067-4f27-97b5-c906871d77c2"},"vehicle_type_id":"4","last_reported":1706468654,"current_range_meters":25600,"station_id":"ce4bh4p2rcd13ifvqe1g","pricing_plan_id":"free"},{"bike_id":"c2837a28-f9ff-4f57-848a-d9292b73d93d","system_id":"levelo_inurba_marseille","lat":43.28859,"lon":5.35842,"is_reserved":false,"is_disabled":false,"rental_uris":{"android":"levelo://app?vid=c2837a28-f9ff-4f57-848a-d9292b73d93d","ios":"levelo://app?vid=c2837a28-f9ff-4f57-848a-d9292b73d93d"},"vehicle_type_id":"4","last_reported":1706468654,"current_range_meters":0,"station_id":"ce4bhb12rcd13ifvqem0","pricing_plan_id":"free"},{"bike_id":"25e1857c-54a5-45d3-b371-496a7a383a2f","system_id":"levelo_inurba_marseille","lat":43.2901,"lon":5.381269,"is_reserved":false,"is_disabled":false,"rental_uris":{"android":"levelo://app?vid=25e1857c-54a5-45d3-b371-496a7a383a2f","ios":"levelo://app?vid=25e1857c-54a5-45d3-b371-496a7a383a2f"},"vehicle_type_id":"4","last_reported":1706468654,"current_range_meters":26400,"station_id":"ce4bh4p2rcd13ifvqe1g","pricing_plan_id":"free"},{"bike_id":"3356c1f6-3e54-40dd-a072-03e0f0bdbbac","system_id":"levelo_inurba_marseille","lat":43.309371,"lon":5.401449,"is_reserved":false,"is_disabled":false,"rental_uris":{"android":"levelo://app?vid=3356c1f6-3e54-40dd-a072-03e0f0bdbbac","ios":"levelo://app?vid=3356c1f6-3e54-40dd-a072-03e0f0bdbbac"},"vehicle_type_id":"4","last_reported":1706468654,"current_range_meters":21600,"station_id":"ce4bgvp2rcd13ifvqct0","pricing_plan_id":"free"},{"bike_id":"2d6383a4-38b6-4a6d-8415-71e912dd6377","system_id":"levelo_inurba_marseille","lat":43.278399,"lon":5.392139,"is_reserved":false,"is_disabled":false,"rental_uris":{"android":"levelo://app?vid=2d6383a4-38b6-4a6d-8415-71e912dd6377","ios":"levelo://app?vid=2d6383a4-38b6-4a6d-8415-71e912dd6377"},"vehicle_type_id":"4","last_reported":1706468654,"current_range_meters":18400,"station_id":"ce4bhjp2rcd13ifvqga0","pricing_plan_id":"free"},{"bike_id":"b44add22-381f-4738-b3df-83b5d32e6cca","system_id":"levelo_inurba_marseille","lat":43.309371,"lon":5.401449,"is_reserved":false,"is_disabled":false,"rental_uris":{"android":"levelo://app?vid=b44add22-381f-4738-b3df-83b5d32e6cca","ios":"levelo://app?vid=b44add22-381f-4738-b3df-83b5d32e6cca"},"vehicle_type_id":"4","last_reported":1706468654,"current_range_meters":0,"station_id":"ce4bgvp2rcd13ifvqct0","pricing_plan_id":"free"},{"bike_id":"0f2c1b5b-2255-427d-8e1c-a2e4920df7dd","system_id":"levelo_inurba_marseille","lat":43.337465,"lon":5.374432,"is_reserved":false,"is_disabled":false,"rental_uris":{"android":"levelo://app?vid=0f2c1b5b-2255-427d-8e1c-a2e4920df7dd","ios":"levelo://app?vid=0f2c1b5b-2255-427d-8e1c-a2e4920df7dd"},"vehicle_type_id":"4","last_reported":1706468654,"current_range_meters":26000,"station_id":"","pricing_plan_id":"free"},{"bike_id":"93556fdf-dd9d-43a5-9fa8-d0dee7413f9a","system_id":"levelo_inurba_marseille","lat":43.309371,"lon":5.401449,"is_reserved":false,"is_disabled":false,"rental_uris":{"android":"levelo://app?vid=93556fdf-dd9d-43a5-9fa8-d0dee7413f9a","ios":"levelo://app?vid=93556fdf-dd9d-43a5-9fa8-d0dee7413f9a"},"vehicle_type_id":"4","last_reported":1706468654,"current_range_meters":14400,"station_id":"ce4bgvp2rcd13ifvqct0","pricing_plan_id":"free"},{"bike_id":"3ba74374-da4c-49e8-8595-a90431abd1f0","system_id":"levelo_inurba_marseille","lat":43.309371,"lon":5.401449,"is_reserved":false,"is_disabled":false,"rental_uris":{"android":"levelo://app?vid=3ba74374-da4c-49e8-8595-a90431abd1f0","ios":"levelo://app?vid=3ba74374-da4c-49e8-8595-a90431abd1f0"},"vehicle_type_id":"4","last_reported":1706468654,"current_range_meters":7600,"station_id":"ce4bgvp2rcd13ifvqct0","pricing_plan_id":"free"},{"bike_id":"a563cdbf-78b8-441c-8dce-8da1c3325b92","system_id":"levelo_inurba_marseille","lat":43.337515,"lon":5.374552,"is_reserved":false,"is_disabled":false,"rental_uris":{"android":"levelo://app?vid=a563cdbf-78b8-441c-8dce-8da1c3325b92","ios":"levelo://app?vid=a563cdbf-78b8-441c-8dce-8da1c3325b92"},"vehicle_type_id":"4","last_reported":1706468654,"current_range_meters":19200,"station_id":"","pricing_plan_id":"free"},{"bike_id":"b7f12eab-e0a6-499e-87ec-2b4381c4602a","system_id":"levelo_inurba_marseille","lat":43.337533,"lon":5.374564,"is_reserved":false,"is_disabled":false,"rental_uris":{"android":"levelo://app?vid=b7f12eab-e0a6-499e-87ec-2b4381c4602a","ios":"levelo://app?vid=b7f12eab-e0a6-499e-87ec-2b4381c4602a"},"vehicle_type_id":"4","last_reported":1706468654,"current_range_meters":23600,"station_id":"","pricing_plan_id":"free"},{"bike_id":"1facbbf3-baac-42f8-85eb-cb1e36f3e4b9","system_id":"levelo_inurba_marseille","lat":43.337548,"lon":5.374949,"is_reserved":false,"is_disabled":false,"rental_uris":{"android":"levelo://app?vid=1facbbf3-baac-42f8-85eb-cb1e36f3e4b9","ios":"levelo://app?vid=1facbbf3-baac-42f8-85eb-cb1e36f3e4b9"},"vehicle_type_id":"4","last_reported":1706468654,"current_range_meters":13200,"station_id":"","pricing_plan_id":"free"},{"bike_id":"ce5cd671-7274-4c76-9ee7-e22a8ce37c17","system_id":"levelo_inurba_marseille","lat":43.337621,"lon":5.374534,"is_reserved":false,"is_disabled":false,"rental_uris":{"android":"levelo://app?vid=ce5cd671-7274-4c76-9ee7-e22a8ce37c17","ios":"levelo://app?vid=ce5cd671-7274-4c76-9ee7-e22a8ce37c17"},"vehicle_type_id":"4","last_reported":1706468654,"current_range_meters":20000,"station_id":"","pricing_plan_id":"free"},{"bike_id":"2fe24097-b1c2-4583-ba1f-cf8501171a4c","system_id":"levelo_inurba_marseille","lat":43.33758,"lon":5.37489,"is_reserved":false,"is_disabled":false,"rental_uris":{"android":"levelo://app?vid=2fe24097-b1c2-4583-ba1f-cf8501171a4c","ios":"levelo://app?vid=2fe24097-b1c2-4583-ba1f-cf8501171a4c"},"vehicle_type_id":"4","last_reported":1706468654,"current_range_meters":10400,"station_id":"","pricing_plan_id":"free"},{"bike_id":"b7d3b81d-d85a-44b5-a0c7-8f9c9f74639e","system_id":"levelo_inurba_marseille","lat":43.33765,"lon":5.374672,"is_reserved":false,"is_disabled":false,"rental_uris":{"android":"levelo://app?vid=b7d3b81d-d85a-44b5-a0c7-8f9c9f74639e","ios":"levelo://app?vid=b7d3b81d-d85a-44b5-a0c7-8f9c9f74639e"},"vehicle_type_id":"4","last_reported":1706468654,"current_range_meters":26000,"station_id":"","pricing_plan_id":"free"},{"bike_id":"eba6ef58-29d1-4196-9a1a-4f81035ff91b","system_id":"levelo_inurba_marseille","lat":43.306115,"lon":5.40092,"is_reserved":false,"is_disabled":false,"rental_uris":{"android":"levelo://app?vid=eba6ef58-29d1-4196-9a1a-4f81035ff91b","ios":"levelo://app?vid=eba6ef58-29d1-4196-9a1a-4f81035ff91b"},"vehicle_type_id":"4","last_reported":1706468654,"current_range_meters":24400,"station_id":"ce4bh112rcd13ifvqda0","pricing_plan_id":"free"},{"bike_id":"522d42eb-9b29-48d8-bd56-5615cefbb5c8","system_id":"levelo_inurba_marseille","lat":43.304643,"lon":5.40063,"is_reserved":false,"is_disabled":false,"rental_uris":{"android":"levelo://app?vid=522d42eb-9b29-48d8-bd56-5615cefbb5c8","ios":"levelo://app?vid=522d42eb-9b29-48d8-bd56-5615cefbb5c8"},"vehicle_type_id":"4","last_reported":1706468654,"current_range_meters":17600,"station_id":"","pricing_plan_id":"free"},{"bike_id":"7a5e519d-41a6-414b-b6ed-0a86694e3771","system_id":"levelo_inurba_marseille","lat":43.28727,"lon":5.36078,"is_reserved":false,"is_disabled":false,"rental_uris":{"android":"levelo://app?vid=7a5e519d-41a6-414b-b6ed-0a86694e3771","ios":"levelo://app?vid=7a5e519d-41a6-414b-b6ed-0a86694e3771"},"vehicle_type_id":"4","last_reported":1706468654,"current_range_meters":13200,"station_id":"cki0cbj6b192h4jlfktg","pricing_plan_id":"free"},{"bike_id":"152023d1-563c-47fa-9bff-b33abe143efc","system_id":"levelo_inurba_marseille","lat":43.286591,"lon":5.363346,"is_reserved":false,"is_disabled":false,"rental_uris":{"android":"levelo://app?vid=152023d1-563c-47fa-9bff-b33abe143efc","ios":"levelo://app?vid=152023d1-563c-47fa-9bff-b33abe143efc"},"vehicle_type_id":"4","last_reported":1706468654,"current_range_meters":16800,"station_id":"ce4bhah2rcd13ifvqej0","pricing_plan_id":"free"},{"bike_id":"40fa4522-1e63-4109-b1ab-9778342875a3","system_id":"levelo_inurba_marseille","lat":43.298681,"lon":5.397225,"is_reserved":false,"is_disabled":false,"rental_uris":{"android":"levelo://app?vid=40fa4522-1e63-4109-b1ab-9778342875a3","ios":"levelo://app?vid=40fa4522-1e63-4109-b1ab-9778342875a3"},"vehicle_type_id":"4","last_reported":1706468654,"current_range_meters":30400,"station_id":"ce4bh0h2rcd13ifvqd50","pricing_plan_id":"free"},{"bike_id":"b16167e3-1052-43da-9c08-d441a37aa492","system_id":"levelo_inurba_marseille","lat":43.298681,"lon":5.397225,"is_reserved":false,"is_disabled":false,"rental_uris":{"android":"levelo://app?vid=b16167e3-1052-43da-9c08-d441a37aa492","ios":"levelo://app?vid=b16167e3-1052-43da-9c08-d441a37aa492"},"vehicle_type_id":"4","last_reported":1706468654,"current_range_meters":12400,"station_id":"ce4bh0h2rcd13ifvqd50","pricing_plan_id":"free"},{"bike_id":"85e0314b-d799-4d0f-88ee-9aa0b7a6a525","system_id":"levelo_inurba_marseille","lat":43.286961,"lon":5.373785,"is_reserved":false,"is_disabled":false,"rental_uris":{"android":"levelo://app?vid=85e0314b-d799-4d0f-88ee-9aa0b7a6a525","ios":"levelo://app?vid=85e0314b-d799-4d0f-88ee-9aa0b7a6a525"},"vehicle_type_id":"4","last_reported":1706468654,"current_range_meters":400,"station_id":"ce4bh3p2rcd13ifvqdq0","pricing_plan_id":"free"},{"bike_id":"190915c6-f3b8-479a-95a8-10d2dab0268f","system_id":"levelo_inurba_marseille","lat":43.298681,"lon":5.397225,"is_reserved":false,"is_disabled":false,"rental_uris":{"android":"levelo://app?vid=190915c6-f3b8-479a-95a8-10d2dab0268f","ios":"levelo://app?vid=190915c6-f3b8-479a-95a8-10d2dab0268f"},"vehicle_type_id":"4","last_reported":1706468654,"current_range_meters":4000,"station_id":"ce4bh0h2rcd13ifvqd50","pricing_plan_id":"free"},{"bike_id":"2fd6249d-582f-4c1a-80e9-eed91193e373","system_id":"levelo_inurba_marseille","lat":43.298681,"lon":5.397225,"is_reserved":false,"is_disabled":false,"rental_uris":{"android":"levelo://app?vid=2fd6249d-582f-4c1a-80e9-eed91193e373","ios":"levelo://app?vid=2fd6249d-582f-4c1a-80e9-eed91193e373"},"vehicle_type_id":"4","last_reported":1706468654,"current_range_meters":28000,"station_id":"ce4bh0h2rcd13ifvqd50","pricing_plan_id":"free"},{"bike_id":"94c712f0-2471-4cbf-b779-4b1642f80194","system_id":"levelo_inurba_marseille","lat":43.286961,"lon":5.373785,"is_reserved":false,"is_disabled":false,"rental_uris":{"android":"levelo://app?vid=94c712f0-2471-4cbf-b779-4b1642f80194","ios":"levelo://app?vid=94c712f0-2471-4cbf-b779-4b1642f80194"},"vehicle_type_id":"4","last_reported":1706468654,"current_range_meters":12400,"station_id":"ce4bh3p2rcd13ifvqdq0","pricing_plan_id":"free"},{"bike_id":"65bc6446-61e9-4b8e-a60c-8cedc910b0f8","system_id":"levelo_inurba_marseille","lat":43.295196,"lon":5.39397,"is_reserved":false,"is_disabled":false,"rental_uris":{"android":"levelo://app?vid=65bc6446-61e9-4b8e-a60c-8cedc910b0f8","ios":"levelo://app?vid=65bc6446-61e9-4b8e-a60c-8cedc910b0f8"},"vehicle_type_id":"4","last_reported":1706468654,"current_range_meters":0,"station_id":"ce4bh292rcd13ifvqdf0","pricing_plan_id":"free"},{"bike_id":"2824708c-e193-4f9f-86bc-80ef0a43d9ec","system_id":"levelo_inurba_marseille","lat":43.295196,"lon":5.39397,"is_reserved":false,"is_disabled":false,"rental_uris":{"android":"levelo://app?vid=2824708c-e193-4f9f-86bc-80ef0a43d9ec","ios":"levelo://app?vid=2824708c-e193-4f9f-86bc-80ef0a43d9ec"},"vehicle_type_id":"4","last_reported":1706468654,"current_range_meters":0,"station_id":"ce4bh292rcd13ifvqdf0","pricing_plan_id":"free"},{"bike_id":"cdd99e91-a2ed-4173-9de3-0ab5b4192f9c","system_id":"levelo_inurba_marseille","lat":43.29507,"lon":5.39384,"is_reserved":false,"is_disabled":false,"rental_uris":{"android":"levelo://app?vid=cdd99e91-a2ed-4173-9de3-0ab5b4192f9c","ios":"levelo://app?vid=cdd99e91-a2ed-4173-9de3-0ab5b4192f9c"},"vehicle_type_id":"4","last_reported":1706468654,"current_range_meters":400,"station_id":"ce4bh292rcd13ifvqdf0","pricing_plan_id":"free"},{"bike_id":"563138c4-870a-404b-bf9b-ddf4ee001440","system_id":"levelo_inurba_marseille","lat":43.289307,"lon":5.38406,"is_reserved":false,"is_disabled":false,"rental_uris":{"android":"levelo://app?vid=563138c4-870a-404b-bf9b-ddf4ee001440","ios":"levelo://app?vid=563138c4-870a-404b-bf9b-ddf4ee001440"},"vehicle_type_id":"4","last_reported":1706468654,"current_range_meters":6800,"station_id":"ce4bh612rcd13ifvqe6g","pricing_plan_id":"free"},{"bike_id":"cc644acb-1160-442c-b5b0-55a4344a662a","system_id":"levelo_inurba_marseille","lat":43.295196,"lon":5.39397,"is_reserved":false,"is_disabled":false,"rental_uris":{"android":"levelo://app?vid=cc644acb-1160-442c-b5b0-55a4344a662a","ios":"levelo://app?vid=cc644acb-1160-442c-b5b0-55a4344a662a"},"vehicle_type_id":"4","last_reported":1706468654,"current_range_meters":7600,"station_id":"ce4bh292rcd13ifvqdf0","pricing_plan_id":"free"},{"bike_id":"72eb59db-e754-498a-b351-8699447ab814","system_id":"levelo_inurba_marseille","lat":43.289307,"lon":5.38406,"is_reserved":false,"is_disabled":false,"rental_uris":{"android":"levelo://app?vid=72eb59db-e754-498a-b351-8699447ab814","ios":"levelo://app?vid=72eb59db-e754-498a-b351-8699447ab814"},"vehicle_type_id":"4","last_reported":1706468654,"current_range_meters":0,"station_id":"ce4bh612rcd13ifvqe6g","pricing_plan_id":"free"},{"bike_id":"1ead6f12-39a9-44d5-bf44-8e0be8bb24d6","system_id":"levelo_inurba_marseille","lat":43.290345,"lon":5.38646,"is_reserved":false,"is_disabled":false,"rental_uris":{"android":"levelo://app?vid=1ead6f12-39a9-44d5-bf44-8e0be8bb24d6","ios":"levelo://app?vid=1ead6f12-39a9-44d5-bf44-8e0be8bb24d6"},"vehicle_type_id":"4","last_reported":1706468654,"current_range_meters":14400,"station_id":"ce4bh4p2rcd13ifvqe0g","pricing_plan_id":"free"},{"bike_id":"42678f5a-379e-472e-b308-0da6eb6443dd","system_id":"levelo_inurba_marseille","lat":43.290336,"lon":5.386425,"is_reserved":false,"is_disabled":false,"rental_uris":{"android":"levelo://app?vid=42678f5a-379e-472e-b308-0da6eb6443dd","ios":"levelo://app?vid=42678f5a-379e-472e-b308-0da6eb6443dd"},"vehicle_type_id":"4","last_reported":1706468654,"current_range_meters":10800,"station_id":"ce4bh4p2rcd13ifvqe0g","pricing_plan_id":"free"},{"bike_id":"78bbe9bb-6d84-492d-9e8d-288c00e4990e","system_id":"levelo_inurba_marseille","lat":43.290336,"lon":5.386425,"is_reserved":false,"is_disabled":false,"rental_uris":{"android":"levelo://app?vid=78bbe9bb-6d84-492d-9e8d-288c00e4990e","ios":"levelo://app?vid=78bbe9bb-6d84-492d-9e8d-288c00e4990e"},"vehicle_type_id":"4","last_reported":1706468654,"current_range_meters":16400,"station_id":"ce4bh4p2rcd13ifvqe0g","pricing_plan_id":"free"},{"bike_id":"796e3645-072b-4128-a2e8-c0bc9f787332","system_id":"levelo_inurba_marseille","lat":43.289307,"lon":5.38406,"is_reserved":false,"is_disabled":false,"rental_uris":{"android":"levelo://app?vid=796e3645-072b-4128-a2e8-c0bc9f787332","ios":"levelo://app?vid=796e3645-072b-4128-a2e8-c0bc9f787332"},"vehicle_type_id":"4","last_reported":1706468654,"current_range_meters":5200,"station_id":"ce4bh612rcd13ifvqe6g","pricing_plan_id":"free"},{"bike_id":"ce168945-edaa-4e78-9084-bfcb24fe8d86","system_id":"levelo_inurba_marseille","lat":43.289307,"lon":5.38406,"is_reserved":false,"is_disabled":false,"rental_uris":{"android":"levelo://app?vid=ce168945-edaa-4e78-9084-bfcb24fe8d86","ios":"levelo://app?vid=ce168945-edaa-4e78-9084-bfcb24fe8d86"},"vehicle_type_id":"4","last_reported":1706468654,"current_range_meters":13200,"station_id":"ce4bh612rcd13ifvqe6g","pricing_plan_id":"free"},{"bike_id":"a63f7f36-aecb-4167-8e7f-47b580f58475","system_id":"levelo_inurba_marseille","lat":43.289307,"lon":5.38406,"is_reserved":false,"is_disabled":false,"rental_uris":{"android":"levelo://app?vid=a63f7f36-aecb-4167-8e7f-47b580f58475","ios":"levelo://app?vid=a63f7f36-aecb-4167-8e7f-47b580f58475"},"vehicle_type_id":"4","last_reported":1706468654,"current_range_meters":19600,"station_id":"ce4bh612rcd13ifvqe6g","pricing_plan_id":"free"},{"bike_id":"11d28009-b60b-43bf-a1da-d2e8fd5739e5","system_id":"levelo_inurba_marseille","lat":43.289307,"lon":5.38406,"is_reserved":false,"is_disabled":false,"rental_uris":{"android":"levelo://app?vid=11d28009-b60b-43bf-a1da-d2e8fd5739e5","ios":"levelo://app?vid=11d28009-b60b-43bf-a1da-d2e8fd5739e5"},"vehicle_type_id":"4","last_reported":1706468654,"current_range_meters":16000,"station_id":"ce4bh612rcd13ifvqe6g","pricing_plan_id":"free"},{"bike_id":"183bb1c1-398f-466c-b05d-327ac4efc436","system_id":"levelo_inurba_marseille","lat":43.302511,"lon":5.400653,"is_reserved":false,"is_disabled":false,"rental_uris":{"android":"levelo://app?vid=183bb1c1-398f-466c-b05d-327ac4efc436","ios":"levelo://app?vid=183bb1c1-398f-466c-b05d-327ac4efc436"},"vehicle_type_id":"4","last_reported":1706468654,"current_range_meters":10000,"station_id":"ce4bgth2rcd13ifvqch0","pricing_plan_id":"free"},{"bike_id":"e56606d7-be12-402c-b2b6-fd837354b6ad","system_id":"levelo_inurba_marseille","lat":43.290336,"lon":5.386425,"is_reserved":false,"is_disabled":false,"rental_uris":{"android":"levelo://app?vid=e56606d7-be12-402c-b2b6-fd837354b6ad","ios":"levelo://app?vid=e56606d7-be12-402c-b2b6-fd837354b6ad"},"vehicle_type_id":"4","last_reported":1706468654,"current_range_meters":0,"station_id":"ce4bh4p2rcd13ifvqe0g","pricing_plan_id":"free"},{"bike_id":"47b2c785-5914-4596-9f3a-9c1c8ee90766","system_id":"levelo_inurba_marseille","lat":43.290336,"lon":5.386425,"is_reserved":false,"is_disabled":false,"rental_uris":{"android":"levelo://app?vid=47b2c785-5914-4596-9f3a-9c1c8ee90766","ios":"levelo://app?vid=47b2c785-5914-4596-9f3a-9c1c8ee90766"},"vehicle_type_id":"4","last_reported":1706468654,"current_range_meters":0,"station_id":"ce4bh4p2rcd13ifvqe0g","pricing_plan_id":"free"},{"bike_id":"f35acf26-0068-4375-969f-0b27048f9dee","system_id":"levelo_inurba_marseille","lat":43.290336,"lon":5.386425,"is_reserved":false,"is_disabled":false,"rental_uris":{"android":"levelo://app?vid=f35acf26-0068-4375-969f-0b27048f9dee","ios":"levelo://app?vid=f35acf26-0068-4375-969f-0b27048f9dee"},"vehicle_type_id":"4","last_reported":1706468654,"current_range_meters":16400,"station_id":"ce4bh4p2rcd13ifvqe0g","pricing_plan_id":"free"},{"bike_id":"027e165a-032f-452d-9a0b-b25e466ce5fc","system_id":"levelo_inurba_marseille","lat":43.290345,"lon":5.38646,"is_reserved":false,"is_disabled":false,"rental_uris":{"android":"levelo://app?vid=027e165a-032f-452d-9a0b-b25e466ce5fc","ios":"levelo://app?vid=027e165a-032f-452d-9a0b-b25e466ce5fc"},"vehicle_type_id":"4","last_reported":1706468654,"current_range_meters":5200,"station_id":"ce4bh4p2rcd13ifvqe0g","pricing_plan_id":"free"},{"bike_id":"ab8c78d8-9395-4afe-b308-2e591173c381","system_id":"levelo_inurba_marseille","lat":43.286039,"lon":5.370679,"is_reserved":false,"is_disabled":false,"rental_uris":{"android":"levelo://app?vid=ab8c78d8-9395-4afe-b308-2e591173c381","ios":"levelo://app?vid=ab8c78d8-9395-4afe-b308-2e591173c381"},"vehicle_type_id":"4","last_reported":1706468654,"current_range_meters":11600,"station_id":"ce4bht12rcd13ifvqi60","pricing_plan_id":"free"},{"bike_id":"0383f166-c5b5-44ea-a7e0-7105b630dfc6","system_id":"levelo_inurba_marseille","lat":43.291994,"lon":5.392907,"is_reserved":false,"is_disabled":false,"rental_uris":{"android":"levelo://app?vid=0383f166-c5b5-44ea-a7e0-7105b630dfc6","ios":"levelo://app?vid=0383f166-c5b5-44ea-a7e0-7105b630dfc6"},"vehicle_type_id":"4","last_reported":1706468654,"current_range_meters":19200,"station_id":"ce4bh192rcd13ifvqdd0","pricing_plan_id":"free"},{"bike_id":"53c58791-33f7-488f-80f3-a271ec3250b0","system_id":"levelo_inurba_marseille","lat":43.291994,"lon":5.392907,"is_reserved":false,"is_disabled":false,"rental_uris":{"android":"levelo://app?vid=53c58791-33f7-488f-80f3-a271ec3250b0","ios":"levelo://app?vid=53c58791-33f7-488f-80f3-a271ec3250b0"},"vehicle_type_id":"4","last_reported":1706468654,"current_range_meters":25200,"station_id":"ce4bh192rcd13ifvqdd0","pricing_plan_id":"free"},{"bike_id":"33226beb-0913-4a8d-92d7-dbf952bd2dac","system_id":"levelo_inurba_marseille","lat":43.284538,"lon":5.358657,"is_reserved":false,"is_disabled":false,"rental_uris":{"android":"levelo://app?vid=33226beb-0913-4a8d-92d7-dbf952bd2dac","ios":"levelo://app?vid=33226beb-0913-4a8d-92d7-dbf952bd2dac"},"vehicle_type_id":"4","last_reported":1706468654,"current_range_meters":3200,"station_id":"ce4bhah2rcd13ifvqei0","pricing_plan_id":"free"},{"bike_id":"99c7d7db-b6d3-43b9-8594-07199db0774f","system_id":"levelo_inurba_marseille","lat":43.284534,"lon":5.358662,"is_reserved":false,"is_disabled":false,"rental_uris":{"android":"levelo://app?vid=99c7d7db-b6d3-43b9-8594-07199db0774f","ios":"levelo://app?vid=99c7d7db-b6d3-43b9-8594-07199db0774f"},"vehicle_type_id":"4","last_reported":1706468654,"current_range_meters":13200,"station_id":"ce4bhah2rcd13ifvqei0","pricing_plan_id":"free"},{"bike_id":"b8443c1f-def6-4a63-8779-32f403003481","system_id":"levelo_inurba_marseille","lat":43.295713,"lon":5.399639,"is_reserved":false,"is_disabled":false,"rental_uris":{"android":"levelo://app?vid=b8443c1f-def6-4a63-8779-32f403003481","ios":"levelo://app?vid=b8443c1f-def6-4a63-8779-32f403003481"},"vehicle_type_id":"4","last_reported":1706468654,"current_range_meters":10000,"station_id":"ce4bh312rcd13ifvqdj0","pricing_plan_id":"free"},{"bike_id":"f17024b9-d4d3-4663-9f7c-d87f35531402","system_id":"levelo_inurba_marseille","lat":43.295713,"lon":5.399639,"is_reserved":false,"is_disabled":false,"rental_uris":{"android":"levelo://app?vid=f17024b9-d4d3-4663-9f7c-d87f35531402","ios":"levelo://app?vid=f17024b9-d4d3-4663-9f7c-d87f35531402"},"vehicle_type_id":"4","last_reported":1706468654,"current_range_meters":28400,"station_id":"ce4bh312rcd13ifvqdj0","pricing_plan_id":"free"},{"bike_id":"5dfd4493-cfb8-4129-8628-9955aa7c8e72","system_id":"levelo_inurba_marseille","lat":43.283998,"lon":5.375062,"is_reserved":false,"is_disabled":false,"rental_uris":{"android":"levelo://app?vid=5dfd4493-cfb8-4129-8628-9955aa7c8e72","ios":"levelo://app?vid=5dfd4493-cfb8-4129-8628-9955aa7c8e72"},"vehicle_type_id":"4","last_reported":1706468654,"current_range_meters":16000,"station_id":"ce4bh412rcd13ifvqds0","pricing_plan_id":"free"},{"bike_id":"6493c0c8-a154-4aa1-b5e5-3e78be95af6f","system_id":"levelo_inurba_marseille","lat":43.28404,"lon":5.37526,"is_reserved":false,"is_disabled":false,"rental_uris":{"android":"levelo://app?vid=6493c0c8-a154-4aa1-b5e5-3e78be95af6f","ios":"levelo://app?vid=6493c0c8-a154-4aa1-b5e5-3e78be95af6f"},"vehicle_type_id":"4","last_reported":1706468654,"current_range_meters":0,"station_id":"ce4bh412rcd13ifvqds0","pricing_plan_id":"free"},{"bike_id":"aa685f7d-224a-426e-9d15-27133e02e39e","system_id":"levelo_inurba_marseille","lat":43.295713,"lon":5.399639,"is_reserved":false,"is_disabled":false,"rental_uris":{"android":"levelo://app?vid=aa685f7d-224a-426e-9d15-27133e02e39e","ios":"levelo://app?vid=aa685f7d-224a-426e-9d15-27133e02e39e"},"vehicle_type_id":"4","last_reported":1706468654,"current_range_meters":20400,"station_id":"ce4bh312rcd13ifvqdj0","pricing_plan_id":"free"},{"bike_id":"add788c3-7705-4383-a15b-58a05905e1e5","system_id":"levelo_inurba_marseille","lat":43.286595,"lon":5.386795,"is_reserved":false,"is_disabled":false,"rental_uris":{"android":"levelo://app?vid=add788c3-7705-4383-a15b-58a05905e1e5","ios":"levelo://app?vid=add788c3-7705-4383-a15b-58a05905e1e5"},"vehicle_type_id":"4","last_reported":1706468654,"current_range_meters":24000,"station_id":"ce4bh492rcd13ifvqdug","pricing_plan_id":"free"},{"bike_id":"a6e949ec-b37c-40d1-a5e8-778446982eae","system_id":"levelo_inurba_marseille","lat":43.286595,"lon":5.386795,"is_reserved":false,"is_disabled":false,"rental_uris":{"android":"levelo://app?vid=a6e949ec-b37c-40d1-a5e8-778446982eae","ios":"levelo://app?vid=a6e949ec-b37c-40d1-a5e8-778446982eae"},"vehicle_type_id":"4","last_reported":1706468654,"current_range_meters":28800,"station_id":"ce4bh492rcd13ifvqdug","pricing_plan_id":"free"},{"bike_id":"50b1af7f-697c-456a-b2c0-aaf507c51a13","system_id":"levelo_inurba_marseille","lat":43.33717,"lon":5.391857,"is_reserved":false,"is_disabled":false,"rental_uris":{"android":"levelo://app?vid=50b1af7f-697c-456a-b2c0-aaf507c51a13","ios":"levelo://app?vid=50b1af7f-697c-456a-b2c0-aaf507c51a13"},"vehicle_type_id":"4","last_reported":1706468654,"current_range_meters":28000,"station_id":"ce4bhr92rcd13ifvqhsg","pricing_plan_id":"free"},{"bike_id":"966dc777-e017-4bae-b924-de46490d2c46","system_id":"levelo_inurba_marseille","lat":43.337168,"lon":5.391825,"is_reserved":false,"is_disabled":false,"rental_uris":{"android":"levelo://app?vid=966dc777-e017-4bae-b924-de46490d2c46","ios":"levelo://app?vid=966dc777-e017-4bae-b924-de46490d2c46"},"vehicle_type_id":"4","last_reported":1706468654,"current_range_meters":18000,"station_id":"ce4bhr92rcd13ifvqhsg","pricing_plan_id":"free"},{"bike_id":"95ca0eff-695f-404d-aedb-846c91f4f884","system_id":"levelo_inurba_marseille","lat":43.323464,"lon":5.406297,"is_reserved":false,"is_disabled":false,"rental_uris":{"android":"levelo://app?vid=95ca0eff-695f-404d-aedb-846c91f4f884","ios":"levelo://app?vid=95ca0eff-695f-404d-aedb-846c91f4f884"},"vehicle_type_id":"4","last_reported":1706468654,"current_range_meters":4800,"station_id":"ce4bhq92rcd13ifvqhjg","pricing_plan_id":"free"},{"bike_id":"84a7c586-531c-4501-aa08-fa5e17f3ad8e","system_id":"levelo_inurba_marseille","lat":43.284808,"lon":5.384338,"is_reserved":false,"is_disabled":false,"rental_uris":{"android":"levelo://app?vid=84a7c586-531c-4501-aa08-fa5e17f3ad8e","ios":"levelo://app?vid=84a7c586-531c-4501-aa08-fa5e17f3ad8e"},"vehicle_type_id":"4","last_reported":1706468654,"current_range_meters":0,"station_id":"ce4bh512rcd13ifvqe3g","pricing_plan_id":"free"},{"bike_id":"c333ed6a-2ed1-470f-93ea-cc48f134e45e","system_id":"levelo_inurba_marseille","lat":43.297946,"lon":5.404063,"is_reserved":false,"is_disabled":false,"rental_uris":{"android":"levelo://app?vid=c333ed6a-2ed1-470f-93ea-cc48f134e45e","ios":"levelo://app?vid=c333ed6a-2ed1-470f-93ea-cc48f134e45e"},"vehicle_type_id":"4","last_reported":1706468654,"current_range_meters":16400,"station_id":"ce4bh112rcd13ifvqd90","pricing_plan_id":"free"},{"bike_id":"7524291a-e968-4206-a6dd-bce9b000716a","system_id":"levelo_inurba_marseille","lat":43.288497,"lon":5.393089,"is_reserved":false,"is_disabled":false,"rental_uris":{"android":"levelo://app?vid=7524291a-e968-4206-a6dd-bce9b000716a","ios":"levelo://app?vid=7524291a-e968-4206-a6dd-bce9b000716a"},"vehicle_type_id":"4","last_reported":1706468654,"current_range_meters":10400,"station_id":"ce4bh2p2rcd13ifvqdi0","pricing_plan_id":"free"},{"bike_id":"80298316-9ccd-4755-b431-b696a6cd1a37","system_id":"levelo_inurba_marseille","lat":43.288497,"lon":5.393089,"is_reserved":false,"is_disabled":false,"rental_uris":{"android":"levelo://app?vid=80298316-9ccd-4755-b431-b696a6cd1a37","ios":"levelo://app?vid=80298316-9ccd-4755-b431-b696a6cd1a37"},"vehicle_type_id":"4","last_reported":1706468654,"current_range_meters":0,"station_id":"ce4bh2p2rcd13ifvqdi0","pricing_plan_id":"free"},{"bike_id":"58648a84-6c6e-4122-b458-cdb8d6519ea0","system_id":"levelo_inurba_marseille","lat":43.283498,"lon":5.380948,"is_reserved":false,"is_disabled":false,"rental_uris":{"android":"levelo://app?vid=58648a84-6c6e-4122-b458-cdb8d6519ea0","ios":"levelo://app?vid=58648a84-6c6e-4122-b458-cdb8d6519ea0"},"vehicle_type_id":"4","last_reported":1706468654,"current_range_meters":15600,"station_id":"ce4bh412rcd13ifvqdr0","pricing_plan_id":"free"},{"bike_id":"fe2441ab-f643-4cb2-8df4-194284f22cf4","system_id":"levelo_inurba_marseille","lat":43.283494,"lon":5.380945,"is_reserved":false,"is_disabled":false,"rental_uris":{"android":"levelo://app?vid=fe2441ab-f643-4cb2-8df4-194284f22cf4","ios":"levelo://app?vid=fe2441ab-f643-4cb2-8df4-194284f22cf4"},"vehicle_type_id":"4","last_reported":1706468654,"current_range_meters":14000,"station_id":"ce4bh412rcd13ifvqdr0","pricing_plan_id":"free"},{"bike_id":"025768fc-953e-4e1f-bc47-2e76895221ff","system_id":"levelo_inurba_marseille","lat":43.283494,"lon":5.380945,"is_reserved":false,"is_disabled":false,"rental_uris":{"android":"levelo://app?vid=025768fc-953e-4e1f-bc47-2e76895221ff","ios":"levelo://app?vid=025768fc-953e-4e1f-bc47-2e76895221ff"},"vehicle_type_id":"4","last_reported":1706468654,"current_range_meters":15600,"station_id":"ce4bh412rcd13ifvqdr0","pricing_plan_id":"free"},{"bike_id":"600e29a0-6030-4eea-994f-9a6e97e67d80","system_id":"levelo_inurba_marseille","lat":43.283494,"lon":5.380945,"is_reserved":false,"is_disabled":false,"rental_uris":{"android":"levelo://app?vid=600e29a0-6030-4eea-994f-9a6e97e67d80","ios":"levelo://app?vid=600e29a0-6030-4eea-994f-9a6e97e67d80"},"vehicle_type_id":"4","last_reported":1706468654,"current_range_meters":28400,"station_id":"ce4bh412rcd13ifvqdr0","pricing_plan_id":"free"},{"bike_id":"d020c4c0-5a74-48cf-8002-4648c21e4b40","system_id":"levelo_inurba_marseille","lat":43.283498,"lon":5.380948,"is_reserved":false,"is_disabled":false,"rental_uris":{"android":"levelo://app?vid=d020c4c0-5a74-48cf-8002-4648c21e4b40","ios":"levelo://app?vid=d020c4c0-5a74-48cf-8002-4648c21e4b40"},"vehicle_type_id":"4","last_reported":1706468654,"current_range_meters":400,"station_id":"ce4bh412rcd13ifvqdr0","pricing_plan_id":"free"},{"bike_id":"24d96dcf-d1eb-4995-8bfa-13d71ac46fe7","system_id":"levelo_inurba_marseille","lat":43.283494,"lon":5.380945,"is_reserved":false,"is_disabled":false,"rental_uris":{"android":"levelo://app?vid=24d96dcf-d1eb-4995-8bfa-13d71ac46fe7","ios":"levelo://app?vid=24d96dcf-d1eb-4995-8bfa-13d71ac46fe7"},"vehicle_type_id":"4","last_reported":1706468654,"current_range_meters":19600,"station_id":"ce4bh412rcd13ifvqdr0","pricing_plan_id":"free"},{"bike_id":"dd540470-f10e-4e9c-a894-79867499339f","system_id":"levelo_inurba_marseille","lat":43.283498,"lon":5.380948,"is_reserved":false,"is_disabled":false,"rental_uris":{"android":"levelo://app?vid=dd540470-f10e-4e9c-a894-79867499339f","ios":"levelo://app?vid=dd540470-f10e-4e9c-a894-79867499339f"},"vehicle_type_id":"4","last_reported":1706468654,"current_range_meters":10800,"station_id":"ce4bh412rcd13ifvqdr0","pricing_plan_id":"free"},{"bike_id":"b41bcd76-cb12-4b33-95cd-9444d1e23578","system_id":"levelo_inurba_marseille","lat":43.293556,"lon":5.401561,"is_reserved":false,"is_disabled":false,"rental_uris":{"android":"levelo://app?vid=b41bcd76-cb12-4b33-95cd-9444d1e23578","ios":"levelo://app?vid=b41bcd76-cb12-4b33-95cd-9444d1e23578"},"vehicle_type_id":"4","last_reported":1706468654,"current_range_meters":5200,"station_id":"","pricing_plan_id":"free"},{"bike_id":"6d191f29-0d73-4ff1-8c43-c6f61b09ce5e","system_id":"levelo_inurba_marseille","lat":43.33717,"lon":5.391857,"is_reserved":false,"is_disabled":false,"rental_uris":{"android":"levelo://app?vid=6d191f29-0d73-4ff1-8c43-c6f61b09ce5e","ios":"levelo://app?vid=6d191f29-0d73-4ff1-8c43-c6f61b09ce5e"},"vehicle_type_id":"4","last_reported":1706468654,"current_range_meters":24800,"station_id":"ce4bhr92rcd13ifvqhsg","pricing_plan_id":"free"},{"bike_id":"ebc081b3-d9eb-43e8-9994-accb1a1dd961","system_id":"levelo_inurba_marseille","lat":43.282829,"lon":5.350468,"is_reserved":false,"is_disabled":false,"rental_uris":{"android":"levelo://app?vid=ebc081b3-d9eb-43e8-9994-accb1a1dd961","ios":"levelo://app?vid=ebc081b3-d9eb-43e8-9994-accb1a1dd961"},"vehicle_type_id":"4","last_reported":1706468654,"current_range_meters":16800,"station_id":"ce4bhbp2rcd13ifvqerg","pricing_plan_id":"free"},{"bike_id":"1d9527a3-cc86-4c80-96b1-4af10b02681c","system_id":"levelo_inurba_marseille","lat":43.283502,"lon":5.386471,"is_reserved":false,"is_disabled":false,"rental_uris":{"android":"levelo://app?vid=1d9527a3-cc86-4c80-96b1-4af10b02681c","ios":"levelo://app?vid=1d9527a3-cc86-4c80-96b1-4af10b02681c"},"vehicle_type_id":"4","last_reported":1706468654,"current_range_meters":16800,"station_id":"ce4bh492rcd13ifvqdvg","pricing_plan_id":"free"},{"bike_id":"80538278-5912-4b63-96f4-8985f839e7c0","system_id":"levelo_inurba_marseille","lat":43.283502,"lon":5.386471,"is_reserved":false,"is_disabled":false,"rental_uris":{"android":"levelo://app?vid=80538278-5912-4b63-96f4-8985f839e7c0","ios":"levelo://app?vid=80538278-5912-4b63-96f4-8985f839e7c0"},"vehicle_type_id":"4","last_reported":1706468654,"current_range_meters":19200,"station_id":"ce4bh492rcd13ifvqdvg","pricing_plan_id":"free"},{"bike_id":"bce4ccd0-2acb-4b36-9d0f-f5990ff02977","system_id":"levelo_inurba_marseille","lat":43.282754,"lon":5.350519,"is_reserved":false,"is_disabled":false,"rental_uris":{"android":"levelo://app?vid=bce4ccd0-2acb-4b36-9d0f-f5990ff02977","ios":"levelo://app?vid=bce4ccd0-2acb-4b36-9d0f-f5990ff02977"},"vehicle_type_id":"4","last_reported":1706468654,"current_range_meters":3600,"station_id":"ce4bhbp2rcd13ifvqerg","pricing_plan_id":"free"},{"bike_id":"aef0d83c-4eb8-47ae-8a1b-3e06cb4b4e93","system_id":"levelo_inurba_marseille","lat":43.282744,"lon":5.350533,"is_reserved":false,"is_disabled":false,"rental_uris":{"android":"levelo://app?vid=aef0d83c-4eb8-47ae-8a1b-3e06cb4b4e93","ios":"levelo://app?vid=aef0d83c-4eb8-47ae-8a1b-3e06cb4b4e93"},"vehicle_type_id":"4","last_reported":1706468654,"current_range_meters":1600,"station_id":"ce4bhbp2rcd13ifvqerg","pricing_plan_id":"free"},{"bike_id":"2d863ebb-b666-44e7-9155-d60af5b5d4c7","system_id":"levelo_inurba_marseille","lat":43.280382,"lon":5.369291,"is_reserved":false,"is_disabled":false,"rental_uris":{"android":"levelo://app?vid=2d863ebb-b666-44e7-9155-d60af5b5d4c7","ios":"levelo://app?vid=2d863ebb-b666-44e7-9155-d60af5b5d4c7"},"vehicle_type_id":"4","last_reported":1706468654,"current_range_meters":2800,"station_id":"ce4bha12rcd13ifvqef0","pricing_plan_id":"free"},{"bike_id":"7932cd82-9120-4974-baf5-993e459c706b","system_id":"levelo_inurba_marseille","lat":43.280382,"lon":5.369291,"is_reserved":false,"is_disabled":false,"rental_uris":{"android":"levelo://app?vid=7932cd82-9120-4974-baf5-993e459c706b","ios":"levelo://app?vid=7932cd82-9120-4974-baf5-993e459c706b"},"vehicle_type_id":"4","last_reported":1706468654,"current_range_meters":4800,"station_id":"ce4bha12rcd13ifvqef0","pricing_plan_id":"free"},{"bike_id":"a7963451-5119-43fa-bc11-3be522aa835c","system_id":"levelo_inurba_marseille","lat":43.28039,"lon":5.36942,"is_reserved":false,"is_disabled":false,"rental_uris":{"android":"levelo://app?vid=a7963451-5119-43fa-bc11-3be522aa835c","ios":"levelo://app?vid=a7963451-5119-43fa-bc11-3be522aa835c"},"vehicle_type_id":"4","last_reported":1706468654,"current_range_meters":0,"station_id":"ce4bha12rcd13ifvqef0","pricing_plan_id":"free"},{"bike_id":"bf9ed574-e30d-4a10-8da6-63d6e69cd454","system_id":"levelo_inurba_marseille","lat":43.28039,"lon":5.369297,"is_reserved":false,"is_disabled":false,"rental_uris":{"android":"levelo://app?vid=bf9ed574-e30d-4a10-8da6-63d6e69cd454","ios":"levelo://app?vid=bf9ed574-e30d-4a10-8da6-63d6e69cd454"},"vehicle_type_id":"4","last_reported":1706468654,"current_range_meters":14000,"station_id":"ce4bha12rcd13ifvqef0","pricing_plan_id":"free"},{"bike_id":"3deb0238-d67a-4e2a-9fc0-e02c13638bb3","system_id":"levelo_inurba_marseille","lat":43.281044,"lon":5.378308,"is_reserved":false,"is_disabled":false,"rental_uris":{"android":"levelo://app?vid=3deb0238-d67a-4e2a-9fc0-e02c13638bb3","ios":"levelo://app?vid=3deb0238-d67a-4e2a-9fc0-e02c13638bb3"},"vehicle_type_id":"4","last_reported":1706468654,"current_range_meters":13600,"station_id":"ce4bha12rcd13ifvqee0","pricing_plan_id":"free"},{"bike_id":"15e1bd66-ab98-423e-9c25-75b4378a8677","system_id":"levelo_inurba_marseille","lat":43.281044,"lon":5.378308,"is_reserved":false,"is_disabled":false,"rental_uris":{"android":"levelo://app?vid=15e1bd66-ab98-423e-9c25-75b4378a8677","ios":"levelo://app?vid=15e1bd66-ab98-423e-9c25-75b4378a8677"},"vehicle_type_id":"4","last_reported":1706468654,"current_range_meters":20800,"station_id":"ce4bha12rcd13ifvqee0","pricing_plan_id":"free"},{"bike_id":"ab3db00c-e8f9-47b9-a334-9ae608f7ecb5","system_id":"levelo_inurba_marseille","lat":43.284462,"lon":5.392121,"is_reserved":false,"is_disabled":false,"rental_uris":{"android":"levelo://app?vid=ab3db00c-e8f9-47b9-a334-9ae608f7ecb5","ios":"levelo://app?vid=ab3db00c-e8f9-47b9-a334-9ae608f7ecb5"},"vehicle_type_id":"4","last_reported":1706468654,"current_range_meters":22000,"station_id":"ce4bhoh2rcd13ifvqh5g","pricing_plan_id":"free"},{"bike_id":"65df8fd9-bcee-48f9-ba84-ab0f05e318d2","system_id":"levelo_inurba_marseille","lat":43.28438,"lon":5.392,"is_reserved":false,"is_disabled":false,"rental_uris":{"android":"levelo://app?vid=65df8fd9-bcee-48f9-ba84-ab0f05e318d2","ios":"levelo://app?vid=65df8fd9-bcee-48f9-ba84-ab0f05e318d2"},"vehicle_type_id":"4","last_reported":1706468654,"current_range_meters":4400,"station_id":"ce4bhoh2rcd13ifvqh5g","pricing_plan_id":"free"},{"bike_id":"80966bfb-0318-4e4b-899c-2c9acb98d16b","system_id":"levelo_inurba_marseille","lat":43.28573,"lon":5.394992,"is_reserved":false,"is_disabled":false,"rental_uris":{"android":"levelo://app?vid=80966bfb-0318-4e4b-899c-2c9acb98d16b","ios":"levelo://app?vid=80966bfb-0318-4e4b-899c-2c9acb98d16b"},"vehicle_type_id":"4","last_reported":1706468654,"current_range_meters":20000,"station_id":"ce4bh292rcd13ifvqdg0","pricing_plan_id":"free"},{"bike_id":"ce359fb6-e3d5-45fc-9e26-757bf9375f27","system_id":"levelo_inurba_marseille","lat":43.326605,"lon":5.409903,"is_reserved":false,"is_disabled":false,"rental_uris":{"android":"levelo://app?vid=ce359fb6-e3d5-45fc-9e26-757bf9375f27","ios":"levelo://app?vid=ce359fb6-e3d5-45fc-9e26-757bf9375f27"},"vehicle_type_id":"4","last_reported":1706468654,"current_range_meters":18800,"station_id":"ce4bhpp2rcd13ifvqhgg","pricing_plan_id":"free"},{"bike_id":"490774a6-4917-468e-ac2f-aabcb381f604","system_id":"levelo_inurba_marseille","lat":43.326605,"lon":5.409903,"is_reserved":false,"is_disabled":false,"rental_uris":{"android":"levelo://app?vid=490774a6-4917-468e-ac2f-aabcb381f604","ios":"levelo://app?vid=490774a6-4917-468e-ac2f-aabcb381f604"},"vehicle_type_id":"4","last_reported":1706468654,"current_range_meters":26000,"station_id":"ce4bhpp2rcd13ifvqhgg","pricing_plan_id":"free"},{"bike_id":"1ef7e5cd-4a9d-40ba-94a2-53d89c749181","system_id":"levelo_inurba_marseille","lat":43.326605,"lon":5.409903,"is_reserved":false,"is_disabled":false,"rental_uris":{"android":"levelo://app?vid=1ef7e5cd-4a9d-40ba-94a2-53d89c749181","ios":"levelo://app?vid=1ef7e5cd-4a9d-40ba-94a2-53d89c749181"},"vehicle_type_id":"4","last_reported":1706468654,"current_range_meters":10000,"station_id":"ce4bhpp2rcd13ifvqhgg","pricing_plan_id":"free"},{"bike_id":"0f971977-9655-49b4-8fff-90052b735471","system_id":"levelo_inurba_marseille","lat":43.279087,"lon":5.380114,"is_reserved":false,"is_disabled":false,"rental_uris":{"android":"levelo://app?vid=0f971977-9655-49b4-8fff-90052b735471","ios":"levelo://app?vid=0f971977-9655-49b4-8fff-90052b735471"},"vehicle_type_id":"4","last_reported":1706468654,"current_range_meters":2400,"station_id":"ce4bhf92rcd13ifvqf50","pricing_plan_id":"free"},{"bike_id":"7604bed5-4bb4-430a-8585-8a987d14ddaa","system_id":"levelo_inurba_marseille","lat":43.287154,"lon":5.399979,"is_reserved":false,"is_disabled":false,"rental_uris":{"android":"levelo://app?vid=7604bed5-4bb4-430a-8585-8a987d14ddaa","ios":"levelo://app?vid=7604bed5-4bb4-430a-8585-8a987d14ddaa"},"vehicle_type_id":"4","last_reported":1706468654,"current_range_meters":0,"station_id":"ce4bho92rcd13ifvqh3g","pricing_plan_id":"free"},{"bike_id":"2bbca12c-839b-487e-b533-95adc964084d","system_id":"levelo_inurba_marseille","lat":43.287154,"lon":5.399979,"is_reserved":false,"is_disabled":false,"rental_uris":{"android":"levelo://app?vid=2bbca12c-839b-487e-b533-95adc964084d","ios":"levelo://app?vid=2bbca12c-839b-487e-b533-95adc964084d"},"vehicle_type_id":"4","last_reported":1706468654,"current_range_meters":12800,"station_id":"ce4bho92rcd13ifvqh3g","pricing_plan_id":"free"},{"bike_id":"eb809ae9-1075-4491-89d7-4a322452d357","system_id":"levelo_inurba_marseille","lat":43.287154,"lon":5.399979,"is_reserved":false,"is_disabled":false,"rental_uris":{"android":"levelo://app?vid=eb809ae9-1075-4491-89d7-4a322452d357","ios":"levelo://app?vid=eb809ae9-1075-4491-89d7-4a322452d357"},"vehicle_type_id":"4","last_reported":1706468654,"current_range_meters":2400,"station_id":"ce4bho92rcd13ifvqh3g","pricing_plan_id":"free"},{"bike_id":"64534a2c-0f22-4e70-b923-40521c0ac60f","system_id":"levelo_inurba_marseille","lat":43.287154,"lon":5.399979,"is_reserved":false,"is_disabled":false,"rental_uris":{"android":"levelo://app?vid=64534a2c-0f22-4e70-b923-40521c0ac60f","ios":"levelo://app?vid=64534a2c-0f22-4e70-b923-40521c0ac60f"},"vehicle_type_id":"4","last_reported":1706468654,"current_range_meters":17600,"station_id":"ce4bho92rcd13ifvqh3g","pricing_plan_id":"free"},{"bike_id":"196a8853-4155-4067-ab42-7de24604222c","system_id":"levelo_inurba_marseille","lat":43.286744,"lon":5.399946,"is_reserved":false,"is_disabled":false,"rental_uris":{"android":"levelo://app?vid=196a8853-4155-4067-ab42-7de24604222c","ios":"levelo://app?vid=196a8853-4155-4067-ab42-7de24604222c"},"vehicle_type_id":"4","last_reported":1706468654,"current_range_meters":11600,"station_id":"ce4bho92rcd13ifvqh3g","pricing_plan_id":"free"},{"bike_id":"a539d426-9e55-4e9c-b7bf-13cd28eecf36","system_id":"levelo_inurba_marseille","lat":43.27819,"lon":5.35483,"is_reserved":false,"is_disabled":false,"rental_uris":{"android":"levelo://app?vid=a539d426-9e55-4e9c-b7bf-13cd28eecf36","ios":"levelo://app?vid=a539d426-9e55-4e9c-b7bf-13cd28eecf36"},"vehicle_type_id":"4","last_reported":1706468654,"current_range_meters":7600,"station_id":"","pricing_plan_id":"free"},{"bike_id":"b5a96402-6639-4b94-b58e-3616ab7710c3","system_id":"levelo_inurba_marseille","lat":43.279742,"lon":5.38744,"is_reserved":false,"is_disabled":false,"rental_uris":{"android":"levelo://app?vid=b5a96402-6639-4b94-b58e-3616ab7710c3","ios":"levelo://app?vid=b5a96402-6639-4b94-b58e-3616ab7710c3"},"vehicle_type_id":"4","last_reported":1706468654,"current_range_meters":24400,"station_id":"ce4bhg12rcd13ifvqf80","pricing_plan_id":"free"},{"bike_id":"f39b0b66-d6cc-4db0-a66d-258aefa7c671","system_id":"levelo_inurba_marseille","lat":43.279742,"lon":5.38744,"is_reserved":false,"is_disabled":false,"rental_uris":{"android":"levelo://app?vid=f39b0b66-d6cc-4db0-a66d-258aefa7c671","ios":"levelo://app?vid=f39b0b66-d6cc-4db0-a66d-258aefa7c671"},"vehicle_type_id":"4","last_reported":1706468654,"current_range_meters":12000,"station_id":"ce4bhg12rcd13ifvqf80","pricing_plan_id":"free"},{"bike_id":"805920db-e4e4-4be8-a13d-b20a53b79471","system_id":"levelo_inurba_marseille","lat":43.279742,"lon":5.38744,"is_reserved":false,"is_disabled":false,"rental_uris":{"android":"levelo://app?vid=805920db-e4e4-4be8-a13d-b20a53b79471","ios":"levelo://app?vid=805920db-e4e4-4be8-a13d-b20a53b79471"},"vehicle_type_id":"4","last_reported":1706468654,"current_range_meters":28000,"station_id":"ce4bhg12rcd13ifvqf80","pricing_plan_id":"free"},{"bike_id":"c5fca43b-ee00-4f15-aa66-c65cd5012a0e","system_id":"levelo_inurba_marseille","lat":43.320045,"lon":5.415046,"is_reserved":false,"is_disabled":false,"rental_uris":{"android":"levelo://app?vid=c5fca43b-ee00-4f15-aa66-c65cd5012a0e","ios":"levelo://app?vid=c5fca43b-ee00-4f15-aa66-c65cd5012a0e"},"vehicle_type_id":"4","last_reported":1706468654,"current_range_meters":26000,"station_id":"ce4bhq92rcd13ifvqhkg","pricing_plan_id":"free"},{"bike_id":"2d65d888-1718-45bd-acd9-e594471f8e29","system_id":"levelo_inurba_marseille","lat":43.279742,"lon":5.38744,"is_reserved":false,"is_disabled":false,"rental_uris":{"android":"levelo://app?vid=2d65d888-1718-45bd-acd9-e594471f8e29","ios":"levelo://app?vid=2d65d888-1718-45bd-acd9-e594471f8e29"},"vehicle_type_id":"4","last_reported":1706468654,"current_range_meters":5600,"station_id":"ce4bhg12rcd13ifvqf80","pricing_plan_id":"free"},{"bike_id":"b7cf1bc2-fc7f-408a-8c99-aa2050551e87","system_id":"levelo_inurba_marseille","lat":43.279742,"lon":5.38744,"is_reserved":false,"is_disabled":false,"rental_uris":{"android":"levelo://app?vid=b7cf1bc2-fc7f-408a-8c99-aa2050551e87","ios":"levelo://app?vid=b7cf1bc2-fc7f-408a-8c99-aa2050551e87"},"vehicle_type_id":"4","last_reported":1706468654,"current_range_meters":7200,"station_id":"ce4bhg12rcd13ifvqf80","pricing_plan_id":"free"},{"bike_id":"6cffdd54-39ff-4eeb-b972-5faaedcfec09","system_id":"levelo_inurba_marseille","lat":43.292569,"lon":5.409107,"is_reserved":false,"is_disabled":false,"rental_uris":{"android":"levelo://app?vid=6cffdd54-39ff-4eeb-b972-5faaedcfec09","ios":"levelo://app?vid=6cffdd54-39ff-4eeb-b972-5faaedcfec09"},"vehicle_type_id":"4","last_reported":1706468654,"current_range_meters":12400,"station_id":"ce4bh192rcd13ifvqdc0","pricing_plan_id":"free"},{"bike_id":"cce43c36-bd3f-4e67-9e6d-e46b41e6de7c","system_id":"levelo_inurba_marseille","lat":43.292571,"lon":5.409107,"is_reserved":false,"is_disabled":false,"rental_uris":{"android":"levelo://app?vid=cce43c36-bd3f-4e67-9e6d-e46b41e6de7c","ios":"levelo://app?vid=cce43c36-bd3f-4e67-9e6d-e46b41e6de7c"},"vehicle_type_id":"4","last_reported":1706468654,"current_range_meters":1600,"station_id":"ce4bh192rcd13ifvqdc0","pricing_plan_id":"free"},{"bike_id":"2dbeabfb-1a62-4ec5-9de2-64d668fb16ba","system_id":"levelo_inurba_marseille","lat":43.292569,"lon":5.409107,"is_reserved":false,"is_disabled":false,"rental_uris":{"android":"levelo://app?vid=2dbeabfb-1a62-4ec5-9de2-64d668fb16ba","ios":"levelo://app?vid=2dbeabfb-1a62-4ec5-9de2-64d668fb16ba"},"vehicle_type_id":"4","last_reported":1706468654,"current_range_meters":1200,"station_id":"ce4bh192rcd13ifvqdc0","pricing_plan_id":"free"},{"bike_id":"90f6c9e0-0bef-460f-a63b-a207468229f3","system_id":"levelo_inurba_marseille","lat":43.292571,"lon":5.409107,"is_reserved":false,"is_disabled":false,"rental_uris":{"android":"levelo://app?vid=90f6c9e0-0bef-460f-a63b-a207468229f3","ios":"levelo://app?vid=90f6c9e0-0bef-460f-a63b-a207468229f3"},"vehicle_type_id":"4","last_reported":1706468654,"current_range_meters":6400,"station_id":"ce4bh192rcd13ifvqdc0","pricing_plan_id":"free"},{"bike_id":"94c15e1b-2a80-4a50-a250-d2c3bc4acb40","system_id":"levelo_inurba_marseille","lat":43.292571,"lon":5.409107,"is_reserved":false,"is_disabled":false,"rental_uris":{"android":"levelo://app?vid=94c15e1b-2a80-4a50-a250-d2c3bc4acb40","ios":"levelo://app?vid=94c15e1b-2a80-4a50-a250-d2c3bc4acb40"},"vehicle_type_id":"4","last_reported":1706468654,"current_range_meters":4800,"station_id":"ce4bh192rcd13ifvqdc0","pricing_plan_id":"free"},{"bike_id":"85d2acc1-c05e-4659-a7ec-aa596d3fb459","system_id":"levelo_inurba_marseille","lat":43.292571,"lon":5.409107,"is_reserved":false,"is_disabled":false,"rental_uris":{"android":"levelo://app?vid=85d2acc1-c05e-4659-a7ec-aa596d3fb459","ios":"levelo://app?vid=85d2acc1-c05e-4659-a7ec-aa596d3fb459"},"vehicle_type_id":"4","last_reported":1706468654,"current_range_meters":9600,"station_id":"ce4bh192rcd13ifvqdc0","pricing_plan_id":"free"},{"bike_id":"c7ff393f-b210-44aa-b6a8-8df578cda838","system_id":"levelo_inurba_marseille","lat":43.325233,"lon":5.414318,"is_reserved":false,"is_disabled":false,"rental_uris":{"android":"levelo://app?vid=c7ff393f-b210-44aa-b6a8-8df578cda838","ios":"levelo://app?vid=c7ff393f-b210-44aa-b6a8-8df578cda838"},"vehicle_type_id":"4","last_reported":1706468654,"current_range_meters":18000,"station_id":"ce4bhq12rcd13ifvqhhg","pricing_plan_id":"free"},{"bike_id":"a41ae808-4eee-4985-bc8a-d09a9154c012","system_id":"levelo_inurba_marseille","lat":43.325233,"lon":5.414318,"is_reserved":false,"is_disabled":false,"rental_uris":{"android":"levelo://app?vid=a41ae808-4eee-4985-bc8a-d09a9154c012","ios":"levelo://app?vid=a41ae808-4eee-4985-bc8a-d09a9154c012"},"vehicle_type_id":"4","last_reported":1706468654,"current_range_meters":22400,"station_id":"ce4bhq12rcd13ifvqhhg","pricing_plan_id":"free"},{"bike_id":"6a31b307-756f-4fb4-944b-78d4430bc38b","system_id":"levelo_inurba_marseille","lat":43.280784,"lon":5.396622,"is_reserved":false,"is_disabled":false,"rental_uris":{"android":"levelo://app?vid=6a31b307-756f-4fb4-944b-78d4430bc38b","ios":"levelo://app?vid=6a31b307-756f-4fb4-944b-78d4430bc38b"},"vehicle_type_id":"4","last_reported":1706468654,"current_range_meters":25200,"station_id":"ce4bho12rcd13ifvqh2g","pricing_plan_id":"free"},{"bike_id":"65f27ffa-9b8d-47b7-ae2b-c5091910c286","system_id":"levelo_inurba_marseille","lat":43.280784,"lon":5.396622,"is_reserved":false,"is_disabled":false,"rental_uris":{"android":"levelo://app?vid=65f27ffa-9b8d-47b7-ae2b-c5091910c286","ios":"levelo://app?vid=65f27ffa-9b8d-47b7-ae2b-c5091910c286"},"vehicle_type_id":"4","last_reported":1706468654,"current_range_meters":16400,"station_id":"ce4bho12rcd13ifvqh2g","pricing_plan_id":"free"},{"bike_id":"e7218d62-7ac0-49da-8e89-131756f5795c","system_id":"levelo_inurba_marseille","lat":43.303837,"lon":5.418724,"is_reserved":false,"is_disabled":false,"rental_uris":{"android":"levelo://app?vid=e7218d62-7ac0-49da-8e89-131756f5795c","ios":"levelo://app?vid=e7218d62-7ac0-49da-8e89-131756f5795c"},"vehicle_type_id":"4","last_reported":1706468654,"current_range_meters":13600,"station_id":"ce4bhop2rcd13ifvqh7g","pricing_plan_id":"free"},{"bike_id":"fdc0e4f8-ba61-4587-83ff-1e6335fdf7fa","system_id":"levelo_inurba_marseille","lat":43.27831,"lon":5.39191,"is_reserved":false,"is_disabled":false,"rental_uris":{"android":"levelo://app?vid=fdc0e4f8-ba61-4587-83ff-1e6335fdf7fa","ios":"levelo://app?vid=fdc0e4f8-ba61-4587-83ff-1e6335fdf7fa"},"vehicle_type_id":"4","last_reported":1706468654,"current_range_meters":5200,"station_id":"ce4bhjp2rcd13ifvqga0","pricing_plan_id":"free"},{"bike_id":"79f8c5da-85bb-4676-a3dd-562af7ae639c","system_id":"levelo_inurba_marseille","lat":43.278401,"lon":5.392152,"is_reserved":false,"is_disabled":false,"rental_uris":{"android":"levelo://app?vid=79f8c5da-85bb-4676-a3dd-562af7ae639c","ios":"levelo://app?vid=79f8c5da-85bb-4676-a3dd-562af7ae639c"},"vehicle_type_id":"4","last_reported":1706468654,"current_range_meters":6800,"station_id":"ce4bhjp2rcd13ifvqga0","pricing_plan_id":"free"},{"bike_id":"ec8feff8-6ccb-4ca8-9b6c-3b6901aa6b55","system_id":"levelo_inurba_marseille","lat":43.278399,"lon":5.392139,"is_reserved":false,"is_disabled":false,"rental_uris":{"android":"levelo://app?vid=ec8feff8-6ccb-4ca8-9b6c-3b6901aa6b55","ios":"levelo://app?vid=ec8feff8-6ccb-4ca8-9b6c-3b6901aa6b55"},"vehicle_type_id":"4","last_reported":1706468654,"current_range_meters":0,"station_id":"ce4bhjp2rcd13ifvqga0","pricing_plan_id":"free"},{"bike_id":"a89f83d3-c110-405c-9112-d0bb3f460d18","system_id":"levelo_inurba_marseille","lat":43.278401,"lon":5.392152,"is_reserved":false,"is_disabled":false,"rental_uris":{"android":"levelo://app?vid=a89f83d3-c110-405c-9112-d0bb3f460d18","ios":"levelo://app?vid=a89f83d3-c110-405c-9112-d0bb3f460d18"},"vehicle_type_id":"4","last_reported":1706468654,"current_range_meters":26000,"station_id":"ce4bhjp2rcd13ifvqga0","pricing_plan_id":"free"},{"bike_id":"143aac9d-d5e8-4d21-bc2a-0a3a63c765c0","system_id":"levelo_inurba_marseille","lat":43.27824,"lon":5.39209,"is_reserved":false,"is_disabled":false,"rental_uris":{"android":"levelo://app?vid=143aac9d-d5e8-4d21-bc2a-0a3a63c765c0","ios":"levelo://app?vid=143aac9d-d5e8-4d21-bc2a-0a3a63c765c0"},"vehicle_type_id":"4","last_reported":1706468654,"current_range_meters":4000,"station_id":"ce4bhjp2rcd13ifvqga0","pricing_plan_id":"free"},{"bike_id":"b07374db-3a53-4f2e-8b1a-120ee8d74341","system_id":"levelo_inurba_marseille","lat":43.275625,"lon":5.384392,"is_reserved":false,"is_disabled":false,"rental_uris":{"android":"levelo://app?vid=b07374db-3a53-4f2e-8b1a-120ee8d74341","ios":"levelo://app?vid=b07374db-3a53-4f2e-8b1a-120ee8d74341"},"vehicle_type_id":"4","last_reported":1706468654,"current_range_meters":9200,"station_id":"ce4bhh92rcd13ifvqfi0","pricing_plan_id":"free"},{"bike_id":"5545ec3d-99aa-4465-a2f1-4c9121509917","system_id":"levelo_inurba_marseille","lat":43.27376,"lon":5.36253,"is_reserved":false,"is_disabled":false,"rental_uris":{"android":"levelo://app?vid=5545ec3d-99aa-4465-a2f1-4c9121509917","ios":"levelo://app?vid=5545ec3d-99aa-4465-a2f1-4c9121509917"},"vehicle_type_id":"4","last_reported":1706468654,"current_range_meters":0,"station_id":"ce4bhbh2rcd13ifvqeo0","pricing_plan_id":"free"},{"bike_id":"e0f37a4b-61ed-48ae-8e76-1df84d402b25","system_id":"levelo_inurba_marseille","lat":43.273613,"lon":5.362705,"is_reserved":false,"is_disabled":false,"rental_uris":{"android":"levelo://app?vid=e0f37a4b-61ed-48ae-8e76-1df84d402b25","ios":"levelo://app?vid=e0f37a4b-61ed-48ae-8e76-1df84d402b25"},"vehicle_type_id":"4","last_reported":1706468654,"current_range_meters":26000,"station_id":"ce4bhbh2rcd13ifvqeo0","pricing_plan_id":"free"},{"bike_id":"447b3785-12b0-46da-a297-728b04251308","system_id":"levelo_inurba_marseille","lat":43.273609,"lon":5.362708,"is_reserved":false,"is_disabled":false,"rental_uris":{"android":"levelo://app?vid=447b3785-12b0-46da-a297-728b04251308","ios":"levelo://app?vid=447b3785-12b0-46da-a297-728b04251308"},"vehicle_type_id":"4","last_reported":1706468654,"current_range_meters":11600,"station_id":"ce4bhbh2rcd13ifvqeo0","pricing_plan_id":"free"},{"bike_id":"683f5e07-8574-43b4-b819-f0fdbd7dba25","system_id":"levelo_inurba_marseille","lat":43.275625,"lon":5.384392,"is_reserved":false,"is_disabled":false,"rental_uris":{"android":"levelo://app?vid=683f5e07-8574-43b4-b819-f0fdbd7dba25","ios":"levelo://app?vid=683f5e07-8574-43b4-b819-f0fdbd7dba25"},"vehicle_type_id":"4","last_reported":1706468654,"current_range_meters":12400,"station_id":"ce4bhh92rcd13ifvqfi0","pricing_plan_id":"free"},{"bike_id":"a21ba42d-6d86-4b50-a826-fe88e9fd009d","system_id":"levelo_inurba_marseille","lat":43.273609,"lon":5.362708,"is_reserved":false,"is_disabled":false,"rental_uris":{"android":"levelo://app?vid=a21ba42d-6d86-4b50-a826-fe88e9fd009d","ios":"levelo://app?vid=a21ba42d-6d86-4b50-a826-fe88e9fd009d"},