{"last_updated":1784321390,"ttl":60,"version":"2.2","data":{"bikes":[{"bike_id":"ba0c28b1-8732-48e2-8079-f25b2b3fbc3c","system_id":"levelo_inurba_marseille","lat":43.337444,"lon":5.374475,"is_reserved":false,"is_disabled":false,"rental_uris":{"android":"levelo://app?vid=ba0c28b1-8732-48e2-8079-f25b2b3fbc3c","ios":"levelo://app?vid=ba0c28b1-8732-48e2-8079-f25b2b3fbc3c"},"vehicle_type_id":"4","last_reported":1784321391,"current_range_meters":0,"station_id":"","pricing_plan_id":"cebpf4jnsgd1na2vs0mg"},{"bike_id":"5a32fe4b-6fd5-4995-a998-8d2584749db9","system_id":"levelo_inurba_marseille","lat":43.27941,"lon":5.41044,"is_reserved":false,"is_disabled":false,"rental_uris":{"android":"levelo://app?vid=5a32fe4b-6fd5-4995-a998-8d2584749db9","ios":"levelo://app?vid=5a32fe4b-6fd5-4995-a998-8d2584749db9"},"vehicle_type_id":"4","last_reported":1784321391,"current_range_meters":32800,"station_id":"ce4bhnp2rcd13ifvqh0g","pricing_plan_id":"cebpf4jnsgd1na2vs0mg"},{"bike_id":"e370498d-23e4-4cf6-82e7-8e7db08248dc","system_id":"levelo_inurba_marseille","lat":43.2807,"lon":5.39647,"is_reserved":false,"is_disabled":false,"rental_uris":{"android":"levelo://app?vid=e370498d-23e4-4cf6-82e7-8e7db08248dc","ios":"levelo://app?vid=e370498d-23e4-4cf6-82e7-8e7db08248dc"},"vehicle_type_id":"4","last_reported":1784321391,"current_range_meters":40000,"station_id":"ce4bho12rcd13ifvqh2g","pricing_plan_id":"cebpf4jnsgd1na2vs0mg"},{"bike_id":"63dc20ac-90f4-4eae-ac6c-d24ae13a7929","system_id":"levelo_inurba_marseille","lat":43.25344,"lon":5.4217,"is_reserved":false,"is_disabled":false,"rental_uris":{"android":"levelo://app?vid=63dc20ac-90f4-4eae-ac6c-d24ae13a7929","ios":"levelo://app?vid=63dc20ac-90f4-4eae-ac6c-d24ae13a7929"},"vehicle_type_id":"4","last_reported":1784321391,"current_range_meters":35200,"station_id":"st_d2m65c5bi1j21697t3ng","pricing_plan_id":"cebpf4jnsgd1na2vs0mg"},{"bike_id":"d8a55b1a-18e5-4532-b534-f1d44e956aa7","system_id":"levelo_inurba_marseille","lat":43.27204,"lon":5.39184,"is_reserved":false,"is_disabled":false,"rental_uris":{"android":"levelo://app?vid=d8a55b1a-18e5-4532-b534-f1d44e956aa7","ios":"levelo://app?vid=d8a55b1a-18e5-4532-b534-f1d44e956aa7"},"vehicle_type_id":"4","last_reported":1784321391,"current_range_meters":27200,"station_id":"ce4bhhp2rcd13ifvqfm0","pricing_plan_id":"cebpf4jnsgd1na2vs0mg"},{"bike_id":"76b63993-96f7-484a-8343-5ea3ca2d69bf","system_id":"levelo_inurba_marseille","lat":43.27451,"lon":5.36133,"is_reserved":false,"is_disabled":false,"rental_uris":{"android":"levelo://app?vid=76b63993-96f7-484a-8343-5ea3ca2d69bf","ios":"levelo://app?vid=76b63993-96f7-484a-8343-5ea3ca2d69bf"},"vehicle_type_id":"4","last_reported":1784321391,"current_range_meters":28800,"station_id":"","pricing_plan_id":"cebpf4jnsgd1na2vs0mg"},{"bike_id":"b50a1b64-ea74-4424-a529-becdda2f137e","system_id":"levelo_inurba_marseille","lat":43.29174,"lon":5.37136,"is_reserved":false,"is_disabled":false,"rental_uris":{"android":"levelo://app?vid=b50a1b64-ea74-4424-a529-becdda2f137e","ios":"levelo://app?vid=b50a1b64-ea74-4424-a529-becdda2f137e"},"vehicle_type_id":"4","last_reported":1784321391,"current_range_meters":38800,"station_id":"ce4bha92rcd13ifvqeh0","pricing_plan_id":"cebpf4jnsgd1na2vs0mg"},{"bike_id":"c30d03e7-09fe-4029-9cae-05b16705d77a","system_id":"levelo_inurba_marseille","lat":43.28351,"lon":5.38112,"is_reserved":false,"is_disabled":false,"rental_uris":{"android":"levelo://app?vid=c30d03e7-09fe-4029-9cae-05b16705d77a","ios":"levelo://app?vid=c30d03e7-09fe-4029-9cae-05b16705d77a"},"vehicle_type_id":"4","last_reported":1784321391,"current_range_meters":22400,"station_id":"ce4bh412rcd13ifvqdr0","pricing_plan_id":"cebpf4jnsgd1na2vs0mg"},{"bike_id":"70966810-cf69-4aec-842d-13ff88a398b0","system_id":"levelo_inurba_marseille","lat":43.28039,"lon":5.36954,"is_reserved":false,"is_disabled":false,"rental_uris":{"android":"levelo://app?vid=70966810-cf69-4aec-842d-13ff88a398b0","ios":"levelo://app?vid=70966810-cf69-4aec-842d-13ff88a398b0"},"vehicle_type_id":"4","last_reported":1784321391,"current_range_meters":32800,"station_id":"ce4bha12rcd13ifvqef0","pricing_plan_id":"cebpf4jnsgd1na2vs0mg"},{"bike_id":"262dc2b4-e8e1-4afc-b0f3-9a512ede6a8b","system_id":"levelo_inurba_marseille","lat":43.29848,"lon":5.36262,"is_reserved":false,"is_disabled":false,"rental_uris":{"android":"levelo://app?vid=262dc2b4-e8e1-4afc-b0f3-9a512ede6a8b","ios":"levelo://app?vid=262dc2b4-e8e1-4afc-b0f3-9a512ede6a8b"},"vehicle_type_id":"4","last_reported":1784321391,"current_range_meters":39200,"station_id":"ce4bgpp2rcd13ifvqc3g","pricing_plan_id":"cebpf4jnsgd1na2vs0mg"},{"bike_id":"db8bd5d3-bb99-4688-8de3-0b156a227ffe","system_id":"levelo_inurba_marseille","lat":43.29933,"lon":5.3746,"is_reserved":false,"is_disabled":true,"rental_uris":{"android":"levelo://app?vid=db8bd5d3-bb99-4688-8de3-0b156a227ffe","ios":"levelo://app?vid=db8bd5d3-bb99-4688-8de3-0b156a227ffe"},"vehicle_type_id":"4","last_reported":1784321391,"current_range_meters":9600,"station_id":"ce4bgjh2rcd13ifvqbg0","pricing_plan_id":"cebpf4jnsgd1na2vs0mg"},{"bike_id":"167c900c-c418-421c-b43c-fb7ece17fc95","system_id":"levelo_inurba_marseille","lat":43.24746,"lon":5.4172,"is_reserved":false,"is_disabled":false,"rental_uris":{"android":"levelo://app?vid=167c900c-c418-421c-b43c-fb7ece17fc95","ios":"levelo://app?vid=167c900c-c418-421c-b43c-fb7ece17fc95"},"vehicle_type_id":"4","last_reported":1784321391,"current_range_meters":7200,"station_id":"","pricing_plan_id":"cebpf4jnsgd1na2vs0mg"},{"bike_id":"9da5cadf-cdd1-429b-9b5e-9173177dfcc4","system_id":"levelo_inurba_marseille","lat":43.24398,"lon":5.3708,"is_reserved":false,"is_disabled":false,"rental_uris":{"android":"levelo://app?vid=9da5cadf-cdd1-429b-9b5e-9173177dfcc4","ios":"levelo://app?vid=9da5cadf-cdd1-429b-9b5e-9173177dfcc4"},"vehicle_type_id":"4","last_reported":1784321391,"current_range_meters":12800,"station_id":"ce4bhhh2rcd13ifvqfk0","pricing_plan_id":"cebpf4jnsgd1na2vs0mg"},{"bike_id":"6b15b759-7e27-4e69-962a-7644e0b3b493","system_id":"levelo_inurba_marseille","lat":43.29262,"lon":5.36847,"is_reserved":false,"is_disabled":false,"rental_uris":{"android":"levelo://app?vid=6b15b759-7e27-4e69-962a-7644e0b3b493","ios":"levelo://app?vid=6b15b759-7e27-4e69-962a-7644e0b3b493"},"vehicle_type_id":"4","last_reported":1784321391,"current_range_meters":39200,"station_id":"","pricing_plan_id":"cebpf4jnsgd1na2vs0mg"},{"bike_id":"e71494cd-d4a8-436a-a5c6-260a2924500e","system_id":"levelo_inurba_marseille","lat":43.26212,"lon":5.38774,"is_reserved":false,"is_disabled":true,"rental_uris":{"android":"levelo://app?vid=e71494cd-d4a8-436a-a5c6-260a2924500e","ios":"levelo://app?vid=e71494cd-d4a8-436a-a5c6-260a2924500e"},"vehicle_type_id":"4","last_reported":1784321391,"current_range_meters":30000,"station_id":"st_d8gjfg747rts73coq3b0","pricing_plan_id":"cebpf4jnsgd1na2vs0mg"},{"bike_id":"4dd83e35-73dd-44b8-9d3c-9c21e3418d4e","system_id":"levelo_inurba_marseille","lat":43.27501,"lon":5.42538,"is_reserved":false,"is_disabled":false,"rental_uris":{"android":"levelo://app?vid=4dd83e35-73dd-44b8-9d3c-9c21e3418d4e","ios":"levelo://app?vid=4dd83e35-73dd-44b8-9d3c-9c21e3418d4e"},"vehicle_type_id":"4","last_reported":1784321391,"current_range_meters":14400,"station_id":"st_d8t4bh7nbrqs73arha60","pricing_plan_id":"cebpf4jnsgd1na2vs0mg"},{"bike_id":"0bae1387-dbc4-4fe8-af80-0faa0716d47d","system_id":"levelo_inurba_marseille","lat":43.23962,"lon":5.36628,"is_reserved":false,"is_disabled":false,"rental_uris":{"android":"levelo://app?vid=0bae1387-dbc4-4fe8-af80-0faa0716d47d","ios":"levelo://app?vid=0bae1387-dbc4-4fe8-af80-0faa0716d47d"},"vehicle_type_id":"4","last_reported":1784321391,"current_range_meters":33600,"station_id":"ce4bhi12rcd13ifvqfp0","pricing_plan_id":"cebpf4jnsgd1na2vs0mg"},{"bike_id":"6666b766-2ccd-467a-ad53-5ec31fb4dec4","system_id":"levelo_inurba_marseille","lat":43.24815,"lon":5.37441,"is_reserved":false,"is_disabled":false,"rental_uris":{"android":"levelo://app?vid=6666b766-2ccd-467a-ad53-5ec31fb4dec4","ios":"levelo://app?vid=6666b766-2ccd-467a-ad53-5ec31fb4dec4"},"vehicle_type_id":"4","last_reported":1784321391,"current_range_meters":38000,"station_id":"ce4bhgh2rcd13ifvqfb0","pricing_plan_id":"cebpf4jnsgd1na2vs0mg"},{"bike_id":"1d6ce009-68f6-4ed3-8c3f-d060a2ee7623","system_id":"levelo_inurba_marseille","lat":43.25077,"lon":5.39529,"is_reserved":false,"is_disabled":false,"rental_uris":{"android":"levelo://app?vid=1d6ce009-68f6-4ed3-8c3f-d060a2ee7623","ios":"levelo://app?vid=1d6ce009-68f6-4ed3-8c3f-d060a2ee7623"},"vehicle_type_id":"4","last_reported":1784321391,"current_range_meters":12000,"station_id":"ce4bhm12rcd13ifvqgkg","pricing_plan_id":"cebpf4jnsgd1na2vs0mg"},{"bike_id":"e693d36e-ff27-48f0-818c-594301068792","system_id":"levelo_inurba_marseille","lat":43.29523,"lon":5.39058,"is_reserved":false,"is_disabled":true,"rental_uris":{"android":"levelo://app?vid=e693d36e-ff27-48f0-818c-594301068792","ios":"levelo://app?vid=e693d36e-ff27-48f0-818c-594301068792"},"vehicle_type_id":"4","last_reported":1784321391,"current_range_meters":800,"station_id":"ce4bh3p2rcd13ifvqdp0","pricing_plan_id":"cebpf4jnsgd1na2vs0mg"},{"bike_id":"daf11da9-09e4-45d4-814b-e16971bc59a4","system_id":"levelo_inurba_marseille","lat":43.27923,"lon":5.38719,"is_reserved":false,"is_disabled":true,"rental_uris":{"android":"levelo://app?vid=daf11da9-09e4-45d4-814b-e16971bc59a4","ios":"levelo://app?vid=daf11da9-09e4-45d4-814b-e16971bc59a4"},"vehicle_type_id":"4","last_reported":1784321391,"current_range_meters":23200,"station_id":"","pricing_plan_id":"cebpf4jnsgd1na2vs0mg"},{"bike_id":"a8331d0e-98f0-44c1-bd1e-9bd3cc505a42","system_id":"levelo_inurba_marseille","lat":43.24176,"lon":5.36396,"is_reserved":false,"is_disabled":false,"rental_uris":{"android":"levelo://app?vid=a8331d0e-98f0-44c1-bd1e-9bd3cc505a42","ios":"levelo://app?vid=a8331d0e-98f0-44c1-bd1e-9bd3cc505a42"},"vehicle_type_id":"4","last_reported":1784321391,"current_range_meters":3600,"station_id":"cpo36qri1sfpv3e86is0","pricing_plan_id":"cebpf4jnsgd1na2vs0mg"},{"bike_id":"acc1f62a-bcba-48db-87e6-f9904a68c9cf","system_id":"levelo_inurba_marseille","lat":43.29724,"lon":5.37681,"is_reserved":false,"is_disabled":true,"rental_uris":{"android":"levelo://app?vid=acc1f62a-bcba-48db-87e6-f9904a68c9cf","ios":"levelo://app?vid=acc1f62a-bcba-48db-87e6-f9904a68c9cf"},"vehicle_type_id":"4","last_reported":1784321391,"current_range_meters":4400,"station_id":"ce4bgkh2rcd13ifvqbl0","pricing_plan_id":"cebpf4jnsgd1na2vs0mg"},{"bike_id":"9c70f083-60db-491c-9e88-a1e2273cbb5d","system_id":"levelo_inurba_marseille","lat":43.27836,"lon":5.39217,"is_reserved":false,"is_disabled":false,"rental_uris":{"android":"levelo://app?vid=9c70f083-60db-491c-9e88-a1e2273cbb5d","ios":"levelo://app?vid=9c70f083-60db-491c-9e88-a1e2273cbb5d"},"vehicle_type_id":"4","last_reported":1784321391,"current_range_meters":30800,"station_id":"ce4bhjp2rcd13ifvqga0","pricing_plan_id":"cebpf4jnsgd1na2vs0mg"},{"bike_id":"0082b5a1-3fc3-41b1-b5b8-986e786899c1","system_id":"levelo_inurba_marseille","lat":43.29602,"lon":5.3773,"is_reserved":false,"is_disabled":false,"rental_uris":{"android":"levelo://app?vid=0082b5a1-3fc3-41b1-b5b8-986e786899c1","ios":"levelo://app?vid=0082b5a1-3fc3-41b1-b5b8-986e786899c1"},"vehicle_type_id":"4","last_reported":1784321391,"current_range_meters":28800,"station_id":"ce4bgi92rcd13ifvqb90","pricing_plan_id":"cebpf4jnsgd1na2vs0mg"},{"bike_id":"2e713f5f-0d30-4049-b21c-bfce54a23bd5","system_id":"levelo_inurba_marseille","lat":43.23891,"lon":5.37475,"is_reserved":false,"is_disabled":true,"rental_uris":{"android":"levelo://app?vid=2e713f5f-0d30-4049-b21c-bfce54a23bd5","ios":"levelo://app?vid=2e713f5f-0d30-4049-b21c-bfce54a23bd5"},"vehicle_type_id":"4","last_reported":1784321391,"current_range_meters":33600,"station_id":"st_d6sm7csbq4hs73f8fpjg","pricing_plan_id":"cebpf4jnsgd1na2vs0mg"},{"bike_id":"c180bc57-12f5-435a-8219-0c0ef26aa8c0","system_id":"levelo_inurba_marseille","lat":43.22522,"lon":5.34872,"is_reserved":false,"is_disabled":false,"rental_uris":{"android":"levelo://app?vid=c180bc57-12f5-435a-8219-0c0ef26aa8c0","ios":"levelo://app?vid=c180bc57-12f5-435a-8219-0c0ef26aa8c0"},"vehicle_type_id":"4","last_reported":1784321391,"current_range_meters":38000,"station_id":"st_cvj5dfep6f1abm77gieg","pricing_plan_id":"cebpf4jnsgd1na2vs0mg"},{"bike_id":"32c95016-82d3-4943-8193-1a98c4bf18c7","system_id":"levelo_inurba_marseille","lat":43.28085,"lon":5.35646,"is_reserved":false,"is_disabled":false,"rental_uris":{"android":"levelo://app?vid=32c95016-82d3-4943-8193-1a98c4bf18c7","ios":"levelo://app?vid=32c95016-82d3-4943-8193-1a98c4bf18c7"},"vehicle_type_id":"4","last_reported":1784321391,"current_range_meters":11200,"station_id":"","pricing_plan_id":"cebpf4jnsgd1na2vs0mg"},{"bike_id":"1a305c6a-520f-4fbc-8ce8-a3f8e3bd6a3b","system_id":"levelo_inurba_marseille","lat":43.27977,"lon":5.38701,"is_reserved":false,"is_disabled":false,"rental_uris":{"android":"levelo://app?vid=1a305c6a-520f-4fbc-8ce8-a3f8e3bd6a3b","ios":"levelo://app?vid=1a305c6a-520f-4fbc-8ce8-a3f8e3bd6a3b"},"vehicle_type_id":"4","last_reported":1784321391,"current_range_meters":38000,"station_id":"ce4bhg12rcd13ifvqf80","pricing_plan_id":"cebpf4jnsgd1na2vs0mg"},{"bike_id":"4e7d4a01-0659-4cc1-8dc4-4a9c1b0cec89","system_id":"levelo_inurba_marseille","lat":43.27989,"lon":5.40037,"is_reserved":false,"is_disabled":false,"rental_uris":{"android":"levelo://app?vid=4e7d4a01-0659-4cc1-8dc4-4a9c1b0cec89","ios":"levelo://app?vid=4e7d4a01-0659-4cc1-8dc4-4a9c1b0cec89"},"vehicle_type_id":"4","last_reported":1784321391,"current_range_meters":39200,"station_id":"ce4bho92rcd13ifvqh4g","pricing_plan_id":"cebpf4jnsgd1na2vs0mg"},{"bike_id":"ef6880d0-6944-4f6a-8f40-6662368b8f75","system_id":"levelo_inurba_marseille","lat":43.31445,"lon":5.45417,"is_reserved":false,"is_disabled":false,"rental_uris":{"android":"levelo://app?vid=ef6880d0-6944-4f6a-8f40-6662368b8f75","ios":"levelo://app?vid=ef6880d0-6944-4f6a-8f40-6662368b8f75"},"vehicle_type_id":"4","last_reported":1784321391,"current_range_meters":12800,"station_id":"","pricing_plan_id":"cebpf4jnsgd1na2vs0mg"},{"bike_id":"63d47bdf-c746-416d-b2e1-82e4e09fa9c9","system_id":"levelo_inurba_marseille","lat":43.25341,"lon":5.42186,"is_reserved":false,"is_disabled":false,"rental_uris":{"android":"levelo://app?vid=63d47bdf-c746-416d-b2e1-82e4e09fa9c9","ios":"levelo://app?vid=63d47bdf-c746-416d-b2e1-82e4e09fa9c9"},"vehicle_type_id":"4","last_reported":1784321391,"current_range_meters":26800,"station_id":"st_d2m65c5bi1j21697t3ng","pricing_plan_id":"cebpf4jnsgd1na2vs0mg"},{"bike_id":"ac73781c-7964-453a-82c7-5e417be13435","system_id":"levelo_inurba_marseille","lat":43.286,"lon":5.37069,"is_reserved":false,"is_disabled":false,"rental_uris":{"android":"levelo://app?vid=ac73781c-7964-453a-82c7-5e417be13435","ios":"levelo://app?vid=ac73781c-7964-453a-82c7-5e417be13435"},"vehicle_type_id":"4","last_reported":1784321391,"current_range_meters":36800,"station_id":"ce4bht12rcd13ifvqi60","pricing_plan_id":"cebpf4jnsgd1na2vs0mg"},{"bike_id":"1bb6ca71-e860-4f81-9f81-c7c8d16344e6","system_id":"levelo_inurba_marseille","lat":43.29555,"lon":5.37526,"is_reserved":false,"is_disabled":false,"rental_uris":{"android":"levelo://app?vid=1bb6ca71-e860-4f81-9f81-c7c8d16344e6","ios":"levelo://app?vid=1bb6ca71-e860-4f81-9f81-c7c8d16344e6"},"vehicle_type_id":"4","last_reported":1784321391,"current_range_meters":36000,"station_id":"ce4bgh92rcd13ifvqb50","pricing_plan_id":"cebpf4jnsgd1na2vs0mg"},{"bike_id":"293d7cc5-a8d4-44f4-9112-21655a559bf3","system_id":"levelo_inurba_marseille","lat":43.30914,"lon":5.36861,"is_reserved":false,"is_disabled":false,"rental_uris":{"android":"levelo://app?vid=293d7cc5-a8d4-44f4-9112-21655a559bf3","ios":"levelo://app?vid=293d7cc5-a8d4-44f4-9112-21655a559bf3"},"vehicle_type_id":"4","last_reported":1784321391,"current_range_meters":19600,"station_id":"ce4bgn92rcd13ifvqbvg","pricing_plan_id":"cebpf4jnsgd1na2vs0mg"},{"bike_id":"69aa3890-8355-4668-9d7c-2b996f0dde78","system_id":"levelo_inurba_marseille","lat":43.29732,"lon":5.42802,"is_reserved":false,"is_disabled":false,"rental_uris":{"android":"levelo://app?vid=69aa3890-8355-4668-9d7c-2b996f0dde78","ios":"levelo://app?vid=69aa3890-8355-4668-9d7c-2b996f0dde78"},"vehicle_type_id":"4","last_reported":1784321391,"current_range_meters":4400,"station_id":"st_d3md5207bmas73dh9klg","pricing_plan_id":"cebpf4jnsgd1na2vs0mg"},{"bike_id":"d183c213-4177-4bf2-b9e0-24872be8a9c8","system_id":"levelo_inurba_marseille","lat":43.28475,"lon":5.48393,"is_reserved":false,"is_disabled":false,"rental_uris":{"android":"levelo://app?vid=d183c213-4177-4bf2-b9e0-24872be8a9c8","ios":"levelo://app?vid=d183c213-4177-4bf2-b9e0-24872be8a9c8"},"vehicle_type_id":"4","last_reported":1784321391,"current_range_meters":19200,"station_id":"st_d3svhcjqgbts73a3dn0g","pricing_plan_id":"cebpf4jnsgd1na2vs0mg"},{"bike_id":"c4da000f-ebec-443b-b451-4eb3b1be53fb","system_id":"levelo_inurba_marseille","lat":43.29582,"lon":5.36736,"is_reserved":false,"is_disabled":false,"rental_uris":{"android":"levelo://app?vid=c4da000f-ebec-443b-b451-4eb3b1be53fb","ios":"levelo://app?vid=c4da000f-ebec-443b-b451-4eb3b1be53fb"},"vehicle_type_id":"4","last_reported":1784321391,"current_range_meters":28800,"station_id":"ce4bgph2rcd13ifvqc2g","pricing_plan_id":"cebpf4jnsgd1na2vs0mg"},{"bike_id":"1b452439-f48c-454e-9b8a-f26d91e3420d","system_id":"levelo_inurba_marseille","lat":43.296,"lon":5.37732,"is_reserved":false,"is_disabled":false,"rental_uris":{"android":"levelo://app?vid=1b452439-f48c-454e-9b8a-f26d91e3420d","ios":"levelo://app?vid=1b452439-f48c-454e-9b8a-f26d91e3420d"},"vehicle_type_id":"4","last_reported":1784321391,"current_range_meters":36000,"station_id":"ce4bgi92rcd13ifvqb90","pricing_plan_id":"cebpf4jnsgd1na2vs0mg"},{"bike_id":"930a26e6-38b4-4fff-a16a-2d1b93308d5b","system_id":"levelo_inurba_marseille","lat":43.28692,"lon":5.3737,"is_reserved":false,"is_disabled":true,"rental_uris":{"android":"levelo://app?vid=930a26e6-38b4-4fff-a16a-2d1b93308d5b","ios":"levelo://app?vid=930a26e6-38b4-4fff-a16a-2d1b93308d5b"},"vehicle_type_id":"4","last_reported":1784321391,"current_range_meters":5600,"station_id":"ce4bh3p2rcd13ifvqdq0","pricing_plan_id":"cebpf4jnsgd1na2vs0mg"},{"bike_id":"b0a62f04-3f9f-4db5-9ee5-24977bca3a65","system_id":"levelo_inurba_marseille","lat":43.26193,"lon":5.3744,"is_reserved":false,"is_disabled":false,"rental_uris":{"android":"levelo://app?vid=b0a62f04-3f9f-4db5-9ee5-24977bca3a65","ios":"levelo://app?vid=b0a62f04-3f9f-4db5-9ee5-24977bca3a65"},"vehicle_type_id":"4","last_reported":1784321391,"current_range_meters":39200,"station_id":"ce4bhgp2rcd13ifvqfc0","pricing_plan_id":"cebpf4jnsgd1na2vs0mg"},{"bike_id":"4849c2cf-5a7e-4515-8372-9646e129376e","system_id":"levelo_inurba_marseille","lat":43.240724,"lon":5.377557,"is_reserved":false,"is_disabled":true,"rental_uris":{"android":"levelo://app?vid=4849c2cf-5a7e-4515-8372-9646e129376e","ios":"levelo://app?vid=4849c2cf-5a7e-4515-8372-9646e129376e"},"vehicle_type_id":"4","last_reported":1784321391,"current_range_meters":0,"station_id":"ce4bhnp2rcd13ifvqgvg","pricing_plan_id":"cebpf4jnsgd1na2vs0mg"},{"bike_id":"a13233b2-12f3-4b1a-aa9c-27aabe882961","system_id":"levelo_inurba_marseille","lat":43.28472,"lon":5.35878,"is_reserved":false,"is_disabled":false,"rental_uris":{"android":"levelo://app?vid=a13233b2-12f3-4b1a-aa9c-27aabe882961","ios":"levelo://app?vid=a13233b2-12f3-4b1a-aa9c-27aabe882961"},"vehicle_type_id":"4","last_reported":1784321391,"current_range_meters":3200,"station_id":"ce4bhah2rcd13ifvqei0","pricing_plan_id":"cebpf4jnsgd1na2vs0mg"},{"bike_id":"e0c7065e-7f74-4b06-ae7b-f933c635df87","system_id":"levelo_inurba_marseille","lat":43.29557,"lon":5.42305,"is_reserved":false,"is_disabled":false,"rental_uris":{"android":"levelo://app?vid=e0c7065e-7f74-4b06-ae7b-f933c635df87","ios":"levelo://app?vid=e0c7065e-7f74-4b06-ae7b-f933c635df87"},"vehicle_type_id":"4","last_reported":1784321391,"current_range_meters":39200,"station_id":"ce4bhph2rcd13ifvqhdg","pricing_plan_id":"cebpf4jnsgd1na2vs0mg"},{"bike_id":"3d9d15ce-5804-4209-b92a-723f598d0341","system_id":"levelo_inurba_marseille","lat":43.21192,"lon":5.35086,"is_reserved":false,"is_disabled":false,"rental_uris":{"android":"levelo://app?vid=3d9d15ce-5804-4209-b92a-723f598d0341","ios":"levelo://app?vid=3d9d15ce-5804-4209-b92a-723f598d0341"},"vehicle_type_id":"4","last_reported":1784321391,"current_range_meters":39200,"station_id":"st_cvj6sg6p6f1abm77japg","pricing_plan_id":"cebpf4jnsgd1na2vs0mg"},{"bike_id":"1e75d0a8-1e8b-4de5-ade5-2ca4865465d1","system_id":"levelo_inurba_marseille","lat":43.28977,"lon":5.37844,"is_reserved":false,"is_disabled":false,"rental_uris":{"android":"levelo://app?vid=1e75d0a8-1e8b-4de5-ade5-2ca4865465d1","ios":"levelo://app?vid=1e75d0a8-1e8b-4de5-ade5-2ca4865465d1"},"vehicle_type_id":"4","last_reported":1784321391,"current_range_meters":32000,"station_id":"ce4bh9p2rcd13ifvqed0","pricing_plan_id":"cebpf4jnsgd1na2vs0mg"},{"bike_id":"700689bb-703b-455a-a751-9c1e7f35a526","system_id":"levelo_inurba_marseille","lat":43.31029,"lon":5.39381,"is_reserved":false,"is_disabled":false,"rental_uris":{"android":"levelo://app?vid=700689bb-703b-455a-a751-9c1e7f35a526","ios":"levelo://app?vid=700689bb-703b-455a-a751-9c1e7f35a526"},"vehicle_type_id":"4","last_reported":1784321391,"current_range_meters":12800,"station_id":"","pricing_plan_id":"cebpf4jnsgd1na2vs0mg"},{"bike_id":"5eb87cc0-0d8b-425f-9554-d6f9537732ed","system_id":"levelo_inurba_marseille","lat":43.30145,"lon":5.37427,"is_reserved":false,"is_disabled":false,"rental_uris":{"android":"levelo://app?vid=5eb87cc0-0d8b-425f-9554-d6f9537732ed","ios":"levelo://app?vid=5eb87cc0-0d8b-425f-9554-d6f9537732ed"},"vehicle_type_id":"4","last_reported":1784321391,"current_range_meters":27200,"station_id":"ce4bgs92rcd13ifvqcc0","pricing_plan_id":"cebpf4jnsgd1na2vs0mg"},{"bike_id":"e1bb6861-ee59-438c-aa2a-2a553b2d6f43","system_id":"levelo_inurba_marseille","lat":43.27183,"lon":5.40995,"is_reserved":false,"is_disabled":true,"rental_uris":{"android":"levelo://app?vid=e1bb6861-ee59-438c-aa2a-2a553b2d6f43","ios":"levelo://app?vid=e1bb6861-ee59-438c-aa2a-2a553b2d6f43"},"vehicle_type_id":"4","last_reported":1784321391,"current_range_meters":33200,"station_id":"ce4bhl12rcd13ifvqgf0","pricing_plan_id":"cebpf4jnsgd1na2vs0mg"},{"bike_id":"c2e7fe27-d2b0-440e-b62d-ead50feed951","system_id":"levelo_inurba_marseille","lat":43.29485,"lon":5.43307,"is_reserved":false,"is_disabled":false,"rental_uris":{"android":"levelo://app?vid=c2e7fe27-d2b0-440e-b62d-ead50feed951","ios":"levelo://app?vid=c2e7fe27-d2b0-440e-b62d-ead50feed951"},"vehicle_type_id":"4","last_reported":1784321391,"current_range_meters":10000,"station_id":"st_d3j5ugp08ojc73fj9d10","pricing_plan_id":"cebpf4jnsgd1na2vs0mg"},{"bike_id":"6f61a47d-3950-4b91-b8ed-f1ae0b229a8d","system_id":"levelo_inurba_marseille","lat":43.28939,"lon":5.36382,"is_reserved":false,"is_disabled":false,"rental_uris":{"android":"levelo://app?vid=6f61a47d-3950-4b91-b8ed-f1ae0b229a8d","ios":"levelo://app?vid=6f61a47d-3950-4b91-b8ed-f1ae0b229a8d"},"vehicle_type_id":"4","last_reported":1784321391,"current_range_meters":5600,"station_id":"ce4bhc92rcd13ifvqetg","pricing_plan_id":"cebpf4jnsgd1na2vs0mg"},{"bike_id":"2623e023-e953-40ac-8068-15d2169ca99d","system_id":"levelo_inurba_marseille","lat":43.28698,"lon":5.46685,"is_reserved":false,"is_disabled":false,"rental_uris":{"android":"levelo://app?vid=2623e023-e953-40ac-8068-15d2169ca99d","ios":"levelo://app?vid=2623e023-e953-40ac-8068-15d2169ca99d"},"vehicle_type_id":"4","last_reported":1784321391,"current_range_meters":4400,"station_id":"st_d6tc3vkotcvc738tfjhg","pricing_plan_id":"cebpf4jnsgd1na2vs0mg"},{"bike_id":"9d27f3aa-b353-4a7a-a0fa-132f296bb47c","system_id":"levelo_inurba_marseille","lat":43.21752,"lon":5.34613,"is_reserved":false,"is_disabled":false,"rental_uris":{"android":"levelo://app?vid=9d27f3aa-b353-4a7a-a0fa-132f296bb47c","ios":"levelo://app?vid=9d27f3aa-b353-4a7a-a0fa-132f296bb47c"},"vehicle_type_id":"4","last_reported":1784321391,"current_range_meters":8000,"station_id":"st_cvj6r9ubvosntc0bgbag","pricing_plan_id":"cebpf4jnsgd1na2vs0mg"},{"bike_id":"7379036c-1b08-40f2-b087-015291853c8a","system_id":"levelo_inurba_marseille","lat":43.29296,"lon":5.37147,"is_reserved":false,"is_disabled":false,"rental_uris":{"android":"levelo://app?vid=7379036c-1b08-40f2-b087-015291853c8a","ios":"levelo://app?vid=7379036c-1b08-40f2-b087-015291853c8a"},"vehicle_type_id":"4","last_reported":1784321391,"current_range_meters":39200,"station_id":"ce4bgh92rcd13ifvqb40","pricing_plan_id":"cebpf4jnsgd1na2vs0mg"},{"bike_id":"b866f934-72c7-420c-9403-123aef002cac","system_id":"levelo_inurba_marseille","lat":43.29262,"lon":5.36851,"is_reserved":false,"is_disabled":false,"rental_uris":{"android":"levelo://app?vid=b866f934-72c7-420c-9403-123aef002cac","ios":"levelo://app?vid=b866f934-72c7-420c-9403-123aef002cac"},"vehicle_type_id":"4","last_reported":1784321391,"current_range_meters":10800,"station_id":"","pricing_plan_id":"cebpf4jnsgd1na2vs0mg"},{"bike_id":"530d5b81-1545-4b49-8624-2c00cc3d9834","system_id":"levelo_inurba_marseille","lat":43.25328,"lon":5.42172,"is_reserved":false,"is_disabled":false,"rental_uris":{"android":"levelo://app?vid=530d5b81-1545-4b49-8624-2c00cc3d9834","ios":"levelo://app?vid=530d5b81-1545-4b49-8624-2c00cc3d9834"},"vehicle_type_id":"4","last_reported":1784321391,"current_range_meters":16000,"station_id":"st_d2m65c5bi1j21697t3ng","pricing_plan_id":"cebpf4jnsgd1na2vs0mg"},{"bike_id":"863d0357-9100-4091-8be6-61d932e4e898","system_id":"levelo_inurba_marseille","lat":43.3375,"lon":5.37462,"is_reserved":false,"is_disabled":false,"rental_uris":{"android":"levelo://app?vid=863d0357-9100-4091-8be6-61d932e4e898","ios":"levelo://app?vid=863d0357-9100-4091-8be6-61d932e4e898"},"vehicle_type_id":"4","last_reported":1784321391,"current_range_meters":38000,"station_id":"","pricing_plan_id":"cebpf4jnsgd1na2vs0mg"},{"bike_id":"603ee5d4-5fe7-430e-886f-5bb6a5eca98a","system_id":"levelo_inurba_marseille","lat":43.29765,"lon":5.37069,"is_reserved":false,"is_disabled":false,"rental_uris":{"android":"levelo://app?vid=603ee5d4-5fe7-430e-886f-5bb6a5eca98a","ios":"levelo://app?vid=603ee5d4-5fe7-430e-886f-5bb6a5eca98a"},"vehicle_type_id":"4","last_reported":1784321391,"current_range_meters":22400,"station_id":"ce4bgop2rcd13ifvqc1g","pricing_plan_id":"cebpf4jnsgd1na2vs0mg"},{"bike_id":"af4e6a74-876e-407f-9bbc-0d1bea8c8390","system_id":"levelo_inurba_marseille","lat":43.25493,"lon":5.37654,"is_reserved":false,"is_disabled":false,"rental_uris":{"android":"levelo://app?vid=af4e6a74-876e-407f-9bbc-0d1bea8c8390","ios":"levelo://app?vid=af4e6a74-876e-407f-9bbc-0d1bea8c8390"},"vehicle_type_id":"4","last_reported":1784321391,"current_range_meters":33200,"station_id":"ce4bhh12rcd13ifvqff0","pricing_plan_id":"cebpf4jnsgd1na2vs0mg"},{"bike_id":"a0c75e24-431d-4ba3-ac78-cb6df858ae92","system_id":"levelo_inurba_marseille","lat":43.29512,"lon":5.39027,"is_reserved":false,"is_disabled":false,"rental_uris":{"android":"levelo://app?vid=a0c75e24-431d-4ba3-ac78-cb6df858ae92","ios":"levelo://app?vid=a0c75e24-431d-4ba3-ac78-cb6df858ae92"},"vehicle_type_id":"4","last_reported":1784321391,"current_range_meters":39200,"station_id":"ce4bh3p2rcd13ifvqdp0","pricing_plan_id":"cebpf4jnsgd1na2vs0mg"},{"bike_id":"81618b52-d3f7-4a72-b5e9-08cf6daea0dd","system_id":"levelo_inurba_marseille","lat":43.281497,"lon":5.426348,"is_reserved":false,"is_disabled":false,"rental_uris":{"android":"levelo://app?vid=81618b52-d3f7-4a72-b5e9-08cf6daea0dd","ios":"levelo://app?vid=81618b52-d3f7-4a72-b5e9-08cf6daea0dd"},"vehicle_type_id":"4","last_reported":1784321391,"current_range_meters":30400,"station_id":"ce4bhnh2rcd13ifvqgug","pricing_plan_id":"cebpf4jnsgd1na2vs0mg"},{"bike_id":"2b835e9d-8b5f-4d01-bcda-0d0bd35b4da2","system_id":"levelo_inurba_marseille","lat":43.29281,"lon":5.40116,"is_reserved":false,"is_disabled":false,"rental_uris":{"android":"levelo://app?vid=2b835e9d-8b5f-4d01-bcda-0d0bd35b4da2","ios":"levelo://app?vid=2b835e9d-8b5f-4d01-bcda-0d0bd35b4da2"},"vehicle_type_id":"4","last_reported":1784321391,"current_range_meters":19200,"station_id":"ce4bh312rcd13ifvqdk0","pricing_plan_id":"cebpf4jnsgd1na2vs0mg"},{"bike_id":"8ba7f2d6-52d3-4c56-b19a-19a142e62779","system_id":"levelo_inurba_marseille","lat":43.24058,"lon":5.3775,"is_reserved":false,"is_disabled":false,"rental_uris":{"android":"levelo://app?vid=8ba7f2d6-52d3-4c56-b19a-19a142e62779","ios":"levelo://app?vid=8ba7f2d6-52d3-4c56-b19a-19a142e62779"},"vehicle_type_id":"4","last_reported":1784321391,"current_range_meters":16000,"station_id":"ce4bhnp2rcd13ifvqgvg","pricing_plan_id":"cebpf4jnsgd1na2vs0mg"},{"bike_id":"c75d2116-d37c-46fc-8f96-5dce141de33c","system_id":"levelo_inurba_marseille","lat":43.26057,"lon":5.39373,"is_reserved":false,"is_disabled":false,"rental_uris":{"android":"levelo://app?vid=c75d2116-d37c-46fc-8f96-5dce141de33c","ios":"levelo://app?vid=c75d2116-d37c-46fc-8f96-5dce141de33c"},"vehicle_type_id":"4","last_reported":1784321391,"current_range_meters":38400,"station_id":"ce4bhh92rcd13ifvqfj0","pricing_plan_id":"cebpf4jnsgd1na2vs0mg"},{"bike_id":"66afdf81-3bfc-4f74-a2b5-978630e17649","system_id":"levelo_inurba_marseille","lat":43.27916,"lon":5.37275,"is_reserved":false,"is_disabled":false,"rental_uris":{"android":"levelo://app?vid=66afdf81-3bfc-4f74-a2b5-978630e17649","ios":"levelo://app?vid=66afdf81-3bfc-4f74-a2b5-978630e17649"},"vehicle_type_id":"4","last_reported":1784321391,"current_range_meters":30000,"station_id":"","pricing_plan_id":"cebpf4jnsgd1na2vs0mg"},{"bike_id":"05df0229-c51c-4a3e-8744-e2a78625ad7d","system_id":"levelo_inurba_marseille","lat":43.31557,"lon":5.38399,"is_reserved":false,"is_disabled":false,"rental_uris":{"android":"levelo://app?vid=05df0229-c51c-4a3e-8744-e2a78625ad7d","ios":"levelo://app?vid=05df0229-c51c-4a3e-8744-e2a78625ad7d"},"vehicle_type_id":"4","last_reported":1784321391,"current_range_meters":24400,"station_id":"","pricing_plan_id":"cebpf4jnsgd1na2vs0mg"},{"bike_id":"1600e049-bbde-4c21-986c-f584974ad3e9","system_id":"levelo_inurba_marseille","lat":43.29556,"lon":5.37392,"is_reserved":false,"is_disabled":false,"rental_uris":{"android":"levelo://app?vid=1600e049-bbde-4c21-986c-f584974ad3e9","ios":"levelo://app?vid=1600e049-bbde-4c21-986c-f584974ad3e9"},"vehicle_type_id":"4","last_reported":1784321391,"current_range_meters":28400,"station_id":"","pricing_plan_id":"cebpf4jnsgd1na2vs0mg"},{"bike_id":"e9700518-bfab-4e19-9c8e-e3cb6414cf72","system_id":"levelo_inurba_marseille","lat":43.2918,"lon":5.35799,"is_reserved":false,"is_disabled":true,"rental_uris":{"android":"levelo://app?vid=e9700518-bfab-4e19-9c8e-e3cb6414cf72","ios":"levelo://app?vid=e9700518-bfab-4e19-9c8e-e3cb6414cf72"},"vehicle_type_id":"4","last_reported":1784321391,"current_range_meters":10000,"station_id":"ce4bhb12rcd13ifvqel0","pricing_plan_id":"cebpf4jnsgd1na2vs0mg"},{"bike_id":"6e2fa25e-c4e4-473c-b5d3-3e0f51dcc142","system_id":"levelo_inurba_marseille","lat":43.29785,"lon":5.38117,"is_reserved":false,"is_disabled":true,"rental_uris":{"android":"levelo://app?vid=6e2fa25e-c4e4-473c-b5d3-3e0f51dcc142","ios":"levelo://app?vid=6e2fa25e-c4e4-473c-b5d3-3e0f51dcc142"},"vehicle_type_id":"4","last_reported":1784321391,"current_range_meters":34800,"station_id":"ce4bgip2rcd13ifvqbb0","pricing_plan_id":"cebpf4jnsgd1na2vs0mg"},{"bike_id":"8938bffc-024a-4234-ac66-c0d653c4e3b6","system_id":"levelo_inurba_marseille","lat":43.29024,"lon":5.38644,"is_reserved":false,"is_disabled":false,"rental_uris":{"android":"levelo://app?vid=8938bffc-024a-4234-ac66-c0d653c4e3b6","ios":"levelo://app?vid=8938bffc-024a-4234-ac66-c0d653c4e3b6"},"vehicle_type_id":"4","last_reported":1784321391,"current_range_meters":34800,"station_id":"ce4bh4p2rcd13ifvqe0g","pricing_plan_id":"cebpf4jnsgd1na2vs0mg"},{"bike_id":"40133888-0505-4ab7-bf98-89cc8c9f1fbd","system_id":"levelo_inurba_marseille","lat":43.31247,"lon":5.38115,"is_reserved":false,"is_disabled":false,"rental_uris":{"android":"levelo://app?vid=40133888-0505-4ab7-bf98-89cc8c9f1fbd","ios":"levelo://app?vid=40133888-0505-4ab7-bf98-89cc8c9f1fbd"},"vehicle_type_id":"4","last_reported":1784321391,"current_range_meters":16800,"station_id":"","pricing_plan_id":"cebpf4jnsgd1na2vs0mg"},{"bike_id":"c61fa86c-0726-4d5e-aabb-4987a0a2d6c0","system_id":"levelo_inurba_marseille","lat":43.29305,"lon":5.3716,"is_reserved":false,"is_disabled":false,"rental_uris":{"android":"levelo://app?vid=c61fa86c-0726-4d5e-aabb-4987a0a2d6c0","ios":"levelo://app?vid=c61fa86c-0726-4d5e-aabb-4987a0a2d6c0"},"vehicle_type_id":"4","last_reported":1784321391,"current_range_meters":11600,"station_id":"ce4bgh92rcd13ifvqb40","pricing_plan_id":"cebpf4jnsgd1na2vs0mg"},{"bike_id":"28152a63-741b-4b04-9dc8-ada679e25c24","system_id":"levelo_inurba_marseille","lat":43.28852,"lon":5.35331,"is_reserved":false,"is_disabled":false,"rental_uris":{"android":"levelo://app?vid=28152a63-741b-4b04-9dc8-ada679e25c24","ios":"levelo://app?vid=28152a63-741b-4b04-9dc8-ada679e25c24"},"vehicle_type_id":"4","last_reported":1784321391,"current_range_meters":30800,"station_id":"","pricing_plan_id":"cebpf4jnsgd1na2vs0mg"},{"bike_id":"247d8d48-d657-4d28-b10e-508bad8cadab","system_id":"levelo_inurba_marseille","lat":43.29563,"lon":5.37513,"is_reserved":false,"is_disabled":false,"rental_uris":{"android":"levelo://app?vid=247d8d48-d657-4d28-b10e-508bad8cadab","ios":"levelo://app?vid=247d8d48-d657-4d28-b10e-508bad8cadab"},"vehicle_type_id":"4","last_reported":1784321391,"current_range_meters":39200,"station_id":"ce4bgh92rcd13ifvqb50","pricing_plan_id":"cebpf4jnsgd1na2vs0mg"},{"bike_id":"d8fc30fb-5a2c-44ec-a040-8f830edbb176","system_id":"levelo_inurba_marseille","lat":43.28372,"lon":5.38632,"is_reserved":false,"is_disabled":false,"rental_uris":{"android":"levelo://app?vid=d8fc30fb-5a2c-44ec-a040-8f830edbb176","ios":"levelo://app?vid=d8fc30fb-5a2c-44ec-a040-8f830edbb176"},"vehicle_type_id":"4","last_reported":1784321391,"current_range_meters":19200,"station_id":"ce4bh492rcd13ifvqdvg","pricing_plan_id":"cebpf4jnsgd1na2vs0mg"},{"bike_id":"29ef3ab5-d21a-4f27-a398-8b086629432b","system_id":"levelo_inurba_marseille","lat":43.2954,"lon":5.38547,"is_reserved":false,"is_disabled":false,"rental_uris":{"android":"levelo://app?vid=29ef3ab5-d21a-4f27-a398-8b086629432b","ios":"levelo://app?vid=29ef3ab5-d21a-4f27-a398-8b086629432b"},"vehicle_type_id":"4","last_reported":1784321391,"current_range_meters":24400,"station_id":"ce4bgih2rcd13ifvqba0","pricing_plan_id":"cebpf4jnsgd1na2vs0mg"},{"bike_id":"e66afdcb-3787-4fbb-95bd-c9f6eb01dbd4","system_id":"levelo_inurba_marseille","lat":43.29135,"lon":5.38078,"is_reserved":false,"is_disabled":false,"rental_uris":{"android":"levelo://app?vid=e66afdcb-3787-4fbb-95bd-c9f6eb01dbd4","ios":"levelo://app?vid=e66afdcb-3787-4fbb-95bd-c9f6eb01dbd4"},"vehicle_type_id":"4","last_reported":1784321391,"current_range_meters":33600,"station_id":"","pricing_plan_id":"cebpf4jnsgd1na2vs0mg"},{"bike_id":"d59d4421-b983-4f4e-b15b-e9291a575740","system_id":"levelo_inurba_marseille","lat":43.29688,"lon":5.37287,"is_reserved":false,"is_disabled":false,"rental_uris":{"android":"levelo://app?vid=d59d4421-b983-4f4e-b15b-e9291a575740","ios":"levelo://app?vid=d59d4421-b983-4f4e-b15b-e9291a575740"},"vehicle_type_id":"4","last_reported":1784321391,"current_range_meters":22000,"station_id":"ce4bgk12rcd13ifvqbj0","pricing_plan_id":"cebpf4jnsgd1na2vs0mg"},{"bike_id":"4b47c4c7-30bd-4d8c-ab57-3c3a2722daa4","system_id":"levelo_inurba_marseille","lat":43.27941,"lon":5.41044,"is_reserved":false,"is_disabled":false,"rental_uris":{"android":"levelo://app?vid=4b47c4c7-30bd-4d8c-ab57-3c3a2722daa4","ios":"levelo://app?vid=4b47c4c7-30bd-4d8c-ab57-3c3a2722daa4"},"vehicle_type_id":"4","last_reported":1784321391,"current_range_meters":17200,"station_id":"ce4bhnp2rcd13ifvqh0g","pricing_plan_id":"cebpf4jnsgd1na2vs0mg"},{"bike_id":"81587832-75ed-49cd-91c3-f57f9b8cec45","system_id":"levelo_inurba_marseille","lat":43.29052,"lon":5.35925,"is_reserved":false,"is_disabled":true,"rental_uris":{"android":"levelo://app?vid=81587832-75ed-49cd-91c3-f57f9b8cec45","ios":"levelo://app?vid=81587832-75ed-49cd-91c3-f57f9b8cec45"},"vehicle_type_id":"4","last_reported":1784321391,"current_range_meters":9600,"station_id":"ce4bha92rcd13ifvqeg0","pricing_plan_id":"cebpf4jnsgd1na2vs0mg"},{"bike_id":"e190b88b-5a45-410c-b23e-0f93d7c608c2","system_id":"levelo_inurba_marseille","lat":43.29675,"lon":5.37287,"is_reserved":false,"is_disabled":false,"rental_uris":{"android":"levelo://app?vid=e190b88b-5a45-410c-b23e-0f93d7c608c2","ios":"levelo://app?vid=e190b88b-5a45-410c-b23e-0f93d7c608c2"},"vehicle_type_id":"4","last_reported":1784321391,"current_range_meters":26000,"station_id":"ce4bgk12rcd13ifvqbj0","pricing_plan_id":"cebpf4jnsgd1na2vs0mg"},{"bike_id":"e289c78e-8977-4852-a938-804812e00355","system_id":"levelo_inurba_marseille","lat":43.28922,"lon":5.38398,"is_reserved":false,"is_disabled":false,"rental_uris":{"android":"levelo://app?vid=e289c78e-8977-4852-a938-804812e00355","ios":"levelo://app?vid=e289c78e-8977-4852-a938-804812e00355"},"vehicle_type_id":"4","last_reported":1784321391,"current_range_meters":3600,"station_id":"ce4bh612rcd13ifvqe6g","pricing_plan_id":"cebpf4jnsgd1na2vs0mg"},{"bike_id":"ea5035bb-7ed3-430c-8cf8-c03590a6af37","system_id":"levelo_inurba_marseille","lat":43.256888,"lon":5.410584,"is_reserved":false,"is_disabled":false,"rental_uris":{"android":"levelo://app?vid=ea5035bb-7ed3-430c-8cf8-c03590a6af37","ios":"levelo://app?vid=ea5035bb-7ed3-430c-8cf8-c03590a6af37"},"vehicle_type_id":"4","last_reported":1784321391,"current_range_meters":19600,"station_id":"ce4bhkp2rcd13ifvqgd0","pricing_plan_id":"cebpf4jnsgd1na2vs0mg"},{"bike_id":"257aed01-85b4-45a5-a75d-05fda36e24a0","system_id":"levelo_inurba_marseille","lat":43.24657,"lon":5.38157,"is_reserved":false,"is_disabled":false,"rental_uris":{"android":"levelo://app?vid=257aed01-85b4-45a5-a75d-05fda36e24a0","ios":"levelo://app?vid=257aed01-85b4-45a5-a75d-05fda36e24a0"},"vehicle_type_id":"4","last_reported":1784321391,"current_range_meters":8800,"station_id":"ce4bhih2rcd13ifvqfr0","pricing_plan_id":"cebpf4jnsgd1na2vs0mg"},{"bike_id":"7c36a1bd-8996-4f6c-bece-20aeeccdebc4","system_id":"levelo_inurba_marseille","lat":43.30553,"lon":5.36519,"is_reserved":false,"is_disabled":false,"rental_uris":{"android":"levelo://app?vid=7c36a1bd-8996-4f6c-bece-20aeeccdebc4","ios":"levelo://app?vid=7c36a1bd-8996-4f6c-bece-20aeeccdebc4"},"vehicle_type_id":"4","last_reported":1784321391,"current_range_meters":28400,"station_id":"ce4bgs12rcd13ifvqcag","pricing_plan_id":"cebpf4jnsgd1na2vs0mg"},{"bike_id":"5dc61c06-bebd-4da3-baac-3c58ca456e4c","system_id":"levelo_inurba_marseille","lat":43.25721,"lon":5.41121,"is_reserved":false,"is_disabled":false,"rental_uris":{"android":"levelo://app?vid=5dc61c06-bebd-4da3-baac-3c58ca456e4c","ios":"levelo://app?vid=5dc61c06-bebd-4da3-baac-3c58ca456e4c"},"vehicle_type_id":"4","last_reported":1784321391,"current_range_meters":13600,"station_id":"ce4bhkp2rcd13ifvqgd0","pricing_plan_id":"cebpf4jnsgd1na2vs0mg"},{"bike_id":"e363b584-92a2-4c61-adfd-371a2577000d","system_id":"levelo_inurba_marseille","lat":43.29878,"lon":5.43706,"is_reserved":false,"is_disabled":false,"rental_uris":{"android":"levelo://app?vid=e363b584-92a2-4c61-adfd-371a2577000d","ios":"levelo://app?vid=e363b584-92a2-4c61-adfd-371a2577000d"},"vehicle_type_id":"4","last_reported":1784321391,"current_range_meters":38800,"station_id":"ce4bhpp2rcd13ifvqhfg","pricing_plan_id":"cebpf4jnsgd1na2vs0mg"},{"bike_id":"06c8057b-fe44-4576-9188-4ed641cdff79","system_id":"levelo_inurba_marseille","lat":43.2466,"lon":5.38154,"is_reserved":false,"is_disabled":false,"rental_uris":{"android":"levelo://app?vid=06c8057b-fe44-4576-9188-4ed641cdff79","ios":"levelo://app?vid=06c8057b-fe44-4576-9188-4ed641cdff79"},"vehicle_type_id":"4","last_reported":1784321391,"current_range_meters":28800,"station_id":"ce4bhih2rcd13ifvqfr0","pricing_plan_id":"cebpf4jnsgd1na2vs0mg"},{"bike_id":"7e0e61ba-ab31-41cf-bac2-d1ce03049bad","system_id":"levelo_inurba_marseille","lat":43.29194,"lon":5.358,"is_reserved":false,"is_disabled":false,"rental_uris":{"android":"levelo://app?vid=7e0e61ba-ab31-41cf-bac2-d1ce03049bad","ios":"levelo://app?vid=7e0e61ba-ab31-41cf-bac2-d1ce03049bad"},"vehicle_type_id":"4","last_reported":1784321391,"current_range_meters":30800,"station_id":"ce4bhb12rcd13ifvqel0","pricing_plan_id":"cebpf4jnsgd1na2vs0mg"},{"bike_id":"d1d34929-e68a-4bf0-8155-973aec9fb7e0","system_id":"levelo_inurba_marseille","lat":43.31361,"lon":5.38499,"is_reserved":false,"is_disabled":false,"rental_uris":{"android":"levelo://app?vid=d1d34929-e68a-4bf0-8155-973aec9fb7e0","ios":"levelo://app?vid=d1d34929-e68a-4bf0-8155-973aec9fb7e0"},"vehicle_type_id":"4","last_reported":1784321391,"current_range_meters":25600,"station_id":"ce4bgt92rcd13ifvqcf0","pricing_plan_id":"cebpf4jnsgd1na2vs0mg"},{"bike_id":"7ff8118f-6c81-4cdf-8a1d-4753d954065d","system_id":"levelo_inurba_marseille","lat":43.29612,"lon":5.3797,"is_reserved":false,"is_disabled":false,"rental_uris":{"android":"levelo://app?vid=7ff8118f-6c81-4cdf-8a1d-4753d954065d","ios":"levelo://app?vid=7ff8118f-6c81-4cdf-8a1d-4753d954065d"},"vehicle_type_id":"4","last_reported":1784321391,"current_range_meters":9200,"station_id":"","pricing_plan_id":"cebpf4jnsgd1na2vs0mg"},{"bike_id":"982b17fa-0bd7-4260-a0c8-0ded7a1d881a","system_id":"levelo_inurba_marseille","lat":43.29761,"lon":5.37093,"is_reserved":false,"is_disabled":false,"rental_uris":{"android":"levelo://app?vid=982b17fa-0bd7-4260-a0c8-0ded7a1d881a","ios":"levelo://app?vid=982b17fa-0bd7-4260-a0c8-0ded7a1d881a"},"vehicle_type_id":"4","last_reported":1784321391,"current_range_meters":9200,"station_id":"ce4bgop2rcd13ifvqc1g","pricing_plan_id":"cebpf4jnsgd1na2vs0mg"},{"bike_id":"0efa47ee-d0bf-416e-82f3-4055cb3fadd2","system_id":"levelo_inurba_marseille","lat":43.24806,"lon":5.37461,"is_reserved":false,"is_disabled":false,"rental_uris":{"android":"levelo://app?vid=0efa47ee-d0bf-416e-82f3-4055cb3fadd2","ios":"levelo://app?vid=0efa47ee-d0bf-416e-82f3-4055cb3fadd2"},"vehicle_type_id":"4","last_reported":1784321391,"current_range_meters":6000,"station_id":"ce4bhgh2rcd13ifvqfb0","pricing_plan_id":"cebpf4jnsgd1na2vs0mg"},{"bike_id":"d638aa0c-d7c6-47a9-b137-cc2d9ec50a0c","system_id":"levelo_inurba_marseille","lat":43.2955,"lon":5.37552,"is_reserved":false,"is_disabled":false,"rental_uris":{"android":"levelo://app?vid=d638aa0c-d7c6-47a9-b137-cc2d9ec50a0c","ios":"levelo://app?vid=d638aa0c-d7c6-47a9-b137-cc2d9ec50a0c"},"vehicle_type_id":"4","last_reported":1784321391,"current_range_meters":39200,"station_id":"ce4bgh92rcd13ifvqb50","pricing_plan_id":"cebpf4jnsgd1na2vs0mg"},{"bike_id":"25a94663-ca29-4aea-b736-903685dbeed5","system_id":"levelo_inurba_marseille","lat":43.23959,"lon":5.36636,"is_reserved":false,"is_disabled":true,"rental_uris":{"android":"levelo://app?vid=25a94663-ca29-4aea-b736-903685dbeed5","ios":"levelo://app?vid=25a94663-ca29-4aea-b736-903685dbeed5"},"vehicle_type_id":"4","last_reported":1784321391,"current_range_meters":39200,"station_id":"ce4bhi12rcd13ifvqfp0","pricing_plan_id":"cebpf4jnsgd1na2vs0mg"},{"bike_id":"33c96332-c4be-4d84-a2e8-9ad162dcde7e","system_id":"levelo_inurba_marseille","lat":43.29688,"lon":5.3729,"is_reserved":false,"is_disabled":false,"rental_uris":{"android":"levelo://app?vid=33c96332-c4be-4d84-a2e8-9ad162dcde7e","ios":"levelo://app?vid=33c96332-c4be-4d84-a2e8-9ad162dcde7e"},"vehicle_type_id":"4","last_reported":1784321391,"current_range_meters":14400,"station_id":"ce4bgk12rcd13ifvqbj0","pricing_plan_id":"cebpf4jnsgd1na2vs0mg"},{"bike_id":"e3c06a25-063b-42ea-a6ac-ab70983824b8","system_id":"levelo_inurba_marseille","lat":43.29672,"lon":5.37309,"is_reserved":false,"is_disabled":false,"rental_uris":{"android":"levelo://app?vid=e3c06a25-063b-42ea-a6ac-ab70983824b8","ios":"levelo://app?vid=e3c06a25-063b-42ea-a6ac-ab70983824b8"},"vehicle_type_id":"4","last_reported":1784321391,"current_range_meters":36400,"station_id":"ce4bgk12rcd13ifvqbj0","pricing_plan_id":"cebpf4jnsgd1na2vs0mg"},{"bike_id":"1de5753c-f77d-4a34-b134-58bee8bc010c","system_id":"levelo_inurba_marseille","lat":43.26555,"lon":5.37288,"is_reserved":false,"is_disabled":true,"rental_uris":{"android":"levelo://app?vid=1de5753c-f77d-4a34-b134-58bee8bc010c","ios":"levelo://app?vid=1de5753c-f77d-4a34-b134-58bee8bc010c"},"vehicle_type_id":"4","last_reported":1784321391,"current_range_meters":24000,"station_id":"ce4bhg12rcd13ifvqf70","pricing_plan_id":"cebpf4jnsgd1na2vs0mg"},{"bike_id":"dd87e572-2d92-48fe-9951-2eaaafb00852","system_id":"levelo_inurba_marseille","lat":43.3149,"lon":5.37286,"is_reserved":false,"is_disabled":false,"rental_uris":{"android":"levelo://app?vid=dd87e572-2d92-48fe-9951-2eaaafb00852","ios":"levelo://app?vid=dd87e572-2d92-48fe-9951-2eaaafb00852"},"vehicle_type_id":"4","last_reported":1784321391,"current_range_meters":38400,"station_id":"ce4bgt12rcd13ifvqcd0","pricing_plan_id":"cebpf4jnsgd1na2vs0mg"},{"bike_id":"70b4266b-6f2a-4bb7-934f-a2a2bf37b44f","system_id":"levelo_inurba_marseille","lat":43.2511,"lon":5.40319,"is_reserved":false,"is_disabled":true,"rental_uris":{"android":"levelo://app?vid=70b4266b-6f2a-4bb7-934f-a2a2bf37b44f","ios":"levelo://app?vid=70b4266b-6f2a-4bb7-934f-a2a2bf37b44f"},"vehicle_type_id":"4","last_reported":1784321391,"current_range_meters":39200,"station_id":"ce4bhlh2rcd13ifvqgig","pricing_plan_id":"cebpf4jnsgd1na2vs0mg"},{"bike_id":"84709cc8-1d88-438a-b439-5a4996fac097","system_id":"levelo_inurba_marseille","lat":43.30436,"lon":5.37906,"is_reserved":false,"is_disabled":false,"rental_uris":{"android":"levelo://app?vid=84709cc8-1d88-438a-b439-5a4996fac097","ios":"levelo://app?vid=84709cc8-1d88-438a-b439-5a4996fac097"},"vehicle_type_id":"4","last_reported":1784321391,"current_range_meters":29600,"station_id":"ce4bgup2rcd13ifvqcn0","pricing_plan_id":"cebpf4jnsgd1na2vs0mg"},{"bike_id":"1fe3a4fd-be47-4f48-94b2-b19bebc1b7fb","system_id":"levelo_inurba_marseille","lat":43.29555,"lon":5.37499,"is_reserved":false,"is_disabled":false,"rental_uris":{"android":"levelo://app?vid=1fe3a4fd-be47-4f48-94b2-b19bebc1b7fb","ios":"levelo://app?vid=1fe3a4fd-be47-4f48-94b2-b19bebc1b7fb"},"vehicle_type_id":"4","last_reported":1784321391,"current_range_meters":33200,"station_id":"ce4bgh92rcd13ifvqb50","pricing_plan_id":"cebpf4jnsgd1na2vs0mg"},{"bike_id":"e40578c0-4602-46e0-9e7c-eae05af3da61","system_id":"levelo_inurba_marseille","lat":43.30963,"lon":5.39049,"is_reserved":false,"is_disabled":false,"rental_uris":{"android":"levelo://app?vid=e40578c0-4602-46e0-9e7c-eae05af3da61","ios":"levelo://app?vid=e40578c0-4602-46e0-9e7c-eae05af3da61"},"vehicle_type_id":"4","last_reported":1784321391,"current_range_meters":14800,"station_id":"ce4bgup2rcd13ifvqco0","pricing_plan_id":"cebpf4jnsgd1na2vs0mg"},{"bike_id":"303ae646-cd5e-48d0-9044-1b73844a7f5b","system_id":"levelo_inurba_marseille","lat":43.30173,"lon":5.36634,"is_reserved":false,"is_disabled":false,"rental_uris":{"android":"levelo://app?vid=303ae646-cd5e-48d0-9044-1b73844a7f5b","ios":"levelo://app?vid=303ae646-cd5e-48d0-9044-1b73844a7f5b"},"vehicle_type_id":"4","last_reported":1784321391,"current_range_meters":35600,"station_id":"ce4bgrh2rcd13ifvqc8g","pricing_plan_id":"cebpf4jnsgd1na2vs0mg"},{"bike_id":"0f6ff1da-c9e3-42e7-a8d3-8280d1c0addc","system_id":"levelo_inurba_marseille","lat":43.33743,"lon":5.37461,"is_reserved":false,"is_disabled":false,"rental_uris":{"android":"levelo://app?vid=0f6ff1da-c9e3-42e7-a8d3-8280d1c0addc","ios":"levelo://app?vid=0f6ff1da-c9e3-42e7-a8d3-8280d1c0addc"},"vehicle_type_id":"4","last_reported":1784321391,"current_range_meters":32400,"station_id":"","pricing_plan_id":"cebpf4jnsgd1na2vs0mg"},{"bike_id":"1e628dec-3141-48e0-b510-1c285ab03f4c","system_id":"levelo_inurba_marseille","lat":43.2637,"lon":5.41079,"is_reserved":false,"is_disabled":true,"rental_uris":{"android":"levelo://app?vid=1e628dec-3141-48e0-b510-1c285ab03f4c","ios":"levelo://app?vid=1e628dec-3141-48e0-b510-1c285ab03f4c"},"vehicle_type_id":"4","last_reported":1784321391,"current_range_meters":39200,"station_id":"st_d4e5ca6na9uc73bfl5fg","pricing_plan_id":"cebpf4jnsgd1na2vs0mg"},{"bike_id":"8337f5b4-2806-4bc0-9f71-af183adb5db8","system_id":"levelo_inurba_marseille","lat":43.23818,"lon":5.43454,"is_reserved":false,"is_disabled":false,"rental_uris":{"android":"levelo://app?vid=8337f5b4-2806-4bc0-9f71-af183adb5db8","ios":"levelo://app?vid=8337f5b4-2806-4bc0-9f71-af183adb5db8"},"vehicle_type_id":"4","last_reported":1784321391,"current_range_meters":10800,"station_id":"","pricing_plan_id":"cebpf4jnsgd1na2vs0mg"},{"bike_id":"ea71c8d1-30cf-4c2b-bf0b-50f0a387ffd1","system_id":"levelo_inurba_marseille","lat":43.29533,"lon":5.3854,"is_reserved":false,"is_disabled":false,"rental_uris":{"android":"levelo://app?vid=ea71c8d1-30cf-4c2b-bf0b-50f0a387ffd1","ios":"levelo://app?vid=ea71c8d1-30cf-4c2b-bf0b-50f0a387ffd1"},"vehicle_type_id":"4","last_reported":1784321391,"current_range_meters":26800,"station_id":"ce4bgih2rcd13ifvqba0","pricing_plan_id":"cebpf4jnsgd1na2vs0mg"},{"bike_id":"2cc4581e-b277-447b-bd23-83ef602da365","system_id":"levelo_inurba_marseille","lat":43.29773,"lon":5.37076,"is_reserved":false,"is_disabled":false,"rental_uris":{"android":"levelo://app?vid=2cc4581e-b277-447b-bd23-83ef602da365","ios":"levelo://app?vid=2cc4581e-b277-447b-bd23-83ef602da365"},"vehicle_type_id":"4","last_reported":1784321391,"current_range_meters":38000,"station_id":"ce4bgop2rcd13ifvqc1g","pricing_plan_id":"cebpf4jnsgd1na2vs0mg"},{"bike_id":"7e1ec820-0ac2-4238-8cf1-ec7dbfdba514","system_id":"levelo_inurba_marseille","lat":43.2855,"lon":5.39485,"is_reserved":false,"is_disabled":false,"rental_uris":{"android":"levelo://app?vid=7e1ec820-0ac2-4238-8cf1-ec7dbfdba514","ios":"levelo://app?vid=7e1ec820-0ac2-4238-8cf1-ec7dbfdba514"},"vehicle_type_id":"4","last_reported":1784321391,"current_range_meters":36800,"station_id":"ce4bh292rcd13ifvqdg0","pricing_plan_id":"cebpf4jnsgd1na2vs0mg"},{"bike_id":"832a74fa-6640-4f4e-a94c-86b76477eb6c","system_id":"levelo_inurba_marseille","lat":43.29282,"lon":5.36831,"is_reserved":false,"is_disabled":false,"rental_uris":{"android":"levelo://app?vid=832a74fa-6640-4f4e-a94c-86b76477eb6c","ios":"levelo://app?vid=832a74fa-6640-4f4e-a94c-86b76477eb6c"},"vehicle_type_id":"4","last_reported":1784321391,"current_range_meters":15200,"station_id":"","pricing_plan_id":"cebpf4jnsgd1na2vs0mg"},{"bike_id":"e1a284f9-5e4e-407c-a907-36602c41246a","system_id":"levelo_inurba_marseille","lat":43.24171,"lon":5.39714,"is_reserved":false,"is_disabled":false,"rental_uris":{"android":"levelo://app?vid=e1a284f9-5e4e-407c-a907-36602c41246a","ios":"levelo://app?vid=e1a284f9-5e4e-407c-a907-36602c41246a"},"vehicle_type_id":"4","last_reported":1784321391,"current_range_meters":39200,"station_id":"ce4bhn12rcd13ifvqgpg","pricing_plan_id":"cebpf4jnsgd1na2vs0mg"},{"bike_id":"57861aa2-3770-4cb0-9ca6-87fa36583c4f","system_id":"levelo_inurba_marseille","lat":43.31363,"lon":5.38499,"is_reserved":false,"is_disabled":false,"rental_uris":{"android":"levelo://app?vid=57861aa2-3770-4cb0-9ca6-87fa36583c4f","ios":"levelo://app?vid=57861aa2-3770-4cb0-9ca6-87fa36583c4f"},"vehicle_type_id":"4","last_reported":1784321391,"current_range_meters":39200,"station_id":"ce4bgt92rcd13ifvqcf0","pricing_plan_id":"cebpf4jnsgd1na2vs0mg"},{"bike_id":"9f8ac493-1aed-40f8-9812-a3c8b908ff8c","system_id":"levelo_inurba_marseille","lat":43.29889,"lon":5.38144,"is_reserved":false,"is_disabled":false,"rental_uris":{"android":"levelo://app?vid=9f8ac493-1aed-40f8-9812-a3c8b908ff8c","ios":"levelo://app?vid=9f8ac493-1aed-40f8-9812-a3c8b908ff8c"},"vehicle_type_id":"4","last_reported":1784321391,"current_range_meters":10000,"station_id":"ce4bgj12rcd13ifvqbc0","pricing_plan_id":"cebpf4jnsgd1na2vs0mg"},{"bike_id":"8c05f510-1604-4f6b-9589-b503211bf1ac","system_id":"levelo_inurba_marseille","lat":43.29039,"lon":5.35917,"is_reserved":false,"is_disabled":false,"rental_uris":{"android":"levelo://app?vid=8c05f510-1604-4f6b-9589-b503211bf1ac","ios":"levelo://app?vid=8c05f510-1604-4f6b-9589-b503211bf1ac"},"vehicle_type_id":"4","last_reported":1784321391,"current_range_meters":25600,"station_id":"ce4bha92rcd13ifvqeg0","pricing_plan_id":"cebpf4jnsgd1na2vs0mg"},{"bike_id":"942148f9-90f2-4171-8f05-98ba0ca85bcb","system_id":"levelo_inurba_marseille","lat":43.28476,"lon":5.48405,"is_reserved":false,"is_disabled":true,"rental_uris":{"android":"levelo://app?vid=942148f9-90f2-4171-8f05-98ba0ca85bcb","ios":"levelo://app?vid=942148f9-90f2-4171-8f05-98ba0ca85bcb"},"vehicle_type_id":"4","last_reported":1784321391,"current_range_meters":8400,"station_id":"st_d3svhcjqgbts73a3dn0g","pricing_plan_id":"cebpf4jnsgd1na2vs0mg"},{"bike_id":"6a31666b-84d8-4f00-bcbe-35507b0b11ba","system_id":"levelo_inurba_marseille","lat":43.28457,"lon":5.35881,"is_reserved":false,"is_disabled":false,"rental_uris":{"android":"levelo://app?vid=6a31666b-84d8-4f00-bcbe-35507b0b11ba","ios":"levelo://app?vid=6a31666b-84d8-4f00-bcbe-35507b0b11ba"},"vehicle_type_id":"4","last_reported":1784321391,"current_range_meters":25200,"station_id":"ce4bhah2rcd13ifvqei0","pricing_plan_id":"cebpf4jnsgd1na2vs0mg"},{"bike_id":"b2b194ed-86a5-4dc8-b828-5b80e1681197","system_id":"levelo_inurba_marseille","lat":43.28565,"lon":5.44119,"is_reserved":false,"is_disabled":false,"rental_uris":{"android":"levelo://app?vid=b2b194ed-86a5-4dc8-b828-5b80e1681197","ios":"levelo://app?vid=b2b194ed-86a5-4dc8-b828-5b80e1681197"},"vehicle_type_id":"4","last_reported":1784321391,"current_range_meters":40000,"station_id":"st_d3j3df2ikq2c7380ej80","pricing_plan_id":"cebpf4jnsgd1na2vs0mg"},{"bike_id":"99ec0fcf-34d0-4e40-a895-e3e944a3e6fb","system_id":"levelo_inurba_marseille","lat":43.29784,"lon":5.37104,"is_reserved":false,"is_disabled":false,"rental_uris":{"android":"levelo://app?vid=99ec0fcf-34d0-4e40-a895-e3e944a3e6fb","ios":"levelo://app?vid=99ec0fcf-34d0-4e40-a895-e3e944a3e6fb"},"vehicle_type_id":"4","last_reported":1784321391,"current_range_meters":9600,"station_id":"ce4bgop2rcd13ifvqc1g","pricing_plan_id":"cebpf4jnsgd1na2vs0mg"},{"bike_id":"2a93def1-9840-4751-b465-b53bb0ce6123","system_id":"levelo_inurba_marseille","lat":43.22557,"lon":5.41629,"is_reserved":false,"is_disabled":false,"rental_uris":{"android":"levelo://app?vid=2a93def1-9840-4751-b465-b53bb0ce6123","ios":"levelo://app?vid=2a93def1-9840-4751-b465-b53bb0ce6123"},"vehicle_type_id":"4","last_reported":1784321391,"current_range_meters":14800,"station_id":"st_d2o4gvlbi1j2169b742g","pricing_plan_id":"cebpf4jnsgd1na2vs0mg"},{"bike_id":"8d156d0a-5f86-40da-b89d-c44e51c746a9","system_id":"levelo_inurba_marseille","lat":43.3052,"lon":5.3654,"is_reserved":false,"is_disabled":false,"rental_uris":{"android":"levelo://app?vid=8d156d0a-5f86-40da-b89d-c44e51c746a9","ios":"levelo://app?vid=8d156d0a-5f86-40da-b89d-c44e51c746a9"},"vehicle_type_id":"4","last_reported":1784321391,"current_range_meters":14800,"station_id":"ce4bgs12rcd13ifvqcag","pricing_plan_id":"cebpf4jnsgd1na2vs0mg"},{"bike_id":"d2b08bfe-8d05-4397-91e9-fe938a2b845f","system_id":"levelo_inurba_marseille","lat":43.27497,"lon":5.42457,"is_reserved":false,"is_disabled":false,"rental_uris":{"android":"levelo://app?vid=d2b08bfe-8d05-4397-91e9-fe938a2b845f","ios":"levelo://app?vid=d2b08bfe-8d05-4397-91e9-fe938a2b845f"},"vehicle_type_id":"4","last_reported":1784321391,"current_range_meters":34000,"station_id":"ce4bhn92rcd13ifvqgrg","pricing_plan_id":"cebpf4jnsgd1na2vs0mg"},{"bike_id":"df284706-f84f-40bd-a285-8c17cbcde130","system_id":"levelo_inurba_marseille","lat":43.30597,"lon":5.39358,"is_reserved":false,"is_disabled":false,"rental_uris":{"android":"levelo://app?vid=df284706-f84f-40bd-a285-8c17cbcde130","ios":"levelo://app?vid=df284706-f84f-40bd-a285-8c17cbcde130"},"vehicle_type_id":"4","last_reported":1784321391,"current_range_meters":19600,"station_id":"ce4bh0p2rcd13ifvqd80","pricing_plan_id":"cebpf4jnsgd1na2vs0mg"},{"bike_id":"8da7e2dd-be7d-48ea-9690-fd5135a8f76b","system_id":"levelo_inurba_marseille","lat":43.29188,"lon":5.35808,"is_reserved":false,"is_disabled":false,"rental_uris":{"android":"levelo://app?vid=8da7e2dd-be7d-48ea-9690-fd5135a8f76b","ios":"levelo://app?vid=8da7e2dd-be7d-48ea-9690-fd5135a8f76b"},"vehicle_type_id":"4","last_reported":1784321391,"current_range_meters":6000,"station_id":"ce4bhb12rcd13ifvqel0","pricing_plan_id":"cebpf4jnsgd1na2vs0mg"},{"bike_id":"e97d923d-d560-461e-94e7-6b746b3d8d92","system_id":"levelo_inurba_marseille","lat":43.32106,"lon":5.36778,"is_reserved":false,"is_disabled":false,"rental_uris":{"android":"levelo://app?vid=e97d923d-d560-461e-94e7-6b746b3d8d92","ios":"levelo://app?vid=e97d923d-d560-461e-94e7-6b746b3d8d92"},"vehicle_type_id":"4","last_reported":1784321391,"current_range_meters":28000,"station_id":"ce4bhrh2rcd13ifvqhug","pricing_plan_id":"cebpf4jnsgd1na2vs0mg"},{"bike_id":"467988ca-fbee-470b-ab84-ebfe11bb3e24","system_id":"levelo_inurba_marseille","lat":43.26213,"lon":5.37418,"is_reserved":false,"is_disabled":false,"rental_uris":{"android":"levelo://app?vid=467988ca-fbee-470b-ab84-ebfe11bb3e24","ios":"levelo://app?vid=467988ca-fbee-470b-ab84-ebfe11bb3e24"},"vehicle_type_id":"4","last_reported":1784321391,"current_range_meters":16000,"station_id":"ce4bhgp2rcd13ifvqfc0","pricing_plan_id":"cebpf4jnsgd1na2vs0mg"},{"bike_id":"17a40bcd-195b-434f-81ca-30f28248def1","system_id":"levelo_inurba_marseille","lat":43.26936,"lon":5.38911,"is_reserved":false,"is_disabled":false,"rental_uris":{"android":"levelo://app?vid=17a40bcd-195b-434f-81ca-30f28248def1","ios":"levelo://app?vid=17a40bcd-195b-434f-81ca-30f28248def1"},"vehicle_type_id":"4","last_reported":1784321391,"current_range_meters":36800,"station_id":"ce4bhhh2rcd13ifvqfl0","pricing_plan_id":"cebpf4jnsgd1na2vs0mg"},{"bike_id":"48837646-8c52-45de-9e76-9ec9cdd47775","system_id":"levelo_inurba_marseille","lat":43.28743,"lon":5.38514,"is_reserved":false,"is_disabled":false,"rental_uris":{"android":"levelo://app?vid=48837646-8c52-45de-9e76-9ec9cdd47775","ios":"levelo://app?vid=48837646-8c52-45de-9e76-9ec9cdd47775"},"vehicle_type_id":"4","last_reported":1784321391,"current_range_meters":13600,"station_id":"","pricing_plan_id":"cebpf4jnsgd1na2vs0mg"},{"bike_id":"df5237e6-cd62-4014-ae7f-79eb317e6644","system_id":"levelo_inurba_marseille","lat":43.27615,"lon":5.36123,"is_reserved":false,"is_disabled":false,"rental_uris":{"android":"levelo://app?vid=df5237e6-cd62-4014-ae7f-79eb317e6644","ios":"levelo://app?vid=df5237e6-cd62-4014-ae7f-79eb317e6644"},"vehicle_type_id":"4","last_reported":1784321391,"current_range_meters":12400,"station_id":"ce4bgj92rcd13ifvqbe0","pricing_plan_id":"cebpf4jnsgd1na2vs0mg"},{"bike_id":"23705090-a9c4-45d6-b321-15be5bf7d0f8","system_id":"levelo_inurba_marseille","lat":43.21746,"lon":5.34608,"is_reserved":false,"is_disabled":false,"rental_uris":{"android":"levelo://app?vid=23705090-a9c4-45d6-b321-15be5bf7d0f8","ios":"levelo://app?vid=23705090-a9c4-45d6-b321-15be5bf7d0f8"},"vehicle_type_id":"4","last_reported":1784321391,"current_range_meters":12400,"station_id":"st_cvj6r9ubvosntc0bgbag","pricing_plan_id":"cebpf4jnsgd1na2vs0mg"},{"bike_id":"4d4f8116-b78d-45df-894b-0d08a3cd82b5","system_id":"levelo_inurba_marseille","lat":43.30713,"lon":5.38408,"is_reserved":false,"is_disabled":false,"rental_uris":{"android":"levelo://app?vid=4d4f8116-b78d-45df-894b-0d08a3cd82b5","ios":"levelo://app?vid=4d4f8116-b78d-45df-894b-0d08a3cd82b5"},"vehicle_type_id":"4","last_reported":1784321391,"current_range_meters":8000,"station_id":"","pricing_plan_id":"cebpf4jnsgd1na2vs0mg"},{"bike_id":"57889d2e-37dd-4f8f-b3ab-1bc0a62b2215","system_id":"levelo_inurba_marseille","lat":43.30451,"lon":5.37912,"is_reserved":false,"is_disabled":true,"rental_uris":{"android":"levelo://app?vid=57889d2e-37dd-4f8f-b3ab-1bc0a62b2215","ios":"levelo://app?vid=57889d2e-37dd-4f8f-b3ab-1bc0a62b2215"},"vehicle_type_id":"4","last_reported":1784321391,"current_range_meters":25200,"station_id":"ce4bgup2rcd13ifvqcn0","pricing_plan_id":"cebpf4jnsgd1na2vs0mg"},{"bike_id":"c6b62028-2fba-481c-a2b5-507778ec7c93","system_id":"levelo_inurba_marseille","lat":43.3153,"lon":5.41364,"is_reserved":false,"is_disabled":true,"rental_uris":{"android":"levelo://app?vid=c6b62028-2fba-481c-a2b5-507778ec7c93","ios":"levelo://app?vid=c6b62028-2fba-481c-a2b5-507778ec7c93"},"vehicle_type_id":"4","last_reported":1784321391,"current_range_meters":0,"station_id":"","pricing_plan_id":"cebpf4jnsgd1na2vs0mg"},{"bike_id":"970016f7-1296-4711-8e58-0e80ca657b98","system_id":"levelo_inurba_marseille","lat":43.27617,"lon":5.36101,"is_reserved":false,"is_disabled":false,"rental_uris":{"android":"levelo://app?vid=970016f7-1296-4711-8e58-0e80ca657b98","ios":"levelo://app?vid=970016f7-1296-4711-8e58-0e80ca657b98"},"vehicle_type_id":"4","last_reported":1784321391,"current_range_meters":28400,"station_id":"ce4bgj92rcd13ifvqbe0","pricing_plan_id":"cebpf4jnsgd1na2vs0mg"},{"bike_id":"426ad90a-273e-4118-974f-07dac402473c","system_id":"levelo_inurba_marseille","lat":43.29567,"lon":5.3753,"is_reserved":false,"is_disabled":false,"rental_uris":{"android":"levelo://app?vid=426ad90a-273e-4118-974f-07dac402473c","ios":"levelo://app?vid=426ad90a-273e-4118-974f-07dac402473c"},"vehicle_type_id":"4","last_reported":1784321391,"current_range_meters":39200,"station_id":"ce4bgh92rcd13ifvqb50","pricing_plan_id":"cebpf4jnsgd1na2vs0mg"},{"bike_id":"d991fb9c-48cc-47fd-977c-737a9f9705bf","system_id":"levelo_inurba_marseille","lat":43.29795,"lon":5.38155,"is_reserved":false,"is_disabled":true,"rental_uris":{"android":"levelo://app?vid=d991fb9c-48cc-47fd-977c-737a9f9705bf","ios":"levelo://app?vid=d991fb9c-48cc-47fd-977c-737a9f9705bf"},"vehicle_type_id":"4","last_reported":1784321391,"current_range_meters":0,"station_id":"","pricing_plan_id":"cebpf4jnsgd1na2vs0mg"},{"bike_id":"51905566-557d-413c-97fd-b84daf11e827","system_id":"levelo_inurba_marseille","lat":43.27766,"lon":5.38795,"is_reserved":false,"is_disabled":true,"rental_uris":{"android":"levelo://app?vid=51905566-557d-413c-97fd-b84daf11e827","ios":"levelo://app?vid=51905566-557d-413c-97fd-b84daf11e827"},"vehicle_type_id":"4","last_reported":1784321391,"current_range_meters":29600,"station_id":"","pricing_plan_id":"cebpf4jnsgd1na2vs0mg"},{"bike_id":"2116d610-7fe3-46de-8648-da9bac1d13d6","system_id":"levelo_inurba_marseille","lat":43.28696,"lon":5.374,"is_reserved":false,"is_disabled":true,"rental_uris":{"android":"levelo://app?vid=2116d610-7fe3-46de-8648-da9bac1d13d6","ios":"levelo://app?vid=2116d610-7fe3-46de-8648-da9bac1d13d6"},"vehicle_type_id":"4","last_reported":1784321391,"current_range_meters":20400,"station_id":"ce4bh3p2rcd13ifvqdq0","pricing_plan_id":"cebpf4jnsgd1na2vs0mg"},{"bike_id":"e96dee17-3a09-45e8-955d-b63d808cd0c9","system_id":"levelo_inurba_marseille","lat":43.29547,"lon":5.42287,"is_reserved":false,"is_disabled":false,"rental_uris":{"android":"levelo://app?vid=e96dee17-3a09-45e8-955d-b63d808cd0c9","ios":"levelo://app?vid=e96dee17-3a09-45e8-955d-b63d808cd0c9"},"vehicle_type_id":"4","last_reported":1784321391,"current_range_meters":22000,"station_id":"ce4bhph2rcd13ifvqhdg","pricing_plan_id":"cebpf4jnsgd1na2vs0mg"},{"bike_id":"78b472ae-7ca1-438d-a65f-f93d06645001","system_id":"levelo_inurba_marseille","lat":43.2922,"lon":5.3605,"is_reserved":false,"is_disabled":true,"rental_uris":{"android":"levelo://app?vid=78b472ae-7ca1-438d-a65f-f93d06645001","ios":"levelo://app?vid=78b472ae-7ca1-438d-a65f-f93d06645001"},"vehicle_type_id":"4","last_reported":1784321391,"current_range_meters":5600,"station_id":"","pricing_plan_id":"cebpf4jnsgd1na2vs0mg"},{"bike_id":"32573b4f-de4e-44dd-a102-c7bf09047154","system_id":"levelo_inurba_marseille","lat":43.31359,"lon":5.38504,"is_reserved":false,"is_disabled":false,"rental_uris":{"android":"levelo://app?vid=32573b4f-de4e-44dd-a102-c7bf09047154","ios":"levelo://app?vid=32573b4f-de4e-44dd-a102-c7bf09047154"},"vehicle_type_id":"4","last_reported":1784321391,"current_range_meters":32000,"station_id":"ce4bgt92rcd13ifvqcf0","pricing_plan_id":"cebpf4jnsgd1na2vs0mg"},{"bike_id":"871dd8a5-9839-454b-857f-e2dd4859231c","system_id":"levelo_inurba_marseille","lat":43.28695,"lon":5.37973,"is_reserved":false,"is_disabled":false,"rental_uris":{"android":"levelo://app?vid=871dd8a5-9839-454b-857f-e2dd4859231c","ios":"levelo://app?vid=871dd8a5-9839-454b-857f-e2dd4859231c"},"vehicle_type_id":"4","last_reported":1784321391,"current_range_meters":36400,"station_id":"ce4bh9p2rcd13ifvqec0","pricing_plan_id":"cebpf4jnsgd1na2vs0mg"},{"bike_id":"348caf77-82d6-4562-a72e-c7becae0b0ae","system_id":"levelo_inurba_marseille","lat":43.230527,"lon":5.354865,"is_reserved":false,"is_disabled":true,"rental_uris":{"android":"levelo://app?vid=348caf77-82d6-4562-a72e-c7becae0b0ae","ios":"levelo://app?vid=348caf77-82d6-4562-a72e-c7becae0b0ae"},"vehicle_type_id":"4","last_reported":1784321391,"current_range_meters":0,"station_id":"cpo3342slgdg3j2ifvpg","pricing_plan_id":"cebpf4jnsgd1na2vs0mg"},{"bike_id":"5bc975e5-3b99-4bf5-9235-20619e9927b5","system_id":"levelo_inurba_marseille","lat":43.29964,"lon":5.38493,"is_reserved":false,"is_disabled":false,"rental_uris":{"android":"levelo://app?vid=5bc975e5-3b99-4bf5-9235-20619e9927b5","ios":"levelo://app?vid=5bc975e5-3b99-4bf5-9235-20619e9927b5"},"vehicle_type_id":"4","last_reported":1784321391,"current_range_meters":36800,"station_id":"ce4bgj92rcd13ifvqbd0","pricing_plan_id":"cebpf4jnsgd1na2vs0mg"},{"bike_id":"819aa6ab-8a73-4f76-8fe5-0ae4b9e1703c","system_id":"levelo_inurba_marseille","lat":43.30972,"lon":5.39035,"is_reserved":false,"is_disabled":false,"rental_uris":{"android":"levelo://app?vid=819aa6ab-8a73-4f76-8fe5-0ae4b9e1703c","ios":"levelo://app?vid=819aa6ab-8a73-4f76-8fe5-0ae4b9e1703c"},"vehicle_type_id":"4","last_reported":1784321391,"current_range_meters":28000,"station_id":"ce4bgup2rcd13ifvqco0","pricing_plan_id":"cebpf4jnsgd1na2vs0mg"},{"bike_id":"cbf57bb6-373a-442c-9860-92cf9215a1bb","system_id":"levelo_inurba_marseille","lat":43.30543,"lon":5.36548,"is_reserved":false,"is_disabled":true,"rental_uris":{"android":"levelo://app?vid=cbf57bb6-373a-442c-9860-92cf9215a1bb","ios":"levelo://app?vid=cbf57bb6-373a-442c-9860-92cf9215a1bb"},"vehicle_type_id":"4","last_reported":1784321391,"current_range_meters":27200,"station_id":"ce4bgs12rcd13ifvqcag","pricing_plan_id":"cebpf4jnsgd1na2vs0mg"},{"bike_id":"f7517ec0-4d9f-4694-8867-75262bb49b5b","system_id":"levelo_inurba_marseille","lat":43.26214,"lon":5.37438,"is_reserved":false,"is_disabled":false,"rental_uris":{"android":"levelo://app?vid=f7517ec0-4d9f-4694-8867-75262bb49b5b","ios":"levelo://app?vid=f7517ec0-4d9f-4694-8867-75262bb49b5b"},"vehicle_type_id":"4","last_reported":1784321391,"current_range_meters":39200,"station_id":"ce4bhgp2rcd13ifvqfc0","pricing_plan_id":"cebpf4jnsgd1na2vs0mg"},{"bike_id":"e8b2132e-2e2f-4678-bd27-ce3f9f11f158","system_id":"levelo_inurba_marseille","lat":43.30465,"lon":5.37896,"is_reserved":false,"is_disabled":true,"rental_uris":{"android":"levelo://app?vid=e8b2132e-2e2f-4678-bd27-ce3f9f11f158","ios":"levelo://app?vid=e8b2132e-2e2f-4678-bd27-ce3f9f11f158"},"vehicle_type_id":"4","last_reported":1784321391,"current_range_meters":18000,"station_id":"ce4bgup2rcd13ifvqcn0","pricing_plan_id":"cebpf4jnsgd1na2vs0mg"},{"bike_id":"17f00b12-f8d0-413a-b992-98dadbd11261","system_id":"levelo_inurba_marseille","lat":43.25013,"lon":5.38911,"is_reserved":false,"is_disabled":false,"rental_uris":{"android":"levelo://app?vid=17f00b12-f8d0-413a-b992-98dadbd11261","ios":"levelo://app?vid=17f00b12-f8d0-413a-b992-98dadbd11261"},"vehicle_type_id":"4","last_reported":1784321391,"current_range_meters":34000,"station_id":"ce4bhgp2rcd13ifvqfd0","pricing_plan_id":"cebpf4jnsgd1na2vs0mg"},{"bike_id":"f51c24eb-dfd5-471e-ac78-bbcef74f2272","system_id":"levelo_inurba_marseille","lat":43.29294,"lon":5.37185,"is_reserved":false,"is_disabled":false,"rental_uris":{"android":"levelo://app?vid=f51c24eb-dfd5-471e-ac78-bbcef74f2272","ios":"levelo://app?vid=f51c24eb-dfd5-471e-ac78-bbcef74f2272"},"vehicle_type_id":"4","last_reported":1784321391,"current_range_meters":3200,"station_id":"ce4bgh92rcd13ifvqb40","pricing_plan_id":"cebpf4jnsgd1na2vs0mg"},{"bike_id":"4ce74d39-8cc5-4051-aa63-3dcb6d561cd3","system_id":"levelo_inurba_marseille","lat":43.27951,"lon":5.38702,"is_reserved":false,"is_disabled":false,"rental_uris":{"android":"levelo://app?vid=4ce74d39-8cc5-4051-aa63-3dcb6d561cd3","ios":"levelo://app?vid=4ce74d39-8cc5-4051-aa63-3dcb6d561cd3"},"vehicle_type_id":"4","last_reported":1784321391,"current_range_meters":39200,"station_id":"ce4bhg12rcd13ifvqf80","pricing_plan_id":"cebpf4jnsgd1na2vs0mg"},{"bike_id":"4f54c651-15d1-492f-8d09-70f1f809ad4f","system_id":"levelo_inurba_marseille","lat":43.27478,"lon":5.42551,"is_reserved":false,"is_disabled":false,"rental_uris":{"android":"levelo://app?vid=4f54c651-15d1-492f-8d09-70f1f809ad4f","ios":"levelo://app?vid=4f54c651-15d1-492f-8d09-70f1f809ad4f"},"vehicle_type_id":"4","last_reported":1784321391,"current_range_meters":28000,"station_id":"st_d8t4bh7nbrqs73arha60","pricing_plan_id":"cebpf4jnsgd1na2vs0mg"},{"bike_id":"d5a4ff25-31d4-4152-b052-19f3b36bea80","system_id":"levelo_inurba_marseille","lat":43.24672,"lon":5.38154,"is_reserved":false,"is_disabled":false,"rental_uris":{"android":"levelo://app?vid=d5a4ff25-31d4-4152-b052-19f3b36bea80","ios":"levelo://app?vid=d5a4ff25-31d4-4152-b052-19f3b36bea80"},"vehicle_type_id":"4","last_reported":1784321391,"current_range_meters":6400,"station_id":"ce4bhih2rcd13ifvqfr0","pricing_plan_id":"cebpf4jnsgd1na2vs0mg"},{"bike_id":"e1102441-6b3f-49e5-87d2-8b10eca1a676","system_id":"levelo_inurba_marseille","lat":43.26234,"lon":5.37456,"is_reserved":false,"is_disabled":false,"rental_uris":{"android":"levelo://app?vid=e1102441-6b3f-49e5-87d2-8b10eca1a676","ios":"levelo://app?vid=e1102441-6b3f-49e5-87d2-8b10eca1a676"},"vehicle_type_id":"4","last_reported":1784321391,"current_range_meters":25600,"station_id":"","pricing_plan_id":"cebpf4jnsgd1na2vs0mg"},{"bike_id":"a47fcb6b-4cc0-444c-ab14-a01fb70698d7","system_id":"levelo_inurba_marseille","lat":43.29529,"lon":5.38548,"is_reserved":false,"is_disabled":false,"rental_uris":{"android":"levelo://app?vid=a47fcb6b-4cc0-444c-ab14-a01fb70698d7","ios":"levelo://app?vid=a47fcb6b-4cc0-444c-ab14-a01fb70698d7"},"vehicle_type_id":"4","last_reported":1784321391,"current_range_meters":35600,"station_id":"ce4bgih2rcd13ifvqba0","pricing_plan_id":"cebpf4jnsgd1na2vs0mg"},{"bike_id":"6df92618-6376-46ea-9833-e1fa47ec90bc","system_id":"levelo_inurba_marseille","lat":43.2969,"lon":5.37278,"is_reserved":false,"is_disabled":false,"rental_uris":{"android":"levelo://app?vid=6df92618-6376-46ea-9833-e1fa47ec90bc","ios":"levelo://app?vid=6df92618-6376-46ea-9833-e1fa47ec90bc"},"vehicle_type_id":"4","last_reported":1784321391,"current_range_meters":20000,"station_id":"ce4bgk12rcd13ifvqbj0","pricing_plan_id":"cebpf4jnsgd1na2vs0mg"},{"bike_id":"e35b3037-ccf2-48a7-b6f2-14a77143bba4","system_id":"levelo_inurba_marseille","lat":43.32358,"lon":5.36748,"is_reserved":false,"is_disabled":false,"rental_uris":{"android":"levelo://app?vid=e35b3037-ccf2-48a7-b6f2-14a77143bba4","ios":"levelo://app?vid=e35b3037-ccf2-48a7-b6f2-14a77143bba4"},"vehicle_type_id":"4","last_reported":1784321391,"current_range_meters":33200,"station_id":"ce4bhsh2rcd13ifvqi2g","pricing_plan_id":"cebpf4jnsgd1na2vs0mg"},{"bike_id":"0cc9064c-9e67-4dd7-b11e-84260d626c23","system_id":"levelo_inurba_marseille","lat":43.29881,"lon":5.38133,"is_reserved":false,"is_disabled":true,"rental_uris":{"android":"levelo://app?vid=0cc9064c-9e67-4dd7-b11e-84260d626c23","ios":"levelo://app?vid=0cc9064c-9e67-4dd7-b11e-84260d626c23"},"vehicle_type_id":"4","last_reported":1784321391,"current_range_meters":30800,"station_id":"ce4bgj12rcd13ifvqbc0","pricing_plan_id":"cebpf4jnsgd1na2vs0mg"},{"bike_id":"27e47b1c-c6c8-4c7a-9057-a30a031a40ae","system_id":"levelo_inurba_marseille","lat":43.28417,"lon":5.34998,"is_reserved":false,"is_disabled":true,"rental_uris":{"android":"levelo://app?vid=27e47b1c-c6c8-4c7a-9057-a30a031a40ae","ios":"levelo://app?vid=27e47b1c-c6c8-4c7a-9057-a30a031a40ae"},"vehicle_type_id":"4","last_reported":1784321391,"current_range_meters":30400,"station_id":"ce4bhbh2rcd13ifvqepg","pricing_plan_id":"cebpf4jnsgd1na2vs0mg"},{"bike_id":"f26adf20-1d58-4645-be81-07495dcc86d4","system_id":"levelo_inurba_marseille","lat":43.30928,"lon":5.40147,"is_reserved":false,"is_disabled":true,"rental_uris":{"android":"levelo://app?vid=f26adf20-1d58-4645-be81-07495dcc86d4","ios":"levelo://app?vid=f26adf20-1d58-4645-be81-07495dcc86d4"},"vehicle_type_id":"4","last_reported":1784321391,"current_range_meters":0,"station_id":"ce4bgvp2rcd13ifvqct0","pricing_plan_id":"cebpf4jnsgd1na2vs0mg"},{"bike_id":"1f5c5d41-7a6b-493b-ae30-26f4e64c94e9","system_id":"levelo_inurba_marseille","lat":43.29269,"lon":5.38432,"is_reserved":false,"is_disabled":false,"rental_uris":{"android":"levelo://app?vid=1f5c5d41-7a6b-493b-ae30-26f4e64c94e9","ios":"levelo://app?vid=1f5c5d41-7a6b-493b-ae30-26f4e64c94e9"},"vehicle_type_id":"4","last_reported":1784321391,"current_range_meters":27200,"station_id":"ce4bh692rcd13ifvqea0","pricing_plan_id":"cebpf4jnsgd1na2vs0mg"},{"bike_id":"a100635c-4fd4-4084-8d7e-bade1685fe4c","system_id":"levelo_inurba_marseille","lat":43.29902,"lon":5.38924,"is_reserved":false,"is_disabled":false,"rental_uris":{"android":"levelo://app?vid=a100635c-4fd4-4084-8d7e-bade1685fe4c","ios":"levelo://app?vid=a100635c-4fd4-4084-8d7e-bade1685fe4c"},"vehicle_type_id":"4","last_reported":1784321391,"current_range_meters":14400,"station_id":"ce4bh392rcd13ifvqdl0","pricing_plan_id":"cebpf4jnsgd1na2vs0mg"},{"bike_id":"fa5a1c59-2a64-4bae-a785-f01417b0160e","system_id":"levelo_inurba_marseille","lat":43.26702,"lon":5.38237,"is_reserved":false,"is_disabled":false,"rental_uris":{"android":"levelo://app?vid=fa5a1c59-2a64-4bae-a785-f01417b0160e","ios":"levelo://app?vid=fa5a1c59-2a64-4bae-a785-f01417b0160e"},"vehicle_type_id":"4","last_reported":1784321391,"current_range_meters":17200,"station_id":"ce4bhg92rcd13ifvqf90","pricing_plan_id":"cebpf4jnsgd1na2vs0mg"},{"bike_id":"b37ffec1-2656-455c-84de-119e225955e3","system_id":"levelo_inurba_marseille","lat":43.29257,"lon":5.38422,"is_reserved":false,"is_disabled":true,"rental_uris":{"android":"levelo://app?vid=b37ffec1-2656-455c-84de-119e225955e3","ios":"levelo://app?vid=b37ffec1-2656-455c-84de-119e225955e3"},"vehicle_type_id":"4","last_reported":1784321391,"current_range_meters":0,"station_id":"ce4bh692rcd13ifvqea0","pricing_plan_id":"cebpf4jnsgd1na2vs0mg"},{"bike_id":"e4a3421d-ad96-453d-a7c8-f8180d881500","system_id":"levelo_inurba_marseille","lat":43.30582,"lon":5.3934,"is_reserved":false,"is_disabled":false,"rental_uris":{"android":"levelo://app?vid=e4a3421d-ad96-453d-a7c8-f8180d881500","ios":"levelo://app?vid=e4a3421d-ad96-453d-a7c8-f8180d881500"},"vehicle_type_id":"4","last_reported":1784321391,"current_range_meters":18000,"station_id":"ce4bh0p2rcd13ifvqd80","pricing_plan_id":"cebpf4jnsgd1na2vs0mg"},{"bike_id":"202f9ad0-42a8-41b4-9ba7-c7ec0280e620","system_id":"levelo_inurba_marseille","lat":43.23199,"lon":5.35548,"is_reserved":false,"is_disabled":false,"rental_uris":{"android":"levelo://app?vid=202f9ad0-42a8-41b4-9ba7-c7ec0280e620","ios":"levelo://app?vid=202f9ad0-42a8-41b4-9ba7-c7ec0280e620"},"vehicle_type_id":"4","last_reported":1784321391,"current_range_meters":38000,"station_id":"ce4bhu92rcd13ifvqi70","pricing_plan_id":"cebpf4jnsgd1na2vs0mg"},{"bike_id":"7588b2f3-548a-4f4e-9456-c2d49cbe649c","system_id":"levelo_inurba_marseille","lat":43.29851,"lon":5.36289,"is_reserved":false,"is_disabled":false,"rental_uris":{"android":"levelo://app?vid=7588b2f3-548a-4f4e-9456-c2d49cbe649c","ios":"levelo://app?vid=7588b2f3-548a-4f4e-9456-c2d49cbe649c"},"vehicle_type_id":"4","last_reported":1784321391,"current_range_meters":35600,"station_id":"ce4bgpp2rcd13ifvqc3g","pricing_plan_id":"cebpf4jnsgd1na2vs0mg"},{"bike_id":"89a24b49-b48c-4a38-a352-eeebc0df24e6","system_id":"levelo_inurba_marseille","lat":43.2929,"lon":5.372,"is_reserved":false,"is_disabled":false,"rental_uris":{"android":"levelo://app?vid=89a24b49-b48c-4a38-a352-eeebc0df24e6","ios":"levelo://app?vid=89a24b49-b48c-4a38-a352-eeebc0df24e6"},"vehicle_type_id":"4","last_reported":1784321391,"current_range_meters":39200,"station_id":"ce4bgh92rcd13ifvqb40","pricing_plan_id":"cebpf4jnsgd1na2vs0mg"},{"bike_id":"f3955824-bc9b-40e3-bb4b-91c4e41aa833","system_id":"levelo_inurba_marseille","lat":43.3013,"lon":5.37424,"is_reserved":false,"is_disabled":true,"rental_uris":{"android":"levelo://app?vid=f3955824-bc9b-40e3-bb4b-91c4e41aa833","ios":"levelo://app?vid=f3955824-bc9b-40e3-bb4b-91c4e41aa833"},"vehicle_type_id":"4","last_reported":1784321391,"current_range_meters":14400,"station_id":"ce4bgs92rcd13ifvqcc0","pricing_plan_id":"cebpf4jnsgd1na2vs0mg"},{"bike_id":"4f166448-d2a4-4ed7-99ce-660a23d803a9","system_id":"levelo_inurba_marseille","lat":43.29195,"lon":5.35794,"is_reserved":false,"is_disabled":false,"rental_uris":{"android":"levelo://app?vid=4f166448-d2a4-4ed7-99ce-660a23d803a9","ios":"levelo://app?vid=4f166448-d2a4-4ed7-99ce-660a23d803a9"},"vehicle_type_id":"4","last_reported":1784321391,"current_range_meters":28400,"station_id":"ce4bhb12rcd13ifvqel0","pricing_plan_id":"cebpf4jnsgd1na2vs0mg"},{"bike_id":"bddf699c-638f-4218-b9ff-74e23f22ec83","system_id":"levelo_inurba_marseille","lat":43.25505,"lon":5.37651,"is_reserved":false,"is_disabled":false,"rental_uris":{"android":"levelo://app?vid=bddf699c-638f-4218-b9ff-74e23f22ec83","ios":"levelo://app?vid=bddf699c-638f-4218-b9ff-74e23f22ec83"},"vehicle_type_id":"4","last_reported":1784321391,"current_range_meters":36800,"station_id":"ce4bhh12rcd13ifvqff0","pricing_plan_id":"cebpf4jnsgd1na2vs0mg"},{"bike_id":"e342b9f1-a6f4-474a-88a4-70e56cc058cc","system_id":"levelo_inurba_marseille","lat":43.31918,"lon":5.36822,"is_reserved":false,"is_disabled":false,"rental_uris":{"android":"levelo://app?vid=e342b9f1-a6f4-474a-88a4-70e56cc058cc","ios":"levelo://app?vid=e342b9f1-a6f4-474a-88a4-70e56cc058cc"},"vehicle_type_id":"4","last_reported":1784321391,"current_range_meters":39200,"station_id":"st_d6o2h0d0559c73evc1b0","pricing_plan_id":"cebpf4jnsgd1na2vs0mg"},{"bike_id":"b6590b8d-7d1d-4a84-a8b0-990b13671f66","system_id":"levelo_inurba_marseille","lat":43.260263,"lon":5.375491,"is_reserved":false,"is_disabled":false,"rental_uris":{"android":"levelo://app?vid=b6590b8d-7d1d-4a84-a8b0-990b13671f66","ios":"levelo://app?vid=b6590b8d-7d1d-4a84-a8b0-990b13671f66"},"vehicle_type_id":"4","last_reported":1784321391,"current_range_meters":28400,"station_id":"ce4bh392rcd13ifvqdm0","pricing_plan_id":"cebpf4jnsgd1na2vs0mg"},{"bike_id":"553fb599-9d9c-42b5-ab18-96881079f4d4","system_id":"levelo_inurba_marseille","lat":43.27373,"lon":5.3624,"is_reserved":false,"is_disabled":false,"rental_uris":{"android":"levelo://app?vid=553fb599-9d9c-42b5-ab18-96881079f4d4","ios":"levelo://app?vid=553fb599-9d9c-42b5-ab18-96881079f4d4"},"vehicle_type_id":"4","last_reported":1784321391,"current_range_meters":38400,"station_id":"ce4bhbh2rcd13ifvqeo0","pricing_plan_id":"cebpf4jnsgd1na2vs0mg"},{"bike_id":"0d3e100f-48fe-47e1-bef7-0a1dcfcc4955","system_id":"levelo_inurba_marseille","lat":43.33744,"lon":5.39191,"is_reserved":false,"is_disabled":false,"rental_uris":{"android":"levelo://app?vid=0d3e100f-48fe-47e1-bef7-0a1dcfcc4955","ios":"levelo://app?vid=0d3e100f-48fe-47e1-bef7-0a1dcfcc4955"},"vehicle_type_id":"4","last_reported":1784321391,"current_range_meters":29600,"station_id":"ce4bhr92rcd13ifvqhsg","pricing_plan_id":"cebpf4jnsgd1na2vs0mg"},{"bike_id":"679bde17-74f7-465e-951f-cd8f632ebdd3","system_id":"levelo_inurba_marseille","lat":43.29759,"lon":5.37068,"is_reserved":false,"is_disabled":false,"rental_uris":{"android":"levelo://app?vid=679bde17-74f7-465e-951f-cd8f632ebdd3","ios":"levelo://app?vid=679bde17-74f7-465e-951f-cd8f632ebdd3"},"vehicle_type_id":"4","last_reported":1784321391,"current_range_meters":39200,"station_id":"ce4bgop2rcd13ifvqc1g","pricing_plan_id":"cebpf4jnsgd1na2vs0mg"},{"bike_id":"ddbfbc6e-9ea5-4164-b0a2-7cc31ec7c025","system_id":"levelo_inurba_marseille","lat":43.32132,"lon":5.36756,"is_reserved":false,"is_disabled":false,"rental_uris":{"android":"levelo://app?vid=ddbfbc6e-9ea5-4164-b0a2-7cc31ec7c025","ios":"levelo://app?vid=ddbfbc6e-9ea5-4164-b0a2-7cc31ec7c025"},"vehicle_type_id":"4","last_reported":1784321391,"current_range_meters":17200,"station_id":"ce4bhrh2rcd13ifvqhug","pricing_plan_id":"cebpf4jnsgd1na2vs0mg"},{"bike_id":"175a72f7-599f-41b7-93d5-241d55c7e6ae","system_id":"levelo_inurba_marseille","lat":43.30946,"lon":5.39046,"is_reserved":false,"is_disabled":false,"rental_uris":{"android":"levelo://app?vid=175a72f7-599f-41b7-93d5-241d55c7e6ae","ios":"levelo://app?vid=175a72f7-599f-41b7-93d5-241d55c7e6ae"},"vehicle_type_id":"4","last_reported":1784321391,"current_range_meters":16400,"station_id":"ce4bgup2rcd13ifvqco0","pricing_plan_id":"cebpf4jnsgd1na2vs0mg"},{"bike_id":"ec304bfe-6b63-4258-879d-03200a53af27","system_id":"levelo_inurba_marseille","lat":43.29601,"lon":5.37716,"is_reserved":false,"is_disabled":false,"rental_uris":{"android":"levelo://app?vid=ec304bfe-6b63-4258-879d-03200a53af27","ios":"levelo://app?vid=ec304bfe-6b63-4258-879d-03200a53af27"},"vehicle_type_id":"4","last_reported":1784321391,"current_range_meters":39200,"station_id":"ce4bgi92rcd13ifvqb90","pricing_plan_id":"cebpf4jnsgd1na2vs0mg"},{"bike_id":"82023b68-46df-41b5-9d8b-ec4c67021220","system_id":"levelo_inurba_marseille","lat":43.30225,"lon":5.40021,"is_reserved":false,"is_disabled":true,"rental_uris":{"android":"levelo://app?vid=82023b68-46df-41b5-9d8b-ec4c67021220","ios":"levelo://app?vid=82023b68-46df-41b5-9d8b-ec4c67021220"},"vehicle_type_id":"4","last_reported":1784321391,"current_range_meters":34800,"station_id":"ce4bgvh2rcd13ifvqcs0","pricing_plan_id":"cebpf4jnsgd1na2vs0mg"},{"bike_id":"32c147b5-a969-4cf0-ae85-b52b4e9fef06","system_id":"levelo_inurba_marseille","lat":43.29292,"lon":5.37471,"is_reserved":false,"is_disabled":true,"rental_uris":{"android":"levelo://app?vid=32c147b5-a969-4cf0-ae85-b52b4e9fef06","ios":"levelo://app?vid=32c147b5-a969-4cf0-ae85-b52b4e9fef06"},"vehicle_type_id":"4","last_reported":1784321391,"current_range_meters":0,"station_id":"ce4bgi12rcd13ifvqb70","pricing_plan_id":"cebpf4jnsgd1na2vs0mg"},{"bike_id":"9add7d9b-214a-40dc-a324-5a0e81d35b67","system_id":"levelo_inurba_marseille","lat":43.2655,"lon":5.40328,"is_reserved":false,"is_disabled":true,"rental_uris":{"android":"levelo://app?vid=9add7d9b-214a-40dc-a324-5a0e81d35b67","ios":"levelo://app?vid=9add7d9b-214a-40dc-a324-5a0e81d35b67"},"vehicle_type_id":"4","last_reported":1784321391,"current_range_meters":16400,"station_id":"ce4bhmp2rcd13ifvqgng","pricing_plan_id":"cebpf4jnsgd1na2vs0mg"},{"bike_id":"91f0e4ce-79d8-4655-828a-63e54a2d5488","system_id":"levelo_inurba_marseille","lat":43.24805,"lon":5.37461,"is_reserved":false,"is_disabled":false,"rental_uris":{"android":"levelo://app?vid=91f0e4ce-79d8-4655-828a-63e54a2d5488","ios":"levelo://app?vid=91f0e4ce-79d8-4655-828a-63e54a2d5488"},"vehicle_type_id":"4","last_reported":1784321391,"current_range_meters":8400,"station_id":"ce4bhgh2rcd13ifvqfb0","pricing_plan_id":"cebpf4jnsgd1na2vs0mg"},{"bike_id":"03622894-c978-439d-bfb4-643c65979b79","system_id":"levelo_inurba_marseille","lat":43.29794,"lon":5.37107,"is_reserved":false,"is_disabled":false,"rental_uris":{"android":"levelo://app?vid=03622894-c978-439d-bfb4-643c65979b79","ios":"levelo://app?vid=03622894-c978-439d-bfb4-643c65979b79"},"vehicle_type_id":"4","last_reported":1784321391,"current_range_meters":18000,"station_id":"ce4bgop2rcd13ifvqc1g","pricing_plan_id":"cebpf4jnsgd1na2vs0mg"},{"bike_id":"08e37548-b939-4c95-ad3e-38d80489c90b","system_id":"levelo_inurba_marseille","lat":43.21629,"lon":5.34369,"is_reserved":false,"is_disabled":false,"rental_uris":{"android":"levelo://app?vid=08e37548-b939-4c95-ad3e-38d80489c90b","ios":"levelo://app?vid=08e37548-b939-4c95-ad3e-38d80489c90b"},"vehicle_type_id":"4","last_reported":1784321391,"current_range_meters":5600,"station_id":"","pricing_plan_id":"cebpf4jnsgd1na2vs0mg"},{"bike_id":"6a92006f-71dd-48e4-ac20-d001b032ad0b","system_id":"levelo_inurba_marseille","lat":43.29691,"lon":5.37274,"is_reserved":false,"is_disabled":false,"rental_uris":{"android":"levelo://app?vid=6a92006f-71dd-48e4-ac20-d001b032ad0b","ios":"levelo://app?vid=6a92006f-71dd-48e4-ac20-d001b032ad0b"},"vehicle_type_id":"4","last_reported":1784321391,"current_range_meters":38400,"station_id":"ce4bgk12rcd13ifvqbj0","pricing_plan_id":"cebpf4jnsgd1na2vs0mg"},{"bike_id":"4fa46307-e1a1-4f6c-a5e9-4130cf7619fd","system_id":"levelo_inurba_marseille","lat":43.26189,"lon":5.37447,"is_reserved":false,"is_disabled":false,"rental_uris":{"android":"levelo://app?vid=4fa46307-e1a1-4f6c-a5e9-4130cf7619fd","ios":"levelo://app?vid=4fa46307-e1a1-4f6c-a5e9-4130cf7619fd"},"vehicle_type_id":"4","last_reported":1784321391,"current_range_meters":32800,"station_id":"ce4bhgp2rcd13ifvqfc0","pricing_plan_id":"cebpf4jnsgd1na2vs0mg"},{"bike_id":"9d2e6953-978d-4215-b8b1-72840bcdc622","system_id":"levelo_inurba_marseille","lat":43.269324,"lon":5.389173,"is_reserved":false,"is_disabled":false,"rental_uris":{"android":"levelo://app?vid=9d2e6953-978d-4215-b8b1-72840bcdc622","ios":"levelo://app?vid=9d2e6953-978d-4215-b8b1-72840bcdc622"},"vehicle_type_id":"4","last_reported":1784321391,"current_range_meters":28000,"station_id":"ce4bhhh2rcd13ifvqfl0","pricing_plan_id":"cebpf4jnsgd1na2vs0mg"},{"bike_id":"44a2d414-1ac1-4189-b47c-dc4459103bc9","system_id":"levelo_inurba_marseille","lat":43.33766,"lon":5.37457,"is_reserved":false,"is_disabled":false,"rental_uris":{"android":"levelo://app?vid=44a2d414-1ac1-4189-b47c-dc4459103bc9","ios":"levelo://app?vid=44a2d414-1ac1-4189-b47c-dc4459103bc9"},"vehicle_type_id":"4","last_reported":1784321391,"current_range_meters":32800,"station_id":"","pricing_plan_id":"cebpf4jnsgd1na2vs0mg"},{"bike_id":"afa4ef56-03d1-4be1-b020-ce7389dda535","system_id":"levelo_inurba_marseille","lat":43.29258,"lon":5.3762,"is_reserved":false,"is_disabled":false,"rental_uris":{"android":"levelo://app?vid=afa4ef56-03d1-4be1-b020-ce7389dda535","ios":"levelo://app?vid=afa4ef56-03d1-4be1-b020-ce7389dda535"},"vehicle_type_id":"4","last_reported":1784321391,"current_range_meters":39200,"station_id":"ce4bgi12rcd13ifvqb80","pricing_plan_id":"cebpf4jnsgd1na2vs0mg"},{"bike_id":"2c16c416-ac46-4a61-ab93-a4b1f17ce0f9","system_id":"levelo_inurba_marseille","lat":43.30961,"lon":5.39032,"is_reserved":false,"is_disabled":false,"rental_uris":{"android":"levelo://app?vid=2c16c416-ac46-4a61-ab93-a4b1f17ce0f9","ios":"levelo://app?vid=2c16c416-ac46-4a61-ab93-a4b1f17ce0f9"},"vehicle_type_id":"4","last_reported":1784321391,"current_range_meters":39200,"station_id":"ce4bgup2rcd13ifvqco0","pricing_plan_id":"cebpf4jnsgd1na2vs0mg"},{"bike_id":"3c5ffc7e-5f22-44bb-9587-c15e8e458634","system_id":"levelo_inurba_marseille","lat":43.30329,"lon":5.40453,"is_reserved":false,"is_disabled":false,"rental_uris":{"android":"levelo://app?vid=3c5ffc7e-5f22-44bb-9587-c15e8e458634","ios":"levelo://app?vid=3c5ffc7e-5f22-44bb-9587-c15e8e458634"},"vehicle_type_id":"4","last_reported":1784321391,"current_range_meters":39200,"station_id":"ce4bh012rcd13ifvqd10","pricing_plan_id":"cebpf4jnsgd1na2vs0mg"},{"bike_id":"aa899d6f-0408-4a23-8d3b-ffb1059b430c","system_id":"levelo_inurba_marseille","lat":43.23966,"lon":5.36632,"is_reserved":false,"is_disabled":false,"rental_uris":{"android":"levelo://app?vid=aa899d6f-0408-4a23-8d3b-ffb1059b430c","ios":"levelo://app?vid=aa899d6f-0408-4a23-8d3b-ffb1059b430c"},"vehicle_type_id":"4","last_reported":1784321391,"current_range_meters":11200,"station_id":"ce4bhi12rcd13ifvqfp0","pricing_plan_id":"cebpf4jnsgd1na2vs0mg"},{"bike_id":"9dcfdf96-578b-46e7-b429-1767b2ea8f00","system_id":"levelo_inurba_marseille","lat":43.24669,"lon":5.38155,"is_reserved":false,"is_disabled":false,"rental_uris":{"android":"levelo://app?vid=9dcfdf96-578b-46e7-b429-1767b2ea8f00","ios":"levelo://app?vid=9dcfdf96-578b-46e7-b429-1767b2ea8f00"},"vehicle_type_id":"4","last_reported":1784321391,"current_range_meters":38800,"station_id":"ce4bhih2rcd13ifvqfr0","pricing_plan_id":"cebpf4jnsgd1na2vs0mg"},{"bike_id":"b1e2bb15-708a-421f-9c6b-004d74bf9841","system_id":"levelo_inurba_marseille","lat":43.27367,"lon":5.36258,"is_reserved":false,"is_disabled":false,"rental_uris":{"android":"levelo://app?vid=b1e2bb15-708a-421f-9c6b-004d74bf9841","ios":"levelo://app?vid=b1e2bb15-708a-421f-9c6b-004d74bf9841"},"vehicle_type_id":"4","last_reported":1784321391,"current_range_meters":17600,"station_id":"ce4bhbh2rcd13ifvqeo0","pricing_plan_id":"cebpf4jnsgd1na2vs0mg"},{"bike_id":"313bbed8-31cd-4778-8bec-89f0da621e3b","system_id":"levelo_inurba_marseille","lat":43.248,"lon":5.37442,"is_reserved":false,"is_disabled":false,"rental_uris":{"android":"levelo://app?vid=313bbed8-31cd-4778-8bec-89f0da621e3b","ios":"levelo://app?vid=313bbed8-31cd-4778-8bec-89f0da621e3b"},"vehicle_type_id":"4","last_reported":1784321391,"current_range_meters":37600,"station_id":"ce4bhgh2rcd13ifvqfb0","pricing_plan_id":"cebpf4jnsgd1na2vs0mg"},{"bike_id":"7604574c-06cb-407e-9e16-b7858411e1bc","system_id":"levelo_inurba_marseille","lat":43.27819,"lon":5.40748,"is_reserved":false,"is_disabled":true,"rental_uris":{"android":"levelo://app?vid=7604574c-06cb-407e-9e16-b7858411e1bc","ios":"levelo://app?vid=7604574c-06cb-407e-9e16-b7858411e1bc"},"vehicle_type_id":"4","last_reported":1784321391,"current_range_meters":20400,"station_id":"ce4bhnh2rcd13ifvqgtg","pricing_plan_id":"cebpf4jnsgd1na2vs0mg"},{"bike_id":"600d3649-4b6d-473c-a715-d27921e00684","system_id":"levelo_inurba_marseille","lat":43.23189,"lon":5.35561,"is_reserved":false,"is_disabled":false,"rental_uris":{"android":"levelo://app?vid=600d3649-4b6d-473c-a715-d27921e00684","ios":"levelo://app?vid=600d3649-4b6d-473c-a715-d27921e00684"},"vehicle_type_id":"4","last_reported":1784321391,"current_range_meters":24800,"station_id":"ce4bhu92rcd13ifvqi70","pricing_plan_id":"cebpf4jnsgd1na2vs0mg"},{"bike_id":"8601b829-59f8-4eab-bab2-2f8e891d8617","system_id":"levelo_inurba_marseille","lat":43.254993,"lon":5.376487,"is_reserved":false,"is_disabled":false,"rental_uris":{"android":"levelo://app?vid=8601b829-59f8-4eab-bab2-2f8e891d8617","ios":"levelo://app?vid=8601b829-59f8-4eab-bab2-2f8e891d8617"},"vehicle_type_id":"4","last_reported":1784321391,"current_range_meters":28400,"station_id":"ce4bhh12rcd13ifvqff0","pricing_plan_id":"cebpf4jnsgd1na2vs0mg"},{"bike_id":"a2a33bac-444f-4280-9557-d42e6c475c39","system_id":"levelo_inurba_marseille","lat":43.29575,"lon":5.36741,"is_reserved":false,"is_disabled":false,"rental_uris":{"android":"levelo://app?vid=a2a33bac-444f-4280-9557-d42e6c475c39","ios":"levelo://app?vid=a2a33bac-444f-4280-9557-d42e6c475c39"},"vehicle_type_id":"4","last_reported":1784321391,"current_range_meters":35200,"station_id":"","pricing_plan_id":"cebpf4jnsgd1na2vs0mg"},{"bike_id":"d1210815-3b6f-46d9-8562-5a9f90c2f696","system_id":"levelo_inurba_marseille","lat":43.29183,"lon":5.35804,"is_reserved":false,"is_disabled":true,"rental_uris":{"android":"levelo://app?vid=d1210815-3b6f-46d9-8562-5a9f90c2f696","ios":"levelo://app?vid=d1210815-3b6f-46d9-8562-5a9f90c2f696"},"vehicle_type_id":"4","last_reported":1784321391,"current_range_meters":9200,"station_id":"ce4bhb12rcd13ifvqel0","pricing_plan_id":"cebpf4jnsgd1na2vs0mg"},{"bike_id":"26a91fcb-e18f-4c83-9039-eb8c6882e94b","system_id":"levelo_inurba_marseille","lat":43.27159,"lon":5.36291,"is_reserved":false,"is_disabled":true,"rental_uris":{"android":"levelo://app?vid=26a91fcb-e18f-4c83-9039-eb8c6882e94b","ios":"levelo://app?vid=26a91fcb-e18f-4c83-9039-eb8c6882e94b"},"vehicle_type_id":"4","last_reported":1784321391,"current_range_meters":0,"station_id":"","pricing_plan_id":"cebpf4jnsgd1na2vs0mg"},{"bike_id":"e57fe0b0-3bf4-47ee-804e-9165e87b2929","system_id":"levelo_inurba_marseille","lat":43.29784,"lon":5.37108,"is_reserved":false,"is_disabled":false,"rental_uris":{"android":"levelo://app?vid=e57fe0b0-3bf4-47ee-804e-9165e87b2929","ios":"levelo://app?vid=e57fe0b0-3bf4-47ee-804e-9165e87b2929"},"vehicle_type_id":"4","last_reported":1784321391,"current_range_meters":39200,"station_id":"ce4bgop2rcd13ifvqc1g","pricing_plan_id":"cebpf4jnsgd1na2vs0mg"},{"bike_id":"625b633d-f8de-424b-ba0e-8c9213c1a102","system_id":"levelo_inurba_marseille","lat":43.29963,"lon":5.41322,"is_reserved":false,"is_disabled":false,"rental_uris":{"android":"levelo://app?vid=625b633d-f8de-424b-ba0e-8c9213c1a102","ios":"levelo://app?vid=625b633d-f8de-424b-ba0e-8c9213c1a102"},"vehicle_type_id":"4","last_reported":1784321391,"current_range_meters":36400,"station_id":"ce4bhp12rcd13ifvqh9g","pricing_plan_id":"cebpf4jnsgd1na2vs0mg"},{"bike_id":"08ece367-f2bf-4bfe-ad49-8f2ead69141b","system_id":"levelo_inurba_marseille","lat":43.27371,"lon":5.36257,"is_reserved":false,"is_disabled":false,"rental_uris":{"android":"levelo://app?vid=08ece367-f2bf-4bfe-ad49-8f2ead69141b","ios":"levelo://app?vid=08ece367-f2bf-4bfe-ad49-8f2ead69141b"},"vehicle_type_id":"4","last_reported":1784321391,"current_range_meters":30400,"station_id":"ce4bhbh2rcd13ifvqeo0","pricing_plan_id":"cebpf4jnsgd1na2vs0mg"},{"bike_id":"4f68d89f-2860-4fe4-aeef-ae7316f7c98e","system_id":"levelo_inurba_marseille","lat":43.28939,"lon":5.42822,"is_reserved":false,"is_disabled":false,"rental_uris":{"android":"levelo://app?vid=4f68d89f-2860-4fe4-aeef-ae7316f7c98e","ios":"levelo://app?vid=4f68d89f-2860-4fe4-aeef-ae7316f7c98e"},"vehicle_type_id":"4","last_reported":1784321391,"current_range_meters":24400,"station_id":"","pricing_plan_id":"cebpf4jnsgd1na2vs0mg"},{"bike_id":"579a2162-a323-43de-ac84-5392bfb6659b","system_id":"levelo_inurba_marseille","lat":43.323581,"lon":5.367507,"is_reserved":false,"is_disabled":false,"rental_uris":{"android":"levelo://app?vid=579a2162-a323-43de-ac84-5392bfb6659b","ios":"levelo://app?vid=579a2162-a323-43de-ac84-5392bfb6659b"},"vehicle_type_id":"4","last_reported":1784321391,"current_range_meters":3600,"station_id":"st_d6o2h0d0559c73evc1b0","pricing_plan_id":"cebpf4jnsgd1na2vs0mg"},{"bike_id":"35bd0f1d-508e-41f7-83fa-f3e805aab35e","system_id":"levelo_inurba_marseille","lat":43.30269,"lon":5.37723,"is_reserved":false,"is_disabled":true,"rental_uris":{"android":"levelo://app?vid=35bd0f1d-508e-41f7-83fa-f3e805aab35e","ios":"levelo://app?vid=35bd0f1d-508e-41f7-83fa-f3e805aab35e"},"vehicle_type_id":"4","last_reported":1784321391,"current_range_meters":11600,"station_id":"ce4bguh2rcd13ifvqcj0","pricing_plan_id":"cebpf4jnsgd1na2vs0mg"},{"bike_id":"d6bda731-d678-4d85-858b-965a4c047af8","system_id":"levelo_inurba_marseille","lat":43.30525,"lon":5.36559,"is_reserved":false,"is_disabled":false,"rental_uris":{"android":"levelo://app?vid=d6bda731-d678-4d85-858b-965a4c047af8","ios":"levelo://app?vid=d6bda731-d678-4d85-858b-965a4c047af8"},"vehicle_type_id":"4","last_reported":1784321391,"current_range_meters":34000,"station_id":"ce4bgs12rcd13ifvqcag","pricing_plan_id":"cebpf4jnsgd1na2vs0mg"},{"bike_id":"1c54de74-b651-4768-a095-de4663e92140","system_id":"levelo_inurba_marseille","lat":43.31365,"lon":5.38496,"is_reserved":false,"is_disabled":false,"rental_uris":{"android":"levelo://app?vid=1c54de74-b651-4768-a095-de4663e92140","ios":"levelo://app?vid=1c54de74-b651-4768-a095-de4663e92140"},"vehicle_type_id":"4","last_reported":1784321391,"current_range_meters":13600,"station_id":"ce4bgt92rcd13ifvqcf0","pricing_plan_id":"cebpf4jnsgd1na2vs0mg"},{"bike_id":"16d35d02-7447-43b0-ac6e-9b3ecf023a4a","system_id":"levelo_inurba_marseille","lat":43.26027,"lon":5.3755,"is_reserved":false,"is_disabled":false,"rental_uris":{"android":"levelo://app?vid=16d35d02-7447-43b0-ac6e-9b3ecf023a4a","ios":"levelo://app?vid=16d35d02-7447-43b0-ac6e-9b3ecf023a4a"},"vehicle_type_id":"4","last_reported":1784321391,"current_range_meters":24400,"station_id":"ce4bhgh2rcd13ifvqfa0","pricing_plan_id":"cebpf4jnsgd1na2vs0mg"},{"bike_id":"b9d135ef-7330-4add-9631-980f8ecf58af","system_id":"levelo_inurba_marseille","lat":43.26208,"lon":5.37441,"is_reserved":false,"is_disabled":false,"rental_uris":{"android":"levelo://app?vid=b9d135ef-7330-4add-9631-980f8ecf58af","ios":"levelo://app?vid=b9d135ef-7330-4add-9631-980f8ecf58af"},"vehicle_type_id":"4","last_reported":1784321391,"current_range_meters":7200,"station_id":"ce4bhgp2rcd13ifvqfc0","pricing_plan_id":"cebpf4jnsgd1na2vs0mg"},{"bike_id":"aa5d3c4c-9f33-4be5-be80-01a02d569199","system_id":"levelo_inurba_marseille","lat":43.26933,"lon":5.38931,"is_reserved":false,"is_disabled":true,"rental_uris":{"android":"levelo://app?vid=aa5d3c4c-9f33-4be5-be80-01a02d569199","ios":"levelo://app?vid=aa5d3c4c-9f33-4be5-be80-01a02d569199"},"vehicle_type_id":"4","last_reported":1784321391,"current_range_meters":34800,"station_id":"ce4bhhh2rcd13ifvqfl0","pricing_plan_id":"cebpf4jnsgd1na2vs0mg"},{"bike_id":"4161e6fd-155e-4643-8fdf-5bceb31024ec","system_id":"levelo_inurba_marseille","lat":43.30372,"lon":5.42499,"is_reserved":false,"is_disabled":false,"rental_uris":{"android":"levelo://app?vid=4161e6fd-155e-4643-8fdf-5bceb31024ec","ios":"levelo://app?vid=4161e6fd-155e-4643-8fdf-5bceb31024ec"},"vehicle_type_id":"4","last_reported":1784321391,"current_range_meters":38800,"station_id":"ce4bhoh2rcd13ifvqh6g","pricing_plan_id":"cebpf4jnsgd1na2vs0mg"},{"bike_id":"866086d3-1411-452e-bba5-6547ff2671ae","system_id":"levelo_inurba_marseille","lat":43.26329,"lon":5.37365,"is_reserved":false,"is_disabled":true,"rental_uris":{"android":"levelo://app?vid=866086d3-1411-452e-bba5-6547ff2671ae","ios":"levelo://app?vid=866086d3-1411-452e-bba5-6547ff2671ae"},"vehicle_type_id":"4","last_reported":1784321391,"current_range_meters":0,"station_id":"","pricing_plan_id":"cebpf4jnsgd1na2vs0mg"},{"bike_id":"098cb1b0-aa89-454f-9bc2-2c4ea2f0e0ee","system_id":"levelo_inurba_marseille","lat":43.31614,"lon":5.4057,"is_reserved":false,"is_disabled":false,"rental_uris":{"android":"levelo://app?vid=098cb1b0-aa89-454f-9bc2-2c4ea2f0e0ee","ios":"levelo://app?vid=098cb1b0-aa89-454f-9bc2-2c4ea2f0e0ee"},"vehicle_type_id":"4","last_reported":1784321391,"current_range_meters":18800,"station_id":"","pricing_plan_id":"cebpf4jnsgd1na2vs0mg"},{"bike_id":"3dd66783-1341-48c6-95a7-53772540b3cf","system_id":"levelo_inurba_marseille","lat":43.24526,"lon":5.38549,"is_reserved":false,"is_disabled":false,"rental_uris":{"android":"levelo://app?vid=3dd66783-1341-48c6-95a7-53772540b3cf","ios":"levelo://app?vid=3dd66783-1341-48c6-95a7-53772540b3cf"},"vehicle_type_id":"4","last_reported":1784321391,"current_range_meters":16400,"station_id":"","pricing_plan_id":"cebpf4jnsgd1na2vs0mg"},{"bike_id":"b999c4de-71e5-49f1-adc8-530bd4aa9637","system_id":"levelo_inurba_marseille","lat":43.21188,"lon":5.35075,"is_reserved":false,"is_disabled":false,"rental_uris":{"android":"levelo://app?vid=b999c4de-71e5-49f1-adc8-530bd4aa9637","ios":"levelo://app?vid=b999c4de-71e5-49f1-adc8-530bd4aa9637"},"vehicle_type_id":"4","last_reported":1784321391,"current_range_meters":39200,"station_id":"st_cvj6sg6p6f1abm77japg","pricing_plan_id":"cebpf4jnsgd1na2vs0mg"},{"bike_id":"f6a31af6-21e1-4d8a-9bfe-604b75d4fa00","system_id":"levelo_inurba_marseille","lat":43.26201,"lon":5.37444,"is_reserved":false,"is_disabled":false,"rental_uris":{"android":"levelo://app?vid=f6a31af6-21e1-4d8a-9bfe-604b75d4fa00","ios":"levelo://app?vid=f6a31af6-21e1-4d8a-9bfe-604b75d4fa00"},"vehicle_type_id":"4","last_reported":1784321391,"current_range_meters":39200,"station_id":"ce4bhgp2rcd13ifvqfc0","pricing_plan_id":"cebpf4jnsgd1na2vs0mg"},{"bike_id":"aeadc001-b838-45ac-ab10-da795bb8945b","system_id":"levelo_inurba_marseille","lat":43.30418,"lon":5.41293,"is_reserved":false,"is_disabled":false,"rental_uris":{"android":"levelo://app?vid=aeadc001-b838-45ac-ab10-da795bb8945b","ios":"levelo://app?vid=aeadc001-b838-45ac-ab10-da795bb8945b"},"vehicle_type_id":"4","last_reported":1784321391,"current_range_meters":20800,"station_id":"ce4bhop2rcd13ifvqh8g","pricing_plan_id":"cebpf4jnsgd1na2vs0mg"},