{"last_updated":1691438832,"ttl":30,"version":"2.2","data":{"bikes":[{"bike_id":"448a85c2-519a-4da3-b695-b0c15cb2dfd9","system_id":"levelo_inurba_marseille","lat":43.31341,"lon":5.367098,"is_reserved":false,"is_disabled":false,"rental_uris":{"android":"levelo://app?vid=448a85c2-519a-4da3-b695-b0c15cb2dfd9","ios":"levelo://app?vid=448a85c2-519a-4da3-b695-b0c15cb2dfd9"},"vehicle_type_id":"4","last_reported":1691438832,"current_range_meters":31200,"station_id":"ce4bgr92rcd13ifvqc6g","pricing_plan_id":"free"},{"bike_id":"e2f77778-1354-4c2a-878a-c81973f18ea3","system_id":"levelo_inurba_marseille","lat":43.312239,"lon":5.368562,"is_reserved":false,"is_disabled":false,"rental_uris":{"android":"levelo://app?vid=e2f77778-1354-4c2a-878a-c81973f18ea3","ios":"levelo://app?vid=e2f77778-1354-4c2a-878a-c81973f18ea3"},"vehicle_type_id":"4","last_reported":1691438832,"current_range_meters":4000,"station_id":"ce4bgl92rcd13ifvqbq0","pricing_plan_id":"free"},{"bike_id":"752a8739-f579-441d-b652-d8998a9f829a","system_id":"levelo_inurba_marseille","lat":43.309076,"lon":5.368465,"is_reserved":false,"is_disabled":false,"rental_uris":{"android":"levelo://app?vid=752a8739-f579-441d-b652-d8998a9f829a","ios":"levelo://app?vid=752a8739-f579-441d-b652-d8998a9f829a"},"vehicle_type_id":"4","last_reported":1691438832,"current_range_meters":7600,"station_id":"ce4bgn92rcd13ifvqbvg","pricing_plan_id":"free"},{"bike_id":"afddb6a9-17a6-4f27-81b1-5e460a574e7d","system_id":"levelo_inurba_marseille","lat":43.309076,"lon":5.368465,"is_reserved":false,"is_disabled":false,"rental_uris":{"android":"levelo://app?vid=afddb6a9-17a6-4f27-81b1-5e460a574e7d","ios":"levelo://app?vid=afddb6a9-17a6-4f27-81b1-5e460a574e7d"},"vehicle_type_id":"4","last_reported":1691438832,"current_range_meters":15200,"station_id":"ce4bgn92rcd13ifvqbvg","pricing_plan_id":"free"},{"bike_id":"cdedd3ab-ebf6-4ceb-83ae-7d03277197c7","system_id":"levelo_inurba_marseille","lat":43.309076,"lon":5.368465,"is_reserved":false,"is_disabled":false,"rental_uris":{"android":"levelo://app?vid=cdedd3ab-ebf6-4ceb-83ae-7d03277197c7","ios":"levelo://app?vid=cdedd3ab-ebf6-4ceb-83ae-7d03277197c7"},"vehicle_type_id":"4","last_reported":1691438832,"current_range_meters":29200,"station_id":"ce4bgn92rcd13ifvqbvg","pricing_plan_id":"free"},{"bike_id":"a1975e34-d95a-41fd-a679-0a5ffb8a2810","system_id":"levelo_inurba_marseille","lat":43.314811,"lon":5.373103,"is_reserved":false,"is_disabled":false,"rental_uris":{"android":"levelo://app?vid=a1975e34-d95a-41fd-a679-0a5ffb8a2810","ios":"levelo://app?vid=a1975e34-d95a-41fd-a679-0a5ffb8a2810"},"vehicle_type_id":"4","last_reported":1691438832,"current_range_meters":14000,"station_id":"ce4bgt12rcd13ifvqcd0","pricing_plan_id":"free"},{"bike_id":"0126e333-77d8-4132-814b-c1cdb91d449b","system_id":"levelo_inurba_marseille","lat":43.314811,"lon":5.373103,"is_reserved":false,"is_disabled":false,"rental_uris":{"android":"levelo://app?vid=0126e333-77d8-4132-814b-c1cdb91d449b","ios":"levelo://app?vid=0126e333-77d8-4132-814b-c1cdb91d449b"},"vehicle_type_id":"4","last_reported":1691438832,"current_range_meters":5200,"station_id":"ce4bgt12rcd13ifvqcd0","pricing_plan_id":"free"},{"bike_id":"d00f54f9-616c-4834-8e58-f6a13ac51ac5","system_id":"levelo_inurba_marseille","lat":43.314811,"lon":5.373103,"is_reserved":false,"is_disabled":false,"rental_uris":{"android":"levelo://app?vid=d00f54f9-616c-4834-8e58-f6a13ac51ac5","ios":"levelo://app?vid=d00f54f9-616c-4834-8e58-f6a13ac51ac5"},"vehicle_type_id":"4","last_reported":1691438832,"current_range_meters":20400,"station_id":"ce4bgt12rcd13ifvqcd0","pricing_plan_id":"free"},{"bike_id":"5e650110-993f-4eb7-9da3-a4e606fa2fa4","system_id":"levelo_inurba_marseille","lat":43.314811,"lon":5.373103,"is_reserved":false,"is_disabled":false,"rental_uris":{"android":"levelo://app?vid=5e650110-993f-4eb7-9da3-a4e606fa2fa4","ios":"levelo://app?vid=5e650110-993f-4eb7-9da3-a4e606fa2fa4"},"vehicle_type_id":"4","last_reported":1691438832,"current_range_meters":15600,"station_id":"ce4bgt12rcd13ifvqcd0","pricing_plan_id":"free"},{"bike_id":"9646594c-7770-4870-b0a0-215b6c31b525","system_id":"levelo_inurba_marseille","lat":43.314811,"lon":5.373103,"is_reserved":false,"is_disabled":false,"rental_uris":{"android":"levelo://app?vid=9646594c-7770-4870-b0a0-215b6c31b525","ios":"levelo://app?vid=9646594c-7770-4870-b0a0-215b6c31b525"},"vehicle_type_id":"4","last_reported":1691438832,"current_range_meters":24800,"station_id":"ce4bgt12rcd13ifvqcd0","pricing_plan_id":"free"},{"bike_id":"0806c453-9cb6-4434-8a9a-b63c158b5848","system_id":"levelo_inurba_marseille","lat":43.309039,"lon":5.371797,"is_reserved":false,"is_disabled":false,"rental_uris":{"android":"levelo://app?vid=0806c453-9cb6-4434-8a9a-b63c158b5848","ios":"levelo://app?vid=0806c453-9cb6-4434-8a9a-b63c158b5848"},"vehicle_type_id":"4","last_reported":1691438832,"current_range_meters":22000,"station_id":"ce4bguh2rcd13ifvqckg","pricing_plan_id":"free"},{"bike_id":"53435c77-6218-4ebc-817c-d7a81d6a46d4","system_id":"levelo_inurba_marseille","lat":43.305368,"lon":5.367343,"is_reserved":false,"is_disabled":false,"rental_uris":{"android":"levelo://app?vid=53435c77-6218-4ebc-817c-d7a81d6a46d4","ios":"levelo://app?vid=53435c77-6218-4ebc-817c-d7a81d6a46d4"},"vehicle_type_id":"4","last_reported":1691438832,"current_range_meters":4000,"station_id":"ce4bgrp2rcd13ifvqc9g","pricing_plan_id":"free"},{"bike_id":"6cf3198e-6fa7-4f01-a685-dc3ad79fcb8e","system_id":"levelo_inurba_marseille","lat":43.305368,"lon":5.367343,"is_reserved":false,"is_disabled":false,"rental_uris":{"android":"levelo://app?vid=6cf3198e-6fa7-4f01-a685-dc3ad79fcb8e","ios":"levelo://app?vid=6cf3198e-6fa7-4f01-a685-dc3ad79fcb8e"},"vehicle_type_id":"4","last_reported":1691438832,"current_range_meters":22400,"station_id":"ce4bgrp2rcd13ifvqc9g","pricing_plan_id":"free"},{"bike_id":"f14bb1e8-f937-41e8-b672-2b4767eaeca2","system_id":"levelo_inurba_marseille","lat":43.305989,"lon":5.37225,"is_reserved":false,"is_disabled":false,"rental_uris":{"android":"levelo://app?vid=f14bb1e8-f937-41e8-b672-2b4767eaeca2","ios":"levelo://app?vid=f14bb1e8-f937-41e8-b672-2b4767eaeca2"},"vehicle_type_id":"4","last_reported":1691438832,"current_range_meters":22800,"station_id":"ce4bgqh2rcd13ifvqc4g","pricing_plan_id":"free"},{"bike_id":"f20ea888-8740-440b-bfeb-8eb2a7c1f652","system_id":"levelo_inurba_marseille","lat":43.305989,"lon":5.37225,"is_reserved":false,"is_disabled":false,"rental_uris":{"android":"levelo://app?vid=f20ea888-8740-440b-bfeb-8eb2a7c1f652","ios":"levelo://app?vid=f20ea888-8740-440b-bfeb-8eb2a7c1f652"},"vehicle_type_id":"4","last_reported":1691438832,"current_range_meters":31200,"station_id":"ce4bgqh2rcd13ifvqc4g","pricing_plan_id":"free"},{"bike_id":"aac8ca63-b192-4a28-bf8d-d8303fd2c89d","system_id":"levelo_inurba_marseille","lat":43.30592,"lon":5.37208,"is_reserved":false,"is_disabled":false,"rental_uris":{"android":"levelo://app?vid=aac8ca63-b192-4a28-bf8d-d8303fd2c89d","ios":"levelo://app?vid=aac8ca63-b192-4a28-bf8d-d8303fd2c89d"},"vehicle_type_id":"4","last_reported":1691438832,"current_range_meters":13600,"station_id":"ce4bgqh2rcd13ifvqc4g","pricing_plan_id":"free"},{"bike_id":"9baf4104-23d3-4103-bc15-7b3744f71fc1","system_id":"levelo_inurba_marseille","lat":43.305989,"lon":5.37225,"is_reserved":false,"is_disabled":false,"rental_uris":{"android":"levelo://app?vid=9baf4104-23d3-4103-bc15-7b3744f71fc1","ios":"levelo://app?vid=9baf4104-23d3-4103-bc15-7b3744f71fc1"},"vehicle_type_id":"4","last_reported":1691438832,"current_range_meters":6800,"station_id":"ce4bgqh2rcd13ifvqc4g","pricing_plan_id":"free"},{"bike_id":"58135425-37f0-4cf9-a5c6-c597fc5b7186","system_id":"levelo_inurba_marseille","lat":43.305989,"lon":5.37225,"is_reserved":false,"is_disabled":false,"rental_uris":{"android":"levelo://app?vid=58135425-37f0-4cf9-a5c6-c597fc5b7186","ios":"levelo://app?vid=58135425-37f0-4cf9-a5c6-c597fc5b7186"},"vehicle_type_id":"4","last_reported":1691438832,"current_range_meters":6800,"station_id":"ce4bgqh2rcd13ifvqc4g","pricing_plan_id":"free"},{"bike_id":"8e0ebb76-4c51-405e-93e0-58552d650303","system_id":"levelo_inurba_marseille","lat":43.31115,"lon":5.37776,"is_reserved":false,"is_disabled":false,"rental_uris":{"android":"levelo://app?vid=8e0ebb76-4c51-405e-93e0-58552d650303","ios":"levelo://app?vid=8e0ebb76-4c51-405e-93e0-58552d650303"},"vehicle_type_id":"4","last_reported":1691438832,"current_range_meters":3600,"station_id":"ce4bgt92rcd13ifvqcg0","pricing_plan_id":"free"},{"bike_id":"2af576a1-7875-44ca-96d4-8fd23951666d","system_id":"levelo_inurba_marseille","lat":43.307945,"lon":5.376487,"is_reserved":false,"is_disabled":false,"rental_uris":{"android":"levelo://app?vid=2af576a1-7875-44ca-96d4-8fd23951666d","ios":"levelo://app?vid=2af576a1-7875-44ca-96d4-8fd23951666d"},"vehicle_type_id":"4","last_reported":1691438832,"current_range_meters":18800,"station_id":"ce4bgv92rcd13ifvqcq0","pricing_plan_id":"free"},{"bike_id":"36ea8287-97db-4eee-ac55-8ca09c6322ac","system_id":"levelo_inurba_marseille","lat":43.317075,"lon":5.377367,"is_reserved":false,"is_disabled":false,"rental_uris":{"android":"levelo://app?vid=36ea8287-97db-4eee-ac55-8ca09c6322ac","ios":"levelo://app?vid=36ea8287-97db-4eee-ac55-8ca09c6322ac"},"vehicle_type_id":"4","last_reported":1691438832,"current_range_meters":31200,"station_id":"ce4bgth2rcd13ifvqch0","pricing_plan_id":"free"},{"bike_id":"051ff64c-3830-4be8-b601-4a94295b573e","system_id":"levelo_inurba_marseille","lat":43.315289,"lon":5.380349,"is_reserved":false,"is_disabled":false,"rental_uris":{"android":"levelo://app?vid=051ff64c-3830-4be8-b601-4a94295b573e","ios":"levelo://app?vid=051ff64c-3830-4be8-b601-4a94295b573e"},"vehicle_type_id":"4","last_reported":1691438832,"current_range_meters":6400,"station_id":"ce4bhsp2rcd13ifvqi50","pricing_plan_id":"free"},{"bike_id":"69bc1ede-bea7-4f3c-ac64-7b738bb887a1","system_id":"levelo_inurba_marseille","lat":43.301939,"lon":5.366286,"is_reserved":false,"is_disabled":false,"rental_uris":{"android":"levelo://app?vid=69bc1ede-bea7-4f3c-ac64-7b738bb887a1","ios":"levelo://app?vid=69bc1ede-bea7-4f3c-ac64-7b738bb887a1"},"vehicle_type_id":"4","last_reported":1691438832,"current_range_meters":12000,"station_id":"ce4bgrh2rcd13ifvqc8g","pricing_plan_id":"free"},{"bike_id":"f6dfe85b-fa49-4255-a9af-0a965a61d92f","system_id":"levelo_inurba_marseille","lat":43.30189,"lon":5.36608,"is_reserved":false,"is_disabled":false,"rental_uris":{"android":"levelo://app?vid=f6dfe85b-fa49-4255-a9af-0a965a61d92f","ios":"levelo://app?vid=f6dfe85b-fa49-4255-a9af-0a965a61d92f"},"vehicle_type_id":"4","last_reported":1691438832,"current_range_meters":10400,"station_id":"ce4bgrh2rcd13ifvqc8g","pricing_plan_id":"free"},{"bike_id":"c2885d40-5a4c-4596-b0a7-5ac632cc200e","system_id":"levelo_inurba_marseille","lat":43.301939,"lon":5.366286,"is_reserved":false,"is_disabled":false,"rental_uris":{"android":"levelo://app?vid=c2885d40-5a4c-4596-b0a7-5ac632cc200e","ios":"levelo://app?vid=c2885d40-5a4c-4596-b0a7-5ac632cc200e"},"vehicle_type_id":"4","last_reported":1691438832,"current_range_meters":26400,"station_id":"ce4bgrh2rcd13ifvqc8g","pricing_plan_id":"free"},{"bike_id":"1a0527b8-be27-4bea-b624-5bbc0f156e07","system_id":"levelo_inurba_marseille","lat":43.304606,"lon":5.379026,"is_reserved":false,"is_disabled":false,"rental_uris":{"android":"levelo://app?vid=1a0527b8-be27-4bea-b624-5bbc0f156e07","ios":"levelo://app?vid=1a0527b8-be27-4bea-b624-5bbc0f156e07"},"vehicle_type_id":"4","last_reported":1691438832,"current_range_meters":28400,"station_id":"ce4bgup2rcd13ifvqcn0","pricing_plan_id":"free"},{"bike_id":"586a10d9-19d9-4fec-9eef-119441090278","system_id":"levelo_inurba_marseille","lat":43.30462,"lon":5.37901,"is_reserved":false,"is_disabled":false,"rental_uris":{"android":"levelo://app?vid=586a10d9-19d9-4fec-9eef-119441090278","ios":"levelo://app?vid=586a10d9-19d9-4fec-9eef-119441090278"},"vehicle_type_id":"4","last_reported":1691438832,"current_range_meters":27200,"station_id":"ce4bgup2rcd13ifvqcn0","pricing_plan_id":"free"},{"bike_id":"971ac98a-5566-4f44-b015-6a93a07d6844","system_id":"levelo_inurba_marseille","lat":43.304606,"lon":5.379026,"is_reserved":false,"is_disabled":false,"rental_uris":{"android":"levelo://app?vid=971ac98a-5566-4f44-b015-6a93a07d6844","ios":"levelo://app?vid=971ac98a-5566-4f44-b015-6a93a07d6844"},"vehicle_type_id":"4","last_reported":1691438832,"current_range_meters":25200,"station_id":"ce4bgup2rcd13ifvqcn0","pricing_plan_id":"free"},{"bike_id":"8d7bbbbc-8d5f-4bb8-908e-a626467dddb1","system_id":"levelo_inurba_marseille","lat":43.30463,"lon":5.37905,"is_reserved":false,"is_disabled":false,"rental_uris":{"android":"levelo://app?vid=8d7bbbbc-8d5f-4bb8-908e-a626467dddb1","ios":"levelo://app?vid=8d7bbbbc-8d5f-4bb8-908e-a626467dddb1"},"vehicle_type_id":"4","last_reported":1691438832,"current_range_meters":17600,"station_id":"ce4bgup2rcd13ifvqcn0","pricing_plan_id":"free"},{"bike_id":"b8ede3f2-d0dc-40b8-9848-8a39faa515b6","system_id":"levelo_inurba_marseille","lat":43.30456,"lon":5.379,"is_reserved":false,"is_disabled":false,"rental_uris":{"android":"levelo://app?vid=b8ede3f2-d0dc-40b8-9848-8a39faa515b6","ios":"levelo://app?vid=b8ede3f2-d0dc-40b8-9848-8a39faa515b6"},"vehicle_type_id":"4","last_reported":1691438832,"current_range_meters":25600,"station_id":"ce4bgup2rcd13ifvqcn0","pricing_plan_id":"free"},{"bike_id":"d419f294-51dd-45f4-aa58-c75d5a384cbe","system_id":"levelo_inurba_marseille","lat":43.304606,"lon":5.379026,"is_reserved":false,"is_disabled":false,"rental_uris":{"android":"levelo://app?vid=d419f294-51dd-45f4-aa58-c75d5a384cbe","ios":"levelo://app?vid=d419f294-51dd-45f4-aa58-c75d5a384cbe"},"vehicle_type_id":"4","last_reported":1691438832,"current_range_meters":31200,"station_id":"ce4bgup2rcd13ifvqcn0","pricing_plan_id":"free"},{"bike_id":"572f12a0-c8c0-4e61-a360-3f027a3edd3f","system_id":"levelo_inurba_marseille","lat":43.304606,"lon":5.379026,"is_reserved":false,"is_disabled":false,"rental_uris":{"android":"levelo://app?vid=572f12a0-c8c0-4e61-a360-3f027a3edd3f","ios":"levelo://app?vid=572f12a0-c8c0-4e61-a360-3f027a3edd3f"},"vehicle_type_id":"4","last_reported":1691438832,"current_range_meters":31200,"station_id":"ce4bgup2rcd13ifvqcn0","pricing_plan_id":"free"},{"bike_id":"476a2b08-de9e-49d0-983e-1fcf3440c49e","system_id":"levelo_inurba_marseille","lat":43.304606,"lon":5.379026,"is_reserved":false,"is_disabled":false,"rental_uris":{"android":"levelo://app?vid=476a2b08-de9e-49d0-983e-1fcf3440c49e","ios":"levelo://app?vid=476a2b08-de9e-49d0-983e-1fcf3440c49e"},"vehicle_type_id":"4","last_reported":1691438832,"current_range_meters":31200,"station_id":"ce4bgup2rcd13ifvqcn0","pricing_plan_id":"free"},{"bike_id":"c43ba353-0a2f-44b9-8014-86f2733dfe2b","system_id":"levelo_inurba_marseille","lat":43.304606,"lon":5.379026,"is_reserved":false,"is_disabled":false,"rental_uris":{"android":"levelo://app?vid=c43ba353-0a2f-44b9-8014-86f2733dfe2b","ios":"levelo://app?vid=c43ba353-0a2f-44b9-8014-86f2733dfe2b"},"vehicle_type_id":"4","last_reported":1691438832,"current_range_meters":31200,"station_id":"ce4bgup2rcd13ifvqcn0","pricing_plan_id":"free"},{"bike_id":"740d06a7-d638-4596-86b9-60d6f99ed13f","system_id":"levelo_inurba_marseille","lat":43.304606,"lon":5.379026,"is_reserved":false,"is_disabled":false,"rental_uris":{"android":"levelo://app?vid=740d06a7-d638-4596-86b9-60d6f99ed13f","ios":"levelo://app?vid=740d06a7-d638-4596-86b9-60d6f99ed13f"},"vehicle_type_id":"4","last_reported":1691438832,"current_range_meters":31200,"station_id":"ce4bgup2rcd13ifvqcn0","pricing_plan_id":"free"},{"bike_id":"7695d789-2b5e-4381-9232-2c60561813df","system_id":"levelo_inurba_marseille","lat":43.304606,"lon":5.379026,"is_reserved":false,"is_disabled":false,"rental_uris":{"android":"levelo://app?vid=7695d789-2b5e-4381-9232-2c60561813df","ios":"levelo://app?vid=7695d789-2b5e-4381-9232-2c60561813df"},"vehicle_type_id":"4","last_reported":1691438832,"current_range_meters":31200,"station_id":"ce4bgup2rcd13ifvqcn0","pricing_plan_id":"free"},{"bike_id":"05114b4d-21e0-4819-9961-93535e926e38","system_id":"levelo_inurba_marseille","lat":43.30275,"lon":5.37699,"is_reserved":false,"is_disabled":false,"rental_uris":{"android":"levelo://app?vid=05114b4d-21e0-4819-9961-93535e926e38","ios":"levelo://app?vid=05114b4d-21e0-4819-9961-93535e926e38"},"vehicle_type_id":"4","last_reported":1691438832,"current_range_meters":14400,"station_id":"ce4bguh2rcd13ifvqcj0","pricing_plan_id":"free"},{"bike_id":"4d5a4a90-fe3c-4d83-a040-54493ed59008","system_id":"levelo_inurba_marseille","lat":43.302784,"lon":5.377158,"is_reserved":false,"is_disabled":false,"rental_uris":{"android":"levelo://app?vid=4d5a4a90-fe3c-4d83-a040-54493ed59008","ios":"levelo://app?vid=4d5a4a90-fe3c-4d83-a040-54493ed59008"},"vehicle_type_id":"4","last_reported":1691438832,"current_range_meters":26800,"station_id":"ce4bguh2rcd13ifvqcj0","pricing_plan_id":"free"},{"bike_id":"899ae604-34c7-4b3b-91fb-f438d45314a6","system_id":"levelo_inurba_marseille","lat":43.31988,"lon":5.38155,"is_reserved":false,"is_disabled":false,"rental_uris":{"android":"levelo://app?vid=899ae604-34c7-4b3b-91fb-f438d45314a6","ios":"levelo://app?vid=899ae604-34c7-4b3b-91fb-f438d45314a6"},"vehicle_type_id":"4","last_reported":1691438832,"current_range_meters":20800,"station_id":"ce4bhr12rcd13ifvqhpg","pricing_plan_id":"free"},{"bike_id":"4134618c-e39f-48a3-a17c-c671ff2fe4a4","system_id":"levelo_inurba_marseille","lat":43.31987,"lon":5.38162,"is_reserved":false,"is_disabled":false,"rental_uris":{"android":"levelo://app?vid=4134618c-e39f-48a3-a17c-c671ff2fe4a4","ios":"levelo://app?vid=4134618c-e39f-48a3-a17c-c671ff2fe4a4"},"vehicle_type_id":"4","last_reported":1691438832,"current_range_meters":16000,"station_id":"ce4bhr12rcd13ifvqhpg","pricing_plan_id":"free"},{"bike_id":"b5d6deed-b0e5-48da-9ade-9bdbe700740e","system_id":"levelo_inurba_marseille","lat":43.31988,"lon":5.38165,"is_reserved":false,"is_disabled":false,"rental_uris":{"android":"levelo://app?vid=b5d6deed-b0e5-48da-9ade-9bdbe700740e","ios":"levelo://app?vid=b5d6deed-b0e5-48da-9ade-9bdbe700740e"},"vehicle_type_id":"4","last_reported":1691438832,"current_range_meters":800,"station_id":"ce4bhr12rcd13ifvqhpg","pricing_plan_id":"free"},{"bike_id":"c9ad1520-0eb1-418b-b127-93596450068c","system_id":"levelo_inurba_marseille","lat":43.313571,"lon":5.384829,"is_reserved":false,"is_disabled":false,"rental_uris":{"android":"levelo://app?vid=c9ad1520-0eb1-418b-b127-93596450068c","ios":"levelo://app?vid=c9ad1520-0eb1-418b-b127-93596450068c"},"vehicle_type_id":"4","last_reported":1691438832,"current_range_meters":31600,"station_id":"ce4bgt92rcd13ifvqcf0","pricing_plan_id":"free"},{"bike_id":"9c64988c-47fd-4907-b212-72f0f2fe5034","system_id":"levelo_inurba_marseille","lat":43.313571,"lon":5.384829,"is_reserved":false,"is_disabled":false,"rental_uris":{"android":"levelo://app?vid=9c64988c-47fd-4907-b212-72f0f2fe5034","ios":"levelo://app?vid=9c64988c-47fd-4907-b212-72f0f2fe5034"},"vehicle_type_id":"4","last_reported":1691438832,"current_range_meters":11200,"station_id":"ce4bgt92rcd13ifvqcf0","pricing_plan_id":"free"},{"bike_id":"7edfdc88-0848-42d5-986d-6e09a8bba759","system_id":"levelo_inurba_marseille","lat":43.313571,"lon":5.384829,"is_reserved":false,"is_disabled":false,"rental_uris":{"android":"levelo://app?vid=7edfdc88-0848-42d5-986d-6e09a8bba759","ios":"levelo://app?vid=7edfdc88-0848-42d5-986d-6e09a8bba759"},"vehicle_type_id":"4","last_reported":1691438832,"current_range_meters":14000,"station_id":"ce4bgt92rcd13ifvqcf0","pricing_plan_id":"free"},{"bike_id":"dbe73d29-6306-4ae6-be68-1ea7a9c8d327","system_id":"levelo_inurba_marseille","lat":43.313571,"lon":5.384829,"is_reserved":false,"is_disabled":false,"rental_uris":{"android":"levelo://app?vid=dbe73d29-6306-4ae6-be68-1ea7a9c8d327","ios":"levelo://app?vid=dbe73d29-6306-4ae6-be68-1ea7a9c8d327"},"vehicle_type_id":"4","last_reported":1691438832,"current_range_meters":11600,"station_id":"ce4bgt92rcd13ifvqcf0","pricing_plan_id":"free"},{"bike_id":"af43f709-6d5e-40d1-aa60-62ef32d5416d","system_id":"levelo_inurba_marseille","lat":43.29852,"lon":5.36288,"is_reserved":false,"is_disabled":false,"rental_uris":{"android":"levelo://app?vid=af43f709-6d5e-40d1-aa60-62ef32d5416d","ios":"levelo://app?vid=af43f709-6d5e-40d1-aa60-62ef32d5416d"},"vehicle_type_id":"4","last_reported":1691438832,"current_range_meters":28400,"station_id":"ce4bgpp2rcd13ifvqc3g","pricing_plan_id":"free"},{"bike_id":"b9454fa5-24f6-4d74-a57d-a1077fa5bdba","system_id":"levelo_inurba_marseille","lat":43.305364,"lon":5.384119,"is_reserved":false,"is_disabled":false,"rental_uris":{"android":"levelo://app?vid=b9454fa5-24f6-4d74-a57d-a1077fa5bdba","ios":"levelo://app?vid=b9454fa5-24f6-4d74-a57d-a1077fa5bdba"},"vehicle_type_id":"4","last_reported":1691438832,"current_range_meters":31200,"station_id":"ce4bgg92rcd13ifvqb30","pricing_plan_id":"free"},{"bike_id":"c1252a93-0647-4334-b81b-bd9a506c7e9c","system_id":"levelo_inurba_marseille","lat":43.30525,"lon":5.384181,"is_reserved":false,"is_disabled":false,"rental_uris":{"android":"levelo://app?vid=c1252a93-0647-4334-b81b-bd9a506c7e9c","ios":"levelo://app?vid=c1252a93-0647-4334-b81b-bd9a506c7e9c"},"vehicle_type_id":"4","last_reported":1691438832,"current_range_meters":21600,"station_id":"ce4bgg92rcd13ifvqb30","pricing_plan_id":"free"},{"bike_id":"095a3832-1b15-4b70-ab5f-9a3ead5c294c","system_id":"levelo_inurba_marseille","lat":43.299243,"lon":5.37481,"is_reserved":false,"is_disabled":false,"rental_uris":{"android":"levelo://app?vid=095a3832-1b15-4b70-ab5f-9a3ead5c294c","ios":"levelo://app?vid=095a3832-1b15-4b70-ab5f-9a3ead5c294c"},"vehicle_type_id":"4","last_reported":1691438832,"current_range_meters":8800,"station_id":"ce4bgjh2rcd13ifvqbg0","pricing_plan_id":"free"},{"bike_id":"da006d1a-502e-4def-8647-289f0bad0c46","system_id":"levelo_inurba_marseille","lat":43.305418,"lon":5.384339,"is_reserved":false,"is_disabled":false,"rental_uris":{"android":"levelo://app?vid=da006d1a-502e-4def-8647-289f0bad0c46","ios":"levelo://app?vid=da006d1a-502e-4def-8647-289f0bad0c46"},"vehicle_type_id":"4","last_reported":1691438832,"current_range_meters":21600,"station_id":"ce4bgg92rcd13ifvqb30","pricing_plan_id":"free"},{"bike_id":"9e0bdb6d-f3b3-42e8-bda0-014cd8bcf4bf","system_id":"levelo_inurba_marseille","lat":43.298433,"lon":5.362774,"is_reserved":false,"is_disabled":false,"rental_uris":{"android":"levelo://app?vid=9e0bdb6d-f3b3-42e8-bda0-014cd8bcf4bf","ios":"levelo://app?vid=9e0bdb6d-f3b3-42e8-bda0-014cd8bcf4bf"},"vehicle_type_id":"4","last_reported":1691438832,"current_range_meters":3600,"station_id":"ce4bgpp2rcd13ifvqc3g","pricing_plan_id":"free"},{"bike_id":"30537d43-af02-4a10-b928-7b9b8cf633d2","system_id":"levelo_inurba_marseille","lat":43.305265,"lon":5.384239,"is_reserved":false,"is_disabled":false,"rental_uris":{"android":"levelo://app?vid=30537d43-af02-4a10-b928-7b9b8cf633d2","ios":"levelo://app?vid=30537d43-af02-4a10-b928-7b9b8cf633d2"},"vehicle_type_id":"4","last_reported":1691438832,"current_range_meters":26400,"station_id":"ce4bgg92rcd13ifvqb30","pricing_plan_id":"free"},{"bike_id":"d117718d-76f7-475f-b7d1-57115e413665","system_id":"levelo_inurba_marseille","lat":43.30545,"lon":5.38439,"is_reserved":false,"is_disabled":false,"rental_uris":{"android":"levelo://app?vid=d117718d-76f7-475f-b7d1-57115e413665","ios":"levelo://app?vid=d117718d-76f7-475f-b7d1-57115e413665"},"vehicle_type_id":"4","last_reported":1691438832,"current_range_meters":16000,"station_id":"ce4bgg92rcd13ifvqb30","pricing_plan_id":"free"},{"bike_id":"51c44cc2-a3d1-46d8-9d5e-48b2e2717593","system_id":"levelo_inurba_marseille","lat":43.30527,"lon":5.38426,"is_reserved":false,"is_disabled":false,"rental_uris":{"android":"levelo://app?vid=51c44cc2-a3d1-46d8-9d5e-48b2e2717593","ios":"levelo://app?vid=51c44cc2-a3d1-46d8-9d5e-48b2e2717593"},"vehicle_type_id":"4","last_reported":1691438832,"current_range_meters":31200,"station_id":"ce4bgg92rcd13ifvqb30","pricing_plan_id":"free"},{"bike_id":"8b09be8b-8b46-49b3-8214-85d0e64647ce","system_id":"levelo_inurba_marseille","lat":43.299243,"lon":5.374807,"is_reserved":false,"is_disabled":false,"rental_uris":{"android":"levelo://app?vid=8b09be8b-8b46-49b3-8214-85d0e64647ce","ios":"levelo://app?vid=8b09be8b-8b46-49b3-8214-85d0e64647ce"},"vehicle_type_id":"4","last_reported":1691438832,"current_range_meters":21600,"station_id":"ce4bgjh2rcd13ifvqbg0","pricing_plan_id":"free"},{"bike_id":"5c33bc51-f275-44b0-a51c-08aa02f240f9","system_id":"levelo_inurba_marseille","lat":43.298433,"lon":5.362774,"is_reserved":false,"is_disabled":false,"rental_uris":{"android":"levelo://app?vid=5c33bc51-f275-44b0-a51c-08aa02f240f9","ios":"levelo://app?vid=5c33bc51-f275-44b0-a51c-08aa02f240f9"},"vehicle_type_id":"4","last_reported":1691438832,"current_range_meters":800,"station_id":"ce4bgpp2rcd13ifvqc3g","pricing_plan_id":"free"},{"bike_id":"659405a3-3331-4dc3-ac87-b6094423cf15","system_id":"levelo_inurba_marseille","lat":43.299243,"lon":5.37481,"is_reserved":false,"is_disabled":false,"rental_uris":{"android":"levelo://app?vid=659405a3-3331-4dc3-ac87-b6094423cf15","ios":"levelo://app?vid=659405a3-3331-4dc3-ac87-b6094423cf15"},"vehicle_type_id":"4","last_reported":1691438832,"current_range_meters":0,"station_id":"ce4bgjh2rcd13ifvqbg0","pricing_plan_id":"free"},{"bike_id":"ebe59431-f91f-4f60-850d-5b79b579a85c","system_id":"levelo_inurba_marseille","lat":43.311722,"lon":5.387247,"is_reserved":false,"is_disabled":false,"rental_uris":{"android":"levelo://app?vid=ebe59431-f91f-4f60-850d-5b79b579a85c","ios":"levelo://app?vid=ebe59431-f91f-4f60-850d-5b79b579a85c"},"vehicle_type_id":"4","last_reported":1691438832,"current_range_meters":0,"station_id":"ce4bgv12rcd13ifvqcp0","pricing_plan_id":"free"},{"bike_id":"86f8e320-e9a0-4c7b-8f0b-90e5cdb36dfc","system_id":"levelo_inurba_marseille","lat":43.299243,"lon":5.374807,"is_reserved":false,"is_disabled":false,"rental_uris":{"android":"levelo://app?vid=86f8e320-e9a0-4c7b-8f0b-90e5cdb36dfc","ios":"levelo://app?vid=86f8e320-e9a0-4c7b-8f0b-90e5cdb36dfc"},"vehicle_type_id":"4","last_reported":1691438832,"current_range_meters":1200,"station_id":"ce4bgjh2rcd13ifvqbg0","pricing_plan_id":"free"},{"bike_id":"72b32c80-9117-4b07-a6af-bcdb6501b8c2","system_id":"levelo_inurba_marseille","lat":43.311722,"lon":5.387247,"is_reserved":false,"is_disabled":false,"rental_uris":{"android":"levelo://app?vid=72b32c80-9117-4b07-a6af-bcdb6501b8c2","ios":"levelo://app?vid=72b32c80-9117-4b07-a6af-bcdb6501b8c2"},"vehicle_type_id":"4","last_reported":1691438832,"current_range_meters":18400,"station_id":"ce4bgv12rcd13ifvqcp0","pricing_plan_id":"free"},{"bike_id":"b80af8ef-c2e5-4ec4-be69-b3d600462496","system_id":"levelo_inurba_marseille","lat":43.299243,"lon":5.374807,"is_reserved":false,"is_disabled":false,"rental_uris":{"android":"levelo://app?vid=b80af8ef-c2e5-4ec4-be69-b3d600462496","ios":"levelo://app?vid=b80af8ef-c2e5-4ec4-be69-b3d600462496"},"vehicle_type_id":"4","last_reported":1691438832,"current_range_meters":15600,"station_id":"ce4bgjh2rcd13ifvqbg0","pricing_plan_id":"free"},{"bike_id":"456ff64b-fa8c-41b8-a4d5-6713a3121d35","system_id":"levelo_inurba_marseille","lat":43.311722,"lon":5.387247,"is_reserved":false,"is_disabled":false,"rental_uris":{"android":"levelo://app?vid=456ff64b-fa8c-41b8-a4d5-6713a3121d35","ios":"levelo://app?vid=456ff64b-fa8c-41b8-a4d5-6713a3121d35"},"vehicle_type_id":"4","last_reported":1691438832,"current_range_meters":9600,"station_id":"ce4bgv12rcd13ifvqcp0","pricing_plan_id":"free"},{"bike_id":"f4f472c4-652f-47e7-bc0e-08daf6b7e207","system_id":"levelo_inurba_marseille","lat":43.299243,"lon":5.37481,"is_reserved":false,"is_disabled":false,"rental_uris":{"android":"levelo://app?vid=f4f472c4-652f-47e7-bc0e-08daf6b7e207","ios":"levelo://app?vid=f4f472c4-652f-47e7-bc0e-08daf6b7e207"},"vehicle_type_id":"4","last_reported":1691438832,"current_range_meters":23600,"station_id":"ce4bgjh2rcd13ifvqbg0","pricing_plan_id":"free"},{"bike_id":"985132e7-ae1e-4af3-83b4-2b9cf46f823b","system_id":"levelo_inurba_marseille","lat":43.311722,"lon":5.387247,"is_reserved":false,"is_disabled":false,"rental_uris":{"android":"levelo://app?vid=985132e7-ae1e-4af3-83b4-2b9cf46f823b","ios":"levelo://app?vid=985132e7-ae1e-4af3-83b4-2b9cf46f823b"},"vehicle_type_id":"4","last_reported":1691438832,"current_range_meters":10400,"station_id":"ce4bgv12rcd13ifvqcp0","pricing_plan_id":"free"},{"bike_id":"dec88311-1e78-49f3-b5ef-130dcf0ec3b6","system_id":"levelo_inurba_marseille","lat":43.299243,"lon":5.37481,"is_reserved":false,"is_disabled":false,"rental_uris":{"android":"levelo://app?vid=dec88311-1e78-49f3-b5ef-130dcf0ec3b6","ios":"levelo://app?vid=dec88311-1e78-49f3-b5ef-130dcf0ec3b6"},"vehicle_type_id":"4","last_reported":1691438832,"current_range_meters":4000,"station_id":"ce4bgjh2rcd13ifvqbg0","pricing_plan_id":"free"},{"bike_id":"725384ea-6a1c-4684-a687-1c5081902a8b","system_id":"levelo_inurba_marseille","lat":43.297774,"lon":5.370875,"is_reserved":false,"is_disabled":false,"rental_uris":{"android":"levelo://app?vid=725384ea-6a1c-4684-a687-1c5081902a8b","ios":"levelo://app?vid=725384ea-6a1c-4684-a687-1c5081902a8b"},"vehicle_type_id":"4","last_reported":1691438832,"current_range_meters":24000,"station_id":"ce4bgop2rcd13ifvqc1g","pricing_plan_id":"free"},{"bike_id":"b441a352-ea26-492c-9fcb-9e0505e7eaae","system_id":"levelo_inurba_marseille","lat":43.32291,"lon":5.38262,"is_reserved":false,"is_disabled":false,"rental_uris":{"android":"levelo://app?vid=b441a352-ea26-492c-9fcb-9e0505e7eaae","ios":"levelo://app?vid=b441a352-ea26-492c-9fcb-9e0505e7eaae"},"vehicle_type_id":"4","last_reported":1691438832,"current_range_meters":21600,"station_id":"ce4bhr12rcd13ifvqhqg","pricing_plan_id":"free"},{"bike_id":"c0a997fc-d191-4391-8945-894d52a3da03","system_id":"levelo_inurba_marseille","lat":43.29772,"lon":5.37095,"is_reserved":false,"is_disabled":false,"rental_uris":{"android":"levelo://app?vid=c0a997fc-d191-4391-8945-894d52a3da03","ios":"levelo://app?vid=c0a997fc-d191-4391-8945-894d52a3da03"},"vehicle_type_id":"4","last_reported":1691438832,"current_range_meters":6000,"station_id":"ce4bgop2rcd13ifvqc1g","pricing_plan_id":"free"},{"bike_id":"15b2f289-e8da-4c30-a721-2cf15799ace1","system_id":"levelo_inurba_marseille","lat":43.32291,"lon":5.38268,"is_reserved":false,"is_disabled":false,"rental_uris":{"android":"levelo://app?vid=15b2f289-e8da-4c30-a721-2cf15799ace1","ios":"levelo://app?vid=15b2f289-e8da-4c30-a721-2cf15799ace1"},"vehicle_type_id":"4","last_reported":1691438832,"current_range_meters":13600,"station_id":"ce4bhr12rcd13ifvqhqg","pricing_plan_id":"free"},{"bike_id":"6f6eeb13-8534-45e9-90bb-5ce321a043c4","system_id":"levelo_inurba_marseille","lat":43.3282,"lon":5.36672,"is_reserved":false,"is_disabled":false,"rental_uris":{"android":"levelo://app?vid=6f6eeb13-8534-45e9-90bb-5ce321a043c4","ios":"levelo://app?vid=6f6eeb13-8534-45e9-90bb-5ce321a043c4"},"vehicle_type_id":"4","last_reported":1691438832,"current_range_meters":11200,"station_id":"ce4bhs92rcd13ifvqi0g","pricing_plan_id":"free"},{"bike_id":"bf4a0016-24b8-4a88-b88f-1624c511c71a","system_id":"levelo_inurba_marseille","lat":43.328371,"lon":5.366909,"is_reserved":false,"is_disabled":false,"rental_uris":{"android":"levelo://app?vid=bf4a0016-24b8-4a88-b88f-1624c511c71a","ios":"levelo://app?vid=bf4a0016-24b8-4a88-b88f-1624c511c71a"},"vehicle_type_id":"4","last_reported":1691438832,"current_range_meters":29200,"station_id":"ce4bhs92rcd13ifvqi0g","pricing_plan_id":"free"},{"bike_id":"cd0c2cfa-6552-40fd-b545-a8ec53e46241","system_id":"levelo_inurba_marseille","lat":43.32824,"lon":5.36688,"is_reserved":false,"is_disabled":false,"rental_uris":{"android":"levelo://app?vid=cd0c2cfa-6552-40fd-b545-a8ec53e46241","ios":"levelo://app?vid=cd0c2cfa-6552-40fd-b545-a8ec53e46241"},"vehicle_type_id":"4","last_reported":1691438832,"current_range_meters":20400,"station_id":"ce4bhs92rcd13ifvqi0g","pricing_plan_id":"free"},{"bike_id":"b903a53c-959d-44ad-9c03-1aaac919aac3","system_id":"levelo_inurba_marseille","lat":43.32824,"lon":5.36673,"is_reserved":false,"is_disabled":false,"rental_uris":{"android":"levelo://app?vid=b903a53c-959d-44ad-9c03-1aaac919aac3","ios":"levelo://app?vid=b903a53c-959d-44ad-9c03-1aaac919aac3"},"vehicle_type_id":"4","last_reported":1691438832,"current_range_meters":0,"station_id":"ce4bhs92rcd13ifvqi0g","pricing_plan_id":"free"},{"bike_id":"9fd7bfd1-6f30-484a-93d7-e323269d32c7","system_id":"levelo_inurba_marseille","lat":43.32826,"lon":5.36671,"is_reserved":false,"is_disabled":false,"rental_uris":{"android":"levelo://app?vid=9fd7bfd1-6f30-484a-93d7-e323269d32c7","ios":"levelo://app?vid=9fd7bfd1-6f30-484a-93d7-e323269d32c7"},"vehicle_type_id":"4","last_reported":1691438832,"current_range_meters":23200,"station_id":"ce4bhs92rcd13ifvqi0g","pricing_plan_id":"free"},{"bike_id":"9aacb598-355c-442f-af25-c93db45947e6","system_id":"levelo_inurba_marseille","lat":43.32827,"lon":5.36687,"is_reserved":false,"is_disabled":false,"rental_uris":{"android":"levelo://app?vid=9aacb598-355c-442f-af25-c93db45947e6","ios":"levelo://app?vid=9aacb598-355c-442f-af25-c93db45947e6"},"vehicle_type_id":"4","last_reported":1691438832,"current_range_meters":0,"station_id":"ce4bhs92rcd13ifvqi0g","pricing_plan_id":"free"},{"bike_id":"97afdb01-5eea-4486-8c30-3859e0392bf5","system_id":"levelo_inurba_marseille","lat":43.32828,"lon":5.36683,"is_reserved":false,"is_disabled":false,"rental_uris":{"android":"levelo://app?vid=97afdb01-5eea-4486-8c30-3859e0392bf5","ios":"levelo://app?vid=97afdb01-5eea-4486-8c30-3859e0392bf5"},"vehicle_type_id":"4","last_reported":1691438832,"current_range_meters":1600,"station_id":"ce4bhs92rcd13ifvqi0g","pricing_plan_id":"free"},{"bike_id":"5836a1e4-4588-49af-9855-adde616cd7f7","system_id":"levelo_inurba_marseille","lat":43.32828,"lon":5.36671,"is_reserved":false,"is_disabled":false,"rental_uris":{"android":"levelo://app?vid=5836a1e4-4588-49af-9855-adde616cd7f7","ios":"levelo://app?vid=5836a1e4-4588-49af-9855-adde616cd7f7"},"vehicle_type_id":"4","last_reported":1691438832,"current_range_meters":13600,"station_id":"ce4bhs92rcd13ifvqi0g","pricing_plan_id":"free"},{"bike_id":"5598ba69-7d08-42d1-9376-d503db4ba6c0","system_id":"levelo_inurba_marseille","lat":43.328371,"lon":5.366909,"is_reserved":false,"is_disabled":false,"rental_uris":{"android":"levelo://app?vid=5598ba69-7d08-42d1-9376-d503db4ba6c0","ios":"levelo://app?vid=5598ba69-7d08-42d1-9376-d503db4ba6c0"},"vehicle_type_id":"4","last_reported":1691438832,"current_range_meters":28400,"station_id":"ce4bhs92rcd13ifvqi0g","pricing_plan_id":"free"},{"bike_id":"dd789220-e7b5-42c1-b9dc-dc4243148021","system_id":"levelo_inurba_marseille","lat":43.297163,"lon":5.365866,"is_reserved":false,"is_disabled":false,"rental_uris":{"android":"levelo://app?vid=dd789220-e7b5-42c1-b9dc-dc4243148021","ios":"levelo://app?vid=dd789220-e7b5-42c1-b9dc-dc4243148021"},"vehicle_type_id":"4","last_reported":1691438832,"current_range_meters":31200,"station_id":"ce4bgn12rcd13ifvqbt0","pricing_plan_id":"free"},{"bike_id":"4c80f664-1262-439d-b3ba-7d62298668bf","system_id":"levelo_inurba_marseille","lat":43.29619,"lon":5.37154,"is_reserved":false,"is_disabled":false,"rental_uris":{"android":"levelo://app?vid=4c80f664-1262-439d-b3ba-7d62298668bf","ios":"levelo://app?vid=4c80f664-1262-439d-b3ba-7d62298668bf"},"vehicle_type_id":"4","last_reported":1691438832,"current_range_meters":19600,"station_id":"","pricing_plan_id":"free"},{"bike_id":"16efe26a-538a-4274-aa38-15c7b2a7a98c","system_id":"levelo_inurba_marseille","lat":43.296921,"lon":5.376579,"is_reserved":false,"is_disabled":false,"rental_uris":{"android":"levelo://app?vid=16efe26a-538a-4274-aa38-15c7b2a7a98c","ios":"levelo://app?vid=16efe26a-538a-4274-aa38-15c7b2a7a98c"},"vehicle_type_id":"4","last_reported":1691438832,"current_range_meters":6000,"station_id":"ce4bgkh2rcd13ifvqbl0","pricing_plan_id":"free"},{"bike_id":"8177a93c-946f-4b7d-814e-d53dcf6375f3","system_id":"levelo_inurba_marseille","lat":43.296935,"lon":5.376544,"is_reserved":false,"is_disabled":false,"rental_uris":{"android":"levelo://app?vid=8177a93c-946f-4b7d-814e-d53dcf6375f3","ios":"levelo://app?vid=8177a93c-946f-4b7d-814e-d53dcf6375f3"},"vehicle_type_id":"4","last_reported":1691438832,"current_range_meters":27200,"station_id":"ce4bgkh2rcd13ifvqbl0","pricing_plan_id":"free"},{"bike_id":"0b51faab-9b2a-4341-a3d7-84a7018d85e4","system_id":"levelo_inurba_marseille","lat":43.29909,"lon":5.38151,"is_reserved":false,"is_disabled":false,"rental_uris":{"android":"levelo://app?vid=0b51faab-9b2a-4341-a3d7-84a7018d85e4","ios":"levelo://app?vid=0b51faab-9b2a-4341-a3d7-84a7018d85e4"},"vehicle_type_id":"4","last_reported":1691438832,"current_range_meters":24000,"station_id":"","pricing_plan_id":"free"},{"bike_id":"4841df93-95f1-4e9e-8d5a-1658d56ad4e7","system_id":"levelo_inurba_marseille","lat":43.296921,"lon":5.376579,"is_reserved":false,"is_disabled":false,"rental_uris":{"android":"levelo://app?vid=4841df93-95f1-4e9e-8d5a-1658d56ad4e7","ios":"levelo://app?vid=4841df93-95f1-4e9e-8d5a-1658d56ad4e7"},"vehicle_type_id":"4","last_reported":1691438832,"current_range_meters":21600,"station_id":"ce4bgkh2rcd13ifvqbl0","pricing_plan_id":"free"},{"bike_id":"b5171e39-9306-4c94-9359-95c1488e074c","system_id":"levelo_inurba_marseille","lat":43.296935,"lon":5.376544,"is_reserved":false,"is_disabled":false,"rental_uris":{"android":"levelo://app?vid=b5171e39-9306-4c94-9359-95c1488e074c","ios":"levelo://app?vid=b5171e39-9306-4c94-9359-95c1488e074c"},"vehicle_type_id":"4","last_reported":1691438832,"current_range_meters":18400,"station_id":"ce4bgkh2rcd13ifvqbl0","pricing_plan_id":"free"},{"bike_id":"cb5101c1-035e-4273-85ce-f8cdd5ead622","system_id":"levelo_inurba_marseille","lat":43.317557,"lon":5.390173,"is_reserved":false,"is_disabled":false,"rental_uris":{"android":"levelo://app?vid=cb5101c1-035e-4273-85ce-f8cdd5ead622","ios":"levelo://app?vid=cb5101c1-035e-4273-85ce-f8cdd5ead622"},"vehicle_type_id":"4","last_reported":1691438832,"current_range_meters":11200,"station_id":"ce4bhqp2rcd13ifvqhng","pricing_plan_id":"free"},{"bike_id":"a76e823f-9024-4be6-835c-30a284d10f19","system_id":"levelo_inurba_marseille","lat":43.317557,"lon":5.390173,"is_reserved":false,"is_disabled":false,"rental_uris":{"android":"levelo://app?vid=a76e823f-9024-4be6-835c-30a284d10f19","ios":"levelo://app?vid=a76e823f-9024-4be6-835c-30a284d10f19"},"vehicle_type_id":"4","last_reported":1691438832,"current_range_meters":30800,"station_id":"ce4bhqp2rcd13ifvqhng","pricing_plan_id":"free"},{"bike_id":"62b70186-0bc9-4671-a59a-b1894a6a3098","system_id":"levelo_inurba_marseille","lat":43.317557,"lon":5.390173,"is_reserved":false,"is_disabled":false,"rental_uris":{"android":"levelo://app?vid=62b70186-0bc9-4671-a59a-b1894a6a3098","ios":"levelo://app?vid=62b70186-0bc9-4671-a59a-b1894a6a3098"},"vehicle_type_id":"4","last_reported":1691438832,"current_range_meters":19600,"station_id":"ce4bhqp2rcd13ifvqhng","pricing_plan_id":"free"},{"bike_id":"6ee87646-acc7-41c2-94bf-cd3dd8f722dc","system_id":"levelo_inurba_marseille","lat":43.298037,"lon":5.381066,"is_reserved":false,"is_disabled":false,"rental_uris":{"android":"levelo://app?vid=6ee87646-acc7-41c2-94bf-cd3dd8f722dc","ios":"levelo://app?vid=6ee87646-acc7-41c2-94bf-cd3dd8f722dc"},"vehicle_type_id":"4","last_reported":1691438832,"current_range_meters":2400,"station_id":"ce4bgip2rcd13ifvqbb0","pricing_plan_id":"free"},{"bike_id":"f4b575d2-050d-4b3c-be0f-428af070f4d2","system_id":"levelo_inurba_marseille","lat":43.298037,"lon":5.381066,"is_reserved":false,"is_disabled":false,"rental_uris":{"android":"levelo://app?vid=f4b575d2-050d-4b3c-be0f-428af070f4d2","ios":"levelo://app?vid=f4b575d2-050d-4b3c-be0f-428af070f4d2"},"vehicle_type_id":"4","last_reported":1691438832,"current_range_meters":18400,"station_id":"ce4bgip2rcd13ifvqbb0","pricing_plan_id":"free"},{"bike_id":"0c4e241c-fb6d-481f-8f6d-2b37593a408c","system_id":"levelo_inurba_marseille","lat":43.295748,"lon":5.37522,"is_reserved":false,"is_disabled":false,"rental_uris":{"android":"levelo://app?vid=0c4e241c-fb6d-481f-8f6d-2b37593a408c","ios":"levelo://app?vid=0c4e241c-fb6d-481f-8f6d-2b37593a408c"},"vehicle_type_id":"4","last_reported":1691438832,"current_range_meters":12400,"station_id":"ce4bgh92rcd13ifvqb50","pricing_plan_id":"free"},{"bike_id":"97068503-3147-49fa-8bc8-b16bfab98d20","system_id":"levelo_inurba_marseille","lat":43.30429,"lon":5.38893,"is_reserved":false,"is_disabled":false,"rental_uris":{"android":"levelo://app?vid=97068503-3147-49fa-8bc8-b16bfab98d20","ios":"levelo://app?vid=97068503-3147-49fa-8bc8-b16bfab98d20"},"vehicle_type_id":"4","last_reported":1691438832,"current_range_meters":10000,"station_id":"ce4bgk12rcd13ifvqbi0","pricing_plan_id":"free"},{"bike_id":"a4df99ce-0488-49dd-a888-94686f562e88","system_id":"levelo_inurba_marseille","lat":43.295748,"lon":5.37522,"is_reserved":false,"is_disabled":false,"rental_uris":{"android":"levelo://app?vid=a4df99ce-0488-49dd-a888-94686f562e88","ios":"levelo://app?vid=a4df99ce-0488-49dd-a888-94686f562e88"},"vehicle_type_id":"4","last_reported":1691438832,"current_range_meters":31200,"station_id":"ce4bgh92rcd13ifvqb50","pricing_plan_id":"free"},{"bike_id":"d4eb850e-b39d-4a72-9b70-92f9bb270010","system_id":"levelo_inurba_marseille","lat":43.296277,"lon":5.377108,"is_reserved":false,"is_disabled":false,"rental_uris":{"android":"levelo://app?vid=d4eb850e-b39d-4a72-9b70-92f9bb270010","ios":"levelo://app?vid=d4eb850e-b39d-4a72-9b70-92f9bb270010"},"vehicle_type_id":"4","last_reported":1691438832,"current_range_meters":800,"station_id":"ce4bgi92rcd13ifvqb90","pricing_plan_id":"free"},{"bike_id":"4844c962-6790-4445-954c-644484506ded","system_id":"levelo_inurba_marseille","lat":43.296263,"lon":5.377094,"is_reserved":false,"is_disabled":false,"rental_uris":{"android":"levelo://app?vid=4844c962-6790-4445-954c-644484506ded","ios":"levelo://app?vid=4844c962-6790-4445-954c-644484506ded"},"vehicle_type_id":"4","last_reported":1691438832,"current_range_meters":13600,"station_id":"ce4bgi92rcd13ifvqb90","pricing_plan_id":"free"},{"bike_id":"9cdf6aea-b5f8-4567-89ab-6f20735fedff","system_id":"levelo_inurba_marseille","lat":43.304274,"lon":5.388873,"is_reserved":false,"is_disabled":false,"rental_uris":{"android":"levelo://app?vid=9cdf6aea-b5f8-4567-89ab-6f20735fedff","ios":"levelo://app?vid=9cdf6aea-b5f8-4567-89ab-6f20735fedff"},"vehicle_type_id":"4","last_reported":1691438832,"current_range_meters":13600,"station_id":"ce4bgk12rcd13ifvqbi0","pricing_plan_id":"free"},{"bike_id":"1ecb0ccc-a24e-4a34-b0e9-1e8653141d44","system_id":"levelo_inurba_marseille","lat":43.295279,"lon":5.375048,"is_reserved":false,"is_disabled":false,"rental_uris":{"android":"levelo://app?vid=1ecb0ccc-a24e-4a34-b0e9-1e8653141d44","ios":"levelo://app?vid=1ecb0ccc-a24e-4a34-b0e9-1e8653141d44"},"vehicle_type_id":"4","last_reported":1691438832,"current_range_meters":12400,"station_id":"ce4bgkp2rcd13ifvqbmg","pricing_plan_id":"free"},{"bike_id":"b7afd04e-5aa4-4277-ba70-acb64668719e","system_id":"levelo_inurba_marseille","lat":43.296263,"lon":5.377094,"is_reserved":false,"is_disabled":false,"rental_uris":{"android":"levelo://app?vid=b7afd04e-5aa4-4277-ba70-acb64668719e","ios":"levelo://app?vid=b7afd04e-5aa4-4277-ba70-acb64668719e"},"vehicle_type_id":"4","last_reported":1691438832,"current_range_meters":14000,"station_id":"ce4bgi92rcd13ifvqb90","pricing_plan_id":"free"},{"bike_id":"85c7fe36-28e8-4c2e-a4c2-b41d75de512f","system_id":"levelo_inurba_marseille","lat":43.296277,"lon":5.377108,"is_reserved":false,"is_disabled":false,"rental_uris":{"android":"levelo://app?vid=85c7fe36-28e8-4c2e-a4c2-b41d75de512f","ios":"levelo://app?vid=85c7fe36-28e8-4c2e-a4c2-b41d75de512f"},"vehicle_type_id":"4","last_reported":1691438832,"current_range_meters":22000,"station_id":"ce4bgi92rcd13ifvqb90","pricing_plan_id":"free"},{"bike_id":"6db6fa51-cc36-4edd-b523-7789a481af42","system_id":"levelo_inurba_marseille","lat":43.295279,"lon":5.375048,"is_reserved":false,"is_disabled":false,"rental_uris":{"android":"levelo://app?vid=6db6fa51-cc36-4edd-b523-7789a481af42","ios":"levelo://app?vid=6db6fa51-cc36-4edd-b523-7789a481af42"},"vehicle_type_id":"4","last_reported":1691438832,"current_range_meters":27200,"station_id":"ce4bgkp2rcd13ifvqbmg","pricing_plan_id":"free"},{"bike_id":"1c3aa476-0642-4195-a10b-4acbe45273b0","system_id":"levelo_inurba_marseille","lat":43.29535,"lon":5.37508,"is_reserved":false,"is_disabled":false,"rental_uris":{"android":"levelo://app?vid=1c3aa476-0642-4195-a10b-4acbe45273b0","ios":"levelo://app?vid=1c3aa476-0642-4195-a10b-4acbe45273b0"},"vehicle_type_id":"4","last_reported":1691438832,"current_range_meters":12800,"station_id":"ce4bgkp2rcd13ifvqbmg","pricing_plan_id":"free"},{"bike_id":"d479699b-9687-4767-ae2d-49b51c904a52","system_id":"levelo_inurba_marseille","lat":43.299707,"lon":5.384859,"is_reserved":false,"is_disabled":false,"rental_uris":{"android":"levelo://app?vid=d479699b-9687-4767-ae2d-49b51c904a52","ios":"levelo://app?vid=d479699b-9687-4767-ae2d-49b51c904a52"},"vehicle_type_id":"4","last_reported":1691438832,"current_range_meters":28800,"station_id":"ce4bgj92rcd13ifvqbd0","pricing_plan_id":"free"},{"bike_id":"74598c16-b5bc-40ca-a49f-10ed89e2d441","system_id":"levelo_inurba_marseille","lat":43.29506,"lon":5.37588,"is_reserved":false,"is_disabled":false,"rental_uris":{"android":"levelo://app?vid=74598c16-b5bc-40ca-a49f-10ed89e2d441","ios":"levelo://app?vid=74598c16-b5bc-40ca-a49f-10ed89e2d441"},"vehicle_type_id":"4","last_reported":1691438832,"current_range_meters":2400,"station_id":"","pricing_plan_id":"free"},{"bike_id":"0385959f-e4a4-4b53-a83f-b81824876402","system_id":"levelo_inurba_marseille","lat":43.32364,"lon":5.38876,"is_reserved":false,"is_disabled":false,"rental_uris":{"android":"levelo://app?vid=0385959f-e4a4-4b53-a83f-b81824876402","ios":"levelo://app?vid=0385959f-e4a4-4b53-a83f-b81824876402"},"vehicle_type_id":"4","last_reported":1691438832,"current_range_meters":29600,"station_id":"ce4bhqp2rcd13ifvqhog","pricing_plan_id":"free"},{"bike_id":"c075b882-9087-4faa-9754-b6047ec5ba58","system_id":"levelo_inurba_marseille","lat":43.32362,"lon":5.38879,"is_reserved":false,"is_disabled":false,"rental_uris":{"android":"levelo://app?vid=c075b882-9087-4faa-9754-b6047ec5ba58","ios":"levelo://app?vid=c075b882-9087-4faa-9754-b6047ec5ba58"},"vehicle_type_id":"4","last_reported":1691438832,"current_range_meters":27200,"station_id":"ce4bhqp2rcd13ifvqhog","pricing_plan_id":"free"},{"bike_id":"fb2f99da-6a0f-4a13-8a6e-b45d8292be21","system_id":"levelo_inurba_marseille","lat":43.32366,"lon":5.3888,"is_reserved":false,"is_disabled":false,"rental_uris":{"android":"levelo://app?vid=fb2f99da-6a0f-4a13-8a6e-b45d8292be21","ios":"levelo://app?vid=fb2f99da-6a0f-4a13-8a6e-b45d8292be21"},"vehicle_type_id":"4","last_reported":1691438832,"current_range_meters":800,"station_id":"ce4bhqp2rcd13ifvqhog","pricing_plan_id":"free"},{"bike_id":"6ff09929-0008-4ced-b3a0-1f34d091ae86","system_id":"levelo_inurba_marseille","lat":43.32363,"lon":5.3889,"is_reserved":false,"is_disabled":false,"rental_uris":{"android":"levelo://app?vid=6ff09929-0008-4ced-b3a0-1f34d091ae86","ios":"levelo://app?vid=6ff09929-0008-4ced-b3a0-1f34d091ae86"},"vehicle_type_id":"4","last_reported":1691438832,"current_range_meters":20400,"station_id":"ce4bhqp2rcd13ifvqhog","pricing_plan_id":"free"},{"bike_id":"c96ba745-44db-4d31-8cdc-49ec45156003","system_id":"levelo_inurba_marseille","lat":43.29601,"lon":5.381084,"is_reserved":false,"is_disabled":false,"rental_uris":{"android":"levelo://app?vid=c96ba745-44db-4d31-8cdc-49ec45156003","ios":"levelo://app?vid=c96ba745-44db-4d31-8cdc-49ec45156003"},"vehicle_type_id":"4","last_reported":1691438832,"current_range_meters":5200,"station_id":"ce4bgl12rcd13ifvqbo0","pricing_plan_id":"free"},{"bike_id":"dbe406a0-e31d-4174-932b-0d8d584d17c2","system_id":"levelo_inurba_marseille","lat":43.292749,"lon":5.368398,"is_reserved":false,"is_disabled":false,"rental_uris":{"android":"levelo://app?vid=dbe406a0-e31d-4174-932b-0d8d584d17c2","ios":"levelo://app?vid=dbe406a0-e31d-4174-932b-0d8d584d17c2"},"vehicle_type_id":"4","last_reported":1691438832,"current_range_meters":31200,"station_id":"ce4bhbp2rcd13ifvqesg","pricing_plan_id":"free"},{"bike_id":"de7af1c3-1b86-4fe1-aae5-65899a3c7e45","system_id":"levelo_inurba_marseille","lat":43.293009,"lon":5.374584,"is_reserved":false,"is_disabled":false,"rental_uris":{"android":"levelo://app?vid=de7af1c3-1b86-4fe1-aae5-65899a3c7e45","ios":"levelo://app?vid=de7af1c3-1b86-4fe1-aae5-65899a3c7e45"},"vehicle_type_id":"4","last_reported":1691438832,"current_range_meters":0,"station_id":"ce4bgi12rcd13ifvqb70","pricing_plan_id":"free"},{"bike_id":"c6ae99e9-4cd7-43c6-911d-d54214216806","system_id":"levelo_inurba_marseille","lat":43.293009,"lon":5.374584,"is_reserved":false,"is_disabled":false,"rental_uris":{"android":"levelo://app?vid=c6ae99e9-4cd7-43c6-911d-d54214216806","ios":"levelo://app?vid=c6ae99e9-4cd7-43c6-911d-d54214216806"},"vehicle_type_id":"4","last_reported":1691438832,"current_range_meters":21600,"station_id":"ce4bgi12rcd13ifvqb70","pricing_plan_id":"free"},{"bike_id":"bb6b89fc-e4ce-46d2-8d45-17c2877cf5a6","system_id":"levelo_inurba_marseille","lat":43.293009,"lon":5.374584,"is_reserved":false,"is_disabled":false,"rental_uris":{"android":"levelo://app?vid=bb6b89fc-e4ce-46d2-8d45-17c2877cf5a6","ios":"levelo://app?vid=bb6b89fc-e4ce-46d2-8d45-17c2877cf5a6"},"vehicle_type_id":"4","last_reported":1691438832,"current_range_meters":29200,"station_id":"ce4bgi12rcd13ifvqb70","pricing_plan_id":"free"},{"bike_id":"5eeef299-e8b4-47d9-99bd-bb5bf62a70b1","system_id":"levelo_inurba_marseille","lat":43.293009,"lon":5.374584,"is_reserved":false,"is_disabled":false,"rental_uris":{"android":"levelo://app?vid=5eeef299-e8b4-47d9-99bd-bb5bf62a70b1","ios":"levelo://app?vid=5eeef299-e8b4-47d9-99bd-bb5bf62a70b1"},"vehicle_type_id":"4","last_reported":1691438832,"current_range_meters":27200,"station_id":"ce4bgi12rcd13ifvqb70","pricing_plan_id":"free"},{"bike_id":"2497b4b5-2586-4039-9c04-ebb44a0cd716","system_id":"levelo_inurba_marseille","lat":43.293009,"lon":5.374584,"is_reserved":false,"is_disabled":false,"rental_uris":{"android":"levelo://app?vid=2497b4b5-2586-4039-9c04-ebb44a0cd716","ios":"levelo://app?vid=2497b4b5-2586-4039-9c04-ebb44a0cd716"},"vehicle_type_id":"4","last_reported":1691438832,"current_range_meters":2000,"station_id":"ce4bgi12rcd13ifvqb70","pricing_plan_id":"free"},{"bike_id":"b6893c3e-56cc-4296-8176-761229782625","system_id":"levelo_inurba_marseille","lat":43.293009,"lon":5.374584,"is_reserved":false,"is_disabled":false,"rental_uris":{"android":"levelo://app?vid=b6893c3e-56cc-4296-8176-761229782625","ios":"levelo://app?vid=b6893c3e-56cc-4296-8176-761229782625"},"vehicle_type_id":"4","last_reported":1691438832,"current_range_meters":30800,"station_id":"ce4bgi12rcd13ifvqb70","pricing_plan_id":"free"},{"bike_id":"d806f597-bbbd-4eb5-b62e-9b6414949837","system_id":"levelo_inurba_marseille","lat":43.305994,"lon":5.393687,"is_reserved":false,"is_disabled":false,"rental_uris":{"android":"levelo://app?vid=d806f597-bbbd-4eb5-b62e-9b6414949837","ios":"levelo://app?vid=d806f597-bbbd-4eb5-b62e-9b6414949837"},"vehicle_type_id":"4","last_reported":1691438832,"current_range_meters":28000,"station_id":"ce4bh0p2rcd13ifvqd80","pricing_plan_id":"free"},{"bike_id":"4bcf627a-447c-4a81-8381-e49853e8f1d3","system_id":"levelo_inurba_marseille","lat":43.3058,"lon":5.39351,"is_reserved":false,"is_disabled":false,"rental_uris":{"android":"levelo://app?vid=4bcf627a-447c-4a81-8381-e49853e8f1d3","ios":"levelo://app?vid=4bcf627a-447c-4a81-8381-e49853e8f1d3"},"vehicle_type_id":"4","last_reported":1691438832,"current_range_meters":24000,"station_id":"ce4bh0p2rcd13ifvqd80","pricing_plan_id":"free"},{"bike_id":"512b03a8-4c08-4b85-bac5-6bc8e7f846c6","system_id":"levelo_inurba_marseille","lat":43.305994,"lon":5.393687,"is_reserved":false,"is_disabled":false,"rental_uris":{"android":"levelo://app?vid=512b03a8-4c08-4b85-bac5-6bc8e7f846c6","ios":"levelo://app?vid=512b03a8-4c08-4b85-bac5-6bc8e7f846c6"},"vehicle_type_id":"4","last_reported":1691438832,"current_range_meters":30800,"station_id":"ce4bh0p2rcd13ifvqd80","pricing_plan_id":"free"},{"bike_id":"3d21dae5-b15e-4e23-9cdb-f9b41b90d025","system_id":"levelo_inurba_marseille","lat":43.30597,"lon":5.39366,"is_reserved":false,"is_disabled":false,"rental_uris":{"android":"levelo://app?vid=3d21dae5-b15e-4e23-9cdb-f9b41b90d025","ios":"levelo://app?vid=3d21dae5-b15e-4e23-9cdb-f9b41b90d025"},"vehicle_type_id":"4","last_reported":1691438832,"current_range_meters":6000,"station_id":"ce4bh0p2rcd13ifvqd80","pricing_plan_id":"free"},{"bike_id":"c4920821-8728-494a-a985-6f1371e91189","system_id":"levelo_inurba_marseille","lat":43.305994,"lon":5.393687,"is_reserved":false,"is_disabled":false,"rental_uris":{"android":"levelo://app?vid=c4920821-8728-494a-a985-6f1371e91189","ios":"levelo://app?vid=c4920821-8728-494a-a985-6f1371e91189"},"vehicle_type_id":"4","last_reported":1691438832,"current_range_meters":6800,"station_id":"ce4bh0p2rcd13ifvqd80","pricing_plan_id":"free"},{"bike_id":"555e1eb0-789d-48b1-a79c-cef262754971","system_id":"levelo_inurba_marseille","lat":43.30597,"lon":5.3937,"is_reserved":false,"is_disabled":false,"rental_uris":{"android":"levelo://app?vid=555e1eb0-789d-48b1-a79c-cef262754971","ios":"levelo://app?vid=555e1eb0-789d-48b1-a79c-cef262754971"},"vehicle_type_id":"4","last_reported":1691438832,"current_range_meters":800,"station_id":"ce4bh0p2rcd13ifvqd80","pricing_plan_id":"free"},{"bike_id":"568d7e65-db57-463c-9184-e7a381e84e41","system_id":"levelo_inurba_marseille","lat":43.2936,"lon":5.37835,"is_reserved":false,"is_disabled":false,"rental_uris":{"android":"levelo://app?vid=568d7e65-db57-463c-9184-e7a381e84e41","ios":"levelo://app?vid=568d7e65-db57-463c-9184-e7a381e84e41"},"vehicle_type_id":"4","last_reported":1691438832,"current_range_meters":4000,"station_id":"ce4bgjh2rcd13ifvqbf0","pricing_plan_id":"free"},{"bike_id":"17100469-1bd6-45bc-817f-94fb6754212c","system_id":"levelo_inurba_marseille","lat":43.2936,"lon":5.37835,"is_reserved":false,"is_disabled":false,"rental_uris":{"android":"levelo://app?vid=17100469-1bd6-45bc-817f-94fb6754212c","ios":"levelo://app?vid=17100469-1bd6-45bc-817f-94fb6754212c"},"vehicle_type_id":"4","last_reported":1691438832,"current_range_meters":6400,"station_id":"ce4bgjh2rcd13ifvqbf0","pricing_plan_id":"free"},{"bike_id":"f0f45ad5-7328-4d92-aea7-e7da80d70974","system_id":"levelo_inurba_marseille","lat":43.292311,"lon":5.360731,"is_reserved":false,"is_disabled":false,"rental_uris":{"android":"levelo://app?vid=f0f45ad5-7328-4d92-aea7-e7da80d70974","ios":"levelo://app?vid=f0f45ad5-7328-4d92-aea7-e7da80d70974"},"vehicle_type_id":"4","last_reported":1691438832,"current_range_meters":6800,"station_id":"ce4bhbh2rcd13ifvqeqg","pricing_plan_id":"free"},{"bike_id":"68c16bef-0fbf-4497-aaed-bbb64ebdf4c5","system_id":"levelo_inurba_marseille","lat":43.300852,"lon":5.390859,"is_reserved":false,"is_disabled":false,"rental_uris":{"android":"levelo://app?vid=68c16bef-0fbf-4497-aaed-bbb64ebdf4c5","ios":"levelo://app?vid=68c16bef-0fbf-4497-aaed-bbb64ebdf4c5"},"vehicle_type_id":"4","last_reported":1691438832,"current_range_meters":14400,"station_id":"ce4bh192rcd13ifvqdb0","pricing_plan_id":"free"},{"bike_id":"4b7c8003-a6a1-4363-8504-fa8038df0ed6","system_id":"levelo_inurba_marseille","lat":43.30085,"lon":5.390856,"is_reserved":false,"is_disabled":false,"rental_uris":{"android":"levelo://app?vid=4b7c8003-a6a1-4363-8504-fa8038df0ed6","ios":"levelo://app?vid=4b7c8003-a6a1-4363-8504-fa8038df0ed6"},"vehicle_type_id":"4","last_reported":1691438832,"current_range_meters":30000,"station_id":"ce4bh192rcd13ifvqdb0","pricing_plan_id":"free"},{"bike_id":"7a148d6d-2b30-47c8-aa93-5f5675578e35","system_id":"levelo_inurba_marseille","lat":43.30085,"lon":5.390856,"is_reserved":false,"is_disabled":false,"rental_uris":{"android":"levelo://app?vid=7a148d6d-2b30-47c8-aa93-5f5675578e35","ios":"levelo://app?vid=7a148d6d-2b30-47c8-aa93-5f5675578e35"},"vehicle_type_id":"4","last_reported":1691438832,"current_range_meters":1600,"station_id":"ce4bh192rcd13ifvqdb0","pricing_plan_id":"free"},{"bike_id":"506754ae-e57d-45b6-856f-e8a75bb06b1f","system_id":"levelo_inurba_marseille","lat":43.29221,"lon":5.36049,"is_reserved":false,"is_disabled":false,"rental_uris":{"android":"levelo://app?vid=506754ae-e57d-45b6-856f-e8a75bb06b1f","ios":"levelo://app?vid=506754ae-e57d-45b6-856f-e8a75bb06b1f"},"vehicle_type_id":"4","last_reported":1691438832,"current_range_meters":0,"station_id":"ce4bhbh2rcd13ifvqeqg","pricing_plan_id":"free"},{"bike_id":"6e4bbc64-ee8b-41ff-8515-883c1395b5eb","system_id":"levelo_inurba_marseille","lat":43.298764,"lon":5.388973,"is_reserved":false,"is_disabled":false,"rental_uris":{"android":"levelo://app?vid=6e4bbc64-ee8b-41ff-8515-883c1395b5eb","ios":"levelo://app?vid=6e4bbc64-ee8b-41ff-8515-883c1395b5eb"},"vehicle_type_id":"4","last_reported":1691438832,"current_range_meters":16800,"station_id":"ce4bh392rcd13ifvqdl0","pricing_plan_id":"free"},{"bike_id":"d58afcfc-6a81-4acc-8417-40ac92edcc70","system_id":"levelo_inurba_marseille","lat":43.29884,"lon":5.38914,"is_reserved":false,"is_disabled":false,"rental_uris":{"android":"levelo://app?vid=d58afcfc-6a81-4acc-8417-40ac92edcc70","ios":"levelo://app?vid=d58afcfc-6a81-4acc-8417-40ac92edcc70"},"vehicle_type_id":"4","last_reported":1691438832,"current_range_meters":19600,"station_id":"ce4bh392rcd13ifvqdl0","pricing_plan_id":"free"},{"bike_id":"e2fc2d3c-1302-4d5b-8f43-598bed24fa16","system_id":"levelo_inurba_marseille","lat":43.29877,"lon":5.38912,"is_reserved":false,"is_disabled":false,"rental_uris":{"android":"levelo://app?vid=e2fc2d3c-1302-4d5b-8f43-598bed24fa16","ios":"levelo://app?vid=e2fc2d3c-1302-4d5b-8f43-598bed24fa16"},"vehicle_type_id":"4","last_reported":1691438832,"current_range_meters":22800,"station_id":"ce4bh392rcd13ifvqdl0","pricing_plan_id":"free"},{"bike_id":"a8f4e0b7-8893-414f-8ee7-c1268bf88253","system_id":"levelo_inurba_marseille","lat":43.29872,"lon":5.38915,"is_reserved":false,"is_disabled":false,"rental_uris":{"android":"levelo://app?vid=a8f4e0b7-8893-414f-8ee7-c1268bf88253","ios":"levelo://app?vid=a8f4e0b7-8893-414f-8ee7-c1268bf88253"},"vehicle_type_id":"4","last_reported":1691438832,"current_range_meters":16800,"station_id":"ce4bh392rcd13ifvqdl0","pricing_plan_id":"free"},{"bike_id":"82339cc8-eece-42db-8cff-4969f4497cd7","system_id":"levelo_inurba_marseille","lat":43.29872,"lon":5.38919,"is_reserved":false,"is_disabled":false,"rental_uris":{"android":"levelo://app?vid=82339cc8-eece-42db-8cff-4969f4497cd7","ios":"levelo://app?vid=82339cc8-eece-42db-8cff-4969f4497cd7"},"vehicle_type_id":"4","last_reported":1691438832,"current_range_meters":24000,"station_id":"ce4bh392rcd13ifvqdl0","pricing_plan_id":"free"},{"bike_id":"45630c84-58b1-4d88-b1a0-18da5a3e96c5","system_id":"levelo_inurba_marseille","lat":43.309038,"lon":5.396546,"is_reserved":false,"is_disabled":false,"rental_uris":{"android":"levelo://app?vid=45630c84-58b1-4d88-b1a0-18da5a3e96c5","ios":"levelo://app?vid=45630c84-58b1-4d88-b1a0-18da5a3e96c5"},"vehicle_type_id":"4","last_reported":1691438832,"current_range_meters":15600,"station_id":"ce4bh012rcd13ifvqcv0","pricing_plan_id":"free"},{"bike_id":"dfd82cf3-5dd1-412c-846f-ed5aa1e0c375","system_id":"levelo_inurba_marseille","lat":43.309038,"lon":5.396546,"is_reserved":false,"is_disabled":false,"rental_uris":{"android":"levelo://app?vid=dfd82cf3-5dd1-412c-846f-ed5aa1e0c375","ios":"levelo://app?vid=dfd82cf3-5dd1-412c-846f-ed5aa1e0c375"},"vehicle_type_id":"4","last_reported":1691438832,"current_range_meters":26800,"station_id":"ce4bh012rcd13ifvqcv0","pricing_plan_id":"free"},{"bike_id":"086b0f59-d273-4c44-9176-abce67a6a411","system_id":"levelo_inurba_marseille","lat":43.30893,"lon":5.39634,"is_reserved":false,"is_disabled":false,"rental_uris":{"android":"levelo://app?vid=086b0f59-d273-4c44-9176-abce67a6a411","ios":"levelo://app?vid=086b0f59-d273-4c44-9176-abce67a6a411"},"vehicle_type_id":"4","last_reported":1691438832,"current_range_meters":26000,"station_id":"ce4bh012rcd13ifvqcv0","pricing_plan_id":"free"},{"bike_id":"bf53c24e-f379-49d9-a40a-169ea5ca3b0b","system_id":"levelo_inurba_marseille","lat":43.31329,"lon":5.3969,"is_reserved":false,"is_disabled":false,"rental_uris":{"android":"levelo://app?vid=bf53c24e-f379-49d9-a40a-169ea5ca3b0b","ios":"levelo://app?vid=bf53c24e-f379-49d9-a40a-169ea5ca3b0b"},"vehicle_type_id":"4","last_reported":1691438832,"current_range_meters":8400,"station_id":"ce4bgvp2rcd13ifvqcu0","pricing_plan_id":"free"},{"bike_id":"7678eecd-3866-4a27-b3b0-5c25a41a5325","system_id":"levelo_inurba_marseille","lat":43.31322,"lon":5.39696,"is_reserved":false,"is_disabled":false,"rental_uris":{"android":"levelo://app?vid=7678eecd-3866-4a27-b3b0-5c25a41a5325","ios":"levelo://app?vid=7678eecd-3866-4a27-b3b0-5c25a41a5325"},"vehicle_type_id":"4","last_reported":1691438832,"current_range_meters":9600,"station_id":"ce4bgvp2rcd13ifvqcu0","pricing_plan_id":"free"},{"bike_id":"14850376-44f9-45c4-a9eb-bf865b80def5","system_id":"levelo_inurba_marseille","lat":43.31319,"lon":5.39697,"is_reserved":false,"is_disabled":false,"rental_uris":{"android":"levelo://app?vid=14850376-44f9-45c4-a9eb-bf865b80def5","ios":"levelo://app?vid=14850376-44f9-45c4-a9eb-bf865b80def5"},"vehicle_type_id":"4","last_reported":1691438832,"current_range_meters":17200,"station_id":"ce4bgvp2rcd13ifvqcu0","pricing_plan_id":"free"},{"bike_id":"31c64876-3fba-421a-90b6-2518b5fd4e8f","system_id":"levelo_inurba_marseille","lat":43.2953,"lon":5.38533,"is_reserved":false,"is_disabled":false,"rental_uris":{"android":"levelo://app?vid=31c64876-3fba-421a-90b6-2518b5fd4e8f","ios":"levelo://app?vid=31c64876-3fba-421a-90b6-2518b5fd4e8f"},"vehicle_type_id":"4","last_reported":1691438832,"current_range_meters":6800,"station_id":"ce4bgih2rcd13ifvqba0","pricing_plan_id":"free"},{"bike_id":"0eebd4bf-1160-4546-b014-71366b390e2f","system_id":"levelo_inurba_marseille","lat":43.29529,"lon":5.385581,"is_reserved":false,"is_disabled":false,"rental_uris":{"android":"levelo://app?vid=0eebd4bf-1160-4546-b014-71366b390e2f","ios":"levelo://app?vid=0eebd4bf-1160-4546-b014-71366b390e2f"},"vehicle_type_id":"4","last_reported":1691438832,"current_range_meters":15600,"station_id":"ce4bgih2rcd13ifvqba0","pricing_plan_id":"free"},{"bike_id":"41daba61-434b-49db-ba64-875ca4331131","system_id":"levelo_inurba_marseille","lat":43.29523,"lon":5.3853,"is_reserved":false,"is_disabled":false,"rental_uris":{"android":"levelo://app?vid=41daba61-434b-49db-ba64-875ca4331131","ios":"levelo://app?vid=41daba61-434b-49db-ba64-875ca4331131"},"vehicle_type_id":"4","last_reported":1691438832,"current_range_meters":27200,"station_id":"ce4bgih2rcd13ifvqba0","pricing_plan_id":"free"},{"bike_id":"077e395d-1a5a-4bee-b845-cec937564e8b","system_id":"levelo_inurba_marseille","lat":43.29525,"lon":5.38535,"is_reserved":false,"is_disabled":false,"rental_uris":{"android":"levelo://app?vid=077e395d-1a5a-4bee-b845-cec937564e8b","ios":"levelo://app?vid=077e395d-1a5a-4bee-b845-cec937564e8b"},"vehicle_type_id":"4","last_reported":1691438832,"current_range_meters":23200,"station_id":"ce4bgih2rcd13ifvqba0","pricing_plan_id":"free"},{"bike_id":"77a43965-4a92-40d1-a1c5-7da063164b93","system_id":"levelo_inurba_marseille","lat":43.29529,"lon":5.385581,"is_reserved":false,"is_disabled":false,"rental_uris":{"android":"levelo://app?vid=77a43965-4a92-40d1-a1c5-7da063164b93","ios":"levelo://app?vid=77a43965-4a92-40d1-a1c5-7da063164b93"},"vehicle_type_id":"4","last_reported":1691438832,"current_range_meters":26800,"station_id":"ce4bgih2rcd13ifvqba0","pricing_plan_id":"free"},{"bike_id":"ced509a2-3423-430c-8c78-dc6e11e6dca5","system_id":"levelo_inurba_marseille","lat":43.29529,"lon":5.385581,"is_reserved":false,"is_disabled":false,"rental_uris":{"android":"levelo://app?vid=ced509a2-3423-430c-8c78-dc6e11e6dca5","ios":"levelo://app?vid=ced509a2-3423-430c-8c78-dc6e11e6dca5"},"vehicle_type_id":"4","last_reported":1691438832,"current_range_meters":17600,"station_id":"ce4bgih2rcd13ifvqba0","pricing_plan_id":"free"},{"bike_id":"81f50ac5-0a77-4a14-8e2c-792d57eacdda","system_id":"levelo_inurba_marseille","lat":43.29529,"lon":5.385581,"is_reserved":false,"is_disabled":false,"rental_uris":{"android":"levelo://app?vid=81f50ac5-0a77-4a14-8e2c-792d57eacdda","ios":"levelo://app?vid=81f50ac5-0a77-4a14-8e2c-792d57eacdda"},"vehicle_type_id":"4","last_reported":1691438832,"current_range_meters":13600,"station_id":"ce4bgih2rcd13ifvqba0","pricing_plan_id":"free"},{"bike_id":"57ff3957-7d41-4e54-8ce0-26fdc4900ce4","system_id":"levelo_inurba_marseille","lat":43.29076,"lon":5.37163,"is_reserved":false,"is_disabled":false,"rental_uris":{"android":"levelo://app?vid=57ff3957-7d41-4e54-8ce0-26fdc4900ce4","ios":"levelo://app?vid=57ff3957-7d41-4e54-8ce0-26fdc4900ce4"},"vehicle_type_id":"4","last_reported":1691438832,"current_range_meters":0,"station_id":"ce4bh5p2rcd13ifvqe4g","pricing_plan_id":"free"},{"bike_id":"0142a936-613c-46a8-9bb2-6049765c5133","system_id":"levelo_inurba_marseille","lat":43.32779,"lon":5.38966,"is_reserved":false,"is_disabled":false,"rental_uris":{"android":"levelo://app?vid=0142a936-613c-46a8-9bb2-6049765c5133","ios":"levelo://app?vid=0142a936-613c-46a8-9bb2-6049765c5133"},"vehicle_type_id":"4","last_reported":1691438832,"current_range_meters":26400,"station_id":"","pricing_plan_id":"free"},{"bike_id":"10f115ab-3a8a-4b26-9b0c-554b21a95d62","system_id":"levelo_inurba_marseille","lat":43.290631,"lon":5.359244,"is_reserved":false,"is_disabled":false,"rental_uris":{"android":"levelo://app?vid=10f115ab-3a8a-4b26-9b0c-554b21a95d62","ios":"levelo://app?vid=10f115ab-3a8a-4b26-9b0c-554b21a95d62"},"vehicle_type_id":"4","last_reported":1691438832,"current_range_meters":15600,"station_id":"ce4bha92rcd13ifvqeg0","pricing_plan_id":"free"},{"bike_id":"5df25b16-6300-4532-bc6f-5c17e26e4623","system_id":"levelo_inurba_marseille","lat":43.294153,"lon":5.386305,"is_reserved":false,"is_disabled":false,"rental_uris":{"android":"levelo://app?vid=5df25b16-6300-4532-bc6f-5c17e26e4623","ios":"levelo://app?vid=5df25b16-6300-4532-bc6f-5c17e26e4623"},"vehicle_type_id":"4","last_reported":1691438832,"current_range_meters":9600,"station_id":"ce4bh2h2rcd13ifvqdh0","pricing_plan_id":"free"},{"bike_id":"f5f88e59-279f-4048-80d6-5a4ce77b02fa","system_id":"levelo_inurba_marseille","lat":43.29419,"lon":5.38621,"is_reserved":false,"is_disabled":false,"rental_uris":{"android":"levelo://app?vid=f5f88e59-279f-4048-80d6-5a4ce77b02fa","ios":"levelo://app?vid=f5f88e59-279f-4048-80d6-5a4ce77b02fa"},"vehicle_type_id":"4","last_reported":1691438832,"current_range_meters":25600,"station_id":"ce4bh2h2rcd13ifvqdh0","pricing_plan_id":"free"},{"bike_id":"33eae8a5-a6ed-4ab2-9264-039eccc9a1a7","system_id":"levelo_inurba_marseille","lat":43.294162,"lon":5.386292,"is_reserved":false,"is_disabled":false,"rental_uris":{"android":"levelo://app?vid=33eae8a5-a6ed-4ab2-9264-039eccc9a1a7","ios":"levelo://app?vid=33eae8a5-a6ed-4ab2-9264-039eccc9a1a7"},"vehicle_type_id":"4","last_reported":1691438832,"current_range_meters":31200,"station_id":"ce4bh2h2rcd13ifvqdh0","pricing_plan_id":"free"},{"bike_id":"668d5f5f-b62c-4310-bf1c-961852acea5a","system_id":"levelo_inurba_marseille","lat":43.294153,"lon":5.386305,"is_reserved":false,"is_disabled":false,"rental_uris":{"android":"levelo://app?vid=668d5f5f-b62c-4310-bf1c-961852acea5a","ios":"levelo://app?vid=668d5f5f-b62c-4310-bf1c-961852acea5a"},"vehicle_type_id":"4","last_reported":1691438832,"current_range_meters":18400,"station_id":"ce4bh2h2rcd13ifvqdh0","pricing_plan_id":"free"},{"bike_id":"dc49a558-9b23-4f60-8df3-284a862f6c74","system_id":"levelo_inurba_marseille","lat":43.294162,"lon":5.386292,"is_reserved":false,"is_disabled":false,"rental_uris":{"android":"levelo://app?vid=dc49a558-9b23-4f60-8df3-284a862f6c74","ios":"levelo://app?vid=dc49a558-9b23-4f60-8df3-284a862f6c74"},"vehicle_type_id":"4","last_reported":1691438832,"current_range_meters":31600,"station_id":"ce4bh2h2rcd13ifvqdh0","pricing_plan_id":"free"},{"bike_id":"b79d5c6c-5f97-4cc3-a854-c701ec6b65b0","system_id":"levelo_inurba_marseille","lat":43.294162,"lon":5.386292,"is_reserved":false,"is_disabled":false,"rental_uris":{"android":"levelo://app?vid=b79d5c6c-5f97-4cc3-a854-c701ec6b65b0","ios":"levelo://app?vid=b79d5c6c-5f97-4cc3-a854-c701ec6b65b0"},"vehicle_type_id":"4","last_reported":1691438832,"current_range_meters":31200,"station_id":"ce4bh2h2rcd13ifvqdh0","pricing_plan_id":"free"},{"bike_id":"82fa6cc4-015a-4dee-8731-a4229c63a0e7","system_id":"levelo_inurba_marseille","lat":43.29414,"lon":5.38627,"is_reserved":false,"is_disabled":false,"rental_uris":{"android":"levelo://app?vid=82fa6cc4-015a-4dee-8731-a4229c63a0e7","ios":"levelo://app?vid=82fa6cc4-015a-4dee-8731-a4229c63a0e7"},"vehicle_type_id":"4","last_reported":1691438832,"current_range_meters":20800,"station_id":"","pricing_plan_id":"free"},{"bike_id":"d41d9df7-e12e-4c65-a3b6-bba98ed388c4","system_id":"levelo_inurba_marseille","lat":43.290327,"lon":5.375711,"is_reserved":false,"is_disabled":false,"rental_uris":{"android":"levelo://app?vid=d41d9df7-e12e-4c65-a3b6-bba98ed388c4","ios":"levelo://app?vid=d41d9df7-e12e-4c65-a3b6-bba98ed388c4"},"vehicle_type_id":"4","last_reported":1691438832,"current_range_meters":11600,"station_id":"ce4bh692rcd13ifvqe90","pricing_plan_id":"free"},{"bike_id":"a0ca6234-ca0e-4206-94af-df6b5f918a23","system_id":"levelo_inurba_marseille","lat":43.294162,"lon":5.386292,"is_reserved":false,"is_disabled":false,"rental_uris":{"android":"levelo://app?vid=a0ca6234-ca0e-4206-94af-df6b5f918a23","ios":"levelo://app?vid=a0ca6234-ca0e-4206-94af-df6b5f918a23"},"vehicle_type_id":"4","last_reported":1691438832,"current_range_meters":12400,"station_id":"ce4bh2h2rcd13ifvqdh0","pricing_plan_id":"free"},{"bike_id":"93d1cafe-4640-4982-a8a6-7ff1262b905d","system_id":"levelo_inurba_marseille","lat":43.29409,"lon":5.38624,"is_reserved":false,"is_disabled":false,"rental_uris":{"android":"levelo://app?vid=93d1cafe-4640-4982-a8a6-7ff1262b905d","ios":"levelo://app?vid=93d1cafe-4640-4982-a8a6-7ff1262b905d"},"vehicle_type_id":"4","last_reported":1691438832,"current_range_meters":6400,"station_id":"ce4bh2h2rcd13ifvqdh0","pricing_plan_id":"free"},{"bike_id":"4c33f7a3-7daf-4161-9a15-79ac3e267d84","system_id":"levelo_inurba_marseille","lat":43.29409,"lon":5.38624,"is_reserved":false,"is_disabled":false,"rental_uris":{"android":"levelo://app?vid=4c33f7a3-7daf-4161-9a15-79ac3e267d84","ios":"levelo://app?vid=4c33f7a3-7daf-4161-9a15-79ac3e267d84"},"vehicle_type_id":"4","last_reported":1691438832,"current_range_meters":0,"station_id":"ce4bh2h2rcd13ifvqdh0","pricing_plan_id":"free"},{"bike_id":"c9df8b84-4728-47e2-9719-53b6e1718cee","system_id":"levelo_inurba_marseille","lat":43.289184,"lon":5.366408,"is_reserved":false,"is_disabled":false,"rental_uris":{"android":"levelo://app?vid=c9df8b84-4728-47e2-9719-53b6e1718cee","ios":"levelo://app?vid=c9df8b84-4728-47e2-9719-53b6e1718cee"},"vehicle_type_id":"4","last_reported":1691438832,"current_range_meters":16400,"station_id":"ce4bhap2rcd13ifvqek0","pricing_plan_id":"free"},{"bike_id":"fe561271-a884-43e5-bc9e-0121ec6ee94d","system_id":"levelo_inurba_marseille","lat":43.289184,"lon":5.366408,"is_reserved":false,"is_disabled":false,"rental_uris":{"android":"levelo://app?vid=fe561271-a884-43e5-bc9e-0121ec6ee94d","ios":"levelo://app?vid=fe561271-a884-43e5-bc9e-0121ec6ee94d"},"vehicle_type_id":"4","last_reported":1691438832,"current_range_meters":20000,"station_id":"ce4bhap2rcd13ifvqek0","pricing_plan_id":"free"},{"bike_id":"0d8aad5a-228e-44c2-b776-d8ac6e4b345c","system_id":"levelo_inurba_marseille","lat":43.28944,"lon":5.36376,"is_reserved":false,"is_disabled":false,"rental_uris":{"android":"levelo://app?vid=0d8aad5a-228e-44c2-b776-d8ac6e4b345c","ios":"levelo://app?vid=0d8aad5a-228e-44c2-b776-d8ac6e4b345c"},"vehicle_type_id":"4","last_reported":1691438832,"current_range_meters":0,"station_id":"ce4bh692rcd13ifvqea0","pricing_plan_id":"free"},{"bike_id":"834b7e1f-26e1-44d4-85ec-4f41a71cff13","system_id":"levelo_inurba_marseille","lat":43.289468,"lon":5.363719,"is_reserved":false,"is_disabled":false,"rental_uris":{"android":"levelo://app?vid=834b7e1f-26e1-44d4-85ec-4f41a71cff13","ios":"levelo://app?vid=834b7e1f-26e1-44d4-85ec-4f41a71cff13"},"vehicle_type_id":"4","last_reported":1691438832,"current_range_meters":3200,"station_id":"ce4bhc92rcd13ifvqetg","pricing_plan_id":"free"},{"bike_id":"a40db66b-e1d7-46dc-b651-2d6e864b223c","system_id":"levelo_inurba_marseille","lat":43.292641,"lon":5.384246,"is_reserved":false,"is_disabled":false,"rental_uris":{"android":"levelo://app?vid=a40db66b-e1d7-46dc-b651-2d6e864b223c","ios":"levelo://app?vid=a40db66b-e1d7-46dc-b651-2d6e864b223c"},"vehicle_type_id":"4","last_reported":1691438832,"current_range_meters":20800,"station_id":"ce4bh692rcd13ifvqea0","pricing_plan_id":"free"},{"bike_id":"0846bb7e-98fa-4a00-9368-2cbb6985f25a","system_id":"levelo_inurba_marseille","lat":43.29264,"lon":5.38438,"is_reserved":false,"is_disabled":false,"rental_uris":{"android":"levelo://app?vid=0846bb7e-98fa-4a00-9368-2cbb6985f25a","ios":"levelo://app?vid=0846bb7e-98fa-4a00-9368-2cbb6985f25a"},"vehicle_type_id":"4","last_reported":1691438832,"current_range_meters":25200,"station_id":"ce4bh692rcd13ifvqea0","pricing_plan_id":"free"},{"bike_id":"464a1a94-7e89-4544-9db0-c5a813a402c0","system_id":"levelo_inurba_marseille","lat":43.292644,"lon":5.384257,"is_reserved":false,"is_disabled":false,"rental_uris":{"android":"levelo://app?vid=464a1a94-7e89-4544-9db0-c5a813a402c0","ios":"levelo://app?vid=464a1a94-7e89-4544-9db0-c5a813a402c0"},"vehicle_type_id":"4","last_reported":1691438832,"current_range_meters":23600,"station_id":"ce4bh692rcd13ifvqea0","pricing_plan_id":"free"},{"bike_id":"83dfb741-98fc-48c1-b0a3-6ae794f75b38","system_id":"levelo_inurba_marseille","lat":43.304296,"lon":5.397513,"is_reserved":false,"is_disabled":false,"rental_uris":{"android":"levelo://app?vid=83dfb741-98fc-48c1-b0a3-6ae794f75b38","ios":"levelo://app?vid=83dfb741-98fc-48c1-b0a3-6ae794f75b38"},"vehicle_type_id":"4","last_reported":1691438832,"current_range_meters":0,"station_id":"ce4bh092rcd13ifvqd20","pricing_plan_id":"free"},{"bike_id":"ba79559f-91db-423c-b78d-d31edf79bef0","system_id":"levelo_inurba_marseille","lat":43.292644,"lon":5.384257,"is_reserved":false,"is_disabled":false,"rental_uris":{"android":"levelo://app?vid=ba79559f-91db-423c-b78d-d31edf79bef0","ios":"levelo://app?vid=ba79559f-91db-423c-b78d-d31edf79bef0"},"vehicle_type_id":"4","last_reported":1691438832,"current_range_meters":400,"station_id":"ce4bh692rcd13ifvqea0","pricing_plan_id":"free"},{"bike_id":"28f320e3-0411-4816-9bff-c3794f29d11d","system_id":"levelo_inurba_marseille","lat":43.292642,"lon":5.384254,"is_reserved":false,"is_disabled":false,"rental_uris":{"android":"levelo://app?vid=28f320e3-0411-4816-9bff-c3794f29d11d","ios":"levelo://app?vid=28f320e3-0411-4816-9bff-c3794f29d11d"},"vehicle_type_id":"4","last_reported":1691438832,"current_range_meters":5600,"station_id":"ce4bh692rcd13ifvqea0","pricing_plan_id":"free"},{"bike_id":"e9bd32ca-e164-4cab-8077-9353327f80bc","system_id":"levelo_inurba_marseille","lat":43.292642,"lon":5.384254,"is_reserved":false,"is_disabled":false,"rental_uris":{"android":"levelo://app?vid=e9bd32ca-e164-4cab-8077-9353327f80bc","ios":"levelo://app?vid=e9bd32ca-e164-4cab-8077-9353327f80bc"},"vehicle_type_id":"4","last_reported":1691438832,"current_range_meters":18000,"station_id":"ce4bh692rcd13ifvqea0","pricing_plan_id":"free"},{"bike_id":"710a8ca0-0a8d-4ce2-954b-8bfe38177df3","system_id":"levelo_inurba_marseille","lat":43.292644,"lon":5.384257,"is_reserved":false,"is_disabled":false,"rental_uris":{"android":"levelo://app?vid=710a8ca0-0a8d-4ce2-954b-8bfe38177df3","ios":"levelo://app?vid=710a8ca0-0a8d-4ce2-954b-8bfe38177df3"},"vehicle_type_id":"4","last_reported":1691438832,"current_range_meters":31600,"station_id":"ce4bh692rcd13ifvqea0","pricing_plan_id":"free"},{"bike_id":"88c74dd6-f665-421f-b953-67c68871aa2f","system_id":"levelo_inurba_marseille","lat":43.292644,"lon":5.384257,"is_reserved":false,"is_disabled":false,"rental_uris":{"android":"levelo://app?vid=88c74dd6-f665-421f-b953-67c68871aa2f","ios":"levelo://app?vid=88c74dd6-f665-421f-b953-67c68871aa2f"},"vehicle_type_id":"4","last_reported":1691438832,"current_range_meters":29200,"station_id":"ce4bh692rcd13ifvqea0","pricing_plan_id":"free"},{"bike_id":"f495f215-5b0d-489a-aba0-bd66c801ec11","system_id":"levelo_inurba_marseille","lat":43.29257,"lon":5.38436,"is_reserved":false,"is_disabled":false,"rental_uris":{"android":"levelo://app?vid=f495f215-5b0d-489a-aba0-bd66c801ec11","ios":"levelo://app?vid=f495f215-5b0d-489a-aba0-bd66c801ec11"},"vehicle_type_id":"4","last_reported":1691438832,"current_range_meters":13600,"station_id":"ce4bh692rcd13ifvqea0","pricing_plan_id":"free"},{"bike_id":"e6f8e3e1-5f08-452e-a0f7-42572193a003","system_id":"levelo_inurba_marseille","lat":43.292644,"lon":5.384257,"is_reserved":false,"is_disabled":false,"rental_uris":{"android":"levelo://app?vid=e6f8e3e1-5f08-452e-a0f7-42572193a003","ios":"levelo://app?vid=e6f8e3e1-5f08-452e-a0f7-42572193a003"},"vehicle_type_id":"4","last_reported":1691438832,"current_range_meters":5200,"station_id":"ce4bh692rcd13ifvqea0","pricing_plan_id":"free"},{"bike_id":"86955e39-16a7-4e9a-a6d3-9c211880e3b7","system_id":"levelo_inurba_marseille","lat":43.292642,"lon":5.384254,"is_reserved":false,"is_disabled":false,"rental_uris":{"android":"levelo://app?vid=86955e39-16a7-4e9a-a6d3-9c211880e3b7","ios":"levelo://app?vid=86955e39-16a7-4e9a-a6d3-9c211880e3b7"},"vehicle_type_id":"4","last_reported":1691438832,"current_range_meters":13600,"station_id":"ce4bh692rcd13ifvqea0","pricing_plan_id":"free"},{"bike_id":"7a2cd72f-9343-4a71-8aa5-074f8559e2ab","system_id":"levelo_inurba_marseille","lat":43.29258,"lon":5.38442,"is_reserved":false,"is_disabled":false,"rental_uris":{"android":"levelo://app?vid=7a2cd72f-9343-4a71-8aa5-074f8559e2ab","ios":"levelo://app?vid=7a2cd72f-9343-4a71-8aa5-074f8559e2ab"},"vehicle_type_id":"4","last_reported":1691438832,"current_range_meters":10400,"station_id":"ce4bh692rcd13ifvqea0","pricing_plan_id":"free"},{"bike_id":"1b8f4f48-36ed-4447-901a-1560f65b091f","system_id":"levelo_inurba_marseille","lat":43.29258,"lon":5.38443,"is_reserved":false,"is_disabled":false,"rental_uris":{"android":"levelo://app?vid=1b8f4f48-36ed-4447-901a-1560f65b091f","ios":"levelo://app?vid=1b8f4f48-36ed-4447-901a-1560f65b091f"},"vehicle_type_id":"4","last_reported":1691438832,"current_range_meters":12400,"station_id":"","pricing_plan_id":"free"},{"bike_id":"6d8cd22e-92da-4875-848d-7924c8551480","system_id":"levelo_inurba_marseille","lat":43.29259,"lon":5.38447,"is_reserved":false,"is_disabled":false,"rental_uris":{"android":"levelo://app?vid=6d8cd22e-92da-4875-848d-7924c8551480","ios":"levelo://app?vid=6d8cd22e-92da-4875-848d-7924c8551480"},"vehicle_type_id":"4","last_reported":1691438832,"current_range_meters":18000,"station_id":"ce4bh692rcd13ifvqea0","pricing_plan_id":"free"},{"bike_id":"d1aad9eb-68c6-4588-bdb3-993ecf89bccf","system_id":"levelo_inurba_marseille","lat":43.292642,"lon":5.384254,"is_reserved":false,"is_disabled":false,"rental_uris":{"android":"levelo://app?vid=d1aad9eb-68c6-4588-bdb3-993ecf89bccf","ios":"levelo://app?vid=d1aad9eb-68c6-4588-bdb3-993ecf89bccf"},"vehicle_type_id":"4","last_reported":1691438832,"current_range_meters":30000,"station_id":"ce4bh692rcd13ifvqea0","pricing_plan_id":"free"},{"bike_id":"39db1771-6a11-4b34-ad7c-7599fbc796bc","system_id":"levelo_inurba_marseille","lat":43.292644,"lon":5.384257,"is_reserved":false,"is_disabled":false,"rental_uris":{"android":"levelo://app?vid=39db1771-6a11-4b34-ad7c-7599fbc796bc","ios":"levelo://app?vid=39db1771-6a11-4b34-ad7c-7599fbc796bc"},"vehicle_type_id":"4","last_reported":1691438832,"current_range_meters":28400,"station_id":"ce4bh692rcd13ifvqea0","pricing_plan_id":"free"},{"bike_id":"c8a65f85-8e7d-4d37-ae6c-42965d3e32a9","system_id":"levelo_inurba_marseille","lat":43.33047,"lon":5.38912,"is_reserved":false,"is_disabled":false,"rental_uris":{"android":"levelo://app?vid=c8a65f85-8e7d-4d37-ae6c-42965d3e32a9","ios":"levelo://app?vid=c8a65f85-8e7d-4d37-ae6c-42965d3e32a9"},"vehicle_type_id":"4","last_reported":1691438832,"current_range_meters":18800,"station_id":"ce4bhr92rcd13ifvqhrg","pricing_plan_id":"free"},{"bike_id":"f4206dc8-b44a-45d4-89f4-46723b0ee39b","system_id":"levelo_inurba_marseille","lat":43.330442,"lon":5.389148,"is_reserved":false,"is_disabled":false,"rental_uris":{"android":"levelo://app?vid=f4206dc8-b44a-45d4-89f4-46723b0ee39b","ios":"levelo://app?vid=f4206dc8-b44a-45d4-89f4-46723b0ee39b"},"vehicle_type_id":"4","last_reported":1691438832,"current_range_meters":16400,"station_id":"ce4bhr92rcd13ifvqhrg","pricing_plan_id":"free"},{"bike_id":"d1f093e4-ab33-4b08-b795-09eb488fde6d","system_id":"levelo_inurba_marseille","lat":43.33045,"lon":5.38917,"is_reserved":false,"is_disabled":false,"rental_uris":{"android":"levelo://app?vid=d1f093e4-ab33-4b08-b795-09eb488fde6d","ios":"levelo://app?vid=d1f093e4-ab33-4b08-b795-09eb488fde6d"},"vehicle_type_id":"4","last_reported":1691438832,"current_range_meters":18000,"station_id":"ce4bhr92rcd13ifvqhrg","pricing_plan_id":"free"},{"bike_id":"64ed5b51-12b0-4f3e-8d64-a5466f837e35","system_id":"levelo_inurba_marseille","lat":43.290104,"lon":5.356111,"is_reserved":false,"is_disabled":false,"rental_uris":{"android":"levelo://app?vid=64ed5b51-12b0-4f3e-8d64-a5466f837e35","ios":"levelo://app?vid=64ed5b51-12b0-4f3e-8d64-a5466f837e35"},"vehicle_type_id":"4","last_reported":1691438832,"current_range_meters":24400,"station_id":"ce4bhb92rcd13ifvqen0","pricing_plan_id":"free"},{"bike_id":"d92191b5-3897-428d-989c-4b986c7a7e64","system_id":"levelo_inurba_marseille","lat":43.29001,"lon":5.35604,"is_reserved":false,"is_disabled":false,"rental_uris":{"android":"levelo://app?vid=d92191b5-3897-428d-989c-4b986c7a7e64","ios":"levelo://app?vid=d92191b5-3897-428d-989c-4b986c7a7e64"},"vehicle_type_id":"4","last_reported":1691438832,"current_range_meters":13600,"station_id":"ce4bhb92rcd13ifvqen0","pricing_plan_id":"free"},{"bike_id":"6397624a-afea-4a66-b1a9-4ec7d9572011","system_id":"levelo_inurba_marseille","lat":43.290995,"lon":5.381361,"is_reserved":false,"is_disabled":false,"rental_uris":{"android":"levelo://app?vid=6397624a-afea-4a66-b1a9-4ec7d9572011","ios":"levelo://app?vid=6397624a-afea-4a66-b1a9-4ec7d9572011"},"vehicle_type_id":"4","last_reported":1691438832,"current_range_meters":0,"station_id":"ce4bh512rcd13ifvqe2g","pricing_plan_id":"free"},{"bike_id":"277b8072-ae4e-45db-8a72-b718a958b2de","system_id":"levelo_inurba_marseille","lat":43.295169,"lon":5.390426,"is_reserved":false,"is_disabled":false,"rental_uris":{"android":"levelo://app?vid=277b8072-ae4e-45db-8a72-b718a958b2de","ios":"levelo://app?vid=277b8072-ae4e-45db-8a72-b718a958b2de"},"vehicle_type_id":"4","last_reported":1691438832,"current_range_meters":18400,"station_id":"ce4bh3p2rcd13ifvqdp0","pricing_plan_id":"free"},{"bike_id":"54c48e07-22c8-41f0-b37d-b317128fec12","system_id":"levelo_inurba_marseille","lat":43.297815,"lon":5.393548,"is_reserved":false,"is_disabled":false,"rental_uris":{"android":"levelo://app?vid=54c48e07-22c8-41f0-b37d-b317128fec12","ios":"levelo://app?vid=54c48e07-22c8-41f0-b37d-b317128fec12"},"vehicle_type_id":"4","last_reported":1691438832,"current_range_meters":12800,"station_id":"chh1huq6cuj3fo74tm60","pricing_plan_id":"free"},{"bike_id":"859fbdc4-adf3-4a59-8108-df373ac6e3a7","system_id":"levelo_inurba_marseille","lat":43.297815,"lon":5.393548,"is_reserved":false,"is_disabled":false,"rental_uris":{"android":"levelo://app?vid=859fbdc4-adf3-4a59-8108-df373ac6e3a7","ios":"levelo://app?vid=859fbdc4-adf3-4a59-8108-df373ac6e3a7"},"vehicle_type_id":"4","last_reported":1691438832,"current_range_meters":29600,"station_id":"chh1huq6cuj3fo74tm60","pricing_plan_id":"free"},{"bike_id":"78a1a5bb-1590-410b-a41c-786e430d786c","system_id":"levelo_inurba_marseille","lat":43.29783,"lon":5.39344,"is_reserved":false,"is_disabled":false,"rental_uris":{"android":"levelo://app?vid=78a1a5bb-1590-410b-a41c-786e430d786c","ios":"levelo://app?vid=78a1a5bb-1590-410b-a41c-786e430d786c"},"vehicle_type_id":"4","last_reported":1691438832,"current_range_meters":0,"station_id":"chh1huq6cuj3fo74tm60","pricing_plan_id":"free"},{"bike_id":"284a56bc-4a69-480d-bdad-1d6f137c8c1e","system_id":"levelo_inurba_marseille","lat":43.297815,"lon":5.393548,"is_reserved":false,"is_disabled":false,"rental_uris":{"android":"levelo://app?vid=284a56bc-4a69-480d-bdad-1d6f137c8c1e","ios":"levelo://app?vid=284a56bc-4a69-480d-bdad-1d6f137c8c1e"},"vehicle_type_id":"4","last_reported":1691438832,"current_range_meters":26000,"station_id":"chh1huq6cuj3fo74tm60","pricing_plan_id":"free"},{"bike_id":"a5ef641e-94ae-4eff-a2d9-f94a9a0c0379","system_id":"levelo_inurba_marseille","lat":43.297815,"lon":5.393548,"is_reserved":false,"is_disabled":false,"rental_uris":{"android":"levelo://app?vid=a5ef641e-94ae-4eff-a2d9-f94a9a0c0379","ios":"levelo://app?vid=a5ef641e-94ae-4eff-a2d9-f94a9a0c0379"},"vehicle_type_id":"4","last_reported":1691438832,"current_range_meters":16000,"station_id":"chh1huq6cuj3fo74tm60","pricing_plan_id":"free"},{"bike_id":"69d605d2-22a2-4118-9698-46d843157e71","system_id":"levelo_inurba_marseille","lat":43.295169,"lon":5.390426,"is_reserved":false,"is_disabled":false,"rental_uris":{"android":"levelo://app?vid=69d605d2-22a2-4118-9698-46d843157e71","ios":"levelo://app?vid=69d605d2-22a2-4118-9698-46d843157e71"},"vehicle_type_id":"4","last_reported":1691438832,"current_range_meters":10000,"station_id":"ce4bh3p2rcd13ifvqdp0","pricing_plan_id":"free"},{"bike_id":"ac9d03cb-53c8-4f53-9ce9-6a00eeb1d170","system_id":"levelo_inurba_marseille","lat":43.295169,"lon":5.390426,"is_reserved":false,"is_disabled":false,"rental_uris":{"android":"levelo://app?vid=ac9d03cb-53c8-4f53-9ce9-6a00eeb1d170","ios":"levelo://app?vid=ac9d03cb-53c8-4f53-9ce9-6a00eeb1d170"},"vehicle_type_id":"4","last_reported":1691438832,"current_range_meters":13600,"station_id":"ce4bh3p2rcd13ifvqdp0","pricing_plan_id":"free"},{"bike_id":"7fb20e49-3f5e-4793-b858-a1ee2c6c14db","system_id":"levelo_inurba_marseille","lat":43.295169,"lon":5.390426,"is_reserved":false,"is_disabled":false,"rental_uris":{"android":"levelo://app?vid=7fb20e49-3f5e-4793-b858-a1ee2c6c14db","ios":"levelo://app?vid=7fb20e49-3f5e-4793-b858-a1ee2c6c14db"},"vehicle_type_id":"4","last_reported":1691438832,"current_range_meters":6000,"station_id":"ce4bh3p2rcd13ifvqdp0","pricing_plan_id":"free"},{"bike_id":"9d895fa9-559b-4a91-8da9-b5a6f9bf4d99","system_id":"levelo_inurba_marseille","lat":43.28849,"lon":5.3585,"is_reserved":false,"is_disabled":false,"rental_uris":{"android":"levelo://app?vid=9d895fa9-559b-4a91-8da9-b5a6f9bf4d99","ios":"levelo://app?vid=9d895fa9-559b-4a91-8da9-b5a6f9bf4d99"},"vehicle_type_id":"4","last_reported":1691438832,"current_range_meters":30400,"station_id":"ce4bhb12rcd13ifvqem0","pricing_plan_id":"free"},{"bike_id":"85e75e98-c640-4234-8ebc-08111ff15469","system_id":"levelo_inurba_marseille","lat":43.31275,"lon":5.40147,"is_reserved":false,"is_disabled":false,"rental_uris":{"android":"levelo://app?vid=85e75e98-c640-4234-8ebc-08111ff15469","ios":"levelo://app?vid=85e75e98-c640-4234-8ebc-08111ff15469"},"vehicle_type_id":"4","last_reported":1691438832,"current_range_meters":0,"station_id":"ce4bh092rcd13ifvqd30","pricing_plan_id":"free"},{"bike_id":"6e227cb6-fa8a-49cf-af87-f8536bfd0556","system_id":"levelo_inurba_marseille","lat":43.31275,"lon":5.40158,"is_reserved":false,"is_disabled":false,"rental_uris":{"android":"levelo://app?vid=6e227cb6-fa8a-49cf-af87-f8536bfd0556","ios":"levelo://app?vid=6e227cb6-fa8a-49cf-af87-f8536bfd0556"},"vehicle_type_id":"4","last_reported":1691438832,"current_range_meters":14000,"station_id":"ce4bh092rcd13ifvqd30","pricing_plan_id":"free"},{"bike_id":"f849f3d8-f1ec-4f18-a53e-48d88f7ccf7c","system_id":"levelo_inurba_marseille","lat":43.3127,"lon":5.40168,"is_reserved":false,"is_disabled":false,"rental_uris":{"android":"levelo://app?vid=f849f3d8-f1ec-4f18-a53e-48d88f7ccf7c","ios":"levelo://app?vid=f849f3d8-f1ec-4f18-a53e-48d88f7ccf7c"},"vehicle_type_id":"4","last_reported":1691438832,"current_range_meters":13600,"station_id":"ce4bh092rcd13ifvqd30","pricing_plan_id":"free"},{"bike_id":"10ee8f7e-6c67-446d-9ae7-cd1c1ab59783","system_id":"levelo_inurba_marseille","lat":43.309102,"lon":5.4014,"is_reserved":false,"is_disabled":false,"rental_uris":{"android":"levelo://app?vid=10ee8f7e-6c67-446d-9ae7-cd1c1ab59783","ios":"levelo://app?vid=10ee8f7e-6c67-446d-9ae7-cd1c1ab59783"},"vehicle_type_id":"4","last_reported":1691438832,"current_range_meters":3200,"station_id":"ce4bgvp2rcd13ifvqct0","pricing_plan_id":"free"},{"bike_id":"4d81d71b-e67b-4fc6-b108-cba90ca82c53","system_id":"levelo_inurba_marseille","lat":43.30636,"lon":5.40073,"is_reserved":false,"is_disabled":false,"rental_uris":{"android":"levelo://app?vid=4d81d71b-e67b-4fc6-b108-cba90ca82c53","ios":"levelo://app?vid=4d81d71b-e67b-4fc6-b108-cba90ca82c53"},"vehicle_type_id":"4","last_reported":1691438832,"current_range_meters":13200,"station_id":"ce4bh112rcd13ifvqda0","pricing_plan_id":"free"},{"bike_id":"2ca1835f-a02c-43ea-b282-f64c7b19efdd","system_id":"levelo_inurba_marseille","lat":43.301117,"lon":5.398795,"is_reserved":false,"is_disabled":false,"rental_uris":{"android":"levelo://app?vid=2ca1835f-a02c-43ea-b282-f64c7b19efdd","ios":"levelo://app?vid=2ca1835f-a02c-43ea-b282-f64c7b19efdd"},"vehicle_type_id":"4","last_reported":1691438832,"current_range_meters":12400,"station_id":"ce4bh0h2rcd13ifvqd40","pricing_plan_id":"free"},{"bike_id":"f030ae21-9991-4c33-8f03-6d1267da1b26","system_id":"levelo_inurba_marseille","lat":43.286961,"lon":5.373785,"is_reserved":false,"is_disabled":false,"rental_uris":{"android":"levelo://app?vid=f030ae21-9991-4c33-8f03-6d1267da1b26","ios":"levelo://app?vid=f030ae21-9991-4c33-8f03-6d1267da1b26"},"vehicle_type_id":"4","last_reported":1691438832,"current_range_meters":23600,"station_id":"ce4bh3p2rcd13ifvqdq0","pricing_plan_id":"free"},{"bike_id":"75199276-b705-4ad7-b6a9-49aeaa84628a","system_id":"levelo_inurba_marseille","lat":43.286591,"lon":5.363346,"is_reserved":false,"is_disabled":false,"rental_uris":{"android":"levelo://app?vid=75199276-b705-4ad7-b6a9-49aeaa84628a","ios":"levelo://app?vid=75199276-b705-4ad7-b6a9-49aeaa84628a"},"vehicle_type_id":"4","last_reported":1691438832,"current_range_meters":31200,"station_id":"ce4bhah2rcd13ifvqej0","pricing_plan_id":"free"},{"bike_id":"a6bd8bc9-a96e-4a7b-8b9d-3cf7b2fee1bc","system_id":"levelo_inurba_marseille","lat":43.286961,"lon":5.373785,"is_reserved":false,"is_disabled":false,"rental_uris":{"android":"levelo://app?vid=a6bd8bc9-a96e-4a7b-8b9d-3cf7b2fee1bc","ios":"levelo://app?vid=a6bd8bc9-a96e-4a7b-8b9d-3cf7b2fee1bc"},"vehicle_type_id":"4","last_reported":1691438832,"current_range_meters":15200,"station_id":"ce4bh3p2rcd13ifvqdq0","pricing_plan_id":"free"},{"bike_id":"46a48b97-f2db-4459-be6b-61da533d0a47","system_id":"levelo_inurba_marseille","lat":43.295196,"lon":5.39397,"is_reserved":false,"is_disabled":false,"rental_uris":{"android":"levelo://app?vid=46a48b97-f2db-4459-be6b-61da533d0a47","ios":"levelo://app?vid=46a48b97-f2db-4459-be6b-61da533d0a47"},"vehicle_type_id":"4","last_reported":1691438832,"current_range_meters":21600,"station_id":"ce4bh292rcd13ifvqdf0","pricing_plan_id":"free"},{"bike_id":"280835ba-bbdc-4a4b-b537-fe75465d6d78","system_id":"levelo_inurba_marseille","lat":43.295196,"lon":5.39397,"is_reserved":false,"is_disabled":false,"rental_uris":{"android":"levelo://app?vid=280835ba-bbdc-4a4b-b537-fe75465d6d78","ios":"levelo://app?vid=280835ba-bbdc-4a4b-b537-fe75465d6d78"},"vehicle_type_id":"4","last_reported":1691438832,"current_range_meters":22400,"station_id":"ce4bh292rcd13ifvqdf0","pricing_plan_id":"free"},{"bike_id":"8fc37957-c58e-4d9f-818d-22d3086d7d89","system_id":"levelo_inurba_marseille","lat":43.2941,"lon":5.39253,"is_reserved":false,"is_disabled":false,"rental_uris":{"android":"levelo://app?vid=8fc37957-c58e-4d9f-818d-22d3086d7d89","ios":"levelo://app?vid=8fc37957-c58e-4d9f-818d-22d3086d7d89"},"vehicle_type_id":"4","last_reported":1691438832,"current_range_meters":17200,"station_id":"","pricing_plan_id":"free"},{"bike_id":"6f3a3d0e-a37d-4b7a-a4a7-4d84c2404600","system_id":"levelo_inurba_marseille","lat":43.302759,"lon":5.400793,"is_reserved":false,"is_disabled":false,"rental_uris":{"android":"levelo://app?vid=6f3a3d0e-a37d-4b7a-a4a7-4d84c2404600","ios":"levelo://app?vid=6f3a3d0e-a37d-4b7a-a4a7-4d84c2404600"},"vehicle_type_id":"4","last_reported":1691438832,"current_range_meters":16000,"station_id":"ce4bgvh2rcd13ifvqcs0","pricing_plan_id":"free"},{"bike_id":"25efa230-22a7-4875-9280-1e243b234097","system_id":"levelo_inurba_marseille","lat":43.295194,"lon":5.39397,"is_reserved":false,"is_disabled":false,"rental_uris":{"android":"levelo://app?vid=25efa230-22a7-4875-9280-1e243b234097","ios":"levelo://app?vid=25efa230-22a7-4875-9280-1e243b234097"},"vehicle_type_id":"4","last_reported":1691438832,"current_range_meters":5600,"station_id":"ce4bh292rcd13ifvqdf0","pricing_plan_id":"free"},{"bike_id":"7b9e2d57-7c2f-4652-8ec0-ee4d147afe24","system_id":"levelo_inurba_marseille","lat":43.302548,"lon":5.400568,"is_reserved":false,"is_disabled":false,"rental_uris":{"android":"levelo://app?vid=7b9e2d57-7c2f-4652-8ec0-ee4d147afe24","ios":"levelo://app?vid=7b9e2d57-7c2f-4652-8ec0-ee4d147afe24"},"vehicle_type_id":"4","last_reported":1691438832,"current_range_meters":2000,"station_id":"","pricing_plan_id":"free"},{"bike_id":"368906bb-8d18-4a2c-b446-e307e679690d","system_id":"levelo_inurba_marseille","lat":43.290345,"lon":5.38646,"is_reserved":false,"is_disabled":false,"rental_uris":{"android":"levelo://app?vid=368906bb-8d18-4a2c-b446-e307e679690d","ios":"levelo://app?vid=368906bb-8d18-4a2c-b446-e307e679690d"},"vehicle_type_id":"4","last_reported":1691438832,"current_range_meters":28800,"station_id":"ce4bh4p2rcd13ifvqe0g","pricing_plan_id":"free"},{"bike_id":"ace3b287-f2a2-432e-aeb9-0c889eb1787a","system_id":"levelo_inurba_marseille","lat":43.29035,"lon":5.38647,"is_reserved":false,"is_disabled":false,"rental_uris":{"android":"levelo://app?vid=ace3b287-f2a2-432e-aeb9-0c889eb1787a","ios":"levelo://app?vid=ace3b287-f2a2-432e-aeb9-0c889eb1787a"},"vehicle_type_id":"4","last_reported":1691438832,"current_range_meters":18000,"station_id":"ce4bh4p2rcd13ifvqe0g","pricing_plan_id":"free"},{"bike_id":"f606a7ad-7354-4049-af6a-6055924f18a8","system_id":"levelo_inurba_marseille","lat":43.290345,"lon":5.38646,"is_reserved":false,"is_disabled":false,"rental_uris":{"android":"levelo://app?vid=f606a7ad-7354-4049-af6a-6055924f18a8","ios":"levelo://app?vid=f606a7ad-7354-4049-af6a-6055924f18a8"},"vehicle_type_id":"4","last_reported":1691438832,"current_range_meters":5600,"station_id":"ce4bh4p2rcd13ifvqe0g","pricing_plan_id":"free"},{"bike_id":"b399db7d-470a-420d-a5f4-25d27ce6cffa","system_id":"levelo_inurba_marseille","lat":43.290336,"lon":5.386425,"is_reserved":false,"is_disabled":false,"rental_uris":{"android":"levelo://app?vid=b399db7d-470a-420d-a5f4-25d27ce6cffa","ios":"levelo://app?vid=b399db7d-470a-420d-a5f4-25d27ce6cffa"},"vehicle_type_id":"4","last_reported":1691438832,"current_range_meters":18000,"station_id":"ce4bh4p2rcd13ifvqe0g","pricing_plan_id":"free"},{"bike_id":"3f90f0a1-19e9-4e5b-9b6b-ad728a182a25","system_id":"levelo_inurba_marseille","lat":43.286039,"lon":5.370681,"is_reserved":false,"is_disabled":false,"rental_uris":{"android":"levelo://app?vid=3f90f0a1-19e9-4e5b-9b6b-ad728a182a25","ios":"levelo://app?vid=3f90f0a1-19e9-4e5b-9b6b-ad728a182a25"},"vehicle_type_id":"4","last_reported":1691438832,"current_range_meters":18400,"station_id":"ce4bht12rcd13ifvqi60","pricing_plan_id":"free"},{"bike_id":"0238288f-0a11-4978-83ca-aa8bcde3e3f6","system_id":"levelo_inurba_marseille","lat":43.31645,"lon":5.40432,"is_reserved":false,"is_disabled":false,"rental_uris":{"android":"levelo://app?vid=0238288f-0a11-4978-83ca-aa8bcde3e3f6","ios":"levelo://app?vid=0238288f-0a11-4978-83ca-aa8bcde3e3f6"},"vehicle_type_id":"4","last_reported":1691438832,"current_range_meters":27200,"station_id":"ce4bh012rcd13ifvqd00","pricing_plan_id":"free"},{"bike_id":"e4d5e0f4-8b43-4dbb-9e45-199013ab1f56","system_id":"levelo_inurba_marseille","lat":43.31644,"lon":5.40433,"is_reserved":false,"is_disabled":false,"rental_uris":{"android":"levelo://app?vid=e4d5e0f4-8b43-4dbb-9e45-199013ab1f56","ios":"levelo://app?vid=e4d5e0f4-8b43-4dbb-9e45-199013ab1f56"},"vehicle_type_id":"4","last_reported":1691438832,"current_range_meters":3200,"station_id":"ce4bh012rcd13ifvqd00","pricing_plan_id":"free"},{"bike_id":"c7e983fb-690a-471b-b033-292c7e7289c8","system_id":"levelo_inurba_marseille","lat":43.3164,"lon":5.40434,"is_reserved":false,"is_disabled":false,"rental_uris":{"android":"levelo://app?vid=c7e983fb-690a-471b-b033-292c7e7289c8","ios":"levelo://app?vid=c7e983fb-690a-471b-b033-292c7e7289c8"},"vehicle_type_id":"4","last_reported":1691438832,"current_range_meters":17600,"station_id":"ce4bh012rcd13ifvqd00","pricing_plan_id":"free"},{"bike_id":"11327d1c-8937-422b-b963-0f9ddf721f1b","system_id":"levelo_inurba_marseille","lat":43.31645,"lon":5.40435,"is_reserved":false,"is_disabled":false,"rental_uris":{"android":"levelo://app?vid=11327d1c-8937-422b-b963-0f9ddf721f1b","ios":"levelo://app?vid=11327d1c-8937-422b-b963-0f9ddf721f1b"},"vehicle_type_id":"4","last_reported":1691438832,"current_range_meters":28400,"station_id":"ce4bh012rcd13ifvqd00","pricing_plan_id":"free"},{"bike_id":"93c542a7-0a44-4c60-9997-7ce8c089f8cd","system_id":"levelo_inurba_marseille","lat":43.3165,"lon":5.40435,"is_reserved":false,"is_disabled":false,"rental_uris":{"android":"levelo://app?vid=93c542a7-0a44-4c60-9997-7ce8c089f8cd","ios":"levelo://app?vid=93c542a7-0a44-4c60-9997-7ce8c089f8cd"},"vehicle_type_id":"4","last_reported":1691438832,"current_range_meters":24400,"station_id":"ce4bh012rcd13ifvqd00","pricing_plan_id":"free"},{"bike_id":"a2c32661-2c8b-4ac3-9625-e2734fe83214","system_id":"levelo_inurba_marseille","lat":43.316517,"lon":5.404375,"is_reserved":false,"is_disabled":false,"rental_uris":{"android":"levelo://app?vid=a2c32661-2c8b-4ac3-9625-e2734fe83214","ios":"levelo://app?vid=a2c32661-2c8b-4ac3-9625-e2734fe83214"},"vehicle_type_id":"4","last_reported":1691438832,"current_range_meters":29200,"station_id":"ce4bh012rcd13ifvqd00","pricing_plan_id":"free"},{"bike_id":"12a26d8e-285f-4a3b-b447-3229cf77c984","system_id":"levelo_inurba_marseille","lat":43.31639,"lon":5.40439,"is_reserved":false,"is_disabled":false,"rental_uris":{"android":"levelo://app?vid=12a26d8e-285f-4a3b-b447-3229cf77c984","ios":"levelo://app?vid=12a26d8e-285f-4a3b-b447-3229cf77c984"},"vehicle_type_id":"4","last_reported":1691438832,"current_range_meters":26800,"station_id":"ce4bh012rcd13ifvqd00","pricing_plan_id":"free"},{"bike_id":"31682d5c-fb13-465b-9f7f-1afd8203d238","system_id":"levelo_inurba_marseille","lat":43.316517,"lon":5.404375,"is_reserved":false,"is_disabled":false,"rental_uris":{"android":"levelo://app?vid=31682d5c-fb13-465b-9f7f-1afd8203d238","ios":"levelo://app?vid=31682d5c-fb13-465b-9f7f-1afd8203d238"},"vehicle_type_id":"4","last_reported":1691438832,"current_range_meters":30400,"station_id":"ce4bh012rcd13ifvqd00","pricing_plan_id":"free"},{"bike_id":"6e426072-1bea-4b18-8da6-1c19b9cdbdac","system_id":"levelo_inurba_marseille","lat":43.291994,"lon":5.392907,"is_reserved":false,"is_disabled":false,"rental_uris":{"android":"levelo://app?vid=6e426072-1bea-4b18-8da6-1c19b9cdbdac","ios":"levelo://app?vid=6e426072-1bea-4b18-8da6-1c19b9cdbdac"},"vehicle_type_id":"4","last_reported":1691438832,"current_range_meters":23200,"station_id":"ce4bh192rcd13ifvqdd0","pricing_plan_id":"free"},