{"last_updated":1748801610,"ttl":60,"version":"2.2","data":{"bikes":[{"bike_id":"55d42eeb-6b71-4987-a0f2-3d758b10d43e","system_id":"levelo_inurba_marseille","lat":43.33771,"lon":5.37424,"is_reserved":false,"is_disabled":true,"rental_uris":{"android":"levelo://app?vid=55d42eeb-6b71-4987-a0f2-3d758b10d43e","ios":"levelo://app?vid=55d42eeb-6b71-4987-a0f2-3d758b10d43e"},"vehicle_type_id":"4","last_reported":1748801610,"current_range_meters":0,"station_id":"","pricing_plan_id":"cebpf4jnsgd1na2vs0mg"},{"bike_id":"b7fe4621-b706-42f0-9085-4811142f84e8","system_id":"levelo_inurba_marseille","lat":43.337499,"lon":5.374469,"is_reserved":false,"is_disabled":true,"rental_uris":{"android":"levelo://app?vid=b7fe4621-b706-42f0-9085-4811142f84e8","ios":"levelo://app?vid=b7fe4621-b706-42f0-9085-4811142f84e8"},"vehicle_type_id":"4","last_reported":1748801610,"current_range_meters":0,"station_id":"","pricing_plan_id":"cebpf4jnsgd1na2vs0mg"},{"bike_id":"55080048-1445-433c-8653-9f436d843131","system_id":"levelo_inurba_marseille","lat":43.2851,"lon":5.3693,"is_reserved":false,"is_disabled":true,"rental_uris":{"android":"levelo://app?vid=55080048-1445-433c-8653-9f436d843131","ios":"levelo://app?vid=55080048-1445-433c-8653-9f436d843131"},"vehicle_type_id":"4","last_reported":1748801610,"current_range_meters":0,"station_id":"","pricing_plan_id":"cebpf4jnsgd1na2vs0mg"},{"bike_id":"ad402f0f-3192-410c-afac-8cf064a40c6d","system_id":"levelo_inurba_marseille","lat":43.337444,"lon":5.374475,"is_reserved":false,"is_disabled":true,"rental_uris":{"android":"levelo://app?vid=ad402f0f-3192-410c-afac-8cf064a40c6d","ios":"levelo://app?vid=ad402f0f-3192-410c-afac-8cf064a40c6d"},"vehicle_type_id":"4","last_reported":1748801610,"current_range_meters":0,"station_id":"","pricing_plan_id":"cebpf4jnsgd1na2vs0mg"},{"bike_id":"e8d8ddad-17f0-4297-b743-7c17818146e6","system_id":"levelo_inurba_marseille","lat":43.28217,"lon":5.42996,"is_reserved":false,"is_disabled":true,"rental_uris":{"android":"levelo://app?vid=e8d8ddad-17f0-4297-b743-7c17818146e6","ios":"levelo://app?vid=e8d8ddad-17f0-4297-b743-7c17818146e6"},"vehicle_type_id":"4","last_reported":1748801610,"current_range_meters":0,"station_id":"","pricing_plan_id":"cebpf4jnsgd1na2vs0mg"},{"bike_id":"33e23254-5d9a-4933-9d6d-7e650f76fc2f","system_id":"levelo_inurba_marseille","lat":43.301896,"lon":5.400766,"is_reserved":false,"is_disabled":true,"rental_uris":{"android":"levelo://app?vid=33e23254-5d9a-4933-9d6d-7e650f76fc2f","ios":"levelo://app?vid=33e23254-5d9a-4933-9d6d-7e650f76fc2f"},"vehicle_type_id":"4","last_reported":1748801610,"current_range_meters":0,"station_id":"","pricing_plan_id":"cebpf4jnsgd1na2vs0mg"},{"bike_id":"df6b3170-cf59-465f-a411-0a5ce0543ede","system_id":"levelo_inurba_marseille","lat":43.32556,"lon":5.4292,"is_reserved":false,"is_disabled":true,"rental_uris":{"android":"levelo://app?vid=df6b3170-cf59-465f-a411-0a5ce0543ede","ios":"levelo://app?vid=df6b3170-cf59-465f-a411-0a5ce0543ede"},"vehicle_type_id":"4","last_reported":1748801610,"current_range_meters":0,"station_id":"","pricing_plan_id":"cebpf4jnsgd1na2vs0mg"},{"bike_id":"965a1b71-066b-4ec9-961d-05f394cdc1f4","system_id":"levelo_inurba_marseille","lat":43.279189,"lon":5.353286,"is_reserved":false,"is_disabled":true,"rental_uris":{"android":"levelo://app?vid=965a1b71-066b-4ec9-961d-05f394cdc1f4","ios":"levelo://app?vid=965a1b71-066b-4ec9-961d-05f394cdc1f4"},"vehicle_type_id":"4","last_reported":1748801610,"current_range_meters":0,"station_id":"","pricing_plan_id":"cebpf4jnsgd1na2vs0mg"},{"bike_id":"91dd981a-247b-4dce-a5c9-0def16fd6fc2","system_id":"levelo_inurba_marseille","lat":43.25174,"lon":5.37456,"is_reserved":false,"is_disabled":true,"rental_uris":{"android":"levelo://app?vid=91dd981a-247b-4dce-a5c9-0def16fd6fc2","ios":"levelo://app?vid=91dd981a-247b-4dce-a5c9-0def16fd6fc2"},"vehicle_type_id":"4","last_reported":1748801610,"current_range_meters":0,"station_id":"","pricing_plan_id":"cebpf4jnsgd1na2vs0mg"},{"bike_id":"726a2420-6b3b-4d0c-b07c-aba8b701f513","system_id":"levelo_inurba_marseille","lat":43.252636,"lon":5.423738,"is_reserved":false,"is_disabled":true,"rental_uris":{"android":"levelo://app?vid=726a2420-6b3b-4d0c-b07c-aba8b701f513","ios":"levelo://app?vid=726a2420-6b3b-4d0c-b07c-aba8b701f513"},"vehicle_type_id":"4","last_reported":1748801610,"current_range_meters":0,"station_id":"","pricing_plan_id":"cebpf4jnsgd1na2vs0mg"},{"bike_id":"90324f38-cd5c-423c-96e4-3ac5e7353987","system_id":"levelo_inurba_marseille","lat":43.35804,"lon":5.3651,"is_reserved":false,"is_disabled":true,"rental_uris":{"android":"levelo://app?vid=90324f38-cd5c-423c-96e4-3ac5e7353987","ios":"levelo://app?vid=90324f38-cd5c-423c-96e4-3ac5e7353987"},"vehicle_type_id":"4","last_reported":1748801610,"current_range_meters":0,"station_id":"","pricing_plan_id":"cebpf4jnsgd1na2vs0mg"},{"bike_id":"365fafc0-5391-4421-a233-afc121c492c4","system_id":"levelo_inurba_marseille","lat":43.33781,"lon":5.42191,"is_reserved":false,"is_disabled":true,"rental_uris":{"android":"levelo://app?vid=365fafc0-5391-4421-a233-afc121c492c4","ios":"levelo://app?vid=365fafc0-5391-4421-a233-afc121c492c4"},"vehicle_type_id":"4","last_reported":1748801610,"current_range_meters":0,"station_id":"","pricing_plan_id":"cebpf4jnsgd1na2vs0mg"},{"bike_id":"769ef632-e97c-42ec-bf26-71e63598c862","system_id":"levelo_inurba_marseille","lat":43.33351,"lon":5.36611,"is_reserved":false,"is_disabled":true,"rental_uris":{"android":"levelo://app?vid=769ef632-e97c-42ec-bf26-71e63598c862","ios":"levelo://app?vid=769ef632-e97c-42ec-bf26-71e63598c862"},"vehicle_type_id":"4","last_reported":1748801610,"current_range_meters":0,"station_id":"","pricing_plan_id":"cebpf4jnsgd1na2vs0mg"},{"bike_id":"8bbf8c88-cca9-40df-ae8f-2a74edb75f00","system_id":"levelo_inurba_marseille","lat":43.362607,"lon":5.306323,"is_reserved":false,"is_disabled":true,"rental_uris":{"android":"levelo://app?vid=8bbf8c88-cca9-40df-ae8f-2a74edb75f00","ios":"levelo://app?vid=8bbf8c88-cca9-40df-ae8f-2a74edb75f00"},"vehicle_type_id":"4","last_reported":1748801610,"current_range_meters":0,"station_id":"","pricing_plan_id":"cebpf4jnsgd1na2vs0mg"},{"bike_id":"b80a4cf9-41c9-4a03-a4e9-481c2381a764","system_id":"levelo_inurba_marseille","lat":43.30399,"lon":5.4248,"is_reserved":false,"is_disabled":true,"rental_uris":{"android":"levelo://app?vid=b80a4cf9-41c9-4a03-a4e9-481c2381a764","ios":"levelo://app?vid=b80a4cf9-41c9-4a03-a4e9-481c2381a764"},"vehicle_type_id":"4","last_reported":1748801610,"current_range_meters":0,"station_id":"ce4bghh2rcd13ifvqb60","pricing_plan_id":"cebpf4jnsgd1na2vs0mg"},{"bike_id":"6c54c3c2-ad38-4763-b866-61b0518bfafc","system_id":"levelo_inurba_marseille","lat":43.289221,"lon":5.384004,"is_reserved":false,"is_disabled":true,"rental_uris":{"android":"levelo://app?vid=6c54c3c2-ad38-4763-b866-61b0518bfafc","ios":"levelo://app?vid=6c54c3c2-ad38-4763-b866-61b0518bfafc"},"vehicle_type_id":"4","last_reported":1748801610,"current_range_meters":0,"station_id":"ce4bgi92rcd13ifvqb90","pricing_plan_id":"cebpf4jnsgd1na2vs0mg"},{"bike_id":"57ff4e78-d28d-41e0-9692-1486f51272f0","system_id":"levelo_inurba_marseille","lat":43.29959,"lon":5.38501,"is_reserved":false,"is_disabled":true,"rental_uris":{"android":"levelo://app?vid=57ff4e78-d28d-41e0-9692-1486f51272f0","ios":"levelo://app?vid=57ff4e78-d28d-41e0-9692-1486f51272f0"},"vehicle_type_id":"4","last_reported":1748801610,"current_range_meters":0,"station_id":"ce4bgj92rcd13ifvqbd0","pricing_plan_id":"cebpf4jnsgd1na2vs0mg"},{"bike_id":"4b7dc7a7-17ef-4c22-8727-770179d10ac8","system_id":"levelo_inurba_marseille","lat":43.30148,"lon":5.3987,"is_reserved":false,"is_disabled":true,"rental_uris":{"android":"levelo://app?vid=4b7dc7a7-17ef-4c22-8727-770179d10ac8","ios":"levelo://app?vid=4b7dc7a7-17ef-4c22-8727-770179d10ac8"},"vehicle_type_id":"4","last_reported":1748801610,"current_range_meters":0,"station_id":"ce4bh0h2rcd13ifvqd40","pricing_plan_id":"cebpf4jnsgd1na2vs0mg"},{"bike_id":"72f05d28-d411-4550-aa14-21a91f3795c3","system_id":"levelo_inurba_marseille","lat":43.29264,"lon":5.38441,"is_reserved":false,"is_disabled":true,"rental_uris":{"android":"levelo://app?vid=72f05d28-d411-4550-aa14-21a91f3795c3","ios":"levelo://app?vid=72f05d28-d411-4550-aa14-21a91f3795c3"},"vehicle_type_id":"4","last_reported":1748801610,"current_range_meters":0,"station_id":"ce4bh692rcd13ifvqea0","pricing_plan_id":"cebpf4jnsgd1na2vs0mg"},{"bike_id":"5b7f52be-7ec1-43a7-87a7-001bde2c8fc7","system_id":"levelo_inurba_marseille","lat":43.29258,"lon":5.38432,"is_reserved":false,"is_disabled":true,"rental_uris":{"android":"levelo://app?vid=5b7f52be-7ec1-43a7-87a7-001bde2c8fc7","ios":"levelo://app?vid=5b7f52be-7ec1-43a7-87a7-001bde2c8fc7"},"vehicle_type_id":"4","last_reported":1748801610,"current_range_meters":0,"station_id":"ce4bh692rcd13ifvqea0","pricing_plan_id":"cebpf4jnsgd1na2vs0mg"},{"bike_id":"8b30b374-fe57-4109-accf-50ebee63b210","system_id":"levelo_inurba_marseille","lat":43.27972,"lon":5.38737,"is_reserved":false,"is_disabled":true,"rental_uris":{"android":"levelo://app?vid=8b30b374-fe57-4109-accf-50ebee63b210","ios":"levelo://app?vid=8b30b374-fe57-4109-accf-50ebee63b210"},"vehicle_type_id":"4","last_reported":1748801610,"current_range_meters":0,"station_id":"ce4bhg12rcd13ifvqf80","pricing_plan_id":"cebpf4jnsgd1na2vs0mg"},{"bike_id":"6cebeccd-15a6-4225-ad28-cb12871efd72","system_id":"levelo_inurba_marseille","lat":43.27206,"lon":5.39177,"is_reserved":false,"is_disabled":true,"rental_uris":{"android":"levelo://app?vid=6cebeccd-15a6-4225-ad28-cb12871efd72","ios":"levelo://app?vid=6cebeccd-15a6-4225-ad28-cb12871efd72"},"vehicle_type_id":"4","last_reported":1748801610,"current_range_meters":0,"station_id":"ce4bhhp2rcd13ifvqfm0","pricing_plan_id":"cebpf4jnsgd1na2vs0mg"},{"bike_id":"ed543862-f03f-4ba1-8efd-db340f73715e","system_id":"levelo_inurba_marseille","lat":43.32363,"lon":5.38889,"is_reserved":false,"is_disabled":true,"rental_uris":{"android":"levelo://app?vid=ed543862-f03f-4ba1-8efd-db340f73715e","ios":"levelo://app?vid=ed543862-f03f-4ba1-8efd-db340f73715e"},"vehicle_type_id":"4","last_reported":1748801610,"current_range_meters":0,"station_id":"ce4bhqp2rcd13ifvqhog","pricing_plan_id":"cebpf4jnsgd1na2vs0mg"},{"bike_id":"04931d91-ef7c-4c3c-b217-67b5707ba7a4","system_id":"levelo_inurba_marseille","lat":43.32474,"lon":5.36596,"is_reserved":false,"is_disabled":true,"rental_uris":{"android":"levelo://app?vid=04931d91-ef7c-4c3c-b217-67b5707ba7a4","ios":"levelo://app?vid=04931d91-ef7c-4c3c-b217-67b5707ba7a4"},"vehicle_type_id":"4","last_reported":1748801610,"current_range_meters":0,"station_id":"ce4bhs12rcd13ifvqhvg","pricing_plan_id":"cebpf4jnsgd1na2vs0mg"},{"bike_id":"f516a3fc-bad1-451c-995b-7127048611e0","system_id":"levelo_inurba_marseille","lat":43.32339,"lon":5.36747,"is_reserved":false,"is_disabled":true,"rental_uris":{"android":"levelo://app?vid=f516a3fc-bad1-451c-995b-7127048611e0","ios":"levelo://app?vid=f516a3fc-bad1-451c-995b-7127048611e0"},"vehicle_type_id":"4","last_reported":1748801610,"current_range_meters":0,"station_id":"ce4bhsh2rcd13ifvqi2g","pricing_plan_id":"cebpf4jnsgd1na2vs0mg"},{"bike_id":"953347a9-d36b-4902-a1ed-3fcaa638eaaf","system_id":"levelo_inurba_marseille","lat":43.25565,"lon":5.38249,"is_reserved":false,"is_disabled":true,"rental_uris":{"android":"levelo://app?vid=953347a9-d36b-4902-a1ed-3fcaa638eaaf","ios":"levelo://app?vid=953347a9-d36b-4902-a1ed-3fcaa638eaaf"},"vehicle_type_id":"4","last_reported":1748801610,"current_range_meters":400,"station_id":"ce4bhih2rcd13ifvqfs0","pricing_plan_id":"cebpf4jnsgd1na2vs0mg"},{"bike_id":"5a173132-f039-45ea-9074-ea5a6258a949","system_id":"levelo_inurba_marseille","lat":43.25727,"lon":5.41104,"is_reserved":false,"is_disabled":true,"rental_uris":{"android":"levelo://app?vid=5a173132-f039-45ea-9074-ea5a6258a949","ios":"levelo://app?vid=5a173132-f039-45ea-9074-ea5a6258a949"},"vehicle_type_id":"4","last_reported":1748801610,"current_range_meters":400,"station_id":"ce4bhkp2rcd13ifvqgd0","pricing_plan_id":"cebpf4jnsgd1na2vs0mg"},{"bike_id":"ce1a961f-833a-4c78-9f16-fb2a50aa9711","system_id":"levelo_inurba_marseille","lat":43.29559,"lon":5.4229,"is_reserved":false,"is_disabled":true,"rental_uris":{"android":"levelo://app?vid=ce1a961f-833a-4c78-9f16-fb2a50aa9711","ios":"levelo://app?vid=ce1a961f-833a-4c78-9f16-fb2a50aa9711"},"vehicle_type_id":"4","last_reported":1748801610,"current_range_meters":400,"station_id":"ce4bhph2rcd13ifvqhdg","pricing_plan_id":"cebpf4jnsgd1na2vs0mg"},{"bike_id":"546f9a0a-ee2d-4282-9860-c70ad236b9f7","system_id":"levelo_inurba_marseille","lat":43.26817,"lon":5.40256,"is_reserved":false,"is_disabled":true,"rental_uris":{"android":"levelo://app?vid=546f9a0a-ee2d-4282-9860-c70ad236b9f7","ios":"levelo://app?vid=546f9a0a-ee2d-4282-9860-c70ad236b9f7"},"vehicle_type_id":"4","last_reported":1748801610,"current_range_meters":400,"station_id":"ce501612rcd8frsf0b60","pricing_plan_id":"cebpf4jnsgd1na2vs0mg"},{"bike_id":"5a62b5f7-d9b5-4aac-97c6-39fbd0c44e86","system_id":"levelo_inurba_marseille","lat":43.30536,"lon":5.3842,"is_reserved":false,"is_disabled":true,"rental_uris":{"android":"levelo://app?vid=5a62b5f7-d9b5-4aac-97c6-39fbd0c44e86","ios":"levelo://app?vid=5a62b5f7-d9b5-4aac-97c6-39fbd0c44e86"},"vehicle_type_id":"4","last_reported":1748801610,"current_range_meters":800,"station_id":"ce4bgg92rcd13ifvqb30","pricing_plan_id":"cebpf4jnsgd1na2vs0mg"},{"bike_id":"b4ffe950-726c-4b07-ab30-8d4936473900","system_id":"levelo_inurba_marseille","lat":43.31352,"lon":5.36752,"is_reserved":false,"is_disabled":true,"rental_uris":{"android":"levelo://app?vid=b4ffe950-726c-4b07-ab30-8d4936473900","ios":"levelo://app?vid=b4ffe950-726c-4b07-ab30-8d4936473900"},"vehicle_type_id":"4","last_reported":1748801610,"current_range_meters":800,"station_id":"ce4bgr92rcd13ifvqc6g","pricing_plan_id":"cebpf4jnsgd1na2vs0mg"},{"bike_id":"e42883c2-8931-47f1-a17c-18ef311e8ba5","system_id":"levelo_inurba_marseille","lat":43.29264,"lon":5.38427,"is_reserved":false,"is_disabled":true,"rental_uris":{"android":"levelo://app?vid=e42883c2-8931-47f1-a17c-18ef311e8ba5","ios":"levelo://app?vid=e42883c2-8931-47f1-a17c-18ef311e8ba5"},"vehicle_type_id":"4","last_reported":1748801610,"current_range_meters":800,"station_id":"ce4bh692rcd13ifvqea0","pricing_plan_id":"cebpf4jnsgd1na2vs0mg"},{"bike_id":"f5d02e0f-810b-42f2-8f87-9af153872499","system_id":"levelo_inurba_marseille","lat":43.29531,"lon":5.39385,"is_reserved":false,"is_disabled":true,"rental_uris":{"android":"levelo://app?vid=f5d02e0f-810b-42f2-8f87-9af153872499","ios":"levelo://app?vid=f5d02e0f-810b-42f2-8f87-9af153872499"},"vehicle_type_id":"4","last_reported":1748801610,"current_range_meters":1200,"station_id":"ce4bh292rcd13ifvqdf0","pricing_plan_id":"cebpf4jnsgd1na2vs0mg"},{"bike_id":"e6afd776-2299-4ea4-a5dd-8236a53f83be","system_id":"levelo_inurba_marseille","lat":43.28843,"lon":5.35847,"is_reserved":false,"is_disabled":true,"rental_uris":{"android":"levelo://app?vid=e6afd776-2299-4ea4-a5dd-8236a53f83be","ios":"levelo://app?vid=e6afd776-2299-4ea4-a5dd-8236a53f83be"},"vehicle_type_id":"4","last_reported":1748801610,"current_range_meters":1200,"station_id":"ce4bhb12rcd13ifvqem0","pricing_plan_id":"cebpf4jnsgd1na2vs0mg"},{"bike_id":"7f1ac8e9-246a-4dc9-8f26-6281dac33312","system_id":"levelo_inurba_marseille","lat":43.25,"lon":5.38924,"is_reserved":false,"is_disabled":true,"rental_uris":{"android":"levelo://app?vid=7f1ac8e9-246a-4dc9-8f26-6281dac33312","ios":"levelo://app?vid=7f1ac8e9-246a-4dc9-8f26-6281dac33312"},"vehicle_type_id":"4","last_reported":1748801610,"current_range_meters":1200,"station_id":"ce4bhgp2rcd13ifvqfd0","pricing_plan_id":"cebpf4jnsgd1na2vs0mg"},{"bike_id":"67e7d2ee-e71c-4a21-a4dc-92757e7ef335","system_id":"levelo_inurba_marseille","lat":43.2962,"lon":5.3771,"is_reserved":false,"is_disabled":true,"rental_uris":{"android":"levelo://app?vid=67e7d2ee-e71c-4a21-a4dc-92757e7ef335","ios":"levelo://app?vid=67e7d2ee-e71c-4a21-a4dc-92757e7ef335"},"vehicle_type_id":"4","last_reported":1748801610,"current_range_meters":1600,"station_id":"ce4bgi92rcd13ifvqb90","pricing_plan_id":"cebpf4jnsgd1na2vs0mg"},{"bike_id":"e4f22640-379c-4233-9285-c67c9e07ebfd","system_id":"levelo_inurba_marseille","lat":43.29267,"lon":5.40126,"is_reserved":false,"is_disabled":true,"rental_uris":{"android":"levelo://app?vid=e4f22640-379c-4233-9285-c67c9e07ebfd","ios":"levelo://app?vid=e4f22640-379c-4233-9285-c67c9e07ebfd"},"vehicle_type_id":"4","last_reported":1748801610,"current_range_meters":1600,"station_id":"ce4bh312rcd13ifvqdk0","pricing_plan_id":"cebpf4jnsgd1na2vs0mg"},{"bike_id":"08188bd3-fcd0-4b0f-b3d4-5dcdcf6d4767","system_id":"levelo_inurba_marseille","lat":43.24806,"lon":5.37458,"is_reserved":false,"is_disabled":true,"rental_uris":{"android":"levelo://app?vid=08188bd3-fcd0-4b0f-b3d4-5dcdcf6d4767","ios":"levelo://app?vid=08188bd3-fcd0-4b0f-b3d4-5dcdcf6d4767"},"vehicle_type_id":"4","last_reported":1748801610,"current_range_meters":1600,"station_id":"ce4bhgh2rcd13ifvqfb0","pricing_plan_id":"cebpf4jnsgd1na2vs0mg"},{"bike_id":"7eb27305-b488-4747-85d2-760b485c4034","system_id":"levelo_inurba_marseille","lat":43.32969,"lon":5.39779,"is_reserved":false,"is_disabled":true,"rental_uris":{"android":"levelo://app?vid=7eb27305-b488-4747-85d2-760b485c4034","ios":"levelo://app?vid=7eb27305-b488-4747-85d2-760b485c4034"},"vehicle_type_id":"4","last_reported":1748801610,"current_range_meters":2000,"station_id":"","pricing_plan_id":"cebpf4jnsgd1na2vs0mg"},{"bike_id":"562823b7-697a-4e79-963c-ab7823a16b89","system_id":"levelo_inurba_marseille","lat":43.251038,"lon":5.403238,"is_reserved":false,"is_disabled":true,"rental_uris":{"android":"levelo://app?vid=562823b7-697a-4e79-963c-ab7823a16b89","ios":"levelo://app?vid=562823b7-697a-4e79-963c-ab7823a16b89"},"vehicle_type_id":"4","last_reported":1748801610,"current_range_meters":2000,"station_id":"ce4bhlh2rcd13ifvqgig","pricing_plan_id":"cebpf4jnsgd1na2vs0mg"},{"bike_id":"605e90bc-0950-4e49-9e84-98a223de6c56","system_id":"levelo_inurba_marseille","lat":43.29986,"lon":5.38471,"is_reserved":false,"is_disabled":false,"rental_uris":{"android":"levelo://app?vid=605e90bc-0950-4e49-9e84-98a223de6c56","ios":"levelo://app?vid=605e90bc-0950-4e49-9e84-98a223de6c56"},"vehicle_type_id":"4","last_reported":1748801610,"current_range_meters":2800,"station_id":"ce4bgj92rcd13ifvqbd0","pricing_plan_id":"cebpf4jnsgd1na2vs0mg"},{"bike_id":"4d3f4f1a-710a-43ae-ac4f-07324eec2d2b","system_id":"levelo_inurba_marseille","lat":43.24999,"lon":5.38926,"is_reserved":false,"is_disabled":false,"rental_uris":{"android":"levelo://app?vid=4d3f4f1a-710a-43ae-ac4f-07324eec2d2b","ios":"levelo://app?vid=4d3f4f1a-710a-43ae-ac4f-07324eec2d2b"},"vehicle_type_id":"4","last_reported":1748801610,"current_range_meters":3600,"station_id":"ce4bhgp2rcd13ifvqfd0","pricing_plan_id":"cebpf4jnsgd1na2vs0mg"},{"bike_id":"81aa6281-8634-46da-8fa9-7ea96b59f87a","system_id":"levelo_inurba_marseille","lat":43.25938,"lon":5.40909,"is_reserved":false,"is_disabled":false,"rental_uris":{"android":"levelo://app?vid=81aa6281-8634-46da-8fa9-7ea96b59f87a","ios":"levelo://app?vid=81aa6281-8634-46da-8fa9-7ea96b59f87a"},"vehicle_type_id":"4","last_reported":1748801610,"current_range_meters":3600,"station_id":"ce4bhm92rcd13ifvqglg","pricing_plan_id":"cebpf4jnsgd1na2vs0mg"},{"bike_id":"089d0b4d-4f25-4de8-ab0c-9ca35b35c654","system_id":"levelo_inurba_marseille","lat":43.29192,"lon":5.35794,"is_reserved":false,"is_disabled":false,"rental_uris":{"android":"levelo://app?vid=089d0b4d-4f25-4de8-ab0c-9ca35b35c654","ios":"levelo://app?vid=089d0b4d-4f25-4de8-ab0c-9ca35b35c654"},"vehicle_type_id":"4","last_reported":1748801610,"current_range_meters":4000,"station_id":"ce4bhb12rcd13ifvqel0","pricing_plan_id":"cebpf4jnsgd1na2vs0mg"},{"bike_id":"abf4d9d1-951f-4b81-addb-93563fde6561","system_id":"levelo_inurba_marseille","lat":43.2572,"lon":5.41109,"is_reserved":false,"is_disabled":false,"rental_uris":{"android":"levelo://app?vid=abf4d9d1-951f-4b81-addb-93563fde6561","ios":"levelo://app?vid=abf4d9d1-951f-4b81-addb-93563fde6561"},"vehicle_type_id":"4","last_reported":1748801610,"current_range_meters":4000,"station_id":"ce4bhkp2rcd13ifvqgd0","pricing_plan_id":"cebpf4jnsgd1na2vs0mg"},{"bike_id":"229745dc-ce30-4a4a-a97d-383da26a453e","system_id":"levelo_inurba_marseille","lat":43.25354,"lon":5.37567,"is_reserved":false,"is_disabled":false,"rental_uris":{"android":"levelo://app?vid=229745dc-ce30-4a4a-a97d-383da26a453e","ios":"levelo://app?vid=229745dc-ce30-4a4a-a97d-383da26a453e"},"vehicle_type_id":"4","last_reported":1748801610,"current_range_meters":4400,"station_id":"","pricing_plan_id":"cebpf4jnsgd1na2vs0mg"},{"bike_id":"164b9e37-5075-4fc8-ada5-0295f1b4019e","system_id":"levelo_inurba_marseille","lat":43.3117,"lon":5.38713,"is_reserved":false,"is_disabled":false,"rental_uris":{"android":"levelo://app?vid=164b9e37-5075-4fc8-ada5-0295f1b4019e","ios":"levelo://app?vid=164b9e37-5075-4fc8-ada5-0295f1b4019e"},"vehicle_type_id":"4","last_reported":1748801610,"current_range_meters":4400,"station_id":"ce4bgv12rcd13ifvqcp0","pricing_plan_id":"cebpf4jnsgd1na2vs0mg"},{"bike_id":"c9c78cf4-0c6b-41e2-b946-04937c22ec3e","system_id":"levelo_inurba_marseille","lat":43.291882,"lon":5.422511,"is_reserved":false,"is_disabled":false,"rental_uris":{"android":"levelo://app?vid=c9c78cf4-0c6b-41e2-b946-04937c22ec3e","ios":"levelo://app?vid=c9c78cf4-0c6b-41e2-b946-04937c22ec3e"},"vehicle_type_id":"4","last_reported":1748801610,"current_range_meters":4800,"station_id":"","pricing_plan_id":"cebpf4jnsgd1na2vs0mg"},{"bike_id":"70f70429-b3a4-4bd4-900e-7624fcef71b2","system_id":"levelo_inurba_marseille","lat":43.315076,"lon":5.388773,"is_reserved":false,"is_disabled":false,"rental_uris":{"android":"levelo://app?vid=70f70429-b3a4-4bd4-900e-7624fcef71b2","ios":"levelo://app?vid=70f70429-b3a4-4bd4-900e-7624fcef71b2"},"vehicle_type_id":"4","last_reported":1748801610,"current_range_meters":4800,"station_id":"","pricing_plan_id":"cebpf4jnsgd1na2vs0mg"},{"bike_id":"2b201de7-06ee-44b6-9c85-dda11376754f","system_id":"levelo_inurba_marseille","lat":43.243525,"lon":5.380133,"is_reserved":false,"is_disabled":false,"rental_uris":{"android":"levelo://app?vid=2b201de7-06ee-44b6-9c85-dda11376754f","ios":"levelo://app?vid=2b201de7-06ee-44b6-9c85-dda11376754f"},"vehicle_type_id":"4","last_reported":1748801610,"current_range_meters":4800,"station_id":"","pricing_plan_id":"cebpf4jnsgd1na2vs0mg"},{"bike_id":"c554eddd-c6ad-4a1a-8a17-ca91732602f1","system_id":"levelo_inurba_marseille","lat":43.27901,"lon":5.38014,"is_reserved":false,"is_disabled":false,"rental_uris":{"android":"levelo://app?vid=c554eddd-c6ad-4a1a-8a17-ca91732602f1","ios":"levelo://app?vid=c554eddd-c6ad-4a1a-8a17-ca91732602f1"},"vehicle_type_id":"4","last_reported":1748801610,"current_range_meters":4800,"station_id":"ce4bhf92rcd13ifvqf50","pricing_plan_id":"cebpf4jnsgd1na2vs0mg"},{"bike_id":"72185a54-2fe6-4f91-9933-4c82fe5873a6","system_id":"levelo_inurba_marseille","lat":43.28695,"lon":5.39977,"is_reserved":false,"is_disabled":false,"rental_uris":{"android":"levelo://app?vid=72185a54-2fe6-4f91-9933-4c82fe5873a6","ios":"levelo://app?vid=72185a54-2fe6-4f91-9933-4c82fe5873a6"},"vehicle_type_id":"4","last_reported":1748801610,"current_range_meters":4800,"station_id":"ce4bho92rcd13ifvqh3g","pricing_plan_id":"cebpf4jnsgd1na2vs0mg"},{"bike_id":"8d48119e-760e-4c00-b401-59af0a322afa","system_id":"levelo_inurba_marseille","lat":43.256563,"lon":5.408543,"is_reserved":false,"is_disabled":false,"rental_uris":{"android":"levelo://app?vid=8d48119e-760e-4c00-b401-59af0a322afa","ios":"levelo://app?vid=8d48119e-760e-4c00-b401-59af0a322afa"},"vehicle_type_id":"4","last_reported":1748801610,"current_range_meters":5600,"station_id":"","pricing_plan_id":"cebpf4jnsgd1na2vs0mg"},{"bike_id":"79112a50-218e-4059-8126-c56252010524","system_id":"levelo_inurba_marseille","lat":43.2512,"lon":5.40317,"is_reserved":false,"is_disabled":false,"rental_uris":{"android":"levelo://app?vid=79112a50-218e-4059-8126-c56252010524","ios":"levelo://app?vid=79112a50-218e-4059-8126-c56252010524"},"vehicle_type_id":"4","last_reported":1748801610,"current_range_meters":5600,"station_id":"ce4bhlh2rcd13ifvqgig","pricing_plan_id":"cebpf4jnsgd1na2vs0mg"},{"bike_id":"805d745e-33f5-4358-b9ba-7d0bfd6ccd61","system_id":"levelo_inurba_marseille","lat":43.23186,"lon":5.39985,"is_reserved":false,"is_disabled":false,"rental_uris":{"android":"levelo://app?vid=805d745e-33f5-4358-b9ba-7d0bfd6ccd61","ios":"levelo://app?vid=805d745e-33f5-4358-b9ba-7d0bfd6ccd61"},"vehicle_type_id":"4","last_reported":1748801610,"current_range_meters":6000,"station_id":"ce4bhn12rcd13ifvqgqg","pricing_plan_id":"cebpf4jnsgd1na2vs0mg"},{"bike_id":"742ea022-7ec3-403b-ab76-b027020c7592","system_id":"levelo_inurba_marseille","lat":43.32301,"lon":5.38286,"is_reserved":false,"is_disabled":false,"rental_uris":{"android":"levelo://app?vid=742ea022-7ec3-403b-ab76-b027020c7592","ios":"levelo://app?vid=742ea022-7ec3-403b-ab76-b027020c7592"},"vehicle_type_id":"4","last_reported":1748801610,"current_range_meters":6000,"station_id":"ce4bhr12rcd13ifvqhqg","pricing_plan_id":"cebpf4jnsgd1na2vs0mg"},{"bike_id":"5bbcf6e2-8e8b-442d-9475-71dea9ba3d86","system_id":"levelo_inurba_marseille","lat":43.298473,"lon":5.362852,"is_reserved":false,"is_disabled":false,"rental_uris":{"android":"levelo://app?vid=5bbcf6e2-8e8b-442d-9475-71dea9ba3d86","ios":"levelo://app?vid=5bbcf6e2-8e8b-442d-9475-71dea9ba3d86"},"vehicle_type_id":"4","last_reported":1748801610,"current_range_meters":6400,"station_id":"ce4bgpp2rcd13ifvqc3g","pricing_plan_id":"cebpf4jnsgd1na2vs0mg"},{"bike_id":"8ae16160-9348-492b-9270-6bee880ca5e3","system_id":"levelo_inurba_marseille","lat":43.35973,"lon":5.323484,"is_reserved":false,"is_disabled":false,"rental_uris":{"android":"levelo://app?vid=8ae16160-9348-492b-9270-6bee880ca5e3","ios":"levelo://app?vid=8ae16160-9348-492b-9270-6bee880ca5e3"},"vehicle_type_id":"4","last_reported":1748801610,"current_range_meters":6800,"station_id":"","pricing_plan_id":"cebpf4jnsgd1na2vs0mg"},{"bike_id":"16956ecc-ed47-44a5-bf64-7ac7c0de85fa","system_id":"levelo_inurba_marseille","lat":43.31563,"lon":5.36877,"is_reserved":false,"is_disabled":false,"rental_uris":{"android":"levelo://app?vid=16956ecc-ed47-44a5-bf64-7ac7c0de85fa","ios":"levelo://app?vid=16956ecc-ed47-44a5-bf64-7ac7c0de85fa"},"vehicle_type_id":"4","last_reported":1748801610,"current_range_meters":6800,"station_id":"","pricing_plan_id":"cebpf4jnsgd1na2vs0mg"},{"bike_id":"dec79a0f-c1b3-445e-ac3b-7aebd5f1617e","system_id":"levelo_inurba_marseille","lat":43.28704,"lon":5.37385,"is_reserved":false,"is_disabled":false,"rental_uris":{"android":"levelo://app?vid=dec79a0f-c1b3-445e-ac3b-7aebd5f1617e","ios":"levelo://app?vid=dec79a0f-c1b3-445e-ac3b-7aebd5f1617e"},"vehicle_type_id":"4","last_reported":1748801610,"current_range_meters":6800,"station_id":"ce4bh3p2rcd13ifvqdq0","pricing_plan_id":"cebpf4jnsgd1na2vs0mg"},{"bike_id":"f3755332-5366-42a3-b49f-8cc4a3a31d14","system_id":"levelo_inurba_marseille","lat":43.248074,"lon":5.374577,"is_reserved":false,"is_disabled":false,"rental_uris":{"android":"levelo://app?vid=f3755332-5366-42a3-b49f-8cc4a3a31d14","ios":"levelo://app?vid=f3755332-5366-42a3-b49f-8cc4a3a31d14"},"vehicle_type_id":"4","last_reported":1748801610,"current_range_meters":7200,"station_id":"","pricing_plan_id":"cebpf4jnsgd1na2vs0mg"},{"bike_id":"a25669b5-8545-4ae0-a49f-b085fde782b0","system_id":"levelo_inurba_marseille","lat":43.28939,"lon":5.36368,"is_reserved":false,"is_disabled":false,"rental_uris":{"android":"levelo://app?vid=a25669b5-8545-4ae0-a49f-b085fde782b0","ios":"levelo://app?vid=a25669b5-8545-4ae0-a49f-b085fde782b0"},"vehicle_type_id":"4","last_reported":1748801610,"current_range_meters":7200,"station_id":"ce4bhc92rcd13ifvqetg","pricing_plan_id":"cebpf4jnsgd1na2vs0mg"},{"bike_id":"2bd8fbaf-2b4f-4002-bb0a-da76b38abc33","system_id":"levelo_inurba_marseille","lat":43.25112,"lon":5.40327,"is_reserved":false,"is_disabled":false,"rental_uris":{"android":"levelo://app?vid=2bd8fbaf-2b4f-4002-bb0a-da76b38abc33","ios":"levelo://app?vid=2bd8fbaf-2b4f-4002-bb0a-da76b38abc33"},"vehicle_type_id":"4","last_reported":1748801610,"current_range_meters":7200,"station_id":"ce4bhlh2rcd13ifvqgig","pricing_plan_id":"cebpf4jnsgd1na2vs0mg"},{"bike_id":"f0d674f9-f37e-484a-9740-e0f3ad4f2c47","system_id":"levelo_inurba_marseille","lat":43.22927,"lon":5.35374,"is_reserved":false,"is_disabled":false,"rental_uris":{"android":"levelo://app?vid=f0d674f9-f37e-484a-9740-e0f3ad4f2c47","ios":"levelo://app?vid=f0d674f9-f37e-484a-9740-e0f3ad4f2c47"},"vehicle_type_id":"4","last_reported":1748801610,"current_range_meters":7200,"station_id":"cpo3532slgdg3j2ikp40","pricing_plan_id":"cebpf4jnsgd1na2vs0mg"},{"bike_id":"baa86a52-c1ca-4b07-a86e-1aca51f8e8a6","system_id":"levelo_inurba_marseille","lat":43.30598,"lon":5.37225,"is_reserved":false,"is_disabled":false,"rental_uris":{"android":"levelo://app?vid=baa86a52-c1ca-4b07-a86e-1aca51f8e8a6","ios":"levelo://app?vid=baa86a52-c1ca-4b07-a86e-1aca51f8e8a6"},"vehicle_type_id":"4","last_reported":1748801610,"current_range_meters":8000,"station_id":"ce4bgqh2rcd13ifvqc4g","pricing_plan_id":"cebpf4jnsgd1na2vs0mg"},{"bike_id":"343f4bff-388e-4456-b306-0cff91827f7e","system_id":"levelo_inurba_marseille","lat":43.26681,"lon":5.38274,"is_reserved":false,"is_disabled":false,"rental_uris":{"android":"levelo://app?vid=343f4bff-388e-4456-b306-0cff91827f7e","ios":"levelo://app?vid=343f4bff-388e-4456-b306-0cff91827f7e"},"vehicle_type_id":"4","last_reported":1748801610,"current_range_meters":8000,"station_id":"ce4bhg92rcd13ifvqf90","pricing_plan_id":"cebpf4jnsgd1na2vs0mg"},{"bike_id":"91373f8e-0284-4741-84a6-bf8383055c8a","system_id":"levelo_inurba_marseille","lat":43.27495,"lon":5.42451,"is_reserved":false,"is_disabled":false,"rental_uris":{"android":"levelo://app?vid=91373f8e-0284-4741-84a6-bf8383055c8a","ios":"levelo://app?vid=91373f8e-0284-4741-84a6-bf8383055c8a"},"vehicle_type_id":"4","last_reported":1748801610,"current_range_meters":8000,"station_id":"ce4bhn92rcd13ifvqgrg","pricing_plan_id":"cebpf4jnsgd1na2vs0mg"},{"bike_id":"55f6bf6d-872f-49e9-8da1-510f09f612b8","system_id":"levelo_inurba_marseille","lat":43.29557,"lon":5.4229,"is_reserved":false,"is_disabled":false,"rental_uris":{"android":"levelo://app?vid=55f6bf6d-872f-49e9-8da1-510f09f612b8","ios":"levelo://app?vid=55f6bf6d-872f-49e9-8da1-510f09f612b8"},"vehicle_type_id":"4","last_reported":1748801610,"current_range_meters":8000,"station_id":"ce4bhph2rcd13ifvqhdg","pricing_plan_id":"cebpf4jnsgd1na2vs0mg"},{"bike_id":"0e766e84-b556-4bd2-9bb4-d19f52af6645","system_id":"levelo_inurba_marseille","lat":43.32548,"lon":5.42403,"is_reserved":false,"is_disabled":false,"rental_uris":{"android":"levelo://app?vid=0e766e84-b556-4bd2-9bb4-d19f52af6645","ios":"levelo://app?vid=0e766e84-b556-4bd2-9bb4-d19f52af6645"},"vehicle_type_id":"4","last_reported":1748801610,"current_range_meters":8400,"station_id":"","pricing_plan_id":"cebpf4jnsgd1na2vs0mg"},{"bike_id":"b817233f-ca62-4c03-a2a3-75e039bdd914","system_id":"levelo_inurba_marseille","lat":43.32236,"lon":5.39461,"is_reserved":false,"is_disabled":false,"rental_uris":{"android":"levelo://app?vid=b817233f-ca62-4c03-a2a3-75e039bdd914","ios":"levelo://app?vid=b817233f-ca62-4c03-a2a3-75e039bdd914"},"vehicle_type_id":"4","last_reported":1748801610,"current_range_meters":8400,"station_id":"","pricing_plan_id":"cebpf4jnsgd1na2vs0mg"},{"bike_id":"c2d827ad-b79b-4af0-8aa9-9a8aa89c605e","system_id":"levelo_inurba_marseille","lat":43.29842,"lon":5.36267,"is_reserved":false,"is_disabled":false,"rental_uris":{"android":"levelo://app?vid=c2d827ad-b79b-4af0-8aa9-9a8aa89c605e","ios":"levelo://app?vid=c2d827ad-b79b-4af0-8aa9-9a8aa89c605e"},"vehicle_type_id":"4","last_reported":1748801610,"current_range_meters":8400,"station_id":"ce4bgpp2rcd13ifvqc3g","pricing_plan_id":"cebpf4jnsgd1na2vs0mg"},{"bike_id":"480eb872-fcbb-4035-8a2f-23a59840823b","system_id":"levelo_inurba_marseille","lat":43.29431,"lon":5.39762,"is_reserved":false,"is_disabled":false,"rental_uris":{"android":"levelo://app?vid=480eb872-fcbb-4035-8a2f-23a59840823b","ios":"levelo://app?vid=480eb872-fcbb-4035-8a2f-23a59840823b"},"vehicle_type_id":"4","last_reported":1748801610,"current_range_meters":8400,"station_id":"ce4bh3h2rcd13ifvqdo0","pricing_plan_id":"cebpf4jnsgd1na2vs0mg"},{"bike_id":"153f2125-a964-4000-8b9b-7b377bb31d0b","system_id":"levelo_inurba_marseille","lat":43.25362,"lon":5.37546,"is_reserved":false,"is_disabled":false,"rental_uris":{"android":"levelo://app?vid=153f2125-a964-4000-8b9b-7b377bb31d0b","ios":"levelo://app?vid=153f2125-a964-4000-8b9b-7b377bb31d0b"},"vehicle_type_id":"4","last_reported":1748801610,"current_range_meters":8800,"station_id":"","pricing_plan_id":"cebpf4jnsgd1na2vs0mg"},{"bike_id":"5ef067e7-b281-4ef9-ad2a-1c6b02a54c04","system_id":"levelo_inurba_marseille","lat":43.319445,"lon":5.44062,"is_reserved":false,"is_disabled":false,"rental_uris":{"android":"levelo://app?vid=5ef067e7-b281-4ef9-ad2a-1c6b02a54c04","ios":"levelo://app?vid=5ef067e7-b281-4ef9-ad2a-1c6b02a54c04"},"vehicle_type_id":"4","last_reported":1748801610,"current_range_meters":9200,"station_id":"","pricing_plan_id":"cebpf4jnsgd1na2vs0mg"},{"bike_id":"0a006dba-5f88-4f80-82bd-01b6cdd247f7","system_id":"levelo_inurba_marseille","lat":43.30641,"lon":5.40098,"is_reserved":false,"is_disabled":false,"rental_uris":{"android":"levelo://app?vid=0a006dba-5f88-4f80-82bd-01b6cdd247f7","ios":"levelo://app?vid=0a006dba-5f88-4f80-82bd-01b6cdd247f7"},"vehicle_type_id":"4","last_reported":1748801610,"current_range_meters":9200,"station_id":"ce4bh112rcd13ifvqda0","pricing_plan_id":"cebpf4jnsgd1na2vs0mg"},{"bike_id":"dda5ad83-2720-4fb0-97cf-a36fb2be608a","system_id":"levelo_inurba_marseille","lat":43.25822,"lon":5.39436,"is_reserved":false,"is_disabled":false,"rental_uris":{"android":"levelo://app?vid=dda5ad83-2720-4fb0-97cf-a36fb2be608a","ios":"levelo://app?vid=dda5ad83-2720-4fb0-97cf-a36fb2be608a"},"vehicle_type_id":"4","last_reported":1748801610,"current_range_meters":9200,"station_id":"ce4bhip2rcd13ifvqft0","pricing_plan_id":"cebpf4jnsgd1na2vs0mg"},{"bike_id":"d652c5bf-0b62-4d9b-8d1e-6075c5311ce4","system_id":"levelo_inurba_marseille","lat":43.29557,"lon":5.42292,"is_reserved":false,"is_disabled":false,"rental_uris":{"android":"levelo://app?vid=d652c5bf-0b62-4d9b-8d1e-6075c5311ce4","ios":"levelo://app?vid=d652c5bf-0b62-4d9b-8d1e-6075c5311ce4"},"vehicle_type_id":"4","last_reported":1748801610,"current_range_meters":9200,"station_id":"ce4bhph2rcd13ifvqhdg","pricing_plan_id":"cebpf4jnsgd1na2vs0mg"},{"bike_id":"934999b9-aa31-4f65-adaf-8795124debce","system_id":"levelo_inurba_marseille","lat":43.31738,"lon":5.40431,"is_reserved":false,"is_disabled":false,"rental_uris":{"android":"levelo://app?vid=934999b9-aa31-4f65-adaf-8795124debce","ios":"levelo://app?vid=934999b9-aa31-4f65-adaf-8795124debce"},"vehicle_type_id":"4","last_reported":1748801610,"current_range_meters":9600,"station_id":"","pricing_plan_id":"cebpf4jnsgd1na2vs0mg"},{"bike_id":"5df05316-524d-4046-90a8-d4f2dfb87ecf","system_id":"levelo_inurba_marseille","lat":43.24365,"lon":5.38006,"is_reserved":false,"is_disabled":false,"rental_uris":{"android":"levelo://app?vid=5df05316-524d-4046-90a8-d4f2dfb87ecf","ios":"levelo://app?vid=5df05316-524d-4046-90a8-d4f2dfb87ecf"},"vehicle_type_id":"4","last_reported":1748801610,"current_range_meters":9600,"station_id":"","pricing_plan_id":"cebpf4jnsgd1na2vs0mg"},{"bike_id":"91080661-ef26-46f9-87dc-db7cc8f8e655","system_id":"levelo_inurba_marseille","lat":43.27102,"lon":5.39241,"is_reserved":false,"is_disabled":false,"rental_uris":{"android":"levelo://app?vid=91080661-ef26-46f9-87dc-db7cc8f8e655","ios":"levelo://app?vid=91080661-ef26-46f9-87dc-db7cc8f8e655"},"vehicle_type_id":"4","last_reported":1748801610,"current_range_meters":9600,"station_id":"","pricing_plan_id":"cebpf4jnsgd1na2vs0mg"},{"bike_id":"e210be7e-07b8-44d3-ae09-6702f28e2ae8","system_id":"levelo_inurba_marseille","lat":43.2513,"lon":5.39361,"is_reserved":false,"is_disabled":false,"rental_uris":{"android":"levelo://app?vid=e210be7e-07b8-44d3-ae09-6702f28e2ae8","ios":"levelo://app?vid=e210be7e-07b8-44d3-ae09-6702f28e2ae8"},"vehicle_type_id":"4","last_reported":1748801610,"current_range_meters":9600,"station_id":"","pricing_plan_id":"cebpf4jnsgd1na2vs0mg"},{"bike_id":"6036f7f6-524c-4ae2-b01a-015f5ef40395","system_id":"levelo_inurba_marseille","lat":43.31699,"lon":5.37674,"is_reserved":false,"is_disabled":false,"rental_uris":{"android":"levelo://app?vid=6036f7f6-524c-4ae2-b01a-015f5ef40395","ios":"levelo://app?vid=6036f7f6-524c-4ae2-b01a-015f5ef40395"},"vehicle_type_id":"4","last_reported":1748801610,"current_range_meters":9600,"station_id":"","pricing_plan_id":"cebpf4jnsgd1na2vs0mg"},{"bike_id":"808dd62b-3b9c-4281-a06f-f7cb8dc9a728","system_id":"levelo_inurba_marseille","lat":43.2987,"lon":5.39733,"is_reserved":false,"is_disabled":false,"rental_uris":{"android":"levelo://app?vid=808dd62b-3b9c-4281-a06f-f7cb8dc9a728","ios":"levelo://app?vid=808dd62b-3b9c-4281-a06f-f7cb8dc9a728"},"vehicle_type_id":"4","last_reported":1748801610,"current_range_meters":9600,"station_id":"ce4bh0h2rcd13ifvqd50","pricing_plan_id":"cebpf4jnsgd1na2vs0mg"},{"bike_id":"7754dc7e-9ae4-4829-af4b-ceddf5aade50","system_id":"levelo_inurba_marseille","lat":43.29183,"lon":5.39325,"is_reserved":false,"is_disabled":false,"rental_uris":{"android":"levelo://app?vid=7754dc7e-9ae4-4829-af4b-ceddf5aade50","ios":"levelo://app?vid=7754dc7e-9ae4-4829-af4b-ceddf5aade50"},"vehicle_type_id":"4","last_reported":1748801610,"current_range_meters":9600,"station_id":"ce4bh192rcd13ifvqdd0","pricing_plan_id":"cebpf4jnsgd1na2vs0mg"},{"bike_id":"9a189ee8-27ed-444b-b171-f705371af28f","system_id":"levelo_inurba_marseille","lat":43.28287,"lon":5.34882,"is_reserved":false,"is_disabled":false,"rental_uris":{"android":"levelo://app?vid=9a189ee8-27ed-444b-b171-f705371af28f","ios":"levelo://app?vid=9a189ee8-27ed-444b-b171-f705371af28f"},"vehicle_type_id":"4","last_reported":1748801610,"current_range_meters":10000,"station_id":"","pricing_plan_id":"cebpf4jnsgd1na2vs0mg"},{"bike_id":"d95a8927-9413-4ee6-b8dd-9b96d5af8d5e","system_id":"levelo_inurba_marseille","lat":43.28355,"lon":5.3503,"is_reserved":false,"is_disabled":false,"rental_uris":{"android":"levelo://app?vid=d95a8927-9413-4ee6-b8dd-9b96d5af8d5e","ios":"levelo://app?vid=d95a8927-9413-4ee6-b8dd-9b96d5af8d5e"},"vehicle_type_id":"4","last_reported":1748801610,"current_range_meters":10000,"station_id":"","pricing_plan_id":"cebpf4jnsgd1na2vs0mg"},{"bike_id":"eecbd246-5dfb-4dc7-accc-be554aa75d6b","system_id":"levelo_inurba_marseille","lat":43.29617,"lon":5.37719,"is_reserved":false,"is_disabled":false,"rental_uris":{"android":"levelo://app?vid=eecbd246-5dfb-4dc7-accc-be554aa75d6b","ios":"levelo://app?vid=eecbd246-5dfb-4dc7-accc-be554aa75d6b"},"vehicle_type_id":"4","last_reported":1748801610,"current_range_meters":10000,"station_id":"ce4bgi92rcd13ifvqb90","pricing_plan_id":"cebpf4jnsgd1na2vs0mg"},{"bike_id":"a7930139-c07b-4620-bbb3-0f971b7a2d32","system_id":"levelo_inurba_marseille","lat":43.3044,"lon":5.3888,"is_reserved":false,"is_disabled":false,"rental_uris":{"android":"levelo://app?vid=a7930139-c07b-4620-bbb3-0f971b7a2d32","ios":"levelo://app?vid=a7930139-c07b-4620-bbb3-0f971b7a2d32"},"vehicle_type_id":"4","last_reported":1748801610,"current_range_meters":10000,"station_id":"ce4bgk12rcd13ifvqbi0","pricing_plan_id":"cebpf4jnsgd1na2vs0mg"},{"bike_id":"783f4d64-45b8-4c8a-bc2e-617871c8baf2","system_id":"levelo_inurba_marseille","lat":43.3011,"lon":5.39868,"is_reserved":false,"is_disabled":false,"rental_uris":{"android":"levelo://app?vid=783f4d64-45b8-4c8a-bc2e-617871c8baf2","ios":"levelo://app?vid=783f4d64-45b8-4c8a-bc2e-617871c8baf2"},"vehicle_type_id":"4","last_reported":1748801610,"current_range_meters":10000,"station_id":"ce4bh0h2rcd13ifvqd40","pricing_plan_id":"cebpf4jnsgd1na2vs0mg"},{"bike_id":"c511f0ec-72a9-4771-b354-46536fc4b73a","system_id":"levelo_inurba_marseille","lat":43.29421,"lon":5.38619,"is_reserved":false,"is_disabled":false,"rental_uris":{"android":"levelo://app?vid=c511f0ec-72a9-4771-b354-46536fc4b73a","ios":"levelo://app?vid=c511f0ec-72a9-4771-b354-46536fc4b73a"},"vehicle_type_id":"4","last_reported":1748801610,"current_range_meters":10000,"station_id":"ce4bh2h2rcd13ifvqdh0","pricing_plan_id":"cebpf4jnsgd1na2vs0mg"},{"bike_id":"30a3fa77-8994-4b93-bc1b-8dc1e2f3139b","system_id":"levelo_inurba_marseille","lat":43.24678,"lon":5.38142,"is_reserved":false,"is_disabled":false,"rental_uris":{"android":"levelo://app?vid=30a3fa77-8994-4b93-bc1b-8dc1e2f3139b","ios":"levelo://app?vid=30a3fa77-8994-4b93-bc1b-8dc1e2f3139b"},"vehicle_type_id":"4","last_reported":1748801610,"current_range_meters":10000,"station_id":"ce4bhih2rcd13ifvqfr0","pricing_plan_id":"cebpf4jnsgd1na2vs0mg"},{"bike_id":"dd31902c-634e-497c-aab1-69ff562c8161","system_id":"levelo_inurba_marseille","lat":43.25587,"lon":5.38232,"is_reserved":false,"is_disabled":false,"rental_uris":{"android":"levelo://app?vid=dd31902c-634e-497c-aab1-69ff562c8161","ios":"levelo://app?vid=dd31902c-634e-497c-aab1-69ff562c8161"},"vehicle_type_id":"4","last_reported":1748801610,"current_range_meters":10000,"station_id":"ce4bhih2rcd13ifvqfs0","pricing_plan_id":"cebpf4jnsgd1na2vs0mg"},{"bike_id":"f26f0c46-7d68-41f1-a3b5-3ece8c9db730","system_id":"levelo_inurba_marseille","lat":43.27073,"lon":5.42275,"is_reserved":false,"is_disabled":false,"rental_uris":{"android":"levelo://app?vid=f26f0c46-7d68-41f1-a3b5-3ece8c9db730","ios":"levelo://app?vid=f26f0c46-7d68-41f1-a3b5-3ece8c9db730"},"vehicle_type_id":"4","last_reported":1748801610,"current_range_meters":10000,"station_id":"ce4bhk92rcd13ifvqgb0","pricing_plan_id":"cebpf4jnsgd1na2vs0mg"},{"bike_id":"e3a92b86-dbfc-42ae-b9d9-1a7688c6ec5d","system_id":"levelo_inurba_marseille","lat":43.251038,"lon":5.403205,"is_reserved":false,"is_disabled":false,"rental_uris":{"android":"levelo://app?vid=e3a92b86-dbfc-42ae-b9d9-1a7688c6ec5d","ios":"levelo://app?vid=e3a92b86-dbfc-42ae-b9d9-1a7688c6ec5d"},"vehicle_type_id":"4","last_reported":1748801610,"current_range_meters":10000,"station_id":"ce4bhlh2rcd13ifvqgig","pricing_plan_id":"cebpf4jnsgd1na2vs0mg"},{"bike_id":"d3d06152-538f-43e4-bbf8-0f3598ecd721","system_id":"levelo_inurba_marseille","lat":43.26226,"lon":5.40444,"is_reserved":false,"is_disabled":false,"rental_uris":{"android":"levelo://app?vid=d3d06152-538f-43e4-bbf8-0f3598ecd721","ios":"levelo://app?vid=d3d06152-538f-43e4-bbf8-0f3598ecd721"},"vehicle_type_id":"4","last_reported":1748801610,"current_range_meters":10000,"station_id":"ce4bhmh2rcd13ifvqgmg","pricing_plan_id":"cebpf4jnsgd1na2vs0mg"},{"bike_id":"cf9efb92-5a24-4788-896d-59ee9ca47474","system_id":"levelo_inurba_marseille","lat":43.330238,"lon":5.390346,"is_reserved":false,"is_disabled":false,"rental_uris":{"android":"levelo://app?vid=cf9efb92-5a24-4788-896d-59ee9ca47474","ios":"levelo://app?vid=cf9efb92-5a24-4788-896d-59ee9ca47474"},"vehicle_type_id":"4","last_reported":1748801610,"current_range_meters":10000,"station_id":"ce4bhr92rcd13ifvqhrg","pricing_plan_id":"cebpf4jnsgd1na2vs0mg"},{"bike_id":"e5d60f8a-856c-4e9c-b7e9-3a55ce2be879","system_id":"levelo_inurba_marseille","lat":43.30947,"lon":5.39033,"is_reserved":false,"is_disabled":false,"rental_uris":{"android":"levelo://app?vid=e5d60f8a-856c-4e9c-b7e9-3a55ce2be879","ios":"levelo://app?vid=e5d60f8a-856c-4e9c-b7e9-3a55ce2be879"},"vehicle_type_id":"4","last_reported":1748801610,"current_range_meters":10800,"station_id":"ce4bgup2rcd13ifvqco0","pricing_plan_id":"cebpf4jnsgd1na2vs0mg"},{"bike_id":"2568b1f5-2dcb-48ef-a1ab-185d9ca714eb","system_id":"levelo_inurba_marseille","lat":43.28929,"lon":5.38387,"is_reserved":false,"is_disabled":false,"rental_uris":{"android":"levelo://app?vid=2568b1f5-2dcb-48ef-a1ab-185d9ca714eb","ios":"levelo://app?vid=2568b1f5-2dcb-48ef-a1ab-185d9ca714eb"},"vehicle_type_id":"4","last_reported":1748801610,"current_range_meters":10800,"station_id":"ce4bh612rcd13ifvqe6g","pricing_plan_id":"cebpf4jnsgd1na2vs0mg"},{"bike_id":"3c714906-76f2-42cc-b185-ab332f5426c2","system_id":"levelo_inurba_marseille","lat":43.23091,"lon":5.40169,"is_reserved":false,"is_disabled":false,"rental_uris":{"android":"levelo://app?vid=3c714906-76f2-42cc-b185-ab332f5426c2","ios":"levelo://app?vid=3c714906-76f2-42cc-b185-ab332f5426c2"},"vehicle_type_id":"4","last_reported":1748801610,"current_range_meters":11200,"station_id":"","pricing_plan_id":"cebpf4jnsgd1na2vs0mg"},{"bike_id":"3928b78b-31d1-4670-8949-c178ec69614a","system_id":"levelo_inurba_marseille","lat":43.30887,"lon":5.39658,"is_reserved":false,"is_disabled":false,"rental_uris":{"android":"levelo://app?vid=3928b78b-31d1-4670-8949-c178ec69614a","ios":"levelo://app?vid=3928b78b-31d1-4670-8949-c178ec69614a"},"vehicle_type_id":"4","last_reported":1748801610,"current_range_meters":11200,"station_id":"ce4bh012rcd13ifvqcv0","pricing_plan_id":"cebpf4jnsgd1na2vs0mg"},{"bike_id":"7a33cc66-d0ff-4550-9f7e-a445b969b92e","system_id":"levelo_inurba_marseille","lat":43.28698,"lon":5.38656,"is_reserved":false,"is_disabled":false,"rental_uris":{"android":"levelo://app?vid=7a33cc66-d0ff-4550-9f7e-a445b969b92e","ios":"levelo://app?vid=7a33cc66-d0ff-4550-9f7e-a445b969b92e"},"vehicle_type_id":"4","last_reported":1748801610,"current_range_meters":11200,"station_id":"ce4bh492rcd13ifvqdug","pricing_plan_id":"cebpf4jnsgd1na2vs0mg"},{"bike_id":"f6e53b3b-d67e-4cb8-a8b2-b406238553c4","system_id":"levelo_inurba_marseille","lat":43.29255,"lon":5.3844,"is_reserved":false,"is_disabled":false,"rental_uris":{"android":"levelo://app?vid=f6e53b3b-d67e-4cb8-a8b2-b406238553c4","ios":"levelo://app?vid=f6e53b3b-d67e-4cb8-a8b2-b406238553c4"},"vehicle_type_id":"4","last_reported":1748801610,"current_range_meters":11200,"station_id":"ce4bh692rcd13ifvqea0","pricing_plan_id":"cebpf4jnsgd1na2vs0mg"},{"bike_id":"52138315-f13b-4871-ab78-9e5155a1008c","system_id":"levelo_inurba_marseille","lat":43.32297,"lon":5.38273,"is_reserved":false,"is_disabled":false,"rental_uris":{"android":"levelo://app?vid=52138315-f13b-4871-ab78-9e5155a1008c","ios":"levelo://app?vid=52138315-f13b-4871-ab78-9e5155a1008c"},"vehicle_type_id":"4","last_reported":1748801610,"current_range_meters":11200,"station_id":"ce4bhr12rcd13ifvqhqg","pricing_plan_id":"cebpf4jnsgd1na2vs0mg"},{"bike_id":"f5a90625-b7e8-48a8-90c6-777efe255a32","system_id":"levelo_inurba_marseille","lat":43.251024,"lon":5.409637,"is_reserved":false,"is_disabled":false,"rental_uris":{"android":"levelo://app?vid=f5a90625-b7e8-48a8-90c6-777efe255a32","ios":"levelo://app?vid=f5a90625-b7e8-48a8-90c6-777efe255a32"},"vehicle_type_id":"4","last_reported":1748801610,"current_range_meters":11600,"station_id":"","pricing_plan_id":"cebpf4jnsgd1na2vs0mg"},{"bike_id":"a48ac60b-b564-4c17-8e5b-65cd669a5502","system_id":"levelo_inurba_marseille","lat":43.30949,"lon":5.39038,"is_reserved":false,"is_disabled":false,"rental_uris":{"android":"levelo://app?vid=a48ac60b-b564-4c17-8e5b-65cd669a5502","ios":"levelo://app?vid=a48ac60b-b564-4c17-8e5b-65cd669a5502"},"vehicle_type_id":"4","last_reported":1748801610,"current_range_meters":11600,"station_id":"ce4bgup2rcd13ifvqco0","pricing_plan_id":"cebpf4jnsgd1na2vs0mg"},{"bike_id":"1b47946e-acc8-483b-a443-66bd61734490","system_id":"levelo_inurba_marseille","lat":43.30093,"lon":5.390849,"is_reserved":false,"is_disabled":false,"rental_uris":{"android":"levelo://app?vid=1b47946e-acc8-483b-a443-66bd61734490","ios":"levelo://app?vid=1b47946e-acc8-483b-a443-66bd61734490"},"vehicle_type_id":"4","last_reported":1748801610,"current_range_meters":11600,"station_id":"ce4bh192rcd13ifvqdb0","pricing_plan_id":"cebpf4jnsgd1na2vs0mg"},{"bike_id":"1693b7de-f2b4-4412-b6f3-c9cd32637432","system_id":"levelo_inurba_marseille","lat":43.28682,"lon":5.38653,"is_reserved":false,"is_disabled":false,"rental_uris":{"android":"levelo://app?vid=1693b7de-f2b4-4412-b6f3-c9cd32637432","ios":"levelo://app?vid=1693b7de-f2b4-4412-b6f3-c9cd32637432"},"vehicle_type_id":"4","last_reported":1748801610,"current_range_meters":11600,"station_id":"ce4bh492rcd13ifvqdug","pricing_plan_id":"cebpf4jnsgd1na2vs0mg"},{"bike_id":"d1c4b609-d8f6-4720-9f4e-1255d9197b0e","system_id":"levelo_inurba_marseille","lat":43.24171,"lon":5.36388,"is_reserved":false,"is_disabled":false,"rental_uris":{"android":"levelo://app?vid=d1c4b609-d8f6-4720-9f4e-1255d9197b0e","ios":"levelo://app?vid=d1c4b609-d8f6-4720-9f4e-1255d9197b0e"},"vehicle_type_id":"4","last_reported":1748801610,"current_range_meters":11600,"station_id":"cpo36qri1sfpv3e86is0","pricing_plan_id":"cebpf4jnsgd1na2vs0mg"},{"bike_id":"1d68f161-8de6-441f-a823-74fdbdcbeeee","system_id":"levelo_inurba_marseille","lat":43.24157,"lon":5.36392,"is_reserved":false,"is_disabled":false,"rental_uris":{"android":"levelo://app?vid=1d68f161-8de6-441f-a823-74fdbdcbeeee","ios":"levelo://app?vid=1d68f161-8de6-441f-a823-74fdbdcbeeee"},"vehicle_type_id":"4","last_reported":1748801610,"current_range_meters":11600,"station_id":"cpo36qri1sfpv3e86is0","pricing_plan_id":"cebpf4jnsgd1na2vs0mg"},{"bike_id":"77520d45-03bf-4b26-9f9b-8ac6c162ce6b","system_id":"levelo_inurba_marseille","lat":43.2433,"lon":5.41148,"is_reserved":false,"is_disabled":false,"rental_uris":{"android":"levelo://app?vid=77520d45-03bf-4b26-9f9b-8ac6c162ce6b","ios":"levelo://app?vid=77520d45-03bf-4b26-9f9b-8ac6c162ce6b"},"vehicle_type_id":"4","last_reported":1748801610,"current_range_meters":12000,"station_id":"","pricing_plan_id":"cebpf4jnsgd1na2vs0mg"},{"bike_id":"89a54d0a-84bb-40e4-8306-dd0f3e46998b","system_id":"levelo_inurba_marseille","lat":43.30298,"lon":5.3689,"is_reserved":false,"is_disabled":false,"rental_uris":{"android":"levelo://app?vid=89a54d0a-84bb-40e4-8306-dd0f3e46998b","ios":"levelo://app?vid=89a54d0a-84bb-40e4-8306-dd0f3e46998b"},"vehicle_type_id":"4","last_reported":1748801610,"current_range_meters":12000,"station_id":"ce4bgqh2rcd13ifvqc5g","pricing_plan_id":"cebpf4jnsgd1na2vs0mg"},{"bike_id":"49f71657-3a9b-418b-867e-526f3c967cf6","system_id":"levelo_inurba_marseille","lat":43.31171,"lon":5.3872,"is_reserved":false,"is_disabled":false,"rental_uris":{"android":"levelo://app?vid=49f71657-3a9b-418b-867e-526f3c967cf6","ios":"levelo://app?vid=49f71657-3a9b-418b-867e-526f3c967cf6"},"vehicle_type_id":"4","last_reported":1748801610,"current_range_meters":12000,"station_id":"ce4bgv12rcd13ifvqcp0","pricing_plan_id":"cebpf4jnsgd1na2vs0mg"},{"bike_id":"46223195-70ca-4409-be0b-c058f294951b","system_id":"levelo_inurba_marseille","lat":43.291937,"lon":5.393113,"is_reserved":false,"is_disabled":false,"rental_uris":{"android":"levelo://app?vid=46223195-70ca-4409-be0b-c058f294951b","ios":"levelo://app?vid=46223195-70ca-4409-be0b-c058f294951b"},"vehicle_type_id":"4","last_reported":1748801610,"current_range_meters":12000,"station_id":"ce4bh192rcd13ifvqdd0","pricing_plan_id":"cebpf4jnsgd1na2vs0mg"},{"bike_id":"fba696af-a1f9-43c6-9b26-1d1cdbaab131","system_id":"levelo_inurba_marseille","lat":43.29259,"lon":5.38446,"is_reserved":false,"is_disabled":false,"rental_uris":{"android":"levelo://app?vid=fba696af-a1f9-43c6-9b26-1d1cdbaab131","ios":"levelo://app?vid=fba696af-a1f9-43c6-9b26-1d1cdbaab131"},"vehicle_type_id":"4","last_reported":1748801610,"current_range_meters":12000,"station_id":"ce4bh692rcd13ifvqea0","pricing_plan_id":"cebpf4jnsgd1na2vs0mg"},{"bike_id":"81189cf7-f97d-4b3d-b106-30f42f9a2670","system_id":"levelo_inurba_marseille","lat":43.29581,"lon":5.42248,"is_reserved":false,"is_disabled":false,"rental_uris":{"android":"levelo://app?vid=81189cf7-f97d-4b3d-b106-30f42f9a2670","ios":"levelo://app?vid=81189cf7-f97d-4b3d-b106-30f42f9a2670"},"vehicle_type_id":"4","last_reported":1748801610,"current_range_meters":12000,"station_id":"ce4bhph2rcd13ifvqhdg","pricing_plan_id":"cebpf4jnsgd1na2vs0mg"},{"bike_id":"60b5b597-3f2a-44ef-8daa-5e9d518a43b6","system_id":"levelo_inurba_marseille","lat":43.29551,"lon":5.42278,"is_reserved":false,"is_disabled":false,"rental_uris":{"android":"levelo://app?vid=60b5b597-3f2a-44ef-8daa-5e9d518a43b6","ios":"levelo://app?vid=60b5b597-3f2a-44ef-8daa-5e9d518a43b6"},"vehicle_type_id":"4","last_reported":1748801610,"current_range_meters":12000,"station_id":"ce4bhph2rcd13ifvqhdg","pricing_plan_id":"cebpf4jnsgd1na2vs0mg"},{"bike_id":"f8c310ff-7f1e-4846-a3ed-b26bf26e087f","system_id":"levelo_inurba_marseille","lat":43.29235,"lon":5.37884,"is_reserved":false,"is_disabled":false,"rental_uris":{"android":"levelo://app?vid=f8c310ff-7f1e-4846-a3ed-b26bf26e087f","ios":"levelo://app?vid=f8c310ff-7f1e-4846-a3ed-b26bf26e087f"},"vehicle_type_id":"4","last_reported":1748801610,"current_range_meters":12400,"station_id":"","pricing_plan_id":"cebpf4jnsgd1na2vs0mg"},{"bike_id":"66f52a9f-1acb-4f21-807d-015ec0b63b5b","system_id":"levelo_inurba_marseille","lat":43.29186,"lon":5.39321,"is_reserved":false,"is_disabled":false,"rental_uris":{"android":"levelo://app?vid=66f52a9f-1acb-4f21-807d-015ec0b63b5b","ios":"levelo://app?vid=66f52a9f-1acb-4f21-807d-015ec0b63b5b"},"vehicle_type_id":"4","last_reported":1748801610,"current_range_meters":12400,"station_id":"ce4bh192rcd13ifvqdd0","pricing_plan_id":"cebpf4jnsgd1na2vs0mg"},{"bike_id":"7dea44b7-60b5-4346-974c-d011e7fee9db","system_id":"levelo_inurba_marseille","lat":43.24164,"lon":5.36398,"is_reserved":false,"is_disabled":false,"rental_uris":{"android":"levelo://app?vid=7dea44b7-60b5-4346-974c-d011e7fee9db","ios":"levelo://app?vid=7dea44b7-60b5-4346-974c-d011e7fee9db"},"vehicle_type_id":"4","last_reported":1748801610,"current_range_meters":12400,"station_id":"cpo36qri1sfpv3e86is0","pricing_plan_id":"cebpf4jnsgd1na2vs0mg"},{"bike_id":"bfc6dce9-77ca-4235-96b6-63b5fbc4d6e2","system_id":"levelo_inurba_marseille","lat":43.336592,"lon":5.385616,"is_reserved":false,"is_disabled":false,"rental_uris":{"android":"levelo://app?vid=bfc6dce9-77ca-4235-96b6-63b5fbc4d6e2","ios":"levelo://app?vid=bfc6dce9-77ca-4235-96b6-63b5fbc4d6e2"},"vehicle_type_id":"4","last_reported":1748801610,"current_range_meters":12800,"station_id":"","pricing_plan_id":"cebpf4jnsgd1na2vs0mg"},{"bike_id":"1b57a71d-f5a4-4ec9-8fee-55ec8c1a1cef","system_id":"levelo_inurba_marseille","lat":43.3026,"lon":5.40057,"is_reserved":false,"is_disabled":false,"rental_uris":{"android":"levelo://app?vid=1b57a71d-f5a4-4ec9-8fee-55ec8c1a1cef","ios":"levelo://app?vid=1b57a71d-f5a4-4ec9-8fee-55ec8c1a1cef"},"vehicle_type_id":"4","last_reported":1748801610,"current_range_meters":12800,"station_id":"ce4bgvh2rcd13ifvqcs0","pricing_plan_id":"cebpf4jnsgd1na2vs0mg"},{"bike_id":"1dc78fbc-a0cc-4ccb-a5ad-01387d5c230c","system_id":"levelo_inurba_marseille","lat":43.30214,"lon":5.39476,"is_reserved":false,"is_disabled":false,"rental_uris":{"android":"levelo://app?vid=1dc78fbc-a0cc-4ccb-a5ad-01387d5c230c","ios":"levelo://app?vid=1dc78fbc-a0cc-4ccb-a5ad-01387d5c230c"},"vehicle_type_id":"4","last_reported":1748801610,"current_range_meters":12800,"station_id":"ce4bh0p2rcd13ifvqd70","pricing_plan_id":"cebpf4jnsgd1na2vs0mg"},{"bike_id":"93b58684-dc95-4438-bbd0-4f76a3c6562d","system_id":"levelo_inurba_marseille","lat":43.30644,"lon":5.400894,"is_reserved":false,"is_disabled":false,"rental_uris":{"android":"levelo://app?vid=93b58684-dc95-4438-bbd0-4f76a3c6562d","ios":"levelo://app?vid=93b58684-dc95-4438-bbd0-4f76a3c6562d"},"vehicle_type_id":"4","last_reported":1748801610,"current_range_meters":12800,"station_id":"ce4bh112rcd13ifvqda0","pricing_plan_id":"cebpf4jnsgd1na2vs0mg"},{"bike_id":"81de8e43-1592-4ac0-bd3e-b97ff0d5b5ff","system_id":"levelo_inurba_marseille","lat":43.31713,"lon":5.43707,"is_reserved":false,"is_disabled":false,"rental_uris":{"android":"levelo://app?vid=81de8e43-1592-4ac0-bd3e-b97ff0d5b5ff","ios":"levelo://app?vid=81de8e43-1592-4ac0-bd3e-b97ff0d5b5ff"},"vehicle_type_id":"4","last_reported":1748801610,"current_range_meters":12800,"station_id":"ce4bhp92rcd13ifvqhcg","pricing_plan_id":"cebpf4jnsgd1na2vs0mg"},{"bike_id":"42a01be5-722f-484e-a333-fefe26fd0351","system_id":"levelo_inurba_marseille","lat":43.26559,"lon":5.40323,"is_reserved":false,"is_disabled":false,"rental_uris":{"android":"levelo://app?vid=42a01be5-722f-484e-a333-fefe26fd0351","ios":"levelo://app?vid=42a01be5-722f-484e-a333-fefe26fd0351"},"vehicle_type_id":"4","last_reported":1748801610,"current_range_meters":13600,"station_id":"","pricing_plan_id":"cebpf4jnsgd1na2vs0mg"},{"bike_id":"2904e93f-50b4-487a-bdf6-e9d0365c4a64","system_id":"levelo_inurba_marseille","lat":43.30436,"lon":5.38886,"is_reserved":false,"is_disabled":false,"rental_uris":{"android":"levelo://app?vid=2904e93f-50b4-487a-bdf6-e9d0365c4a64","ios":"levelo://app?vid=2904e93f-50b4-487a-bdf6-e9d0365c4a64"},"vehicle_type_id":"4","last_reported":1748801610,"current_range_meters":13600,"station_id":"ce4bgk12rcd13ifvqbi0","pricing_plan_id":"cebpf4jnsgd1na2vs0mg"},{"bike_id":"a5a49411-588e-4b5e-94a6-1c2ad2ee88eb","system_id":"levelo_inurba_marseille","lat":43.32492,"lon":5.425,"is_reserved":false,"is_disabled":false,"rental_uris":{"android":"levelo://app?vid=a5a49411-588e-4b5e-94a6-1c2ad2ee88eb","ios":"levelo://app?vid=a5a49411-588e-4b5e-94a6-1c2ad2ee88eb"},"vehicle_type_id":"4","last_reported":1748801610,"current_range_meters":14000,"station_id":"","pricing_plan_id":"cebpf4jnsgd1na2vs0mg"},{"bike_id":"10afe694-4405-4b0b-bb64-825b6990abe9","system_id":"levelo_inurba_marseille","lat":43.29575,"lon":5.39976,"is_reserved":false,"is_disabled":false,"rental_uris":{"android":"levelo://app?vid=10afe694-4405-4b0b-bb64-825b6990abe9","ios":"levelo://app?vid=10afe694-4405-4b0b-bb64-825b6990abe9"},"vehicle_type_id":"4","last_reported":1748801610,"current_range_meters":14000,"station_id":"ce4bh312rcd13ifvqdj0","pricing_plan_id":"cebpf4jnsgd1na2vs0mg"},{"bike_id":"32e47564-dee6-4314-ba49-41fbf9c90fd8","system_id":"levelo_inurba_marseille","lat":43.284635,"lon":5.384033,"is_reserved":false,"is_disabled":false,"rental_uris":{"android":"levelo://app?vid=32e47564-dee6-4314-ba49-41fbf9c90fd8","ios":"levelo://app?vid=32e47564-dee6-4314-ba49-41fbf9c90fd8"},"vehicle_type_id":"4","last_reported":1748801610,"current_range_meters":14000,"station_id":"ce4bh512rcd13ifvqe3g","pricing_plan_id":"cebpf4jnsgd1na2vs0mg"},{"bike_id":"fce966f8-2ba1-4b07-81ad-e1efab5d0b06","system_id":"levelo_inurba_marseille","lat":43.29259,"lon":5.40905,"is_reserved":false,"is_disabled":false,"rental_uris":{"android":"levelo://app?vid=fce966f8-2ba1-4b07-81ad-e1efab5d0b06","ios":"levelo://app?vid=fce966f8-2ba1-4b07-81ad-e1efab5d0b06"},"vehicle_type_id":"4","last_reported":1748801610,"current_range_meters":14400,"station_id":"ce4bh192rcd13ifvqdc0","pricing_plan_id":"cebpf4jnsgd1na2vs0mg"},{"bike_id":"f6cc2cb6-b258-43f2-8c7a-7fb1ba50ea25","system_id":"levelo_inurba_marseille","lat":43.30412,"lon":5.41288,"is_reserved":false,"is_disabled":false,"rental_uris":{"android":"levelo://app?vid=f6cc2cb6-b258-43f2-8c7a-7fb1ba50ea25","ios":"levelo://app?vid=f6cc2cb6-b258-43f2-8c7a-7fb1ba50ea25"},"vehicle_type_id":"4","last_reported":1748801610,"current_range_meters":14400,"station_id":"ce4bhop2rcd13ifvqh8g","pricing_plan_id":"cebpf4jnsgd1na2vs0mg"},{"bike_id":"66494907-53c4-4ce6-a20a-6700c28f8abd","system_id":"levelo_inurba_marseille","lat":43.27481,"lon":5.43589,"is_reserved":false,"is_disabled":false,"rental_uris":{"android":"levelo://app?vid=66494907-53c4-4ce6-a20a-6700c28f8abd","ios":"levelo://app?vid=66494907-53c4-4ce6-a20a-6700c28f8abd"},"vehicle_type_id":"4","last_reported":1748801610,"current_range_meters":14800,"station_id":"","pricing_plan_id":"cebpf4jnsgd1na2vs0mg"},{"bike_id":"27a6a734-79d8-4536-b170-9ac2aeab307f","system_id":"levelo_inurba_marseille","lat":43.29791,"lon":5.38102,"is_reserved":false,"is_disabled":false,"rental_uris":{"android":"levelo://app?vid=27a6a734-79d8-4536-b170-9ac2aeab307f","ios":"levelo://app?vid=27a6a734-79d8-4536-b170-9ac2aeab307f"},"vehicle_type_id":"4","last_reported":1748801610,"current_range_meters":14800,"station_id":"ce4bgip2rcd13ifvqbb0","pricing_plan_id":"cebpf4jnsgd1na2vs0mg"},{"bike_id":"43153f1d-2076-47a1-b25b-df5f4ffb9afe","system_id":"levelo_inurba_marseille","lat":43.2594,"lon":5.40905,"is_reserved":false,"is_disabled":false,"rental_uris":{"android":"levelo://app?vid=43153f1d-2076-47a1-b25b-df5f4ffb9afe","ios":"levelo://app?vid=43153f1d-2076-47a1-b25b-df5f4ffb9afe"},"vehicle_type_id":"4","last_reported":1748801610,"current_range_meters":14800,"station_id":"ce4bhm92rcd13ifvqglg","pricing_plan_id":"cebpf4jnsgd1na2vs0mg"},{"bike_id":"e4f2e553-75d1-42a7-95cb-b18b90074a93","system_id":"levelo_inurba_marseille","lat":43.31748,"lon":5.38758,"is_reserved":false,"is_disabled":false,"rental_uris":{"android":"levelo://app?vid=e4f2e553-75d1-42a7-95cb-b18b90074a93","ios":"levelo://app?vid=e4f2e553-75d1-42a7-95cb-b18b90074a93"},"vehicle_type_id":"4","last_reported":1748801610,"current_range_meters":15200,"station_id":"","pricing_plan_id":"cebpf4jnsgd1na2vs0mg"},{"bike_id":"282a4ded-59b5-403f-a8fd-c95db8933ef8","system_id":"levelo_inurba_marseille","lat":43.30614,"lon":5.37227,"is_reserved":false,"is_disabled":false,"rental_uris":{"android":"levelo://app?vid=282a4ded-59b5-403f-a8fd-c95db8933ef8","ios":"levelo://app?vid=282a4ded-59b5-403f-a8fd-c95db8933ef8"},"vehicle_type_id":"4","last_reported":1748801610,"current_range_meters":15200,"station_id":"ce4bgqh2rcd13ifvqc4g","pricing_plan_id":"cebpf4jnsgd1na2vs0mg"},{"bike_id":"ce7c78f5-1cc9-46db-8bb5-9157facc06f1","system_id":"levelo_inurba_marseille","lat":43.25826,"lon":5.39439,"is_reserved":false,"is_disabled":false,"rental_uris":{"android":"levelo://app?vid=ce7c78f5-1cc9-46db-8bb5-9157facc06f1","ios":"levelo://app?vid=ce7c78f5-1cc9-46db-8bb5-9157facc06f1"},"vehicle_type_id":"4","last_reported":1748801610,"current_range_meters":15200,"station_id":"ce4bhip2rcd13ifvqft0","pricing_plan_id":"cebpf4jnsgd1na2vs0mg"},{"bike_id":"0ef28cee-9a5a-4dfb-a81b-b3ee2e40c438","system_id":"levelo_inurba_marseille","lat":43.30799,"lon":5.43518,"is_reserved":false,"is_disabled":false,"rental_uris":{"android":"levelo://app?vid=0ef28cee-9a5a-4dfb-a81b-b3ee2e40c438","ios":"levelo://app?vid=0ef28cee-9a5a-4dfb-a81b-b3ee2e40c438"},"vehicle_type_id":"4","last_reported":1748801610,"current_range_meters":15200,"station_id":"ce4bhph2rcd13ifvqheg","pricing_plan_id":"cebpf4jnsgd1na2vs0mg"},{"bike_id":"eeec1ab4-e7e1-4281-8f31-817621443bb7","system_id":"levelo_inurba_marseille","lat":43.307327,"lon":5.372887,"is_reserved":false,"is_disabled":false,"rental_uris":{"android":"levelo://app?vid=eeec1ab4-e7e1-4281-8f31-817621443bb7","ios":"levelo://app?vid=eeec1ab4-e7e1-4281-8f31-817621443bb7"},"vehicle_type_id":"4","last_reported":1748801610,"current_range_meters":16000,"station_id":"","pricing_plan_id":"cebpf4jnsgd1na2vs0mg"},{"bike_id":"2aec23b2-c54e-498e-9346-5844f0917022","system_id":"levelo_inurba_marseille","lat":43.29849,"lon":5.36269,"is_reserved":false,"is_disabled":false,"rental_uris":{"android":"levelo://app?vid=2aec23b2-c54e-498e-9346-5844f0917022","ios":"levelo://app?vid=2aec23b2-c54e-498e-9346-5844f0917022"},"vehicle_type_id":"4","last_reported":1748801610,"current_range_meters":16000,"station_id":"ce4bgpp2rcd13ifvqc3g","pricing_plan_id":"cebpf4jnsgd1na2vs0mg"},{"bike_id":"ddad80cb-79ee-490e-aa90-14fa5b918ccb","system_id":"levelo_inurba_marseille","lat":43.298566,"lon":5.363303,"is_reserved":false,"is_disabled":false,"rental_uris":{"android":"levelo://app?vid=ddad80cb-79ee-490e-aa90-14fa5b918ccb","ios":"levelo://app?vid=ddad80cb-79ee-490e-aa90-14fa5b918ccb"},"vehicle_type_id":"4","last_reported":1748801610,"current_range_meters":16000,"station_id":"ce4bgpp2rcd13ifvqc3g","pricing_plan_id":"cebpf4jnsgd1na2vs0mg"},{"bike_id":"08bcf360-af05-4491-b844-9edbb9b9468a","system_id":"levelo_inurba_marseille","lat":43.30209,"lon":5.39466,"is_reserved":false,"is_disabled":false,"rental_uris":{"android":"levelo://app?vid=08bcf360-af05-4491-b844-9edbb9b9468a","ios":"levelo://app?vid=08bcf360-af05-4491-b844-9edbb9b9468a"},"vehicle_type_id":"4","last_reported":1748801610,"current_range_meters":16000,"station_id":"ce4bh0p2rcd13ifvqd70","pricing_plan_id":"cebpf4jnsgd1na2vs0mg"},{"bike_id":"ce31f1d7-2913-43b3-b751-722d38c7c88b","system_id":"levelo_inurba_marseille","lat":43.30596,"lon":5.39358,"is_reserved":false,"is_disabled":false,"rental_uris":{"android":"levelo://app?vid=ce31f1d7-2913-43b3-b751-722d38c7c88b","ios":"levelo://app?vid=ce31f1d7-2913-43b3-b751-722d38c7c88b"},"vehicle_type_id":"4","last_reported":1748801610,"current_range_meters":16000,"station_id":"ce4bh0p2rcd13ifvqd80","pricing_plan_id":"cebpf4jnsgd1na2vs0mg"},{"bike_id":"f9731017-865b-4f2d-b0ce-f30ab6ae444e","system_id":"levelo_inurba_marseille","lat":43.29193,"lon":5.39333,"is_reserved":false,"is_disabled":false,"rental_uris":{"android":"levelo://app?vid=f9731017-865b-4f2d-b0ce-f30ab6ae444e","ios":"levelo://app?vid=f9731017-865b-4f2d-b0ce-f30ab6ae444e"},"vehicle_type_id":"4","last_reported":1748801610,"current_range_meters":16000,"station_id":"ce4bh192rcd13ifvqdd0","pricing_plan_id":"cebpf4jnsgd1na2vs0mg"},{"bike_id":"5a3a1d02-d042-431e-8fd4-8d7f205fea5a","system_id":"levelo_inurba_marseille","lat":43.29415,"lon":5.38635,"is_reserved":false,"is_disabled":false,"rental_uris":{"android":"levelo://app?vid=5a3a1d02-d042-431e-8fd4-8d7f205fea5a","ios":"levelo://app?vid=5a3a1d02-d042-431e-8fd4-8d7f205fea5a"},"vehicle_type_id":"4","last_reported":1748801610,"current_range_meters":16000,"station_id":"ce4bh2h2rcd13ifvqdh0","pricing_plan_id":"cebpf4jnsgd1na2vs0mg"},{"bike_id":"b0e77b09-837f-49a5-816e-2b333aa54c52","system_id":"levelo_inurba_marseille","lat":43.27489,"lon":5.42451,"is_reserved":false,"is_disabled":false,"rental_uris":{"android":"levelo://app?vid=b0e77b09-837f-49a5-816e-2b333aa54c52","ios":"levelo://app?vid=b0e77b09-837f-49a5-816e-2b333aa54c52"},"vehicle_type_id":"4","last_reported":1748801610,"current_range_meters":16000,"station_id":"ce4bhn92rcd13ifvqgrg","pricing_plan_id":"cebpf4jnsgd1na2vs0mg"},{"bike_id":"73220b88-ed7d-4ac9-b2a5-71f377225e34","system_id":"levelo_inurba_marseille","lat":43.25147,"lon":5.40282,"is_reserved":false,"is_disabled":false,"rental_uris":{"android":"levelo://app?vid=73220b88-ed7d-4ac9-b2a5-71f377225e34","ios":"levelo://app?vid=73220b88-ed7d-4ac9-b2a5-71f377225e34"},"vehicle_type_id":"4","last_reported":1748801610,"current_range_meters":16400,"station_id":"","pricing_plan_id":"cebpf4jnsgd1na2vs0mg"},{"bike_id":"7de4c768-1a9b-45b1-989c-2291663af694","system_id":"levelo_inurba_marseille","lat":43.29617,"lon":5.37166,"is_reserved":false,"is_disabled":false,"rental_uris":{"android":"levelo://app?vid=7de4c768-1a9b-45b1-989c-2291663af694","ios":"levelo://app?vid=7de4c768-1a9b-45b1-989c-2291663af694"},"vehicle_type_id":"4","last_reported":1748801610,"current_range_meters":16400,"station_id":"ce4bgnh2rcd13ifvqc0g","pricing_plan_id":"cebpf4jnsgd1na2vs0mg"},{"bike_id":"d83443da-5979-4af2-8f50-affdce2e24a7","system_id":"levelo_inurba_marseille","lat":43.28351,"lon":5.38116,"is_reserved":false,"is_disabled":false,"rental_uris":{"android":"levelo://app?vid=d83443da-5979-4af2-8f50-affdce2e24a7","ios":"levelo://app?vid=d83443da-5979-4af2-8f50-affdce2e24a7"},"vehicle_type_id":"4","last_reported":1748801610,"current_range_meters":16400,"station_id":"ce4bh412rcd13ifvqdr0","pricing_plan_id":"cebpf4jnsgd1na2vs0mg"},{"bike_id":"e76852b9-c96d-4901-9bd8-11e5bc082a3b","system_id":"levelo_inurba_marseille","lat":43.23214,"lon":5.3554,"is_reserved":false,"is_disabled":false,"rental_uris":{"android":"levelo://app?vid=e76852b9-c96d-4901-9bd8-11e5bc082a3b","ios":"levelo://app?vid=e76852b9-c96d-4901-9bd8-11e5bc082a3b"},"vehicle_type_id":"4","last_reported":1748801610,"current_range_meters":16400,"station_id":"ce4bhu92rcd13ifvqi70","pricing_plan_id":"cebpf4jnsgd1na2vs0mg"},{"bike_id":"5c390cef-3f42-410f-8156-76211208ead2","system_id":"levelo_inurba_marseille","lat":43.23213,"lon":5.35551,"is_reserved":false,"is_disabled":false,"rental_uris":{"android":"levelo://app?vid=5c390cef-3f42-410f-8156-76211208ead2","ios":"levelo://app?vid=5c390cef-3f42-410f-8156-76211208ead2"},"vehicle_type_id":"4","last_reported":1748801610,"current_range_meters":16400,"station_id":"ce4bhu92rcd13ifvqi70","pricing_plan_id":"cebpf4jnsgd1na2vs0mg"},{"bike_id":"d9edca53-1065-47a2-9b52-0241f50707f2","system_id":"levelo_inurba_marseille","lat":43.24157,"lon":5.36401,"is_reserved":false,"is_disabled":false,"rental_uris":{"android":"levelo://app?vid=d9edca53-1065-47a2-9b52-0241f50707f2","ios":"levelo://app?vid=d9edca53-1065-47a2-9b52-0241f50707f2"},"vehicle_type_id":"4","last_reported":1748801610,"current_range_meters":16400,"station_id":"cpo36qri1sfpv3e86is0","pricing_plan_id":"cebpf4jnsgd1na2vs0mg"},{"bike_id":"a2a9fb40-1fdd-4434-a65d-ca7cb81fdeb9","system_id":"levelo_inurba_marseille","lat":43.29263,"lon":5.37618,"is_reserved":false,"is_disabled":false,"rental_uris":{"android":"levelo://app?vid=a2a9fb40-1fdd-4434-a65d-ca7cb81fdeb9","ios":"levelo://app?vid=a2a9fb40-1fdd-4434-a65d-ca7cb81fdeb9"},"vehicle_type_id":"4","last_reported":1748801610,"current_range_meters":16800,"station_id":"ce4bgi12rcd13ifvqb80","pricing_plan_id":"cebpf4jnsgd1na2vs0mg"},{"bike_id":"28cec343-76d0-4dd0-b65e-a62ed07e420b","system_id":"levelo_inurba_marseille","lat":43.29256,"lon":5.38447,"is_reserved":false,"is_disabled":false,"rental_uris":{"android":"levelo://app?vid=28cec343-76d0-4dd0-b65e-a62ed07e420b","ios":"levelo://app?vid=28cec343-76d0-4dd0-b65e-a62ed07e420b"},"vehicle_type_id":"4","last_reported":1748801610,"current_range_meters":16800,"station_id":"ce4bh692rcd13ifvqea0","pricing_plan_id":"cebpf4jnsgd1na2vs0mg"},{"bike_id":"2cb02491-f676-4c1d-941c-c361e6421b8e","system_id":"levelo_inurba_marseille","lat":43.28615,"lon":5.35106,"is_reserved":false,"is_disabled":false,"rental_uris":{"android":"levelo://app?vid=2cb02491-f676-4c1d-941c-c361e6421b8e","ios":"levelo://app?vid=2cb02491-f676-4c1d-941c-c361e6421b8e"},"vehicle_type_id":"4","last_reported":1748801610,"current_range_meters":16800,"station_id":"ce4bhch2rcd13ifvqeug","pricing_plan_id":"cebpf4jnsgd1na2vs0mg"},{"bike_id":"86f5507c-c2a3-4e1f-bcd0-04e296a63331","system_id":"levelo_inurba_marseille","lat":43.29177,"lon":5.39343,"is_reserved":false,"is_disabled":false,"rental_uris":{"android":"levelo://app?vid=86f5507c-c2a3-4e1f-bcd0-04e296a63331","ios":"levelo://app?vid=86f5507c-c2a3-4e1f-bcd0-04e296a63331"},"vehicle_type_id":"4","last_reported":1748801610,"current_range_meters":17200,"station_id":"","pricing_plan_id":"cebpf4jnsgd1na2vs0mg"},{"bike_id":"342f7bdd-d035-4084-956f-b27b0ddafe62","system_id":"levelo_inurba_marseille","lat":43.295427,"lon":5.365301,"is_reserved":false,"is_disabled":false,"rental_uris":{"android":"levelo://app?vid=342f7bdd-d035-4084-956f-b27b0ddafe62","ios":"levelo://app?vid=342f7bdd-d035-4084-956f-b27b0ddafe62"},"vehicle_type_id":"4","last_reported":1748801610,"current_range_meters":17200,"station_id":"ce4bgpp2rcd13ifvqc3g","pricing_plan_id":"cebpf4jnsgd1na2vs0mg"},{"bike_id":"66b5e4ab-f705-4eee-9d2d-d1a9e66c7d0c","system_id":"levelo_inurba_marseille","lat":43.29862,"lon":5.397299,"is_reserved":false,"is_disabled":false,"rental_uris":{"android":"levelo://app?vid=66b5e4ab-f705-4eee-9d2d-d1a9e66c7d0c","ios":"levelo://app?vid=66b5e4ab-f705-4eee-9d2d-d1a9e66c7d0c"},"vehicle_type_id":"4","last_reported":1748801610,"current_range_meters":17200,"station_id":"ce4bh0h2rcd13ifvqd50","pricing_plan_id":"cebpf4jnsgd1na2vs0mg"},{"bike_id":"b15fd411-fd69-4ff8-86fe-c1bad01c05cf","system_id":"levelo_inurba_marseille","lat":43.28559,"lon":5.39495,"is_reserved":false,"is_disabled":false,"rental_uris":{"android":"levelo://app?vid=b15fd411-fd69-4ff8-86fe-c1bad01c05cf","ios":"levelo://app?vid=b15fd411-fd69-4ff8-86fe-c1bad01c05cf"},"vehicle_type_id":"4","last_reported":1748801610,"current_range_meters":17200,"station_id":"ce4bh292rcd13ifvqdg0","pricing_plan_id":"cebpf4jnsgd1na2vs0mg"},{"bike_id":"4b3c0361-8a7c-4ff0-9573-408802b576b7","system_id":"levelo_inurba_marseille","lat":43.2315,"lon":5.43727,"is_reserved":false,"is_disabled":false,"rental_uris":{"android":"levelo://app?vid=4b3c0361-8a7c-4ff0-9573-408802b576b7","ios":"levelo://app?vid=4b3c0361-8a7c-4ff0-9573-408802b576b7"},"vehicle_type_id":"4","last_reported":1748801610,"current_range_meters":17200,"station_id":"ce4bhmp2rcd13ifvqgog","pricing_plan_id":"cebpf4jnsgd1na2vs0mg"},{"bike_id":"c9922789-b6ba-441b-8697-da865e2e7e4c","system_id":"levelo_inurba_marseille","lat":43.28159,"lon":5.42654,"is_reserved":false,"is_disabled":false,"rental_uris":{"android":"levelo://app?vid=c9922789-b6ba-441b-8697-da865e2e7e4c","ios":"levelo://app?vid=c9922789-b6ba-441b-8697-da865e2e7e4c"},"vehicle_type_id":"4","last_reported":1748801610,"current_range_meters":17200,"station_id":"ce4bhnh2rcd13ifvqgug","pricing_plan_id":"cebpf4jnsgd1na2vs0mg"},{"bike_id":"e485593b-f730-47d4-af16-90312e0e52f5","system_id":"levelo_inurba_marseille","lat":43.31714,"lon":5.42413,"is_reserved":false,"is_disabled":false,"rental_uris":{"android":"levelo://app?vid=e485593b-f730-47d4-af16-90312e0e52f5","ios":"levelo://app?vid=e485593b-f730-47d4-af16-90312e0e52f5"},"vehicle_type_id":"4","last_reported":1748801610,"current_range_meters":17200,"station_id":"ce4bhp92rcd13ifvqhbg","pricing_plan_id":"cebpf4jnsgd1na2vs0mg"},{"bike_id":"7f8ab202-46c1-466e-a93d-685dd3763063","system_id":"levelo_inurba_marseille","lat":43.24149,"lon":5.36396,"is_reserved":false,"is_disabled":false,"rental_uris":{"android":"levelo://app?vid=7f8ab202-46c1-466e-a93d-685dd3763063","ios":"levelo://app?vid=7f8ab202-46c1-466e-a93d-685dd3763063"},"vehicle_type_id":"4","last_reported":1748801610,"current_range_meters":17200,"station_id":"cpo36qri1sfpv3e86is0","pricing_plan_id":"cebpf4jnsgd1na2vs0mg"},{"bike_id":"a61b24b4-93b3-4410-87d2-85e29580185e","system_id":"levelo_inurba_marseille","lat":43.26561,"lon":5.40328,"is_reserved":false,"is_disabled":false,"rental_uris":{"android":"levelo://app?vid=a61b24b4-93b3-4410-87d2-85e29580185e","ios":"levelo://app?vid=a61b24b4-93b3-4410-87d2-85e29580185e"},"vehicle_type_id":"4","last_reported":1748801610,"current_range_meters":17600,"station_id":"","pricing_plan_id":"cebpf4jnsgd1na2vs0mg"},{"bike_id":"49f22349-8392-495d-854d-8b91399cbd8f","system_id":"levelo_inurba_marseille","lat":43.32566,"lon":5.42504,"is_reserved":false,"is_disabled":false,"rental_uris":{"android":"levelo://app?vid=49f22349-8392-495d-854d-8b91399cbd8f","ios":"levelo://app?vid=49f22349-8392-495d-854d-8b91399cbd8f"},"vehicle_type_id":"4","last_reported":1748801610,"current_range_meters":17600,"station_id":"","pricing_plan_id":"cebpf4jnsgd1na2vs0mg"},{"bike_id":"15a1473f-80e4-4a04-98cb-3703e84a09f9","system_id":"levelo_inurba_marseille","lat":43.2849,"lon":5.38413,"is_reserved":false,"is_disabled":false,"rental_uris":{"android":"levelo://app?vid=15a1473f-80e4-4a04-98cb-3703e84a09f9","ios":"levelo://app?vid=15a1473f-80e4-4a04-98cb-3703e84a09f9"},"vehicle_type_id":"4","last_reported":1748801610,"current_range_meters":17600,"station_id":"ce4bh512rcd13ifvqe3g","pricing_plan_id":"cebpf4jnsgd1na2vs0mg"},{"bike_id":"59e96ce6-5cb9-4112-b009-a459dc641880","system_id":"levelo_inurba_marseille","lat":43.29259,"lon":5.38452,"is_reserved":false,"is_disabled":false,"rental_uris":{"android":"levelo://app?vid=59e96ce6-5cb9-4112-b009-a459dc641880","ios":"levelo://app?vid=59e96ce6-5cb9-4112-b009-a459dc641880"},"vehicle_type_id":"4","last_reported":1748801610,"current_range_meters":17600,"station_id":"ce4bh692rcd13ifvqea0","pricing_plan_id":"cebpf4jnsgd1na2vs0mg"},{"bike_id":"10bce9a9-1208-4b02-9ace-6b5b3cbdf887","system_id":"levelo_inurba_marseille","lat":43.32301,"lon":5.39125,"is_reserved":false,"is_disabled":false,"rental_uris":{"android":"levelo://app?vid=10bce9a9-1208-4b02-9ace-6b5b3cbdf887","ios":"levelo://app?vid=10bce9a9-1208-4b02-9ace-6b5b3cbdf887"},"vehicle_type_id":"4","last_reported":1748801610,"current_range_meters":18000,"station_id":"","pricing_plan_id":"cebpf4jnsgd1na2vs0mg"},{"bike_id":"12a0923a-06aa-4677-a3e8-14576e300aaf","system_id":"levelo_inurba_marseille","lat":43.28662,"lon":5.3867,"is_reserved":false,"is_disabled":false,"rental_uris":{"android":"levelo://app?vid=12a0923a-06aa-4677-a3e8-14576e300aaf","ios":"levelo://app?vid=12a0923a-06aa-4677-a3e8-14576e300aaf"},"vehicle_type_id":"4","last_reported":1748801610,"current_range_meters":18000,"station_id":"ce4bh492rcd13ifvqdug","pricing_plan_id":"cebpf4jnsgd1na2vs0mg"},{"bike_id":"c479c76b-c22c-4020-95d5-8b35d8603c34","system_id":"levelo_inurba_marseille","lat":43.27371,"lon":5.36258,"is_reserved":false,"is_disabled":false,"rental_uris":{"android":"levelo://app?vid=c479c76b-c22c-4020-95d5-8b35d8603c34","ios":"levelo://app?vid=c479c76b-c22c-4020-95d5-8b35d8603c34"},"vehicle_type_id":"4","last_reported":1748801610,"current_range_meters":18000,"station_id":"ce4bhbh2rcd13ifvqeo0","pricing_plan_id":"cebpf4jnsgd1na2vs0mg"},{"bike_id":"21335fe1-e361-4f25-9703-649c07cc251d","system_id":"levelo_inurba_marseille","lat":43.32007,"lon":5.36798,"is_reserved":false,"is_disabled":false,"rental_uris":{"android":"levelo://app?vid=21335fe1-e361-4f25-9703-649c07cc251d","ios":"levelo://app?vid=21335fe1-e361-4f25-9703-649c07cc251d"},"vehicle_type_id":"4","last_reported":1748801610,"current_range_meters":18800,"station_id":"","pricing_plan_id":"cebpf4jnsgd1na2vs0mg"},{"bike_id":"54118256-087c-43a9-9b13-3e1a44a8703a","system_id":"levelo_inurba_marseille","lat":43.32004,"lon":5.3816,"is_reserved":false,"is_disabled":false,"rental_uris":{"android":"levelo://app?vid=54118256-087c-43a9-9b13-3e1a44a8703a","ios":"levelo://app?vid=54118256-087c-43a9-9b13-3e1a44a8703a"},"vehicle_type_id":"4","last_reported":1748801610,"current_range_meters":18800,"station_id":"ce4bhr12rcd13ifvqhpg","pricing_plan_id":"cebpf4jnsgd1na2vs0mg"},{"bike_id":"eab013d3-5b14-40a4-8834-615122a9e285","system_id":"levelo_inurba_marseille","lat":43.29693,"lon":5.36622,"is_reserved":false,"is_disabled":false,"rental_uris":{"android":"levelo://app?vid=eab013d3-5b14-40a4-8834-615122a9e285","ios":"levelo://app?vid=eab013d3-5b14-40a4-8834-615122a9e285"},"vehicle_type_id":"4","last_reported":1748801610,"current_range_meters":19200,"station_id":"ce4bgn12rcd13ifvqbt0","pricing_plan_id":"cebpf4jnsgd1na2vs0mg"},{"bike_id":"ccb25172-d442-4d71-b537-765d43bdb5fb","system_id":"levelo_inurba_marseille","lat":43.29418,"lon":5.38617,"is_reserved":false,"is_disabled":false,"rental_uris":{"android":"levelo://app?vid=ccb25172-d442-4d71-b537-765d43bdb5fb","ios":"levelo://app?vid=ccb25172-d442-4d71-b537-765d43bdb5fb"},"vehicle_type_id":"4","last_reported":1748801610,"current_range_meters":19200,"station_id":"ce4bh2h2rcd13ifvqdh0","pricing_plan_id":"cebpf4jnsgd1na2vs0mg"},{"bike_id":"57593887-9a4d-4bc4-8133-50bf60d4741f","system_id":"levelo_inurba_marseille","lat":43.28449,"lon":5.359,"is_reserved":false,"is_disabled":false,"rental_uris":{"android":"levelo://app?vid=57593887-9a4d-4bc4-8133-50bf60d4741f","ios":"levelo://app?vid=57593887-9a4d-4bc4-8133-50bf60d4741f"},"vehicle_type_id":"4","last_reported":1748801610,"current_range_meters":19200,"station_id":"ce4bhah2rcd13ifvqei0","pricing_plan_id":"cebpf4jnsgd1na2vs0mg"},{"bike_id":"09993735-ad5b-4fde-9dd7-bef0d7e4a4b6","system_id":"levelo_inurba_marseille","lat":43.28668,"lon":5.36354,"is_reserved":false,"is_disabled":false,"rental_uris":{"android":"levelo://app?vid=09993735-ad5b-4fde-9dd7-bef0d7e4a4b6","ios":"levelo://app?vid=09993735-ad5b-4fde-9dd7-bef0d7e4a4b6"},"vehicle_type_id":"4","last_reported":1748801610,"current_range_meters":19200,"station_id":"ce4bhah2rcd13ifvqej0","pricing_plan_id":"cebpf4jnsgd1na2vs0mg"},{"bike_id":"42e123c3-8ae5-44bb-80c7-bcbdd3b15c79","system_id":"levelo_inurba_marseille","lat":43.289585,"lon":5.36627,"is_reserved":false,"is_disabled":false,"rental_uris":{"android":"levelo://app?vid=42e123c3-8ae5-44bb-80c7-bcbdd3b15c79","ios":"levelo://app?vid=42e123c3-8ae5-44bb-80c7-bcbdd3b15c79"},"vehicle_type_id":"4","last_reported":1748801610,"current_range_meters":19200,"station_id":"ce4bhap2rcd13ifvqek0","pricing_plan_id":"cebpf4jnsgd1na2vs0mg"},{"bike_id":"dab78e8b-8222-4986-b94d-2db3b734964a","system_id":"levelo_inurba_marseille","lat":43.25127,"lon":5.40336,"is_reserved":false,"is_disabled":false,"rental_uris":{"android":"levelo://app?vid=dab78e8b-8222-4986-b94d-2db3b734964a","ios":"levelo://app?vid=dab78e8b-8222-4986-b94d-2db3b734964a"},"vehicle_type_id":"4","last_reported":1748801610,"current_range_meters":19200,"station_id":"ce4bhlh2rcd13ifvqgig","pricing_plan_id":"cebpf4jnsgd1na2vs0mg"},{"bike_id":"f4b0b884-376f-450e-853e-7c03e9f30767","system_id":"levelo_inurba_marseille","lat":43.24165,"lon":5.36409,"is_reserved":false,"is_disabled":false,"rental_uris":{"android":"levelo://app?vid=f4b0b884-376f-450e-853e-7c03e9f30767","ios":"levelo://app?vid=f4b0b884-376f-450e-853e-7c03e9f30767"},"vehicle_type_id":"4","last_reported":1748801610,"current_range_meters":19200,"station_id":"cpo36qri1sfpv3e86is0","pricing_plan_id":"cebpf4jnsgd1na2vs0mg"},{"bike_id":"4d792978-04b8-4d9d-a4e5-25acbff07fed","system_id":"levelo_inurba_marseille","lat":43.29268,"lon":5.37621,"is_reserved":false,"is_disabled":false,"rental_uris":{"android":"levelo://app?vid=4d792978-04b8-4d9d-a4e5-25acbff07fed","ios":"levelo://app?vid=4d792978-04b8-4d9d-a4e5-25acbff07fed"},"vehicle_type_id":"4","last_reported":1748801610,"current_range_meters":19600,"station_id":"ce4bgi12rcd13ifvqb80","pricing_plan_id":"cebpf4jnsgd1na2vs0mg"},{"bike_id":"76d5ce88-cdce-4027-9d18-036eb63fc4fb","system_id":"levelo_inurba_marseille","lat":43.29847,"lon":5.36288,"is_reserved":false,"is_disabled":false,"rental_uris":{"android":"levelo://app?vid=76d5ce88-cdce-4027-9d18-036eb63fc4fb","ios":"levelo://app?vid=76d5ce88-cdce-4027-9d18-036eb63fc4fb"},"vehicle_type_id":"4","last_reported":1748801610,"current_range_meters":19600,"station_id":"ce4bgpp2rcd13ifvqc3g","pricing_plan_id":"cebpf4jnsgd1na2vs0mg"},{"bike_id":"3d182823-10ed-44e4-b9a3-55985cbb6e20","system_id":"levelo_inurba_marseille","lat":43.29263,"lon":5.38438,"is_reserved":false,"is_disabled":false,"rental_uris":{"android":"levelo://app?vid=3d182823-10ed-44e4-b9a3-55985cbb6e20","ios":"levelo://app?vid=3d182823-10ed-44e4-b9a3-55985cbb6e20"},"vehicle_type_id":"4","last_reported":1748801610,"current_range_meters":19600,"station_id":"ce4bh692rcd13ifvqea0","pricing_plan_id":"cebpf4jnsgd1na2vs0mg"},{"bike_id":"6251f22d-49e5-467a-a76c-bb311d6dfc94","system_id":"levelo_inurba_marseille","lat":43.269999,"lon":5.402663,"is_reserved":false,"is_disabled":false,"rental_uris":{"android":"levelo://app?vid=6251f22d-49e5-467a-a76c-bb311d6dfc94","ios":"levelo://app?vid=6251f22d-49e5-467a-a76c-bb311d6dfc94"},"vehicle_type_id":"4","last_reported":1748801610,"current_range_meters":19600,"station_id":"ce4bhkp2rcd13ifvqgd0","pricing_plan_id":"cebpf4jnsgd1na2vs0mg"},{"bike_id":"5bf650cc-7d9d-46cd-98d7-5b8c3fab5635","system_id":"levelo_inurba_marseille","lat":43.25119,"lon":5.40329,"is_reserved":false,"is_disabled":false,"rental_uris":{"android":"levelo://app?vid=5bf650cc-7d9d-46cd-98d7-5b8c3fab5635","ios":"levelo://app?vid=5bf650cc-7d9d-46cd-98d7-5b8c3fab5635"},"vehicle_type_id":"4","last_reported":1748801610,"current_range_meters":19600,"station_id":"ce4bhlh2rcd13ifvqgig","pricing_plan_id":"cebpf4jnsgd1na2vs0mg"},{"bike_id":"d9e8adde-ab4e-4555-9c3a-318be610c0e8","system_id":"levelo_inurba_marseille","lat":43.24164,"lon":5.36386,"is_reserved":false,"is_disabled":false,"rental_uris":{"android":"levelo://app?vid=d9e8adde-ab4e-4555-9c3a-318be610c0e8","ios":"levelo://app?vid=d9e8adde-ab4e-4555-9c3a-318be610c0e8"},"vehicle_type_id":"4","last_reported":1748801610,"current_range_meters":19600,"station_id":"cpo36qri1sfpv3e86is0","pricing_plan_id":"cebpf4jnsgd1na2vs0mg"},{"bike_id":"8f8db83b-93a4-4fb2-b181-50b98bfbfc20","system_id":"levelo_inurba_marseille","lat":43.27869,"lon":5.39598,"is_reserved":false,"is_disabled":false,"rental_uris":{"android":"levelo://app?vid=8f8db83b-93a4-4fb2-b181-50b98bfbfc20","ios":"levelo://app?vid=8f8db83b-93a4-4fb2-b181-50b98bfbfc20"},"vehicle_type_id":"4","last_reported":1748801610,"current_range_meters":20000,"station_id":"","pricing_plan_id":"cebpf4jnsgd1na2vs0mg"},{"bike_id":"dd9ec26c-f7b4-46a4-b0e7-38a1fd125a23","system_id":"levelo_inurba_marseille","lat":43.25127,"lon":5.40304,"is_reserved":false,"is_disabled":false,"rental_uris":{"android":"levelo://app?vid=dd9ec26c-f7b4-46a4-b0e7-38a1fd125a23","ios":"levelo://app?vid=dd9ec26c-f7b4-46a4-b0e7-38a1fd125a23"},"vehicle_type_id":"4","last_reported":1748801610,"current_range_meters":20000,"station_id":"ce4bhlh2rcd13ifvqgig","pricing_plan_id":"cebpf4jnsgd1na2vs0mg"},{"bike_id":"39d9595c-2bba-4b57-a5e8-a949c25430ef","system_id":"levelo_inurba_marseille","lat":43.27483,"lon":5.43958,"is_reserved":false,"is_disabled":false,"rental_uris":{"android":"levelo://app?vid=39d9595c-2bba-4b57-a5e8-a949c25430ef","ios":"levelo://app?vid=39d9595c-2bba-4b57-a5e8-a949c25430ef"},"vehicle_type_id":"4","last_reported":1748801610,"current_range_meters":20400,"station_id":"","pricing_plan_id":"cebpf4jnsgd1na2vs0mg"},{"bike_id":"39674bfb-c851-497a-9639-b71b79101cd4","system_id":"levelo_inurba_marseille","lat":43.29251,"lon":5.38445,"is_reserved":false,"is_disabled":false,"rental_uris":{"android":"levelo://app?vid=39674bfb-c851-497a-9639-b71b79101cd4","ios":"levelo://app?vid=39674bfb-c851-497a-9639-b71b79101cd4"},"vehicle_type_id":"4","last_reported":1748801610,"current_range_meters":20400,"station_id":"ce4bh692rcd13ifvqea0","pricing_plan_id":"cebpf4jnsgd1na2vs0mg"},{"bike_id":"4a3c6fad-4b54-4d01-9b22-106d58d77a39","system_id":"levelo_inurba_marseille","lat":43.28717,"lon":5.37941,"is_reserved":false,"is_disabled":false,"rental_uris":{"android":"levelo://app?vid=4a3c6fad-4b54-4d01-9b22-106d58d77a39","ios":"levelo://app?vid=4a3c6fad-4b54-4d01-9b22-106d58d77a39"},"vehicle_type_id":"4","last_reported":1748801610,"current_range_meters":20400,"station_id":"ce4bh9p2rcd13ifvqec0","pricing_plan_id":"cebpf4jnsgd1na2vs0mg"},{"bike_id":"8cfc5915-7270-4ef8-a54a-c43971cbbe14","system_id":"levelo_inurba_marseille","lat":43.28732,"lon":5.37928,"is_reserved":false,"is_disabled":false,"rental_uris":{"android":"levelo://app?vid=8cfc5915-7270-4ef8-a54a-c43971cbbe14","ios":"levelo://app?vid=8cfc5915-7270-4ef8-a54a-c43971cbbe14"},"vehicle_type_id":"4","last_reported":1748801610,"current_range_meters":20400,"station_id":"ce4bh9p2rcd13ifvqec0","pricing_plan_id":"cebpf4jnsgd1na2vs0mg"},{"bike_id":"c7e58958-5199-4f96-9f5d-f848d1261128","system_id":"levelo_inurba_marseille","lat":43.2407,"lon":5.37711,"is_reserved":false,"is_disabled":false,"rental_uris":{"android":"levelo://app?vid=c7e58958-5199-4f96-9f5d-f848d1261128","ios":"levelo://app?vid=c7e58958-5199-4f96-9f5d-f848d1261128"},"vehicle_type_id":"4","last_reported":1748801610,"current_range_meters":20400,"station_id":"ce4bhnp2rcd13ifvqgvg","pricing_plan_id":"cebpf4jnsgd1na2vs0mg"},{"bike_id":"bb2b2f67-7cf7-4b8e-9ad4-842a0106cc88","system_id":"levelo_inurba_marseille","lat":43.27941,"lon":5.41052,"is_reserved":false,"is_disabled":false,"rental_uris":{"android":"levelo://app?vid=bb2b2f67-7cf7-4b8e-9ad4-842a0106cc88","ios":"levelo://app?vid=bb2b2f67-7cf7-4b8e-9ad4-842a0106cc88"},"vehicle_type_id":"4","last_reported":1748801610,"current_range_meters":20400,"station_id":"ce4bhnp2rcd13ifvqh0g","pricing_plan_id":"cebpf4jnsgd1na2vs0mg"},{"bike_id":"a2baceb5-eff0-45de-ae00-9172b7ee2d7b","system_id":"levelo_inurba_marseille","lat":43.31247,"lon":5.37621,"is_reserved":false,"is_disabled":false,"rental_uris":{"android":"levelo://app?vid=a2baceb5-eff0-45de-ae00-9172b7ee2d7b","ios":"levelo://app?vid=a2baceb5-eff0-45de-ae00-9172b7ee2d7b"},"vehicle_type_id":"4","last_reported":1748801610,"current_range_meters":20800,"station_id":"","pricing_plan_id":"cebpf4jnsgd1na2vs0mg"},{"bike_id":"f8ad8aa4-a4ba-4cf4-ba56-39db3694f971","system_id":"levelo_inurba_marseille","lat":43.28402,"lon":5.37508,"is_reserved":false,"is_disabled":false,"rental_uris":{"android":"levelo://app?vid=f8ad8aa4-a4ba-4cf4-ba56-39db3694f971","ios":"levelo://app?vid=f8ad8aa4-a4ba-4cf4-ba56-39db3694f971"},"vehicle_type_id":"4","last_reported":1748801610,"current_range_meters":20800,"station_id":"ce4bh412rcd13ifvqds0","pricing_plan_id":"cebpf4jnsgd1na2vs0mg"},{"bike_id":"23108def-a8a7-4931-ac29-a650205f3d40","system_id":"levelo_inurba_marseille","lat":43.29561,"lon":5.42296,"is_reserved":false,"is_disabled":false,"rental_uris":{"android":"levelo://app?vid=23108def-a8a7-4931-ac29-a650205f3d40","ios":"levelo://app?vid=23108def-a8a7-4931-ac29-a650205f3d40"},"vehicle_type_id":"4","last_reported":1748801610,"current_range_meters":20800,"station_id":"ce4bhph2rcd13ifvqhdg","pricing_plan_id":"cebpf4jnsgd1na2vs0mg"},{"bike_id":"c13735a5-aa14-4e3c-97dc-49d14488ed76","system_id":"levelo_inurba_marseille","lat":43.28048,"lon":5.349737,"is_reserved":false,"is_disabled":false,"rental_uris":{"android":"levelo://app?vid=c13735a5-aa14-4e3c-97dc-49d14488ed76","ios":"levelo://app?vid=c13735a5-aa14-4e3c-97dc-49d14488ed76"},"vehicle_type_id":"4","last_reported":1748801610,"current_range_meters":21600,"station_id":"","pricing_plan_id":"cebpf4jnsgd1na2vs0mg"},{"bike_id":"411021cf-890b-4778-ae5b-323efa7fb415","system_id":"levelo_inurba_marseille","lat":43.31492,"lon":5.37306,"is_reserved":false,"is_disabled":false,"rental_uris":{"android":"levelo://app?vid=411021cf-890b-4778-ae5b-323efa7fb415","ios":"levelo://app?vid=411021cf-890b-4778-ae5b-323efa7fb415"},"vehicle_type_id":"4","last_reported":1748801610,"current_range_meters":21600,"station_id":"ce4bgt12rcd13ifvqcd0","pricing_plan_id":"cebpf4jnsgd1na2vs0mg"},{"bike_id":"b6af5ac7-118d-468f-8454-aae93694e144","system_id":"levelo_inurba_marseille","lat":43.31178,"lon":5.38732,"is_reserved":false,"is_disabled":false,"rental_uris":{"android":"levelo://app?vid=b6af5ac7-118d-468f-8454-aae93694e144","ios":"levelo://app?vid=b6af5ac7-118d-468f-8454-aae93694e144"},"vehicle_type_id":"4","last_reported":1748801610,"current_range_meters":21600,"station_id":"ce4bgv12rcd13ifvqcp0","pricing_plan_id":"cebpf4jnsgd1na2vs0mg"},{"bike_id":"c11be579-2774-4139-bdf6-a2973a5f11e2","system_id":"levelo_inurba_marseille","lat":43.31329,"lon":5.39688,"is_reserved":false,"is_disabled":false,"rental_uris":{"android":"levelo://app?vid=c11be579-2774-4139-bdf6-a2973a5f11e2","ios":"levelo://app?vid=c11be579-2774-4139-bdf6-a2973a5f11e2"},"vehicle_type_id":"4","last_reported":1748801610,"current_range_meters":21600,"station_id":"ce4bgvp2rcd13ifvqcu0","pricing_plan_id":"cebpf4jnsgd1na2vs0mg"},{"bike_id":"ae1a033c-b3c0-4a92-ac9a-633cfa895583","system_id":"levelo_inurba_marseille","lat":43.29413,"lon":5.38627,"is_reserved":false,"is_disabled":false,"rental_uris":{"android":"levelo://app?vid=ae1a033c-b3c0-4a92-ac9a-633cfa895583","ios":"levelo://app?vid=ae1a033c-b3c0-4a92-ac9a-633cfa895583"},"vehicle_type_id":"4","last_reported":1748801610,"current_range_meters":21600,"station_id":"ce4bh2h2rcd13ifvqdh0","pricing_plan_id":"cebpf4jnsgd1na2vs0mg"},{"bike_id":"749ce964-5896-4990-85cb-46f01b0daf55","system_id":"levelo_inurba_marseille","lat":43.29421,"lon":5.38629,"is_reserved":false,"is_disabled":false,"rental_uris":{"android":"levelo://app?vid=749ce964-5896-4990-85cb-46f01b0daf55","ios":"levelo://app?vid=749ce964-5896-4990-85cb-46f01b0daf55"},"vehicle_type_id":"4","last_reported":1748801610,"current_range_meters":21600,"station_id":"ce4bh2h2rcd13ifvqdh0","pricing_plan_id":"cebpf4jnsgd1na2vs0mg"},{"bike_id":"949b0dc9-7cc1-4a0b-a723-3e9840c05fe6","system_id":"levelo_inurba_marseille","lat":43.283698,"lon":5.350222,"is_reserved":false,"is_disabled":false,"rental_uris":{"android":"levelo://app?vid=949b0dc9-7cc1-4a0b-a723-3e9840c05fe6","ios":"levelo://app?vid=949b0dc9-7cc1-4a0b-a723-3e9840c05fe6"},"vehicle_type_id":"4","last_reported":1748801610,"current_range_meters":21600,"station_id":"ce4bh412rcd13ifvqds0","pricing_plan_id":"cebpf4jnsgd1na2vs0mg"},{"bike_id":"46b9885c-a704-4d17-b32c-b5c22429f815","system_id":"levelo_inurba_marseille","lat":43.26682,"lon":5.38267,"is_reserved":false,"is_disabled":false,"rental_uris":{"android":"levelo://app?vid=46b9885c-a704-4d17-b32c-b5c22429f815","ios":"levelo://app?vid=46b9885c-a704-4d17-b32c-b5c22429f815"},"vehicle_type_id":"4","last_reported":1748801610,"current_range_meters":21600,"station_id":"ce4bhg92rcd13ifvqf90","pricing_plan_id":"cebpf4jnsgd1na2vs0mg"},{"bike_id":"e75d8fdf-622c-4544-a368-080e0a4c2415","system_id":"levelo_inurba_marseille","lat":43.32548,"lon":5.42549,"is_reserved":false,"is_disabled":false,"rental_uris":{"android":"levelo://app?vid=e75d8fdf-622c-4544-a368-080e0a4c2415","ios":"levelo://app?vid=e75d8fdf-622c-4544-a368-080e0a4c2415"},"vehicle_type_id":"4","last_reported":1748801610,"current_range_meters":22000,"station_id":"","pricing_plan_id":"cebpf4jnsgd1na2vs0mg"},{"bike_id":"da749b65-135d-444a-a5d9-9858178d66d4","system_id":"levelo_inurba_marseille","lat":43.296,"lon":5.38102,"is_reserved":false,"is_disabled":false,"rental_uris":{"android":"levelo://app?vid=da749b65-135d-444a-a5d9-9858178d66d4","ios":"levelo://app?vid=da749b65-135d-444a-a5d9-9858178d66d4"},"vehicle_type_id":"4","last_reported":1748801610,"current_range_meters":22000,"station_id":"ce4bgl12rcd13ifvqbo0","pricing_plan_id":"cebpf4jnsgd1na2vs0mg"},{"bike_id":"7bacc6a4-3632-465c-a75d-8cc388366ba2","system_id":"levelo_inurba_marseille","lat":43.29842,"lon":5.36269,"is_reserved":false,"is_disabled":false,"rental_uris":{"android":"levelo://app?vid=7bacc6a4-3632-465c-a75d-8cc388366ba2","ios":"levelo://app?vid=7bacc6a4-3632-465c-a75d-8cc388366ba2"},"vehicle_type_id":"4","last_reported":1748801610,"current_range_meters":22000,"station_id":"ce4bgpp2rcd13ifvqc3g","pricing_plan_id":"cebpf4jnsgd1na2vs0mg"},{"bike_id":"1db6e2f8-2dff-4472-87b2-58dda437fc25","system_id":"levelo_inurba_marseille","lat":43.31172,"lon":5.38707,"is_reserved":false,"is_disabled":false,"rental_uris":{"android":"levelo://app?vid=1db6e2f8-2dff-4472-87b2-58dda437fc25","ios":"levelo://app?vid=1db6e2f8-2dff-4472-87b2-58dda437fc25"},"vehicle_type_id":"4","last_reported":1748801610,"current_range_meters":22000,"station_id":"ce4bgv12rcd13ifvqcp0","pricing_plan_id":"cebpf4jnsgd1na2vs0mg"},{"bike_id":"046e8c91-0eb5-46c3-b88b-16de57def484","system_id":"levelo_inurba_marseille","lat":43.29506,"lon":5.401,"is_reserved":false,"is_disabled":false,"rental_uris":{"android":"levelo://app?vid=046e8c91-0eb5-46c3-b88b-16de57def484","ios":"levelo://app?vid=046e8c91-0eb5-46c3-b88b-16de57def484"},"vehicle_type_id":"4","last_reported":1748801610,"current_range_meters":22000,"station_id":"ce4bh012rcd13ifvqd10","pricing_plan_id":"cebpf4jnsgd1na2vs0mg"},{"bike_id":"0c8cd24e-434b-4173-bf66-ab42033bfd98","system_id":"levelo_inurba_marseille","lat":43.29881,"lon":5.3888,"is_reserved":false,"is_disabled":false,"rental_uris":{"android":"levelo://app?vid=0c8cd24e-434b-4173-bf66-ab42033bfd98","ios":"levelo://app?vid=0c8cd24e-434b-4173-bf66-ab42033bfd98"},"vehicle_type_id":"4","last_reported":1748801610,"current_range_meters":22000,"station_id":"ce4bh392rcd13ifvqdl0","pricing_plan_id":"cebpf4jnsgd1na2vs0mg"},{"bike_id":"b3c84680-d01b-4840-8e64-0ab7a5c9edd3","system_id":"levelo_inurba_marseille","lat":43.27472,"lon":5.42474,"is_reserved":false,"is_disabled":false,"rental_uris":{"android":"levelo://app?vid=b3c84680-d01b-4840-8e64-0ab7a5c9edd3","ios":"levelo://app?vid=b3c84680-d01b-4840-8e64-0ab7a5c9edd3"},"vehicle_type_id":"4","last_reported":1748801610,"current_range_meters":22000,"station_id":"ce4bhn92rcd13ifvqgrg","pricing_plan_id":"cebpf4jnsgd1na2vs0mg"},{"bike_id":"602e453f-d7fb-475a-b735-f4f02d16e537","system_id":"levelo_inurba_marseille","lat":43.28434,"lon":5.39193,"is_reserved":false,"is_disabled":false,"rental_uris":{"android":"levelo://app?vid=602e453f-d7fb-475a-b735-f4f02d16e537","ios":"levelo://app?vid=602e453f-d7fb-475a-b735-f4f02d16e537"},"vehicle_type_id":"4","last_reported":1748801610,"current_range_meters":22000,"station_id":"ce4bhoh2rcd13ifvqh5g","pricing_plan_id":"cebpf4jnsgd1na2vs0mg"},{"bike_id":"0ed2f74d-144e-4a69-828c-a3c06a86e383","system_id":"levelo_inurba_marseille","lat":43.323637,"lon":5.367505,"is_reserved":false,"is_disabled":false,"rental_uris":{"android":"levelo://app?vid=0ed2f74d-144e-4a69-828c-a3c06a86e383","ios":"levelo://app?vid=0ed2f74d-144e-4a69-828c-a3c06a86e383"},"vehicle_type_id":"4","last_reported":1748801610,"current_range_meters":22000,"station_id":"ce4bhsh2rcd13ifvqi2g","pricing_plan_id":"cebpf4jnsgd1na2vs0mg"},{"bike_id":"245863db-4ec2-4fc4-ad5b-9e28017ff01f","system_id":"levelo_inurba_marseille","lat":43.29899,"lon":5.43651,"is_reserved":false,"is_disabled":false,"rental_uris":{"android":"levelo://app?vid=245863db-4ec2-4fc4-ad5b-9e28017ff01f","ios":"levelo://app?vid=245863db-4ec2-4fc4-ad5b-9e28017ff01f"},"vehicle_type_id":"4","last_reported":1748801610,"current_range_meters":22400,"station_id":"ce4bhpp2rcd13ifvqhfg","pricing_plan_id":"cebpf4jnsgd1na2vs0mg"},{"bike_id":"6fbf14bd-1aa2-48c0-b1b4-a450def241aa","system_id":"levelo_inurba_marseille","lat":43.2903,"lon":5.42583,"is_reserved":false,"is_disabled":false,"rental_uris":{"android":"levelo://app?vid=6fbf14bd-1aa2-48c0-b1b4-a450def241aa","ios":"levelo://app?vid=6fbf14bd-1aa2-48c0-b1b4-a450def241aa"},"vehicle_type_id":"4","last_reported":1748801610,"current_range_meters":22800,"station_id":"","pricing_plan_id":"cebpf4jnsgd1na2vs0mg"},{"bike_id":"137566f1-4896-4181-a037-48f121586975","system_id":"levelo_inurba_marseille","lat":43.31713,"lon":5.37735,"is_reserved":false,"is_disabled":false,"rental_uris":{"android":"levelo://app?vid=137566f1-4896-4181-a037-48f121586975","ios":"levelo://app?vid=137566f1-4896-4181-a037-48f121586975"},"vehicle_type_id":"4","last_reported":1748801610,"current_range_meters":22800,"station_id":"ce4bgth2rcd13ifvqch0","pricing_plan_id":"cebpf4jnsgd1na2vs0mg"},{"bike_id":"7716fcd4-f89d-4e35-ba2a-8f3858cd9db7","system_id":"levelo_inurba_marseille","lat":43.28847,"lon":5.39325,"is_reserved":false,"is_disabled":false,"rental_uris":{"android":"levelo://app?vid=7716fcd4-f89d-4e35-ba2a-8f3858cd9db7","ios":"levelo://app?vid=7716fcd4-f89d-4e35-ba2a-8f3858cd9db7"},"vehicle_type_id":"4","last_reported":1748801610,"current_range_meters":22800,"station_id":"ce4bh2p2rcd13ifvqdi0","pricing_plan_id":"cebpf4jnsgd1na2vs0mg"},{"bike_id":"74260c8f-3ff1-4b3f-bdd2-069450a1b887","system_id":"levelo_inurba_marseille","lat":43.28663,"lon":5.36333,"is_reserved":false,"is_disabled":false,"rental_uris":{"android":"levelo://app?vid=74260c8f-3ff1-4b3f-bdd2-069450a1b887","ios":"levelo://app?vid=74260c8f-3ff1-4b3f-bdd2-069450a1b887"},"vehicle_type_id":"4","last_reported":1748801610,"current_range_meters":22800,"station_id":"ce4bhah2rcd13ifvqej0","pricing_plan_id":"cebpf4jnsgd1na2vs0mg"},{"bike_id":"8722ff4b-7b9e-4cbd-ad40-aba2d530a82c","system_id":"levelo_inurba_marseille","lat":43.261565,"lon":5.374901,"is_reserved":false,"is_disabled":false,"rental_uris":{"android":"levelo://app?vid=8722ff4b-7b9e-4cbd-ad40-aba2d530a82c","ios":"levelo://app?vid=8722ff4b-7b9e-4cbd-ad40-aba2d530a82c"},"vehicle_type_id":"4","last_reported":1748801610,"current_range_meters":22800,"station_id":"ce4bhdp2rcd13ifvqf20","pricing_plan_id":"cebpf4jnsgd1na2vs0mg"},{"bike_id":"2666d635-eca4-4704-b7aa-fa7b8b866bbe","system_id":"levelo_inurba_marseille","lat":43.279137,"lon":5.395767,"is_reserved":false,"is_disabled":false,"rental_uris":{"android":"levelo://app?vid=2666d635-eca4-4704-b7aa-fa7b8b866bbe","ios":"levelo://app?vid=2666d635-eca4-4704-b7aa-fa7b8b866bbe"},"vehicle_type_id":"4","last_reported":1748801610,"current_range_meters":22800,"station_id":"ce4bhf92rcd13ifvqf40","pricing_plan_id":"cebpf4jnsgd1na2vs0mg"},{"bike_id":"f38e7491-3606-48b4-b1cd-68e3052535ab","system_id":"levelo_inurba_marseille","lat":43.23051,"lon":5.35498,"is_reserved":false,"is_disabled":false,"rental_uris":{"android":"levelo://app?vid=f38e7491-3606-48b4-b1cd-68e3052535ab","ios":"levelo://app?vid=f38e7491-3606-48b4-b1cd-68e3052535ab"},"vehicle_type_id":"4","last_reported":1748801610,"current_range_meters":22800,"station_id":"cpo3342slgdg3j2ifvpg","pricing_plan_id":"cebpf4jnsgd1na2vs0mg"},