{"last_updated":1734358208,"ttl":60,"version":"2.2","data":{"bikes":[{"bike_id":"6015cf8f-0e33-47ec-9df6-aba5e9b1299b","system_id":"levelo_inurba_marseille","lat":43.29429,"lon":5.3862,"is_reserved":false,"is_disabled":false,"rental_uris":{"android":"levelo://app?vid=6015cf8f-0e33-47ec-9df6-aba5e9b1299b","ios":"levelo://app?vid=6015cf8f-0e33-47ec-9df6-aba5e9b1299b"},"vehicle_type_id":"4","last_reported":1734358208,"current_range_meters":32800,"station_id":"ce4bh2h2rcd13ifvqdh0","pricing_plan_id":"cebpf4jnsgd1na2vs0mg"},{"bike_id":"61d772b3-e172-4f5d-8778-5fb43be913c2","system_id":"levelo_inurba_marseille","lat":43.27069,"lon":5.42279,"is_reserved":false,"is_disabled":false,"rental_uris":{"android":"levelo://app?vid=61d772b3-e172-4f5d-8778-5fb43be913c2","ios":"levelo://app?vid=61d772b3-e172-4f5d-8778-5fb43be913c2"},"vehicle_type_id":"4","last_reported":1734358208,"current_range_meters":37600,"station_id":"ce4bhk92rcd13ifvqgb0","pricing_plan_id":"cebpf4jnsgd1na2vs0mg"},{"bike_id":"26ec6f45-9783-46d2-b43a-b96a8896b16f","system_id":"levelo_inurba_marseille","lat":43.29961,"lon":5.41331,"is_reserved":false,"is_disabled":false,"rental_uris":{"android":"levelo://app?vid=26ec6f45-9783-46d2-b43a-b96a8896b16f","ios":"levelo://app?vid=26ec6f45-9783-46d2-b43a-b96a8896b16f"},"vehicle_type_id":"4","last_reported":1734358208,"current_range_meters":38000,"station_id":"ce4bhp12rcd13ifvqh9g","pricing_plan_id":"cebpf4jnsgd1na2vs0mg"},{"bike_id":"d572b33a-4d92-44f8-85f7-7d4148f6a7fb","system_id":"levelo_inurba_marseille","lat":43.31332,"lon":5.36711,"is_reserved":false,"is_disabled":false,"rental_uris":{"android":"levelo://app?vid=d572b33a-4d92-44f8-85f7-7d4148f6a7fb","ios":"levelo://app?vid=d572b33a-4d92-44f8-85f7-7d4148f6a7fb"},"vehicle_type_id":"4","last_reported":1734358208,"current_range_meters":9600,"station_id":"ce4bgr92rcd13ifvqc6g","pricing_plan_id":"cebpf4jnsgd1na2vs0mg"},{"bike_id":"49735576-98af-4537-b127-26ad7906beaf","system_id":"levelo_inurba_marseille","lat":43.26066,"lon":5.39391,"is_reserved":false,"is_disabled":false,"rental_uris":{"android":"levelo://app?vid=49735576-98af-4537-b127-26ad7906beaf","ios":"levelo://app?vid=49735576-98af-4537-b127-26ad7906beaf"},"vehicle_type_id":"4","last_reported":1734358208,"current_range_meters":26000,"station_id":"ce4bhh92rcd13ifvqfj0","pricing_plan_id":"cebpf4jnsgd1na2vs0mg"},{"bike_id":"e9e03a98-b8ca-4a16-b3ec-509cc4932a33","system_id":"levelo_inurba_marseille","lat":43.29812,"lon":5.38096,"is_reserved":false,"is_disabled":false,"rental_uris":{"android":"levelo://app?vid=e9e03a98-b8ca-4a16-b3ec-509cc4932a33","ios":"levelo://app?vid=e9e03a98-b8ca-4a16-b3ec-509cc4932a33"},"vehicle_type_id":"4","last_reported":1734358208,"current_range_meters":5600,"station_id":"ce4bgip2rcd13ifvqbb0","pricing_plan_id":"cebpf4jnsgd1na2vs0mg"},{"bike_id":"ff741ed4-b6c1-46e9-8859-724857a3c4b9","system_id":"levelo_inurba_marseille","lat":43.2408,"lon":5.37759,"is_reserved":false,"is_disabled":false,"rental_uris":{"android":"levelo://app?vid=ff741ed4-b6c1-46e9-8859-724857a3c4b9","ios":"levelo://app?vid=ff741ed4-b6c1-46e9-8859-724857a3c4b9"},"vehicle_type_id":"4","last_reported":1734358208,"current_range_meters":38800,"station_id":"ce4bhnp2rcd13ifvqgvg","pricing_plan_id":"cebpf4jnsgd1na2vs0mg"},{"bike_id":"a6aafb4a-8903-4ffe-9940-03f185dadbd3","system_id":"levelo_inurba_marseille","lat":43.28669,"lon":5.38665,"is_reserved":false,"is_disabled":false,"rental_uris":{"android":"levelo://app?vid=a6aafb4a-8903-4ffe-9940-03f185dadbd3","ios":"levelo://app?vid=a6aafb4a-8903-4ffe-9940-03f185dadbd3"},"vehicle_type_id":"4","last_reported":1734358208,"current_range_meters":34000,"station_id":"ce4bh492rcd13ifvqdug","pricing_plan_id":"cebpf4jnsgd1na2vs0mg"},{"bike_id":"2a2dfee7-e8bd-4670-b2f4-34d6ff663d8b","system_id":"levelo_inurba_marseille","lat":43.28518,"lon":5.38049,"is_reserved":false,"is_disabled":true,"rental_uris":{"android":"levelo://app?vid=2a2dfee7-e8bd-4670-b2f4-34d6ff663d8b","ios":"levelo://app?vid=2a2dfee7-e8bd-4670-b2f4-34d6ff663d8b"},"vehicle_type_id":"4","last_reported":1734358208,"current_range_meters":24800,"station_id":"","pricing_plan_id":"cebpf4jnsgd1na2vs0mg"},{"bike_id":"8b4bbec8-dfd1-43bf-9006-96ba943f9f54","system_id":"levelo_inurba_marseille","lat":43.280945,"lon":5.39548,"is_reserved":false,"is_disabled":false,"rental_uris":{"android":"levelo://app?vid=8b4bbec8-dfd1-43bf-9006-96ba943f9f54","ios":"levelo://app?vid=8b4bbec8-dfd1-43bf-9006-96ba943f9f54"},"vehicle_type_id":"4","last_reported":1734358208,"current_range_meters":39200,"station_id":"ce4bho12rcd13ifvqh2g","pricing_plan_id":"cebpf4jnsgd1na2vs0mg"},{"bike_id":"01cd336e-0d0d-4252-b249-bfd3753a9ae2","system_id":"levelo_inurba_marseille","lat":43.30032,"lon":5.3775,"is_reserved":false,"is_disabled":true,"rental_uris":{"android":"levelo://app?vid=01cd336e-0d0d-4252-b249-bfd3753a9ae2","ios":"levelo://app?vid=01cd336e-0d0d-4252-b249-bfd3753a9ae2"},"vehicle_type_id":"4","last_reported":1734358208,"current_range_meters":10000,"station_id":"","pricing_plan_id":"cebpf4jnsgd1na2vs0mg"},{"bike_id":"68318da2-404d-4277-bcad-71c1cc0f38c8","system_id":"levelo_inurba_marseille","lat":43.27214,"lon":5.39188,"is_reserved":false,"is_disabled":false,"rental_uris":{"android":"levelo://app?vid=68318da2-404d-4277-bcad-71c1cc0f38c8","ios":"levelo://app?vid=68318da2-404d-4277-bcad-71c1cc0f38c8"},"vehicle_type_id":"4","last_reported":1734358208,"current_range_meters":16800,"station_id":"ce4bhhp2rcd13ifvqfm0","pricing_plan_id":"cebpf4jnsgd1na2vs0mg"},{"bike_id":"c8df81c4-c005-46f0-96a4-0d7a47738bee","system_id":"levelo_inurba_marseille","lat":43.25941,"lon":5.4091,"is_reserved":false,"is_disabled":false,"rental_uris":{"android":"levelo://app?vid=c8df81c4-c005-46f0-96a4-0d7a47738bee","ios":"levelo://app?vid=c8df81c4-c005-46f0-96a4-0d7a47738bee"},"vehicle_type_id":"4","last_reported":1734358208,"current_range_meters":38400,"station_id":"ce4bhm92rcd13ifvqglg","pricing_plan_id":"cebpf4jnsgd1na2vs0mg"},{"bike_id":"2aabb9e3-ae45-4b17-b10d-af50e235d80a","system_id":"levelo_inurba_marseille","lat":43.26786,"lon":5.39928,"is_reserved":false,"is_disabled":true,"rental_uris":{"android":"levelo://app?vid=2aabb9e3-ae45-4b17-b10d-af50e235d80a","ios":"levelo://app?vid=2aabb9e3-ae45-4b17-b10d-af50e235d80a"},"vehicle_type_id":"4","last_reported":1734358208,"current_range_meters":0,"station_id":"","pricing_plan_id":"cebpf4jnsgd1na2vs0mg"},{"bike_id":"c7bab647-3db4-4864-b905-5cb5e805eae3","system_id":"levelo_inurba_marseille","lat":43.27047,"lon":5.40269,"is_reserved":false,"is_disabled":true,"rental_uris":{"android":"levelo://app?vid=c7bab647-3db4-4864-b905-5cb5e805eae3","ios":"levelo://app?vid=c7bab647-3db4-4864-b905-5cb5e805eae3"},"vehicle_type_id":"4","last_reported":1734358208,"current_range_meters":0,"station_id":"ce4bhk92rcd13ifvqgc0","pricing_plan_id":"cebpf4jnsgd1na2vs0mg"},{"bike_id":"fa2e65c9-0662-4573-af76-4403fbb12936","system_id":"levelo_inurba_marseille","lat":43.28504,"lon":5.35077,"is_reserved":false,"is_disabled":false,"rental_uris":{"android":"levelo://app?vid=fa2e65c9-0662-4573-af76-4403fbb12936","ios":"levelo://app?vid=fa2e65c9-0662-4573-af76-4403fbb12936"},"vehicle_type_id":"4","last_reported":1734358208,"current_range_meters":33200,"station_id":"","pricing_plan_id":"cebpf4jnsgd1na2vs0mg"},{"bike_id":"e4ed19cb-ad40-45e1-96c0-b543d3e0a25d","system_id":"levelo_inurba_marseille","lat":43.28943,"lon":5.36411,"is_reserved":false,"is_disabled":false,"rental_uris":{"android":"levelo://app?vid=e4ed19cb-ad40-45e1-96c0-b543d3e0a25d","ios":"levelo://app?vid=e4ed19cb-ad40-45e1-96c0-b543d3e0a25d"},"vehicle_type_id":"4","last_reported":1734358208,"current_range_meters":20400,"station_id":"ce4bhc92rcd13ifvqetg","pricing_plan_id":"cebpf4jnsgd1na2vs0mg"},{"bike_id":"2aeb22ea-267e-4112-acd0-04e61f12d02b","system_id":"levelo_inurba_marseille","lat":43.28937,"lon":5.38399,"is_reserved":false,"is_disabled":false,"rental_uris":{"android":"levelo://app?vid=2aeb22ea-267e-4112-acd0-04e61f12d02b","ios":"levelo://app?vid=2aeb22ea-267e-4112-acd0-04e61f12d02b"},"vehicle_type_id":"4","last_reported":1734358208,"current_range_meters":33600,"station_id":"ce4bh612rcd13ifvqe6g","pricing_plan_id":"cebpf4jnsgd1na2vs0mg"},{"bike_id":"7bec5294-99b2-4c08-a2d1-86eb07092a91","system_id":"levelo_inurba_marseille","lat":43.281086,"lon":5.378414,"is_reserved":false,"is_disabled":false,"rental_uris":{"android":"levelo://app?vid=7bec5294-99b2-4c08-a2d1-86eb07092a91","ios":"levelo://app?vid=7bec5294-99b2-4c08-a2d1-86eb07092a91"},"vehicle_type_id":"4","last_reported":1734358208,"current_range_meters":38800,"station_id":"ce4bha12rcd13ifvqee0","pricing_plan_id":"cebpf4jnsgd1na2vs0mg"},{"bike_id":"6dbf5ad5-d144-4d56-9e8f-ac8d59dc4a56","system_id":"levelo_inurba_marseille","lat":43.29915,"lon":5.37464,"is_reserved":false,"is_disabled":false,"rental_uris":{"android":"levelo://app?vid=6dbf5ad5-d144-4d56-9e8f-ac8d59dc4a56","ios":"levelo://app?vid=6dbf5ad5-d144-4d56-9e8f-ac8d59dc4a56"},"vehicle_type_id":"4","last_reported":1734358208,"current_range_meters":16800,"station_id":"ce4bgjh2rcd13ifvqbg0","pricing_plan_id":"cebpf4jnsgd1na2vs0mg"},{"bike_id":"83a18fa8-cf3c-4572-93e9-b37c60d789bc","system_id":"levelo_inurba_marseille","lat":43.30531,"lon":5.38423,"is_reserved":false,"is_disabled":false,"rental_uris":{"android":"levelo://app?vid=83a18fa8-cf3c-4572-93e9-b37c60d789bc","ios":"levelo://app?vid=83a18fa8-cf3c-4572-93e9-b37c60d789bc"},"vehicle_type_id":"4","last_reported":1734358208,"current_range_meters":32000,"station_id":"ce4bgg92rcd13ifvqb30","pricing_plan_id":"cebpf4jnsgd1na2vs0mg"},{"bike_id":"cad7719d-6bdb-48ae-8920-e62428891cbb","system_id":"levelo_inurba_marseille","lat":43.28027,"lon":5.44111,"is_reserved":false,"is_disabled":true,"rental_uris":{"android":"levelo://app?vid=cad7719d-6bdb-48ae-8920-e62428891cbb","ios":"levelo://app?vid=cad7719d-6bdb-48ae-8920-e62428891cbb"},"vehicle_type_id":"4","last_reported":1734358208,"current_range_meters":0,"station_id":"","pricing_plan_id":"cebpf4jnsgd1na2vs0mg"},{"bike_id":"5ac93bb9-59e7-46f2-8996-199188cdbf4b","system_id":"levelo_inurba_marseille","lat":43.30543,"lon":5.36539,"is_reserved":false,"is_disabled":false,"rental_uris":{"android":"levelo://app?vid=5ac93bb9-59e7-46f2-8996-199188cdbf4b","ios":"levelo://app?vid=5ac93bb9-59e7-46f2-8996-199188cdbf4b"},"vehicle_type_id":"4","last_reported":1734358208,"current_range_meters":36000,"station_id":"ce4bgs12rcd13ifvqcag","pricing_plan_id":"cebpf4jnsgd1na2vs0mg"},{"bike_id":"8b266861-ab5e-46e4-8cc3-061a8bc3872d","system_id":"levelo_inurba_marseille","lat":43.24664,"lon":5.3816,"is_reserved":false,"is_disabled":false,"rental_uris":{"android":"levelo://app?vid=8b266861-ab5e-46e4-8cc3-061a8bc3872d","ios":"levelo://app?vid=8b266861-ab5e-46e4-8cc3-061a8bc3872d"},"vehicle_type_id":"4","last_reported":1734358208,"current_range_meters":26000,"station_id":"ce4bhih2rcd13ifvqfr0","pricing_plan_id":"cebpf4jnsgd1na2vs0mg"},{"bike_id":"8c661a81-aa0f-4e45-ab1f-653e920751fb","system_id":"levelo_inurba_marseille","lat":43.309,"lon":5.36843,"is_reserved":false,"is_disabled":false,"rental_uris":{"android":"levelo://app?vid=8c661a81-aa0f-4e45-ab1f-653e920751fb","ios":"levelo://app?vid=8c661a81-aa0f-4e45-ab1f-653e920751fb"},"vehicle_type_id":"4","last_reported":1734358208,"current_range_meters":22800,"station_id":"ce4bgn92rcd13ifvqbvg","pricing_plan_id":"cebpf4jnsgd1na2vs0mg"},{"bike_id":"a4d60c42-6073-4a60-b1b2-df5e82d47efa","system_id":"levelo_inurba_marseille","lat":43.27167,"lon":5.41001,"is_reserved":false,"is_disabled":false,"rental_uris":{"android":"levelo://app?vid=a4d60c42-6073-4a60-b1b2-df5e82d47efa","ios":"levelo://app?vid=a4d60c42-6073-4a60-b1b2-df5e82d47efa"},"vehicle_type_id":"4","last_reported":1734358208,"current_range_meters":36800,"station_id":"ce4bhl12rcd13ifvqgf0","pricing_plan_id":"cebpf4jnsgd1na2vs0mg"},{"bike_id":"215c011f-dabf-4b06-a7fd-2279d6590f33","system_id":"levelo_inurba_marseille","lat":43.26555,"lon":5.3729,"is_reserved":false,"is_disabled":false,"rental_uris":{"android":"levelo://app?vid=215c011f-dabf-4b06-a7fd-2279d6590f33","ios":"levelo://app?vid=215c011f-dabf-4b06-a7fd-2279d6590f33"},"vehicle_type_id":"4","last_reported":1734358208,"current_range_meters":36400,"station_id":"ce4bhg12rcd13ifvqf70","pricing_plan_id":"cebpf4jnsgd1na2vs0mg"},{"bike_id":"4deb15ef-079e-44d5-9289-1d9084b509a7","system_id":"levelo_inurba_marseille","lat":43.31306,"lon":5.36959,"is_reserved":false,"is_disabled":false,"rental_uris":{"android":"levelo://app?vid=4deb15ef-079e-44d5-9289-1d9084b509a7","ios":"levelo://app?vid=4deb15ef-079e-44d5-9289-1d9084b509a7"},"vehicle_type_id":"4","last_reported":1734358208,"current_range_meters":37600,"station_id":"","pricing_plan_id":"cebpf4jnsgd1na2vs0mg"},{"bike_id":"d5c89c1f-3bad-4af2-9449-e04c277a4696","system_id":"levelo_inurba_marseille","lat":43.29963,"lon":5.41329,"is_reserved":false,"is_disabled":true,"rental_uris":{"android":"levelo://app?vid=d5c89c1f-3bad-4af2-9449-e04c277a4696","ios":"levelo://app?vid=d5c89c1f-3bad-4af2-9449-e04c277a4696"},"vehicle_type_id":"4","last_reported":1734358208,"current_range_meters":34000,"station_id":"ce4bhp12rcd13ifvqh9g","pricing_plan_id":"cebpf4jnsgd1na2vs0mg"},{"bike_id":"fd31a5dc-7bc2-4416-b1c0-1fbc9c5dd24c","system_id":"levelo_inurba_marseille","lat":43.27327,"lon":5.39074,"is_reserved":false,"is_disabled":false,"rental_uris":{"android":"levelo://app?vid=fd31a5dc-7bc2-4416-b1c0-1fbc9c5dd24c","ios":"levelo://app?vid=fd31a5dc-7bc2-4416-b1c0-1fbc9c5dd24c"},"vehicle_type_id":"4","last_reported":1734358208,"current_range_meters":39200,"station_id":"ce4bhgp2rcd13ifvqfe0","pricing_plan_id":"cebpf4jnsgd1na2vs0mg"},{"bike_id":"7375be9c-7b03-4ee6-b6c9-51205081fc00","system_id":"levelo_inurba_marseille","lat":43.32562,"lon":5.41439,"is_reserved":false,"is_disabled":true,"rental_uris":{"android":"levelo://app?vid=7375be9c-7b03-4ee6-b6c9-51205081fc00","ios":"levelo://app?vid=7375be9c-7b03-4ee6-b6c9-51205081fc00"},"vehicle_type_id":"4","last_reported":1734358208,"current_range_meters":36800,"station_id":"ce4bhq12rcd13ifvqhhg","pricing_plan_id":"cebpf4jnsgd1na2vs0mg"},{"bike_id":"00470025-0594-4fc8-bb13-03b023b393ad","system_id":"levelo_inurba_marseille","lat":43.23068,"lon":5.35496,"is_reserved":false,"is_disabled":false,"rental_uris":{"android":"levelo://app?vid=00470025-0594-4fc8-bb13-03b023b393ad","ios":"levelo://app?vid=00470025-0594-4fc8-bb13-03b023b393ad"},"vehicle_type_id":"4","last_reported":1734358208,"current_range_meters":27600,"station_id":"cpo3342slgdg3j2ifvpg","pricing_plan_id":"cebpf4jnsgd1na2vs0mg"},{"bike_id":"645234d5-1ba6-47d0-a264-332279a70988","system_id":"levelo_inurba_marseille","lat":43.307831,"lon":5.37977,"is_reserved":false,"is_disabled":false,"rental_uris":{"android":"levelo://app?vid=645234d5-1ba6-47d0-a264-332279a70988","ios":"levelo://app?vid=645234d5-1ba6-47d0-a264-332279a70988"},"vehicle_type_id":"4","last_reported":1734358208,"current_range_meters":12400,"station_id":"","pricing_plan_id":"cebpf4jnsgd1na2vs0mg"},{"bike_id":"8732a274-2503-473f-915d-311aa238a497","system_id":"levelo_inurba_marseille","lat":43.29786,"lon":5.38131,"is_reserved":false,"is_disabled":false,"rental_uris":{"android":"levelo://app?vid=8732a274-2503-473f-915d-311aa238a497","ios":"levelo://app?vid=8732a274-2503-473f-915d-311aa238a497"},"vehicle_type_id":"4","last_reported":1734358208,"current_range_meters":30000,"station_id":"ce4bgip2rcd13ifvqbb0","pricing_plan_id":"cebpf4jnsgd1na2vs0mg"},{"bike_id":"e209b4cc-b597-4646-9ecd-9f5a1bd9a464","system_id":"levelo_inurba_marseille","lat":43.33785,"lon":5.42104,"is_reserved":false,"is_disabled":true,"rental_uris":{"android":"levelo://app?vid=e209b4cc-b597-4646-9ecd-9f5a1bd9a464","ios":"levelo://app?vid=e209b4cc-b597-4646-9ecd-9f5a1bd9a464"},"vehicle_type_id":"4","last_reported":1734358208,"current_range_meters":800,"station_id":"","pricing_plan_id":"cebpf4jnsgd1na2vs0mg"},{"bike_id":"40109ffb-1cce-4bf0-afda-16959571dbed","system_id":"levelo_inurba_marseille","lat":43.27206,"lon":5.39195,"is_reserved":false,"is_disabled":false,"rental_uris":{"android":"levelo://app?vid=40109ffb-1cce-4bf0-afda-16959571dbed","ios":"levelo://app?vid=40109ffb-1cce-4bf0-afda-16959571dbed"},"vehicle_type_id":"4","last_reported":1734358208,"current_range_meters":18000,"station_id":"ce4bhhp2rcd13ifvqfm0","pricing_plan_id":"cebpf4jnsgd1na2vs0mg"},{"bike_id":"d32933c0-3f34-461b-87d7-5d7f77249757","system_id":"levelo_inurba_marseille","lat":43.30133,"lon":5.374205,"is_reserved":false,"is_disabled":false,"rental_uris":{"android":"levelo://app?vid=d32933c0-3f34-461b-87d7-5d7f77249757","ios":"levelo://app?vid=d32933c0-3f34-461b-87d7-5d7f77249757"},"vehicle_type_id":"4","last_reported":1734358208,"current_range_meters":31200,"station_id":"ce4bgs92rcd13ifvqcc0","pricing_plan_id":"cebpf4jnsgd1na2vs0mg"},{"bike_id":"90840894-71d3-4480-8ec2-a1662590942a","system_id":"levelo_inurba_marseille","lat":43.28947,"lon":5.36634,"is_reserved":false,"is_disabled":false,"rental_uris":{"android":"levelo://app?vid=90840894-71d3-4480-8ec2-a1662590942a","ios":"levelo://app?vid=90840894-71d3-4480-8ec2-a1662590942a"},"vehicle_type_id":"4","last_reported":1734358208,"current_range_meters":0,"station_id":"ce4bhap2rcd13ifvqek0","pricing_plan_id":"cebpf4jnsgd1na2vs0mg"},{"bike_id":"29cc7253-7f35-4a45-87d9-55fd62645ea1","system_id":"levelo_inurba_marseille","lat":43.30282,"lon":5.37702,"is_reserved":false,"is_disabled":false,"rental_uris":{"android":"levelo://app?vid=29cc7253-7f35-4a45-87d9-55fd62645ea1","ios":"levelo://app?vid=29cc7253-7f35-4a45-87d9-55fd62645ea1"},"vehicle_type_id":"4","last_reported":1734358208,"current_range_meters":35200,"station_id":"ce4bguh2rcd13ifvqcj0","pricing_plan_id":"cebpf4jnsgd1na2vs0mg"},{"bike_id":"478cf2b8-2e8a-4102-aeb1-12bbd8d0177f","system_id":"levelo_inurba_marseille","lat":43.29911,"lon":5.38146,"is_reserved":false,"is_disabled":false,"rental_uris":{"android":"levelo://app?vid=478cf2b8-2e8a-4102-aeb1-12bbd8d0177f","ios":"levelo://app?vid=478cf2b8-2e8a-4102-aeb1-12bbd8d0177f"},"vehicle_type_id":"4","last_reported":1734358208,"current_range_meters":37600,"station_id":"ce4bgj12rcd13ifvqbc0","pricing_plan_id":"cebpf4jnsgd1na2vs0mg"},{"bike_id":"9fd70b66-3006-4e3f-b697-c7eb4fff79ae","system_id":"levelo_inurba_marseille","lat":43.28108,"lon":5.3783,"is_reserved":false,"is_disabled":false,"rental_uris":{"android":"levelo://app?vid=9fd70b66-3006-4e3f-b697-c7eb4fff79ae","ios":"levelo://app?vid=9fd70b66-3006-4e3f-b697-c7eb4fff79ae"},"vehicle_type_id":"4","last_reported":1734358208,"current_range_meters":34000,"station_id":"ce4bha12rcd13ifvqee0","pricing_plan_id":"cebpf4jnsgd1na2vs0mg"},{"bike_id":"0dc9c57d-cee6-427b-8f00-d9d81f8f836e","system_id":"levelo_inurba_marseille","lat":43.2318,"lon":5.39996,"is_reserved":false,"is_disabled":false,"rental_uris":{"android":"levelo://app?vid=0dc9c57d-cee6-427b-8f00-d9d81f8f836e","ios":"levelo://app?vid=0dc9c57d-cee6-427b-8f00-d9d81f8f836e"},"vehicle_type_id":"4","last_reported":1734358208,"current_range_meters":32800,"station_id":"ce4bhn12rcd13ifvqgqg","pricing_plan_id":"cebpf4jnsgd1na2vs0mg"},{"bike_id":"e3ce1f04-3f88-431a-ab9f-947d6e2f270c","system_id":"levelo_inurba_marseille","lat":43.33729,"lon":5.39188,"is_reserved":false,"is_disabled":false,"rental_uris":{"android":"levelo://app?vid=e3ce1f04-3f88-431a-ab9f-947d6e2f270c","ios":"levelo://app?vid=e3ce1f04-3f88-431a-ab9f-947d6e2f270c"},"vehicle_type_id":"4","last_reported":1734358208,"current_range_meters":39200,"station_id":"ce4bhr92rcd13ifvqhsg","pricing_plan_id":"cebpf4jnsgd1na2vs0mg"},{"bike_id":"40bb8414-eac1-490f-aaaf-95fb0f2b06a2","system_id":"levelo_inurba_marseille","lat":43.31402,"lon":5.36681,"is_reserved":false,"is_disabled":false,"rental_uris":{"android":"levelo://app?vid=40bb8414-eac1-490f-aaaf-95fb0f2b06a2","ios":"levelo://app?vid=40bb8414-eac1-490f-aaaf-95fb0f2b06a2"},"vehicle_type_id":"4","last_reported":1734358208,"current_range_meters":25200,"station_id":"ce4bgr92rcd13ifvqc6g","pricing_plan_id":"cebpf4jnsgd1na2vs0mg"},{"bike_id":"e4445775-7d48-4b97-a7d4-cc20c4ccd0d8","system_id":"levelo_inurba_marseille","lat":43.31194,"lon":5.37227,"is_reserved":false,"is_disabled":false,"rental_uris":{"android":"levelo://app?vid=e4445775-7d48-4b97-a7d4-cc20c4ccd0d8","ios":"levelo://app?vid=e4445775-7d48-4b97-a7d4-cc20c4ccd0d8"},"vehicle_type_id":"4","last_reported":1734358208,"current_range_meters":36000,"station_id":"","pricing_plan_id":"cebpf4jnsgd1na2vs0mg"},{"bike_id":"a7f7d128-a6f6-4bd1-93fe-2dac8eaaf71a","system_id":"levelo_inurba_marseille","lat":43.319949,"lon":5.381647,"is_reserved":false,"is_disabled":false,"rental_uris":{"android":"levelo://app?vid=a7f7d128-a6f6-4bd1-93fe-2dac8eaaf71a","ios":"levelo://app?vid=a7f7d128-a6f6-4bd1-93fe-2dac8eaaf71a"},"vehicle_type_id":"4","last_reported":1734358208,"current_range_meters":38800,"station_id":"ce4bhr12rcd13ifvqhpg","pricing_plan_id":"cebpf4jnsgd1na2vs0mg"},{"bike_id":"e638f806-6dc7-40f3-ba4e-4f249b00ca01","system_id":"levelo_inurba_marseille","lat":43.27062,"lon":5.40262,"is_reserved":false,"is_disabled":false,"rental_uris":{"android":"levelo://app?vid=e638f806-6dc7-40f3-ba4e-4f249b00ca01","ios":"levelo://app?vid=e638f806-6dc7-40f3-ba4e-4f249b00ca01"},"vehicle_type_id":"4","last_reported":1734358208,"current_range_meters":38800,"station_id":"ce4bhk92rcd13ifvqgc0","pricing_plan_id":"cebpf4jnsgd1na2vs0mg"},{"bike_id":"7b107786-ef2d-4349-9c5c-3d62601d11e6","system_id":"levelo_inurba_marseille","lat":43.28943,"lon":5.3792,"is_reserved":false,"is_disabled":true,"rental_uris":{"android":"levelo://app?vid=7b107786-ef2d-4349-9c5c-3d62601d11e6","ios":"levelo://app?vid=7b107786-ef2d-4349-9c5c-3d62601d11e6"},"vehicle_type_id":"4","last_reported":1734358208,"current_range_meters":32000,"station_id":"","pricing_plan_id":"cebpf4jnsgd1na2vs0mg"},{"bike_id":"1bab3818-e0a5-42a3-ac4d-fcd412e357df","system_id":"levelo_inurba_marseille","lat":43.32482,"lon":5.36573,"is_reserved":false,"is_disabled":false,"rental_uris":{"android":"levelo://app?vid=1bab3818-e0a5-42a3-ac4d-fcd412e357df","ios":"levelo://app?vid=1bab3818-e0a5-42a3-ac4d-fcd412e357df"},"vehicle_type_id":"4","last_reported":1734358208,"current_range_meters":8400,"station_id":"ce4bhs12rcd13ifvqhvg","pricing_plan_id":"cebpf4jnsgd1na2vs0mg"},{"bike_id":"142f7e33-dd37-42e4-a17a-6ed3e5d58da8","system_id":"levelo_inurba_marseille","lat":43.29895,"lon":5.43673,"is_reserved":false,"is_disabled":false,"rental_uris":{"android":"levelo://app?vid=142f7e33-dd37-42e4-a17a-6ed3e5d58da8","ios":"levelo://app?vid=142f7e33-dd37-42e4-a17a-6ed3e5d58da8"},"vehicle_type_id":"4","last_reported":1734358208,"current_range_meters":2800,"station_id":"ce4bhpp2rcd13ifvqhfg","pricing_plan_id":"cebpf4jnsgd1na2vs0mg"},{"bike_id":"c6ceea73-4807-41ee-902b-c2b40530a40f","system_id":"levelo_inurba_marseille","lat":43.3059,"lon":5.3722,"is_reserved":false,"is_disabled":false,"rental_uris":{"android":"levelo://app?vid=c6ceea73-4807-41ee-902b-c2b40530a40f","ios":"levelo://app?vid=c6ceea73-4807-41ee-902b-c2b40530a40f"},"vehicle_type_id":"4","last_reported":1734358208,"current_range_meters":24400,"station_id":"ce4bgqh2rcd13ifvqc4g","pricing_plan_id":"cebpf4jnsgd1na2vs0mg"},{"bike_id":"8536ddbb-145b-4ecc-8106-77d073d8f128","system_id":"levelo_inurba_marseille","lat":43.29586,"lon":5.38106,"is_reserved":false,"is_disabled":false,"rental_uris":{"android":"levelo://app?vid=8536ddbb-145b-4ecc-8106-77d073d8f128","ios":"levelo://app?vid=8536ddbb-145b-4ecc-8106-77d073d8f128"},"vehicle_type_id":"4","last_reported":1734358208,"current_range_meters":23200,"station_id":"ce4bgl12rcd13ifvqbo0","pricing_plan_id":"cebpf4jnsgd1na2vs0mg"},{"bike_id":"0b491167-5596-40d4-917d-a5cebc43ed1b","system_id":"levelo_inurba_marseille","lat":43.30593,"lon":5.3722,"is_reserved":false,"is_disabled":false,"rental_uris":{"android":"levelo://app?vid=0b491167-5596-40d4-917d-a5cebc43ed1b","ios":"levelo://app?vid=0b491167-5596-40d4-917d-a5cebc43ed1b"},"vehicle_type_id":"4","last_reported":1734358208,"current_range_meters":39200,"station_id":"ce4bgqh2rcd13ifvqc4g","pricing_plan_id":"cebpf4jnsgd1na2vs0mg"},{"bike_id":"d22e8691-6ee4-4638-8bf5-82b67a2e4044","system_id":"levelo_inurba_marseille","lat":43.28107,"lon":5.37843,"is_reserved":false,"is_disabled":false,"rental_uris":{"android":"levelo://app?vid=d22e8691-6ee4-4638-8bf5-82b67a2e4044","ios":"levelo://app?vid=d22e8691-6ee4-4638-8bf5-82b67a2e4044"},"vehicle_type_id":"4","last_reported":1734358208,"current_range_meters":38800,"station_id":"ce4bha12rcd13ifvqee0","pricing_plan_id":"cebpf4jnsgd1na2vs0mg"},{"bike_id":"5c1090b2-544f-4059-a594-4c7d6d30b206","system_id":"levelo_inurba_marseille","lat":43.34146,"lon":5.40911,"is_reserved":false,"is_disabled":false,"rental_uris":{"android":"levelo://app?vid=5c1090b2-544f-4059-a594-4c7d6d30b206","ios":"levelo://app?vid=5c1090b2-544f-4059-a594-4c7d6d30b206"},"vehicle_type_id":"4","last_reported":1734358208,"current_range_meters":28800,"station_id":"ce4bhqh2rcd13ifvqhlg","pricing_plan_id":"cebpf4jnsgd1na2vs0mg"},{"bike_id":"499bb6cb-0e80-43ab-a52e-ead642af626b","system_id":"levelo_inurba_marseille","lat":43.28617,"lon":5.35107,"is_reserved":false,"is_disabled":true,"rental_uris":{"android":"levelo://app?vid=499bb6cb-0e80-43ab-a52e-ead642af626b","ios":"levelo://app?vid=499bb6cb-0e80-43ab-a52e-ead642af626b"},"vehicle_type_id":"4","last_reported":1734358208,"current_range_meters":25600,"station_id":"","pricing_plan_id":"cebpf4jnsgd1na2vs0mg"},{"bike_id":"d22d493a-7b6f-4531-9603-34795fb86321","system_id":"levelo_inurba_marseille","lat":43.30309,"lon":5.37719,"is_reserved":false,"is_disabled":false,"rental_uris":{"android":"levelo://app?vid=d22d493a-7b6f-4531-9603-34795fb86321","ios":"levelo://app?vid=d22d493a-7b6f-4531-9603-34795fb86321"},"vehicle_type_id":"4","last_reported":1734358208,"current_range_meters":18800,"station_id":"ce4bguh2rcd13ifvqcj0","pricing_plan_id":"cebpf4jnsgd1na2vs0mg"},{"bike_id":"5be78cc2-d386-42ea-a601-8ec47460ad21","system_id":"levelo_inurba_marseille","lat":43.2408,"lon":5.37737,"is_reserved":false,"is_disabled":false,"rental_uris":{"android":"levelo://app?vid=5be78cc2-d386-42ea-a601-8ec47460ad21","ios":"levelo://app?vid=5be78cc2-d386-42ea-a601-8ec47460ad21"},"vehicle_type_id":"4","last_reported":1734358208,"current_range_meters":32000,"station_id":"ce4bhnp2rcd13ifvqgvg","pricing_plan_id":"cebpf4jnsgd1na2vs0mg"},{"bike_id":"5203caa2-32ed-4477-96a0-f2538c210e8c","system_id":"levelo_inurba_marseille","lat":43.27068,"lon":5.42285,"is_reserved":false,"is_disabled":false,"rental_uris":{"android":"levelo://app?vid=5203caa2-32ed-4477-96a0-f2538c210e8c","ios":"levelo://app?vid=5203caa2-32ed-4477-96a0-f2538c210e8c"},"vehicle_type_id":"4","last_reported":1734358208,"current_range_meters":18000,"station_id":"ce4bhk92rcd13ifvqgb0","pricing_plan_id":"cebpf4jnsgd1na2vs0mg"},{"bike_id":"eb87f496-92f2-4d6f-97ba-f446fd85ae42","system_id":"levelo_inurba_marseille","lat":43.26199,"lon":5.37934,"is_reserved":false,"is_disabled":false,"rental_uris":{"android":"levelo://app?vid=eb87f496-92f2-4d6f-97ba-f446fd85ae42","ios":"levelo://app?vid=eb87f496-92f2-4d6f-97ba-f446fd85ae42"},"vehicle_type_id":"4","last_reported":1734358208,"current_range_meters":38400,"station_id":"ce4bhjp2rcd13ifvqg90","pricing_plan_id":"cebpf4jnsgd1na2vs0mg"},{"bike_id":"cdc9437e-e6ea-4588-9911-60dc90b1a356","system_id":"levelo_inurba_marseille","lat":43.30559,"lon":5.38405,"is_reserved":false,"is_disabled":false,"rental_uris":{"android":"levelo://app?vid=cdc9437e-e6ea-4588-9911-60dc90b1a356","ios":"levelo://app?vid=cdc9437e-e6ea-4588-9911-60dc90b1a356"},"vehicle_type_id":"4","last_reported":1734358208,"current_range_meters":27200,"station_id":"ce4bgg92rcd13ifvqb30","pricing_plan_id":"cebpf4jnsgd1na2vs0mg"},{"bike_id":"0a510c6b-d5d5-440e-8d74-e234c0a69f65","system_id":"levelo_inurba_marseille","lat":43.29809,"lon":5.38112,"is_reserved":false,"is_disabled":false,"rental_uris":{"android":"levelo://app?vid=0a510c6b-d5d5-440e-8d74-e234c0a69f65","ios":"levelo://app?vid=0a510c6b-d5d5-440e-8d74-e234c0a69f65"},"vehicle_type_id":"4","last_reported":1734358208,"current_range_meters":34800,"station_id":"ce4bgip2rcd13ifvqbb0","pricing_plan_id":"cebpf4jnsgd1na2vs0mg"},{"bike_id":"e819ae6a-d2ca-4fed-a607-5b91827a0819","system_id":"levelo_inurba_marseille","lat":43.23179,"lon":5.35559,"is_reserved":false,"is_disabled":false,"rental_uris":{"android":"levelo://app?vid=e819ae6a-d2ca-4fed-a607-5b91827a0819","ios":"levelo://app?vid=e819ae6a-d2ca-4fed-a607-5b91827a0819"},"vehicle_type_id":"4","last_reported":1734358208,"current_range_meters":26000,"station_id":"ce4bhu92rcd13ifvqi70","pricing_plan_id":"cebpf4jnsgd1na2vs0mg"},{"bike_id":"f78b5741-f2fa-4fff-800c-1e9860589e59","system_id":"levelo_inurba_marseille","lat":43.29037,"lon":5.39969,"is_reserved":false,"is_disabled":false,"rental_uris":{"android":"levelo://app?vid=f78b5741-f2fa-4fff-800c-1e9860589e59","ios":"levelo://app?vid=f78b5741-f2fa-4fff-800c-1e9860589e59"},"vehicle_type_id":"4","last_reported":1734358208,"current_range_meters":32800,"station_id":"ce4bh392rcd13ifvqdm0","pricing_plan_id":"cebpf4jnsgd1na2vs0mg"},{"bike_id":"f7abefc5-be66-406a-9c51-9f895623b138","system_id":"levelo_inurba_marseille","lat":43.28278,"lon":5.35066,"is_reserved":false,"is_disabled":false,"rental_uris":{"android":"levelo://app?vid=f7abefc5-be66-406a-9c51-9f895623b138","ios":"levelo://app?vid=f7abefc5-be66-406a-9c51-9f895623b138"},"vehicle_type_id":"4","last_reported":1734358208,"current_range_meters":38000,"station_id":"ce4bhbp2rcd13ifvqerg","pricing_plan_id":"cebpf4jnsgd1na2vs0mg"},{"bike_id":"60d1bb9c-231e-4974-9007-f688d4b1f8e4","system_id":"levelo_inurba_marseille","lat":43.30134,"lon":5.38778,"is_reserved":false,"is_disabled":false,"rental_uris":{"android":"levelo://app?vid=60d1bb9c-231e-4974-9007-f688d4b1f8e4","ios":"levelo://app?vid=60d1bb9c-231e-4974-9007-f688d4b1f8e4"},"vehicle_type_id":"4","last_reported":1734358208,"current_range_meters":8000,"station_id":"ce4bhoh2rcd13ifvqh6g","pricing_plan_id":"cebpf4jnsgd1na2vs0mg"},{"bike_id":"52e6d5df-fcd8-4217-aca4-f03c78ac71a7","system_id":"levelo_inurba_marseille","lat":43.29044,"lon":5.39939,"is_reserved":false,"is_disabled":false,"rental_uris":{"android":"levelo://app?vid=52e6d5df-fcd8-4217-aca4-f03c78ac71a7","ios":"levelo://app?vid=52e6d5df-fcd8-4217-aca4-f03c78ac71a7"},"vehicle_type_id":"4","last_reported":1734358208,"current_range_meters":37600,"station_id":"ce4bh392rcd13ifvqdm0","pricing_plan_id":"cebpf4jnsgd1na2vs0mg"},{"bike_id":"3faebdb8-5425-4512-baed-a5b1d51a6449","system_id":"levelo_inurba_marseille","lat":43.29892,"lon":5.38146,"is_reserved":false,"is_disabled":false,"rental_uris":{"android":"levelo://app?vid=3faebdb8-5425-4512-baed-a5b1d51a6449","ios":"levelo://app?vid=3faebdb8-5425-4512-baed-a5b1d51a6449"},"vehicle_type_id":"4","last_reported":1734358208,"current_range_meters":37600,"station_id":"ce4bgj12rcd13ifvqbc0","pricing_plan_id":"cebpf4jnsgd1na2vs0mg"},{"bike_id":"d8c8bbf4-c494-4f40-9768-d4d203689601","system_id":"levelo_inurba_marseille","lat":43.27181,"lon":5.40999,"is_reserved":false,"is_disabled":false,"rental_uris":{"android":"levelo://app?vid=d8c8bbf4-c494-4f40-9768-d4d203689601","ios":"levelo://app?vid=d8c8bbf4-c494-4f40-9768-d4d203689601"},"vehicle_type_id":"4","last_reported":1734358208,"current_range_meters":29600,"station_id":"ce4bhl12rcd13ifvqgf0","pricing_plan_id":"cebpf4jnsgd1na2vs0mg"},{"bike_id":"c9db4ddf-3c06-4801-9b96-05ffe5a3c14d","system_id":"levelo_inurba_marseille","lat":43.337444,"lon":5.374475,"is_reserved":false,"is_disabled":true,"rental_uris":{"android":"levelo://app?vid=c9db4ddf-3c06-4801-9b96-05ffe5a3c14d","ios":"levelo://app?vid=c9db4ddf-3c06-4801-9b96-05ffe5a3c14d"},"vehicle_type_id":"4","last_reported":1734358208,"current_range_meters":0,"station_id":"","pricing_plan_id":"cebpf4jnsgd1na2vs0mg"},{"bike_id":"15fa192e-cf59-429f-9043-a5aef3fe0a0e","system_id":"levelo_inurba_marseille","lat":43.2835,"lon":5.38119,"is_reserved":false,"is_disabled":false,"rental_uris":{"android":"levelo://app?vid=15fa192e-cf59-429f-9043-a5aef3fe0a0e","ios":"levelo://app?vid=15fa192e-cf59-429f-9043-a5aef3fe0a0e"},"vehicle_type_id":"4","last_reported":1734358208,"current_range_meters":27600,"station_id":"ce4bh412rcd13ifvqdr0","pricing_plan_id":"cebpf4jnsgd1na2vs0mg"},{"bike_id":"80f2d35a-a484-4539-92a2-b43ec8a1b560","system_id":"levelo_inurba_marseille","lat":43.29986,"lon":5.37197,"is_reserved":false,"is_disabled":false,"rental_uris":{"android":"levelo://app?vid=80f2d35a-a484-4539-92a2-b43ec8a1b560","ios":"levelo://app?vid=80f2d35a-a484-4539-92a2-b43ec8a1b560"},"vehicle_type_id":"4","last_reported":1734358208,"current_range_meters":24400,"station_id":"ce4bgr92rcd13ifvqc7g","pricing_plan_id":"cebpf4jnsgd1na2vs0mg"},{"bike_id":"91df890b-f642-467f-93d2-ee983bf56b92","system_id":"levelo_inurba_marseille","lat":43.29567,"lon":5.3752,"is_reserved":false,"is_disabled":false,"rental_uris":{"android":"levelo://app?vid=91df890b-f642-467f-93d2-ee983bf56b92","ios":"levelo://app?vid=91df890b-f642-467f-93d2-ee983bf56b92"},"vehicle_type_id":"4","last_reported":1734358208,"current_range_meters":38800,"station_id":"ce4bgh92rcd13ifvqb50","pricing_plan_id":"cebpf4jnsgd1na2vs0mg"},{"bike_id":"d1959bed-5983-47a9-bfb0-f62485d0d71b","system_id":"levelo_inurba_marseille","lat":43.28373,"lon":5.38646,"is_reserved":false,"is_disabled":true,"rental_uris":{"android":"levelo://app?vid=d1959bed-5983-47a9-bfb0-f62485d0d71b","ios":"levelo://app?vid=d1959bed-5983-47a9-bfb0-f62485d0d71b"},"vehicle_type_id":"4","last_reported":1734358208,"current_range_meters":29600,"station_id":"ce4bh492rcd13ifvqdvg","pricing_plan_id":"cebpf4jnsgd1na2vs0mg"},{"bike_id":"9ad311dd-c450-4f09-933a-ef53d4559dc3","system_id":"levelo_inurba_marseille","lat":43.269836,"lon":5.398639,"is_reserved":false,"is_disabled":false,"rental_uris":{"android":"levelo://app?vid=9ad311dd-c450-4f09-933a-ef53d4559dc3","ios":"levelo://app?vid=9ad311dd-c450-4f09-933a-ef53d4559dc3"},"vehicle_type_id":"4","last_reported":1734358208,"current_range_meters":16800,"station_id":"","pricing_plan_id":"cebpf4jnsgd1na2vs0mg"},{"bike_id":"8b67dd20-a507-4375-b968-6678bc600c03","system_id":"levelo_inurba_marseille","lat":43.30309,"lon":5.36893,"is_reserved":false,"is_disabled":false,"rental_uris":{"android":"levelo://app?vid=8b67dd20-a507-4375-b968-6678bc600c03","ios":"levelo://app?vid=8b67dd20-a507-4375-b968-6678bc600c03"},"vehicle_type_id":"4","last_reported":1734358208,"current_range_meters":28800,"station_id":"ce4bgqh2rcd13ifvqc5g","pricing_plan_id":"cebpf4jnsgd1na2vs0mg"},{"bike_id":"b71d8ecd-1a91-40c3-9be3-e86f6a70f84f","system_id":"levelo_inurba_marseille","lat":43.24085,"lon":5.37751,"is_reserved":false,"is_disabled":false,"rental_uris":{"android":"levelo://app?vid=b71d8ecd-1a91-40c3-9be3-e86f6a70f84f","ios":"levelo://app?vid=b71d8ecd-1a91-40c3-9be3-e86f6a70f84f"},"vehicle_type_id":"4","last_reported":1734358208,"current_range_meters":34000,"station_id":"ce4bhnp2rcd13ifvqgvg","pricing_plan_id":"cebpf4jnsgd1na2vs0mg"},{"bike_id":"38bd4a7a-513d-44eb-a715-1814bc9e138c","system_id":"levelo_inurba_marseille","lat":43.29607,"lon":5.38112,"is_reserved":false,"is_disabled":false,"rental_uris":{"android":"levelo://app?vid=38bd4a7a-513d-44eb-a715-1814bc9e138c","ios":"levelo://app?vid=38bd4a7a-513d-44eb-a715-1814bc9e138c"},"vehicle_type_id":"4","last_reported":1734358208,"current_range_meters":36400,"station_id":"ce4bgl12rcd13ifvqbo0","pricing_plan_id":"cebpf4jnsgd1na2vs0mg"},{"bike_id":"131dac97-7bcf-4e01-a2a2-130488990973","system_id":"levelo_inurba_marseille","lat":43.250012,"lon":5.389309,"is_reserved":false,"is_disabled":false,"rental_uris":{"android":"levelo://app?vid=131dac97-7bcf-4e01-a2a2-130488990973","ios":"levelo://app?vid=131dac97-7bcf-4e01-a2a2-130488990973"},"vehicle_type_id":"4","last_reported":1734358208,"current_range_meters":36800,"station_id":"ce4bhgp2rcd13ifvqfd0","pricing_plan_id":"cebpf4jnsgd1na2vs0mg"},{"bike_id":"af67ac53-ba21-4ff0-8334-95679e9ff2cc","system_id":"levelo_inurba_marseille","lat":43.278805,"lon":5.388003,"is_reserved":false,"is_disabled":true,"rental_uris":{"android":"levelo://app?vid=af67ac53-ba21-4ff0-8334-95679e9ff2cc","ios":"levelo://app?vid=af67ac53-ba21-4ff0-8334-95679e9ff2cc"},"vehicle_type_id":"4","last_reported":1734358208,"current_range_meters":0,"station_id":"","pricing_plan_id":"cebpf4jnsgd1na2vs0mg"},{"bike_id":"ac12fb4e-3874-4ff3-bf0b-39ed8484910e","system_id":"levelo_inurba_marseille","lat":43.26503,"lon":5.39547,"is_reserved":false,"is_disabled":false,"rental_uris":{"android":"levelo://app?vid=ac12fb4e-3874-4ff3-bf0b-39ed8484910e","ios":"levelo://app?vid=ac12fb4e-3874-4ff3-bf0b-39ed8484910e"},"vehicle_type_id":"4","last_reported":1734358208,"current_range_meters":38400,"station_id":"ce4bhi12rcd13ifvqfq0","pricing_plan_id":"cebpf4jnsgd1na2vs0mg"},{"bike_id":"78adf787-e371-4204-b571-f4e0ee80dedd","system_id":"levelo_inurba_marseille","lat":43.24671,"lon":5.38163,"is_reserved":false,"is_disabled":false,"rental_uris":{"android":"levelo://app?vid=78adf787-e371-4204-b571-f4e0ee80dedd","ios":"levelo://app?vid=78adf787-e371-4204-b571-f4e0ee80dedd"},"vehicle_type_id":"4","last_reported":1734358208,"current_range_meters":36400,"station_id":"ce4bhih2rcd13ifvqfr0","pricing_plan_id":"cebpf4jnsgd1na2vs0mg"},{"bike_id":"c69ff6d7-f81b-4bd0-994f-52b9dca18c0a","system_id":"levelo_inurba_marseille","lat":43.30711,"lon":5.36829,"is_reserved":false,"is_disabled":false,"rental_uris":{"android":"levelo://app?vid=c69ff6d7-f81b-4bd0-994f-52b9dca18c0a","ios":"levelo://app?vid=c69ff6d7-f81b-4bd0-994f-52b9dca18c0a"},"vehicle_type_id":"4","last_reported":1734358208,"current_range_meters":22800,"station_id":"","pricing_plan_id":"cebpf4jnsgd1na2vs0mg"},{"bike_id":"2ee47aba-edd0-4d53-a17e-e6f65b10c35f","system_id":"levelo_inurba_marseille","lat":43.30127,"lon":5.39094,"is_reserved":false,"is_disabled":true,"rental_uris":{"android":"levelo://app?vid=2ee47aba-edd0-4d53-a17e-e6f65b10c35f","ios":"levelo://app?vid=2ee47aba-edd0-4d53-a17e-e6f65b10c35f"},"vehicle_type_id":"4","last_reported":1734358208,"current_range_meters":16400,"station_id":"ce4bh192rcd13ifvqdb0","pricing_plan_id":"cebpf4jnsgd1na2vs0mg"},{"bike_id":"2b60b894-4360-4b1e-8e59-f3cf6eb9faba","system_id":"levelo_inurba_marseille","lat":43.29365,"lon":5.37844,"is_reserved":false,"is_disabled":false,"rental_uris":{"android":"levelo://app?vid=2b60b894-4360-4b1e-8e59-f3cf6eb9faba","ios":"levelo://app?vid=2b60b894-4360-4b1e-8e59-f3cf6eb9faba"},"vehicle_type_id":"4","last_reported":1734358208,"current_range_meters":24000,"station_id":"ce4bgjh2rcd13ifvqbf0","pricing_plan_id":"cebpf4jnsgd1na2vs0mg"},{"bike_id":"388e91af-2a8c-4fa0-8eae-2c086467e266","system_id":"levelo_inurba_marseille","lat":43.2587,"lon":5.39898,"is_reserved":false,"is_disabled":false,"rental_uris":{"android":"levelo://app?vid=388e91af-2a8c-4fa0-8eae-2c086467e266","ios":"levelo://app?vid=388e91af-2a8c-4fa0-8eae-2c086467e266"},"vehicle_type_id":"4","last_reported":1734358208,"current_range_meters":29600,"station_id":"ce4bhl92rcd13ifvqghg","pricing_plan_id":"cebpf4jnsgd1na2vs0mg"},{"bike_id":"8bb11937-f0d1-4793-a554-a2aa309dcabd","system_id":"levelo_inurba_marseille","lat":43.24639,"lon":5.38897,"is_reserved":false,"is_disabled":false,"rental_uris":{"android":"levelo://app?vid=8bb11937-f0d1-4793-a554-a2aa309dcabd","ios":"levelo://app?vid=8bb11937-f0d1-4793-a554-a2aa309dcabd"},"vehicle_type_id":"4","last_reported":1734358208,"current_range_meters":32400,"station_id":"ce4bhg12rcd13ifvqf60","pricing_plan_id":"cebpf4jnsgd1na2vs0mg"},{"bike_id":"754a963d-36db-49a8-a6a9-1278d8a81e99","system_id":"levelo_inurba_marseille","lat":43.27494,"lon":5.42455,"is_reserved":false,"is_disabled":false,"rental_uris":{"android":"levelo://app?vid=754a963d-36db-49a8-a6a9-1278d8a81e99","ios":"levelo://app?vid=754a963d-36db-49a8-a6a9-1278d8a81e99"},"vehicle_type_id":"4","last_reported":1734358208,"current_range_meters":27600,"station_id":"ce4bhn92rcd13ifvqgrg","pricing_plan_id":"cebpf4jnsgd1na2vs0mg"},{"bike_id":"1d7034d3-38aa-4743-8f5d-2da4802e206b","system_id":"levelo_inurba_marseille","lat":43.28726,"lon":5.38285,"is_reserved":false,"is_disabled":true,"rental_uris":{"android":"levelo://app?vid=1d7034d3-38aa-4743-8f5d-2da4802e206b","ios":"levelo://app?vid=1d7034d3-38aa-4743-8f5d-2da4802e206b"},"vehicle_type_id":"4","last_reported":1734358208,"current_range_meters":0,"station_id":"","pricing_plan_id":"cebpf4jnsgd1na2vs0mg"},{"bike_id":"656d8740-9b85-4a93-86ce-9d32a0e761f7","system_id":"levelo_inurba_marseille","lat":43.31069,"lon":5.38348,"is_reserved":false,"is_disabled":true,"rental_uris":{"android":"levelo://app?vid=656d8740-9b85-4a93-86ce-9d32a0e761f7","ios":"levelo://app?vid=656d8740-9b85-4a93-86ce-9d32a0e761f7"},"vehicle_type_id":"4","last_reported":1734358208,"current_range_meters":0,"station_id":"ce4bgv92rcd13ifvqcr0","pricing_plan_id":"cebpf4jnsgd1na2vs0mg"},{"bike_id":"30b09c14-5db6-4bdd-8ec0-8d8fd355bef3","system_id":"levelo_inurba_marseille","lat":43.29897,"lon":5.39746,"is_reserved":false,"is_disabled":true,"rental_uris":{"android":"levelo://app?vid=30b09c14-5db6-4bdd-8ec0-8d8fd355bef3","ios":"levelo://app?vid=30b09c14-5db6-4bdd-8ec0-8d8fd355bef3"},"vehicle_type_id":"4","last_reported":1734358208,"current_range_meters":36400,"station_id":"ce4bh0h2rcd13ifvqd50","pricing_plan_id":"cebpf4jnsgd1na2vs0mg"},{"bike_id":"f08c808c-af08-40b8-81c3-97739c995b77","system_id":"levelo_inurba_marseille","lat":43.30135,"lon":5.39858,"is_reserved":false,"is_disabled":true,"rental_uris":{"android":"levelo://app?vid=f08c808c-af08-40b8-81c3-97739c995b77","ios":"levelo://app?vid=f08c808c-af08-40b8-81c3-97739c995b77"},"vehicle_type_id":"4","last_reported":1734358208,"current_range_meters":6400,"station_id":"ce4bh0h2rcd13ifvqd40","pricing_plan_id":"cebpf4jnsgd1na2vs0mg"},{"bike_id":"f90ff546-7eaf-44fc-8734-244de261bfe1","system_id":"levelo_inurba_marseille","lat":43.30248,"lon":5.40098,"is_reserved":false,"is_disabled":true,"rental_uris":{"android":"levelo://app?vid=f90ff546-7eaf-44fc-8734-244de261bfe1","ios":"levelo://app?vid=f90ff546-7eaf-44fc-8734-244de261bfe1"},"vehicle_type_id":"4","last_reported":1734358208,"current_range_meters":20800,"station_id":"ce4bgvh2rcd13ifvqcs0","pricing_plan_id":"cebpf4jnsgd1na2vs0mg"},{"bike_id":"54c6255a-8322-4763-beb8-05f3a62343b0","system_id":"levelo_inurba_marseille","lat":43.26811,"lon":5.40273,"is_reserved":false,"is_disabled":false,"rental_uris":{"android":"levelo://app?vid=54c6255a-8322-4763-beb8-05f3a62343b0","ios":"levelo://app?vid=54c6255a-8322-4763-beb8-05f3a62343b0"},"vehicle_type_id":"4","last_reported":1734358208,"current_range_meters":24800,"station_id":"ce501612rcd8frsf0b60","pricing_plan_id":"cebpf4jnsgd1na2vs0mg"},{"bike_id":"e3d97357-c9dc-4946-9150-38219f3bf8e0","system_id":"levelo_inurba_marseille","lat":43.29624,"lon":5.37172,"is_reserved":false,"is_disabled":false,"rental_uris":{"android":"levelo://app?vid=e3d97357-c9dc-4946-9150-38219f3bf8e0","ios":"levelo://app?vid=e3d97357-c9dc-4946-9150-38219f3bf8e0"},"vehicle_type_id":"4","last_reported":1734358208,"current_range_meters":38800,"station_id":"ce4bgnh2rcd13ifvqc0g","pricing_plan_id":"cebpf4jnsgd1na2vs0mg"},{"bike_id":"b40e45d2-4b27-42af-bdd9-952252e9f1dc","system_id":"levelo_inurba_marseille","lat":43.28582,"lon":5.39516,"is_reserved":false,"is_disabled":false,"rental_uris":{"android":"levelo://app?vid=b40e45d2-4b27-42af-bdd9-952252e9f1dc","ios":"levelo://app?vid=b40e45d2-4b27-42af-bdd9-952252e9f1dc"},"vehicle_type_id":"4","last_reported":1734358208,"current_range_meters":36800,"station_id":"ce4bh292rcd13ifvqdg0","pricing_plan_id":"cebpf4jnsgd1na2vs0mg"},{"bike_id":"ffb5352b-4d70-47dd-aaf6-fae27581a355","system_id":"levelo_inurba_marseille","lat":43.32657,"lon":5.40999,"is_reserved":false,"is_disabled":false,"rental_uris":{"android":"levelo://app?vid=ffb5352b-4d70-47dd-aaf6-fae27581a355","ios":"levelo://app?vid=ffb5352b-4d70-47dd-aaf6-fae27581a355"},"vehicle_type_id":"4","last_reported":1734358208,"current_range_meters":13600,"station_id":"ce4bhpp2rcd13ifvqhgg","pricing_plan_id":"cebpf4jnsgd1na2vs0mg"},{"bike_id":"a1b4954d-3820-4c0f-a1c6-68940cf76d3c","system_id":"levelo_inurba_marseille","lat":43.27979,"lon":5.41677,"is_reserved":false,"is_disabled":false,"rental_uris":{"android":"levelo://app?vid=a1b4954d-3820-4c0f-a1c6-68940cf76d3c","ios":"levelo://app?vid=a1b4954d-3820-4c0f-a1c6-68940cf76d3c"},"vehicle_type_id":"4","last_reported":1734358208,"current_range_meters":23200,"station_id":"ce4bho12rcd13ifvqh1g","pricing_plan_id":"cebpf4jnsgd1na2vs0mg"},{"bike_id":"88ee33b6-c14b-4bcd-be03-50d90eb7a4be","system_id":"levelo_inurba_marseille","lat":43.32288,"lon":5.38263,"is_reserved":false,"is_disabled":false,"rental_uris":{"android":"levelo://app?vid=88ee33b6-c14b-4bcd-be03-50d90eb7a4be","ios":"levelo://app?vid=88ee33b6-c14b-4bcd-be03-50d90eb7a4be"},"vehicle_type_id":"4","last_reported":1734358208,"current_range_meters":38000,"station_id":"ce4bhr12rcd13ifvqhqg","pricing_plan_id":"cebpf4jnsgd1na2vs0mg"},{"bike_id":"08cee0db-94b4-4298-bfcb-8531f0ed5faf","system_id":"levelo_inurba_marseille","lat":43.27943,"lon":5.38728,"is_reserved":false,"is_disabled":false,"rental_uris":{"android":"levelo://app?vid=08cee0db-94b4-4298-bfcb-8531f0ed5faf","ios":"levelo://app?vid=08cee0db-94b4-4298-bfcb-8531f0ed5faf"},"vehicle_type_id":"4","last_reported":1734358208,"current_range_meters":22400,"station_id":"ce4bhg12rcd13ifvqf80","pricing_plan_id":"cebpf4jnsgd1na2vs0mg"},{"bike_id":"0113525e-0f7b-4d08-a401-1a21a549877f","system_id":"levelo_inurba_marseille","lat":43.24648,"lon":5.38896,"is_reserved":false,"is_disabled":false,"rental_uris":{"android":"levelo://app?vid=0113525e-0f7b-4d08-a401-1a21a549877f","ios":"levelo://app?vid=0113525e-0f7b-4d08-a401-1a21a549877f"},"vehicle_type_id":"4","last_reported":1734358208,"current_range_meters":36400,"station_id":"ce4bhg12rcd13ifvqf60","pricing_plan_id":"cebpf4jnsgd1na2vs0mg"},{"bike_id":"a4166917-4dd4-4de6-ad50-7406396e6849","system_id":"levelo_inurba_marseille","lat":43.27949,"lon":5.41055,"is_reserved":false,"is_disabled":false,"rental_uris":{"android":"levelo://app?vid=a4166917-4dd4-4de6-ad50-7406396e6849","ios":"levelo://app?vid=a4166917-4dd4-4de6-ad50-7406396e6849"},"vehicle_type_id":"4","last_reported":1734358208,"current_range_meters":30000,"station_id":"ce4bhnp2rcd13ifvqh0g","pricing_plan_id":"cebpf4jnsgd1na2vs0mg"},{"bike_id":"0810675e-0ec1-421a-b95a-82de5ccce9b2","system_id":"levelo_inurba_marseille","lat":43.24175,"lon":5.39724,"is_reserved":false,"is_disabled":true,"rental_uris":{"android":"levelo://app?vid=0810675e-0ec1-421a-b95a-82de5ccce9b2","ios":"levelo://app?vid=0810675e-0ec1-421a-b95a-82de5ccce9b2"},"vehicle_type_id":"4","last_reported":1734358208,"current_range_meters":17600,"station_id":"ce4bhn12rcd13ifvqgpg","pricing_plan_id":"cebpf4jnsgd1na2vs0mg"},{"bike_id":"658b701e-1546-4ee7-a5a3-c849cfed5179","system_id":"levelo_inurba_marseille","lat":43.29599,"lon":5.37726,"is_reserved":false,"is_disabled":true,"rental_uris":{"android":"levelo://app?vid=658b701e-1546-4ee7-a5a3-c849cfed5179","ios":"levelo://app?vid=658b701e-1546-4ee7-a5a3-c849cfed5179"},"vehicle_type_id":"4","last_reported":1734358208,"current_range_meters":0,"station_id":"ce4bgi92rcd13ifvqb90","pricing_plan_id":"cebpf4jnsgd1na2vs0mg"},{"bike_id":"b0c2c71a-7bff-4486-8018-78782e019ac9","system_id":"levelo_inurba_marseille","lat":43.29534,"lon":5.38541,"is_reserved":false,"is_disabled":false,"rental_uris":{"android":"levelo://app?vid=b0c2c71a-7bff-4486-8018-78782e019ac9","ios":"levelo://app?vid=b0c2c71a-7bff-4486-8018-78782e019ac9"},"vehicle_type_id":"4","last_reported":1734358208,"current_range_meters":38800,"station_id":"ce4bgih2rcd13ifvqba0","pricing_plan_id":"cebpf4jnsgd1na2vs0mg"},{"bike_id":"5f4bebd3-12b2-4b1a-b8a6-27fe62ea266b","system_id":"levelo_inurba_marseille","lat":43.29913,"lon":5.37473,"is_reserved":false,"is_disabled":false,"rental_uris":{"android":"levelo://app?vid=5f4bebd3-12b2-4b1a-b8a6-27fe62ea266b","ios":"levelo://app?vid=5f4bebd3-12b2-4b1a-b8a6-27fe62ea266b"},"vehicle_type_id":"4","last_reported":1734358208,"current_range_meters":39200,"station_id":"ce4bgjh2rcd13ifvqbg0","pricing_plan_id":"cebpf4jnsgd1na2vs0mg"},{"bike_id":"912bfd66-9675-499a-8dcf-320588ba58c4","system_id":"levelo_inurba_marseille","lat":43.281514,"lon":5.426572,"is_reserved":false,"is_disabled":false,"rental_uris":{"android":"levelo://app?vid=912bfd66-9675-499a-8dcf-320588ba58c4","ios":"levelo://app?vid=912bfd66-9675-499a-8dcf-320588ba58c4"},"vehicle_type_id":"4","last_reported":1734358208,"current_range_meters":12800,"station_id":"ce4bhnh2rcd13ifvqgug","pricing_plan_id":"cebpf4jnsgd1na2vs0mg"},{"bike_id":"13e2c7eb-c3a1-4b05-a50e-b215a99c0304","system_id":"levelo_inurba_marseille","lat":43.28272,"lon":5.35059,"is_reserved":false,"is_disabled":false,"rental_uris":{"android":"levelo://app?vid=13e2c7eb-c3a1-4b05-a50e-b215a99c0304","ios":"levelo://app?vid=13e2c7eb-c3a1-4b05-a50e-b215a99c0304"},"vehicle_type_id":"4","last_reported":1734358208,"current_range_meters":35200,"station_id":"ce4bhbp2rcd13ifvqerg","pricing_plan_id":"cebpf4jnsgd1na2vs0mg"},{"bike_id":"458c56c8-42dd-4540-9e14-c3527b1b6c85","system_id":"levelo_inurba_marseille","lat":43.25935,"lon":5.40904,"is_reserved":false,"is_disabled":false,"rental_uris":{"android":"levelo://app?vid=458c56c8-42dd-4540-9e14-c3527b1b6c85","ios":"levelo://app?vid=458c56c8-42dd-4540-9e14-c3527b1b6c85"},"vehicle_type_id":"4","last_reported":1734358208,"current_range_meters":10000,"station_id":"ce4bhm92rcd13ifvqglg","pricing_plan_id":"cebpf4jnsgd1na2vs0mg"},{"bike_id":"c9f8f380-a11c-46e6-8831-4ffe411c0a2a","system_id":"levelo_inurba_marseille","lat":43.33734,"lon":5.37441,"is_reserved":false,"is_disabled":false,"rental_uris":{"android":"levelo://app?vid=c9f8f380-a11c-46e6-8831-4ffe411c0a2a","ios":"levelo://app?vid=c9f8f380-a11c-46e6-8831-4ffe411c0a2a"},"vehicle_type_id":"4","last_reported":1734358208,"current_range_meters":38400,"station_id":"","pricing_plan_id":"cebpf4jnsgd1na2vs0mg"},{"bike_id":"8b135e9e-ffef-4366-9100-fd182f024a7e","system_id":"levelo_inurba_marseille","lat":43.28154,"lon":5.42647,"is_reserved":false,"is_disabled":true,"rental_uris":{"android":"levelo://app?vid=8b135e9e-ffef-4366-9100-fd182f024a7e","ios":"levelo://app?vid=8b135e9e-ffef-4366-9100-fd182f024a7e"},"vehicle_type_id":"4","last_reported":1734358208,"current_range_meters":0,"station_id":"ce4bhnh2rcd13ifvqgug","pricing_plan_id":"cebpf4jnsgd1na2vs0mg"},{"bike_id":"fe6221bc-7cd7-4dba-be52-97dfdc016c80","system_id":"levelo_inurba_marseille","lat":43.28284,"lon":5.35079,"is_reserved":false,"is_disabled":false,"rental_uris":{"android":"levelo://app?vid=fe6221bc-7cd7-4dba-be52-97dfdc016c80","ios":"levelo://app?vid=fe6221bc-7cd7-4dba-be52-97dfdc016c80"},"vehicle_type_id":"4","last_reported":1734358208,"current_range_meters":24000,"station_id":"ce4bhbp2rcd13ifvqerg","pricing_plan_id":"cebpf4jnsgd1na2vs0mg"},{"bike_id":"50a2f01c-cd46-47e7-8f78-87ccc112a2eb","system_id":"levelo_inurba_marseille","lat":43.28672,"lon":5.38666,"is_reserved":false,"is_disabled":false,"rental_uris":{"android":"levelo://app?vid=50a2f01c-cd46-47e7-8f78-87ccc112a2eb","ios":"levelo://app?vid=50a2f01c-cd46-47e7-8f78-87ccc112a2eb"},"vehicle_type_id":"4","last_reported":1734358208,"current_range_meters":28000,"station_id":"ce4bh492rcd13ifvqdug","pricing_plan_id":"cebpf4jnsgd1na2vs0mg"},{"bike_id":"d05ffe79-6081-4080-a41a-e4ff30fe2019","system_id":"levelo_inurba_marseille","lat":43.29984,"lon":5.37183,"is_reserved":false,"is_disabled":false,"rental_uris":{"android":"levelo://app?vid=d05ffe79-6081-4080-a41a-e4ff30fe2019","ios":"levelo://app?vid=d05ffe79-6081-4080-a41a-e4ff30fe2019"},"vehicle_type_id":"4","last_reported":1734358208,"current_range_meters":28800,"station_id":"ce4bgr92rcd13ifvqc7g","pricing_plan_id":"cebpf4jnsgd1na2vs0mg"},{"bike_id":"83e5b1f9-e512-4755-8dfd-f85222a054ac","system_id":"levelo_inurba_marseille","lat":43.26847,"lon":5.39644,"is_reserved":false,"is_disabled":false,"rental_uris":{"android":"levelo://app?vid=83e5b1f9-e512-4755-8dfd-f85222a054ac","ios":"levelo://app?vid=83e5b1f9-e512-4755-8dfd-f85222a054ac"},"vehicle_type_id":"4","last_reported":1734358208,"current_range_meters":10800,"station_id":"","pricing_plan_id":"cebpf4jnsgd1na2vs0mg"},{"bike_id":"95be67e3-8435-4a72-9623-597928a02b2e","system_id":"levelo_inurba_marseille","lat":43.27835,"lon":5.39207,"is_reserved":false,"is_disabled":false,"rental_uris":{"android":"levelo://app?vid=95be67e3-8435-4a72-9623-597928a02b2e","ios":"levelo://app?vid=95be67e3-8435-4a72-9623-597928a02b2e"},"vehicle_type_id":"4","last_reported":1734358208,"current_range_meters":18000,"station_id":"ce4bhjp2rcd13ifvqga0","pricing_plan_id":"cebpf4jnsgd1na2vs0mg"},{"bike_id":"476d0af7-c5a6-4d13-9e1e-f262101536a8","system_id":"levelo_inurba_marseille","lat":43.28678,"lon":5.38671,"is_reserved":false,"is_disabled":false,"rental_uris":{"android":"levelo://app?vid=476d0af7-c5a6-4d13-9e1e-f262101536a8","ios":"levelo://app?vid=476d0af7-c5a6-4d13-9e1e-f262101536a8"},"vehicle_type_id":"4","last_reported":1734358208,"current_range_meters":39200,"station_id":"ce4bh492rcd13ifvqdug","pricing_plan_id":"cebpf4jnsgd1na2vs0mg"},{"bike_id":"1f9f2344-774c-4681-a39f-5ccd15c769b1","system_id":"levelo_inurba_marseille","lat":43.28615,"lon":5.35099,"is_reserved":false,"is_disabled":true,"rental_uris":{"android":"levelo://app?vid=1f9f2344-774c-4681-a39f-5ccd15c769b1","ios":"levelo://app?vid=1f9f2344-774c-4681-a39f-5ccd15c769b1"},"vehicle_type_id":"4","last_reported":1734358208,"current_range_meters":26800,"station_id":"ce4bhch2rcd13ifvqeug","pricing_plan_id":"cebpf4jnsgd1na2vs0mg"},{"bike_id":"a1e87f39-a169-437c-996c-14d84743b37e","system_id":"levelo_inurba_marseille","lat":43.23063,"lon":5.35499,"is_reserved":false,"is_disabled":false,"rental_uris":{"android":"levelo://app?vid=a1e87f39-a169-437c-996c-14d84743b37e","ios":"levelo://app?vid=a1e87f39-a169-437c-996c-14d84743b37e"},"vehicle_type_id":"4","last_reported":1734358208,"current_range_meters":37600,"station_id":"cpo3342slgdg3j2ifvpg","pricing_plan_id":"cebpf4jnsgd1na2vs0mg"},{"bike_id":"a4201bad-2952-479e-bfa8-345091f5dd8e","system_id":"levelo_inurba_marseille","lat":43.24623,"lon":5.38919,"is_reserved":false,"is_disabled":false,"rental_uris":{"android":"levelo://app?vid=a4201bad-2952-479e-bfa8-345091f5dd8e","ios":"levelo://app?vid=a4201bad-2952-479e-bfa8-345091f5dd8e"},"vehicle_type_id":"4","last_reported":1734358208,"current_range_meters":18000,"station_id":"ce4bhg12rcd13ifvqf60","pricing_plan_id":"cebpf4jnsgd1na2vs0mg"},{"bike_id":"9b7bd68c-b402-4fe0-bba9-12b73c77eeac","system_id":"levelo_inurba_marseille","lat":43.29799,"lon":5.39357,"is_reserved":false,"is_disabled":false,"rental_uris":{"android":"levelo://app?vid=9b7bd68c-b402-4fe0-bba9-12b73c77eeac","ios":"levelo://app?vid=9b7bd68c-b402-4fe0-bba9-12b73c77eeac"},"vehicle_type_id":"4","last_reported":1734358208,"current_range_meters":3600,"station_id":"chh1huq6cuj3fo74tm60","pricing_plan_id":"cebpf4jnsgd1na2vs0mg"},{"bike_id":"c09befa1-4a43-49f6-b9b5-afe9b17d2018","system_id":"levelo_inurba_marseille","lat":43.28722,"lon":5.37939,"is_reserved":false,"is_disabled":false,"rental_uris":{"android":"levelo://app?vid=c09befa1-4a43-49f6-b9b5-afe9b17d2018","ios":"levelo://app?vid=c09befa1-4a43-49f6-b9b5-afe9b17d2018"},"vehicle_type_id":"4","last_reported":1734358208,"current_range_meters":38800,"station_id":"ce4bh9p2rcd13ifvqec0","pricing_plan_id":"cebpf4jnsgd1na2vs0mg"},{"bike_id":"c76de74b-f745-43b4-b5cf-f1c3c6c2de11","system_id":"levelo_inurba_marseille","lat":43.24658,"lon":5.38165,"is_reserved":false,"is_disabled":true,"rental_uris":{"android":"levelo://app?vid=c76de74b-f745-43b4-b5cf-f1c3c6c2de11","ios":"levelo://app?vid=c76de74b-f745-43b4-b5cf-f1c3c6c2de11"},"vehicle_type_id":"4","last_reported":1734358208,"current_range_meters":39200,"station_id":"ce4bhih2rcd13ifvqfr0","pricing_plan_id":"cebpf4jnsgd1na2vs0mg"},{"bike_id":"3dda5d42-46c4-4662-8667-d51283eab8a5","system_id":"levelo_inurba_marseille","lat":43.26517,"lon":5.39533,"is_reserved":false,"is_disabled":false,"rental_uris":{"android":"levelo://app?vid=3dda5d42-46c4-4662-8667-d51283eab8a5","ios":"levelo://app?vid=3dda5d42-46c4-4662-8667-d51283eab8a5"},"vehicle_type_id":"4","last_reported":1734358208,"current_range_meters":38800,"station_id":"ce4bhi12rcd13ifvqfq0","pricing_plan_id":"cebpf4jnsgd1na2vs0mg"},{"bike_id":"16130b26-a4c4-4f01-8e17-3cf1e734b08c","system_id":"levelo_inurba_marseille","lat":43.2418,"lon":5.39736,"is_reserved":false,"is_disabled":false,"rental_uris":{"android":"levelo://app?vid=16130b26-a4c4-4f01-8e17-3cf1e734b08c","ios":"levelo://app?vid=16130b26-a4c4-4f01-8e17-3cf1e734b08c"},"vehicle_type_id":"4","last_reported":1734358208,"current_range_meters":4400,"station_id":"ce4bhn12rcd13ifvqgpg","pricing_plan_id":"cebpf4jnsgd1na2vs0mg"},{"bike_id":"ddbb3a7c-2665-4ce3-9848-3cccae19d989","system_id":"levelo_inurba_marseille","lat":43.27668,"lon":5.38901,"is_reserved":false,"is_disabled":true,"rental_uris":{"android":"levelo://app?vid=ddbb3a7c-2665-4ce3-9848-3cccae19d989","ios":"levelo://app?vid=ddbb3a7c-2665-4ce3-9848-3cccae19d989"},"vehicle_type_id":"4","last_reported":1734358208,"current_range_meters":35600,"station_id":"ce4bhi12rcd13ifvqfo0","pricing_plan_id":"cebpf4jnsgd1na2vs0mg"},{"bike_id":"e58c65e5-5cbc-49fb-9540-232ae855566a","system_id":"levelo_inurba_marseille","lat":43.278,"lon":5.38782,"is_reserved":false,"is_disabled":false,"rental_uris":{"android":"levelo://app?vid=e58c65e5-5cbc-49fb-9540-232ae855566a","ios":"levelo://app?vid=e58c65e5-5cbc-49fb-9540-232ae855566a"},"vehicle_type_id":"4","last_reported":1734358208,"current_range_meters":8000,"station_id":"ce4bhgp2rcd13ifvqfe0","pricing_plan_id":"cebpf4jnsgd1na2vs0mg"},{"bike_id":"74935a05-02f8-44ed-96c7-d6449f552b85","system_id":"levelo_inurba_marseille","lat":43.31241,"lon":5.36835,"is_reserved":false,"is_disabled":false,"rental_uris":{"android":"levelo://app?vid=74935a05-02f8-44ed-96c7-d6449f552b85","ios":"levelo://app?vid=74935a05-02f8-44ed-96c7-d6449f552b85"},"vehicle_type_id":"4","last_reported":1734358208,"current_range_meters":10800,"station_id":"ce4bgl92rcd13ifvqbq0","pricing_plan_id":"cebpf4jnsgd1na2vs0mg"},{"bike_id":"12da31a3-7a5a-4f50-bce7-5a39b05fb897","system_id":"levelo_inurba_marseille","lat":43.2619,"lon":5.37447,"is_reserved":false,"is_disabled":false,"rental_uris":{"android":"levelo://app?vid=12da31a3-7a5a-4f50-bce7-5a39b05fb897","ios":"levelo://app?vid=12da31a3-7a5a-4f50-bce7-5a39b05fb897"},"vehicle_type_id":"4","last_reported":1734358208,"current_range_meters":38800,"station_id":"ce4bhgp2rcd13ifvqfc0","pricing_plan_id":"cebpf4jnsgd1na2vs0mg"},{"bike_id":"4577876d-7130-4c2f-b0b1-6070b22d42f9","system_id":"levelo_inurba_marseille","lat":43.25583,"lon":5.38227,"is_reserved":false,"is_disabled":false,"rental_uris":{"android":"levelo://app?vid=4577876d-7130-4c2f-b0b1-6070b22d42f9","ios":"levelo://app?vid=4577876d-7130-4c2f-b0b1-6070b22d42f9"},"vehicle_type_id":"4","last_reported":1734358208,"current_range_meters":17200,"station_id":"ce4bhih2rcd13ifvqfs0","pricing_plan_id":"cebpf4jnsgd1na2vs0mg"},{"bike_id":"ea2f56a5-2af6-4b2f-9b06-4493d536b453","system_id":"levelo_inurba_marseille","lat":43.27953,"lon":5.38708,"is_reserved":false,"is_disabled":false,"rental_uris":{"android":"levelo://app?vid=ea2f56a5-2af6-4b2f-9b06-4493d536b453","ios":"levelo://app?vid=ea2f56a5-2af6-4b2f-9b06-4493d536b453"},"vehicle_type_id":"4","last_reported":1734358208,"current_range_meters":28400,"station_id":"ce4bhg12rcd13ifvqf80","pricing_plan_id":"cebpf4jnsgd1na2vs0mg"},{"bike_id":"71046d8a-fbfd-4283-881b-9e15c790d7fe","system_id":"levelo_inurba_marseille","lat":43.28493,"lon":5.38412,"is_reserved":false,"is_disabled":false,"rental_uris":{"android":"levelo://app?vid=71046d8a-fbfd-4283-881b-9e15c790d7fe","ios":"levelo://app?vid=71046d8a-fbfd-4283-881b-9e15c790d7fe"},"vehicle_type_id":"4","last_reported":1734358208,"current_range_meters":27200,"station_id":"ce4bh512rcd13ifvqe3g","pricing_plan_id":"cebpf4jnsgd1na2vs0mg"},{"bike_id":"1872d482-d179-4022-a5d5-5b4e034b8f1d","system_id":"levelo_inurba_marseille","lat":43.27737,"lon":5.40646,"is_reserved":false,"is_disabled":false,"rental_uris":{"android":"levelo://app?vid=1872d482-d179-4022-a5d5-5b4e034b8f1d","ios":"levelo://app?vid=1872d482-d179-4022-a5d5-5b4e034b8f1d"},"vehicle_type_id":"4","last_reported":1734358208,"current_range_meters":24400,"station_id":"","pricing_plan_id":"cebpf4jnsgd1na2vs0mg"},{"bike_id":"989664e1-2615-4d65-9c6b-db676949f101","system_id":"levelo_inurba_marseille","lat":43.28178,"lon":5.42643,"is_reserved":false,"is_disabled":false,"rental_uris":{"android":"levelo://app?vid=989664e1-2615-4d65-9c6b-db676949f101","ios":"levelo://app?vid=989664e1-2615-4d65-9c6b-db676949f101"},"vehicle_type_id":"4","last_reported":1734358208,"current_range_meters":8400,"station_id":"ce4bhnh2rcd13ifvqgug","pricing_plan_id":"cebpf4jnsgd1na2vs0mg"},{"bike_id":"4f242f4a-f931-406d-883c-fee1efa7413d","system_id":"levelo_inurba_marseille","lat":43.28855,"lon":5.35854,"is_reserved":false,"is_disabled":false,"rental_uris":{"android":"levelo://app?vid=4f242f4a-f931-406d-883c-fee1efa7413d","ios":"levelo://app?vid=4f242f4a-f931-406d-883c-fee1efa7413d"},"vehicle_type_id":"4","last_reported":1734358208,"current_range_meters":9200,"station_id":"ce4bhb12rcd13ifvqem0","pricing_plan_id":"cebpf4jnsgd1na2vs0mg"},{"bike_id":"842c69c3-efa6-42d2-bf74-5b1f8de0cd10","system_id":"levelo_inurba_marseille","lat":43.2706,"lon":5.40273,"is_reserved":false,"is_disabled":false,"rental_uris":{"android":"levelo://app?vid=842c69c3-efa6-42d2-bf74-5b1f8de0cd10","ios":"levelo://app?vid=842c69c3-efa6-42d2-bf74-5b1f8de0cd10"},"vehicle_type_id":"4","last_reported":1734358208,"current_range_meters":34000,"station_id":"ce4bhk92rcd13ifvqgc0","pricing_plan_id":"cebpf4jnsgd1na2vs0mg"},{"bike_id":"200bc3d3-eedd-4907-9194-5be5f8797471","system_id":"levelo_inurba_marseille","lat":43.27817,"lon":5.40716,"is_reserved":false,"is_disabled":false,"rental_uris":{"android":"levelo://app?vid=200bc3d3-eedd-4907-9194-5be5f8797471","ios":"levelo://app?vid=200bc3d3-eedd-4907-9194-5be5f8797471"},"vehicle_type_id":"4","last_reported":1734358208,"current_range_meters":10800,"station_id":"ce4bhnh2rcd13ifvqgtg","pricing_plan_id":"cebpf4jnsgd1na2vs0mg"},{"bike_id":"fe4add29-08b6-4180-a3d7-6054580a7a4a","system_id":"levelo_inurba_marseille","lat":43.31171,"lon":5.38726,"is_reserved":false,"is_disabled":false,"rental_uris":{"android":"levelo://app?vid=fe4add29-08b6-4180-a3d7-6054580a7a4a","ios":"levelo://app?vid=fe4add29-08b6-4180-a3d7-6054580a7a4a"},"vehicle_type_id":"4","last_reported":1734358208,"current_range_meters":9200,"station_id":"ce4bgv12rcd13ifvqcp0","pricing_plan_id":"cebpf4jnsgd1na2vs0mg"},{"bike_id":"230e9a8a-c8f7-40a1-b317-d4afa1935b21","system_id":"levelo_inurba_marseille","lat":43.31689,"lon":5.40497,"is_reserved":false,"is_disabled":true,"rental_uris":{"android":"levelo://app?vid=230e9a8a-c8f7-40a1-b317-d4afa1935b21","ios":"levelo://app?vid=230e9a8a-c8f7-40a1-b317-d4afa1935b21"},"vehicle_type_id":"4","last_reported":1734358208,"current_range_meters":37600,"station_id":"ce4bh012rcd13ifvqd00","pricing_plan_id":"cebpf4jnsgd1na2vs0mg"},{"bike_id":"680bc8ce-2061-4d43-9cf7-a70eeccaf369","system_id":"levelo_inurba_marseille","lat":43.3135,"lon":5.36727,"is_reserved":false,"is_disabled":true,"rental_uris":{"android":"levelo://app?vid=680bc8ce-2061-4d43-9cf7-a70eeccaf369","ios":"levelo://app?vid=680bc8ce-2061-4d43-9cf7-a70eeccaf369"},"vehicle_type_id":"4","last_reported":1734358208,"current_range_meters":37600,"station_id":"ce4bgr92rcd13ifvqc6g","pricing_plan_id":"cebpf4jnsgd1na2vs0mg"},{"bike_id":"f8f760c0-d185-4a46-9aba-8c2df7512b2d","system_id":"levelo_inurba_marseille","lat":43.27499,"lon":5.42473,"is_reserved":false,"is_disabled":false,"rental_uris":{"android":"levelo://app?vid=f8f760c0-d185-4a46-9aba-8c2df7512b2d","ios":"levelo://app?vid=f8f760c0-d185-4a46-9aba-8c2df7512b2d"},"vehicle_type_id":"4","last_reported":1734358208,"current_range_meters":37600,"station_id":"ce4bhn92rcd13ifvqgrg","pricing_plan_id":"cebpf4jnsgd1na2vs0mg"},{"bike_id":"8b267178-2ad1-46a8-8a9a-933caa51ab54","system_id":"levelo_inurba_marseille","lat":43.28155,"lon":5.42649,"is_reserved":false,"is_disabled":false,"rental_uris":{"android":"levelo://app?vid=8b267178-2ad1-46a8-8a9a-933caa51ab54","ios":"levelo://app?vid=8b267178-2ad1-46a8-8a9a-933caa51ab54"},"vehicle_type_id":"4","last_reported":1734358208,"current_range_meters":24400,"station_id":"ce4bhnh2rcd13ifvqgug","pricing_plan_id":"cebpf4jnsgd1na2vs0mg"},{"bike_id":"a170ba40-17b7-4bf6-90f8-c07a5cf55709","system_id":"levelo_inurba_marseille","lat":43.24651,"lon":5.38901,"is_reserved":false,"is_disabled":false,"rental_uris":{"android":"levelo://app?vid=a170ba40-17b7-4bf6-90f8-c07a5cf55709","ios":"levelo://app?vid=a170ba40-17b7-4bf6-90f8-c07a5cf55709"},"vehicle_type_id":"4","last_reported":1734358208,"current_range_meters":34000,"station_id":"ce4bhg12rcd13ifvqf60","pricing_plan_id":"cebpf4jnsgd1na2vs0mg"},{"bike_id":"06eb94fd-69b5-42bb-9a93-3989c149a585","system_id":"levelo_inurba_marseille","lat":43.2947,"lon":5.36234,"is_reserved":false,"is_disabled":false,"rental_uris":{"android":"levelo://app?vid=06eb94fd-69b5-42bb-9a93-3989c149a585","ios":"levelo://app?vid=06eb94fd-69b5-42bb-9a93-3989c149a585"},"vehicle_type_id":"4","last_reported":1734358208,"current_range_meters":6400,"station_id":"","pricing_plan_id":"cebpf4jnsgd1na2vs0mg"},{"bike_id":"d9977418-8393-49f5-a40b-c871898e58ed","system_id":"levelo_inurba_marseille","lat":43.32476,"lon":5.36573,"is_reserved":false,"is_disabled":false,"rental_uris":{"android":"levelo://app?vid=d9977418-8393-49f5-a40b-c871898e58ed","ios":"levelo://app?vid=d9977418-8393-49f5-a40b-c871898e58ed"},"vehicle_type_id":"4","last_reported":1734358208,"current_range_meters":19200,"station_id":"ce4bhs12rcd13ifvqhvg","pricing_plan_id":"cebpf4jnsgd1na2vs0mg"},{"bike_id":"05e3f33b-950b-4ea8-be75-2c3dc577d89a","system_id":"levelo_inurba_marseille","lat":43.30788,"lon":5.43533,"is_reserved":false,"is_disabled":true,"rental_uris":{"android":"levelo://app?vid=05e3f33b-950b-4ea8-be75-2c3dc577d89a","ios":"levelo://app?vid=05e3f33b-950b-4ea8-be75-2c3dc577d89a"},"vehicle_type_id":"4","last_reported":1734358208,"current_range_meters":800,"station_id":"ce4bhph2rcd13ifvqheg","pricing_plan_id":"cebpf4jnsgd1na2vs0mg"},{"bike_id":"57be658c-fd2e-472e-bca9-6467dc4b0d20","system_id":"levelo_inurba_marseille","lat":43.26503,"lon":5.39545,"is_reserved":false,"is_disabled":false,"rental_uris":{"android":"levelo://app?vid=57be658c-fd2e-472e-bca9-6467dc4b0d20","ios":"levelo://app?vid=57be658c-fd2e-472e-bca9-6467dc4b0d20"},"vehicle_type_id":"4","last_reported":1734358208,"current_range_meters":32000,"station_id":"ce4bhi12rcd13ifvqfq0","pricing_plan_id":"cebpf4jnsgd1na2vs0mg"},{"bike_id":"c0d6a234-928d-47ee-b103-1d91f354d353","system_id":"levelo_inurba_marseille","lat":43.30599,"lon":5.37222,"is_reserved":false,"is_disabled":false,"rental_uris":{"android":"levelo://app?vid=c0d6a234-928d-47ee-b103-1d91f354d353","ios":"levelo://app?vid=c0d6a234-928d-47ee-b103-1d91f354d353"},"vehicle_type_id":"4","last_reported":1734358208,"current_range_meters":28800,"station_id":"ce4bgqh2rcd13ifvqc4g","pricing_plan_id":"cebpf4jnsgd1na2vs0mg"},{"bike_id":"b1913f37-78d8-4cbd-8316-60baa4e5e50e","system_id":"levelo_inurba_marseille","lat":43.2466,"lon":5.38163,"is_reserved":false,"is_disabled":false,"rental_uris":{"android":"levelo://app?vid=b1913f37-78d8-4cbd-8316-60baa4e5e50e","ios":"levelo://app?vid=b1913f37-78d8-4cbd-8316-60baa4e5e50e"},"vehicle_type_id":"4","last_reported":1734358208,"current_range_meters":31200,"station_id":"ce4bhih2rcd13ifvqfr0","pricing_plan_id":"cebpf4jnsgd1na2vs0mg"},{"bike_id":"daa963a2-7035-4945-ad97-66cb524cc924","system_id":"levelo_inurba_marseille","lat":43.26206,"lon":5.37445,"is_reserved":false,"is_disabled":false,"rental_uris":{"android":"levelo://app?vid=daa963a2-7035-4945-ad97-66cb524cc924","ios":"levelo://app?vid=daa963a2-7035-4945-ad97-66cb524cc924"},"vehicle_type_id":"4","last_reported":1734358208,"current_range_meters":14800,"station_id":"ce4bhgp2rcd13ifvqfc0","pricing_plan_id":"cebpf4jnsgd1na2vs0mg"},{"bike_id":"a5aa0af9-a665-4fc3-ad19-810d6ab62dee","system_id":"levelo_inurba_marseille","lat":43.29221,"lon":5.36058,"is_reserved":false,"is_disabled":false,"rental_uris":{"android":"levelo://app?vid=a5aa0af9-a665-4fc3-ad19-810d6ab62dee","ios":"levelo://app?vid=a5aa0af9-a665-4fc3-ad19-810d6ab62dee"},"vehicle_type_id":"4","last_reported":1734358208,"current_range_meters":32400,"station_id":"ce4bhbh2rcd13ifvqeqg","pricing_plan_id":"cebpf4jnsgd1na2vs0mg"},{"bike_id":"759403f8-84fe-445d-b15c-88b555a0244e","system_id":"levelo_inurba_marseille","lat":43.29699,"lon":5.36617,"is_reserved":false,"is_disabled":false,"rental_uris":{"android":"levelo://app?vid=759403f8-84fe-445d-b15c-88b555a0244e","ios":"levelo://app?vid=759403f8-84fe-445d-b15c-88b555a0244e"},"vehicle_type_id":"4","last_reported":1734358208,"current_range_meters":30400,"station_id":"ce4bgn12rcd13ifvqbt0","pricing_plan_id":"cebpf4jnsgd1na2vs0mg"},{"bike_id":"119666ee-7528-4e52-89f1-c99509e02f6e","system_id":"levelo_inurba_marseille","lat":43.30531,"lon":5.36536,"is_reserved":false,"is_disabled":false,"rental_uris":{"android":"levelo://app?vid=119666ee-7528-4e52-89f1-c99509e02f6e","ios":"levelo://app?vid=119666ee-7528-4e52-89f1-c99509e02f6e"},"vehicle_type_id":"4","last_reported":1734358208,"current_range_meters":36000,"station_id":"ce4bgs12rcd13ifvqcag","pricing_plan_id":"cebpf4jnsgd1na2vs0mg"},{"bike_id":"0d253baf-5864-4b49-8429-1468e72a0132","system_id":"levelo_inurba_marseille","lat":43.28107,"lon":5.37848,"is_reserved":false,"is_disabled":false,"rental_uris":{"android":"levelo://app?vid=0d253baf-5864-4b49-8429-1468e72a0132","ios":"levelo://app?vid=0d253baf-5864-4b49-8429-1468e72a0132"},"vehicle_type_id":"4","last_reported":1734358208,"current_range_meters":25600,"station_id":"ce4bha12rcd13ifvqee0","pricing_plan_id":"cebpf4jnsgd1na2vs0mg"},{"bike_id":"96ab6859-2778-4498-a228-c3abdc7ea012","system_id":"levelo_inurba_marseille","lat":43.24653,"lon":5.38894,"is_reserved":false,"is_disabled":false,"rental_uris":{"android":"levelo://app?vid=96ab6859-2778-4498-a228-c3abdc7ea012","ios":"levelo://app?vid=96ab6859-2778-4498-a228-c3abdc7ea012"},"vehicle_type_id":"4","last_reported":1734358208,"current_range_meters":16400,"station_id":"ce4bhg12rcd13ifvqf60","pricing_plan_id":"cebpf4jnsgd1na2vs0mg"},{"bike_id":"5c2fbf08-4d28-4e2a-b7f8-c3cc5bd6f0cc","system_id":"levelo_inurba_marseille","lat":43.29802,"lon":5.40404,"is_reserved":false,"is_disabled":false,"rental_uris":{"android":"levelo://app?vid=5c2fbf08-4d28-4e2a-b7f8-c3cc5bd6f0cc","ios":"levelo://app?vid=5c2fbf08-4d28-4e2a-b7f8-c3cc5bd6f0cc"},"vehicle_type_id":"4","last_reported":1734358208,"current_range_meters":9200,"station_id":"ce4bh112rcd13ifvqd90","pricing_plan_id":"cebpf4jnsgd1na2vs0mg"},{"bike_id":"61f9b9ba-3c7d-4013-929e-def7239ad41f","system_id":"levelo_inurba_marseille","lat":43.28351,"lon":5.38108,"is_reserved":false,"is_disabled":false,"rental_uris":{"android":"levelo://app?vid=61f9b9ba-3c7d-4013-929e-def7239ad41f","ios":"levelo://app?vid=61f9b9ba-3c7d-4013-929e-def7239ad41f"},"vehicle_type_id":"4","last_reported":1734358208,"current_range_meters":38800,"station_id":"ce4bh412rcd13ifvqdr0","pricing_plan_id":"cebpf4jnsgd1na2vs0mg"},{"bike_id":"7b556c5b-2a6f-4be1-acd7-c8af6740ef3c","system_id":"levelo_inurba_marseille","lat":43.28345,"lon":5.38123,"is_reserved":false,"is_disabled":false,"rental_uris":{"android":"levelo://app?vid=7b556c5b-2a6f-4be1-acd7-c8af6740ef3c","ios":"levelo://app?vid=7b556c5b-2a6f-4be1-acd7-c8af6740ef3c"},"vehicle_type_id":"4","last_reported":1734358208,"current_range_meters":8400,"station_id":"ce4bh412rcd13ifvqdr0","pricing_plan_id":"cebpf4jnsgd1na2vs0mg"},{"bike_id":"63eaffe0-9361-4ff6-ab19-8007100ee7ae","system_id":"levelo_inurba_marseille","lat":43.24153,"lon":5.3971,"is_reserved":false,"is_disabled":false,"rental_uris":{"android":"levelo://app?vid=63eaffe0-9361-4ff6-ab19-8007100ee7ae","ios":"levelo://app?vid=63eaffe0-9361-4ff6-ab19-8007100ee7ae"},"vehicle_type_id":"4","last_reported":1734358208,"current_range_meters":33200,"station_id":"ce4bhn12rcd13ifvqgpg","pricing_plan_id":"cebpf4jnsgd1na2vs0mg"},{"bike_id":"40a1a0fc-054a-4c89-9d64-d11f64793c7c","system_id":"levelo_inurba_marseille","lat":43.25915,"lon":5.40894,"is_reserved":false,"is_disabled":false,"rental_uris":{"android":"levelo://app?vid=40a1a0fc-054a-4c89-9d64-d11f64793c7c","ios":"levelo://app?vid=40a1a0fc-054a-4c89-9d64-d11f64793c7c"},"vehicle_type_id":"4","last_reported":1734358208,"current_range_meters":37600,"station_id":"ce4bhm92rcd13ifvqglg","pricing_plan_id":"cebpf4jnsgd1na2vs0mg"},{"bike_id":"d7f17db3-01ca-47fc-88a5-c80d08f04ebd","system_id":"levelo_inurba_marseille","lat":43.29568,"lon":5.37511,"is_reserved":false,"is_disabled":false,"rental_uris":{"android":"levelo://app?vid=d7f17db3-01ca-47fc-88a5-c80d08f04ebd","ios":"levelo://app?vid=d7f17db3-01ca-47fc-88a5-c80d08f04ebd"},"vehicle_type_id":"4","last_reported":1734358208,"current_range_meters":33600,"station_id":"ce4bgh92rcd13ifvqb50","pricing_plan_id":"cebpf4jnsgd1na2vs0mg"},{"bike_id":"5eafd27a-eea6-48f3-94ef-5cc31e2a4cd6","system_id":"levelo_inurba_marseille","lat":43.30788,"lon":5.37657,"is_reserved":false,"is_disabled":false,"rental_uris":{"android":"levelo://app?vid=5eafd27a-eea6-48f3-94ef-5cc31e2a4cd6","ios":"levelo://app?vid=5eafd27a-eea6-48f3-94ef-5cc31e2a4cd6"},"vehicle_type_id":"4","last_reported":1734358208,"current_range_meters":3200,"station_id":"ce4bgv92rcd13ifvqcq0","pricing_plan_id":"cebpf4jnsgd1na2vs0mg"},{"bike_id":"3650d84c-d2fd-4728-abeb-b9accdfa7210","system_id":"levelo_inurba_marseille","lat":43.3024,"lon":5.40073,"is_reserved":false,"is_disabled":true,"rental_uris":{"android":"levelo://app?vid=3650d84c-d2fd-4728-abeb-b9accdfa7210","ios":"levelo://app?vid=3650d84c-d2fd-4728-abeb-b9accdfa7210"},"vehicle_type_id":"4","last_reported":1734358208,"current_range_meters":16000,"station_id":"ce4bgvh2rcd13ifvqcs0","pricing_plan_id":"cebpf4jnsgd1na2vs0mg"},{"bike_id":"6065461c-b945-4352-9c9d-0ba55c850d71","system_id":"levelo_inurba_marseille","lat":43.2828,"lon":5.35071,"is_reserved":false,"is_disabled":true,"rental_uris":{"android":"levelo://app?vid=6065461c-b945-4352-9c9d-0ba55c850d71","ios":"levelo://app?vid=6065461c-b945-4352-9c9d-0ba55c850d71"},"vehicle_type_id":"4","last_reported":1734358208,"current_range_meters":1600,"station_id":"ce4bhbp2rcd13ifvqerg","pricing_plan_id":"cebpf4jnsgd1na2vs0mg"},{"bike_id":"4f9d4424-480d-4104-9e59-9da124647ecc","system_id":"levelo_inurba_marseille","lat":43.2649,"lon":5.39547,"is_reserved":false,"is_disabled":false,"rental_uris":{"android":"levelo://app?vid=4f9d4424-480d-4104-9e59-9da124647ecc","ios":"levelo://app?vid=4f9d4424-480d-4104-9e59-9da124647ecc"},"vehicle_type_id":"4","last_reported":1734358208,"current_range_meters":24400,"station_id":"ce4bhi12rcd13ifvqfq0","pricing_plan_id":"cebpf4jnsgd1na2vs0mg"},{"bike_id":"051d26de-0742-47ac-84d7-0aa17256e41f","system_id":"levelo_inurba_marseille","lat":43.2992,"lon":5.3748,"is_reserved":false,"is_disabled":false,"rental_uris":{"android":"levelo://app?vid=051d26de-0742-47ac-84d7-0aa17256e41f","ios":"levelo://app?vid=051d26de-0742-47ac-84d7-0aa17256e41f"},"vehicle_type_id":"4","last_reported":1734358208,"current_range_meters":22000,"station_id":"ce4bgjh2rcd13ifvqbg0","pricing_plan_id":"cebpf4jnsgd1na2vs0mg"},{"bike_id":"fb0aba70-b33a-4625-97c0-d56e964edfd4","system_id":"levelo_inurba_marseille","lat":43.27705,"lon":5.38876,"is_reserved":false,"is_disabled":false,"rental_uris":{"android":"levelo://app?vid=fb0aba70-b33a-4625-97c0-d56e964edfd4","ios":"levelo://app?vid=fb0aba70-b33a-4625-97c0-d56e964edfd4"},"vehicle_type_id":"4","last_reported":1734358208,"current_range_meters":38800,"station_id":"ce4bhi12rcd13ifvqfo0","pricing_plan_id":"cebpf4jnsgd1na2vs0mg"},{"bike_id":"76805181-b86b-42c5-9eb1-0613fe81a89e","system_id":"levelo_inurba_marseille","lat":43.23198,"lon":5.35561,"is_reserved":false,"is_disabled":false,"rental_uris":{"android":"levelo://app?vid=76805181-b86b-42c5-9eb1-0613fe81a89e","ios":"levelo://app?vid=76805181-b86b-42c5-9eb1-0613fe81a89e"},"vehicle_type_id":"4","last_reported":1734358208,"current_range_meters":36000,"station_id":"ce4bhu92rcd13ifvqi70","pricing_plan_id":"cebpf4jnsgd1na2vs0mg"},{"bike_id":"93fee4dc-2d8b-43bb-99d6-34e05946cde4","system_id":"levelo_inurba_marseille","lat":43.28276,"lon":5.35066,"is_reserved":false,"is_disabled":false,"rental_uris":{"android":"levelo://app?vid=93fee4dc-2d8b-43bb-99d6-34e05946cde4","ios":"levelo://app?vid=93fee4dc-2d8b-43bb-99d6-34e05946cde4"},"vehicle_type_id":"4","last_reported":1734358208,"current_range_meters":30400,"station_id":"ce4bhbp2rcd13ifvqerg","pricing_plan_id":"cebpf4jnsgd1na2vs0mg"},{"bike_id":"c829bd23-1f79-482c-9606-2590af91f13b","system_id":"levelo_inurba_marseille","lat":43.24647,"lon":5.38896,"is_reserved":false,"is_disabled":false,"rental_uris":{"android":"levelo://app?vid=c829bd23-1f79-482c-9606-2590af91f13b","ios":"levelo://app?vid=c829bd23-1f79-482c-9606-2590af91f13b"},"vehicle_type_id":"4","last_reported":1734358208,"current_range_meters":5600,"station_id":"ce4bhg12rcd13ifvqf60","pricing_plan_id":"cebpf4jnsgd1na2vs0mg"},{"bike_id":"25dcbd86-9328-4fc2-9ec4-ed691c623b1b","system_id":"levelo_inurba_marseille","lat":43.30539,"lon":5.36546,"is_reserved":false,"is_disabled":false,"rental_uris":{"android":"levelo://app?vid=25dcbd86-9328-4fc2-9ec4-ed691c623b1b","ios":"levelo://app?vid=25dcbd86-9328-4fc2-9ec4-ed691c623b1b"},"vehicle_type_id":"4","last_reported":1734358208,"current_range_meters":22400,"station_id":"ce4bgs12rcd13ifvqcag","pricing_plan_id":"cebpf4jnsgd1na2vs0mg"},{"bike_id":"22fb72d7-a034-479d-9276-08bff6540597","system_id":"levelo_inurba_marseille","lat":43.2843,"lon":5.39214,"is_reserved":false,"is_disabled":false,"rental_uris":{"android":"levelo://app?vid=22fb72d7-a034-479d-9276-08bff6540597","ios":"levelo://app?vid=22fb72d7-a034-479d-9276-08bff6540597"},"vehicle_type_id":"4","last_reported":1734358208,"current_range_meters":38800,"station_id":"ce4bhoh2rcd13ifvqh5g","pricing_plan_id":"cebpf4jnsgd1na2vs0mg"},{"bike_id":"9322b5b3-d00a-47e0-ad02-605fd232e778","system_id":"levelo_inurba_marseille","lat":43.25112,"lon":5.40329,"is_reserved":false,"is_disabled":false,"rental_uris":{"android":"levelo://app?vid=9322b5b3-d00a-47e0-ad02-605fd232e778","ios":"levelo://app?vid=9322b5b3-d00a-47e0-ad02-605fd232e778"},"vehicle_type_id":"4","last_reported":1734358208,"current_range_meters":24000,"station_id":"ce4bhlh2rcd13ifvqgig","pricing_plan_id":"cebpf4jnsgd1na2vs0mg"},{"bike_id":"abfe5477-54e0-4c68-9f86-fdbaa8d0bb88","system_id":"levelo_inurba_marseille","lat":43.2619,"lon":5.37468,"is_reserved":false,"is_disabled":false,"rental_uris":{"android":"levelo://app?vid=abfe5477-54e0-4c68-9f86-fdbaa8d0bb88","ios":"levelo://app?vid=abfe5477-54e0-4c68-9f86-fdbaa8d0bb88"},"vehicle_type_id":"4","last_reported":1734358208,"current_range_meters":37600,"station_id":"ce4bhgp2rcd13ifvqfc0","pricing_plan_id":"cebpf4jnsgd1na2vs0mg"},{"bike_id":"3541095f-5006-48c0-851c-9ab7d8f6b0e2","system_id":"levelo_inurba_marseille","lat":43.31754,"lon":5.39019,"is_reserved":false,"is_disabled":false,"rental_uris":{"android":"levelo://app?vid=3541095f-5006-48c0-851c-9ab7d8f6b0e2","ios":"levelo://app?vid=3541095f-5006-48c0-851c-9ab7d8f6b0e2"},"vehicle_type_id":"4","last_reported":1734358208,"current_range_meters":35600,"station_id":"ce4bhqp2rcd13ifvqhng","pricing_plan_id":"cebpf4jnsgd1na2vs0mg"},{"bike_id":"b663895a-b546-46ef-a9bc-2d196040aee9","system_id":"levelo_inurba_marseille","lat":43.26559,"lon":5.37286,"is_reserved":false,"is_disabled":false,"rental_uris":{"android":"levelo://app?vid=b663895a-b546-46ef-a9bc-2d196040aee9","ios":"levelo://app?vid=b663895a-b546-46ef-a9bc-2d196040aee9"},"vehicle_type_id":"4","last_reported":1734358208,"current_range_meters":6400,"station_id":"ce4bhg12rcd13ifvqf70","pricing_plan_id":"cebpf4jnsgd1na2vs0mg"},{"bike_id":"4538b253-40c3-4d7b-808e-ff61b2d3f4be","system_id":"levelo_inurba_marseille","lat":43.269553,"lon":5.38639,"is_reserved":false,"is_disabled":false,"rental_uris":{"android":"levelo://app?vid=4538b253-40c3-4d7b-808e-ff61b2d3f4be","ios":"levelo://app?vid=4538b253-40c3-4d7b-808e-ff61b2d3f4be"},"vehicle_type_id":"4","last_reported":1734358208,"current_range_meters":30000,"station_id":"ce4bhh92rcd13ifvqfh0","pricing_plan_id":"cebpf4jnsgd1na2vs0mg"},{"bike_id":"283ec910-2b59-4ffd-bbff-9867d116f826","system_id":"levelo_inurba_marseille","lat":43.337444,"lon":5.374475,"is_reserved":false,"is_disabled":true,"rental_uris":{"android":"levelo://app?vid=283ec910-2b59-4ffd-bbff-9867d116f826","ios":"levelo://app?vid=283ec910-2b59-4ffd-bbff-9867d116f826"},"vehicle_type_id":"4","last_reported":1734358208,"current_range_meters":0,"station_id":"","pricing_plan_id":"cebpf4jnsgd1na2vs0mg"},{"bike_id":"5b6b9c4d-7037-4e6d-8553-93cd4d228e33","system_id":"levelo_inurba_marseille","lat":43.30887,"lon":5.37198,"is_reserved":false,"is_disabled":false,"rental_uris":{"android":"levelo://app?vid=5b6b9c4d-7037-4e6d-8553-93cd4d228e33","ios":"levelo://app?vid=5b6b9c4d-7037-4e6d-8553-93cd4d228e33"},"vehicle_type_id":"4","last_reported":1734358208,"current_range_meters":20000,"station_id":"ce4bguh2rcd13ifvqckg","pricing_plan_id":"cebpf4jnsgd1na2vs0mg"},{"bike_id":"2a657aa7-a156-4c74-b0c6-0835c92a559f","system_id":"levelo_inurba_marseille","lat":43.29,"lon":5.35616,"is_reserved":false,"is_disabled":false,"rental_uris":{"android":"levelo://app?vid=2a657aa7-a156-4c74-b0c6-0835c92a559f","ios":"levelo://app?vid=2a657aa7-a156-4c74-b0c6-0835c92a559f"},"vehicle_type_id":"4","last_reported":1734358208,"current_range_meters":9600,"station_id":"ce4bhb92rcd13ifvqen0","pricing_plan_id":"cebpf4jnsgd1na2vs0mg"},{"bike_id":"ad857147-75ea-4fa8-8a24-2a5b1b443a29","system_id":"levelo_inurba_marseille","lat":43.29189,"lon":5.3931,"is_reserved":false,"is_disabled":true,"rental_uris":{"android":"levelo://app?vid=ad857147-75ea-4fa8-8a24-2a5b1b443a29","ios":"levelo://app?vid=ad857147-75ea-4fa8-8a24-2a5b1b443a29"},"vehicle_type_id":"4","last_reported":1734358208,"current_range_meters":12000,"station_id":"ce4bh192rcd13ifvqdd0","pricing_plan_id":"cebpf4jnsgd1na2vs0mg"},{"bike_id":"e1ffaf4d-2fd6-43b7-b7c6-51e38664a5a4","system_id":"levelo_inurba_marseille","lat":43.32038,"lon":5.41573,"is_reserved":false,"is_disabled":false,"rental_uris":{"android":"levelo://app?vid=e1ffaf4d-2fd6-43b7-b7c6-51e38664a5a4","ios":"levelo://app?vid=e1ffaf4d-2fd6-43b7-b7c6-51e38664a5a4"},"vehicle_type_id":"4","last_reported":1734358208,"current_range_meters":21600,"station_id":"ce4bhq92rcd13ifvqhkg","pricing_plan_id":"cebpf4jnsgd1na2vs0mg"},{"bike_id":"bbffd889-750b-4762-ae94-78458d50ea91","system_id":"levelo_inurba_marseille","lat":43.3373,"lon":5.39189,"is_reserved":false,"is_disabled":false,"rental_uris":{"android":"levelo://app?vid=bbffd889-750b-4762-ae94-78458d50ea91","ios":"levelo://app?vid=bbffd889-750b-4762-ae94-78458d50ea91"},"vehicle_type_id":"4","last_reported":1734358208,"current_range_meters":39200,"station_id":"ce4bhr92rcd13ifvqhsg","pricing_plan_id":"cebpf4jnsgd1na2vs0mg"},{"bike_id":"ebe996a7-24a8-4cd6-a995-f3235ab6313b","system_id":"levelo_inurba_marseille","lat":43.31263,"lon":5.40178,"is_reserved":false,"is_disabled":false,"rental_uris":{"android":"levelo://app?vid=ebe996a7-24a8-4cd6-a995-f3235ab6313b","ios":"levelo://app?vid=ebe996a7-24a8-4cd6-a995-f3235ab6313b"},"vehicle_type_id":"4","last_reported":1734358208,"current_range_meters":11200,"station_id":"ce4bh092rcd13ifvqd30","pricing_plan_id":"cebpf4jnsgd1na2vs0mg"},{"bike_id":"bc114595-e194-4ef8-8c1b-648f9b07d92a","system_id":"levelo_inurba_marseille","lat":43.2696,"lon":5.38641,"is_reserved":false,"is_disabled":false,"rental_uris":{"android":"levelo://app?vid=bc114595-e194-4ef8-8c1b-648f9b07d92a","ios":"levelo://app?vid=bc114595-e194-4ef8-8c1b-648f9b07d92a"},"vehicle_type_id":"4","last_reported":1734358208,"current_range_meters":12000,"station_id":"ce4bhh92rcd13ifvqfh0","pricing_plan_id":"cebpf4jnsgd1na2vs0mg"},{"bike_id":"4fcb4f91-4357-44e5-b8cc-3eae16832901","system_id":"levelo_inurba_marseille","lat":43.29919,"lon":5.38116,"is_reserved":false,"is_disabled":false,"rental_uris":{"android":"levelo://app?vid=4fcb4f91-4357-44e5-b8cc-3eae16832901","ios":"levelo://app?vid=4fcb4f91-4357-44e5-b8cc-3eae16832901"},"vehicle_type_id":"4","last_reported":1734358208,"current_range_meters":28400,"station_id":"ce4bgj12rcd13ifvqbc0","pricing_plan_id":"cebpf4jnsgd1na2vs0mg"},{"bike_id":"44d4e17a-b666-46b4-a605-b9806c360661","system_id":"levelo_inurba_marseille","lat":43.26967,"lon":5.38607,"is_reserved":false,"is_disabled":false,"rental_uris":{"android":"levelo://app?vid=44d4e17a-b666-46b4-a605-b9806c360661","ios":"levelo://app?vid=44d4e17a-b666-46b4-a605-b9806c360661"},"vehicle_type_id":"4","last_reported":1734358208,"current_range_meters":17200,"station_id":"ce4bhh92rcd13ifvqfh0","pricing_plan_id":"cebpf4jnsgd1na2vs0mg"},{"bike_id":"285c6471-6f32-4595-88da-356f689cb7ed","system_id":"levelo_inurba_marseille","lat":43.29025,"lon":5.38641,"is_reserved":false,"is_disabled":false,"rental_uris":{"android":"levelo://app?vid=285c6471-6f32-4595-88da-356f689cb7ed","ios":"levelo://app?vid=285c6471-6f32-4595-88da-356f689cb7ed"},"vehicle_type_id":"4","last_reported":1734358208,"current_range_meters":38800,"station_id":"ce4bh4p2rcd13ifvqe0g","pricing_plan_id":"cebpf4jnsgd1na2vs0mg"},{"bike_id":"ec166c4d-2d91-4049-8ddf-93d8bdd9e169","system_id":"levelo_inurba_marseille","lat":43.26945,"lon":5.38632,"is_reserved":false,"is_disabled":true,"rental_uris":{"android":"levelo://app?vid=ec166c4d-2d91-4049-8ddf-93d8bdd9e169","ios":"levelo://app?vid=ec166c4d-2d91-4049-8ddf-93d8bdd9e169"},"vehicle_type_id":"4","last_reported":1734358208,"current_range_meters":0,"station_id":"ce4bhh92rcd13ifvqfh0","pricing_plan_id":"cebpf4jnsgd1na2vs0mg"},{"bike_id":"2e39f77f-fb59-40da-b0cb-e68e6bb93f33","system_id":"levelo_inurba_marseille","lat":43.3127,"lon":5.40173,"is_reserved":false,"is_disabled":false,"rental_uris":{"android":"levelo://app?vid=2e39f77f-fb59-40da-b0cb-e68e6bb93f33","ios":"levelo://app?vid=2e39f77f-fb59-40da-b0cb-e68e6bb93f33"},"vehicle_type_id":"4","last_reported":1734358208,"current_range_meters":9600,"station_id":"ce4bh092rcd13ifvqd30","pricing_plan_id":"cebpf4jnsgd1na2vs0mg"},{"bike_id":"ad9438d2-ee4b-4eb6-9fea-cbe40382e5bd","system_id":"levelo_inurba_marseille","lat":43.29267,"lon":5.36851,"is_reserved":false,"is_disabled":false,"rental_uris":{"android":"levelo://app?vid=ad9438d2-ee4b-4eb6-9fea-cbe40382e5bd","ios":"levelo://app?vid=ad9438d2-ee4b-4eb6-9fea-cbe40382e5bd"},"vehicle_type_id":"4","last_reported":1734358208,"current_range_meters":12800,"station_id":"ce4bhbp2rcd13ifvqesg","pricing_plan_id":"cebpf4jnsgd1na2vs0mg"},{"bike_id":"a1a7695d-1433-4a15-ba0e-0d37d74f199f","system_id":"levelo_inurba_marseille","lat":43.27409,"lon":5.39406,"is_reserved":false,"is_disabled":false,"rental_uris":{"android":"levelo://app?vid=a1a7695d-1433-4a15-ba0e-0d37d74f199f","ios":"levelo://app?vid=a1a7695d-1433-4a15-ba0e-0d37d74f199f"},"vehicle_type_id":"4","last_reported":1734358208,"current_range_meters":37600,"station_id":"ce4bhdp2rcd13ifvqf20","pricing_plan_id":"cebpf4jnsgd1na2vs0mg"},{"bike_id":"64d599a0-e542-4563-ae87-4a9ff44fcddd","system_id":"levelo_inurba_marseille","lat":43.24656,"lon":5.38883,"is_reserved":false,"is_disabled":false,"rental_uris":{"android":"levelo://app?vid=64d599a0-e542-4563-ae87-4a9ff44fcddd","ios":"levelo://app?vid=64d599a0-e542-4563-ae87-4a9ff44fcddd"},"vehicle_type_id":"4","last_reported":1734358208,"current_range_meters":19200,"station_id":"ce4bhg12rcd13ifvqf60","pricing_plan_id":"cebpf4jnsgd1na2vs0mg"},{"bike_id":"fdc60b6c-9ca0-4219-ab5c-766490a5cd88","system_id":"levelo_inurba_marseille","lat":43.33606,"lon":5.40981,"is_reserved":false,"is_disabled":true,"rental_uris":{"android":"levelo://app?vid=fdc60b6c-9ca0-4219-ab5c-766490a5cd88","ios":"levelo://app?vid=fdc60b6c-9ca0-4219-ab5c-766490a5cd88"},"vehicle_type_id":"4","last_reported":1734358208,"current_range_meters":38400,"station_id":"ce4bhqh2rcd13ifvqhmg","pricing_plan_id":"cebpf4jnsgd1na2vs0mg"},{"bike_id":"c930ddbe-5d83-40f5-9cce-5ddffec9e772","system_id":"levelo_inurba_marseille","lat":43.23167,"lon":5.43691,"is_reserved":false,"is_disabled":true,"rental_uris":{"android":"levelo://app?vid=c930ddbe-5d83-40f5-9cce-5ddffec9e772","ios":"levelo://app?vid=c930ddbe-5d83-40f5-9cce-5ddffec9e772"},"vehicle_type_id":"4","last_reported":1734358208,"current_range_meters":0,"station_id":"ce4bhmp2rcd13ifvqgog","pricing_plan_id":"cebpf4jnsgd1na2vs0mg"},{"bike_id":"15f19a12-212c-4be3-adc5-e0edd41bdef0","system_id":"levelo_inurba_marseille","lat":43.27812,"lon":5.4072,"is_reserved":false,"is_disabled":false,"rental_uris":{"android":"levelo://app?vid=15f19a12-212c-4be3-adc5-e0edd41bdef0","ios":"levelo://app?vid=15f19a12-212c-4be3-adc5-e0edd41bdef0"},"vehicle_type_id":"4","last_reported":1734358208,"current_range_meters":28800,"station_id":"ce4bhnh2rcd13ifvqgtg","pricing_plan_id":"cebpf4jnsgd1na2vs0mg"},{"bike_id":"74e80a21-c471-4a17-bf5c-e35576de7d34","system_id":"levelo_inurba_marseille","lat":43.23962,"lon":5.36647,"is_reserved":false,"is_disabled":false,"rental_uris":{"android":"levelo://app?vid=74e80a21-c471-4a17-bf5c-e35576de7d34","ios":"levelo://app?vid=74e80a21-c471-4a17-bf5c-e35576de7d34"},"vehicle_type_id":"4","last_reported":1734358208,"current_range_meters":39200,"station_id":"ce4bhi12rcd13ifvqfp0","pricing_plan_id":"cebpf4jnsgd1na2vs0mg"},{"bike_id":"b103cdff-3824-4aad-bc10-26ceb128587a","system_id":"levelo_inurba_marseille","lat":43.32482,"lon":5.36574,"is_reserved":false,"is_disabled":false,"rental_uris":{"android":"levelo://app?vid=b103cdff-3824-4aad-bc10-26ceb128587a","ios":"levelo://app?vid=b103cdff-3824-4aad-bc10-26ceb128587a"},"vehicle_type_id":"4","last_reported":1734358208,"current_range_meters":30000,"station_id":"ce4bhs12rcd13ifvqhvg","pricing_plan_id":"cebpf4jnsgd1na2vs0mg"},{"bike_id":"616140fb-8c23-460c-ba60-117d54214454","system_id":"levelo_inurba_marseille","lat":43.29896,"lon":5.43674,"is_reserved":false,"is_disabled":false,"rental_uris":{"android":"levelo://app?vid=616140fb-8c23-460c-ba60-117d54214454","ios":"levelo://app?vid=616140fb-8c23-460c-ba60-117d54214454"},"vehicle_type_id":"4","last_reported":1734358208,"current_range_meters":8800,"station_id":"ce4bhpp2rcd13ifvqhfg","pricing_plan_id":"cebpf4jnsgd1na2vs0mg"},{"bike_id":"c021aa8f-36d0-4501-ae0e-6ec9320533f6","system_id":"levelo_inurba_marseille","lat":43.281543,"lon":5.426621,"is_reserved":false,"is_disabled":false,"rental_uris":{"android":"levelo://app?vid=c021aa8f-36d0-4501-ae0e-6ec9320533f6","ios":"levelo://app?vid=c021aa8f-36d0-4501-ae0e-6ec9320533f6"},"vehicle_type_id":"4","last_reported":1734358208,"current_range_meters":3600,"station_id":"ce4bhnh2rcd13ifvqgug","pricing_plan_id":"cebpf4jnsgd1na2vs0mg"},{"bike_id":"d09f9722-bb8a-4497-a3dd-86197b740ff1","system_id":"levelo_inurba_marseille","lat":43.29841,"lon":5.36271,"is_reserved":false,"is_disabled":false,"rental_uris":{"android":"levelo://app?vid=d09f9722-bb8a-4497-a3dd-86197b740ff1","ios":"levelo://app?vid=d09f9722-bb8a-4497-a3dd-86197b740ff1"},"vehicle_type_id":"4","last_reported":1734358208,"current_range_meters":36000,"station_id":"ce4bgpp2rcd13ifvqc3g","pricing_plan_id":"cebpf4jnsgd1na2vs0mg"},{"bike_id":"da2a44dd-7daa-409e-86bd-063b26f7e1fe","system_id":"levelo_inurba_marseille","lat":43.28489,"lon":5.3856,"is_reserved":false,"is_disabled":false,"rental_uris":{"android":"levelo://app?vid=da2a44dd-7daa-409e-86bd-063b26f7e1fe","ios":"levelo://app?vid=da2a44dd-7daa-409e-86bd-063b26f7e1fe"},"vehicle_type_id":"4","last_reported":1734358208,"current_range_meters":14400,"station_id":"ce4bh8p2rcd13ifvqeb0","pricing_plan_id":"cebpf4jnsgd1na2vs0mg"},{"bike_id":"85badd7d-0c70-4033-a7d7-e06bf65183ae","system_id":"levelo_inurba_marseille","lat":43.27946,"lon":5.38686,"is_reserved":false,"is_disabled":false,"rental_uris":{"android":"levelo://app?vid=85badd7d-0c70-4033-a7d7-e06bf65183ae","ios":"levelo://app?vid=85badd7d-0c70-4033-a7d7-e06bf65183ae"},"vehicle_type_id":"4","last_reported":1734358208,"current_range_meters":38800,"station_id":"ce4bhg12rcd13ifvqf80","pricing_plan_id":"cebpf4jnsgd1na2vs0mg"},{"bike_id":"c135273e-0f10-44ab-a13f-cc37e1e4fc76","system_id":"levelo_inurba_marseille","lat":43.30129,"lon":5.38792,"is_reserved":false,"is_disabled":false,"rental_uris":{"android":"levelo://app?vid=c135273e-0f10-44ab-a13f-cc37e1e4fc76","ios":"levelo://app?vid=c135273e-0f10-44ab-a13f-cc37e1e4fc76"},"vehicle_type_id":"4","last_reported":1734358208,"current_range_meters":3600,"station_id":"ce4bghh2rcd13ifvqb60","pricing_plan_id":"cebpf4jnsgd1na2vs0mg"},{"bike_id":"72a78e1a-50a0-4faf-a489-271a82764aae","system_id":"levelo_inurba_marseille","lat":43.27501,"lon":5.42453,"is_reserved":false,"is_disabled":false,"rental_uris":{"android":"levelo://app?vid=72a78e1a-50a0-4faf-a489-271a82764aae","ios":"levelo://app?vid=72a78e1a-50a0-4faf-a489-271a82764aae"},"vehicle_type_id":"4","last_reported":1734358208,"current_range_meters":25600,"station_id":"ce4bhn92rcd13ifvqgrg","pricing_plan_id":"cebpf4jnsgd1na2vs0mg"},{"bike_id":"d25b79cc-c166-4893-be91-d84933e042bd","system_id":"levelo_inurba_marseille","lat":43.31067,"lon":5.38347,"is_reserved":false,"is_disabled":false,"rental_uris":{"android":"levelo://app?vid=d25b79cc-c166-4893-be91-d84933e042bd","ios":"levelo://app?vid=d25b79cc-c166-4893-be91-d84933e042bd"},"vehicle_type_id":"4","last_reported":1734358208,"current_range_meters":4000,"station_id":"ce4bgv92rcd13ifvqcr0","pricing_plan_id":"cebpf4jnsgd1na2vs0mg"},{"bike_id":"44e53cbc-6e88-4595-ac99-024671fdaa83","system_id":"levelo_inurba_marseille","lat":43.29026,"lon":5.37558,"is_reserved":false,"is_disabled":false,"rental_uris":{"android":"levelo://app?vid=44e53cbc-6e88-4595-ac99-024671fdaa83","ios":"levelo://app?vid=44e53cbc-6e88-4595-ac99-024671fdaa83"},"vehicle_type_id":"4","last_reported":1734358208,"current_range_meters":17600,"station_id":"ce4bh692rcd13ifvqe90","pricing_plan_id":"cebpf4jnsgd1na2vs0mg"},{"bike_id":"108d9535-db1f-4790-8384-0136084dd103","system_id":"levelo_inurba_marseille","lat":43.29232,"lon":5.36077,"is_reserved":false,"is_disabled":false,"rental_uris":{"android":"levelo://app?vid=108d9535-db1f-4790-8384-0136084dd103","ios":"levelo://app?vid=108d9535-db1f-4790-8384-0136084dd103"},"vehicle_type_id":"4","last_reported":1734358208,"current_range_meters":37600,"station_id":"ce4bhbh2rcd13ifvqeqg","pricing_plan_id":"cebpf4jnsgd1na2vs0mg"},{"bike_id":"bb3b068a-3841-45aa-a3ff-96022166fe96","system_id":"levelo_inurba_marseille","lat":43.28108,"lon":5.3771,"is_reserved":false,"is_disabled":false,"rental_uris":{"android":"levelo://app?vid=bb3b068a-3841-45aa-a3ff-96022166fe96","ios":"levelo://app?vid=bb3b068a-3841-45aa-a3ff-96022166fe96"},"vehicle_type_id":"4","last_reported":1734358208,"current_range_meters":27200,"station_id":"","pricing_plan_id":"cebpf4jnsgd1na2vs0mg"},{"bike_id":"56e485d6-c214-46cd-b2ef-320a714e74ce","system_id":"levelo_inurba_marseille","lat":43.29011,"lon":5.35609,"is_reserved":false,"is_disabled":false,"rental_uris":{"android":"levelo://app?vid=56e485d6-c214-46cd-b2ef-320a714e74ce","ios":"levelo://app?vid=56e485d6-c214-46cd-b2ef-320a714e74ce"},"vehicle_type_id":"4","last_reported":1734358208,"current_range_meters":37600,"station_id":"ce4bhb92rcd13ifvqen0","pricing_plan_id":"cebpf4jnsgd1na2vs0mg"},{"bike_id":"3c3f444d-fc9e-402c-a2c7-98228a3cd153","system_id":"levelo_inurba_marseille","lat":43.29966,"lon":5.38494,"is_reserved":false,"is_disabled":false,"rental_uris":{"android":"levelo://app?vid=3c3f444d-fc9e-402c-a2c7-98228a3cd153","ios":"levelo://app?vid=3c3f444d-fc9e-402c-a2c7-98228a3cd153"},"vehicle_type_id":"4","last_reported":1734358208,"current_range_meters":34000,"station_id":"ce4bgj92rcd13ifvqbd0","pricing_plan_id":"cebpf4jnsgd1na2vs0mg"},{"bike_id":"f14a6b0e-10aa-4471-b02c-366e66db472e","system_id":"levelo_inurba_marseille","lat":43.27947,"lon":5.41049,"is_reserved":false,"is_disabled":false,"rental_uris":{"android":"levelo://app?vid=f14a6b0e-10aa-4471-b02c-366e66db472e","ios":"levelo://app?vid=f14a6b0e-10aa-4471-b02c-366e66db472e"},"vehicle_type_id":"4","last_reported":1734358208,"current_range_meters":12800,"station_id":"ce4bhnp2rcd13ifvqh0g","pricing_plan_id":"cebpf4jnsgd1na2vs0mg"},{"bike_id":"73bae715-b17e-496c-a2b1-5456ec832854","system_id":"levelo_inurba_marseille","lat":43.297579,"lon":5.36579,"is_reserved":false,"is_disabled":false,"rental_uris":{"android":"levelo://app?vid=73bae715-b17e-496c-a2b1-5456ec832854","ios":"levelo://app?vid=73bae715-b17e-496c-a2b1-5456ec832854"},"vehicle_type_id":"4","last_reported":1734358208,"current_range_meters":26000,"station_id":"ce4bgn12rcd13ifvqbt0","pricing_plan_id":"cebpf4jnsgd1na2vs0mg"},{"bike_id":"92dd32e2-d8d6-4ce4-8582-5ec8dbee1438","system_id":"levelo_inurba_marseille","lat":43.29302,"lon":5.37467,"is_reserved":false,"is_disabled":false,"rental_uris":{"android":"levelo://app?vid=92dd32e2-d8d6-4ce4-8582-5ec8dbee1438","ios":"levelo://app?vid=92dd32e2-d8d6-4ce4-8582-5ec8dbee1438"},"vehicle_type_id":"4","last_reported":1734358208,"current_range_meters":28000,"station_id":"ce4bgi12rcd13ifvqb70","pricing_plan_id":"cebpf4jnsgd1na2vs0mg"},{"bike_id":"d2a40087-36f0-4920-b4f5-999bab8e305f","system_id":"levelo_inurba_marseille","lat":43.30608,"lon":5.37245,"is_reserved":false,"is_disabled":false,"rental_uris":{"android":"levelo://app?vid=d2a40087-36f0-4920-b4f5-999bab8e305f","ios":"levelo://app?vid=d2a40087-36f0-4920-b4f5-999bab8e305f"},"vehicle_type_id":"4","last_reported":1734358208,"current_range_meters":9200,"station_id":"ce4bgqh2rcd13ifvqc4g","pricing_plan_id":"cebpf4jnsgd1na2vs0mg"},{"bike_id":"89837474-4482-4d91-b65f-666133b2f769","system_id":"levelo_inurba_marseille","lat":43.2815,"lon":5.42645,"is_reserved":false,"is_disabled":true,"rental_uris":{"android":"levelo://app?vid=89837474-4482-4d91-b65f-666133b2f769","ios":"levelo://app?vid=89837474-4482-4d91-b65f-666133b2f769"},"vehicle_type_id":"4","last_reported":1734358208,"current_range_meters":0,"station_id":"ce4bhnh2rcd13ifvqgug","pricing_plan_id":"cebpf4jnsgd1na2vs0mg"},{"bike_id":"3fffe49e-1306-4648-8115-dc48646332a2","system_id":"levelo_inurba_marseille","lat":43.272091,"lon":5.391871,"is_reserved":false,"is_disabled":true,"rental_uris":{"android":"levelo://app?vid=3fffe49e-1306-4648-8115-dc48646332a2","ios":"levelo://app?vid=3fffe49e-1306-4648-8115-dc48646332a2"},"vehicle_type_id":"4","last_reported":1734358208,"current_range_meters":0,"station_id":"ce4bhhp2rcd13ifvqfm0","pricing_plan_id":"cebpf4jnsgd1na2vs0mg"},{"bike_id":"a3e5433e-ba3d-4aa3-92de-0e7c72a4e51f","system_id":"levelo_inurba_marseille","lat":43.28717,"lon":5.37938,"is_reserved":false,"is_disabled":false,"rental_uris":{"android":"levelo://app?vid=a3e5433e-ba3d-4aa3-92de-0e7c72a4e51f","ios":"levelo://app?vid=a3e5433e-ba3d-4aa3-92de-0e7c72a4e51f"},"vehicle_type_id":"4","last_reported":1734358208,"current_range_meters":23200,"station_id":"ce4bh9p2rcd13ifvqec0","pricing_plan_id":"cebpf4jnsgd1na2vs0mg"},{"bike_id":"d406edf5-da5a-4642-a999-50348a2f6381","system_id":"levelo_inurba_marseille","lat":43.30137,"lon":5.39867,"is_reserved":false,"is_disabled":true,"rental_uris":{"android":"levelo://app?vid=d406edf5-da5a-4642-a999-50348a2f6381","ios":"levelo://app?vid=d406edf5-da5a-4642-a999-50348a2f6381"},"vehicle_type_id":"4","last_reported":1734358208,"current_range_meters":0,"station_id":"ce4bh0h2rcd13ifvqd40","pricing_plan_id":"cebpf4jnsgd1na2vs0mg"},{"bike_id":"0b2e241d-9ea2-48e9-bbd9-f84b5c193ddb","system_id":"levelo_inurba_marseille","lat":43.25718,"lon":5.41121,"is_reserved":false,"is_disabled":false,"rental_uris":{"android":"levelo://app?vid=0b2e241d-9ea2-48e9-bbd9-f84b5c193ddb","ios":"levelo://app?vid=0b2e241d-9ea2-48e9-bbd9-f84b5c193ddb"},