{"last_updated":1769854407,"ttl":60,"version":"2.2","data":{"bikes":[{"bike_id":"f30a4c97-f0c6-45f8-934f-68b3ad70f3be","system_id":"levelo_inurba_marseille","lat":43.26046,"lon":5.39416,"is_reserved":false,"is_disabled":false,"rental_uris":{"android":"levelo://app?vid=f30a4c97-f0c6-45f8-934f-68b3ad70f3be","ios":"levelo://app?vid=f30a4c97-f0c6-45f8-934f-68b3ad70f3be"},"vehicle_type_id":"4","last_reported":1769854407,"current_range_meters":2800,"station_id":"ce4bhh92rcd13ifvqfj0","pricing_plan_id":"cebpf4jnsgd1na2vs0mg"},{"bike_id":"1717413c-0fd7-4a19-a0ad-ca261922c0af","system_id":"levelo_inurba_marseille","lat":43.29585,"lon":5.37496,"is_reserved":false,"is_disabled":false,"rental_uris":{"android":"levelo://app?vid=1717413c-0fd7-4a19-a0ad-ca261922c0af","ios":"levelo://app?vid=1717413c-0fd7-4a19-a0ad-ca261922c0af"},"vehicle_type_id":"4","last_reported":1769854407,"current_range_meters":2800,"station_id":"ce4bgh92rcd13ifvqb50","pricing_plan_id":"cebpf4jnsgd1na2vs0mg"},{"bike_id":"4b5eb031-7397-4204-b8ec-553a81e6fa49","system_id":"levelo_inurba_marseille","lat":43.27546,"lon":5.38417,"is_reserved":false,"is_disabled":false,"rental_uris":{"android":"levelo://app?vid=4b5eb031-7397-4204-b8ec-553a81e6fa49","ios":"levelo://app?vid=4b5eb031-7397-4204-b8ec-553a81e6fa49"},"vehicle_type_id":"4","last_reported":1769854407,"current_range_meters":2800,"station_id":"ce4bhh92rcd13ifvqfi0","pricing_plan_id":"cebpf4jnsgd1na2vs0mg"},{"bike_id":"90d8f47d-92dd-4327-94ea-1f7e7a2152b8","system_id":"levelo_inurba_marseille","lat":43.27819,"lon":5.40724,"is_reserved":false,"is_disabled":false,"rental_uris":{"android":"levelo://app?vid=90d8f47d-92dd-4327-94ea-1f7e7a2152b8","ios":"levelo://app?vid=90d8f47d-92dd-4327-94ea-1f7e7a2152b8"},"vehicle_type_id":"4","last_reported":1769854407,"current_range_meters":2800,"station_id":"ce4bhnh2rcd13ifvqgtg","pricing_plan_id":"cebpf4jnsgd1na2vs0mg"},{"bike_id":"4f828ce8-becc-47a2-8b60-97e444eefa27","system_id":"levelo_inurba_marseille","lat":43.25878,"lon":5.39918,"is_reserved":false,"is_disabled":false,"rental_uris":{"android":"levelo://app?vid=4f828ce8-becc-47a2-8b60-97e444eefa27","ios":"levelo://app?vid=4f828ce8-becc-47a2-8b60-97e444eefa27"},"vehicle_type_id":"4","last_reported":1769854407,"current_range_meters":2800,"station_id":"ce4bhl92rcd13ifvqghg","pricing_plan_id":"cebpf4jnsgd1na2vs0mg"},{"bike_id":"df172472-ab3d-4ce3-b703-a5d28d7545ff","system_id":"levelo_inurba_marseille","lat":43.24659,"lon":5.38163,"is_reserved":false,"is_disabled":false,"rental_uris":{"android":"levelo://app?vid=df172472-ab3d-4ce3-b703-a5d28d7545ff","ios":"levelo://app?vid=df172472-ab3d-4ce3-b703-a5d28d7545ff"},"vehicle_type_id":"4","last_reported":1769854407,"current_range_meters":2800,"station_id":"ce4bhih2rcd13ifvqfr0","pricing_plan_id":"cebpf4jnsgd1na2vs0mg"},{"bike_id":"4ed8b7c4-4959-4a76-8810-ca1bf04888b4","system_id":"levelo_inurba_marseille","lat":43.24474,"lon":5.42547,"is_reserved":false,"is_disabled":false,"rental_uris":{"android":"levelo://app?vid=4ed8b7c4-4959-4a76-8810-ca1bf04888b4","ios":"levelo://app?vid=4ed8b7c4-4959-4a76-8810-ca1bf04888b4"},"vehicle_type_id":"4","last_reported":1769854407,"current_range_meters":2800,"station_id":"st_d4a3vfp97mjs738cd8kg","pricing_plan_id":"cebpf4jnsgd1na2vs0mg"},{"bike_id":"6e316437-9e53-4058-b852-370b67323663","system_id":"levelo_inurba_marseille","lat":43.24629,"lon":5.4315,"is_reserved":false,"is_disabled":false,"rental_uris":{"android":"levelo://app?vid=6e316437-9e53-4058-b852-370b67323663","ios":"levelo://app?vid=6e316437-9e53-4058-b852-370b67323663"},"vehicle_type_id":"4","last_reported":1769854407,"current_range_meters":2800,"station_id":"st_d2m6c4gdas8pm72e190g","pricing_plan_id":"cebpf4jnsgd1na2vs0mg"},{"bike_id":"c36501a5-b15d-4754-b855-eaf047fce34d","system_id":"levelo_inurba_marseille","lat":43.28612,"lon":5.37064,"is_reserved":false,"is_disabled":false,"rental_uris":{"android":"levelo://app?vid=c36501a5-b15d-4754-b855-eaf047fce34d","ios":"levelo://app?vid=c36501a5-b15d-4754-b855-eaf047fce34d"},"vehicle_type_id":"4","last_reported":1769854407,"current_range_meters":2800,"station_id":"ce4bht12rcd13ifvqi60","pricing_plan_id":"cebpf4jnsgd1na2vs0mg"},{"bike_id":"1d048dc8-d7b0-439b-8695-38b20ffd2105","system_id":"levelo_inurba_marseille","lat":43.2412,"lon":5.39712,"is_reserved":false,"is_disabled":true,"rental_uris":{"android":"levelo://app?vid=1d048dc8-d7b0-439b-8695-38b20ffd2105","ios":"levelo://app?vid=1d048dc8-d7b0-439b-8695-38b20ffd2105"},"vehicle_type_id":"4","last_reported":1769854407,"current_range_meters":2800,"station_id":"","pricing_plan_id":"cebpf4jnsgd1na2vs0mg"},{"bike_id":"1915d4ba-f4af-445d-a9d3-be106a370507","system_id":"levelo_inurba_marseille","lat":43.273822,"lon":5.362491,"is_reserved":false,"is_disabled":false,"rental_uris":{"android":"levelo://app?vid=1915d4ba-f4af-445d-a9d3-be106a370507","ios":"levelo://app?vid=1915d4ba-f4af-445d-a9d3-be106a370507"},"vehicle_type_id":"4","last_reported":1769854407,"current_range_meters":3200,"station_id":"ce4bhbh2rcd13ifvqeo0","pricing_plan_id":"cebpf4jnsgd1na2vs0mg"},{"bike_id":"382c481d-5cf2-4d38-9788-579a9f396d00","system_id":"levelo_inurba_marseille","lat":43.22947,"lon":5.35386,"is_reserved":false,"is_disabled":false,"rental_uris":{"android":"levelo://app?vid=382c481d-5cf2-4d38-9788-579a9f396d00","ios":"levelo://app?vid=382c481d-5cf2-4d38-9788-579a9f396d00"},"vehicle_type_id":"4","last_reported":1769854407,"current_range_meters":3200,"station_id":"cpo3532slgdg3j2ikp40","pricing_plan_id":"cebpf4jnsgd1na2vs0mg"},{"bike_id":"a348b41d-ce0f-4115-b2b3-f88fa8dc97dd","system_id":"levelo_inurba_marseille","lat":43.22561,"lon":5.4163,"is_reserved":false,"is_disabled":false,"rental_uris":{"android":"levelo://app?vid=a348b41d-ce0f-4115-b2b3-f88fa8dc97dd","ios":"levelo://app?vid=a348b41d-ce0f-4115-b2b3-f88fa8dc97dd"},"vehicle_type_id":"4","last_reported":1769854407,"current_range_meters":3200,"station_id":"st_d2o4gvlbi1j2169b742g","pricing_plan_id":"cebpf4jnsgd1na2vs0mg"},{"bike_id":"e902ef9f-7cd4-4fe6-a82c-948b6d2fcf15","system_id":"levelo_inurba_marseille","lat":43.29913,"lon":5.43668,"is_reserved":false,"is_disabled":false,"rental_uris":{"android":"levelo://app?vid=e902ef9f-7cd4-4fe6-a82c-948b6d2fcf15","ios":"levelo://app?vid=e902ef9f-7cd4-4fe6-a82c-948b6d2fcf15"},"vehicle_type_id":"4","last_reported":1769854407,"current_range_meters":3200,"station_id":"ce4bhpp2rcd13ifvqhfg","pricing_plan_id":"cebpf4jnsgd1na2vs0mg"},{"bike_id":"af654c71-a67d-46af-bf40-a020e2f3bf53","system_id":"levelo_inurba_marseille","lat":43.25008,"lon":5.38938,"is_reserved":false,"is_disabled":false,"rental_uris":{"android":"levelo://app?vid=af654c71-a67d-46af-bf40-a020e2f3bf53","ios":"levelo://app?vid=af654c71-a67d-46af-bf40-a020e2f3bf53"},"vehicle_type_id":"4","last_reported":1769854407,"current_range_meters":3200,"station_id":"ce4bhgp2rcd13ifvqfd0","pricing_plan_id":"cebpf4jnsgd1na2vs0mg"},{"bike_id":"936cef5a-3134-4443-a151-93551f5a6574","system_id":"levelo_inurba_marseille","lat":43.24808,"lon":5.37455,"is_reserved":false,"is_disabled":false,"rental_uris":{"android":"levelo://app?vid=936cef5a-3134-4443-a151-93551f5a6574","ios":"levelo://app?vid=936cef5a-3134-4443-a151-93551f5a6574"},"vehicle_type_id":"4","last_reported":1769854407,"current_range_meters":3200,"station_id":"ce4bhgh2rcd13ifvqfb0","pricing_plan_id":"cebpf4jnsgd1na2vs0mg"},{"bike_id":"a86e5c50-03d8-4efb-b68e-3356325e976b","system_id":"levelo_inurba_marseille","lat":43.26377,"lon":5.41084,"is_reserved":false,"is_disabled":false,"rental_uris":{"android":"levelo://app?vid=a86e5c50-03d8-4efb-b68e-3356325e976b","ios":"levelo://app?vid=a86e5c50-03d8-4efb-b68e-3356325e976b"},"vehicle_type_id":"4","last_reported":1769854407,"current_range_meters":3200,"station_id":"st_d4e5ca6na9uc73bfl5fg","pricing_plan_id":"cebpf4jnsgd1na2vs0mg"},{"bike_id":"a047e598-7d68-42b0-b849-701279564c44","system_id":"levelo_inurba_marseille","lat":43.282,"lon":5.39051,"is_reserved":false,"is_disabled":false,"rental_uris":{"android":"levelo://app?vid=a047e598-7d68-42b0-b849-701279564c44","ios":"levelo://app?vid=a047e598-7d68-42b0-b849-701279564c44"},"vehicle_type_id":"4","last_reported":1769854407,"current_range_meters":3200,"station_id":"ce4bhn92rcd13ifvqgsg","pricing_plan_id":"cebpf4jnsgd1na2vs0mg"},{"bike_id":"7272b7e5-dc3f-4a67-bdd0-317168495648","system_id":"levelo_inurba_marseille","lat":43.2681,"lon":5.40262,"is_reserved":false,"is_disabled":false,"rental_uris":{"android":"levelo://app?vid=7272b7e5-dc3f-4a67-bdd0-317168495648","ios":"levelo://app?vid=7272b7e5-dc3f-4a67-bdd0-317168495648"},"vehicle_type_id":"4","last_reported":1769854407,"current_range_meters":3200,"station_id":"ce501612rcd8frsf0b60","pricing_plan_id":"cebpf4jnsgd1na2vs0mg"},{"bike_id":"c15bf6ee-369d-4dc7-89fc-91442ce5cab3","system_id":"levelo_inurba_marseille","lat":43.29906,"lon":5.43668,"is_reserved":false,"is_disabled":false,"rental_uris":{"android":"levelo://app?vid=c15bf6ee-369d-4dc7-89fc-91442ce5cab3","ios":"levelo://app?vid=c15bf6ee-369d-4dc7-89fc-91442ce5cab3"},"vehicle_type_id":"4","last_reported":1769854407,"current_range_meters":3200,"station_id":"ce4bhpp2rcd13ifvqhfg","pricing_plan_id":"cebpf4jnsgd1na2vs0mg"},{"bike_id":"ffdda927-e6da-4d6b-b63c-5f8f68ad9828","system_id":"levelo_inurba_marseille","lat":43.30889,"lon":5.41191,"is_reserved":false,"is_disabled":false,"rental_uris":{"android":"levelo://app?vid=ffdda927-e6da-4d6b-b63c-5f8f68ad9828","ios":"levelo://app?vid=ffdda927-e6da-4d6b-b63c-5f8f68ad9828"},"vehicle_type_id":"4","last_reported":1769854407,"current_range_meters":3600,"station_id":"","pricing_plan_id":"cebpf4jnsgd1na2vs0mg"},{"bike_id":"5a0279f7-aae2-4145-8643-e51972cc560c","system_id":"levelo_inurba_marseille","lat":43.24172,"lon":5.39733,"is_reserved":false,"is_disabled":false,"rental_uris":{"android":"levelo://app?vid=5a0279f7-aae2-4145-8643-e51972cc560c","ios":"levelo://app?vid=5a0279f7-aae2-4145-8643-e51972cc560c"},"vehicle_type_id":"4","last_reported":1769854407,"current_range_meters":3600,"station_id":"ce4bhn12rcd13ifvqgpg","pricing_plan_id":"cebpf4jnsgd1na2vs0mg"},{"bike_id":"ab00b697-5ca6-45bf-8f53-9ad85446998f","system_id":"levelo_inurba_marseille","lat":43.23063,"lon":5.35484,"is_reserved":false,"is_disabled":false,"rental_uris":{"android":"levelo://app?vid=ab00b697-5ca6-45bf-8f53-9ad85446998f","ios":"levelo://app?vid=ab00b697-5ca6-45bf-8f53-9ad85446998f"},"vehicle_type_id":"4","last_reported":1769854407,"current_range_meters":3600,"station_id":"cpo3342slgdg3j2ifvpg","pricing_plan_id":"cebpf4jnsgd1na2vs0mg"},{"bike_id":"00848cdc-faa1-453e-baa2-d3dbb20e51b0","system_id":"levelo_inurba_marseille","lat":43.28708,"lon":5.37937,"is_reserved":false,"is_disabled":false,"rental_uris":{"android":"levelo://app?vid=00848cdc-faa1-453e-baa2-d3dbb20e51b0","ios":"levelo://app?vid=00848cdc-faa1-453e-baa2-d3dbb20e51b0"},"vehicle_type_id":"4","last_reported":1769854407,"current_range_meters":3600,"station_id":"ce4bh9p2rcd13ifvqec0","pricing_plan_id":"cebpf4jnsgd1na2vs0mg"},{"bike_id":"0be82997-2d35-428e-8a49-28767a03cad5","system_id":"levelo_inurba_marseille","lat":43.28363,"lon":5.38634,"is_reserved":false,"is_disabled":false,"rental_uris":{"android":"levelo://app?vid=0be82997-2d35-428e-8a49-28767a03cad5","ios":"levelo://app?vid=0be82997-2d35-428e-8a49-28767a03cad5"},"vehicle_type_id":"4","last_reported":1769854407,"current_range_meters":4000,"station_id":"ce4bh492rcd13ifvqdvg","pricing_plan_id":"cebpf4jnsgd1na2vs0mg"},{"bike_id":"3260d6da-2018-4dad-a5a2-1fcdb44b0cff","system_id":"levelo_inurba_marseille","lat":43.25087,"lon":5.39509,"is_reserved":false,"is_disabled":false,"rental_uris":{"android":"levelo://app?vid=3260d6da-2018-4dad-a5a2-1fcdb44b0cff","ios":"levelo://app?vid=3260d6da-2018-4dad-a5a2-1fcdb44b0cff"},"vehicle_type_id":"4","last_reported":1769854407,"current_range_meters":4000,"station_id":"ce4bhm12rcd13ifvqgkg","pricing_plan_id":"cebpf4jnsgd1na2vs0mg"},{"bike_id":"b589a911-c752-40e2-a671-addd4ec13243","system_id":"levelo_inurba_marseille","lat":43.29075,"lon":5.37169,"is_reserved":false,"is_disabled":false,"rental_uris":{"android":"levelo://app?vid=b589a911-c752-40e2-a671-addd4ec13243","ios":"levelo://app?vid=b589a911-c752-40e2-a671-addd4ec13243"},"vehicle_type_id":"4","last_reported":1769854407,"current_range_meters":4000,"station_id":"ce4bh5p2rcd13ifvqe4g","pricing_plan_id":"cebpf4jnsgd1na2vs0mg"},{"bike_id":"a5e02f2e-9dbb-4b1d-885d-2c27ffd36395","system_id":"levelo_inurba_marseille","lat":43.29531,"lon":5.38544,"is_reserved":false,"is_disabled":false,"rental_uris":{"android":"levelo://app?vid=a5e02f2e-9dbb-4b1d-885d-2c27ffd36395","ios":"levelo://app?vid=a5e02f2e-9dbb-4b1d-885d-2c27ffd36395"},"vehicle_type_id":"4","last_reported":1769854407,"current_range_meters":4000,"station_id":"ce4bgih2rcd13ifvqba0","pricing_plan_id":"cebpf4jnsgd1na2vs0mg"},{"bike_id":"6b07e50c-03c8-4824-b0e1-e184b4975a06","system_id":"levelo_inurba_marseille","lat":43.25342,"lon":5.42175,"is_reserved":false,"is_disabled":true,"rental_uris":{"android":"levelo://app?vid=6b07e50c-03c8-4824-b0e1-e184b4975a06","ios":"levelo://app?vid=6b07e50c-03c8-4824-b0e1-e184b4975a06"},"vehicle_type_id":"4","last_reported":1769854407,"current_range_meters":4000,"station_id":"st_d2m65c5bi1j21697t3ng","pricing_plan_id":"cebpf4jnsgd1na2vs0mg"},{"bike_id":"14f8addb-8706-44a8-a488-29c4f9a62fe1","system_id":"levelo_inurba_marseille","lat":43.303781,"lon":5.425059,"is_reserved":false,"is_disabled":false,"rental_uris":{"android":"levelo://app?vid=14f8addb-8706-44a8-a488-29c4f9a62fe1","ios":"levelo://app?vid=14f8addb-8706-44a8-a488-29c4f9a62fe1"},"vehicle_type_id":"4","last_reported":1769854407,"current_range_meters":4000,"station_id":"ce4bhoh2rcd13ifvqh6g","pricing_plan_id":"cebpf4jnsgd1na2vs0mg"},{"bike_id":"c6d7e52f-feda-4e03-b282-7ec699c43bdd","system_id":"levelo_inurba_marseille","lat":43.29972,"lon":5.39568,"is_reserved":false,"is_disabled":false,"rental_uris":{"android":"levelo://app?vid=c6d7e52f-feda-4e03-b282-7ec699c43bdd","ios":"levelo://app?vid=c6d7e52f-feda-4e03-b282-7ec699c43bdd"},"vehicle_type_id":"4","last_reported":1769854407,"current_range_meters":4000,"station_id":"","pricing_plan_id":"cebpf4jnsgd1na2vs0mg"},{"bike_id":"2626a307-09e6-4806-8747-64c64cf9b162","system_id":"levelo_inurba_marseille","lat":43.24469,"lon":5.42541,"is_reserved":false,"is_disabled":false,"rental_uris":{"android":"levelo://app?vid=2626a307-09e6-4806-8747-64c64cf9b162","ios":"levelo://app?vid=2626a307-09e6-4806-8747-64c64cf9b162"},"vehicle_type_id":"4","last_reported":1769854407,"current_range_meters":4000,"station_id":"st_d4a3vfp97mjs738cd8kg","pricing_plan_id":"cebpf4jnsgd1na2vs0mg"},{"bike_id":"6790413e-4740-4289-a22f-d3e7a54257b6","system_id":"levelo_inurba_marseille","lat":43.25325,"lon":5.42167,"is_reserved":false,"is_disabled":false,"rental_uris":{"android":"levelo://app?vid=6790413e-4740-4289-a22f-d3e7a54257b6","ios":"levelo://app?vid=6790413e-4740-4289-a22f-d3e7a54257b6"},"vehicle_type_id":"4","last_reported":1769854407,"current_range_meters":4000,"station_id":"st_d2m65c5bi1j21697t3ng","pricing_plan_id":"cebpf4jnsgd1na2vs0mg"},{"bike_id":"d2b10b4e-5b23-4814-bb8e-569783e171f6","system_id":"levelo_inurba_marseille","lat":43.29289,"lon":5.3684,"is_reserved":false,"is_disabled":false,"rental_uris":{"android":"levelo://app?vid=d2b10b4e-5b23-4814-bb8e-569783e171f6","ios":"levelo://app?vid=d2b10b4e-5b23-4814-bb8e-569783e171f6"},"vehicle_type_id":"4","last_reported":1769854407,"current_range_meters":4000,"station_id":"ce4bhbp2rcd13ifvqesg","pricing_plan_id":"cebpf4jnsgd1na2vs0mg"},{"bike_id":"21335747-3add-49bb-95b9-081d777d30db","system_id":"levelo_inurba_marseille","lat":43.23177,"lon":5.4,"is_reserved":false,"is_disabled":false,"rental_uris":{"android":"levelo://app?vid=21335747-3add-49bb-95b9-081d777d30db","ios":"levelo://app?vid=21335747-3add-49bb-95b9-081d777d30db"},"vehicle_type_id":"4","last_reported":1769854407,"current_range_meters":4000,"station_id":"ce4bhn12rcd13ifvqgqg","pricing_plan_id":"cebpf4jnsgd1na2vs0mg"},{"bike_id":"01ae4c1f-7e9d-4903-b2d9-5cacc271bfd5","system_id":"levelo_inurba_marseille","lat":43.28,"lon":5.41662,"is_reserved":false,"is_disabled":false,"rental_uris":{"android":"levelo://app?vid=01ae4c1f-7e9d-4903-b2d9-5cacc271bfd5","ios":"levelo://app?vid=01ae4c1f-7e9d-4903-b2d9-5cacc271bfd5"},"vehicle_type_id":"4","last_reported":1769854407,"current_range_meters":4000,"station_id":"ce4bho12rcd13ifvqh1g","pricing_plan_id":"cebpf4jnsgd1na2vs0mg"},{"bike_id":"e2701745-5106-4d39-a3d2-5f47763fb929","system_id":"levelo_inurba_marseille","lat":43.24632,"lon":5.43143,"is_reserved":false,"is_disabled":false,"rental_uris":{"android":"levelo://app?vid=e2701745-5106-4d39-a3d2-5f47763fb929","ios":"levelo://app?vid=e2701745-5106-4d39-a3d2-5f47763fb929"},"vehicle_type_id":"4","last_reported":1769854407,"current_range_meters":4000,"station_id":"st_d2m6c4gdas8pm72e190g","pricing_plan_id":"cebpf4jnsgd1na2vs0mg"},{"bike_id":"fc7805b3-2d32-4d08-980e-87ea833802ae","system_id":"levelo_inurba_marseille","lat":43.29181,"lon":5.35809,"is_reserved":false,"is_disabled":false,"rental_uris":{"android":"levelo://app?vid=fc7805b3-2d32-4d08-980e-87ea833802ae","ios":"levelo://app?vid=fc7805b3-2d32-4d08-980e-87ea833802ae"},"vehicle_type_id":"4","last_reported":1769854407,"current_range_meters":4000,"station_id":"ce4bhb12rcd13ifvqel0","pricing_plan_id":"cebpf4jnsgd1na2vs0mg"},{"bike_id":"552cacd7-acbb-47d3-8159-3f52b9bb22d1","system_id":"levelo_inurba_marseille","lat":43.30315,"lon":5.36907,"is_reserved":false,"is_disabled":false,"rental_uris":{"android":"levelo://app?vid=552cacd7-acbb-47d3-8159-3f52b9bb22d1","ios":"levelo://app?vid=552cacd7-acbb-47d3-8159-3f52b9bb22d1"},"vehicle_type_id":"4","last_reported":1769854407,"current_range_meters":4000,"station_id":"ce4bgqh2rcd13ifvqc5g","pricing_plan_id":"cebpf4jnsgd1na2vs0mg"},{"bike_id":"d3a387e5-9641-41a5-ac59-e6007a016061","system_id":"levelo_inurba_marseille","lat":43.28437,"lon":5.37527,"is_reserved":false,"is_disabled":false,"rental_uris":{"android":"levelo://app?vid=d3a387e5-9641-41a5-ac59-e6007a016061","ios":"levelo://app?vid=d3a387e5-9641-41a5-ac59-e6007a016061"},"vehicle_type_id":"4","last_reported":1769854407,"current_range_meters":4000,"station_id":"ce4bh412rcd13ifvqds0","pricing_plan_id":"cebpf4jnsgd1na2vs0mg"},{"bike_id":"858c22cf-3753-4705-9193-0549a86510c0","system_id":"levelo_inurba_marseille","lat":43.3094,"lon":5.40151,"is_reserved":false,"is_disabled":false,"rental_uris":{"android":"levelo://app?vid=858c22cf-3753-4705-9193-0549a86510c0","ios":"levelo://app?vid=858c22cf-3753-4705-9193-0549a86510c0"},"vehicle_type_id":"4","last_reported":1769854407,"current_range_meters":4400,"station_id":"ce4bgvp2rcd13ifvqct0","pricing_plan_id":"cebpf4jnsgd1na2vs0mg"},{"bike_id":"6f80a0c7-e6da-4e3f-a33d-84508ae903bc","system_id":"levelo_inurba_marseille","lat":43.24639,"lon":5.43145,"is_reserved":false,"is_disabled":false,"rental_uris":{"android":"levelo://app?vid=6f80a0c7-e6da-4e3f-a33d-84508ae903bc","ios":"levelo://app?vid=6f80a0c7-e6da-4e3f-a33d-84508ae903bc"},"vehicle_type_id":"4","last_reported":1769854407,"current_range_meters":4400,"station_id":"st_d2m6c4gdas8pm72e190g","pricing_plan_id":"cebpf4jnsgd1na2vs0mg"},{"bike_id":"29e4ce79-df32-4a16-836e-cd957aa9a131","system_id":"levelo_inurba_marseille","lat":43.24633,"lon":5.43142,"is_reserved":false,"is_disabled":false,"rental_uris":{"android":"levelo://app?vid=29e4ce79-df32-4a16-836e-cd957aa9a131","ios":"levelo://app?vid=29e4ce79-df32-4a16-836e-cd957aa9a131"},"vehicle_type_id":"4","last_reported":1769854407,"current_range_meters":4400,"station_id":"st_d2m6c4gdas8pm72e190g","pricing_plan_id":"cebpf4jnsgd1na2vs0mg"},{"bike_id":"d278f49b-79cb-49d4-9147-2a87ca70efd2","system_id":"levelo_inurba_marseille","lat":43.24657,"lon":5.38897,"is_reserved":false,"is_disabled":false,"rental_uris":{"android":"levelo://app?vid=d278f49b-79cb-49d4-9147-2a87ca70efd2","ios":"levelo://app?vid=d278f49b-79cb-49d4-9147-2a87ca70efd2"},"vehicle_type_id":"4","last_reported":1769854407,"current_range_meters":4400,"station_id":"ce4bhg12rcd13ifvqf60","pricing_plan_id":"cebpf4jnsgd1na2vs0mg"},{"bike_id":"65b759d9-e66a-4cc0-915d-2e8ad0441e0c","system_id":"levelo_inurba_marseille","lat":43.31154,"lon":5.386687,"is_reserved":false,"is_disabled":false,"rental_uris":{"android":"levelo://app?vid=65b759d9-e66a-4cc0-915d-2e8ad0441e0c","ios":"levelo://app?vid=65b759d9-e66a-4cc0-915d-2e8ad0441e0c"},"vehicle_type_id":"4","last_reported":1769854407,"current_range_meters":4400,"station_id":"ce4bgv12rcd13ifvqcp0","pricing_plan_id":"cebpf4jnsgd1na2vs0mg"},{"bike_id":"731e238e-bfad-467f-9314-1f052bbdff32","system_id":"levelo_inurba_marseille","lat":43.28336,"lon":5.38082,"is_reserved":false,"is_disabled":false,"rental_uris":{"android":"levelo://app?vid=731e238e-bfad-467f-9314-1f052bbdff32","ios":"levelo://app?vid=731e238e-bfad-467f-9314-1f052bbdff32"},"vehicle_type_id":"4","last_reported":1769854407,"current_range_meters":4800,"station_id":"ce4bh412rcd13ifvqdr0","pricing_plan_id":"cebpf4jnsgd1na2vs0mg"},{"bike_id":"a17ae85f-a892-4214-8aaf-fd1b437c624b","system_id":"levelo_inurba_marseille","lat":43.30256,"lon":5.40073,"is_reserved":false,"is_disabled":false,"rental_uris":{"android":"levelo://app?vid=a17ae85f-a892-4214-8aaf-fd1b437c624b","ios":"levelo://app?vid=a17ae85f-a892-4214-8aaf-fd1b437c624b"},"vehicle_type_id":"4","last_reported":1769854407,"current_range_meters":4800,"station_id":"ce4bgvh2rcd13ifvqcs0","pricing_plan_id":"cebpf4jnsgd1na2vs0mg"},{"bike_id":"ed49719e-ebdf-4e11-bee6-46418a0b21a1","system_id":"levelo_inurba_marseille","lat":43.25862,"lon":5.39906,"is_reserved":false,"is_disabled":false,"rental_uris":{"android":"levelo://app?vid=ed49719e-ebdf-4e11-bee6-46418a0b21a1","ios":"levelo://app?vid=ed49719e-ebdf-4e11-bee6-46418a0b21a1"},"vehicle_type_id":"4","last_reported":1769854407,"current_range_meters":4800,"station_id":"ce4bhl92rcd13ifvqghg","pricing_plan_id":"cebpf4jnsgd1na2vs0mg"},{"bike_id":"be59a1fa-fcbd-4f35-ac1f-ae4c97b5126c","system_id":"levelo_inurba_marseille","lat":43.21759,"lon":5.34635,"is_reserved":false,"is_disabled":false,"rental_uris":{"android":"levelo://app?vid=be59a1fa-fcbd-4f35-ac1f-ae4c97b5126c","ios":"levelo://app?vid=be59a1fa-fcbd-4f35-ac1f-ae4c97b5126c"},"vehicle_type_id":"4","last_reported":1769854407,"current_range_meters":4800,"station_id":"st_cvj6r9ubvosntc0bgbag","pricing_plan_id":"cebpf4jnsgd1na2vs0mg"},{"bike_id":"59c0b553-6c5b-457f-ae60-17bd575364f9","system_id":"levelo_inurba_marseille","lat":43.30219,"lon":5.39462,"is_reserved":false,"is_disabled":false,"rental_uris":{"android":"levelo://app?vid=59c0b553-6c5b-457f-ae60-17bd575364f9","ios":"levelo://app?vid=59c0b553-6c5b-457f-ae60-17bd575364f9"},"vehicle_type_id":"4","last_reported":1769854407,"current_range_meters":4800,"station_id":"ce4bh0p2rcd13ifvqd70","pricing_plan_id":"cebpf4jnsgd1na2vs0mg"},{"bike_id":"94842764-1da0-47c3-981d-a8a494b1c082","system_id":"levelo_inurba_marseille","lat":43.24628,"lon":5.38916,"is_reserved":false,"is_disabled":false,"rental_uris":{"android":"levelo://app?vid=94842764-1da0-47c3-981d-a8a494b1c082","ios":"levelo://app?vid=94842764-1da0-47c3-981d-a8a494b1c082"},"vehicle_type_id":"4","last_reported":1769854407,"current_range_meters":4800,"station_id":"ce4bhg12rcd13ifvqf60","pricing_plan_id":"cebpf4jnsgd1na2vs0mg"},{"bike_id":"67dde3a5-6719-400f-9754-ba07b063d126","system_id":"levelo_inurba_marseille","lat":43.22558,"lon":5.4163,"is_reserved":false,"is_disabled":false,"rental_uris":{"android":"levelo://app?vid=67dde3a5-6719-400f-9754-ba07b063d126","ios":"levelo://app?vid=67dde3a5-6719-400f-9754-ba07b063d126"},"vehicle_type_id":"4","last_reported":1769854407,"current_range_meters":5600,"station_id":"st_d2o4gvlbi1j2169b742g","pricing_plan_id":"cebpf4jnsgd1na2vs0mg"},{"bike_id":"c2029e8e-62e9-40bd-90c8-2d85b607b409","system_id":"levelo_inurba_marseille","lat":43.29756,"lon":5.42775,"is_reserved":false,"is_disabled":false,"rental_uris":{"android":"levelo://app?vid=c2029e8e-62e9-40bd-90c8-2d85b607b409","ios":"levelo://app?vid=c2029e8e-62e9-40bd-90c8-2d85b607b409"},"vehicle_type_id":"4","last_reported":1769854407,"current_range_meters":5600,"station_id":"st_d3md5207bmas73dh9klg","pricing_plan_id":"cebpf4jnsgd1na2vs0mg"},{"bike_id":"d6c0c260-1d77-47ce-9ca1-2efe8f514e43","system_id":"levelo_inurba_marseille","lat":43.28443,"lon":5.34987,"is_reserved":false,"is_disabled":false,"rental_uris":{"android":"levelo://app?vid=d6c0c260-1d77-47ce-9ca1-2efe8f514e43","ios":"levelo://app?vid=d6c0c260-1d77-47ce-9ca1-2efe8f514e43"},"vehicle_type_id":"4","last_reported":1769854407,"current_range_meters":5600,"station_id":"ce4bhbh2rcd13ifvqepg","pricing_plan_id":"cebpf4jnsgd1na2vs0mg"},{"bike_id":"3c07e8db-1d64-4b7a-879d-8b774c3d7e0c","system_id":"levelo_inurba_marseille","lat":43.27381,"lon":5.36262,"is_reserved":false,"is_disabled":false,"rental_uris":{"android":"levelo://app?vid=3c07e8db-1d64-4b7a-879d-8b774c3d7e0c","ios":"levelo://app?vid=3c07e8db-1d64-4b7a-879d-8b774c3d7e0c"},"vehicle_type_id":"4","last_reported":1769854407,"current_range_meters":5600,"station_id":"ce4bhbh2rcd13ifvqeo0","pricing_plan_id":"cebpf4jnsgd1na2vs0mg"},{"bike_id":"211e9f25-2d90-4b9b-a855-3b41a0e91060","system_id":"levelo_inurba_marseille","lat":43.27905,"lon":5.38011,"is_reserved":false,"is_disabled":false,"rental_uris":{"android":"levelo://app?vid=211e9f25-2d90-4b9b-a855-3b41a0e91060","ios":"levelo://app?vid=211e9f25-2d90-4b9b-a855-3b41a0e91060"},"vehicle_type_id":"4","last_reported":1769854407,"current_range_meters":5600,"station_id":"ce4bhf92rcd13ifvqf50","pricing_plan_id":"cebpf4jnsgd1na2vs0mg"},{"bike_id":"b1e78ffd-83b0-42c8-9fec-477ac6fbc93c","system_id":"levelo_inurba_marseille","lat":43.29494,"lon":5.4332,"is_reserved":false,"is_disabled":false,"rental_uris":{"android":"levelo://app?vid=b1e78ffd-83b0-42c8-9fec-477ac6fbc93c","ios":"levelo://app?vid=b1e78ffd-83b0-42c8-9fec-477ac6fbc93c"},"vehicle_type_id":"4","last_reported":1769854407,"current_range_meters":5600,"station_id":"st_d3j5ugp08ojc73fj9d10","pricing_plan_id":"cebpf4jnsgd1na2vs0mg"},{"bike_id":"7caa21b6-fb47-4219-b2dd-87543f21c3f6","system_id":"levelo_inurba_marseille","lat":43.29627,"lon":5.37738,"is_reserved":false,"is_disabled":false,"rental_uris":{"android":"levelo://app?vid=7caa21b6-fb47-4219-b2dd-87543f21c3f6","ios":"levelo://app?vid=7caa21b6-fb47-4219-b2dd-87543f21c3f6"},"vehicle_type_id":"4","last_reported":1769854407,"current_range_meters":5600,"station_id":"ce4bgi92rcd13ifvqb90","pricing_plan_id":"cebpf4jnsgd1na2vs0mg"},{"bike_id":"77edc80f-6c7c-4f24-93a5-13373281d52f","system_id":"levelo_inurba_marseille","lat":43.27821,"lon":5.40705,"is_reserved":false,"is_disabled":false,"rental_uris":{"android":"levelo://app?vid=77edc80f-6c7c-4f24-93a5-13373281d52f","ios":"levelo://app?vid=77edc80f-6c7c-4f24-93a5-13373281d52f"},"vehicle_type_id":"4","last_reported":1769854407,"current_range_meters":5600,"station_id":"ce4bhnh2rcd13ifvqgtg","pricing_plan_id":"cebpf4jnsgd1na2vs0mg"},{"bike_id":"fcb6a24a-52b1-488a-b1ff-28d7bd022f8d","system_id":"levelo_inurba_marseille","lat":43.28281,"lon":5.35068,"is_reserved":false,"is_disabled":true,"rental_uris":{"android":"levelo://app?vid=fcb6a24a-52b1-488a-b1ff-28d7bd022f8d","ios":"levelo://app?vid=fcb6a24a-52b1-488a-b1ff-28d7bd022f8d"},"vehicle_type_id":"4","last_reported":1769854407,"current_range_meters":5600,"station_id":"ce4bhbp2rcd13ifvqerg","pricing_plan_id":"cebpf4jnsgd1na2vs0mg"},{"bike_id":"a034a880-ac04-4c48-a941-5ec9e14fb0d1","system_id":"levelo_inurba_marseille","lat":43.28615,"lon":5.37065,"is_reserved":false,"is_disabled":false,"rental_uris":{"android":"levelo://app?vid=a034a880-ac04-4c48-a941-5ec9e14fb0d1","ios":"levelo://app?vid=a034a880-ac04-4c48-a941-5ec9e14fb0d1"},"vehicle_type_id":"4","last_reported":1769854407,"current_range_meters":5600,"station_id":"ce4bht12rcd13ifvqi60","pricing_plan_id":"cebpf4jnsgd1na2vs0mg"},{"bike_id":"9593aa81-6e4a-4f55-a647-c50b268fadcb","system_id":"levelo_inurba_marseille","lat":43.3128,"lon":5.40168,"is_reserved":false,"is_disabled":false,"rental_uris":{"android":"levelo://app?vid=9593aa81-6e4a-4f55-a647-c50b268fadcb","ios":"levelo://app?vid=9593aa81-6e4a-4f55-a647-c50b268fadcb"},"vehicle_type_id":"4","last_reported":1769854407,"current_range_meters":5600,"station_id":"ce4bh092rcd13ifvqd30","pricing_plan_id":"cebpf4jnsgd1na2vs0mg"},{"bike_id":"65c2d018-5db4-4b71-9059-ee26b3f148d1","system_id":"levelo_inurba_marseille","lat":43.24118,"lon":5.39844,"is_reserved":false,"is_disabled":false,"rental_uris":{"android":"levelo://app?vid=65c2d018-5db4-4b71-9059-ee26b3f148d1","ios":"levelo://app?vid=65c2d018-5db4-4b71-9059-ee26b3f148d1"},"vehicle_type_id":"4","last_reported":1769854407,"current_range_meters":5600,"station_id":"","pricing_plan_id":"cebpf4jnsgd1na2vs0mg"},{"bike_id":"b3808154-86af-47d0-966c-f1cc0984587d","system_id":"levelo_inurba_marseille","lat":43.33763,"lon":5.37565,"is_reserved":false,"is_disabled":false,"rental_uris":{"android":"levelo://app?vid=b3808154-86af-47d0-966c-f1cc0984587d","ios":"levelo://app?vid=b3808154-86af-47d0-966c-f1cc0984587d"},"vehicle_type_id":"4","last_reported":1769854407,"current_range_meters":5600,"station_id":"","pricing_plan_id":"cebpf4jnsgd1na2vs0mg"},{"bike_id":"f3d88390-51ff-4369-8a96-fce3337519db","system_id":"levelo_inurba_marseille","lat":43.30943,"lon":5.40159,"is_reserved":false,"is_disabled":false,"rental_uris":{"android":"levelo://app?vid=f3d88390-51ff-4369-8a96-fce3337519db","ios":"levelo://app?vid=f3d88390-51ff-4369-8a96-fce3337519db"},"vehicle_type_id":"4","last_reported":1769854407,"current_range_meters":6000,"station_id":"ce4bgvp2rcd13ifvqct0","pricing_plan_id":"cebpf4jnsgd1na2vs0mg"},{"bike_id":"7212c134-0bb1-4307-8053-dc66b6b70a1e","system_id":"levelo_inurba_marseille","lat":43.29756,"lon":5.42785,"is_reserved":false,"is_disabled":false,"rental_uris":{"android":"levelo://app?vid=7212c134-0bb1-4307-8053-dc66b6b70a1e","ios":"levelo://app?vid=7212c134-0bb1-4307-8053-dc66b6b70a1e"},"vehicle_type_id":"4","last_reported":1769854407,"current_range_meters":6000,"station_id":"st_d3md5207bmas73dh9klg","pricing_plan_id":"cebpf4jnsgd1na2vs0mg"},{"bike_id":"ac8aedf1-57cc-433c-802a-9a818a6c3a5b","system_id":"levelo_inurba_marseille","lat":43.29971,"lon":5.37164,"is_reserved":false,"is_disabled":false,"rental_uris":{"android":"levelo://app?vid=ac8aedf1-57cc-433c-802a-9a818a6c3a5b","ios":"levelo://app?vid=ac8aedf1-57cc-433c-802a-9a818a6c3a5b"},"vehicle_type_id":"4","last_reported":1769854407,"current_range_meters":6000,"station_id":"ce4bgr92rcd13ifvqc7g","pricing_plan_id":"cebpf4jnsgd1na2vs0mg"},{"bike_id":"d649bfea-6124-483e-8a11-d1a9d85a2f27","system_id":"levelo_inurba_marseille","lat":43.30107,"lon":5.3989,"is_reserved":false,"is_disabled":false,"rental_uris":{"android":"levelo://app?vid=d649bfea-6124-483e-8a11-d1a9d85a2f27","ios":"levelo://app?vid=d649bfea-6124-483e-8a11-d1a9d85a2f27"},"vehicle_type_id":"4","last_reported":1769854407,"current_range_meters":6000,"station_id":"ce4bh0h2rcd13ifvqd40","pricing_plan_id":"cebpf4jnsgd1na2vs0mg"},{"bike_id":"da9f4472-0bb8-4458-affe-8b93192b64a6","system_id":"levelo_inurba_marseille","lat":43.237867,"lon":5.36624,"is_reserved":false,"is_disabled":false,"rental_uris":{"android":"levelo://app?vid=da9f4472-0bb8-4458-affe-8b93192b64a6","ios":"levelo://app?vid=da9f4472-0bb8-4458-affe-8b93192b64a6"},"vehicle_type_id":"4","last_reported":1769854407,"current_range_meters":6000,"station_id":"st_d3nk18o9ro0c73en2l3g","pricing_plan_id":"cebpf4jnsgd1na2vs0mg"},{"bike_id":"1e768992-55e7-4d55-8893-f866fd6efb43","system_id":"levelo_inurba_marseille","lat":43.2658,"lon":5.40329,"is_reserved":false,"is_disabled":false,"rental_uris":{"android":"levelo://app?vid=1e768992-55e7-4d55-8893-f866fd6efb43","ios":"levelo://app?vid=1e768992-55e7-4d55-8893-f866fd6efb43"},"vehicle_type_id":"4","last_reported":1769854407,"current_range_meters":6000,"station_id":"ce4bhmp2rcd13ifvqgng","pricing_plan_id":"cebpf4jnsgd1na2vs0mg"},{"bike_id":"f8861002-c2d1-4382-86d1-5d946b173330","system_id":"levelo_inurba_marseille","lat":43.21752,"lon":5.34614,"is_reserved":false,"is_disabled":false,"rental_uris":{"android":"levelo://app?vid=f8861002-c2d1-4382-86d1-5d946b173330","ios":"levelo://app?vid=f8861002-c2d1-4382-86d1-5d946b173330"},"vehicle_type_id":"4","last_reported":1769854407,"current_range_meters":6000,"station_id":"st_cvj6r9ubvosntc0bgbag","pricing_plan_id":"cebpf4jnsgd1na2vs0mg"},{"bike_id":"7dfd9af7-42a2-4fcb-818c-1bb662998548","system_id":"levelo_inurba_marseille","lat":43.28487,"lon":5.38419,"is_reserved":false,"is_disabled":false,"rental_uris":{"android":"levelo://app?vid=7dfd9af7-42a2-4fcb-818c-1bb662998548","ios":"levelo://app?vid=7dfd9af7-42a2-4fcb-818c-1bb662998548"},"vehicle_type_id":"4","last_reported":1769854407,"current_range_meters":6000,"station_id":"ce4bh512rcd13ifvqe3g","pricing_plan_id":"cebpf4jnsgd1na2vs0mg"},{"bike_id":"facf5c8d-7adf-4b26-81c3-f2dd54937001","system_id":"levelo_inurba_marseille","lat":43.22542,"lon":5.34863,"is_reserved":false,"is_disabled":false,"rental_uris":{"android":"levelo://app?vid=facf5c8d-7adf-4b26-81c3-f2dd54937001","ios":"levelo://app?vid=facf5c8d-7adf-4b26-81c3-f2dd54937001"},"vehicle_type_id":"4","last_reported":1769854407,"current_range_meters":6000,"station_id":"st_cvj5dfep6f1abm77gieg","pricing_plan_id":"cebpf4jnsgd1na2vs0mg"},{"bike_id":"1ae2d96d-59b0-469c-b070-5c6aa648ad29","system_id":"levelo_inurba_marseille","lat":43.24168,"lon":5.36391,"is_reserved":false,"is_disabled":false,"rental_uris":{"android":"levelo://app?vid=1ae2d96d-59b0-469c-b070-5c6aa648ad29","ios":"levelo://app?vid=1ae2d96d-59b0-469c-b070-5c6aa648ad29"},"vehicle_type_id":"4","last_reported":1769854407,"current_range_meters":6000,"station_id":"cpo36qri1sfpv3e86is0","pricing_plan_id":"cebpf4jnsgd1na2vs0mg"},{"bike_id":"c3ffe16b-ef4f-438b-84a5-6957d02ea638","system_id":"levelo_inurba_marseille","lat":43.25518,"lon":5.37672,"is_reserved":false,"is_disabled":false,"rental_uris":{"android":"levelo://app?vid=c3ffe16b-ef4f-438b-84a5-6957d02ea638","ios":"levelo://app?vid=c3ffe16b-ef4f-438b-84a5-6957d02ea638"},"vehicle_type_id":"4","last_reported":1769854407,"current_range_meters":6000,"station_id":"ce4bhh12rcd13ifvqff0","pricing_plan_id":"cebpf4jnsgd1na2vs0mg"},{"bike_id":"7a8ce473-3e37-44c7-9224-ed6201a1eda2","system_id":"levelo_inurba_marseille","lat":43.30957,"lon":5.39028,"is_reserved":false,"is_disabled":false,"rental_uris":{"android":"levelo://app?vid=7a8ce473-3e37-44c7-9224-ed6201a1eda2","ios":"levelo://app?vid=7a8ce473-3e37-44c7-9224-ed6201a1eda2"},"vehicle_type_id":"4","last_reported":1769854407,"current_range_meters":6000,"station_id":"ce4bgup2rcd13ifvqco0","pricing_plan_id":"cebpf4jnsgd1na2vs0mg"},{"bike_id":"c37de069-0f1b-4017-8d5e-454b47a0f2e5","system_id":"levelo_inurba_marseille","lat":43.3149,"lon":5.37291,"is_reserved":false,"is_disabled":false,"rental_uris":{"android":"levelo://app?vid=c37de069-0f1b-4017-8d5e-454b47a0f2e5","ios":"levelo://app?vid=c37de069-0f1b-4017-8d5e-454b47a0f2e5"},"vehicle_type_id":"4","last_reported":1769854407,"current_range_meters":6000,"station_id":"ce4bgt12rcd13ifvqcd0","pricing_plan_id":"cebpf4jnsgd1na2vs0mg"},{"bike_id":"97cd5e3e-9242-4d1a-bf92-abba63d9cb46","system_id":"levelo_inurba_marseille","lat":43.28039,"lon":5.36952,"is_reserved":false,"is_disabled":false,"rental_uris":{"android":"levelo://app?vid=97cd5e3e-9242-4d1a-bf92-abba63d9cb46","ios":"levelo://app?vid=97cd5e3e-9242-4d1a-bf92-abba63d9cb46"},"vehicle_type_id":"4","last_reported":1769854407,"current_range_meters":6000,"station_id":"ce4bha12rcd13ifvqef0","pricing_plan_id":"cebpf4jnsgd1na2vs0mg"},{"bike_id":"b8538ea1-5c66-4a72-881d-32abab5c79f9","system_id":"levelo_inurba_marseille","lat":43.2417,"lon":5.39746,"is_reserved":false,"is_disabled":false,"rental_uris":{"android":"levelo://app?vid=b8538ea1-5c66-4a72-881d-32abab5c79f9","ios":"levelo://app?vid=b8538ea1-5c66-4a72-881d-32abab5c79f9"},"vehicle_type_id":"4","last_reported":1769854407,"current_range_meters":6400,"station_id":"ce4bhn12rcd13ifvqgpg","pricing_plan_id":"cebpf4jnsgd1na2vs0mg"},{"bike_id":"66c76971-021f-497e-8d79-ee99d65fdb67","system_id":"levelo_inurba_marseille","lat":43.25584,"lon":5.38237,"is_reserved":false,"is_disabled":false,"rental_uris":{"android":"levelo://app?vid=66c76971-021f-497e-8d79-ee99d65fdb67","ios":"levelo://app?vid=66c76971-021f-497e-8d79-ee99d65fdb67"},"vehicle_type_id":"4","last_reported":1769854407,"current_range_meters":6400,"station_id":"ce4bhih2rcd13ifvqfs0","pricing_plan_id":"cebpf4jnsgd1na2vs0mg"},{"bike_id":"5c02c740-d062-43f5-a278-ff43f9c12d0a","system_id":"levelo_inurba_marseille","lat":43.298007,"lon":5.381106,"is_reserved":false,"is_disabled":false,"rental_uris":{"android":"levelo://app?vid=5c02c740-d062-43f5-a278-ff43f9c12d0a","ios":"levelo://app?vid=5c02c740-d062-43f5-a278-ff43f9c12d0a"},"vehicle_type_id":"4","last_reported":1769854407,"current_range_meters":6400,"station_id":"ce4bgip2rcd13ifvqbb0","pricing_plan_id":"cebpf4jnsgd1na2vs0mg"},{"bike_id":"d15f9ce9-2618-40e2-ae9e-f494605d772d","system_id":"levelo_inurba_marseille","lat":43.29016,"lon":5.35603,"is_reserved":false,"is_disabled":false,"rental_uris":{"android":"levelo://app?vid=d15f9ce9-2618-40e2-ae9e-f494605d772d","ios":"levelo://app?vid=d15f9ce9-2618-40e2-ae9e-f494605d772d"},"vehicle_type_id":"4","last_reported":1769854407,"current_range_meters":6400,"station_id":"ce4bhb92rcd13ifvqen0","pricing_plan_id":"cebpf4jnsgd1na2vs0mg"},{"bike_id":"7c24d64e-9f53-4f19-8d01-cd838d6d3e9b","system_id":"levelo_inurba_marseille","lat":43.27976,"lon":5.3873,"is_reserved":false,"is_disabled":false,"rental_uris":{"android":"levelo://app?vid=7c24d64e-9f53-4f19-8d01-cd838d6d3e9b","ios":"levelo://app?vid=7c24d64e-9f53-4f19-8d01-cd838d6d3e9b"},"vehicle_type_id":"4","last_reported":1769854407,"current_range_meters":6400,"station_id":"ce4bhg12rcd13ifvqf80","pricing_plan_id":"cebpf4jnsgd1na2vs0mg"},{"bike_id":"674d0755-bda6-44bd-8dd4-47ceec1f93de","system_id":"levelo_inurba_marseille","lat":43.244653,"lon":5.425292,"is_reserved":false,"is_disabled":false,"rental_uris":{"android":"levelo://app?vid=674d0755-bda6-44bd-8dd4-47ceec1f93de","ios":"levelo://app?vid=674d0755-bda6-44bd-8dd4-47ceec1f93de"},"vehicle_type_id":"4","last_reported":1769854407,"current_range_meters":6400,"station_id":"st_d4a3vfp97mjs738cd8kg","pricing_plan_id":"cebpf4jnsgd1na2vs0mg"},{"bike_id":"d57877dd-bf49-46b8-a311-0229d9330d0c","system_id":"levelo_inurba_marseille","lat":43.30718,"lon":5.42447,"is_reserved":false,"is_disabled":false,"rental_uris":{"android":"levelo://app?vid=d57877dd-bf49-46b8-a311-0229d9330d0c","ios":"levelo://app?vid=d57877dd-bf49-46b8-a311-0229d9330d0c"},"vehicle_type_id":"4","last_reported":1769854407,"current_range_meters":6400,"station_id":"st_cvj6ca6bvosntc0bfgr0","pricing_plan_id":"cebpf4jnsgd1na2vs0mg"},{"bike_id":"ae885a91-9582-4ed2-b116-fe30671331bd","system_id":"levelo_inurba_marseille","lat":43.23792,"lon":5.36631,"is_reserved":false,"is_disabled":false,"rental_uris":{"android":"levelo://app?vid=ae885a91-9582-4ed2-b116-fe30671331bd","ios":"levelo://app?vid=ae885a91-9582-4ed2-b116-fe30671331bd"},"vehicle_type_id":"4","last_reported":1769854407,"current_range_meters":6400,"station_id":"st_d3nk18o9ro0c73en2l3g","pricing_plan_id":"cebpf4jnsgd1na2vs0mg"},{"bike_id":"7a94117d-4d1c-4caa-a409-a0186d2e707b","system_id":"levelo_inurba_marseille","lat":43.28703,"lon":5.37402,"is_reserved":false,"is_disabled":false,"rental_uris":{"android":"levelo://app?vid=7a94117d-4d1c-4caa-a409-a0186d2e707b","ios":"levelo://app?vid=7a94117d-4d1c-4caa-a409-a0186d2e707b"},"vehicle_type_id":"4","last_reported":1769854407,"current_range_meters":6400,"station_id":"ce4bh3p2rcd13ifvqdq0","pricing_plan_id":"cebpf4jnsgd1na2vs0mg"},{"bike_id":"b6b62251-5b29-4714-a9b4-a8044d239efa","system_id":"levelo_inurba_marseille","lat":43.31689,"lon":5.40469,"is_reserved":false,"is_disabled":false,"rental_uris":{"android":"levelo://app?vid=b6b62251-5b29-4714-a9b4-a8044d239efa","ios":"levelo://app?vid=b6b62251-5b29-4714-a9b4-a8044d239efa"},"vehicle_type_id":"4","last_reported":1769854407,"current_range_meters":6400,"station_id":"ce4bh012rcd13ifvqd00","pricing_plan_id":"cebpf4jnsgd1na2vs0mg"},{"bike_id":"786b3866-fceb-4656-a864-e739f5e6b692","system_id":"levelo_inurba_marseille","lat":43.23177,"lon":5.40001,"is_reserved":false,"is_disabled":false,"rental_uris":{"android":"levelo://app?vid=786b3866-fceb-4656-a864-e739f5e6b692","ios":"levelo://app?vid=786b3866-fceb-4656-a864-e739f5e6b692"},"vehicle_type_id":"4","last_reported":1769854407,"current_range_meters":6400,"station_id":"ce4bhn12rcd13ifvqgqg","pricing_plan_id":"cebpf4jnsgd1na2vs0mg"},{"bike_id":"575f8c18-e321-478a-b387-c15e51db30e6","system_id":"levelo_inurba_marseille","lat":43.28218,"lon":5.42465,"is_reserved":false,"is_disabled":false,"rental_uris":{"android":"levelo://app?vid=575f8c18-e321-478a-b387-c15e51db30e6","ios":"levelo://app?vid=575f8c18-e321-478a-b387-c15e51db30e6"},"vehicle_type_id":"4","last_reported":1769854407,"current_range_meters":6400,"station_id":"","pricing_plan_id":"cebpf4jnsgd1na2vs0mg"},{"bike_id":"9fdb4779-eb4b-44d5-9cd8-7d0acb8b42fe","system_id":"levelo_inurba_marseille","lat":43.27985,"lon":5.38752,"is_reserved":false,"is_disabled":false,"rental_uris":{"android":"levelo://app?vid=9fdb4779-eb4b-44d5-9cd8-7d0acb8b42fe","ios":"levelo://app?vid=9fdb4779-eb4b-44d5-9cd8-7d0acb8b42fe"},"vehicle_type_id":"4","last_reported":1769854407,"current_range_meters":6400,"station_id":"ce4bhg12rcd13ifvqf80","pricing_plan_id":"cebpf4jnsgd1na2vs0mg"},{"bike_id":"2118e989-9bd5-4208-aef3-62860e5c21cf","system_id":"levelo_inurba_marseille","lat":43.29782,"lon":5.37665,"is_reserved":false,"is_disabled":false,"rental_uris":{"android":"levelo://app?vid=2118e989-9bd5-4208-aef3-62860e5c21cf","ios":"levelo://app?vid=2118e989-9bd5-4208-aef3-62860e5c21cf"},"vehicle_type_id":"4","last_reported":1769854407,"current_range_meters":6400,"station_id":"","pricing_plan_id":"cebpf4jnsgd1na2vs0mg"},{"bike_id":"169e268b-5fcc-439a-85a8-5d0f835d65db","system_id":"levelo_inurba_marseille","lat":43.254873,"lon":5.376509,"is_reserved":false,"is_disabled":false,"rental_uris":{"android":"levelo://app?vid=169e268b-5fcc-439a-85a8-5d0f835d65db","ios":"levelo://app?vid=169e268b-5fcc-439a-85a8-5d0f835d65db"},"vehicle_type_id":"4","last_reported":1769854407,"current_range_meters":6800,"station_id":"ce4bhh12rcd13ifvqff0","pricing_plan_id":"cebpf4jnsgd1na2vs0mg"},{"bike_id":"e0529776-2176-417f-8dfc-c2549a882463","system_id":"levelo_inurba_marseille","lat":43.28122,"lon":5.37882,"is_reserved":false,"is_disabled":false,"rental_uris":{"android":"levelo://app?vid=e0529776-2176-417f-8dfc-c2549a882463","ios":"levelo://app?vid=e0529776-2176-417f-8dfc-c2549a882463"},"vehicle_type_id":"4","last_reported":1769854407,"current_range_meters":6800,"station_id":"ce4bha12rcd13ifvqee0","pricing_plan_id":"cebpf4jnsgd1na2vs0mg"},{"bike_id":"a633dcb8-69cc-416a-ac75-271c195c29ed","system_id":"levelo_inurba_marseille","lat":43.25511,"lon":5.37663,"is_reserved":false,"is_disabled":false,"rental_uris":{"android":"levelo://app?vid=a633dcb8-69cc-416a-ac75-271c195c29ed","ios":"levelo://app?vid=a633dcb8-69cc-416a-ac75-271c195c29ed"},"vehicle_type_id":"4","last_reported":1769854407,"current_range_meters":6800,"station_id":"ce4bhh12rcd13ifvqff0","pricing_plan_id":"cebpf4jnsgd1na2vs0mg"},{"bike_id":"e703e95b-29d0-45e1-801b-f3b45a83114a","system_id":"levelo_inurba_marseille","lat":43.29231,"lon":5.40007,"is_reserved":false,"is_disabled":false,"rental_uris":{"android":"levelo://app?vid=e703e95b-29d0-45e1-801b-f3b45a83114a","ios":"levelo://app?vid=e703e95b-29d0-45e1-801b-f3b45a83114a"},"vehicle_type_id":"4","last_reported":1769854407,"current_range_meters":6800,"station_id":"","pricing_plan_id":"cebpf4jnsgd1na2vs0mg"},{"bike_id":"45c91730-c6ec-4586-b340-005478ffdc84","system_id":"levelo_inurba_marseille","lat":43.29614,"lon":5.37725,"is_reserved":false,"is_disabled":true,"rental_uris":{"android":"levelo://app?vid=45c91730-c6ec-4586-b340-005478ffdc84","ios":"levelo://app?vid=45c91730-c6ec-4586-b340-005478ffdc84"},"vehicle_type_id":"4","last_reported":1769854407,"current_range_meters":6800,"station_id":"ce4bgi92rcd13ifvqb90","pricing_plan_id":"cebpf4jnsgd1na2vs0mg"},{"bike_id":"2946e9db-ff58-4a52-8078-31c354acf915","system_id":"levelo_inurba_marseille","lat":43.2471,"lon":5.38205,"is_reserved":false,"is_disabled":false,"rental_uris":{"android":"levelo://app?vid=2946e9db-ff58-4a52-8078-31c354acf915","ios":"levelo://app?vid=2946e9db-ff58-4a52-8078-31c354acf915"},"vehicle_type_id":"4","last_reported":1769854407,"current_range_meters":6800,"station_id":"ce4bhih2rcd13ifvqfr0","pricing_plan_id":"cebpf4jnsgd1na2vs0mg"},{"bike_id":"22fe4412-48fb-42b7-a8c1-976a9c196d7e","system_id":"levelo_inurba_marseille","lat":43.26564,"lon":5.40327,"is_reserved":false,"is_disabled":false,"rental_uris":{"android":"levelo://app?vid=22fe4412-48fb-42b7-a8c1-976a9c196d7e","ios":"levelo://app?vid=22fe4412-48fb-42b7-a8c1-976a9c196d7e"},"vehicle_type_id":"4","last_reported":1769854407,"current_range_meters":6800,"station_id":"ce4bhmp2rcd13ifvqgng","pricing_plan_id":"cebpf4jnsgd1na2vs0mg"},{"bike_id":"da430813-1e4c-4d0a-b07d-976b86d0c6c6","system_id":"levelo_inurba_marseille","lat":43.25338,"lon":5.42181,"is_reserved":false,"is_disabled":false,"rental_uris":{"android":"levelo://app?vid=da430813-1e4c-4d0a-b07d-976b86d0c6c6","ios":"levelo://app?vid=da430813-1e4c-4d0a-b07d-976b86d0c6c6"},"vehicle_type_id":"4","last_reported":1769854407,"current_range_meters":6800,"station_id":"st_d2m65c5bi1j21697t3ng","pricing_plan_id":"cebpf4jnsgd1na2vs0mg"},{"bike_id":"b98bcdfd-abd9-4de1-85fe-a3f97350d459","system_id":"levelo_inurba_marseille","lat":43.31715,"lon":5.42418,"is_reserved":false,"is_disabled":false,"rental_uris":{"android":"levelo://app?vid=b98bcdfd-abd9-4de1-85fe-a3f97350d459","ios":"levelo://app?vid=b98bcdfd-abd9-4de1-85fe-a3f97350d459"},"vehicle_type_id":"4","last_reported":1769854407,"current_range_meters":6800,"station_id":"ce4bhp92rcd13ifvqhbg","pricing_plan_id":"cebpf4jnsgd1na2vs0mg"},{"bike_id":"b96775b7-8954-4f94-990f-968813344c58","system_id":"levelo_inurba_marseille","lat":43.31291,"lon":5.37797,"is_reserved":false,"is_disabled":false,"rental_uris":{"android":"levelo://app?vid=b96775b7-8954-4f94-990f-968813344c58","ios":"levelo://app?vid=b96775b7-8954-4f94-990f-968813344c58"},"vehicle_type_id":"4","last_reported":1769854407,"current_range_meters":6800,"station_id":"","pricing_plan_id":"cebpf4jnsgd1na2vs0mg"},{"bike_id":"03f38bdc-71b1-4ff1-900c-7d1b7ef48fc4","system_id":"levelo_inurba_marseille","lat":43.30925,"lon":5.4015,"is_reserved":false,"is_disabled":false,"rental_uris":{"android":"levelo://app?vid=03f38bdc-71b1-4ff1-900c-7d1b7ef48fc4","ios":"levelo://app?vid=03f38bdc-71b1-4ff1-900c-7d1b7ef48fc4"},"vehicle_type_id":"4","last_reported":1769854407,"current_range_meters":6800,"station_id":"ce4bgvp2rcd13ifvqct0","pricing_plan_id":"cebpf4jnsgd1na2vs0mg"},{"bike_id":"b32a36ac-6d8c-4f94-8007-49ab8ab4f812","system_id":"levelo_inurba_marseille","lat":43.29888,"lon":5.4366,"is_reserved":false,"is_disabled":false,"rental_uris":{"android":"levelo://app?vid=b32a36ac-6d8c-4f94-8007-49ab8ab4f812","ios":"levelo://app?vid=b32a36ac-6d8c-4f94-8007-49ab8ab4f812"},"vehicle_type_id":"4","last_reported":1769854407,"current_range_meters":6800,"station_id":"ce4bhpp2rcd13ifvqhfg","pricing_plan_id":"cebpf4jnsgd1na2vs0mg"},{"bike_id":"55ede0b4-a6d5-41ec-83b3-959d121ebde5","system_id":"levelo_inurba_marseille","lat":43.31685,"lon":5.43682,"is_reserved":false,"is_disabled":false,"rental_uris":{"android":"levelo://app?vid=55ede0b4-a6d5-41ec-83b3-959d121ebde5","ios":"levelo://app?vid=55ede0b4-a6d5-41ec-83b3-959d121ebde5"},"vehicle_type_id":"4","last_reported":1769854407,"current_range_meters":6800,"station_id":"ce4bhp92rcd13ifvqhcg","pricing_plan_id":"cebpf4jnsgd1na2vs0mg"},{"bike_id":"d0f0a797-6459-4f9d-ad91-61257735c0b0","system_id":"levelo_inurba_marseille","lat":43.28404,"lon":5.37515,"is_reserved":false,"is_disabled":false,"rental_uris":{"android":"levelo://app?vid=d0f0a797-6459-4f9d-ad91-61257735c0b0","ios":"levelo://app?vid=d0f0a797-6459-4f9d-ad91-61257735c0b0"},"vehicle_type_id":"4","last_reported":1769854407,"current_range_meters":7200,"station_id":"ce4bh412rcd13ifvqds0","pricing_plan_id":"cebpf4jnsgd1na2vs0mg"},{"bike_id":"a10fd5ac-f488-49bb-9865-a9b9fcb4d879","system_id":"levelo_inurba_marseille","lat":43.32386,"lon":5.37438,"is_reserved":false,"is_disabled":false,"rental_uris":{"android":"levelo://app?vid=a10fd5ac-f488-49bb-9865-a9b9fcb4d879","ios":"levelo://app?vid=a10fd5ac-f488-49bb-9865-a9b9fcb4d879"},"vehicle_type_id":"4","last_reported":1769854407,"current_range_meters":7200,"station_id":"","pricing_plan_id":"cebpf4jnsgd1na2vs0mg"},{"bike_id":"f99c0e56-a861-4817-a5cc-7aa9138a394f","system_id":"levelo_inurba_marseille","lat":43.27068,"lon":5.38309,"is_reserved":false,"is_disabled":false,"rental_uris":{"android":"levelo://app?vid=f99c0e56-a861-4817-a5cc-7aa9138a394f","ios":"levelo://app?vid=f99c0e56-a861-4817-a5cc-7aa9138a394f"},"vehicle_type_id":"4","last_reported":1769854407,"current_range_meters":7200,"station_id":"st_d3n2fo6cfp8s73cte1j0","pricing_plan_id":"cebpf4jnsgd1na2vs0mg"},{"bike_id":"1e90baaf-a279-49a5-a0ef-29d1b388956c","system_id":"levelo_inurba_marseille","lat":43.29521,"lon":5.39392,"is_reserved":false,"is_disabled":false,"rental_uris":{"android":"levelo://app?vid=1e90baaf-a279-49a5-a0ef-29d1b388956c","ios":"levelo://app?vid=1e90baaf-a279-49a5-a0ef-29d1b388956c"},"vehicle_type_id":"4","last_reported":1769854407,"current_range_meters":7200,"station_id":"ce4bh292rcd13ifvqdf0","pricing_plan_id":"cebpf4jnsgd1na2vs0mg"},{"bike_id":"48ee4c30-bfab-466c-97f4-c400e6761a90","system_id":"levelo_inurba_marseille","lat":43.31177,"lon":5.38732,"is_reserved":false,"is_disabled":false,"rental_uris":{"android":"levelo://app?vid=48ee4c30-bfab-466c-97f4-c400e6761a90","ios":"levelo://app?vid=48ee4c30-bfab-466c-97f4-c400e6761a90"},"vehicle_type_id":"4","last_reported":1769854407,"current_range_meters":7200,"station_id":"ce4bgv12rcd13ifvqcp0","pricing_plan_id":"cebpf4jnsgd1na2vs0mg"},{"bike_id":"55e12a44-5227-40a5-8cea-0722c92ca3fa","system_id":"levelo_inurba_marseille","lat":43.28611,"lon":5.35106,"is_reserved":false,"is_disabled":false,"rental_uris":{"android":"levelo://app?vid=55e12a44-5227-40a5-8cea-0722c92ca3fa","ios":"levelo://app?vid=55e12a44-5227-40a5-8cea-0722c92ca3fa"},"vehicle_type_id":"4","last_reported":1769854407,"current_range_meters":7200,"station_id":"ce4bhch2rcd13ifvqeug","pricing_plan_id":"cebpf4jnsgd1na2vs0mg"},{"bike_id":"9ea50bad-0329-4ce7-bb1b-0c14d81fc6e4","system_id":"levelo_inurba_marseille","lat":43.24632,"lon":5.43135,"is_reserved":false,"is_disabled":false,"rental_uris":{"android":"levelo://app?vid=9ea50bad-0329-4ce7-bb1b-0c14d81fc6e4","ios":"levelo://app?vid=9ea50bad-0329-4ce7-bb1b-0c14d81fc6e4"},"vehicle_type_id":"4","last_reported":1769854407,"current_range_meters":7200,"station_id":"st_d2m6c4gdas8pm72e190g","pricing_plan_id":"cebpf4jnsgd1na2vs0mg"},{"bike_id":"90717d58-a322-438b-926d-ee255aa382bf","system_id":"levelo_inurba_marseille","lat":43.23812,"lon":5.3662,"is_reserved":false,"is_disabled":false,"rental_uris":{"android":"levelo://app?vid=90717d58-a322-438b-926d-ee255aa382bf","ios":"levelo://app?vid=90717d58-a322-438b-926d-ee255aa382bf"},"vehicle_type_id":"4","last_reported":1769854407,"current_range_meters":7200,"station_id":"st_d3nk18o9ro0c73en2l3g","pricing_plan_id":"cebpf4jnsgd1na2vs0mg"},{"bike_id":"51487434-2c5b-44ec-b6f1-b2d802fd5baf","system_id":"levelo_inurba_marseille","lat":43.295842,"lon":5.367472,"is_reserved":false,"is_disabled":false,"rental_uris":{"android":"levelo://app?vid=51487434-2c5b-44ec-b6f1-b2d802fd5baf","ios":"levelo://app?vid=51487434-2c5b-44ec-b6f1-b2d802fd5baf"},"vehicle_type_id":"4","last_reported":1769854407,"current_range_meters":7200,"station_id":"ce4bgph2rcd13ifvqc2g","pricing_plan_id":"cebpf4jnsgd1na2vs0mg"},{"bike_id":"69bd550d-bae4-47b4-8ea1-fdf2613d9cd6","system_id":"levelo_inurba_marseille","lat":43.23962,"lon":5.36635,"is_reserved":false,"is_disabled":false,"rental_uris":{"android":"levelo://app?vid=69bd550d-bae4-47b4-8ea1-fdf2613d9cd6","ios":"levelo://app?vid=69bd550d-bae4-47b4-8ea1-fdf2613d9cd6"},"vehicle_type_id":"4","last_reported":1769854407,"current_range_meters":7200,"station_id":"ce4bhi12rcd13ifvqfp0","pricing_plan_id":"cebpf4jnsgd1na2vs0mg"},{"bike_id":"376de313-a176-455c-9327-1c0fa1c293d3","system_id":"levelo_inurba_marseille","lat":43.2962,"lon":5.38156,"is_reserved":false,"is_disabled":true,"rental_uris":{"android":"levelo://app?vid=376de313-a176-455c-9327-1c0fa1c293d3","ios":"levelo://app?vid=376de313-a176-455c-9327-1c0fa1c293d3"},"vehicle_type_id":"4","last_reported":1769854407,"current_range_meters":7200,"station_id":"ce4bgl12rcd13ifvqbo0","pricing_plan_id":"cebpf4jnsgd1na2vs0mg"},{"bike_id":"f955b312-f85f-4776-bb87-c1f9bceb8274","system_id":"levelo_inurba_marseille","lat":43.22555,"lon":5.41633,"is_reserved":false,"is_disabled":false,"rental_uris":{"android":"levelo://app?vid=f955b312-f85f-4776-bb87-c1f9bceb8274","ios":"levelo://app?vid=f955b312-f85f-4776-bb87-c1f9bceb8274"},"vehicle_type_id":"4","last_reported":1769854407,"current_range_meters":7200,"station_id":"st_d2o4gvlbi1j2169b742g","pricing_plan_id":"cebpf4jnsgd1na2vs0mg"},{"bike_id":"8d188f9d-fdcb-410f-afd4-c72876609968","system_id":"levelo_inurba_marseille","lat":43.2465,"lon":5.38893,"is_reserved":false,"is_disabled":false,"rental_uris":{"android":"levelo://app?vid=8d188f9d-fdcb-410f-afd4-c72876609968","ios":"levelo://app?vid=8d188f9d-fdcb-410f-afd4-c72876609968"},"vehicle_type_id":"4","last_reported":1769854407,"current_range_meters":7200,"station_id":"ce4bhg12rcd13ifvqf60","pricing_plan_id":"cebpf4jnsgd1na2vs0mg"},{"bike_id":"f54d91cc-02fb-42c8-8e78-476b293d5e51","system_id":"levelo_inurba_marseille","lat":43.31275,"lon":5.40171,"is_reserved":false,"is_disabled":false,"rental_uris":{"android":"levelo://app?vid=f54d91cc-02fb-42c8-8e78-476b293d5e51","ios":"levelo://app?vid=f54d91cc-02fb-42c8-8e78-476b293d5e51"},"vehicle_type_id":"4","last_reported":1769854407,"current_range_meters":7200,"station_id":"ce4bh092rcd13ifvqd30","pricing_plan_id":"cebpf4jnsgd1na2vs0mg"},{"bike_id":"cc62b86c-c8ea-46fc-a809-28e8d6a9bed3","system_id":"levelo_inurba_marseille","lat":43.29947,"lon":5.36548,"is_reserved":false,"is_disabled":false,"rental_uris":{"android":"levelo://app?vid=cc62b86c-c8ea-46fc-a809-28e8d6a9bed3","ios":"levelo://app?vid=cc62b86c-c8ea-46fc-a809-28e8d6a9bed3"},"vehicle_type_id":"4","last_reported":1769854407,"current_range_meters":7200,"station_id":"ce4bgm92rcd13ifvqbr0","pricing_plan_id":"cebpf4jnsgd1na2vs0mg"},{"bike_id":"4561b101-df9b-4a07-8c08-785ae7c91c29","system_id":"levelo_inurba_marseille","lat":43.30032,"lon":5.3838,"is_reserved":false,"is_disabled":false,"rental_uris":{"android":"levelo://app?vid=4561b101-df9b-4a07-8c08-785ae7c91c29","ios":"levelo://app?vid=4561b101-df9b-4a07-8c08-785ae7c91c29"},"vehicle_type_id":"4","last_reported":1769854407,"current_range_meters":7200,"station_id":"","pricing_plan_id":"cebpf4jnsgd1na2vs0mg"},{"bike_id":"542c4194-0cbb-46a2-81b1-a944e64c63f6","system_id":"levelo_inurba_marseille","lat":43.27188,"lon":5.40999,"is_reserved":false,"is_disabled":false,"rental_uris":{"android":"levelo://app?vid=542c4194-0cbb-46a2-81b1-a944e64c63f6","ios":"levelo://app?vid=542c4194-0cbb-46a2-81b1-a944e64c63f6"},"vehicle_type_id":"4","last_reported":1769854407,"current_range_meters":7200,"station_id":"ce4bhl12rcd13ifvqgf0","pricing_plan_id":"cebpf4jnsgd1na2vs0mg"},{"bike_id":"f86b395c-f97a-4792-a517-fbf066695753","system_id":"levelo_inurba_marseille","lat":43.23188,"lon":5.35554,"is_reserved":false,"is_disabled":false,"rental_uris":{"android":"levelo://app?vid=f86b395c-f97a-4792-a517-fbf066695753","ios":"levelo://app?vid=f86b395c-f97a-4792-a517-fbf066695753"},"vehicle_type_id":"4","last_reported":1769854407,"current_range_meters":7200,"station_id":"ce4bhu92rcd13ifvqi70","pricing_plan_id":"cebpf4jnsgd1na2vs0mg"},{"bike_id":"47aca4e5-0835-413c-8990-f52b446067b8","system_id":"levelo_inurba_marseille","lat":43.30883,"lon":5.39689,"is_reserved":false,"is_disabled":false,"rental_uris":{"android":"levelo://app?vid=47aca4e5-0835-413c-8990-f52b446067b8","ios":"levelo://app?vid=47aca4e5-0835-413c-8990-f52b446067b8"},"vehicle_type_id":"4","last_reported":1769854407,"current_range_meters":7200,"station_id":"ce4bh012rcd13ifvqcv0","pricing_plan_id":"cebpf4jnsgd1na2vs0mg"},{"bike_id":"24463bdf-362a-44c7-a065-1582958089af","system_id":"levelo_inurba_marseille","lat":43.30205,"lon":5.39465,"is_reserved":false,"is_disabled":false,"rental_uris":{"android":"levelo://app?vid=24463bdf-362a-44c7-a065-1582958089af","ios":"levelo://app?vid=24463bdf-362a-44c7-a065-1582958089af"},"vehicle_type_id":"4","last_reported":1769854407,"current_range_meters":7200,"station_id":"ce4bh0p2rcd13ifvqd70","pricing_plan_id":"cebpf4jnsgd1na2vs0mg"},{"bike_id":"1e6e9fcd-377f-4a83-a467-d5b81de873c8","system_id":"levelo_inurba_marseille","lat":43.28181,"lon":5.39042,"is_reserved":false,"is_disabled":false,"rental_uris":{"android":"levelo://app?vid=1e6e9fcd-377f-4a83-a467-d5b81de873c8","ios":"levelo://app?vid=1e6e9fcd-377f-4a83-a467-d5b81de873c8"},"vehicle_type_id":"4","last_reported":1769854407,"current_range_meters":8000,"station_id":"","pricing_plan_id":"cebpf4jnsgd1na2vs0mg"},{"bike_id":"667f7189-0ff0-4468-a821-96f30d95245d","system_id":"levelo_inurba_marseille","lat":43.29893,"lon":5.43667,"is_reserved":false,"is_disabled":false,"rental_uris":{"android":"levelo://app?vid=667f7189-0ff0-4468-a821-96f30d95245d","ios":"levelo://app?vid=667f7189-0ff0-4468-a821-96f30d95245d"},"vehicle_type_id":"4","last_reported":1769854407,"current_range_meters":8000,"station_id":"ce4bhpp2rcd13ifvqhfg","pricing_plan_id":"cebpf4jnsgd1na2vs0mg"},{"bike_id":"c0661598-7b02-4f74-996b-1e8ac5af9166","system_id":"levelo_inurba_marseille","lat":43.30957,"lon":5.39058,"is_reserved":false,"is_disabled":false,"rental_uris":{"android":"levelo://app?vid=c0661598-7b02-4f74-996b-1e8ac5af9166","ios":"levelo://app?vid=c0661598-7b02-4f74-996b-1e8ac5af9166"},"vehicle_type_id":"4","last_reported":1769854407,"current_range_meters":8000,"station_id":"ce4bgup2rcd13ifvqco0","pricing_plan_id":"cebpf4jnsgd1na2vs0mg"},{"bike_id":"df9f5575-2587-46c4-b066-e09d37de9822","system_id":"levelo_inurba_marseille","lat":43.260321,"lon":5.375492,"is_reserved":false,"is_disabled":false,"rental_uris":{"android":"levelo://app?vid=df9f5575-2587-46c4-b066-e09d37de9822","ios":"levelo://app?vid=df9f5575-2587-46c4-b066-e09d37de9822"},"vehicle_type_id":"4","last_reported":1769854407,"current_range_meters":8000,"station_id":"","pricing_plan_id":"cebpf4jnsgd1na2vs0mg"},{"bike_id":"f2ded384-45dd-4744-b407-263b9f9ddda5","system_id":"levelo_inurba_marseille","lat":43.25482,"lon":5.37654,"is_reserved":false,"is_disabled":false,"rental_uris":{"android":"levelo://app?vid=f2ded384-45dd-4744-b407-263b9f9ddda5","ios":"levelo://app?vid=f2ded384-45dd-4744-b407-263b9f9ddda5"},"vehicle_type_id":"4","last_reported":1769854407,"current_range_meters":8000,"station_id":"ce4bhh12rcd13ifvqff0","pricing_plan_id":"cebpf4jnsgd1na2vs0mg"},{"bike_id":"7a4412cf-c498-4121-be46-049419c026d4","system_id":"levelo_inurba_marseille","lat":43.27945,"lon":5.41038,"is_reserved":false,"is_disabled":false,"rental_uris":{"android":"levelo://app?vid=7a4412cf-c498-4121-be46-049419c026d4","ios":"levelo://app?vid=7a4412cf-c498-4121-be46-049419c026d4"},"vehicle_type_id":"4","last_reported":1769854407,"current_range_meters":8000,"station_id":"ce4bhnp2rcd13ifvqh0g","pricing_plan_id":"cebpf4jnsgd1na2vs0mg"},{"bike_id":"880586ef-6fbd-48f3-a326-6ebac57e39cd","system_id":"levelo_inurba_marseille","lat":43.25547,"lon":5.37661,"is_reserved":false,"is_disabled":false,"rental_uris":{"android":"levelo://app?vid=880586ef-6fbd-48f3-a326-6ebac57e39cd","ios":"levelo://app?vid=880586ef-6fbd-48f3-a326-6ebac57e39cd"},"vehicle_type_id":"4","last_reported":1769854407,"current_range_meters":8000,"station_id":"","pricing_plan_id":"cebpf4jnsgd1na2vs0mg"},{"bike_id":"61a1d71a-24c0-40e4-a49a-4194d94c35a6","system_id":"levelo_inurba_marseille","lat":43.24941,"lon":5.40493,"is_reserved":false,"is_disabled":false,"rental_uris":{"android":"levelo://app?vid=61a1d71a-24c0-40e4-a49a-4194d94c35a6","ios":"levelo://app?vid=61a1d71a-24c0-40e4-a49a-4194d94c35a6"},"vehicle_type_id":"4","last_reported":1769854407,"current_range_meters":8000,"station_id":"st_d2ngiaodas8pm72gd1h0","pricing_plan_id":"cebpf4jnsgd1na2vs0mg"},{"bike_id":"6259a571-4c97-41bc-9e30-1f15710670c6","system_id":"levelo_inurba_marseille","lat":43.24704,"lon":5.40126,"is_reserved":false,"is_disabled":false,"rental_uris":{"android":"levelo://app?vid=6259a571-4c97-41bc-9e30-1f15710670c6","ios":"levelo://app?vid=6259a571-4c97-41bc-9e30-1f15710670c6"},"vehicle_type_id":"4","last_reported":1769854407,"current_range_meters":8000,"station_id":"","pricing_plan_id":"cebpf4jnsgd1na2vs0mg"},{"bike_id":"52e1ca75-89ad-4ddf-af27-50f5287c714d","system_id":"levelo_inurba_marseille","lat":43.24667,"lon":5.38137,"is_reserved":false,"is_disabled":true,"rental_uris":{"android":"levelo://app?vid=52e1ca75-89ad-4ddf-af27-50f5287c714d","ios":"levelo://app?vid=52e1ca75-89ad-4ddf-af27-50f5287c714d"},"vehicle_type_id":"4","last_reported":1769854407,"current_range_meters":8000,"station_id":"ce4bhih2rcd13ifvqfr0","pricing_plan_id":"cebpf4jnsgd1na2vs0mg"},{"bike_id":"0e04e9c5-b4f0-4cdb-beb2-46317c8e77e0","system_id":"levelo_inurba_marseille","lat":43.21752,"lon":5.34613,"is_reserved":false,"is_disabled":false,"rental_uris":{"android":"levelo://app?vid=0e04e9c5-b4f0-4cdb-beb2-46317c8e77e0","ios":"levelo://app?vid=0e04e9c5-b4f0-4cdb-beb2-46317c8e77e0"},"vehicle_type_id":"4","last_reported":1769854407,"current_range_meters":8000,"station_id":"st_cvj6r9ubvosntc0bgbag","pricing_plan_id":"cebpf4jnsgd1na2vs0mg"},{"bike_id":"675f8c0a-2226-4a9b-8f9b-7a427c78bee1","system_id":"levelo_inurba_marseille","lat":43.26551,"lon":5.37292,"is_reserved":false,"is_disabled":false,"rental_uris":{"android":"levelo://app?vid=675f8c0a-2226-4a9b-8f9b-7a427c78bee1","ios":"levelo://app?vid=675f8c0a-2226-4a9b-8f9b-7a427c78bee1"},"vehicle_type_id":"4","last_reported":1769854407,"current_range_meters":8000,"station_id":"ce4bhg12rcd13ifvqf70","pricing_plan_id":"cebpf4jnsgd1na2vs0mg"},{"bike_id":"7797dc2d-6e0b-483a-8264-6f6e91d913f9","system_id":"levelo_inurba_marseille","lat":43.28488,"lon":5.38457,"is_reserved":false,"is_disabled":false,"rental_uris":{"android":"levelo://app?vid=7797dc2d-6e0b-483a-8264-6f6e91d913f9","ios":"levelo://app?vid=7797dc2d-6e0b-483a-8264-6f6e91d913f9"},"vehicle_type_id":"4","last_reported":1769854407,"current_range_meters":8000,"station_id":"ce4bh512rcd13ifvqe3g","pricing_plan_id":"cebpf4jnsgd1na2vs0mg"},{"bike_id":"43d114c1-ce92-4eb6-96a8-5287302b3206","system_id":"levelo_inurba_marseille","lat":43.30887,"lon":5.39637,"is_reserved":false,"is_disabled":false,"rental_uris":{"android":"levelo://app?vid=43d114c1-ce92-4eb6-96a8-5287302b3206","ios":"levelo://app?vid=43d114c1-ce92-4eb6-96a8-5287302b3206"},"vehicle_type_id":"4","last_reported":1769854407,"current_range_meters":8000,"station_id":"ce4bh012rcd13ifvqcv0","pricing_plan_id":"cebpf4jnsgd1na2vs0mg"},{"bike_id":"a2a4030c-e148-4e96-bc59-1f28a1bed72b","system_id":"levelo_inurba_marseille","lat":43.32354,"lon":5.36768,"is_reserved":false,"is_disabled":false,"rental_uris":{"android":"levelo://app?vid=a2a4030c-e148-4e96-bc59-1f28a1bed72b","ios":"levelo://app?vid=a2a4030c-e148-4e96-bc59-1f28a1bed72b"},"vehicle_type_id":"4","last_reported":1769854407,"current_range_meters":8000,"station_id":"ce4bhsh2rcd13ifvqi2g","pricing_plan_id":"cebpf4jnsgd1na2vs0mg"},{"bike_id":"4488b7bd-2de4-4a30-8400-e60c2d945a3c","system_id":"levelo_inurba_marseille","lat":43.29828,"lon":5.44064,"is_reserved":false,"is_disabled":false,"rental_uris":{"android":"levelo://app?vid=4488b7bd-2de4-4a30-8400-e60c2d945a3c","ios":"levelo://app?vid=4488b7bd-2de4-4a30-8400-e60c2d945a3c"},"vehicle_type_id":"4","last_reported":1769854407,"current_range_meters":8000,"station_id":"st_d3jp68qikq2c7381ktn0","pricing_plan_id":"cebpf4jnsgd1na2vs0mg"},{"bike_id":"47160302-5feb-47ec-ab2c-68bb484bc9bb","system_id":"levelo_inurba_marseille","lat":43.3009,"lon":5.39091,"is_reserved":false,"is_disabled":false,"rental_uris":{"android":"levelo://app?vid=47160302-5feb-47ec-ab2c-68bb484bc9bb","ios":"levelo://app?vid=47160302-5feb-47ec-ab2c-68bb484bc9bb"},"vehicle_type_id":"4","last_reported":1769854407,"current_range_meters":8000,"station_id":"ce4bh192rcd13ifvqdb0","pricing_plan_id":"cebpf4jnsgd1na2vs0mg"},{"bike_id":"eae001be-3b34-469f-b5f5-7615da95a4ed","system_id":"levelo_inurba_marseille","lat":43.27829,"lon":5.40713,"is_reserved":false,"is_disabled":false,"rental_uris":{"android":"levelo://app?vid=eae001be-3b34-469f-b5f5-7615da95a4ed","ios":"levelo://app?vid=eae001be-3b34-469f-b5f5-7615da95a4ed"},"vehicle_type_id":"4","last_reported":1769854407,"current_range_meters":8400,"station_id":"ce4bhnh2rcd13ifvqgtg","pricing_plan_id":"cebpf4jnsgd1na2vs0mg"},{"bike_id":"9c6c1942-6de8-42b0-9c07-c98d9ef8b80f","system_id":"levelo_inurba_marseille","lat":43.30883,"lon":5.37781,"is_reserved":false,"is_disabled":false,"rental_uris":{"android":"levelo://app?vid=9c6c1942-6de8-42b0-9c07-c98d9ef8b80f","ios":"levelo://app?vid=9c6c1942-6de8-42b0-9c07-c98d9ef8b80f"},"vehicle_type_id":"4","last_reported":1769854407,"current_range_meters":8400,"station_id":"","pricing_plan_id":"cebpf4jnsgd1na2vs0mg"},{"bike_id":"9378c7cb-4c3a-475f-ba28-80a4781f7ffa","system_id":"levelo_inurba_marseille","lat":43.29754,"lon":5.42762,"is_reserved":false,"is_disabled":false,"rental_uris":{"android":"levelo://app?vid=9378c7cb-4c3a-475f-ba28-80a4781f7ffa","ios":"levelo://app?vid=9378c7cb-4c3a-475f-ba28-80a4781f7ffa"},"vehicle_type_id":"4","last_reported":1769854407,"current_range_meters":8400,"station_id":"st_d3md5207bmas73dh9klg","pricing_plan_id":"cebpf4jnsgd1na2vs0mg"},{"bike_id":"6428cb59-a780-4c4c-9be8-bd1aa2dc54c3","system_id":"levelo_inurba_marseille","lat":43.2495,"lon":5.4051,"is_reserved":false,"is_disabled":false,"rental_uris":{"android":"levelo://app?vid=6428cb59-a780-4c4c-9be8-bd1aa2dc54c3","ios":"levelo://app?vid=6428cb59-a780-4c4c-9be8-bd1aa2dc54c3"},"vehicle_type_id":"4","last_reported":1769854407,"current_range_meters":8400,"station_id":"st_d2ngiaodas8pm72gd1h0","pricing_plan_id":"cebpf4jnsgd1na2vs0mg"},{"bike_id":"5e2bbd4f-e28d-4d2e-b0e8-7260ab05f1a3","system_id":"levelo_inurba_marseille","lat":43.30926,"lon":5.40149,"is_reserved":false,"is_disabled":false,"rental_uris":{"android":"levelo://app?vid=5e2bbd4f-e28d-4d2e-b0e8-7260ab05f1a3","ios":"levelo://app?vid=5e2bbd4f-e28d-4d2e-b0e8-7260ab05f1a3"},"vehicle_type_id":"4","last_reported":1769854407,"current_range_meters":8400,"station_id":"ce4bgvp2rcd13ifvqct0","pricing_plan_id":"cebpf4jnsgd1na2vs0mg"},{"bike_id":"318133aa-3b05-4452-b847-cf5a32021652","system_id":"levelo_inurba_marseille","lat":43.25108,"lon":5.39527,"is_reserved":false,"is_disabled":false,"rental_uris":{"android":"levelo://app?vid=318133aa-3b05-4452-b847-cf5a32021652","ios":"levelo://app?vid=318133aa-3b05-4452-b847-cf5a32021652"},"vehicle_type_id":"4","last_reported":1769854407,"current_range_meters":8400,"station_id":"ce4bhm12rcd13ifvqgkg","pricing_plan_id":"cebpf4jnsgd1na2vs0mg"},{"bike_id":"12627c5d-8846-4400-b3bd-f9b0d5b46283","system_id":"levelo_inurba_marseille","lat":43.28343,"lon":5.38643,"is_reserved":false,"is_disabled":false,"rental_uris":{"android":"levelo://app?vid=12627c5d-8846-4400-b3bd-f9b0d5b46283","ios":"levelo://app?vid=12627c5d-8846-4400-b3bd-f9b0d5b46283"},"vehicle_type_id":"4","last_reported":1769854407,"current_range_meters":8400,"station_id":"ce4bh492rcd13ifvqdvg","pricing_plan_id":"cebpf4jnsgd1na2vs0mg"},{"bike_id":"95ac808f-34d3-47f6-aaa1-0c3f02fd5e1f","system_id":"levelo_inurba_marseille","lat":43.22565,"lon":5.41633,"is_reserved":false,"is_disabled":false,"rental_uris":{"android":"levelo://app?vid=95ac808f-34d3-47f6-aaa1-0c3f02fd5e1f","ios":"levelo://app?vid=95ac808f-34d3-47f6-aaa1-0c3f02fd5e1f"},"vehicle_type_id":"4","last_reported":1769854407,"current_range_meters":8400,"station_id":"st_d2o4gvlbi1j2169b742g","pricing_plan_id":"cebpf4jnsgd1na2vs0mg"},{"bike_id":"d4d18011-2bf0-4a2b-a896-7a5c21af3b9d","system_id":"levelo_inurba_marseille","lat":43.28479,"lon":5.48393,"is_reserved":false,"is_disabled":false,"rental_uris":{"android":"levelo://app?vid=d4d18011-2bf0-4a2b-a896-7a5c21af3b9d","ios":"levelo://app?vid=d4d18011-2bf0-4a2b-a896-7a5c21af3b9d"},"vehicle_type_id":"4","last_reported":1769854407,"current_range_meters":8400,"station_id":"st_d3svhcjqgbts73a3dn0g","pricing_plan_id":"cebpf4jnsgd1na2vs0mg"},{"bike_id":"2580fc69-4ebe-4b3f-8836-162a80ad5918","system_id":"levelo_inurba_marseille","lat":43.29876,"lon":5.39746,"is_reserved":false,"is_disabled":false,"rental_uris":{"android":"levelo://app?vid=2580fc69-4ebe-4b3f-8836-162a80ad5918","ios":"levelo://app?vid=2580fc69-4ebe-4b3f-8836-162a80ad5918"},"vehicle_type_id":"4","last_reported":1769854407,"current_range_meters":8400,"station_id":"ce4bh0h2rcd13ifvqd50","pricing_plan_id":"cebpf4jnsgd1na2vs0mg"},{"bike_id":"421f3152-2614-4df9-808f-209984eaa9b7","system_id":"levelo_inurba_marseille","lat":43.28253,"lon":5.35073,"is_reserved":false,"is_disabled":false,"rental_uris":{"android":"levelo://app?vid=421f3152-2614-4df9-808f-209984eaa9b7","ios":"levelo://app?vid=421f3152-2614-4df9-808f-209984eaa9b7"},"vehicle_type_id":"4","last_reported":1769854407,"current_range_meters":8400,"station_id":"ce4bhbp2rcd13ifvqerg","pricing_plan_id":"cebpf4jnsgd1na2vs0mg"},{"bike_id":"a4c4467a-de4f-4b56-8893-ebacb492a7a6","system_id":"levelo_inurba_marseille","lat":43.25339,"lon":5.42159,"is_reserved":false,"is_disabled":false,"rental_uris":{"android":"levelo://app?vid=a4c4467a-de4f-4b56-8893-ebacb492a7a6","ios":"levelo://app?vid=a4c4467a-de4f-4b56-8893-ebacb492a7a6"},"vehicle_type_id":"4","last_reported":1769854407,"current_range_meters":8400,"station_id":"st_d2m65c5bi1j21697t3ng","pricing_plan_id":"cebpf4jnsgd1na2vs0mg"},{"bike_id":"5be20501-8e04-4673-9119-891aadf1acc1","system_id":"levelo_inurba_marseille","lat":43.2848,"lon":5.48397,"is_reserved":false,"is_disabled":false,"rental_uris":{"android":"levelo://app?vid=5be20501-8e04-4673-9119-891aadf1acc1","ios":"levelo://app?vid=5be20501-8e04-4673-9119-891aadf1acc1"},"vehicle_type_id":"4","last_reported":1769854407,"current_range_meters":8400,"station_id":"st_d3svhcjqgbts73a3dn0g","pricing_plan_id":"cebpf4jnsgd1na2vs0mg"},{"bike_id":"44bce6fc-6e2f-4ea3-9dfe-d3bb70c5a253","system_id":"levelo_inurba_marseille","lat":43.299636,"lon":5.371776,"is_reserved":false,"is_disabled":false,"rental_uris":{"android":"levelo://app?vid=44bce6fc-6e2f-4ea3-9dfe-d3bb70c5a253","ios":"levelo://app?vid=44bce6fc-6e2f-4ea3-9dfe-d3bb70c5a253"},"vehicle_type_id":"4","last_reported":1769854407,"current_range_meters":8400,"station_id":"ce4bgr92rcd13ifvqc7g","pricing_plan_id":"cebpf4jnsgd1na2vs0mg"},{"bike_id":"fe3326bf-ecaf-4388-9021-852cd6ef837b","system_id":"levelo_inurba_marseille","lat":43.25506,"lon":5.37626,"is_reserved":false,"is_disabled":false,"rental_uris":{"android":"levelo://app?vid=fe3326bf-ecaf-4388-9021-852cd6ef837b","ios":"levelo://app?vid=fe3326bf-ecaf-4388-9021-852cd6ef837b"},"vehicle_type_id":"4","last_reported":1769854407,"current_range_meters":8400,"station_id":"ce4bhh12rcd13ifvqff0","pricing_plan_id":"cebpf4jnsgd1na2vs0mg"},{"bike_id":"b8d143d9-4230-458d-a55e-6fe3c169d59d","system_id":"levelo_inurba_marseille","lat":43.28412,"lon":5.3499,"is_reserved":false,"is_disabled":false,"rental_uris":{"android":"levelo://app?vid=b8d143d9-4230-458d-a55e-6fe3c169d59d","ios":"levelo://app?vid=b8d143d9-4230-458d-a55e-6fe3c169d59d"},"vehicle_type_id":"4","last_reported":1769854407,"current_range_meters":8800,"station_id":"ce4bhbh2rcd13ifvqepg","pricing_plan_id":"cebpf4jnsgd1na2vs0mg"},{"bike_id":"3a657553-3568-4660-ad18-99bdde0965ca","system_id":"levelo_inurba_marseille","lat":43.29055,"lon":5.39979,"is_reserved":false,"is_disabled":false,"rental_uris":{"android":"levelo://app?vid=3a657553-3568-4660-ad18-99bdde0965ca","ios":"levelo://app?vid=3a657553-3568-4660-ad18-99bdde0965ca"},"vehicle_type_id":"4","last_reported":1769854407,"current_range_meters":8800,"station_id":"","pricing_plan_id":"cebpf4jnsgd1na2vs0mg"},{"bike_id":"fae16ec7-2377-4aeb-9515-f6aed7ccf4e0","system_id":"levelo_inurba_marseille","lat":43.306194,"lon":5.37228,"is_reserved":false,"is_disabled":false,"rental_uris":{"android":"levelo://app?vid=fae16ec7-2377-4aeb-9515-f6aed7ccf4e0","ios":"levelo://app?vid=fae16ec7-2377-4aeb-9515-f6aed7ccf4e0"},"vehicle_type_id":"4","last_reported":1769854407,"current_range_meters":8800,"station_id":"ce4bgqh2rcd13ifvqc4g","pricing_plan_id":"cebpf4jnsgd1na2vs0mg"},{"bike_id":"7e4d0348-c090-4100-bdfd-53d3c76acb31","system_id":"levelo_inurba_marseille","lat":43.24818,"lon":5.37458,"is_reserved":false,"is_disabled":false,"rental_uris":{"android":"levelo://app?vid=7e4d0348-c090-4100-bdfd-53d3c76acb31","ios":"levelo://app?vid=7e4d0348-c090-4100-bdfd-53d3c76acb31"},"vehicle_type_id":"4","last_reported":1769854407,"current_range_meters":8800,"station_id":"ce4bhgh2rcd13ifvqfb0","pricing_plan_id":"cebpf4jnsgd1na2vs0mg"},{"bike_id":"f30cd602-de3c-45a4-8842-b80777dc8a4f","system_id":"levelo_inurba_marseille","lat":43.29984,"lon":5.37172,"is_reserved":false,"is_disabled":false,"rental_uris":{"android":"levelo://app?vid=f30cd602-de3c-45a4-8842-b80777dc8a4f","ios":"levelo://app?vid=f30cd602-de3c-45a4-8842-b80777dc8a4f"},"vehicle_type_id":"4","last_reported":1769854407,"current_range_meters":8800,"station_id":"ce4bgr92rcd13ifvqc7g","pricing_plan_id":"cebpf4jnsgd1na2vs0mg"},{"bike_id":"ea996b6a-e4df-4475-a81a-600ad94271b6","system_id":"levelo_inurba_marseille","lat":43.30313,"lon":5.39776,"is_reserved":false,"is_disabled":false,"rental_uris":{"android":"levelo://app?vid=ea996b6a-e4df-4475-a81a-600ad94271b6","ios":"levelo://app?vid=ea996b6a-e4df-4475-a81a-600ad94271b6"},"vehicle_type_id":"4","last_reported":1769854407,"current_range_meters":8800,"station_id":"","pricing_plan_id":"cebpf4jnsgd1na2vs0mg"},{"bike_id":"dd126193-69be-4ddc-9a23-c607e3a7a53e","system_id":"levelo_inurba_marseille","lat":43.25094,"lon":5.39513,"is_reserved":false,"is_disabled":false,"rental_uris":{"android":"levelo://app?vid=dd126193-69be-4ddc-9a23-c607e3a7a53e","ios":"levelo://app?vid=dd126193-69be-4ddc-9a23-c607e3a7a53e"},"vehicle_type_id":"4","last_reported":1769854407,"current_range_meters":8800,"station_id":"ce4bhm12rcd13ifvqgkg","pricing_plan_id":"cebpf4jnsgd1na2vs0mg"},{"bike_id":"b559b272-5796-43b3-908a-ffbd6751cf49","system_id":"levelo_inurba_marseille","lat":43.24013,"lon":5.36681,"is_reserved":false,"is_disabled":false,"rental_uris":{"android":"levelo://app?vid=b559b272-5796-43b3-908a-ffbd6751cf49","ios":"levelo://app?vid=b559b272-5796-43b3-908a-ffbd6751cf49"},"vehicle_type_id":"4","last_reported":1769854407,"current_range_meters":8800,"station_id":"","pricing_plan_id":"cebpf4jnsgd1na2vs0mg"},{"bike_id":"13d20b3a-d4a2-4cd9-aaaa-01ca7200ccb0","system_id":"levelo_inurba_marseille","lat":43.30886,"lon":5.39647,"is_reserved":false,"is_disabled":false,"rental_uris":{"android":"levelo://app?vid=13d20b3a-d4a2-4cd9-aaaa-01ca7200ccb0","ios":"levelo://app?vid=13d20b3a-d4a2-4cd9-aaaa-01ca7200ccb0"},"vehicle_type_id":"4","last_reported":1769854407,"current_range_meters":8800,"station_id":"ce4bh012rcd13ifvqcv0","pricing_plan_id":"cebpf4jnsgd1na2vs0mg"},{"bike_id":"1bc475f7-9892-45cc-ab5e-938e295e14aa","system_id":"levelo_inurba_marseille","lat":43.30166,"lon":5.38103,"is_reserved":false,"is_disabled":false,"rental_uris":{"android":"levelo://app?vid=1bc475f7-9892-45cc-ab5e-938e295e14aa","ios":"levelo://app?vid=1bc475f7-9892-45cc-ab5e-938e295e14aa"},"vehicle_type_id":"4","last_reported":1769854407,"current_range_meters":8800,"station_id":"ce4bgjp2rcd13ifvqbh0","pricing_plan_id":"cebpf4jnsgd1na2vs0mg"},{"bike_id":"d5e67bfe-03c5-4643-9903-6eac267b87da","system_id":"levelo_inurba_marseille","lat":43.24015,"lon":5.37813,"is_reserved":false,"is_disabled":false,"rental_uris":{"android":"levelo://app?vid=d5e67bfe-03c5-4643-9903-6eac267b87da","ios":"levelo://app?vid=d5e67bfe-03c5-4643-9903-6eac267b87da"},"vehicle_type_id":"4","last_reported":1769854407,"current_range_meters":8800,"station_id":"","pricing_plan_id":"cebpf4jnsgd1na2vs0mg"},{"bike_id":"bd2fbde9-72f4-4d13-85f7-e32510d5726e","system_id":"levelo_inurba_marseille","lat":43.304,"lon":5.42513,"is_reserved":false,"is_disabled":false,"rental_uris":{"android":"levelo://app?vid=bd2fbde9-72f4-4d13-85f7-e32510d5726e","ios":"levelo://app?vid=bd2fbde9-72f4-4d13-85f7-e32510d5726e"},"vehicle_type_id":"4","last_reported":1769854407,"current_range_meters":9200,"station_id":"ce4bhoh2rcd13ifvqh6g","pricing_plan_id":"cebpf4jnsgd1na2vs0mg"},{"bike_id":"d3215a18-ac25-47b2-bc57-dcaef897eb36","system_id":"levelo_inurba_marseille","lat":43.31365,"lon":5.38518,"is_reserved":false,"is_disabled":false,"rental_uris":{"android":"levelo://app?vid=d3215a18-ac25-47b2-bc57-dcaef897eb36","ios":"levelo://app?vid=d3215a18-ac25-47b2-bc57-dcaef897eb36"},"vehicle_type_id":"4","last_reported":1769854407,"current_range_meters":9200,"station_id":"ce4bgt92rcd13ifvqcf0","pricing_plan_id":"cebpf4jnsgd1na2vs0mg"},{"bike_id":"9b0b72ce-8292-47cd-b165-f4a28fe1cfff","system_id":"levelo_inurba_marseille","lat":43.28481,"lon":5.38527,"is_reserved":false,"is_disabled":true,"rental_uris":{"android":"levelo://app?vid=9b0b72ce-8292-47cd-b165-f4a28fe1cfff","ios":"levelo://app?vid=9b0b72ce-8292-47cd-b165-f4a28fe1cfff"},"vehicle_type_id":"4","last_reported":1769854407,"current_range_meters":9200,"station_id":"ce4bh8p2rcd13ifvqeb0","pricing_plan_id":"cebpf4jnsgd1na2vs0mg"},{"bike_id":"7e6342e6-d501-41f8-a693-e9a0d897e2ee","system_id":"levelo_inurba_marseille","lat":43.22931,"lon":5.35391,"is_reserved":false,"is_disabled":false,"rental_uris":{"android":"levelo://app?vid=7e6342e6-d501-41f8-a693-e9a0d897e2ee","ios":"levelo://app?vid=7e6342e6-d501-41f8-a693-e9a0d897e2ee"},"vehicle_type_id":"4","last_reported":1769854407,"current_range_meters":9200,"station_id":"cpo3532slgdg3j2ikp40","pricing_plan_id":"cebpf4jnsgd1na2vs0mg"},{"bike_id":"4fe62c04-44c5-4545-87eb-d5b946a9cb88","system_id":"levelo_inurba_marseille","lat":43.2859,"lon":5.38931,"is_reserved":false,"is_disabled":false,"rental_uris":{"android":"levelo://app?vid=4fe62c04-44c5-4545-87eb-d5b946a9cb88","ios":"levelo://app?vid=4fe62c04-44c5-4545-87eb-d5b946a9cb88"},"vehicle_type_id":"4","last_reported":1769854407,"current_range_meters":9200,"station_id":"","pricing_plan_id":"cebpf4jnsgd1na2vs0mg"},{"bike_id":"f7d5d5d1-385b-4443-9e9f-52a3c9968718","system_id":"levelo_inurba_marseille","lat":43.2481,"lon":5.3749,"is_reserved":false,"is_disabled":false,"rental_uris":{"android":"levelo://app?vid=f7d5d5d1-385b-4443-9e9f-52a3c9968718","ios":"levelo://app?vid=f7d5d5d1-385b-4443-9e9f-52a3c9968718"},"vehicle_type_id":"4","last_reported":1769854407,"current_range_meters":9200,"station_id":"ce4bhgh2rcd13ifvqfb0","pricing_plan_id":"cebpf4jnsgd1na2vs0mg"},{"bike_id":"bddea02b-c5e6-4fe5-8b71-a17b0f3884fe","system_id":"levelo_inurba_marseille","lat":43.29359,"lon":5.39885,"is_reserved":false,"is_disabled":false,"rental_uris":{"android":"levelo://app?vid=bddea02b-c5e6-4fe5-8b71-a17b0f3884fe","ios":"levelo://app?vid=bddea02b-c5e6-4fe5-8b71-a17b0f3884fe"},"vehicle_type_id":"4","last_reported":1769854407,"current_range_meters":9200,"station_id":"","pricing_plan_id":"cebpf4jnsgd1na2vs0mg"},{"bike_id":"b27a0d4f-f345-47b9-b9a8-196c40313931","system_id":"levelo_inurba_marseille","lat":43.28434,"lon":5.34993,"is_reserved":false,"is_disabled":false,"rental_uris":{"android":"levelo://app?vid=b27a0d4f-f345-47b9-b9a8-196c40313931","ios":"levelo://app?vid=b27a0d4f-f345-47b9-b9a8-196c40313931"},"vehicle_type_id":"4","last_reported":1769854407,"current_range_meters":9200,"station_id":"ce4bhbh2rcd13ifvqepg","pricing_plan_id":"cebpf4jnsgd1na2vs0mg"},{"bike_id":"aa82b4c2-1ed4-4caa-967f-11f298ec4aaf","system_id":"levelo_inurba_marseille","lat":43.31391,"lon":5.3849,"is_reserved":false,"is_disabled":false,"rental_uris":{"android":"levelo://app?vid=aa82b4c2-1ed4-4caa-967f-11f298ec4aaf","ios":"levelo://app?vid=aa82b4c2-1ed4-4caa-967f-11f298ec4aaf"},"vehicle_type_id":"4","last_reported":1769854407,"current_range_meters":9200,"station_id":"ce4bgt92rcd13ifvqcf0","pricing_plan_id":"cebpf4jnsgd1na2vs0mg"},{"bike_id":"e9dcbbd1-b504-4f39-92f1-6b2620c80db2","system_id":"levelo_inurba_marseille","lat":43.342405,"lon":5.3589,"is_reserved":false,"is_disabled":false,"rental_uris":{"android":"levelo://app?vid=e9dcbbd1-b504-4f39-92f1-6b2620c80db2","ios":"levelo://app?vid=e9dcbbd1-b504-4f39-92f1-6b2620c80db2"},"vehicle_type_id":"4","last_reported":1769854407,"current_range_meters":9200,"station_id":"","pricing_plan_id":"cebpf4jnsgd1na2vs0mg"},{"bike_id":"3a9d9d6b-764f-4558-a4a3-5611921af6a1","system_id":"levelo_inurba_marseille","lat":43.2796,"lon":5.41051,"is_reserved":false,"is_disabled":false,"rental_uris":{"android":"levelo://app?vid=3a9d9d6b-764f-4558-a4a3-5611921af6a1","ios":"levelo://app?vid=3a9d9d6b-764f-4558-a4a3-5611921af6a1"},"vehicle_type_id":"4","last_reported":1769854407,"current_range_meters":9200,"station_id":"ce4bhnp2rcd13ifvqh0g","pricing_plan_id":"cebpf4jnsgd1na2vs0mg"},{"bike_id":"7332a6bc-c08b-486f-af85-64daa38705ee","system_id":"levelo_inurba_marseille","lat":43.3016,"lon":5.38093,"is_reserved":false,"is_disabled":false,"rental_uris":{"android":"levelo://app?vid=7332a6bc-c08b-486f-af85-64daa38705ee","ios":"levelo://app?vid=7332a6bc-c08b-486f-af85-64daa38705ee"},"vehicle_type_id":"4","last_reported":1769854407,"current_range_meters":9200,"station_id":"ce4bgjp2rcd13ifvqbh0","pricing_plan_id":"cebpf4jnsgd1na2vs0mg"},{"bike_id":"eea4b63f-dda2-46df-9173-325412fb68dd","system_id":"levelo_inurba_marseille","lat":43.25006,"lon":5.38934,"is_reserved":false,"is_disabled":false,"rental_uris":{"android":"levelo://app?vid=eea4b63f-dda2-46df-9173-325412fb68dd","ios":"levelo://app?vid=eea4b63f-dda2-46df-9173-325412fb68dd"},"vehicle_type_id":"4","last_reported":1769854407,"current_range_meters":9200,"station_id":"ce4bhgp2rcd13ifvqfd0","pricing_plan_id":"cebpf4jnsgd1na2vs0mg"},{"bike_id":"0e681b67-3fdf-40b6-b942-590e1536d0c5","system_id":"levelo_inurba_marseille","lat":43.24402,"lon":5.37069,"is_reserved":false,"is_disabled":false,"rental_uris":{"android":"levelo://app?vid=0e681b67-3fdf-40b6-b942-590e1536d0c5","ios":"levelo://app?vid=0e681b67-3fdf-40b6-b942-590e1536d0c5"},"vehicle_type_id":"4","last_reported":1769854407,"current_range_meters":9200,"station_id":"ce4bhhh2rcd13ifvqfk0","pricing_plan_id":"cebpf4jnsgd1na2vs0mg"},{"bike_id":"055d8d39-c891-472e-8a0d-a9ee39d8b8c7","system_id":"levelo_inurba_marseille","lat":43.33149,"lon":5.37686,"is_reserved":false,"is_disabled":true,"rental_uris":{"android":"levelo://app?vid=055d8d39-c891-472e-8a0d-a9ee39d8b8c7","ios":"levelo://app?vid=055d8d39-c891-472e-8a0d-a9ee39d8b8c7"},"vehicle_type_id":"4","last_reported":1769854407,"current_range_meters":9600,"station_id":"st_d46cu089ee8s73dldbu0","pricing_plan_id":"cebpf4jnsgd1na2vs0mg"},{"bike_id":"0c5302b6-9a06-4dbf-847c-da0601a3aaae","system_id":"levelo_inurba_marseille","lat":43.28465,"lon":5.35591,"is_reserved":false,"is_disabled":false,"rental_uris":{"android":"levelo://app?vid=0c5302b6-9a06-4dbf-847c-da0601a3aaae","ios":"levelo://app?vid=0c5302b6-9a06-4dbf-847c-da0601a3aaae"},"vehicle_type_id":"4","last_reported":1769854407,"current_range_meters":9600,"station_id":"","pricing_plan_id":"cebpf4jnsgd1na2vs0mg"},{"bike_id":"4ae21097-68ff-4a44-bcb7-3e142e11d517","system_id":"levelo_inurba_marseille","lat":43.241645,"lon":5.364093,"is_reserved":false,"is_disabled":false,"rental_uris":{"android":"levelo://app?vid=4ae21097-68ff-4a44-bcb7-3e142e11d517","ios":"levelo://app?vid=4ae21097-68ff-4a44-bcb7-3e142e11d517"},"vehicle_type_id":"4","last_reported":1769854407,"current_range_meters":9600,"station_id":"cpo36qri1sfpv3e86is0","pricing_plan_id":"cebpf4jnsgd1na2vs0mg"},{"bike_id":"16fde6d1-f51a-48e7-a728-f69430b0136e","system_id":"levelo_inurba_marseille","lat":43.24393,"lon":5.37069,"is_reserved":false,"is_disabled":false,"rental_uris":{"android":"levelo://app?vid=16fde6d1-f51a-48e7-a728-f69430b0136e","ios":"levelo://app?vid=16fde6d1-f51a-48e7-a728-f69430b0136e"},"vehicle_type_id":"4","last_reported":1769854407,"current_range_meters":9600,"station_id":"ce4bhhh2rcd13ifvqfk0","pricing_plan_id":"cebpf4jnsgd1na2vs0mg"},{"bike_id":"77377090-6483-46a5-946f-8af7cb9de441","system_id":"levelo_inurba_marseille","lat":43.23185,"lon":5.39986,"is_reserved":false,"is_disabled":false,"rental_uris":{"android":"levelo://app?vid=77377090-6483-46a5-946f-8af7cb9de441","ios":"levelo://app?vid=77377090-6483-46a5-946f-8af7cb9de441"},"vehicle_type_id":"4","last_reported":1769854407,"current_range_meters":9600,"station_id":"ce4bhn12rcd13ifvqgqg","pricing_plan_id":"cebpf4jnsgd1na2vs0mg"},{"bike_id":"b6aa1398-594b-4b16-935f-0f4d91531fa6","system_id":"levelo_inurba_marseille","lat":43.30284,"lon":5.37247,"is_reserved":false,"is_disabled":false,"rental_uris":{"android":"levelo://app?vid=b6aa1398-594b-4b16-935f-0f4d91531fa6","ios":"levelo://app?vid=b6aa1398-594b-4b16-935f-0f4d91531fa6"},"vehicle_type_id":"4","last_reported":1769854407,"current_range_meters":9600,"station_id":"","pricing_plan_id":"cebpf4jnsgd1na2vs0mg"},{"bike_id":"0c1888c2-67be-479c-9af0-fad241d99a65","system_id":"levelo_inurba_marseille","lat":43.26568,"lon":5.40333,"is_reserved":false,"is_disabled":false,"rental_uris":{"android":"levelo://app?vid=0c1888c2-67be-479c-9af0-fad241d99a65","ios":"levelo://app?vid=0c1888c2-67be-479c-9af0-fad241d99a65"},"vehicle_type_id":"4","last_reported":1769854407,"current_range_meters":9600,"station_id":"ce4bhmp2rcd13ifvqgng","pricing_plan_id":"cebpf4jnsgd1na2vs0mg"},{"bike_id":"9ba86c8b-f2e3-4011-b75e-459c93ccedd4","system_id":"levelo_inurba_marseille","lat":43.30104,"lon":5.39071,"is_reserved":false,"is_disabled":false,"rental_uris":{"android":"levelo://app?vid=9ba86c8b-f2e3-4011-b75e-459c93ccedd4","ios":"levelo://app?vid=9ba86c8b-f2e3-4011-b75e-459c93ccedd4"},"vehicle_type_id":"4","last_reported":1769854407,"current_range_meters":9600,"station_id":"ce4bh192rcd13ifvqdb0","pricing_plan_id":"cebpf4jnsgd1na2vs0mg"},{"bike_id":"40df8b3e-30e5-4ff9-9d98-57774d7232dc","system_id":"levelo_inurba_marseille","lat":43.31052,"lon":5.37163,"is_reserved":false,"is_disabled":false,"rental_uris":{"android":"levelo://app?vid=40df8b3e-30e5-4ff9-9d98-57774d7232dc","ios":"levelo://app?vid=40df8b3e-30e5-4ff9-9d98-57774d7232dc"},"vehicle_type_id":"4","last_reported":1769854407,"current_range_meters":9600,"station_id":"st_d4kl2rp97mjs73e7tdfg","pricing_plan_id":"cebpf4jnsgd1na2vs0mg"},{"bike_id":"8a25a112-bffb-4bc9-b86f-e44087c71e58","system_id":"levelo_inurba_marseille","lat":43.28194,"lon":5.39051,"is_reserved":false,"is_disabled":false,"rental_uris":{"android":"levelo://app?vid=8a25a112-bffb-4bc9-b86f-e44087c71e58","ios":"levelo://app?vid=8a25a112-bffb-4bc9-b86f-e44087c71e58"},"vehicle_type_id":"4","last_reported":1769854407,"current_range_meters":9600,"station_id":"ce4bhn92rcd13ifvqgsg","pricing_plan_id":"cebpf4jnsgd1na2vs0mg"},{"bike_id":"e2bce0e5-c739-4939-9e60-5d1a18c005a4","system_id":"levelo_inurba_marseille","lat":43.27953,"lon":5.41048,"is_reserved":false,"is_disabled":false,"rental_uris":{"android":"levelo://app?vid=e2bce0e5-c739-4939-9e60-5d1a18c005a4","ios":"levelo://app?vid=e2bce0e5-c739-4939-9e60-5d1a18c005a4"},"vehicle_type_id":"4","last_reported":1769854407,"current_range_meters":9600,"station_id":"ce4bhnp2rcd13ifvqh0g","pricing_plan_id":"cebpf4jnsgd1na2vs0mg"},{"bike_id":"ab366e75-db84-4d78-9624-04ba7667d55f","system_id":"levelo_inurba_marseille","lat":43.28493,"lon":5.38542,"is_reserved":false,"is_disabled":false,"rental_uris":{"android":"levelo://app?vid=ab366e75-db84-4d78-9624-04ba7667d55f","ios":"levelo://app?vid=ab366e75-db84-4d78-9624-04ba7667d55f"},"vehicle_type_id":"4","last_reported":1769854407,"current_range_meters":9600,"station_id":"ce4bh8p2rcd13ifvqeb0","pricing_plan_id":"cebpf4jnsgd1na2vs0mg"},{"bike_id":"75e7e0f4-e18b-4bc3-90c8-b9bce55601cb","system_id":"levelo_inurba_marseille","lat":43.25347,"lon":5.42176,"is_reserved":false,"is_disabled":false,"rental_uris":{"android":"levelo://app?vid=75e7e0f4-e18b-4bc3-90c8-b9bce55601cb","ios":"levelo://app?vid=75e7e0f4-e18b-4bc3-90c8-b9bce55601cb"},"vehicle_type_id":"4","last_reported":1769854407,"current_range_meters":9600,"station_id":"st_d2m65c5bi1j21697t3ng","pricing_plan_id":"cebpf4jnsgd1na2vs0mg"},{"bike_id":"5b4c0c7a-c0c9-4273-96c2-faded5f9cc26","system_id":"levelo_inurba_marseille","lat":43.2795,"lon":5.41049,"is_reserved":false,"is_disabled":false,"rental_uris":{"android":"levelo://app?vid=5b4c0c7a-c0c9-4273-96c2-faded5f9cc26","ios":"levelo://app?vid=5b4c0c7a-c0c9-4273-96c2-faded5f9cc26"},"vehicle_type_id":"4","last_reported":1769854407,"current_range_meters":10000,"station_id":"ce4bhnp2rcd13ifvqh0g","pricing_plan_id":"cebpf4jnsgd1na2vs0mg"},{"bike_id":"142496af-5694-4d0a-9721-5b4a5e2ca6f3","system_id":"levelo_inurba_marseille","lat":43.29606,"lon":5.38096,"is_reserved":false,"is_disabled":false,"rental_uris":{"android":"levelo://app?vid=142496af-5694-4d0a-9721-5b4a5e2ca6f3","ios":"levelo://app?vid=142496af-5694-4d0a-9721-5b4a5e2ca6f3"},"vehicle_type_id":"4","last_reported":1769854407,"current_range_meters":10000,"station_id":"ce4bgl12rcd13ifvqbo0","pricing_plan_id":"cebpf4jnsgd1na2vs0mg"},{"bike_id":"667a8115-c025-4bf7-9ff4-f5acd84dd723","system_id":"levelo_inurba_marseille","lat":43.29821,"lon":5.44065,"is_reserved":false,"is_disabled":false,"rental_uris":{"android":"levelo://app?vid=667a8115-c025-4bf7-9ff4-f5acd84dd723","ios":"levelo://app?vid=667a8115-c025-4bf7-9ff4-f5acd84dd723"},"vehicle_type_id":"4","last_reported":1769854407,"current_range_meters":10000,"station_id":"st_d3jp68qikq2c7381ktn0","pricing_plan_id":"cebpf4jnsgd1na2vs0mg"},{"bike_id":"8999d26c-420d-4d01-819b-5bed6ba174a6","system_id":"levelo_inurba_marseille","lat":43.29859,"lon":5.38393,"is_reserved":false,"is_disabled":false,"rental_uris":{"android":"levelo://app?vid=8999d26c-420d-4d01-819b-5bed6ba174a6","ios":"levelo://app?vid=8999d26c-420d-4d01-819b-5bed6ba174a6"},"vehicle_type_id":"4","last_reported":1769854407,"current_range_meters":10000,"station_id":"","pricing_plan_id":"cebpf4jnsgd1na2vs0mg"},{"bike_id":"a0f4c4d9-b17d-4551-87f4-b3e192df9153","system_id":"levelo_inurba_marseille","lat":43.23038,"lon":5.35484,"is_reserved":false,"is_disabled":false,"rental_uris":{"android":"levelo://app?vid=a0f4c4d9-b17d-4551-87f4-b3e192df9153","ios":"levelo://app?vid=a0f4c4d9-b17d-4551-87f4-b3e192df9153"},"vehicle_type_id":"4","last_reported":1769854407,"current_range_meters":10000,"station_id":"cpo3342slgdg3j2ifvpg","pricing_plan_id":"cebpf4jnsgd1na2vs0mg"},{"bike_id":"1cdce8d3-c523-4d89-8d8b-802fa91e5cb7","system_id":"levelo_inurba_marseille","lat":43.29925,"lon":5.36511,"is_reserved":false,"is_disabled":false,"rental_uris":{"android":"levelo://app?vid=1cdce8d3-c523-4d89-8d8b-802fa91e5cb7","ios":"levelo://app?vid=1cdce8d3-c523-4d89-8d8b-802fa91e5cb7"},"vehicle_type_id":"4","last_reported":1769854407,"current_range_meters":10000,"station_id":"ce4bgm92rcd13ifvqbr0","pricing_plan_id":"cebpf4jnsgd1na2vs0mg"},{"bike_id":"1b187523-973b-43bd-a56f-a5d6c41d569b","system_id":"levelo_inurba_marseille","lat":43.29821,"lon":5.44065,"is_reserved":false,"is_disabled":false,"rental_uris":{"android":"levelo://app?vid=1b187523-973b-43bd-a56f-a5d6c41d569b","ios":"levelo://app?vid=1b187523-973b-43bd-a56f-a5d6c41d569b"},"vehicle_type_id":"4","last_reported":1769854407,"current_range_meters":10000,"station_id":"st_d3jp68qikq2c7381ktn0","pricing_plan_id":"cebpf4jnsgd1na2vs0mg"},{"bike_id":"2c9d9ec4-87d2-4a0f-9375-615bf9c41c46","system_id":"levelo_inurba_marseille","lat":43.26193,"lon":5.37469,"is_reserved":false,"is_disabled":false,"rental_uris":{"android":"levelo://app?vid=2c9d9ec4-87d2-4a0f-9375-615bf9c41c46","ios":"levelo://app?vid=2c9d9ec4-87d2-4a0f-9375-615bf9c41c46"},"vehicle_type_id":"4","last_reported":1769854407,"current_range_meters":10000,"station_id":"ce4bhgp2rcd13ifvqfc0","pricing_plan_id":"cebpf4jnsgd1na2vs0mg"},{"bike_id":"f0fffd68-00da-44fd-bc32-dc9352a65418","system_id":"levelo_inurba_marseille","lat":43.31378,"lon":5.38516,"is_reserved":false,"is_disabled":false,"rental_uris":{"android":"levelo://app?vid=f0fffd68-00da-44fd-bc32-dc9352a65418","ios":"levelo://app?vid=f0fffd68-00da-44fd-bc32-dc9352a65418"},"vehicle_type_id":"4","last_reported":1769854407,"current_range_meters":10000,"station_id":"ce4bgt92rcd13ifvqcf0","pricing_plan_id":"cebpf4jnsgd1na2vs0mg"},{"bike_id":"c77b7546-af58-4ba8-a32f-8812cfb796a3","system_id":"levelo_inurba_marseille","lat":43.297906,"lon":5.40408,"is_reserved":false,"is_disabled":false,"rental_uris":{"android":"levelo://app?vid=c77b7546-af58-4ba8-a32f-8812cfb796a3","ios":"levelo://app?vid=c77b7546-af58-4ba8-a32f-8812cfb796a3"},"vehicle_type_id":"4","last_reported":1769854407,"current_range_meters":10000,"station_id":"ce4bh112rcd13ifvqd90","pricing_plan_id":"cebpf4jnsgd1na2vs0mg"},{"bike_id":"984d051a-47d7-4d6c-a90c-41b0aa8855bb","system_id":"levelo_inurba_marseille","lat":43.3251,"lon":5.36599,"is_reserved":false,"is_disabled":false,"rental_uris":{"android":"levelo://app?vid=984d051a-47d7-4d6c-a90c-41b0aa8855bb","ios":"levelo://app?vid=984d051a-47d7-4d6c-a90c-41b0aa8855bb"},"vehicle_type_id":"4","last_reported":1769854407,"current_range_meters":10000,"station_id":"ce4bhs12rcd13ifvqhvg","pricing_plan_id":"cebpf4jnsgd1na2vs0mg"},{"bike_id":"7705f3ab-6136-4e0d-bd25-646631e9751f","system_id":"levelo_inurba_marseille","lat":43.25485,"lon":5.37644,"is_reserved":false,"is_disabled":false,"rental_uris":{"android":"levelo://app?vid=7705f3ab-6136-4e0d-bd25-646631e9751f","ios":"levelo://app?vid=7705f3ab-6136-4e0d-bd25-646631e9751f"},"vehicle_type_id":"4","last_reported":1769854407,"current_range_meters":10000,"station_id":"ce4bhh12rcd13ifvqff0","pricing_plan_id":"cebpf4jnsgd1na2vs0mg"},{"bike_id":"ad34f5db-9405-4cd9-af0a-7553a50addc3","system_id":"levelo_inurba_marseille","lat":43.24675,"lon":5.38157,"is_reserved":false,"is_disabled":false,"rental_uris":{"android":"levelo://app?vid=ad34f5db-9405-4cd9-af0a-7553a50addc3","ios":"levelo://app?vid=ad34f5db-9405-4cd9-af0a-7553a50addc3"},"vehicle_type_id":"4","last_reported":1769854407,"current_range_meters":10000,"station_id":"ce4bhih2rcd13ifvqfr0","pricing_plan_id":"cebpf4jnsgd1na2vs0mg"},{"bike_id":"7d6d237e-70c9-4815-9fd9-8b598a299959","system_id":"levelo_inurba_marseille","lat":43.30153,"lon":5.38089,"is_reserved":false,"is_disabled":false,"rental_uris":{"android":"levelo://app?vid=7d6d237e-70c9-4815-9fd9-8b598a299959","ios":"levelo://app?vid=7d6d237e-70c9-4815-9fd9-8b598a299959"},"vehicle_type_id":"4","last_reported":1769854407,"current_range_meters":10000,"station_id":"ce4bgjp2rcd13ifvqbh0","pricing_plan_id":"cebpf4jnsgd1na2vs0mg"},{"bike_id":"36da6fb0-1c9a-40bc-b9b1-da8fb93e52f1","system_id":"levelo_inurba_marseille","lat":43.2447,"lon":5.42533,"is_reserved":false,"is_disabled":false,"rental_uris":{"android":"levelo://app?vid=36da6fb0-1c9a-40bc-b9b1-da8fb93e52f1","ios":"levelo://app?vid=36da6fb0-1c9a-40bc-b9b1-da8fb93e52f1"},"vehicle_type_id":"4","last_reported":1769854407,"current_range_meters":10000,"station_id":"st_d4a3vfp97mjs738cd8kg","pricing_plan_id":"cebpf4jnsgd1na2vs0mg"},{"bike_id":"bfc28ead-339e-4607-b56b-387d5e2aa6cd","system_id":"levelo_inurba_marseille","lat":43.29954,"lon":5.38515,"is_reserved":false,"is_disabled":false,"rental_uris":{"android":"levelo://app?vid=bfc28ead-339e-4607-b56b-387d5e2aa6cd","ios":"levelo://app?vid=bfc28ead-339e-4607-b56b-387d5e2aa6cd"},"vehicle_type_id":"4","last_reported":1769854407,"current_range_meters":10000,"station_id":"ce4bgj92rcd13ifvqbd0","pricing_plan_id":"cebpf4jnsgd1na2vs0mg"},{"bike_id":"be606a7b-cc1f-4b71-917d-946f43303784","system_id":"levelo_inurba_marseille","lat":43.28375,"lon":5.3864,"is_reserved":false,"is_disabled":false,"rental_uris":{"android":"levelo://app?vid=be606a7b-cc1f-4b71-917d-946f43303784","ios":"levelo://app?vid=be606a7b-cc1f-4b71-917d-946f43303784"},"vehicle_type_id":"4","last_reported":1769854407,"current_range_meters":10000,"station_id":"ce4bh492rcd13ifvqdvg","pricing_plan_id":"cebpf4jnsgd1na2vs0mg"},{"bike_id":"9bc38eed-41a3-43f2-bd1d-59f616539a96","system_id":"levelo_inurba_marseille","lat":43.316862,"lon":5.404777,"is_reserved":false,"is_disabled":false,"rental_uris":{"android":"levelo://app?vid=9bc38eed-41a3-43f2-bd1d-59f616539a96","ios":"levelo://app?vid=9bc38eed-41a3-43f2-bd1d-59f616539a96"},"vehicle_type_id":"4","last_reported":1769854407,"current_range_meters":10000,"station_id":"ce4bh012rcd13ifvqd00","pricing_plan_id":"cebpf4jnsgd1na2vs0mg"},{"bike_id":"cbfde2d3-df0a-49db-93c4-81c5397a2860","system_id":"levelo_inurba_marseille","lat":43.29499,"lon":5.38019,"is_reserved":false,"is_disabled":false,"rental_uris":{"android":"levelo://app?vid=cbfde2d3-df0a-49db-93c4-81c5397a2860","ios":"levelo://app?vid=cbfde2d3-df0a-49db-93c4-81c5397a2860"},"vehicle_type_id":"4","last_reported":1769854407,"current_range_meters":10800,"station_id":"","pricing_plan_id":"cebpf4jnsgd1na2vs0mg"},{"bike_id":"0a1300ad-2f14-46b7-8956-d36a4a430b42","system_id":"levelo_inurba_marseille","lat":43.24802,"lon":5.3745,"is_reserved":false,"is_disabled":false,"rental_uris":{"android":"levelo://app?vid=0a1300ad-2f14-46b7-8956-d36a4a430b42","ios":"levelo://app?vid=0a1300ad-2f14-46b7-8956-d36a4a430b42"},"vehicle_type_id":"4","last_reported":1769854407,"current_range_meters":10800,"station_id":"ce4bhgh2rcd13ifvqfb0","pricing_plan_id":"cebpf4jnsgd1na2vs0mg"},{"bike_id":"f63ad825-b273-458f-bf2e-2ef630e3fede","system_id":"levelo_inurba_marseille","lat":43.22579,"lon":5.41633,"is_reserved":false,"is_disabled":false,"rental_uris":{"android":"levelo://app?vid=f63ad825-b273-458f-bf2e-2ef630e3fede","ios":"levelo://app?vid=f63ad825-b273-458f-bf2e-2ef630e3fede"},"vehicle_type_id":"4","last_reported":1769854407,"current_range_meters":10800,"station_id":"st_d2o4gvlbi1j2169b742g","pricing_plan_id":"cebpf4jnsgd1na2vs0mg"},{"bike_id":"484753f3-bd32-470a-8ce2-03f6918d76e8","system_id":"levelo_inurba_marseille","lat":43.25858,"lon":5.39904,"is_reserved":false,"is_disabled":false,"rental_uris":{"android":"levelo://app?vid=484753f3-bd32-470a-8ce2-03f6918d76e8","ios":"levelo://app?vid=484753f3-bd32-470a-8ce2-03f6918d76e8"},"vehicle_type_id":"4","last_reported":1769854407,"current_range_meters":10800,"station_id":"ce4bhl92rcd13ifvqghg","pricing_plan_id":"cebpf4jnsgd1na2vs0mg"},{"bike_id":"1b85baa8-054d-452c-96ac-e14de5f87229","system_id":"levelo_inurba_marseille","lat":43.26568,"lon":5.40328,"is_reserved":false,"is_disabled":false,"rental_uris":{"android":"levelo://app?vid=1b85baa8-054d-452c-96ac-e14de5f87229","ios":"levelo://app?vid=1b85baa8-054d-452c-96ac-e14de5f87229"},"vehicle_type_id":"4","last_reported":1769854407,"current_range_meters":10800,"station_id":"ce4bhmp2rcd13ifvqgng","pricing_plan_id":"cebpf4jnsgd1na2vs0mg"},{"bike_id":"e66c0050-63ae-4842-902f-7ed4f4ed8737","system_id":"levelo_inurba_marseille","lat":43.22568,"lon":5.41632,"is_reserved":false,"is_disabled":false,"rental_uris":{"android":"levelo://app?vid=e66c0050-63ae-4842-902f-7ed4f4ed8737","ios":"levelo://app?vid=e66c0050-63ae-4842-902f-7ed4f4ed8737"},"vehicle_type_id":"4","last_reported":1769854407,"current_range_meters":10800,"station_id":"st_d2o4gvlbi1j2169b742g","pricing_plan_id":"cebpf4jnsgd1na2vs0mg"},{"bike_id":"78e86c9e-3f7f-4961-830b-2ff0169b20f2","system_id":"levelo_inurba_marseille","lat":43.23184,"lon":5.39985,"is_reserved":false,"is_disabled":false,"rental_uris":{"android":"levelo://app?vid=78e86c9e-3f7f-4961-830b-2ff0169b20f2","ios":"levelo://app?vid=78e86c9e-3f7f-4961-830b-2ff0169b20f2"},"vehicle_type_id":"4","last_reported":1769854407,"current_range_meters":10800,"station_id":"ce4bhn12rcd13ifvqgqg","pricing_plan_id":"cebpf4jnsgd1na2vs0mg"},