{"last_updated":1735852080,"ttl":60,"version":"2.2","data":{"bikes":[{"bike_id":"5fc33033-4827-4528-9193-70aaad8ca07b","system_id":"levelo_inurba_marseille","lat":43.26924,"lon":5.389163,"is_reserved":false,"is_disabled":false,"rental_uris":{"android":"levelo://app?vid=5fc33033-4827-4528-9193-70aaad8ca07b","ios":"levelo://app?vid=5fc33033-4827-4528-9193-70aaad8ca07b"},"vehicle_type_id":"4","last_reported":1735852080,"current_range_meters":8000,"station_id":"ce4bhhh2rcd13ifvqfl0","pricing_plan_id":"cebpf4jnsgd1na2vs0mg"},{"bike_id":"5ee06d1f-f474-4883-9d52-622f82f42531","system_id":"levelo_inurba_marseille","lat":43.32532,"lon":5.41429,"is_reserved":false,"is_disabled":false,"rental_uris":{"android":"levelo://app?vid=5ee06d1f-f474-4883-9d52-622f82f42531","ios":"levelo://app?vid=5ee06d1f-f474-4883-9d52-622f82f42531"},"vehicle_type_id":"4","last_reported":1735852080,"current_range_meters":38800,"station_id":"ce4bhq12rcd13ifvqhhg","pricing_plan_id":"cebpf4jnsgd1na2vs0mg"},{"bike_id":"172ccd61-d49f-41ee-9d70-c90aa70835fe","system_id":"levelo_inurba_marseille","lat":43.27433,"lon":5.39412,"is_reserved":false,"is_disabled":false,"rental_uris":{"android":"levelo://app?vid=172ccd61-d49f-41ee-9d70-c90aa70835fe","ios":"levelo://app?vid=172ccd61-d49f-41ee-9d70-c90aa70835fe"},"vehicle_type_id":"4","last_reported":1735852080,"current_range_meters":33200,"station_id":"ce4bhdp2rcd13ifvqf20","pricing_plan_id":"cebpf4jnsgd1na2vs0mg"},{"bike_id":"bc774450-9e82-4b77-bec0-9757df77a13c","system_id":"levelo_inurba_marseille","lat":43.26485,"lon":5.39543,"is_reserved":false,"is_disabled":false,"rental_uris":{"android":"levelo://app?vid=bc774450-9e82-4b77-bec0-9757df77a13c","ios":"levelo://app?vid=bc774450-9e82-4b77-bec0-9757df77a13c"},"vehicle_type_id":"4","last_reported":1735852080,"current_range_meters":38000,"station_id":"ce4bhi12rcd13ifvqfq0","pricing_plan_id":"cebpf4jnsgd1na2vs0mg"},{"bike_id":"a95f7a4f-b106-47fb-b884-a0e3c27f8867","system_id":"levelo_inurba_marseille","lat":43.28859,"lon":5.39335,"is_reserved":false,"is_disabled":true,"rental_uris":{"android":"levelo://app?vid=a95f7a4f-b106-47fb-b884-a0e3c27f8867","ios":"levelo://app?vid=a95f7a4f-b106-47fb-b884-a0e3c27f8867"},"vehicle_type_id":"4","last_reported":1735852080,"current_range_meters":3200,"station_id":"ce4bh2p2rcd13ifvqdi0","pricing_plan_id":"cebpf4jnsgd1na2vs0mg"},{"bike_id":"83cf3ed5-c352-4a39-821d-1f7d95dea627","system_id":"levelo_inurba_marseille","lat":43.25575,"lon":5.38227,"is_reserved":false,"is_disabled":false,"rental_uris":{"android":"levelo://app?vid=83cf3ed5-c352-4a39-821d-1f7d95dea627","ios":"levelo://app?vid=83cf3ed5-c352-4a39-821d-1f7d95dea627"},"vehicle_type_id":"4","last_reported":1735852080,"current_range_meters":25200,"station_id":"ce4bhih2rcd13ifvqfs0","pricing_plan_id":"cebpf4jnsgd1na2vs0mg"},{"bike_id":"3e92df57-e4ba-4a2b-a540-d8085cdee01f","system_id":"levelo_inurba_marseille","lat":43.26926,"lon":5.3891,"is_reserved":false,"is_disabled":false,"rental_uris":{"android":"levelo://app?vid=3e92df57-e4ba-4a2b-a540-d8085cdee01f","ios":"levelo://app?vid=3e92df57-e4ba-4a2b-a540-d8085cdee01f"},"vehicle_type_id":"4","last_reported":1735852080,"current_range_meters":38400,"station_id":"ce4bhhh2rcd13ifvqfl0","pricing_plan_id":"cebpf4jnsgd1na2vs0mg"},{"bike_id":"36d66971-2eca-4ce7-b6c4-b5d94a3b8a1d","system_id":"levelo_inurba_marseille","lat":43.29263,"lon":5.36826,"is_reserved":false,"is_disabled":false,"rental_uris":{"android":"levelo://app?vid=36d66971-2eca-4ce7-b6c4-b5d94a3b8a1d","ios":"levelo://app?vid=36d66971-2eca-4ce7-b6c4-b5d94a3b8a1d"},"vehicle_type_id":"4","last_reported":1735852080,"current_range_meters":34000,"station_id":"ce4bhbp2rcd13ifvqesg","pricing_plan_id":"cebpf4jnsgd1na2vs0mg"},{"bike_id":"6bd5f962-fbf1-4f4a-9fce-1b11db41e7ba","system_id":"levelo_inurba_marseille","lat":43.29027,"lon":5.38119,"is_reserved":false,"is_disabled":false,"rental_uris":{"android":"levelo://app?vid=6bd5f962-fbf1-4f4a-9fce-1b11db41e7ba","ios":"levelo://app?vid=6bd5f962-fbf1-4f4a-9fce-1b11db41e7ba"},"vehicle_type_id":"4","last_reported":1735852080,"current_range_meters":26800,"station_id":"ce4bh4p2rcd13ifvqe1g","pricing_plan_id":"cebpf4jnsgd1na2vs0mg"},{"bike_id":"0cc226b6-5f36-4e90-9e5b-497bf45d78e0","system_id":"levelo_inurba_marseille","lat":43.27982,"lon":5.40025,"is_reserved":false,"is_disabled":false,"rental_uris":{"android":"levelo://app?vid=0cc226b6-5f36-4e90-9e5b-497bf45d78e0","ios":"levelo://app?vid=0cc226b6-5f36-4e90-9e5b-497bf45d78e0"},"vehicle_type_id":"4","last_reported":1735852080,"current_range_meters":6400,"station_id":"ce4bho92rcd13ifvqh4g","pricing_plan_id":"cebpf4jnsgd1na2vs0mg"},{"bike_id":"02bf6b26-791b-4299-adfb-67276d40a9e0","system_id":"levelo_inurba_marseille","lat":43.25863,"lon":5.39899,"is_reserved":false,"is_disabled":false,"rental_uris":{"android":"levelo://app?vid=02bf6b26-791b-4299-adfb-67276d40a9e0","ios":"levelo://app?vid=02bf6b26-791b-4299-adfb-67276d40a9e0"},"vehicle_type_id":"4","last_reported":1735852080,"current_range_meters":22400,"station_id":"ce4bhl92rcd13ifvqghg","pricing_plan_id":"cebpf4jnsgd1na2vs0mg"},{"bike_id":"e42aed87-b9c2-4f04-8982-50394cba4bfe","system_id":"levelo_inurba_marseille","lat":43.29528,"lon":5.38533,"is_reserved":false,"is_disabled":false,"rental_uris":{"android":"levelo://app?vid=e42aed87-b9c2-4f04-8982-50394cba4bfe","ios":"levelo://app?vid=e42aed87-b9c2-4f04-8982-50394cba4bfe"},"vehicle_type_id":"4","last_reported":1735852080,"current_range_meters":12400,"station_id":"ce4bgih2rcd13ifvqba0","pricing_plan_id":"cebpf4jnsgd1na2vs0mg"},{"bike_id":"116f92ae-65b4-4f7c-a23b-1117c0a69b33","system_id":"levelo_inurba_marseille","lat":43.28612,"lon":5.35101,"is_reserved":false,"is_disabled":false,"rental_uris":{"android":"levelo://app?vid=116f92ae-65b4-4f7c-a23b-1117c0a69b33","ios":"levelo://app?vid=116f92ae-65b4-4f7c-a23b-1117c0a69b33"},"vehicle_type_id":"4","last_reported":1735852080,"current_range_meters":29600,"station_id":"ce4bhch2rcd13ifvqeug","pricing_plan_id":"cebpf4jnsgd1na2vs0mg"},{"bike_id":"cf9371cf-b4a6-4f3a-92f4-f898ea85e696","system_id":"levelo_inurba_marseille","lat":43.25575,"lon":5.38245,"is_reserved":false,"is_disabled":false,"rental_uris":{"android":"levelo://app?vid=cf9371cf-b4a6-4f3a-92f4-f898ea85e696","ios":"levelo://app?vid=cf9371cf-b4a6-4f3a-92f4-f898ea85e696"},"vehicle_type_id":"4","last_reported":1735852080,"current_range_meters":9600,"station_id":"ce4bhih2rcd13ifvqfs0","pricing_plan_id":"cebpf4jnsgd1na2vs0mg"},{"bike_id":"1c74a273-e073-417e-a471-e1f9b9d6c09a","system_id":"levelo_inurba_marseille","lat":43.29063,"lon":5.37162,"is_reserved":false,"is_disabled":false,"rental_uris":{"android":"levelo://app?vid=1c74a273-e073-417e-a471-e1f9b9d6c09a","ios":"levelo://app?vid=1c74a273-e073-417e-a471-e1f9b9d6c09a"},"vehicle_type_id":"4","last_reported":1735852080,"current_range_meters":33600,"station_id":"ce4bh5p2rcd13ifvqe4g","pricing_plan_id":"cebpf4jnsgd1na2vs0mg"},{"bike_id":"4e0f9141-cb15-4ad1-a3aa-65709ee81292","system_id":"levelo_inurba_marseille","lat":43.2927,"lon":5.36857,"is_reserved":false,"is_disabled":false,"rental_uris":{"android":"levelo://app?vid=4e0f9141-cb15-4ad1-a3aa-65709ee81292","ios":"levelo://app?vid=4e0f9141-cb15-4ad1-a3aa-65709ee81292"},"vehicle_type_id":"4","last_reported":1735852080,"current_range_meters":14400,"station_id":"ce4bhbp2rcd13ifvqesg","pricing_plan_id":"cebpf4jnsgd1na2vs0mg"},{"bike_id":"89867fc5-aa88-4405-8a4b-15ec23d678bc","system_id":"levelo_inurba_marseille","lat":43.301067,"lon":5.39882,"is_reserved":false,"is_disabled":false,"rental_uris":{"android":"levelo://app?vid=89867fc5-aa88-4405-8a4b-15ec23d678bc","ios":"levelo://app?vid=89867fc5-aa88-4405-8a4b-15ec23d678bc"},"vehicle_type_id":"4","last_reported":1735852080,"current_range_meters":22400,"station_id":"ce4bh0h2rcd13ifvqd40","pricing_plan_id":"cebpf4jnsgd1na2vs0mg"},{"bike_id":"76d392c8-6dd4-4fbf-b626-27c2990c047b","system_id":"levelo_inurba_marseille","lat":43.28151,"lon":5.42803,"is_reserved":false,"is_disabled":false,"rental_uris":{"android":"levelo://app?vid=76d392c8-6dd4-4fbf-b626-27c2990c047b","ios":"levelo://app?vid=76d392c8-6dd4-4fbf-b626-27c2990c047b"},"vehicle_type_id":"4","last_reported":1735852080,"current_range_meters":23200,"station_id":"","pricing_plan_id":"cebpf4jnsgd1na2vs0mg"},{"bike_id":"ebb56956-e2e2-4f51-8f7a-80ccc26c078c","system_id":"levelo_inurba_marseille","lat":43.28158,"lon":5.42643,"is_reserved":false,"is_disabled":false,"rental_uris":{"android":"levelo://app?vid=ebb56956-e2e2-4f51-8f7a-80ccc26c078c","ios":"levelo://app?vid=ebb56956-e2e2-4f51-8f7a-80ccc26c078c"},"vehicle_type_id":"4","last_reported":1735852080,"current_range_meters":34000,"station_id":"ce4bhnh2rcd13ifvqgug","pricing_plan_id":"cebpf4jnsgd1na2vs0mg"},{"bike_id":"95c96ed6-ea47-4863-bafa-43a37f23ec63","system_id":"levelo_inurba_marseille","lat":43.3204,"lon":5.41551,"is_reserved":false,"is_disabled":false,"rental_uris":{"android":"levelo://app?vid=95c96ed6-ea47-4863-bafa-43a37f23ec63","ios":"levelo://app?vid=95c96ed6-ea47-4863-bafa-43a37f23ec63"},"vehicle_type_id":"4","last_reported":1735852080,"current_range_meters":22000,"station_id":"ce4bhq92rcd13ifvqhkg","pricing_plan_id":"cebpf4jnsgd1na2vs0mg"},{"bike_id":"3c499f67-bb48-4b93-adda-55d26d93413a","system_id":"levelo_inurba_marseille","lat":43.30121,"lon":5.39899,"is_reserved":false,"is_disabled":false,"rental_uris":{"android":"levelo://app?vid=3c499f67-bb48-4b93-adda-55d26d93413a","ios":"levelo://app?vid=3c499f67-bb48-4b93-adda-55d26d93413a"},"vehicle_type_id":"4","last_reported":1735852080,"current_range_meters":10800,"station_id":"ce4bh0h2rcd13ifvqd40","pricing_plan_id":"cebpf4jnsgd1na2vs0mg"},{"bike_id":"24e02238-d92f-424f-8b72-85c062a83bbe","system_id":"levelo_inurba_marseille","lat":43.27684,"lon":5.38924,"is_reserved":false,"is_disabled":false,"rental_uris":{"android":"levelo://app?vid=24e02238-d92f-424f-8b72-85c062a83bbe","ios":"levelo://app?vid=24e02238-d92f-424f-8b72-85c062a83bbe"},"vehicle_type_id":"4","last_reported":1735852080,"current_range_meters":38800,"station_id":"ce4bhi12rcd13ifvqfo0","pricing_plan_id":"cebpf4jnsgd1na2vs0mg"},{"bike_id":"cb41729f-f8b5-46fd-b11b-2f25f57d2997","system_id":"levelo_inurba_marseille","lat":43.24809,"lon":5.37459,"is_reserved":false,"is_disabled":true,"rental_uris":{"android":"levelo://app?vid=cb41729f-f8b5-46fd-b11b-2f25f57d2997","ios":"levelo://app?vid=cb41729f-f8b5-46fd-b11b-2f25f57d2997"},"vehicle_type_id":"4","last_reported":1735852080,"current_range_meters":37600,"station_id":"ce4bhgh2rcd13ifvqfb0","pricing_plan_id":"cebpf4jnsgd1na2vs0mg"},{"bike_id":"97717a3a-5240-48fe-b29e-9e7f0d2b5fba","system_id":"levelo_inurba_marseille","lat":43.3171,"lon":5.43699,"is_reserved":false,"is_disabled":false,"rental_uris":{"android":"levelo://app?vid=97717a3a-5240-48fe-b29e-9e7f0d2b5fba","ios":"levelo://app?vid=97717a3a-5240-48fe-b29e-9e7f0d2b5fba"},"vehicle_type_id":"4","last_reported":1735852080,"current_range_meters":38800,"station_id":"ce4bhp92rcd13ifvqhcg","pricing_plan_id":"cebpf4jnsgd1na2vs0mg"},{"bike_id":"b34f82fe-9ce1-4339-8ef1-4ced08779956","system_id":"levelo_inurba_marseille","lat":43.30128,"lon":5.39863,"is_reserved":false,"is_disabled":false,"rental_uris":{"android":"levelo://app?vid=b34f82fe-9ce1-4339-8ef1-4ced08779956","ios":"levelo://app?vid=b34f82fe-9ce1-4339-8ef1-4ced08779956"},"vehicle_type_id":"4","last_reported":1735852080,"current_range_meters":19200,"station_id":"ce4bh0h2rcd13ifvqd40","pricing_plan_id":"cebpf4jnsgd1na2vs0mg"},{"bike_id":"9e8f1100-46da-409e-99ab-14a13726421f","system_id":"levelo_inurba_marseille","lat":43.25486,"lon":5.37651,"is_reserved":false,"is_disabled":false,"rental_uris":{"android":"levelo://app?vid=9e8f1100-46da-409e-99ab-14a13726421f","ios":"levelo://app?vid=9e8f1100-46da-409e-99ab-14a13726421f"},"vehicle_type_id":"4","last_reported":1735852080,"current_range_meters":26800,"station_id":"ce4bhh12rcd13ifvqff0","pricing_plan_id":"cebpf4jnsgd1na2vs0mg"},{"bike_id":"d66c261c-4c92-4d58-90a6-fd0ca5318371","system_id":"levelo_inurba_marseille","lat":43.27821,"lon":5.40695,"is_reserved":false,"is_disabled":false,"rental_uris":{"android":"levelo://app?vid=d66c261c-4c92-4d58-90a6-fd0ca5318371","ios":"levelo://app?vid=d66c261c-4c92-4d58-90a6-fd0ca5318371"},"vehicle_type_id":"4","last_reported":1735852080,"current_range_meters":8000,"station_id":"ce4bhnh2rcd13ifvqgtg","pricing_plan_id":"cebpf4jnsgd1na2vs0mg"},{"bike_id":"05a944e5-5628-44b6-8e66-0c233343aeb8","system_id":"levelo_inurba_marseille","lat":43.2903,"lon":5.38628,"is_reserved":false,"is_disabled":false,"rental_uris":{"android":"levelo://app?vid=05a944e5-5628-44b6-8e66-0c233343aeb8","ios":"levelo://app?vid=05a944e5-5628-44b6-8e66-0c233343aeb8"},"vehicle_type_id":"4","last_reported":1735852080,"current_range_meters":38800,"station_id":"ce4bh4p2rcd13ifvqe0g","pricing_plan_id":"cebpf4jnsgd1na2vs0mg"},{"bike_id":"3e8d46e7-a72a-4113-8eed-ea83f1f86556","system_id":"levelo_inurba_marseille","lat":43.29791,"lon":5.38111,"is_reserved":false,"is_disabled":false,"rental_uris":{"android":"levelo://app?vid=3e8d46e7-a72a-4113-8eed-ea83f1f86556","ios":"levelo://app?vid=3e8d46e7-a72a-4113-8eed-ea83f1f86556"},"vehicle_type_id":"4","last_reported":1735852080,"current_range_meters":24000,"station_id":"ce4bgip2rcd13ifvqbb0","pricing_plan_id":"cebpf4jnsgd1na2vs0mg"},{"bike_id":"dcd711c6-0b92-490f-97df-470d44c16843","system_id":"levelo_inurba_marseille","lat":43.27929,"lon":5.3959,"is_reserved":false,"is_disabled":false,"rental_uris":{"android":"levelo://app?vid=dcd711c6-0b92-490f-97df-470d44c16843","ios":"levelo://app?vid=dcd711c6-0b92-490f-97df-470d44c16843"},"vehicle_type_id":"4","last_reported":1735852080,"current_range_meters":38000,"station_id":"ce4bhf92rcd13ifvqf40","pricing_plan_id":"cebpf4jnsgd1na2vs0mg"},{"bike_id":"36911bbf-feea-4aaf-ae13-a9d4f34d1249","system_id":"levelo_inurba_marseille","lat":43.29615,"lon":5.37151,"is_reserved":false,"is_disabled":false,"rental_uris":{"android":"levelo://app?vid=36911bbf-feea-4aaf-ae13-a9d4f34d1249","ios":"levelo://app?vid=36911bbf-feea-4aaf-ae13-a9d4f34d1249"},"vehicle_type_id":"4","last_reported":1735852080,"current_range_meters":38800,"station_id":"ce4bgnh2rcd13ifvqc0g","pricing_plan_id":"cebpf4jnsgd1na2vs0mg"},{"bike_id":"4a1ad4c0-f6d8-4f02-a755-37ff4cc1ad61","system_id":"levelo_inurba_marseille","lat":43.25835,"lon":5.39412,"is_reserved":false,"is_disabled":false,"rental_uris":{"android":"levelo://app?vid=4a1ad4c0-f6d8-4f02-a755-37ff4cc1ad61","ios":"levelo://app?vid=4a1ad4c0-f6d8-4f02-a755-37ff4cc1ad61"},"vehicle_type_id":"4","last_reported":1735852080,"current_range_meters":38800,"station_id":"ce4bhip2rcd13ifvqft0","pricing_plan_id":"cebpf4jnsgd1na2vs0mg"},{"bike_id":"681d262b-bedb-4bd6-bef0-fb090a07de85","system_id":"levelo_inurba_marseille","lat":43.29254,"lon":5.38439,"is_reserved":false,"is_disabled":false,"rental_uris":{"android":"levelo://app?vid=681d262b-bedb-4bd6-bef0-fb090a07de85","ios":"levelo://app?vid=681d262b-bedb-4bd6-bef0-fb090a07de85"},"vehicle_type_id":"4","last_reported":1735852080,"current_range_meters":25600,"station_id":"ce4bh692rcd13ifvqea0","pricing_plan_id":"cebpf4jnsgd1na2vs0mg"},{"bike_id":"269eda74-bc19-459b-a632-ad324cf7cf92","system_id":"levelo_inurba_marseille","lat":43.26485,"lon":5.39554,"is_reserved":false,"is_disabled":false,"rental_uris":{"android":"levelo://app?vid=269eda74-bc19-459b-a632-ad324cf7cf92","ios":"levelo://app?vid=269eda74-bc19-459b-a632-ad324cf7cf92"},"vehicle_type_id":"4","last_reported":1735852080,"current_range_meters":17200,"station_id":"ce4bhi12rcd13ifvqfq0","pricing_plan_id":"cebpf4jnsgd1na2vs0mg"},{"bike_id":"90be4ecf-e9e3-49e6-8acd-ca50a85b4085","system_id":"levelo_inurba_marseille","lat":43.31205,"lon":5.36859,"is_reserved":false,"is_disabled":true,"rental_uris":{"android":"levelo://app?vid=90be4ecf-e9e3-49e6-8acd-ca50a85b4085","ios":"levelo://app?vid=90be4ecf-e9e3-49e6-8acd-ca50a85b4085"},"vehicle_type_id":"4","last_reported":1735852080,"current_range_meters":25200,"station_id":"ce4bgl92rcd13ifvqbq0","pricing_plan_id":"cebpf4jnsgd1na2vs0mg"},{"bike_id":"bcc47b98-405a-4d86-8e5f-bbe262abbd0d","system_id":"levelo_inurba_marseille","lat":43.32098,"lon":5.36781,"is_reserved":false,"is_disabled":false,"rental_uris":{"android":"levelo://app?vid=bcc47b98-405a-4d86-8e5f-bbe262abbd0d","ios":"levelo://app?vid=bcc47b98-405a-4d86-8e5f-bbe262abbd0d"},"vehicle_type_id":"4","last_reported":1735852080,"current_range_meters":28400,"station_id":"ce4bhrh2rcd13ifvqhug","pricing_plan_id":"cebpf4jnsgd1na2vs0mg"},{"bike_id":"4ff02992-46d1-4939-b33e-7e9de4ef7281","system_id":"levelo_inurba_marseille","lat":43.25816,"lon":5.39414,"is_reserved":false,"is_disabled":false,"rental_uris":{"android":"levelo://app?vid=4ff02992-46d1-4939-b33e-7e9de4ef7281","ios":"levelo://app?vid=4ff02992-46d1-4939-b33e-7e9de4ef7281"},"vehicle_type_id":"4","last_reported":1735852080,"current_range_meters":30000,"station_id":"ce4bhip2rcd13ifvqft0","pricing_plan_id":"cebpf4jnsgd1na2vs0mg"},{"bike_id":"173716ce-609c-41f0-a574-69faba2ca21e","system_id":"levelo_inurba_marseille","lat":43.29031,"lon":5.39971,"is_reserved":false,"is_disabled":false,"rental_uris":{"android":"levelo://app?vid=173716ce-609c-41f0-a574-69faba2ca21e","ios":"levelo://app?vid=173716ce-609c-41f0-a574-69faba2ca21e"},"vehicle_type_id":"4","last_reported":1735852080,"current_range_meters":38800,"station_id":"ce4bh392rcd13ifvqdm0","pricing_plan_id":"cebpf4jnsgd1na2vs0mg"},{"bike_id":"027085de-3c06-4c90-8099-b9537f78e863","system_id":"levelo_inurba_marseille","lat":43.2316,"lon":5.43687,"is_reserved":false,"is_disabled":false,"rental_uris":{"android":"levelo://app?vid=027085de-3c06-4c90-8099-b9537f78e863","ios":"levelo://app?vid=027085de-3c06-4c90-8099-b9537f78e863"},"vehicle_type_id":"4","last_reported":1735852080,"current_range_meters":28800,"station_id":"ce4bhmp2rcd13ifvqgog","pricing_plan_id":"cebpf4jnsgd1na2vs0mg"},{"bike_id":"d7bec816-20b2-4252-af84-208a6d520c3a","system_id":"levelo_inurba_marseille","lat":43.27057,"lon":5.40261,"is_reserved":false,"is_disabled":false,"rental_uris":{"android":"levelo://app?vid=d7bec816-20b2-4252-af84-208a6d520c3a","ios":"levelo://app?vid=d7bec816-20b2-4252-af84-208a6d520c3a"},"vehicle_type_id":"4","last_reported":1735852080,"current_range_meters":36000,"station_id":"ce4bhk92rcd13ifvqgc0","pricing_plan_id":"cebpf4jnsgd1na2vs0mg"},{"bike_id":"d936b726-436d-4e1d-883d-74d49ddbe842","system_id":"levelo_inurba_marseille","lat":43.31511,"lon":5.38094,"is_reserved":false,"is_disabled":false,"rental_uris":{"android":"levelo://app?vid=d936b726-436d-4e1d-883d-74d49ddbe842","ios":"levelo://app?vid=d936b726-436d-4e1d-883d-74d49ddbe842"},"vehicle_type_id":"4","last_reported":1735852080,"current_range_meters":16400,"station_id":"ce4bhsp2rcd13ifvqi50","pricing_plan_id":"cebpf4jnsgd1na2vs0mg"},{"bike_id":"22e7183b-7aa6-4c0f-b604-515ce138d224","system_id":"levelo_inurba_marseille","lat":43.28927,"lon":5.38398,"is_reserved":false,"is_disabled":false,"rental_uris":{"android":"levelo://app?vid=22e7183b-7aa6-4c0f-b604-515ce138d224","ios":"levelo://app?vid=22e7183b-7aa6-4c0f-b604-515ce138d224"},"vehicle_type_id":"4","last_reported":1735852080,"current_range_meters":39200,"station_id":"ce4bh612rcd13ifvqe6g","pricing_plan_id":"cebpf4jnsgd1na2vs0mg"},{"bike_id":"7a63d77d-b3e4-4713-9060-b918ad8247d2","system_id":"levelo_inurba_marseille","lat":43.22931,"lon":5.35371,"is_reserved":false,"is_disabled":false,"rental_uris":{"android":"levelo://app?vid=7a63d77d-b3e4-4713-9060-b918ad8247d2","ios":"levelo://app?vid=7a63d77d-b3e4-4713-9060-b918ad8247d2"},"vehicle_type_id":"4","last_reported":1735852080,"current_range_meters":38000,"station_id":"cpo3532slgdg3j2ikp40","pricing_plan_id":"cebpf4jnsgd1na2vs0mg"},{"bike_id":"55e21000-1bfe-4926-9e9b-bbab942d7159","system_id":"levelo_inurba_marseille","lat":43.27906,"lon":5.39599,"is_reserved":false,"is_disabled":false,"rental_uris":{"android":"levelo://app?vid=55e21000-1bfe-4926-9e9b-bbab942d7159","ios":"levelo://app?vid=55e21000-1bfe-4926-9e9b-bbab942d7159"},"vehicle_type_id":"4","last_reported":1735852080,"current_range_meters":10800,"station_id":"ce4bhf92rcd13ifvqf40","pricing_plan_id":"cebpf4jnsgd1na2vs0mg"},{"bike_id":"a198062e-f9ef-406f-9221-201113761a05","system_id":"levelo_inurba_marseille","lat":43.28719,"lon":5.37931,"is_reserved":false,"is_disabled":false,"rental_uris":{"android":"levelo://app?vid=a198062e-f9ef-406f-9221-201113761a05","ios":"levelo://app?vid=a198062e-f9ef-406f-9221-201113761a05"},"vehicle_type_id":"4","last_reported":1735852080,"current_range_meters":22800,"station_id":"ce4bh9p2rcd13ifvqec0","pricing_plan_id":"cebpf4jnsgd1na2vs0mg"},{"bike_id":"277d9579-fc29-4ce6-94cb-f3e169453ace","system_id":"levelo_inurba_marseille","lat":43.31752,"lon":5.3902,"is_reserved":false,"is_disabled":false,"rental_uris":{"android":"levelo://app?vid=277d9579-fc29-4ce6-94cb-f3e169453ace","ios":"levelo://app?vid=277d9579-fc29-4ce6-94cb-f3e169453ace"},"vehicle_type_id":"4","last_reported":1735852080,"current_range_meters":38800,"station_id":"ce4bhqp2rcd13ifvqhng","pricing_plan_id":"cebpf4jnsgd1na2vs0mg"},{"bike_id":"3c7472a4-a45c-4f46-a692-aa44ebf92f21","system_id":"levelo_inurba_marseille","lat":43.27429,"lon":5.39415,"is_reserved":false,"is_disabled":false,"rental_uris":{"android":"levelo://app?vid=3c7472a4-a45c-4f46-a692-aa44ebf92f21","ios":"levelo://app?vid=3c7472a4-a45c-4f46-a692-aa44ebf92f21"},"vehicle_type_id":"4","last_reported":1735852080,"current_range_meters":34800,"station_id":"ce4bhdp2rcd13ifvqf20","pricing_plan_id":"cebpf4jnsgd1na2vs0mg"},{"bike_id":"15f428d5-04a0-4b6a-a23c-757c18fbf743","system_id":"levelo_inurba_marseille","lat":43.30903,"lon":5.39629,"is_reserved":false,"is_disabled":false,"rental_uris":{"android":"levelo://app?vid=15f428d5-04a0-4b6a-a23c-757c18fbf743","ios":"levelo://app?vid=15f428d5-04a0-4b6a-a23c-757c18fbf743"},"vehicle_type_id":"4","last_reported":1735852080,"current_range_meters":38800,"station_id":"ce4bh012rcd13ifvqcv0","pricing_plan_id":"cebpf4jnsgd1na2vs0mg"},{"bike_id":"034b0005-8956-45a9-ad90-f0ac541944e7","system_id":"levelo_inurba_marseille","lat":43.26942,"lon":5.38913,"is_reserved":false,"is_disabled":true,"rental_uris":{"android":"levelo://app?vid=034b0005-8956-45a9-ad90-f0ac541944e7","ios":"levelo://app?vid=034b0005-8956-45a9-ad90-f0ac541944e7"},"vehicle_type_id":"4","last_reported":1735852080,"current_range_meters":28800,"station_id":"ce4bhhh2rcd13ifvqfl0","pricing_plan_id":"cebpf4jnsgd1na2vs0mg"},{"bike_id":"60aa8768-465e-4e59-8359-ab05b91a90a1","system_id":"levelo_inurba_marseille","lat":43.28941,"lon":5.36383,"is_reserved":false,"is_disabled":false,"rental_uris":{"android":"levelo://app?vid=60aa8768-465e-4e59-8359-ab05b91a90a1","ios":"levelo://app?vid=60aa8768-465e-4e59-8359-ab05b91a90a1"},"vehicle_type_id":"4","last_reported":1735852080,"current_range_meters":38800,"station_id":"ce4bhc92rcd13ifvqetg","pricing_plan_id":"cebpf4jnsgd1na2vs0mg"},{"bike_id":"b5b2166a-b0b8-4fc4-9960-24fcf8dddf0c","system_id":"levelo_inurba_marseille","lat":43.30853,"lon":5.38046,"is_reserved":false,"is_disabled":false,"rental_uris":{"android":"levelo://app?vid=b5b2166a-b0b8-4fc4-9960-24fcf8dddf0c","ios":"levelo://app?vid=b5b2166a-b0b8-4fc4-9960-24fcf8dddf0c"},"vehicle_type_id":"4","last_reported":1735852080,"current_range_meters":18000,"station_id":"","pricing_plan_id":"cebpf4jnsgd1na2vs0mg"},{"bike_id":"4b9b3c02-7773-410b-a74d-2537aad0fdc1","system_id":"levelo_inurba_marseille","lat":43.28424,"lon":5.37509,"is_reserved":false,"is_disabled":false,"rental_uris":{"android":"levelo://app?vid=4b9b3c02-7773-410b-a74d-2537aad0fdc1","ios":"levelo://app?vid=4b9b3c02-7773-410b-a74d-2537aad0fdc1"},"vehicle_type_id":"4","last_reported":1735852080,"current_range_meters":25600,"station_id":"ce4bh412rcd13ifvqds0","pricing_plan_id":"cebpf4jnsgd1na2vs0mg"},{"bike_id":"e3736c07-1f20-46a9-8fea-1baae69a6a9b","system_id":"levelo_inurba_marseille","lat":43.29523,"lon":5.38559,"is_reserved":false,"is_disabled":false,"rental_uris":{"android":"levelo://app?vid=e3736c07-1f20-46a9-8fea-1baae69a6a9b","ios":"levelo://app?vid=e3736c07-1f20-46a9-8fea-1baae69a6a9b"},"vehicle_type_id":"4","last_reported":1735852080,"current_range_meters":16000,"station_id":"ce4bgih2rcd13ifvqba0","pricing_plan_id":"cebpf4jnsgd1na2vs0mg"},{"bike_id":"1be7cd26-cea4-4ed2-9f87-bb295a3586b7","system_id":"levelo_inurba_marseille","lat":43.30928,"lon":5.40146,"is_reserved":false,"is_disabled":true,"rental_uris":{"android":"levelo://app?vid=1be7cd26-cea4-4ed2-9f87-bb295a3586b7","ios":"levelo://app?vid=1be7cd26-cea4-4ed2-9f87-bb295a3586b7"},"vehicle_type_id":"4","last_reported":1735852080,"current_range_meters":34800,"station_id":"ce4bgvp2rcd13ifvqct0","pricing_plan_id":"cebpf4jnsgd1na2vs0mg"},{"bike_id":"f45848c8-1920-4a57-8a3d-1df70b26d4ca","system_id":"levelo_inurba_marseille","lat":43.2954,"lon":5.38538,"is_reserved":false,"is_disabled":false,"rental_uris":{"android":"levelo://app?vid=f45848c8-1920-4a57-8a3d-1df70b26d4ca","ios":"levelo://app?vid=f45848c8-1920-4a57-8a3d-1df70b26d4ca"},"vehicle_type_id":"4","last_reported":1735852080,"current_range_meters":32000,"station_id":"ce4bgih2rcd13ifvqba0","pricing_plan_id":"cebpf4jnsgd1na2vs0mg"},{"bike_id":"a704d00f-fa02-4fe3-91e2-2416c16951bb","system_id":"levelo_inurba_marseille","lat":43.2406,"lon":5.3774,"is_reserved":false,"is_disabled":false,"rental_uris":{"android":"levelo://app?vid=a704d00f-fa02-4fe3-91e2-2416c16951bb","ios":"levelo://app?vid=a704d00f-fa02-4fe3-91e2-2416c16951bb"},"vehicle_type_id":"4","last_reported":1735852080,"current_range_meters":38800,"station_id":"ce4bhnp2rcd13ifvqgvg","pricing_plan_id":"cebpf4jnsgd1na2vs0mg"},{"bike_id":"2332862a-3884-4317-af82-ee9793e9b62c","system_id":"levelo_inurba_marseille","lat":43.24092,"lon":5.37689,"is_reserved":false,"is_disabled":false,"rental_uris":{"android":"levelo://app?vid=2332862a-3884-4317-af82-ee9793e9b62c","ios":"levelo://app?vid=2332862a-3884-4317-af82-ee9793e9b62c"},"vehicle_type_id":"4","last_reported":1735852080,"current_range_meters":24800,"station_id":"","pricing_plan_id":"cebpf4jnsgd1na2vs0mg"},{"bike_id":"1b0b8897-032a-46c6-aaf7-d764fab8e97a","system_id":"levelo_inurba_marseille","lat":43.258662,"lon":5.398983,"is_reserved":false,"is_disabled":false,"rental_uris":{"android":"levelo://app?vid=1b0b8897-032a-46c6-aaf7-d764fab8e97a","ios":"levelo://app?vid=1b0b8897-032a-46c6-aaf7-d764fab8e97a"},"vehicle_type_id":"4","last_reported":1735852080,"current_range_meters":39200,"station_id":"ce4bhl92rcd13ifvqghg","pricing_plan_id":"cebpf4jnsgd1na2vs0mg"},{"bike_id":"e6fa8bd9-5f74-401a-b12e-57e85af877cf","system_id":"levelo_inurba_marseille","lat":43.30333,"lon":5.36906,"is_reserved":false,"is_disabled":false,"rental_uris":{"android":"levelo://app?vid=e6fa8bd9-5f74-401a-b12e-57e85af877cf","ios":"levelo://app?vid=e6fa8bd9-5f74-401a-b12e-57e85af877cf"},"vehicle_type_id":"4","last_reported":1735852080,"current_range_meters":28000,"station_id":"ce4bgqh2rcd13ifvqc5g","pricing_plan_id":"cebpf4jnsgd1na2vs0mg"},{"bike_id":"4483098c-d27d-4534-ad16-c209ae457c9a","system_id":"levelo_inurba_marseille","lat":43.31545,"lon":5.3801,"is_reserved":false,"is_disabled":false,"rental_uris":{"android":"levelo://app?vid=4483098c-d27d-4534-ad16-c209ae457c9a","ios":"levelo://app?vid=4483098c-d27d-4534-ad16-c209ae457c9a"},"vehicle_type_id":"4","last_reported":1735852080,"current_range_meters":38800,"station_id":"ce4bhsp2rcd13ifvqi50","pricing_plan_id":"cebpf4jnsgd1na2vs0mg"},{"bike_id":"4b5d15eb-6f91-491f-b47b-91411914d867","system_id":"levelo_inurba_marseille","lat":43.26931,"lon":5.40251,"is_reserved":false,"is_disabled":false,"rental_uris":{"android":"levelo://app?vid=4b5d15eb-6f91-491f-b47b-91411914d867","ios":"levelo://app?vid=4b5d15eb-6f91-491f-b47b-91411914d867"},"vehicle_type_id":"4","last_reported":1735852080,"current_range_meters":11600,"station_id":"cjm6bp8fraef2m0cb0m0","pricing_plan_id":"cebpf4jnsgd1na2vs0mg"},{"bike_id":"b0f40622-14a2-47af-8c8c-4a938f1cf2c3","system_id":"levelo_inurba_marseille","lat":43.28834,"lon":5.35853,"is_reserved":false,"is_disabled":false,"rental_uris":{"android":"levelo://app?vid=b0f40622-14a2-47af-8c8c-4a938f1cf2c3","ios":"levelo://app?vid=b0f40622-14a2-47af-8c8c-4a938f1cf2c3"},"vehicle_type_id":"4","last_reported":1735852080,"current_range_meters":32400,"station_id":"ce4bhb12rcd13ifvqem0","pricing_plan_id":"cebpf4jnsgd1na2vs0mg"},{"bike_id":"6e51dd9f-cdd7-4e88-a3a7-736fac684727","system_id":"levelo_inurba_marseille","lat":43.301311,"lon":5.387816,"is_reserved":false,"is_disabled":false,"rental_uris":{"android":"levelo://app?vid=6e51dd9f-cdd7-4e88-a3a7-736fac684727","ios":"levelo://app?vid=6e51dd9f-cdd7-4e88-a3a7-736fac684727"},"vehicle_type_id":"4","last_reported":1735852080,"current_range_meters":22800,"station_id":"ce4bghh2rcd13ifvqb60","pricing_plan_id":"cebpf4jnsgd1na2vs0mg"},{"bike_id":"2cad5e9d-f183-4c3f-a642-7c176e4884d1","system_id":"levelo_inurba_marseille","lat":43.25804,"lon":5.39448,"is_reserved":false,"is_disabled":false,"rental_uris":{"android":"levelo://app?vid=2cad5e9d-f183-4c3f-a642-7c176e4884d1","ios":"levelo://app?vid=2cad5e9d-f183-4c3f-a642-7c176e4884d1"},"vehicle_type_id":"4","last_reported":1735852080,"current_range_meters":38800,"station_id":"ce4bhip2rcd13ifvqft0","pricing_plan_id":"cebpf4jnsgd1na2vs0mg"},{"bike_id":"2bc85ea5-00ae-44c0-a255-cc0d04be90b9","system_id":"levelo_inurba_marseille","lat":43.28427,"lon":5.34982,"is_reserved":false,"is_disabled":false,"rental_uris":{"android":"levelo://app?vid=2bc85ea5-00ae-44c0-a255-cc0d04be90b9","ios":"levelo://app?vid=2bc85ea5-00ae-44c0-a255-cc0d04be90b9"},"vehicle_type_id":"4","last_reported":1735852080,"current_range_meters":11600,"station_id":"ce4bhbh2rcd13ifvqepg","pricing_plan_id":"cebpf4jnsgd1na2vs0mg"},{"bike_id":"9ec22bb6-ddde-4544-bfca-bd222a10c5d4","system_id":"levelo_inurba_marseille","lat":43.28623,"lon":5.35115,"is_reserved":false,"is_disabled":false,"rental_uris":{"android":"levelo://app?vid=9ec22bb6-ddde-4544-bfca-bd222a10c5d4","ios":"levelo://app?vid=9ec22bb6-ddde-4544-bfca-bd222a10c5d4"},"vehicle_type_id":"4","last_reported":1735852080,"current_range_meters":11200,"station_id":"ce4bhch2rcd13ifvqeug","pricing_plan_id":"cebpf4jnsgd1na2vs0mg"},{"bike_id":"97906f7b-eda2-4c80-8b4b-122bc957a1cd","system_id":"levelo_inurba_marseille","lat":43.28623,"lon":5.35085,"is_reserved":false,"is_disabled":false,"rental_uris":{"android":"levelo://app?vid=97906f7b-eda2-4c80-8b4b-122bc957a1cd","ios":"levelo://app?vid=97906f7b-eda2-4c80-8b4b-122bc957a1cd"},"vehicle_type_id":"4","last_reported":1735852080,"current_range_meters":24400,"station_id":"ce4bhch2rcd13ifvqeug","pricing_plan_id":"cebpf4jnsgd1na2vs0mg"},{"bike_id":"1c062351-f698-4ee4-87ae-fce7281bfbb0","system_id":"levelo_inurba_marseille","lat":43.29538,"lon":5.3855,"is_reserved":false,"is_disabled":false,"rental_uris":{"android":"levelo://app?vid=1c062351-f698-4ee4-87ae-fce7281bfbb0","ios":"levelo://app?vid=1c062351-f698-4ee4-87ae-fce7281bfbb0"},"vehicle_type_id":"4","last_reported":1735852080,"current_range_meters":38800,"station_id":"ce4bgih2rcd13ifvqba0","pricing_plan_id":"cebpf4jnsgd1na2vs0mg"},{"bike_id":"a767814d-32c1-4888-928e-16b2e9383b03","system_id":"levelo_inurba_marseille","lat":43.28675,"lon":5.38653,"is_reserved":false,"is_disabled":false,"rental_uris":{"android":"levelo://app?vid=a767814d-32c1-4888-928e-16b2e9383b03","ios":"levelo://app?vid=a767814d-32c1-4888-928e-16b2e9383b03"},"vehicle_type_id":"4","last_reported":1735852080,"current_range_meters":38800,"station_id":"ce4bh492rcd13ifvqdug","pricing_plan_id":"cebpf4jnsgd1na2vs0mg"},{"bike_id":"a1c87532-6196-402b-916e-8ad945b95f72","system_id":"levelo_inurba_marseille","lat":43.2512,"lon":5.40319,"is_reserved":false,"is_disabled":false,"rental_uris":{"android":"levelo://app?vid=a1c87532-6196-402b-916e-8ad945b95f72","ios":"levelo://app?vid=a1c87532-6196-402b-916e-8ad945b95f72"},"vehicle_type_id":"4","last_reported":1735852080,"current_range_meters":10800,"station_id":"ce4bhlh2rcd13ifvqgig","pricing_plan_id":"cebpf4jnsgd1na2vs0mg"},{"bike_id":"4ce38f45-b3ef-4ce1-84b1-8cf7c7ee4592","system_id":"levelo_inurba_marseille","lat":43.27944,"lon":5.41037,"is_reserved":false,"is_disabled":false,"rental_uris":{"android":"levelo://app?vid=4ce38f45-b3ef-4ce1-84b1-8cf7c7ee4592","ios":"levelo://app?vid=4ce38f45-b3ef-4ce1-84b1-8cf7c7ee4592"},"vehicle_type_id":"4","last_reported":1735852080,"current_range_meters":32000,"station_id":"ce4bhnp2rcd13ifvqh0g","pricing_plan_id":"cebpf4jnsgd1na2vs0mg"},{"bike_id":"f6fd2c08-b919-4a18-b4c7-8102421d86fe","system_id":"levelo_inurba_marseille","lat":43.29268,"lon":5.36857,"is_reserved":false,"is_disabled":false,"rental_uris":{"android":"levelo://app?vid=f6fd2c08-b919-4a18-b4c7-8102421d86fe","ios":"levelo://app?vid=f6fd2c08-b919-4a18-b4c7-8102421d86fe"},"vehicle_type_id":"4","last_reported":1735852080,"current_range_meters":36400,"station_id":"ce4bhbp2rcd13ifvqesg","pricing_plan_id":"cebpf4jnsgd1na2vs0mg"},{"bike_id":"1aab64ef-fd92-42de-aaa7-880e183a2f03","system_id":"levelo_inurba_marseille","lat":43.29395,"lon":5.3862,"is_reserved":false,"is_disabled":false,"rental_uris":{"android":"levelo://app?vid=1aab64ef-fd92-42de-aaa7-880e183a2f03","ios":"levelo://app?vid=1aab64ef-fd92-42de-aaa7-880e183a2f03"},"vehicle_type_id":"4","last_reported":1735852080,"current_range_meters":16800,"station_id":"ce4bh2h2rcd13ifvqdh0","pricing_plan_id":"cebpf4jnsgd1na2vs0mg"},{"bike_id":"4fac24f8-e903-4fc5-8b98-0947685b5962","system_id":"levelo_inurba_marseille","lat":43.29287,"lon":5.38426,"is_reserved":false,"is_disabled":false,"rental_uris":{"android":"levelo://app?vid=4fac24f8-e903-4fc5-8b98-0947685b5962","ios":"levelo://app?vid=4fac24f8-e903-4fc5-8b98-0947685b5962"},"vehicle_type_id":"4","last_reported":1735852080,"current_range_meters":16800,"station_id":"ce4bh692rcd13ifvqea0","pricing_plan_id":"cebpf4jnsgd1na2vs0mg"},{"bike_id":"5f1486d7-4fae-4801-9d26-fff2da0e4875","system_id":"levelo_inurba_marseille","lat":43.31984,"lon":5.38154,"is_reserved":false,"is_disabled":false,"rental_uris":{"android":"levelo://app?vid=5f1486d7-4fae-4801-9d26-fff2da0e4875","ios":"levelo://app?vid=5f1486d7-4fae-4801-9d26-fff2da0e4875"},"vehicle_type_id":"4","last_reported":1735852080,"current_range_meters":34800,"station_id":"ce4bhr12rcd13ifvqhpg","pricing_plan_id":"cebpf4jnsgd1na2vs0mg"},{"bike_id":"a6b8c5d1-0194-4497-b505-a51fde692143","system_id":"levelo_inurba_marseille","lat":43.29001,"lon":5.35597,"is_reserved":false,"is_disabled":false,"rental_uris":{"android":"levelo://app?vid=a6b8c5d1-0194-4497-b505-a51fde692143","ios":"levelo://app?vid=a6b8c5d1-0194-4497-b505-a51fde692143"},"vehicle_type_id":"4","last_reported":1735852080,"current_range_meters":36000,"station_id":"ce4bhb92rcd13ifvqen0","pricing_plan_id":"cebpf4jnsgd1na2vs0mg"},{"bike_id":"2f857458-45ae-4306-9ffb-5d94252d59a5","system_id":"levelo_inurba_marseille","lat":43.252298,"lon":5.384214,"is_reserved":false,"is_disabled":false,"rental_uris":{"android":"levelo://app?vid=2f857458-45ae-4306-9ffb-5d94252d59a5","ios":"levelo://app?vid=2f857458-45ae-4306-9ffb-5d94252d59a5"},"vehicle_type_id":"4","last_reported":1735852080,"current_range_meters":34000,"station_id":"ce4bhg12rcd13ifvqf60","pricing_plan_id":"cebpf4jnsgd1na2vs0mg"},{"bike_id":"0c44e8cb-6c44-450a-a3ff-5dfd7e18baf3","system_id":"levelo_inurba_marseille","lat":43.27981,"lon":5.41648,"is_reserved":false,"is_disabled":false,"rental_uris":{"android":"levelo://app?vid=0c44e8cb-6c44-450a-a3ff-5dfd7e18baf3","ios":"levelo://app?vid=0c44e8cb-6c44-450a-a3ff-5dfd7e18baf3"},"vehicle_type_id":"4","last_reported":1735852080,"current_range_meters":38800,"station_id":"ce4bho12rcd13ifvqh1g","pricing_plan_id":"cebpf4jnsgd1na2vs0mg"},{"bike_id":"25990fff-4e8a-4c9a-9f77-d0b15d680caa","system_id":"levelo_inurba_marseille","lat":43.26942,"lon":5.38641,"is_reserved":false,"is_disabled":true,"rental_uris":{"android":"levelo://app?vid=25990fff-4e8a-4c9a-9f77-d0b15d680caa","ios":"levelo://app?vid=25990fff-4e8a-4c9a-9f77-d0b15d680caa"},"vehicle_type_id":"4","last_reported":1735852080,"current_range_meters":19600,"station_id":"ce4bhh92rcd13ifvqfh0","pricing_plan_id":"cebpf4jnsgd1na2vs0mg"},{"bike_id":"62d408d0-e0fd-421c-8a1a-168ab701b6d1","system_id":"levelo_inurba_marseille","lat":43.28621,"lon":5.35099,"is_reserved":false,"is_disabled":false,"rental_uris":{"android":"levelo://app?vid=62d408d0-e0fd-421c-8a1a-168ab701b6d1","ios":"levelo://app?vid=62d408d0-e0fd-421c-8a1a-168ab701b6d1"},"vehicle_type_id":"4","last_reported":1735852080,"current_range_meters":24000,"station_id":"ce4bhch2rcd13ifvqeug","pricing_plan_id":"cebpf4jnsgd1na2vs0mg"},{"bike_id":"d4ef280b-2e2f-4619-931b-9e0570666437","system_id":"levelo_inurba_marseille","lat":43.29868,"lon":5.39734,"is_reserved":false,"is_disabled":false,"rental_uris":{"android":"levelo://app?vid=d4ef280b-2e2f-4619-931b-9e0570666437","ios":"levelo://app?vid=d4ef280b-2e2f-4619-931b-9e0570666437"},"vehicle_type_id":"4","last_reported":1735852080,"current_range_meters":25600,"station_id":"ce4bh0h2rcd13ifvqd50","pricing_plan_id":"cebpf4jnsgd1na2vs0mg"},{"bike_id":"51855b67-dd6c-4e75-b660-5384b749b10b","system_id":"levelo_inurba_marseille","lat":43.31727,"lon":5.37725,"is_reserved":false,"is_disabled":false,"rental_uris":{"android":"levelo://app?vid=51855b67-dd6c-4e75-b660-5384b749b10b","ios":"levelo://app?vid=51855b67-dd6c-4e75-b660-5384b749b10b"},"vehicle_type_id":"4","last_reported":1735852080,"current_range_meters":28000,"station_id":"ce4bgth2rcd13ifvqch0","pricing_plan_id":"cebpf4jnsgd1na2vs0mg"},{"bike_id":"61145c38-69e6-40aa-98ce-2e37c606abcc","system_id":"levelo_inurba_marseille","lat":43.29517,"lon":5.38536,"is_reserved":false,"is_disabled":false,"rental_uris":{"android":"levelo://app?vid=61145c38-69e6-40aa-98ce-2e37c606abcc","ios":"levelo://app?vid=61145c38-69e6-40aa-98ce-2e37c606abcc"},"vehicle_type_id":"4","last_reported":1735852080,"current_range_meters":38400,"station_id":"ce4bgih2rcd13ifvqba0","pricing_plan_id":"cebpf4jnsgd1na2vs0mg"},{"bike_id":"56f472aa-6acc-47d3-ada3-27f6fe447e34","system_id":"levelo_inurba_marseille","lat":43.28103,"lon":5.37836,"is_reserved":false,"is_disabled":false,"rental_uris":{"android":"levelo://app?vid=56f472aa-6acc-47d3-ada3-27f6fe447e34","ios":"levelo://app?vid=56f472aa-6acc-47d3-ada3-27f6fe447e34"},"vehicle_type_id":"4","last_reported":1735852080,"current_range_meters":19200,"station_id":"ce4bha12rcd13ifvqee0","pricing_plan_id":"cebpf4jnsgd1na2vs0mg"},{"bike_id":"a34109c1-878e-429f-9326-63e9db216b66","system_id":"levelo_inurba_marseille","lat":43.27948,"lon":5.41054,"is_reserved":false,"is_disabled":false,"rental_uris":{"android":"levelo://app?vid=a34109c1-878e-429f-9326-63e9db216b66","ios":"levelo://app?vid=a34109c1-878e-429f-9326-63e9db216b66"},"vehicle_type_id":"4","last_reported":1735852080,"current_range_meters":25200,"station_id":"ce4bhnp2rcd13ifvqh0g","pricing_plan_id":"cebpf4jnsgd1na2vs0mg"},{"bike_id":"07914263-3d03-4738-b553-ee795a62a79e","system_id":"levelo_inurba_marseille","lat":43.25865,"lon":5.398999,"is_reserved":false,"is_disabled":false,"rental_uris":{"android":"levelo://app?vid=07914263-3d03-4738-b553-ee795a62a79e","ios":"levelo://app?vid=07914263-3d03-4738-b553-ee795a62a79e"},"vehicle_type_id":"4","last_reported":1735852080,"current_range_meters":28400,"station_id":"ce4bhl92rcd13ifvqghg","pricing_plan_id":"cebpf4jnsgd1na2vs0mg"},{"bike_id":"bb86822c-fbb4-4a53-ad41-da0950153260","system_id":"levelo_inurba_marseille","lat":43.26777,"lon":5.39415,"is_reserved":false,"is_disabled":false,"rental_uris":{"android":"levelo://app?vid=bb86822c-fbb4-4a53-ad41-da0950153260","ios":"levelo://app?vid=bb86822c-fbb4-4a53-ad41-da0950153260"},"vehicle_type_id":"4","last_reported":1735852080,"current_range_meters":28400,"station_id":"ce4bhh12rcd13ifvqfg0","pricing_plan_id":"cebpf4jnsgd1na2vs0mg"},{"bike_id":"b1650b6b-8edc-4f81-a3ba-94700ac4cc56","system_id":"levelo_inurba_marseille","lat":43.316895,"lon":5.404692,"is_reserved":false,"is_disabled":false,"rental_uris":{"android":"levelo://app?vid=b1650b6b-8edc-4f81-a3ba-94700ac4cc56","ios":"levelo://app?vid=b1650b6b-8edc-4f81-a3ba-94700ac4cc56"},"vehicle_type_id":"4","last_reported":1735852080,"current_range_meters":39200,"station_id":"ce4bh012rcd13ifvqd00","pricing_plan_id":"cebpf4jnsgd1na2vs0mg"},{"bike_id":"25c73ff4-b516-4ca7-9e8d-cb16f8cf8ef6","system_id":"levelo_inurba_marseille","lat":43.24073,"lon":5.37746,"is_reserved":false,"is_disabled":false,"rental_uris":{"android":"levelo://app?vid=25c73ff4-b516-4ca7-9e8d-cb16f8cf8ef6","ios":"levelo://app?vid=25c73ff4-b516-4ca7-9e8d-cb16f8cf8ef6"},"vehicle_type_id":"4","last_reported":1735852080,"current_range_meters":38800,"station_id":"ce4bhnp2rcd13ifvqgvg","pricing_plan_id":"cebpf4jnsgd1na2vs0mg"},{"bike_id":"f102d633-29e9-4295-ad76-a1e2a9694a93","system_id":"levelo_inurba_marseille","lat":43.29013,"lon":5.38627,"is_reserved":false,"is_disabled":false,"rental_uris":{"android":"levelo://app?vid=f102d633-29e9-4295-ad76-a1e2a9694a93","ios":"levelo://app?vid=f102d633-29e9-4295-ad76-a1e2a9694a93"},"vehicle_type_id":"4","last_reported":1735852080,"current_range_meters":38800,"station_id":"ce4bh4p2rcd13ifvqe0g","pricing_plan_id":"cebpf4jnsgd1na2vs0mg"},{"bike_id":"703bc212-ff03-476d-bd5f-95e2b6edaa35","system_id":"levelo_inurba_marseille","lat":43.29598,"lon":5.38096,"is_reserved":false,"is_disabled":false,"rental_uris":{"android":"levelo://app?vid=703bc212-ff03-476d-bd5f-95e2b6edaa35","ios":"levelo://app?vid=703bc212-ff03-476d-bd5f-95e2b6edaa35"},"vehicle_type_id":"4","last_reported":1735852080,"current_range_meters":32000,"station_id":"ce4bgl12rcd13ifvqbo0","pricing_plan_id":"cebpf4jnsgd1na2vs0mg"},{"bike_id":"ea32b928-7eb3-4fee-b386-0e661138c78a","system_id":"levelo_inurba_marseille","lat":43.30438,"lon":5.38892,"is_reserved":false,"is_disabled":false,"rental_uris":{"android":"levelo://app?vid=ea32b928-7eb3-4fee-b386-0e661138c78a","ios":"levelo://app?vid=ea32b928-7eb3-4fee-b386-0e661138c78a"},"vehicle_type_id":"4","last_reported":1735852080,"current_range_meters":29600,"station_id":"ce4bgk12rcd13ifvqbi0","pricing_plan_id":"cebpf4jnsgd1na2vs0mg"},{"bike_id":"431e8137-1d19-49b7-a59f-90e99653dd46","system_id":"levelo_inurba_marseille","lat":43.30325,"lon":5.40433,"is_reserved":false,"is_disabled":false,"rental_uris":{"android":"levelo://app?vid=431e8137-1d19-49b7-a59f-90e99653dd46","ios":"levelo://app?vid=431e8137-1d19-49b7-a59f-90e99653dd46"},"vehicle_type_id":"4","last_reported":1735852080,"current_range_meters":9200,"station_id":"ce4bh012rcd13ifvqd10","pricing_plan_id":"cebpf4jnsgd1na2vs0mg"},{"bike_id":"a6f828f1-5f97-4da7-bf33-7d48a155db3e","system_id":"levelo_inurba_marseille","lat":43.27815,"lon":5.39197,"is_reserved":false,"is_disabled":false,"rental_uris":{"android":"levelo://app?vid=a6f828f1-5f97-4da7-bf33-7d48a155db3e","ios":"levelo://app?vid=a6f828f1-5f97-4da7-bf33-7d48a155db3e"},"vehicle_type_id":"4","last_reported":1735852080,"current_range_meters":34000,"station_id":"ce4bhjp2rcd13ifvqga0","pricing_plan_id":"cebpf4jnsgd1na2vs0mg"},{"bike_id":"bbefe573-2e5c-4fbf-a5d6-e0f28031c10d","system_id":"levelo_inurba_marseille","lat":43.313552,"lon":5.384948,"is_reserved":false,"is_disabled":false,"rental_uris":{"android":"levelo://app?vid=bbefe573-2e5c-4fbf-a5d6-e0f28031c10d","ios":"levelo://app?vid=bbefe573-2e5c-4fbf-a5d6-e0f28031c10d"},"vehicle_type_id":"4","last_reported":1735852080,"current_range_meters":38000,"station_id":"ce4bgt92rcd13ifvqcf0","pricing_plan_id":"cebpf4jnsgd1na2vs0mg"},{"bike_id":"97e13ddf-c974-499e-83cd-3303626944c0","system_id":"levelo_inurba_marseille","lat":43.25575,"lon":5.38262,"is_reserved":false,"is_disabled":false,"rental_uris":{"android":"levelo://app?vid=97e13ddf-c974-499e-83cd-3303626944c0","ios":"levelo://app?vid=97e13ddf-c974-499e-83cd-3303626944c0"},"vehicle_type_id":"4","last_reported":1735852080,"current_range_meters":37600,"station_id":"ce4bhih2rcd13ifvqfs0","pricing_plan_id":"cebpf4jnsgd1na2vs0mg"},{"bike_id":"2cb73bff-3a8c-4792-af59-167d685e0a29","system_id":"levelo_inurba_marseille","lat":43.3133,"lon":5.37476,"is_reserved":false,"is_disabled":false,"rental_uris":{"android":"levelo://app?vid=2cb73bff-3a8c-4792-af59-167d685e0a29","ios":"levelo://app?vid=2cb73bff-3a8c-4792-af59-167d685e0a29"},"vehicle_type_id":"4","last_reported":1735852080,"current_range_meters":36800,"station_id":"","pricing_plan_id":"cebpf4jnsgd1na2vs0mg"},{"bike_id":"f20c015a-0ed9-41c9-b102-c68f5f84fd52","system_id":"levelo_inurba_marseille","lat":43.29518,"lon":5.38541,"is_reserved":false,"is_disabled":false,"rental_uris":{"android":"levelo://app?vid=f20c015a-0ed9-41c9-b102-c68f5f84fd52","ios":"levelo://app?vid=f20c015a-0ed9-41c9-b102-c68f5f84fd52"},"vehicle_type_id":"4","last_reported":1735852080,"current_range_meters":38800,"station_id":"ce4bgih2rcd13ifvqba0","pricing_plan_id":"cebpf4jnsgd1na2vs0mg"},{"bike_id":"0d22c007-f5b2-4481-9b21-08f35f061702","system_id":"levelo_inurba_marseille","lat":43.29631,"lon":5.37184,"is_reserved":false,"is_disabled":true,"rental_uris":{"android":"levelo://app?vid=0d22c007-f5b2-4481-9b21-08f35f061702","ios":"levelo://app?vid=0d22c007-f5b2-4481-9b21-08f35f061702"},"vehicle_type_id":"4","last_reported":1735852080,"current_range_meters":0,"station_id":"ce4bgnh2rcd13ifvqc0g","pricing_plan_id":"cebpf4jnsgd1na2vs0mg"},{"bike_id":"bf5d1ce1-7688-4e17-971a-7b8dfa4e1370","system_id":"levelo_inurba_marseille","lat":43.29,"lon":5.35604,"is_reserved":false,"is_disabled":false,"rental_uris":{"android":"levelo://app?vid=bf5d1ce1-7688-4e17-971a-7b8dfa4e1370","ios":"levelo://app?vid=bf5d1ce1-7688-4e17-971a-7b8dfa4e1370"},"vehicle_type_id":"4","last_reported":1735852080,"current_range_meters":38800,"station_id":"ce4bhb92rcd13ifvqen0","pricing_plan_id":"cebpf4jnsgd1na2vs0mg"},{"bike_id":"924beefc-7f17-496a-b7df-d11950357e09","system_id":"levelo_inurba_marseille","lat":43.29047,"lon":5.38671,"is_reserved":false,"is_disabled":false,"rental_uris":{"android":"levelo://app?vid=924beefc-7f17-496a-b7df-d11950357e09","ios":"levelo://app?vid=924beefc-7f17-496a-b7df-d11950357e09"},"vehicle_type_id":"4","last_reported":1735852080,"current_range_meters":17600,"station_id":"ce4bh4p2rcd13ifvqe0g","pricing_plan_id":"cebpf4jnsgd1na2vs0mg"},{"bike_id":"b36d0aa9-35b5-4ab6-b66b-656e8883a3a5","system_id":"levelo_inurba_marseille","lat":43.29482,"lon":5.39039,"is_reserved":false,"is_disabled":false,"rental_uris":{"android":"levelo://app?vid=b36d0aa9-35b5-4ab6-b66b-656e8883a3a5","ios":"levelo://app?vid=b36d0aa9-35b5-4ab6-b66b-656e8883a3a5"},"vehicle_type_id":"4","last_reported":1735852080,"current_range_meters":27200,"station_id":"ce4bh3p2rcd13ifvqdp0","pricing_plan_id":"cebpf4jnsgd1na2vs0mg"},{"bike_id":"4ec9a40c-8280-4de8-96a4-11e7ba503642","system_id":"levelo_inurba_marseille","lat":43.23862,"lon":5.38984,"is_reserved":false,"is_disabled":false,"rental_uris":{"android":"levelo://app?vid=4ec9a40c-8280-4de8-96a4-11e7ba503642","ios":"levelo://app?vid=4ec9a40c-8280-4de8-96a4-11e7ba503642"},"vehicle_type_id":"4","last_reported":1735852080,"current_range_meters":2800,"station_id":"","pricing_plan_id":"cebpf4jnsgd1na2vs0mg"},{"bike_id":"ff6506fc-cf14-4056-aa48-1e8307c6d671","system_id":"levelo_inurba_marseille","lat":43.28998,"lon":5.35605,"is_reserved":false,"is_disabled":false,"rental_uris":{"android":"levelo://app?vid=ff6506fc-cf14-4056-aa48-1e8307c6d671","ios":"levelo://app?vid=ff6506fc-cf14-4056-aa48-1e8307c6d671"},"vehicle_type_id":"4","last_reported":1735852080,"current_range_meters":37600,"station_id":"ce4bhb92rcd13ifvqen0","pricing_plan_id":"cebpf4jnsgd1na2vs0mg"},{"bike_id":"f811a98b-9aa7-419d-8e74-1c4088ab1bbc","system_id":"levelo_inurba_marseille","lat":43.270707,"lon":5.422815,"is_reserved":false,"is_disabled":false,"rental_uris":{"android":"levelo://app?vid=f811a98b-9aa7-419d-8e74-1c4088ab1bbc","ios":"levelo://app?vid=f811a98b-9aa7-419d-8e74-1c4088ab1bbc"},"vehicle_type_id":"4","last_reported":1735852080,"current_range_meters":38800,"station_id":"ce4bhk92rcd13ifvqgb0","pricing_plan_id":"cebpf4jnsgd1na2vs0mg"},{"bike_id":"8f236aa0-69d9-4777-af98-8397a0b1ff94","system_id":"levelo_inurba_marseille","lat":43.28165,"lon":5.42604,"is_reserved":false,"is_disabled":true,"rental_uris":{"android":"levelo://app?vid=8f236aa0-69d9-4777-af98-8397a0b1ff94","ios":"levelo://app?vid=8f236aa0-69d9-4777-af98-8397a0b1ff94"},"vehicle_type_id":"4","last_reported":1735852080,"current_range_meters":8400,"station_id":"ce4bhnh2rcd13ifvqgug","pricing_plan_id":"cebpf4jnsgd1na2vs0mg"},{"bike_id":"fffd28fd-cfc3-4e1e-998d-fc0dd58c799e","system_id":"levelo_inurba_marseille","lat":43.29306,"lon":5.37172,"is_reserved":false,"is_disabled":false,"rental_uris":{"android":"levelo://app?vid=fffd28fd-cfc3-4e1e-998d-fc0dd58c799e","ios":"levelo://app?vid=fffd28fd-cfc3-4e1e-998d-fc0dd58c799e"},"vehicle_type_id":"4","last_reported":1735852080,"current_range_meters":26800,"station_id":"ce4bgh92rcd13ifvqb40","pricing_plan_id":"cebpf4jnsgd1na2vs0mg"},{"bike_id":"8e936699-fb94-4c05-a18e-6a31521ab968","system_id":"levelo_inurba_marseille","lat":43.28441,"lon":5.35891,"is_reserved":false,"is_disabled":false,"rental_uris":{"android":"levelo://app?vid=8e936699-fb94-4c05-a18e-6a31521ab968","ios":"levelo://app?vid=8e936699-fb94-4c05-a18e-6a31521ab968"},"vehicle_type_id":"4","last_reported":1735852080,"current_range_meters":38000,"station_id":"ce4bhah2rcd13ifvqei0","pricing_plan_id":"cebpf4jnsgd1na2vs0mg"},{"bike_id":"8fd41660-9f08-4b00-98ad-83838f12a0e9","system_id":"levelo_inurba_marseille","lat":43.29601,"lon":5.38102,"is_reserved":false,"is_disabled":false,"rental_uris":{"android":"levelo://app?vid=8fd41660-9f08-4b00-98ad-83838f12a0e9","ios":"levelo://app?vid=8fd41660-9f08-4b00-98ad-83838f12a0e9"},"vehicle_type_id":"4","last_reported":1735852080,"current_range_meters":28000,"station_id":"ce4bgl12rcd13ifvqbo0","pricing_plan_id":"cebpf4jnsgd1na2vs0mg"},{"bike_id":"d9039fb6-1526-43a5-ab47-bf6c74051347","system_id":"levelo_inurba_marseille","lat":43.28147,"lon":5.42653,"is_reserved":false,"is_disabled":false,"rental_uris":{"android":"levelo://app?vid=d9039fb6-1526-43a5-ab47-bf6c74051347","ios":"levelo://app?vid=d9039fb6-1526-43a5-ab47-bf6c74051347"},"vehicle_type_id":"4","last_reported":1735852080,"current_range_meters":38800,"station_id":"ce4bhnh2rcd13ifvqgug","pricing_plan_id":"cebpf4jnsgd1na2vs0mg"},{"bike_id":"185e056a-57e1-403b-8772-f224568b8a81","system_id":"levelo_inurba_marseille","lat":43.24676,"lon":5.3814,"is_reserved":false,"is_disabled":false,"rental_uris":{"android":"levelo://app?vid=185e056a-57e1-403b-8772-f224568b8a81","ios":"levelo://app?vid=185e056a-57e1-403b-8772-f224568b8a81"},"vehicle_type_id":"4","last_reported":1735852080,"current_range_meters":38800,"station_id":"ce4bhih2rcd13ifvqfr0","pricing_plan_id":"cebpf4jnsgd1na2vs0mg"},{"bike_id":"536ced03-f935-46b5-972d-99c9305195ab","system_id":"levelo_inurba_marseille","lat":43.31058,"lon":5.383513,"is_reserved":false,"is_disabled":false,"rental_uris":{"android":"levelo://app?vid=536ced03-f935-46b5-972d-99c9305195ab","ios":"levelo://app?vid=536ced03-f935-46b5-972d-99c9305195ab"},"vehicle_type_id":"4","last_reported":1735852080,"current_range_meters":30000,"station_id":"ce4bgv92rcd13ifvqcr0","pricing_plan_id":"cebpf4jnsgd1na2vs0mg"},{"bike_id":"65c7064d-258e-4f50-8bbc-b2187209a0c7","system_id":"levelo_inurba_marseille","lat":43.29243,"lon":5.38437,"is_reserved":false,"is_disabled":false,"rental_uris":{"android":"levelo://app?vid=65c7064d-258e-4f50-8bbc-b2187209a0c7","ios":"levelo://app?vid=65c7064d-258e-4f50-8bbc-b2187209a0c7"},"vehicle_type_id":"4","last_reported":1735852080,"current_range_meters":10000,"station_id":"ce4bh692rcd13ifvqea0","pricing_plan_id":"cebpf4jnsgd1na2vs0mg"},{"bike_id":"022d826a-d31d-48ef-b07e-f8dd0ceaa746","system_id":"levelo_inurba_marseille","lat":43.24996,"lon":5.38935,"is_reserved":false,"is_disabled":false,"rental_uris":{"android":"levelo://app?vid=022d826a-d31d-48ef-b07e-f8dd0ceaa746","ios":"levelo://app?vid=022d826a-d31d-48ef-b07e-f8dd0ceaa746"},"vehicle_type_id":"4","last_reported":1735852080,"current_range_meters":26800,"station_id":"ce4bhgp2rcd13ifvqfd0","pricing_plan_id":"cebpf4jnsgd1na2vs0mg"},{"bike_id":"7a6dab3c-f964-42d9-b98a-28ef0157938b","system_id":"levelo_inurba_marseille","lat":43.28833,"lon":5.39313,"is_reserved":false,"is_disabled":false,"rental_uris":{"android":"levelo://app?vid=7a6dab3c-f964-42d9-b98a-28ef0157938b","ios":"levelo://app?vid=7a6dab3c-f964-42d9-b98a-28ef0157938b"},"vehicle_type_id":"4","last_reported":1735852080,"current_range_meters":36400,"station_id":"ce4bh2p2rcd13ifvqdi0","pricing_plan_id":"cebpf4jnsgd1na2vs0mg"},{"bike_id":"5f97eee1-4bb9-43f4-8e6e-a0b21a58fdc8","system_id":"levelo_inurba_marseille","lat":43.3189,"lon":5.40715,"is_reserved":false,"is_disabled":false,"rental_uris":{"android":"levelo://app?vid=5f97eee1-4bb9-43f4-8e6e-a0b21a58fdc8","ios":"levelo://app?vid=5f97eee1-4bb9-43f4-8e6e-a0b21a58fdc8"},"vehicle_type_id":"4","last_reported":1735852080,"current_range_meters":39200,"station_id":"ce4bhq12rcd13ifvqhig","pricing_plan_id":"cebpf4jnsgd1na2vs0mg"},{"bike_id":"9c975c47-5371-4921-b2e9-5b31b3588bc1","system_id":"levelo_inurba_marseille","lat":43.29266,"lon":5.38449,"is_reserved":false,"is_disabled":false,"rental_uris":{"android":"levelo://app?vid=9c975c47-5371-4921-b2e9-5b31b3588bc1","ios":"levelo://app?vid=9c975c47-5371-4921-b2e9-5b31b3588bc1"},"vehicle_type_id":"4","last_reported":1735852080,"current_range_meters":38800,"station_id":"ce4bh692rcd13ifvqea0","pricing_plan_id":"cebpf4jnsgd1na2vs0mg"},{"bike_id":"41ceb840-185c-47e7-a0f3-5a5721651aab","system_id":"levelo_inurba_marseille","lat":43.31323,"lon":5.39702,"is_reserved":false,"is_disabled":false,"rental_uris":{"android":"levelo://app?vid=41ceb840-185c-47e7-a0f3-5a5721651aab","ios":"levelo://app?vid=41ceb840-185c-47e7-a0f3-5a5721651aab"},"vehicle_type_id":"4","last_reported":1735852080,"current_range_meters":6800,"station_id":"ce4bgvp2rcd13ifvqcu0","pricing_plan_id":"cebpf4jnsgd1na2vs0mg"},{"bike_id":"658f3f86-23aa-48e9-af5f-b9cb4bbf3b8e","system_id":"levelo_inurba_marseille","lat":43.29555,"lon":5.42294,"is_reserved":false,"is_disabled":false,"rental_uris":{"android":"levelo://app?vid=658f3f86-23aa-48e9-af5f-b9cb4bbf3b8e","ios":"levelo://app?vid=658f3f86-23aa-48e9-af5f-b9cb4bbf3b8e"},"vehicle_type_id":"4","last_reported":1735852080,"current_range_meters":37600,"station_id":"ce4bhph2rcd13ifvqhdg","pricing_plan_id":"cebpf4jnsgd1na2vs0mg"},{"bike_id":"4298f84f-8dec-414e-9590-0e5ba0849cf4","system_id":"levelo_inurba_marseille","lat":43.29089,"lon":5.38132,"is_reserved":false,"is_disabled":false,"rental_uris":{"android":"levelo://app?vid=4298f84f-8dec-414e-9590-0e5ba0849cf4","ios":"levelo://app?vid=4298f84f-8dec-414e-9590-0e5ba0849cf4"},"vehicle_type_id":"4","last_reported":1735852080,"current_range_meters":24000,"station_id":"ce4bh512rcd13ifvqe2g","pricing_plan_id":"cebpf4jnsgd1na2vs0mg"},{"bike_id":"33dc37c8-ad31-4bbb-a502-8ad8309bfdd3","system_id":"levelo_inurba_marseille","lat":43.29885,"lon":5.43679,"is_reserved":false,"is_disabled":false,"rental_uris":{"android":"levelo://app?vid=33dc37c8-ad31-4bbb-a502-8ad8309bfdd3","ios":"levelo://app?vid=33dc37c8-ad31-4bbb-a502-8ad8309bfdd3"},"vehicle_type_id":"4","last_reported":1735852080,"current_range_meters":38800,"station_id":"ce4bhpp2rcd13ifvqhfg","pricing_plan_id":"cebpf4jnsgd1na2vs0mg"},{"bike_id":"4fc9d381-e3c5-4112-9560-31f2e3e46493","system_id":"levelo_inurba_marseille","lat":43.27943,"lon":5.41047,"is_reserved":false,"is_disabled":false,"rental_uris":{"android":"levelo://app?vid=4fc9d381-e3c5-4112-9560-31f2e3e46493","ios":"levelo://app?vid=4fc9d381-e3c5-4112-9560-31f2e3e46493"},"vehicle_type_id":"4","last_reported":1735852080,"current_range_meters":4400,"station_id":"ce4bhnp2rcd13ifvqh0g","pricing_plan_id":"cebpf4jnsgd1na2vs0mg"},{"bike_id":"d0030ff6-f8b3-4b75-bb9b-f2175ff4ca9d","system_id":"levelo_inurba_marseille","lat":43.24081,"lon":5.37715,"is_reserved":false,"is_disabled":false,"rental_uris":{"android":"levelo://app?vid=d0030ff6-f8b3-4b75-bb9b-f2175ff4ca9d","ios":"levelo://app?vid=d0030ff6-f8b3-4b75-bb9b-f2175ff4ca9d"},"vehicle_type_id":"4","last_reported":1735852080,"current_range_meters":38800,"station_id":"ce4bhnp2rcd13ifvqgvg","pricing_plan_id":"cebpf4jnsgd1na2vs0mg"},{"bike_id":"9d3fc8c9-2a30-46f6-a17d-7e1c0cdaa39c","system_id":"levelo_inurba_marseille","lat":43.29775,"lon":5.38095,"is_reserved":false,"is_disabled":false,"rental_uris":{"android":"levelo://app?vid=9d3fc8c9-2a30-46f6-a17d-7e1c0cdaa39c","ios":"levelo://app?vid=9d3fc8c9-2a30-46f6-a17d-7e1c0cdaa39c"},"vehicle_type_id":"4","last_reported":1735852080,"current_range_meters":36000,"station_id":"ce4bgip2rcd13ifvqbb0","pricing_plan_id":"cebpf4jnsgd1na2vs0mg"},{"bike_id":"288df3f3-407a-4ba2-b112-c5ead5bfabe0","system_id":"levelo_inurba_marseille","lat":43.29001,"lon":5.35567,"is_reserved":false,"is_disabled":true,"rental_uris":{"android":"levelo://app?vid=288df3f3-407a-4ba2-b112-c5ead5bfabe0","ios":"levelo://app?vid=288df3f3-407a-4ba2-b112-c5ead5bfabe0"},"vehicle_type_id":"4","last_reported":1735852080,"current_range_meters":38000,"station_id":"ce4bhb92rcd13ifvqen0","pricing_plan_id":"cebpf4jnsgd1na2vs0mg"},{"bike_id":"349a4ab8-6f13-4948-be71-abaadb9466ee","system_id":"levelo_inurba_marseille","lat":43.24079,"lon":5.37739,"is_reserved":false,"is_disabled":false,"rental_uris":{"android":"levelo://app?vid=349a4ab8-6f13-4948-be71-abaadb9466ee","ios":"levelo://app?vid=349a4ab8-6f13-4948-be71-abaadb9466ee"},"vehicle_type_id":"4","last_reported":1735852080,"current_range_meters":38000,"station_id":"ce4bhnp2rcd13ifvqgvg","pricing_plan_id":"cebpf4jnsgd1na2vs0mg"},{"bike_id":"e147a7b3-9e94-4f33-a9e2-8b559e074ee3","system_id":"levelo_inurba_marseille","lat":43.27949,"lon":5.41035,"is_reserved":false,"is_disabled":false,"rental_uris":{"android":"levelo://app?vid=e147a7b3-9e94-4f33-a9e2-8b559e074ee3","ios":"levelo://app?vid=e147a7b3-9e94-4f33-a9e2-8b559e074ee3"},"vehicle_type_id":"4","last_reported":1735852080,"current_range_meters":26800,"station_id":"ce4bhnp2rcd13ifvqh0g","pricing_plan_id":"cebpf4jnsgd1na2vs0mg"},{"bike_id":"97829712-45ed-44f4-98b1-03aec2ad37f0","system_id":"levelo_inurba_marseille","lat":43.26699,"lon":5.38259,"is_reserved":false,"is_disabled":false,"rental_uris":{"android":"levelo://app?vid=97829712-45ed-44f4-98b1-03aec2ad37f0","ios":"levelo://app?vid=97829712-45ed-44f4-98b1-03aec2ad37f0"},"vehicle_type_id":"4","last_reported":1735852080,"current_range_meters":38800,"station_id":"ce4bhg92rcd13ifvqf90","pricing_plan_id":"cebpf4jnsgd1na2vs0mg"},{"bike_id":"e7f232e6-9751-45f4-a24f-005b95d10947","system_id":"levelo_inurba_marseille","lat":43.29594,"lon":5.37685,"is_reserved":false,"is_disabled":true,"rental_uris":{"android":"levelo://app?vid=e7f232e6-9751-45f4-a24f-005b95d10947","ios":"levelo://app?vid=e7f232e6-9751-45f4-a24f-005b95d10947"},"vehicle_type_id":"4","last_reported":1735852080,"current_range_meters":800,"station_id":"ce4bgi92rcd13ifvqb90","pricing_plan_id":"cebpf4jnsgd1na2vs0mg"},{"bike_id":"4cf49d06-d12a-4f67-a04c-da55d1b6d7b0","system_id":"levelo_inurba_marseille","lat":43.28106,"lon":5.37833,"is_reserved":false,"is_disabled":false,"rental_uris":{"android":"levelo://app?vid=4cf49d06-d12a-4f67-a04c-da55d1b6d7b0","ios":"levelo://app?vid=4cf49d06-d12a-4f67-a04c-da55d1b6d7b0"},"vehicle_type_id":"4","last_reported":1735852080,"current_range_meters":20400,"station_id":"ce4bha12rcd13ifvqee0","pricing_plan_id":"cebpf4jnsgd1na2vs0mg"},{"bike_id":"f3998a04-3b93-4948-8eb7-aa16047370fd","system_id":"levelo_inurba_marseille","lat":43.27954,"lon":5.41046,"is_reserved":false,"is_disabled":false,"rental_uris":{"android":"levelo://app?vid=f3998a04-3b93-4948-8eb7-aa16047370fd","ios":"levelo://app?vid=f3998a04-3b93-4948-8eb7-aa16047370fd"},"vehicle_type_id":"4","last_reported":1735852080,"current_range_meters":22400,"station_id":"ce4bhnp2rcd13ifvqh0g","pricing_plan_id":"cebpf4jnsgd1na2vs0mg"},{"bike_id":"1c5434c6-81cf-4ea8-9bf2-abfb41c12665","system_id":"levelo_inurba_marseille","lat":43.30893,"lon":5.37183,"is_reserved":false,"is_disabled":true,"rental_uris":{"android":"levelo://app?vid=1c5434c6-81cf-4ea8-9bf2-abfb41c12665","ios":"levelo://app?vid=1c5434c6-81cf-4ea8-9bf2-abfb41c12665"},"vehicle_type_id":"4","last_reported":1735852080,"current_range_meters":37600,"station_id":"ce4bguh2rcd13ifvqckg","pricing_plan_id":"cebpf4jnsgd1na2vs0mg"},{"bike_id":"bbb173c2-5fa6-4439-999a-e24a3ecc81ee","system_id":"levelo_inurba_marseille","lat":43.29548,"lon":5.4227,"is_reserved":false,"is_disabled":false,"rental_uris":{"android":"levelo://app?vid=bbb173c2-5fa6-4439-999a-e24a3ecc81ee","ios":"levelo://app?vid=bbb173c2-5fa6-4439-999a-e24a3ecc81ee"},"vehicle_type_id":"4","last_reported":1735852080,"current_range_meters":30800,"station_id":"ce4bhph2rcd13ifvqhdg","pricing_plan_id":"cebpf4jnsgd1na2vs0mg"},{"bike_id":"1a179dc3-f8e0-460a-82bb-c6968a20da94","system_id":"levelo_inurba_marseille","lat":43.300972,"lon":5.390764,"is_reserved":false,"is_disabled":false,"rental_uris":{"android":"levelo://app?vid=1a179dc3-f8e0-460a-82bb-c6968a20da94","ios":"levelo://app?vid=1a179dc3-f8e0-460a-82bb-c6968a20da94"},"vehicle_type_id":"4","last_reported":1735852080,"current_range_meters":38800,"station_id":"ce4bh192rcd13ifvqdb0","pricing_plan_id":"cebpf4jnsgd1na2vs0mg"},{"bike_id":"bf0134ca-54e1-43be-8b29-8c6ccab6ae0d","system_id":"levelo_inurba_marseille","lat":43.24803,"lon":5.37454,"is_reserved":false,"is_disabled":false,"rental_uris":{"android":"levelo://app?vid=bf0134ca-54e1-43be-8b29-8c6ccab6ae0d","ios":"levelo://app?vid=bf0134ca-54e1-43be-8b29-8c6ccab6ae0d"},"vehicle_type_id":"4","last_reported":1735852080,"current_range_meters":38800,"station_id":"ce4bhgh2rcd13ifvqfb0","pricing_plan_id":"cebpf4jnsgd1na2vs0mg"},{"bike_id":"162ebffa-327e-4bb2-965c-a3b38039fb20","system_id":"levelo_inurba_marseille","lat":43.287025,"lon":5.388228,"is_reserved":false,"is_disabled":false,"rental_uris":{"android":"levelo://app?vid=162ebffa-327e-4bb2-965c-a3b38039fb20","ios":"levelo://app?vid=162ebffa-327e-4bb2-965c-a3b38039fb20"},"vehicle_type_id":"4","last_reported":1735852080,"current_range_meters":20000,"station_id":"ce4bh2p2rcd13ifvqdi0","pricing_plan_id":"cebpf4jnsgd1na2vs0mg"},{"bike_id":"e157af35-862f-4ff3-a971-0cec14143385","system_id":"levelo_inurba_marseille","lat":43.27945,"lon":5.41036,"is_reserved":false,"is_disabled":false,"rental_uris":{"android":"levelo://app?vid=e157af35-862f-4ff3-a971-0cec14143385","ios":"levelo://app?vid=e157af35-862f-4ff3-a971-0cec14143385"},"vehicle_type_id":"4","last_reported":1735852080,"current_range_meters":27200,"station_id":"ce4bhnp2rcd13ifvqh0g","pricing_plan_id":"cebpf4jnsgd1na2vs0mg"},{"bike_id":"a4828b82-6158-43c7-aedb-77476d918880","system_id":"levelo_inurba_marseille","lat":43.286129,"lon":5.350991,"is_reserved":false,"is_disabled":true,"rental_uris":{"android":"levelo://app?vid=a4828b82-6158-43c7-aedb-77476d918880","ios":"levelo://app?vid=a4828b82-6158-43c7-aedb-77476d918880"},"vehicle_type_id":"4","last_reported":1735852080,"current_range_meters":25200,"station_id":"ce4bhch2rcd13ifvqeug","pricing_plan_id":"cebpf4jnsgd1na2vs0mg"},{"bike_id":"43c64af5-9471-4260-89db-8ab112e03a32","system_id":"levelo_inurba_marseille","lat":43.27485,"lon":5.4245,"is_reserved":false,"is_disabled":false,"rental_uris":{"android":"levelo://app?vid=43c64af5-9471-4260-89db-8ab112e03a32","ios":"levelo://app?vid=43c64af5-9471-4260-89db-8ab112e03a32"},"vehicle_type_id":"4","last_reported":1735852080,"current_range_meters":10800,"station_id":"ce4bhn92rcd13ifvqgrg","pricing_plan_id":"cebpf4jnsgd1na2vs0mg"},{"bike_id":"aab95f4a-8936-4128-a3c4-5f9f8cdc46fb","system_id":"levelo_inurba_marseille","lat":43.29966,"lon":5.38494,"is_reserved":false,"is_disabled":false,"rental_uris":{"android":"levelo://app?vid=aab95f4a-8936-4128-a3c4-5f9f8cdc46fb","ios":"levelo://app?vid=aab95f4a-8936-4128-a3c4-5f9f8cdc46fb"},"vehicle_type_id":"4","last_reported":1735852080,"current_range_meters":22800,"station_id":"ce4bgj92rcd13ifvqbd0","pricing_plan_id":"cebpf4jnsgd1na2vs0mg"},{"bike_id":"bb7e0253-4de1-45a9-937a-dde49e321461","system_id":"levelo_inurba_marseille","lat":43.2988,"lon":5.39732,"is_reserved":false,"is_disabled":false,"rental_uris":{"android":"levelo://app?vid=bb7e0253-4de1-45a9-937a-dde49e321461","ios":"levelo://app?vid=bb7e0253-4de1-45a9-937a-dde49e321461"},"vehicle_type_id":"4","last_reported":1735852080,"current_range_meters":17200,"station_id":"ce4bh0h2rcd13ifvqd50","pricing_plan_id":"cebpf4jnsgd1na2vs0mg"},{"bike_id":"6c91ae54-0f05-4c3a-808a-f7a0e4f55390","system_id":"levelo_inurba_marseille","lat":43.26061,"lon":5.39394,"is_reserved":false,"is_disabled":false,"rental_uris":{"android":"levelo://app?vid=6c91ae54-0f05-4c3a-808a-f7a0e4f55390","ios":"levelo://app?vid=6c91ae54-0f05-4c3a-808a-f7a0e4f55390"},"vehicle_type_id":"4","last_reported":1735852080,"current_range_meters":35600,"station_id":"ce4bhh92rcd13ifvqfj0","pricing_plan_id":"cebpf4jnsgd1na2vs0mg"},{"bike_id":"e7ad1f30-7347-4688-9156-49495945ad72","system_id":"levelo_inurba_marseille","lat":43.2996,"lon":5.38495,"is_reserved":false,"is_disabled":false,"rental_uris":{"android":"levelo://app?vid=e7ad1f30-7347-4688-9156-49495945ad72","ios":"levelo://app?vid=e7ad1f30-7347-4688-9156-49495945ad72"},"vehicle_type_id":"4","last_reported":1735852080,"current_range_meters":28800,"station_id":"ce4bgj92rcd13ifvqbd0","pricing_plan_id":"cebpf4jnsgd1na2vs0mg"},{"bike_id":"a106e2d5-d5f8-4132-b59f-a0b0becc7d1d","system_id":"levelo_inurba_marseille","lat":43.28011,"lon":5.40007,"is_reserved":false,"is_disabled":false,"rental_uris":{"android":"levelo://app?vid=a106e2d5-d5f8-4132-b59f-a0b0becc7d1d","ios":"levelo://app?vid=a106e2d5-d5f8-4132-b59f-a0b0becc7d1d"},"vehicle_type_id":"4","last_reported":1735852080,"current_range_meters":7200,"station_id":"ce4bho92rcd13ifvqh4g","pricing_plan_id":"cebpf4jnsgd1na2vs0mg"},{"bike_id":"c4424011-51b9-45c4-a273-0d9e19fcebd1","system_id":"levelo_inurba_marseille","lat":43.28704,"lon":5.37394,"is_reserved":false,"is_disabled":false,"rental_uris":{"android":"levelo://app?vid=c4424011-51b9-45c4-a273-0d9e19fcebd1","ios":"levelo://app?vid=c4424011-51b9-45c4-a273-0d9e19fcebd1"},"vehicle_type_id":"4","last_reported":1735852080,"current_range_meters":33200,"station_id":"ce4bh3p2rcd13ifvqdq0","pricing_plan_id":"cebpf4jnsgd1na2vs0mg"},{"bike_id":"36e444d4-b29d-4ccc-8b4f-efbc1b0be8c3","system_id":"levelo_inurba_marseille","lat":43.29367,"lon":5.37843,"is_reserved":false,"is_disabled":false,"rental_uris":{"android":"levelo://app?vid=36e444d4-b29d-4ccc-8b4f-efbc1b0be8c3","ios":"levelo://app?vid=36e444d4-b29d-4ccc-8b4f-efbc1b0be8c3"},"vehicle_type_id":"4","last_reported":1735852080,"current_range_meters":38000,"station_id":"ce4bgjh2rcd13ifvqbf0","pricing_plan_id":"cebpf4jnsgd1na2vs0mg"},{"bike_id":"1d64e5d9-6db1-4098-b8df-bf1bbd653564","system_id":"levelo_inurba_marseille","lat":43.27378,"lon":5.36252,"is_reserved":false,"is_disabled":true,"rental_uris":{"android":"levelo://app?vid=1d64e5d9-6db1-4098-b8df-bf1bbd653564","ios":"levelo://app?vid=1d64e5d9-6db1-4098-b8df-bf1bbd653564"},"vehicle_type_id":"4","last_reported":1735852080,"current_range_meters":0,"station_id":"ce4bhbh2rcd13ifvqeo0","pricing_plan_id":"cebpf4jnsgd1na2vs0mg"},{"bike_id":"313a9a0d-cbde-465d-8a65-140655419224","system_id":"levelo_inurba_marseille","lat":43.25524,"lon":5.37647,"is_reserved":false,"is_disabled":false,"rental_uris":{"android":"levelo://app?vid=313a9a0d-cbde-465d-8a65-140655419224","ios":"levelo://app?vid=313a9a0d-cbde-465d-8a65-140655419224"},"vehicle_type_id":"4","last_reported":1735852080,"current_range_meters":38800,"station_id":"ce4bhh12rcd13ifvqff0","pricing_plan_id":"cebpf4jnsgd1na2vs0mg"},{"bike_id":"660aed1d-cdeb-4a3c-a6d4-d19ef9a2563b","system_id":"levelo_inurba_marseille","lat":43.29893,"lon":5.4368,"is_reserved":false,"is_disabled":false,"rental_uris":{"android":"levelo://app?vid=660aed1d-cdeb-4a3c-a6d4-d19ef9a2563b","ios":"levelo://app?vid=660aed1d-cdeb-4a3c-a6d4-d19ef9a2563b"},"vehicle_type_id":"4","last_reported":1735852080,"current_range_meters":38800,"station_id":"ce4bhpp2rcd13ifvqhfg","pricing_plan_id":"cebpf4jnsgd1na2vs0mg"},{"bike_id":"725999bb-8b32-4e5b-95fc-d63880a1b626","system_id":"levelo_inurba_marseille","lat":43.32652,"lon":5.4099,"is_reserved":false,"is_disabled":false,"rental_uris":{"android":"levelo://app?vid=725999bb-8b32-4e5b-95fc-d63880a1b626","ios":"levelo://app?vid=725999bb-8b32-4e5b-95fc-d63880a1b626"},"vehicle_type_id":"4","last_reported":1735852080,"current_range_meters":39200,"station_id":"ce4bhpp2rcd13ifvqhgg","pricing_plan_id":"cebpf4jnsgd1na2vs0mg"},{"bike_id":"2af79f06-2f41-443a-8c98-b554c72b55db","system_id":"levelo_inurba_marseille","lat":43.24799,"lon":5.3745,"is_reserved":false,"is_disabled":false,"rental_uris":{"android":"levelo://app?vid=2af79f06-2f41-443a-8c98-b554c72b55db","ios":"levelo://app?vid=2af79f06-2f41-443a-8c98-b554c72b55db"},"vehicle_type_id":"4","last_reported":1735852080,"current_range_meters":38800,"station_id":"ce4bhgh2rcd13ifvqfb0","pricing_plan_id":"cebpf4jnsgd1na2vs0mg"},{"bike_id":"38288730-f0b5-4556-a24c-53425361eaa6","system_id":"levelo_inurba_marseille","lat":43.27937,"lon":5.41038,"is_reserved":false,"is_disabled":false,"rental_uris":{"android":"levelo://app?vid=38288730-f0b5-4556-a24c-53425361eaa6","ios":"levelo://app?vid=38288730-f0b5-4556-a24c-53425361eaa6"},"vehicle_type_id":"4","last_reported":1735852080,"current_range_meters":34000,"station_id":"ce4bhnp2rcd13ifvqh0g","pricing_plan_id":"cebpf4jnsgd1na2vs0mg"},{"bike_id":"915e9914-dd2f-42e8-929f-bfbaedf1bd82","system_id":"levelo_inurba_marseille","lat":43.32333,"lon":5.38878,"is_reserved":false,"is_disabled":false,"rental_uris":{"android":"levelo://app?vid=915e9914-dd2f-42e8-929f-bfbaedf1bd82","ios":"levelo://app?vid=915e9914-dd2f-42e8-929f-bfbaedf1bd82"},"vehicle_type_id":"4","last_reported":1735852080,"current_range_meters":36400,"station_id":"ce4bhqp2rcd13ifvqhog","pricing_plan_id":"cebpf4jnsgd1na2vs0mg"},{"bike_id":"a04ab52a-8bac-468d-99bd-613e6943d4f3","system_id":"levelo_inurba_marseille","lat":43.32667,"lon":5.40993,"is_reserved":false,"is_disabled":false,"rental_uris":{"android":"levelo://app?vid=a04ab52a-8bac-468d-99bd-613e6943d4f3","ios":"levelo://app?vid=a04ab52a-8bac-468d-99bd-613e6943d4f3"},"vehicle_type_id":"4","last_reported":1735852080,"current_range_meters":18000,"station_id":"ce4bhpp2rcd13ifvqhgg","pricing_plan_id":"cebpf4jnsgd1na2vs0mg"},{"bike_id":"96cb6bae-f2f5-4454-84e9-1e631669b024","system_id":"levelo_inurba_marseille","lat":43.25107,"lon":5.40319,"is_reserved":false,"is_disabled":false,"rental_uris":{"android":"levelo://app?vid=96cb6bae-f2f5-4454-84e9-1e631669b024","ios":"levelo://app?vid=96cb6bae-f2f5-4454-84e9-1e631669b024"},"vehicle_type_id":"4","last_reported":1735852080,"current_range_meters":39200,"station_id":"ce4bhlh2rcd13ifvqgig","pricing_plan_id":"cebpf4jnsgd1na2vs0mg"},{"bike_id":"cf986eca-7164-4799-831a-ebfe17289f1a","system_id":"levelo_inurba_marseille","lat":43.27613,"lon":5.36103,"is_reserved":false,"is_disabled":false,"rental_uris":{"android":"levelo://app?vid=cf986eca-7164-4799-831a-ebfe17289f1a","ios":"levelo://app?vid=cf986eca-7164-4799-831a-ebfe17289f1a"},"vehicle_type_id":"4","last_reported":1735852080,"current_range_meters":38000,"station_id":"ce4bgj92rcd13ifvqbe0","pricing_plan_id":"cebpf4jnsgd1na2vs0mg"},{"bike_id":"85f66c35-cf00-496f-866f-ed1cc2019cfb","system_id":"levelo_inurba_marseille","lat":43.28104,"lon":5.37835,"is_reserved":false,"is_disabled":false,"rental_uris":{"android":"levelo://app?vid=85f66c35-cf00-496f-866f-ed1cc2019cfb","ios":"levelo://app?vid=85f66c35-cf00-496f-866f-ed1cc2019cfb"},"vehicle_type_id":"4","last_reported":1735852080,"current_range_meters":38000,"station_id":"ce4bha12rcd13ifvqee0","pricing_plan_id":"cebpf4jnsgd1na2vs0mg"},{"bike_id":"71d7fd86-ae0c-4b15-9ac5-1afdce815ed0","system_id":"levelo_inurba_marseille","lat":43.2987,"lon":5.39741,"is_reserved":false,"is_disabled":false,"rental_uris":{"android":"levelo://app?vid=71d7fd86-ae0c-4b15-9ac5-1afdce815ed0","ios":"levelo://app?vid=71d7fd86-ae0c-4b15-9ac5-1afdce815ed0"},"vehicle_type_id":"4","last_reported":1735852080,"current_range_meters":38000,"station_id":"ce4bh0h2rcd13ifvqd50","pricing_plan_id":"cebpf4jnsgd1na2vs0mg"},{"bike_id":"d9e7591d-4e69-4829-a945-5299a0d4f5d3","system_id":"levelo_inurba_marseille","lat":43.31883,"lon":5.40728,"is_reserved":false,"is_disabled":false,"rental_uris":{"android":"levelo://app?vid=d9e7591d-4e69-4829-a945-5299a0d4f5d3","ios":"levelo://app?vid=d9e7591d-4e69-4829-a945-5299a0d4f5d3"},"vehicle_type_id":"4","last_reported":1735852080,"current_range_meters":17600,"station_id":"ce4bhq12rcd13ifvqhig","pricing_plan_id":"cebpf4jnsgd1na2vs0mg"},{"bike_id":"17011feb-119c-489c-906a-b56ce2c555ce","system_id":"levelo_inurba_marseille","lat":43.26495,"lon":5.39538,"is_reserved":false,"is_disabled":false,"rental_uris":{"android":"levelo://app?vid=17011feb-119c-489c-906a-b56ce2c555ce","ios":"levelo://app?vid=17011feb-119c-489c-906a-b56ce2c555ce"},"vehicle_type_id":"4","last_reported":1735852080,"current_range_meters":39200,"station_id":"ce4bhi12rcd13ifvqfq0","pricing_plan_id":"cebpf4jnsgd1na2vs0mg"},{"bike_id":"4e2e926a-cc62-4529-8b24-3abbcf0f0be2","system_id":"levelo_inurba_marseille","lat":43.23189,"lon":5.35564,"is_reserved":false,"is_disabled":false,"rental_uris":{"android":"levelo://app?vid=4e2e926a-cc62-4529-8b24-3abbcf0f0be2","ios":"levelo://app?vid=4e2e926a-cc62-4529-8b24-3abbcf0f0be2"},"vehicle_type_id":"4","last_reported":1735852080,"current_range_meters":35200,"station_id":"ce4bhu92rcd13ifvqi70","pricing_plan_id":"cebpf4jnsgd1na2vs0mg"},{"bike_id":"ee7da7e1-0487-4a7b-838f-676e9c820e80","system_id":"levelo_inurba_marseille","lat":43.30408,"lon":5.39724,"is_reserved":false,"is_disabled":true,"rental_uris":{"android":"levelo://app?vid=ee7da7e1-0487-4a7b-838f-676e9c820e80","ios":"levelo://app?vid=ee7da7e1-0487-4a7b-838f-676e9c820e80"},"vehicle_type_id":"4","last_reported":1735852080,"current_range_meters":36800,"station_id":"ce4bh092rcd13ifvqd20","pricing_plan_id":"cebpf4jnsgd1na2vs0mg"},{"bike_id":"7a656b0f-b894-4819-9a9c-6ca398469187","system_id":"levelo_inurba_marseille","lat":43.27977,"lon":5.41648,"is_reserved":false,"is_disabled":false,"rental_uris":{"android":"levelo://app?vid=7a656b0f-b894-4819-9a9c-6ca398469187","ios":"levelo://app?vid=7a656b0f-b894-4819-9a9c-6ca398469187"},"vehicle_type_id":"4","last_reported":1735852080,"current_range_meters":12000,"station_id":"ce4bho12rcd13ifvqh1g","pricing_plan_id":"cebpf4jnsgd1na2vs0mg"},{"bike_id":"acf032b2-5572-4901-8127-dc1be4986c08","system_id":"levelo_inurba_marseille","lat":43.30631,"lon":5.40089,"is_reserved":false,"is_disabled":false,"rental_uris":{"android":"levelo://app?vid=acf032b2-5572-4901-8127-dc1be4986c08","ios":"levelo://app?vid=acf032b2-5572-4901-8127-dc1be4986c08"},"vehicle_type_id":"4","last_reported":1735852080,"current_range_meters":17200,"station_id":"ce4bh112rcd13ifvqda0","pricing_plan_id":"cebpf4jnsgd1na2vs0mg"},{"bike_id":"6143990e-f7e7-4500-846e-085b8e8441f3","system_id":"levelo_inurba_marseille","lat":43.25577,"lon":5.38223,"is_reserved":false,"is_disabled":false,"rental_uris":{"android":"levelo://app?vid=6143990e-f7e7-4500-846e-085b8e8441f3","ios":"levelo://app?vid=6143990e-f7e7-4500-846e-085b8e8441f3"},"vehicle_type_id":"4","last_reported":1735852080,"current_range_meters":38000,"station_id":"ce4bhih2rcd13ifvqfs0","pricing_plan_id":"cebpf4jnsgd1na2vs0mg"},{"bike_id":"3c348272-b440-4426-b2c7-621e1bcaa53c","system_id":"levelo_inurba_marseille","lat":43.27064,"lon":5.42265,"is_reserved":false,"is_disabled":false,"rental_uris":{"android":"levelo://app?vid=3c348272-b440-4426-b2c7-621e1bcaa53c","ios":"levelo://app?vid=3c348272-b440-4426-b2c7-621e1bcaa53c"},"vehicle_type_id":"4","last_reported":1735852080,"current_range_meters":36000,"station_id":"ce4bhk92rcd13ifvqgb0","pricing_plan_id":"cebpf4jnsgd1na2vs0mg"},{"bike_id":"e39779cb-dd0b-481e-95ed-043cce584dc4","system_id":"levelo_inurba_marseille","lat":43.2439,"lon":5.37045,"is_reserved":false,"is_disabled":false,"rental_uris":{"android":"levelo://app?vid=e39779cb-dd0b-481e-95ed-043cce584dc4","ios":"levelo://app?vid=e39779cb-dd0b-481e-95ed-043cce584dc4"},"vehicle_type_id":"4","last_reported":1735852080,"current_range_meters":19200,"station_id":"ce4bhhh2rcd13ifvqfk0","pricing_plan_id":"cebpf4jnsgd1na2vs0mg"},{"bike_id":"a8a13160-f812-40c0-acb2-e3dd2832ffb4","system_id":"levelo_inurba_marseille","lat":43.2951,"lon":5.39403,"is_reserved":false,"is_disabled":false,"rental_uris":{"android":"levelo://app?vid=a8a13160-f812-40c0-acb2-e3dd2832ffb4","ios":"levelo://app?vid=a8a13160-f812-40c0-acb2-e3dd2832ffb4"},"vehicle_type_id":"4","last_reported":1735852080,"current_range_meters":36000,"station_id":"ce4bh292rcd13ifvqdf0","pricing_plan_id":"cebpf4jnsgd1na2vs0mg"},{"bike_id":"ebd6b033-77a2-4f10-9628-19ea59fe9435","system_id":"levelo_inurba_marseille","lat":43.29796,"lon":5.38096,"is_reserved":false,"is_disabled":false,"rental_uris":{"android":"levelo://app?vid=ebd6b033-77a2-4f10-9628-19ea59fe9435","ios":"levelo://app?vid=ebd6b033-77a2-4f10-9628-19ea59fe9435"},"vehicle_type_id":"4","last_reported":1735852080,"current_range_meters":38000,"station_id":"ce4bgip2rcd13ifvqbb0","pricing_plan_id":"cebpf4jnsgd1na2vs0mg"},{"bike_id":"3815e6bf-fae6-4941-ab15-7c70eefa9203","system_id":"levelo_inurba_marseille","lat":43.29968,"lon":5.38517,"is_reserved":false,"is_disabled":false,"rental_uris":{"android":"levelo://app?vid=3815e6bf-fae6-4941-ab15-7c70eefa9203","ios":"levelo://app?vid=3815e6bf-fae6-4941-ab15-7c70eefa9203"},"vehicle_type_id":"4","last_reported":1735852080,"current_range_meters":16400,"station_id":"ce4bgj92rcd13ifvqbd0","pricing_plan_id":"cebpf4jnsgd1na2vs0mg"},{"bike_id":"a10cb38b-c0a9-46c5-81e3-8b36eafcdd96","system_id":"levelo_inurba_marseille","lat":43.289729,"lon":5.378333,"is_reserved":false,"is_disabled":true,"rental_uris":{"android":"levelo://app?vid=a10cb38b-c0a9-46c5-81e3-8b36eafcdd96","ios":"levelo://app?vid=a10cb38b-c0a9-46c5-81e3-8b36eafcdd96"},"vehicle_type_id":"4","last_reported":1735852080,"current_range_meters":35600,"station_id":"ce4bh9p2rcd13ifvqed0","pricing_plan_id":"cebpf4jnsgd1na2vs0mg"},{"bike_id":"0446beee-8bb0-4105-a606-0135f2de3edc","system_id":"levelo_inurba_marseille","lat":43.27172,"lon":5.40995,"is_reserved":false,"is_disabled":false,"rental_uris":{"android":"levelo://app?vid=0446beee-8bb0-4105-a606-0135f2de3edc","ios":"levelo://app?vid=0446beee-8bb0-4105-a606-0135f2de3edc"},"vehicle_type_id":"4","last_reported":1735852080,"current_range_meters":36400,"station_id":"ce4bhl12rcd13ifvqgf0","pricing_plan_id":"cebpf4jnsgd1na2vs0mg"},{"bike_id":"e86e8a6b-2981-4147-9bb2-a5ab92db9450","system_id":"levelo_inurba_marseille","lat":43.2816,"lon":5.42642,"is_reserved":false,"is_disabled":false,"rental_uris":{"android":"levelo://app?vid=e86e8a6b-2981-4147-9bb2-a5ab92db9450","ios":"levelo://app?vid=e86e8a6b-2981-4147-9bb2-a5ab92db9450"},"vehicle_type_id":"4","last_reported":1735852080,"current_range_meters":38800,"station_id":"ce4bhnh2rcd13ifvqgug","pricing_plan_id":"cebpf4jnsgd1na2vs0mg"},{"bike_id":"f9322cae-76fd-4207-99d3-4fdb35d93ddf","system_id":"levelo_inurba_marseille","lat":43.30131,"lon":5.39875,"is_reserved":false,"is_disabled":false,"rental_uris":{"android":"levelo://app?vid=f9322cae-76fd-4207-99d3-4fdb35d93ddf","ios":"levelo://app?vid=f9322cae-76fd-4207-99d3-4fdb35d93ddf"},"vehicle_type_id":"4","last_reported":1735852080,"current_range_meters":30400,"station_id":"ce4bh0h2rcd13ifvqd40","pricing_plan_id":"cebpf4jnsgd1na2vs0mg"},{"bike_id":"a14175ed-21b7-4bee-a20f-b5e0add00694","system_id":"levelo_inurba_marseille","lat":43.2844,"lon":5.39187,"is_reserved":false,"is_disabled":false,"rental_uris":{"android":"levelo://app?vid=a14175ed-21b7-4bee-a20f-b5e0add00694","ios":"levelo://app?vid=a14175ed-21b7-4bee-a20f-b5e0add00694"},"vehicle_type_id":"4","last_reported":1735852080,"current_range_meters":38400,"station_id":"ce4bhoh2rcd13ifvqh5g","pricing_plan_id":"cebpf4jnsgd1na2vs0mg"},{"bike_id":"5367a292-5564-4681-91cd-97babb89fc00","system_id":"levelo_inurba_marseille","lat":43.22935,"lon":5.35373,"is_reserved":false,"is_disabled":false,"rental_uris":{"android":"levelo://app?vid=5367a292-5564-4681-91cd-97babb89fc00","ios":"levelo://app?vid=5367a292-5564-4681-91cd-97babb89fc00"},"vehicle_type_id":"4","last_reported":1735852080,"current_range_meters":16800,"station_id":"cpo3532slgdg3j2ikp40","pricing_plan_id":"cebpf4jnsgd1na2vs0mg"},{"bike_id":"e40b8873-a7cf-4e56-b106-d515344f64c4","system_id":"levelo_inurba_marseille","lat":43.23195,"lon":5.35568,"is_reserved":false,"is_disabled":false,"rental_uris":{"android":"levelo://app?vid=e40b8873-a7cf-4e56-b106-d515344f64c4","ios":"levelo://app?vid=e40b8873-a7cf-4e56-b106-d515344f64c4"},"vehicle_type_id":"4","last_reported":1735852080,"current_range_meters":38800,"station_id":"ce4bhu92rcd13ifvqi70","pricing_plan_id":"cebpf4jnsgd1na2vs0mg"},{"bike_id":"f7f243ee-9025-47b7-abb5-21bc22634707","system_id":"levelo_inurba_marseille","lat":43.30136,"lon":5.38067,"is_reserved":false,"is_disabled":false,"rental_uris":{"android":"levelo://app?vid=f7f243ee-9025-47b7-abb5-21bc22634707","ios":"levelo://app?vid=f7f243ee-9025-47b7-abb5-21bc22634707"},"vehicle_type_id":"4","last_reported":1735852080,"current_range_meters":32800,"station_id":"ce4bgjp2rcd13ifvqbh0","pricing_plan_id":"cebpf4jnsgd1na2vs0mg"},{"bike_id":"14360ff4-527b-4a38-97fd-e73b70c574f3","system_id":"levelo_inurba_marseille","lat":43.30146,"lon":5.38786,"is_reserved":false,"is_disabled":false,"rental_uris":{"android":"levelo://app?vid=14360ff4-527b-4a38-97fd-e73b70c574f3","ios":"levelo://app?vid=14360ff4-527b-4a38-97fd-e73b70c574f3"},"vehicle_type_id":"4","last_reported":1735852080,"current_range_meters":39200,"station_id":"ce4bhoh2rcd13ifvqh6g","pricing_plan_id":"cebpf4jnsgd1na2vs0mg"},{"bike_id":"53a885e1-1033-47c5-b897-02cf79dd54f7","system_id":"levelo_inurba_marseille","lat":43.25863,"lon":5.39898,"is_reserved":false,"is_disabled":false,"rental_uris":{"android":"levelo://app?vid=53a885e1-1033-47c5-b897-02cf79dd54f7","ios":"levelo://app?vid=53a885e1-1033-47c5-b897-02cf79dd54f7"},"vehicle_type_id":"4","last_reported":1735852080,"current_range_meters":34000,"station_id":"ce4bhl92rcd13ifvqghg","pricing_plan_id":"cebpf4jnsgd1na2vs0mg"},{"bike_id":"536b70a3-fc64-47f8-88ea-2d090653c6fc","system_id":"levelo_inurba_marseille","lat":43.28304,"lon":5.38167,"is_reserved":false,"is_disabled":false,"rental_uris":{"android":"levelo://app?vid=536b70a3-fc64-47f8-88ea-2d090653c6fc","ios":"levelo://app?vid=536b70a3-fc64-47f8-88ea-2d090653c6fc"},"vehicle_type_id":"4","last_reported":1735852080,"current_range_meters":38800,"station_id":"ce4bh412rcd13ifvqdr0","pricing_plan_id":"cebpf4jnsgd1na2vs0mg"},{"bike_id":"d3bbc23a-977b-4b81-88be-f7e0b1a7ab38","system_id":"levelo_inurba_marseille","lat":43.29421,"lon":5.39744,"is_reserved":false,"is_disabled":true,"rental_uris":{"android":"levelo://app?vid=d3bbc23a-977b-4b81-88be-f7e0b1a7ab38","ios":"levelo://app?vid=d3bbc23a-977b-4b81-88be-f7e0b1a7ab38"},"vehicle_type_id":"4","last_reported":1735852080,"current_range_meters":38000,"station_id":"ce4bh3h2rcd13ifvqdo0","pricing_plan_id":"cebpf4jnsgd1na2vs0mg"},{"bike_id":"e40ade54-cf66-48d6-8e74-a4bb5cce376c","system_id":"levelo_inurba_marseille","lat":43.23186,"lon":5.39975,"is_reserved":false,"is_disabled":false,"rental_uris":{"android":"levelo://app?vid=e40ade54-cf66-48d6-8e74-a4bb5cce376c","ios":"levelo://app?vid=e40ade54-cf66-48d6-8e74-a4bb5cce376c"},"vehicle_type_id":"4","last_reported":1735852080,"current_range_meters":14800,"station_id":"ce4bhn12rcd13ifvqgqg","pricing_plan_id":"cebpf4jnsgd1na2vs0mg"},{"bike_id":"50201f58-89e6-447e-96ff-20f05ca8862f","system_id":"levelo_inurba_marseille","lat":43.29313,"lon":5.37152,"is_reserved":false,"is_disabled":false,"rental_uris":{"android":"levelo://app?vid=50201f58-89e6-447e-96ff-20f05ca8862f","ios":"levelo://app?vid=50201f58-89e6-447e-96ff-20f05ca8862f"},"vehicle_type_id":"4","last_reported":1735852080,"current_range_meters":19600,"station_id":"ce4bgh92rcd13ifvqb40","pricing_plan_id":"cebpf4jnsgd1na2vs0mg"},{"bike_id":"ef328f24-0f6f-4784-b56d-af328130325d","system_id":"levelo_inurba_marseille","lat":43.29606,"lon":5.38103,"is_reserved":false,"is_disabled":false,"rental_uris":{"android":"levelo://app?vid=ef328f24-0f6f-4784-b56d-af328130325d","ios":"levelo://app?vid=ef328f24-0f6f-4784-b56d-af328130325d"},"vehicle_type_id":"4","last_reported":1735852080,"current_range_meters":38800,"station_id":"ce4bgl12rcd13ifvqbo0","pricing_plan_id":"cebpf4jnsgd1na2vs0mg"},{"bike_id":"4b18fc74-124a-4026-8735-302c08bbdf7e","system_id":"levelo_inurba_marseille","lat":43.28674,"lon":5.38664,"is_reserved":false,"is_disabled":false,"rental_uris":{"android":"levelo://app?vid=4b18fc74-124a-4026-8735-302c08bbdf7e","ios":"levelo://app?vid=4b18fc74-124a-4026-8735-302c08bbdf7e"},"vehicle_type_id":"4","last_reported":1735852080,"current_range_meters":34000,"station_id":"ce4bh492rcd13ifvqdug","pricing_plan_id":"cebpf4jnsgd1na2vs0mg"},{"bike_id":"47bacd12-de07-48af-87bd-cc1ddc5d9c6a","system_id":"levelo_inurba_marseille","lat":43.29886,"lon":5.39744,"is_reserved":false,"is_disabled":false,"rental_uris":{"android":"levelo://app?vid=47bacd12-de07-48af-87bd-cc1ddc5d9c6a","ios":"levelo://app?vid=47bacd12-de07-48af-87bd-cc1ddc5d9c6a"},"vehicle_type_id":"4","last_reported":1735852080,"current_range_meters":9600,"station_id":"ce4bh0h2rcd13ifvqd50","pricing_plan_id":"cebpf4jnsgd1na2vs0mg"},{"bike_id":"1c02ae40-e43c-4632-b75b-2df9308dc3fe","system_id":"levelo_inurba_marseille","lat":43.337613,"lon":5.374348,"is_reserved":false,"is_disabled":false,"rental_uris":{"android":"levelo://app?vid=1c02ae40-e43c-4632-b75b-2df9308dc3fe","ios":"levelo://app?vid=1c02ae40-e43c-4632-b75b-2df9308dc3fe"},"vehicle_type_id":"4","last_reported":1735852080,"current_range_meters":37600,"station_id":"","pricing_plan_id":"cebpf4jnsgd1na2vs0mg"},{"bike_id":"005ef852-6fd8-4d44-90b3-b7a88fa5c3d3","system_id":"levelo_inurba_marseille","lat":43.3028,"lon":5.36929,"is_reserved":false,"is_disabled":false,"rental_uris":{"android":"levelo://app?vid=005ef852-6fd8-4d44-90b3-b7a88fa5c3d3","ios":"levelo://app?vid=005ef852-6fd8-4d44-90b3-b7a88fa5c3d3"},"vehicle_type_id":"4","last_reported":1735852080,"current_range_meters":37600,"station_id":"ce4bgqh2rcd13ifvqc5g","pricing_plan_id":"cebpf4jnsgd1na2vs0mg"},{"bike_id":"6ffb4cb4-e3f4-4288-aac7-0645beedaa5f","system_id":"levelo_inurba_marseille","lat":43.29533,"lon":5.38529,"is_reserved":false,"is_disabled":false,"rental_uris":{"android":"levelo://app?vid=6ffb4cb4-e3f4-4288-aac7-0645beedaa5f","ios":"levelo://app?vid=6ffb4cb4-e3f4-4288-aac7-0645beedaa5f"},"vehicle_type_id":"4","last_reported":1735852080,"current_range_meters":13600,"station_id":"ce4bgih2rcd13ifvqba0","pricing_plan_id":"cebpf4jnsgd1na2vs0mg"},{"bike_id":"24049831-997c-4f9e-95e3-931d66cdb6df","system_id":"levelo_inurba_marseille","lat":43.2863,"lon":5.35136,"is_reserved":false,"is_disabled":false,"rental_uris":{"android":"levelo://app?vid=24049831-997c-4f9e-95e3-931d66cdb6df","ios":"levelo://app?vid=24049831-997c-4f9e-95e3-931d66cdb6df"},"vehicle_type_id":"4","last_reported":1735852080,"current_range_meters":31200,"station_id":"ce4bhch2rcd13ifvqeug","pricing_plan_id":"cebpf4jnsgd1na2vs0mg"},{"bike_id":"3a7cdd4e-2a28-4737-b372-9bd16a52f2a3","system_id":"levelo_inurba_marseille","lat":43.28493,"lon":5.35775,"is_reserved":false,"is_disabled":false,"rental_uris":{"android":"levelo://app?vid=3a7cdd4e-2a28-4737-b372-9bd16a52f2a3","ios":"levelo://app?vid=3a7cdd4e-2a28-4737-b372-9bd16a52f2a3"},"vehicle_type_id":"4","last_reported":1735852080,"current_range_meters":5600,"station_id":"","pricing_plan_id":"cebpf4jnsgd1na2vs0mg"},{"bike_id":"8da4c67d-2ed0-418e-b038-2836a9c86265","system_id":"levelo_inurba_marseille","lat":43.31715,"lon":5.43707,"is_reserved":false,"is_disabled":false,"rental_uris":{"android":"levelo://app?vid=8da4c67d-2ed0-418e-b038-2836a9c86265","ios":"levelo://app?vid=8da4c67d-2ed0-418e-b038-2836a9c86265"},"vehicle_type_id":"4","last_reported":1735852080,"current_range_meters":38800,"station_id":"ce4bhp92rcd13ifvqhcg","pricing_plan_id":"cebpf4jnsgd1na2vs0mg"},{"bike_id":"a5f626c0-6fa9-4ee6-a58a-78e80207d322","system_id":"levelo_inurba_marseille","lat":43.30125,"lon":5.38818,"is_reserved":false,"is_disabled":false,"rental_uris":{"android":"levelo://app?vid=a5f626c0-6fa9-4ee6-a58a-78e80207d322","ios":"levelo://app?vid=a5f626c0-6fa9-4ee6-a58a-78e80207d322"},"vehicle_type_id":"4","last_reported":1735852080,"current_range_meters":28400,"station_id":"ce4bhoh2rcd13ifvqh6g","pricing_plan_id":"cebpf4jnsgd1na2vs0mg"},{"bike_id":"5da924b7-1d86-48f2-a906-f2fea708abbd","system_id":"levelo_inurba_marseille","lat":43.27686,"lon":5.38922,"is_reserved":false,"is_disabled":true,"rental_uris":{"android":"levelo://app?vid=5da924b7-1d86-48f2-a906-f2fea708abbd","ios":"levelo://app?vid=5da924b7-1d86-48f2-a906-f2fea708abbd"},"vehicle_type_id":"4","last_reported":1735852080,"current_range_meters":38000,"station_id":"ce4bhi12rcd13ifvqfo0","pricing_plan_id":"cebpf4jnsgd1na2vs0mg"},{"bike_id":"0de59c75-d5a6-499f-820e-82b7500ec1c3","system_id":"levelo_inurba_marseille","lat":43.291955,"lon":5.393258,"is_reserved":false,"is_disabled":false,"rental_uris":{"android":"levelo://app?vid=0de59c75-d5a6-499f-820e-82b7500ec1c3","ios":"levelo://app?vid=0de59c75-d5a6-499f-820e-82b7500ec1c3"},"vehicle_type_id":"4","last_reported":1735852080,"current_range_meters":38800,"station_id":"ce4bh192rcd13ifvqdd0","pricing_plan_id":"cebpf4jnsgd1na2vs0mg"},{"bike_id":"d858f272-5396-4509-83f4-bf8d2e835b76","system_id":"levelo_inurba_marseille","lat":43.23174,"lon":5.39979,"is_reserved":false,"is_disabled":false,"rental_uris":{"android":"levelo://app?vid=d858f272-5396-4509-83f4-bf8d2e835b76","ios":"levelo://app?vid=d858f272-5396-4509-83f4-bf8d2e835b76"},"vehicle_type_id":"4","last_reported":1735852080,"current_range_meters":28800,"station_id":"ce4bhn12rcd13ifvqgqg","pricing_plan_id":"cebpf4jnsgd1na2vs0mg"},{"bike_id":"6014b1e2-35bf-4517-95c5-f4b2b2de8022","system_id":"levelo_inurba_marseille","lat":43.31052,"lon":5.39298,"is_reserved":false,"is_disabled":true,"rental_uris":{"android":"levelo://app?vid=6014b1e2-35bf-4517-95c5-f4b2b2de8022","ios":"levelo://app?vid=6014b1e2-35bf-4517-95c5-f4b2b2de8022"},"vehicle_type_id":"4","last_reported":1735852080,"current_range_meters":0,"station_id":"","pricing_plan_id":"cebpf4jnsgd1na2vs0mg"},{"bike_id":"8d979c36-a643-4f41-94a9-78734d4aeda6","system_id":"levelo_inurba_marseille","lat":43.30572,"lon":5.39355,"is_reserved":false,"is_disabled":false,"rental_uris":{"android":"levelo://app?vid=8d979c36-a643-4f41-94a9-78734d4aeda6","ios":"levelo://app?vid=8d979c36-a643-4f41-94a9-78734d4aeda6"},"vehicle_type_id":"4","last_reported":1735852080,"current_range_meters":39200,"station_id":"ce4bh0p2rcd13ifvqd80","pricing_plan_id":"cebpf4jnsgd1na2vs0mg"},{"bike_id":"389a9b91-2a62-49d1-8eac-87915d4cb970","system_id":"levelo_inurba_marseille","lat":43.2692,"lon":5.38898,"is_reserved":false,"is_disabled":false,"rental_uris":{"android":"levelo://app?vid=389a9b91-2a62-49d1-8eac-87915d4cb970","ios":"levelo://app?vid=389a9b91-2a62-49d1-8eac-87915d4cb970"},"vehicle_type_id":"4","last_reported":1735852080,"current_range_meters":38000,"station_id":"ce4bhhh2rcd13ifvqfl0","pricing_plan_id":"cebpf4jnsgd1na2vs0mg"},{"bike_id":"2b5f5e39-4cae-4713-a5b5-989bf3fa2572","system_id":"levelo_inurba_marseille","lat":43.2317,"lon":5.39975,"is_reserved":false,"is_disabled":false,"rental_uris":{"android":"levelo://app?vid=2b5f5e39-4cae-4713-a5b5-989bf3fa2572","ios":"levelo://app?vid=2b5f5e39-4cae-4713-a5b5-989bf3fa2572"},"vehicle_type_id":"4","last_reported":1735852080,"current_range_meters":28800,"station_id":"ce4bhn12rcd13ifvqgqg","pricing_plan_id":"cebpf4jnsgd1na2vs0mg"},{"bike_id":"236eb851-54f4-4550-b34a-7e2e24746a1f","system_id":"levelo_inurba_marseille","lat":43.29533,"lon":5.38528,"is_reserved":false,"is_disabled":false,"rental_uris":{"android":"levelo://app?vid=236eb851-54f4-4550-b34a-7e2e24746a1f","ios":"levelo://app?vid=236eb851-54f4-4550-b34a-7e2e24746a1f"},"vehicle_type_id":"4","last_reported":1735852080,"current_range_meters":38800,"station_id":"ce4bgih2rcd13ifvqba0","pricing_plan_id":"cebpf4jnsgd1na2vs0mg"},{"bike_id":"8a0259b2-4ac3-411a-87ae-2802134ed81d","system_id":"levelo_inurba_marseille","lat":43.28903,"lon":5.38379,"is_reserved":false,"is_disabled":false,"rental_uris":{"android":"levelo://app?vid=8a0259b2-4ac3-411a-87ae-2802134ed81d","ios":"levelo://app?vid=8a0259b2-4ac3-411a-87ae-2802134ed81d"},"vehicle_type_id":"4","last_reported":1735852080,"current_range_meters":39200,"station_id":"ce4bh612rcd13ifvqe6g","pricing_plan_id":"cebpf4jnsgd1na2vs0mg"},{"bike_id":"a676ef63-e767-4d39-8a20-d3ec5d025d88","system_id":"levelo_inurba_marseille","lat":43.25823,"lon":5.39428,"is_reserved":false,"is_disabled":false,"rental_uris":{"android":"levelo://app?vid=a676ef63-e767-4d39-8a20-d3ec5d025d88","ios":"levelo://app?vid=a676ef63-e767-4d39-8a20-d3ec5d025d88"},"vehicle_type_id":"4","last_reported":1735852080,"current_range_meters":25200,"station_id":"ce4bhip2rcd13ifvqft0","pricing_plan_id":"cebpf4jnsgd1na2vs0mg"},{"bike_id":"108acb61-e069-47e1-a785-ebc8aaa76bd8","system_id":"levelo_inurba_marseille","lat":43.24386,"lon":5.37047,"is_reserved":false,"is_disabled":false,"rental_uris":{"android":"levelo://app?vid=108acb61-e069-47e1-a785-ebc8aaa76bd8","ios":"levelo://app?vid=108acb61-e069-47e1-a785-ebc8aaa76bd8"},"vehicle_type_id":"4","last_reported":1735852080,"current_range_meters":31200,"station_id":"ce4bhhh2rcd13ifvqfk0","pricing_plan_id":"cebpf4jnsgd1na2vs0mg"},{"bike_id":"ff3724d3-70be-4346-8180-67541c2e6bb4","system_id":"levelo_inurba_marseille","lat":43.28916,"lon":5.38385,"is_reserved":false,"is_disabled":false,"rental_uris":{"android":"levelo://app?vid=ff3724d3-70be-4346-8180-67541c2e6bb4","ios":"levelo://app?vid=ff3724d3-70be-4346-8180-67541c2e6bb4"},"vehicle_type_id":"4","last_reported":1735852080,"current_range_meters":38800,"station_id":"ce4bh612rcd13ifvqe6g","pricing_plan_id":"cebpf4jnsgd1na2vs0mg"},{"bike_id":"de962f6e-17d7-4c5f-8b91-409b202d3ed7","system_id":"levelo_inurba_marseille","lat":43.29298,"lon":5.37449,"is_reserved":false,"is_disabled":false,"rental_uris":{"android":"levelo://app?vid=de962f6e-17d7-4c5f-8b91-409b202d3ed7","ios":"levelo://app?vid=de962f6e-17d7-4c5f-8b91-409b202d3ed7"},"vehicle_type_id":"4","last_reported":1735852080,"current_range_meters":38800,"station_id":"ce4bgi12rcd13ifvqb70","pricing_plan_id":"cebpf4jnsgd1na2vs0mg"},{"bike_id":"a9e62202-e3d5-494c-9cca-7476998a7982","system_id":"levelo_inurba_marseille","lat":43.28717,"lon":5.37923,"is_reserved":false,"is_disabled":false,"rental_uris":{"android":"levelo://app?vid=a9e62202-e3d5-494c-9cca-7476998a7982","ios":"levelo://app?vid=a9e62202-e3d5-494c-9cca-7476998a7982"},"vehicle_type_id":"4","last_reported":1735852080,"current_range_meters":39200,"station_id":"ce4bh9p2rcd13ifvqec0","pricing_plan_id":"cebpf4jnsgd1na2vs0mg"},{"bike_id":"898ebcfa-1a27-4789-af7e-27b090bbcc03","system_id":"levelo_inurba_marseille","lat":43.28856,"lon":5.39327,"is_reserved":false,"is_disabled":false,"rental_uris":{"android":"levelo://app?vid=898ebcfa-1a27-4789-af7e-27b090bbcc03","ios":"levelo://app?vid=898ebcfa-1a27-4789-af7e-27b090bbcc03"},"vehicle_type_id":"4","last_reported":1735852080,"current_range_meters":17200,"station_id":"ce4bh2p2rcd13ifvqdi0","pricing_plan_id":"cebpf4jnsgd1na2vs0mg"},{"bike_id":"c14d1989-a72f-4241-a582-39661d0bcfcf","system_id":"levelo_inurba_marseille","lat":43.23196,"lon":5.35545,"is_reserved":false,"is_disabled":false,"rental_uris":{"android":"levelo://app?vid=c14d1989-a72f-4241-a582-39661d0bcfcf","ios":"levelo://app?vid=c14d1989-a72f-4241-a582-39661d0bcfcf"},"vehicle_type_id":"4","last_reported":1735852080,"current_range_meters":38800,"station_id":"ce4bhu92rcd13ifvqi70","pricing_plan_id":"cebpf4jnsgd1na2vs0mg"},{"bike_id":"ef72cdb4-465d-4178-b952-49906f159c48","system_id":"levelo_inurba_marseille","lat":43.2815,"lon":5.42638,"is_reserved":false,"is_disabled":false,"rental_uris":{"android":"levelo://app?vid=ef72cdb4-465d-4178-b952-49906f159c48","ios":"levelo://app?vid=ef72cdb4-465d-4178-b952-49906f159c48"},"vehicle_type_id":"4","last_reported":1735852080,"current_range_meters":25200,"station_id":"ce4bhnh2rcd13ifvqgug","pricing_plan_id":"cebpf4jnsgd1na2vs0mg"},{"bike_id":"7dfe26ce-d7ef-4cb2-a642-50e9fb8770b0","system_id":"levelo_inurba_marseille","lat":43.262,"lon":5.37914,"is_reserved":false,"is_disabled":false,"rental_uris":{"android":"levelo://app?vid=7dfe26ce-d7ef-4cb2-a642-50e9fb8770b0","ios":"levelo://app?vid=7dfe26ce-d7ef-4cb2-a642-50e9fb8770b0"},"vehicle_type_id":"4","last_reported":1735852080,"current_range_meters":37600,"station_id":"ce4bhjp2rcd13ifvqg90","pricing_plan_id":"cebpf4jnsgd1na2vs0mg"},{"bike_id":"cd799ed6-4897-449a-b65c-1cec7ac6afaf","system_id":"levelo_inurba_marseille","lat":43.30806,"lon":5.38163,"is_reserved":false,"is_disabled":true,"rental_uris":{"android":"levelo://app?vid=cd799ed6-4897-449a-b65c-1cec7ac6afaf","ios":"levelo://app?vid=cd799ed6-4897-449a-b65c-1cec7ac6afaf"},"vehicle_type_id":"4","last_reported":1735852080,"current_range_meters":28800,"station_id":"ce4bgt12rcd13ifvqce0","pricing_plan_id":"cebpf4jnsgd1na2vs0mg"},{"bike_id":"fff6da74-d48c-4937-a452-dd77602147ed","system_id":"levelo_inurba_marseille","lat":43.31468,"lon":5.38367,"is_reserved":false,"is_disabled":false,"rental_uris":{"android":"levelo://app?vid=fff6da74-d48c-4937-a452-dd77602147ed","ios":"levelo://app?vid=fff6da74-d48c-4937-a452-dd77602147ed"},"vehicle_type_id":"4","last_reported":1735852080,"current_range_meters":3200,"station_id":"","pricing_plan_id":"cebpf4jnsgd1na2vs0mg"},{"bike_id":"0b1c27a8-912f-47de-83f1-1d9fe5bc3168","system_id":"levelo_inurba_marseille","lat":43.24804,"lon":5.37455,"is_reserved":false,"is_disabled":true,"rental_uris":{"android":"levelo://app?vid=0b1c27a8-912f-47de-83f1-1d9fe5bc3168","ios":"levelo://app?vid=0b1c27a8-912f-47de-83f1-1d9fe5bc3168"},"vehicle_type_id":"4","last_reported":1735852080,"current_range_meters":3200,"station_id":"ce4bhgh2rcd13ifvqfb0","pricing_plan_id":"cebpf4jnsgd1na2vs0mg"},{"bike_id":"e2db395a-8d24-440e-9e8a-fceb63f61ec2","system_id":"levelo_inurba_marseille","lat":43.32283,"lon":5.38267,"is_reserved":false,"is_disabled":false,"rental_uris":{"android":"levelo://app?vid=e2db395a-8d24-440e-9e8a-fceb63f61ec2","ios":"levelo://app?vid=e2db395a-8d24-440e-9e8a-fceb63f61ec2"},"vehicle_type_id":"4","last_reported":1735852080,"current_range_meters":38000,"station_id":"ce4bhr12rcd13ifvqhqg","pricing_plan_id":"cebpf4jnsgd1na2vs0mg"},{"bike_id":"f5e55c9f-8e65-4dcf-971e-a7095b3ad687","system_id":"levelo_inurba_marseille","lat":43.26784,"lon":5.3941,"is_reserved":false,"is_disabled":false,"rental_uris":{"android":"levelo://app?vid=f5e55c9f-8e65-4dcf-971e-a7095b3ad687","ios":"levelo://app?vid=f5e55c9f-8e65-4dcf-971e-a7095b3ad687"},"vehicle_type_id":"4","last_reported":1735852080,"current_range_meters":32000,"station_id":"ce4bhh12rcd13ifvqfg0","pricing_plan_id":"cebpf4jnsgd1na2vs0mg"},{"bike_id":"44377e14-c431-47f9-879d-d27236127509","system_id":"levelo_inurba_marseille","lat":43.25829,"lon":5.39422,"is_reserved":false,"is_disabled":false,"rental_uris":{"android":"levelo://app?vid=44377e14-c431-47f9-879d-d27236127509","ios":"levelo://app?vid=44377e14-c431-47f9-879d-d27236127509"},"vehicle_type_id":"4","last_reported":1735852080,"current_range_meters":16800,"station_id":"ce4bhip2rcd13ifvqft0","pricing_plan_id":"cebpf4jnsgd1na2vs0mg"},{"bike_id":"b3da09ff-65c8-493d-8df3-946b63f84047","system_id":"levelo_inurba_marseille","lat":43.24789,"lon":5.37449,"is_reserved":false,"is_disabled":false,"rental_uris":{"android":"levelo://app?vid=b3da09ff-65c8-493d-8df3-946b63f84047","ios":"levelo://app?vid=b3da09ff-65c8-493d-8df3-946b63f84047"},"vehicle_type_id":"4","last_reported":1735852080,"current_range_meters":24000,"station_id":"ce4bhgh2rcd13ifvqfb0","pricing_plan_id":"cebpf4jnsgd1na2vs0mg"},