{"last_updated":1732505111,"ttl":60,"version":"2.2","data":{"bikes":[{"bike_id":"d9df8239-4976-4070-b26b-e224a7ef0fff","system_id":"levelo_inurba_marseille","lat":43.31154,"lon":5.36945,"is_reserved":false,"is_disabled":true,"rental_uris":{"android":"levelo://app?vid=d9df8239-4976-4070-b26b-e224a7ef0fff","ios":"levelo://app?vid=d9df8239-4976-4070-b26b-e224a7ef0fff"},"vehicle_type_id":"4","last_reported":1732505111,"current_range_meters":0,"station_id":"","pricing_plan_id":"cebpf4jnsgd1na2vs0mg"},{"bike_id":"95704732-ea71-43b9-a0eb-dced8dc86866","system_id":"levelo_inurba_marseille","lat":43.315312,"lon":5.380291,"is_reserved":false,"is_disabled":false,"rental_uris":{"android":"levelo://app?vid=95704732-ea71-43b9-a0eb-dced8dc86866","ios":"levelo://app?vid=95704732-ea71-43b9-a0eb-dced8dc86866"},"vehicle_type_id":"4","last_reported":1732505111,"current_range_meters":22800,"station_id":"ce4bhsp2rcd13ifvqi50","pricing_plan_id":"cebpf4jnsgd1na2vs0mg"},{"bike_id":"77a6b4d3-f225-40ca-b115-e0b015ca37be","system_id":"levelo_inurba_marseille","lat":43.28151,"lon":5.42645,"is_reserved":false,"is_disabled":false,"rental_uris":{"android":"levelo://app?vid=77a6b4d3-f225-40ca-b115-e0b015ca37be","ios":"levelo://app?vid=77a6b4d3-f225-40ca-b115-e0b015ca37be"},"vehicle_type_id":"4","last_reported":1732505111,"current_range_meters":38400,"station_id":"ce4bhnh2rcd13ifvqgug","pricing_plan_id":"cebpf4jnsgd1na2vs0mg"},{"bike_id":"5e3b3b7c-8721-4748-8f9f-ad05d634487d","system_id":"levelo_inurba_marseille","lat":43.30807,"lon":5.38145,"is_reserved":false,"is_disabled":false,"rental_uris":{"android":"levelo://app?vid=5e3b3b7c-8721-4748-8f9f-ad05d634487d","ios":"levelo://app?vid=5e3b3b7c-8721-4748-8f9f-ad05d634487d"},"vehicle_type_id":"4","last_reported":1732505111,"current_range_meters":13600,"station_id":"ce4bgt12rcd13ifvqce0","pricing_plan_id":"cebpf4jnsgd1na2vs0mg"},{"bike_id":"2bc5eb92-55de-42fa-8f6d-673a260cccfd","system_id":"levelo_inurba_marseille","lat":43.279982,"lon":5.416598,"is_reserved":false,"is_disabled":false,"rental_uris":{"android":"levelo://app?vid=2bc5eb92-55de-42fa-8f6d-673a260cccfd","ios":"levelo://app?vid=2bc5eb92-55de-42fa-8f6d-673a260cccfd"},"vehicle_type_id":"4","last_reported":1732505111,"current_range_meters":37600,"station_id":"ce4bho12rcd13ifvqh1g","pricing_plan_id":"cebpf4jnsgd1na2vs0mg"},{"bike_id":"c38f39cb-eeac-4ab7-92be-fee029553058","system_id":"levelo_inurba_marseille","lat":43.26066,"lon":5.39397,"is_reserved":false,"is_disabled":false,"rental_uris":{"android":"levelo://app?vid=c38f39cb-eeac-4ab7-92be-fee029553058","ios":"levelo://app?vid=c38f39cb-eeac-4ab7-92be-fee029553058"},"vehicle_type_id":"4","last_reported":1732505111,"current_range_meters":38800,"station_id":"ce4bhh92rcd13ifvqfj0","pricing_plan_id":"cebpf4jnsgd1na2vs0mg"},{"bike_id":"61523ac5-be94-4db1-a936-520815f81c3d","system_id":"levelo_inurba_marseille","lat":43.32369,"lon":5.3888,"is_reserved":false,"is_disabled":false,"rental_uris":{"android":"levelo://app?vid=61523ac5-be94-4db1-a936-520815f81c3d","ios":"levelo://app?vid=61523ac5-be94-4db1-a936-520815f81c3d"},"vehicle_type_id":"4","last_reported":1732505111,"current_range_meters":13600,"station_id":"ce4bhqp2rcd13ifvqhog","pricing_plan_id":"cebpf4jnsgd1na2vs0mg"},{"bike_id":"01c5e2bf-e580-4e61-addd-f251f02225fb","system_id":"levelo_inurba_marseille","lat":43.28565,"lon":5.39504,"is_reserved":false,"is_disabled":false,"rental_uris":{"android":"levelo://app?vid=01c5e2bf-e580-4e61-addd-f251f02225fb","ios":"levelo://app?vid=01c5e2bf-e580-4e61-addd-f251f02225fb"},"vehicle_type_id":"4","last_reported":1732505111,"current_range_meters":38800,"station_id":"ce4bh292rcd13ifvqdg0","pricing_plan_id":"cebpf4jnsgd1na2vs0mg"},{"bike_id":"d30340d4-aa86-4316-912b-789e0a760540","system_id":"levelo_inurba_marseille","lat":43.3112,"lon":5.37764,"is_reserved":false,"is_disabled":true,"rental_uris":{"android":"levelo://app?vid=d30340d4-aa86-4316-912b-789e0a760540","ios":"levelo://app?vid=d30340d4-aa86-4316-912b-789e0a760540"},"vehicle_type_id":"4","last_reported":1732505111,"current_range_meters":32000,"station_id":"ce4bgt92rcd13ifvqcg0","pricing_plan_id":"cebpf4jnsgd1na2vs0mg"},{"bike_id":"3e3afa00-805a-4b1b-8803-4419729f317d","system_id":"levelo_inurba_marseille","lat":43.28432,"lon":5.34994,"is_reserved":false,"is_disabled":false,"rental_uris":{"android":"levelo://app?vid=3e3afa00-805a-4b1b-8803-4419729f317d","ios":"levelo://app?vid=3e3afa00-805a-4b1b-8803-4419729f317d"},"vehicle_type_id":"4","last_reported":1732505111,"current_range_meters":37600,"station_id":"ce4bhbh2rcd13ifvqepg","pricing_plan_id":"cebpf4jnsgd1na2vs0mg"},{"bike_id":"dfdf02f3-dec5-466c-b3c0-98ee7bf502ab","system_id":"levelo_inurba_marseille","lat":43.27925,"lon":5.39585,"is_reserved":false,"is_disabled":false,"rental_uris":{"android":"levelo://app?vid=dfdf02f3-dec5-466c-b3c0-98ee7bf502ab","ios":"levelo://app?vid=dfdf02f3-dec5-466c-b3c0-98ee7bf502ab"},"vehicle_type_id":"4","last_reported":1732505111,"current_range_meters":38400,"station_id":"ce4bhf92rcd13ifvqf40","pricing_plan_id":"cebpf4jnsgd1na2vs0mg"},{"bike_id":"94527a76-0bb1-4146-9d66-5a02656d021d","system_id":"levelo_inurba_marseille","lat":43.28153,"lon":5.42644,"is_reserved":false,"is_disabled":false,"rental_uris":{"android":"levelo://app?vid=94527a76-0bb1-4146-9d66-5a02656d021d","ios":"levelo://app?vid=94527a76-0bb1-4146-9d66-5a02656d021d"},"vehicle_type_id":"4","last_reported":1732505111,"current_range_meters":12400,"station_id":"ce4bhnh2rcd13ifvqgug","pricing_plan_id":"cebpf4jnsgd1na2vs0mg"},{"bike_id":"3741537c-2ad3-4846-b411-eb93dff42150","system_id":"levelo_inurba_marseille","lat":43.305898,"lon":5.393504,"is_reserved":false,"is_disabled":false,"rental_uris":{"android":"levelo://app?vid=3741537c-2ad3-4846-b411-eb93dff42150","ios":"levelo://app?vid=3741537c-2ad3-4846-b411-eb93dff42150"},"vehicle_type_id":"4","last_reported":1732505111,"current_range_meters":28000,"station_id":"ce4bh0p2rcd13ifvqd80","pricing_plan_id":"cebpf4jnsgd1na2vs0mg"},{"bike_id":"d4a8d056-dde8-45a2-9002-27751ca1259a","system_id":"levelo_inurba_marseille","lat":43.27208,"lon":5.39192,"is_reserved":false,"is_disabled":true,"rental_uris":{"android":"levelo://app?vid=d4a8d056-dde8-45a2-9002-27751ca1259a","ios":"levelo://app?vid=d4a8d056-dde8-45a2-9002-27751ca1259a"},"vehicle_type_id":"4","last_reported":1732505111,"current_range_meters":9600,"station_id":"ce4bhhp2rcd13ifvqfm0","pricing_plan_id":"cebpf4jnsgd1na2vs0mg"},{"bike_id":"665441fd-07f3-4bf3-940a-b0cf29b5cf02","system_id":"levelo_inurba_marseille","lat":43.30095,"lon":5.3909,"is_reserved":false,"is_disabled":false,"rental_uris":{"android":"levelo://app?vid=665441fd-07f3-4bf3-940a-b0cf29b5cf02","ios":"levelo://app?vid=665441fd-07f3-4bf3-940a-b0cf29b5cf02"},"vehicle_type_id":"4","last_reported":1732505111,"current_range_meters":30400,"station_id":"ce4bh192rcd13ifvqdb0","pricing_plan_id":"cebpf4jnsgd1na2vs0mg"},{"bike_id":"a2c3f06a-3319-425c-8195-a22094097bcf","system_id":"levelo_inurba_marseille","lat":43.30884,"lon":5.39641,"is_reserved":false,"is_disabled":false,"rental_uris":{"android":"levelo://app?vid=a2c3f06a-3319-425c-8195-a22094097bcf","ios":"levelo://app?vid=a2c3f06a-3319-425c-8195-a22094097bcf"},"vehicle_type_id":"4","last_reported":1732505111,"current_range_meters":38800,"station_id":"ce4bh012rcd13ifvqcv0","pricing_plan_id":"cebpf4jnsgd1na2vs0mg"},{"bike_id":"1d480d76-bb73-4781-930a-16c68fdce680","system_id":"levelo_inurba_marseille","lat":43.25576,"lon":5.38233,"is_reserved":false,"is_disabled":false,"rental_uris":{"android":"levelo://app?vid=1d480d76-bb73-4781-930a-16c68fdce680","ios":"levelo://app?vid=1d480d76-bb73-4781-930a-16c68fdce680"},"vehicle_type_id":"4","last_reported":1732505111,"current_range_meters":30800,"station_id":"ce4bhih2rcd13ifvqfs0","pricing_plan_id":"cebpf4jnsgd1na2vs0mg"},{"bike_id":"fcf28019-63c5-4387-8d9e-ebdeea067df7","system_id":"levelo_inurba_marseille","lat":43.33022,"lon":5.39048,"is_reserved":false,"is_disabled":false,"rental_uris":{"android":"levelo://app?vid=fcf28019-63c5-4387-8d9e-ebdeea067df7","ios":"levelo://app?vid=fcf28019-63c5-4387-8d9e-ebdeea067df7"},"vehicle_type_id":"4","last_reported":1732505111,"current_range_meters":39200,"station_id":"ce4bhr92rcd13ifvqhrg","pricing_plan_id":"cebpf4jnsgd1na2vs0mg"},{"bike_id":"ef70c086-1573-4d5a-823e-18d68fa12ade","system_id":"levelo_inurba_marseille","lat":43.28496,"lon":5.38564,"is_reserved":false,"is_disabled":false,"rental_uris":{"android":"levelo://app?vid=ef70c086-1573-4d5a-823e-18d68fa12ade","ios":"levelo://app?vid=ef70c086-1573-4d5a-823e-18d68fa12ade"},"vehicle_type_id":"4","last_reported":1732505111,"current_range_meters":32800,"station_id":"ce4bh8p2rcd13ifvqeb0","pricing_plan_id":"cebpf4jnsgd1na2vs0mg"},{"bike_id":"f194ce90-013c-4fc7-8be7-5bad56e3b52c","system_id":"levelo_inurba_marseille","lat":43.24077,"lon":5.37746,"is_reserved":false,"is_disabled":false,"rental_uris":{"android":"levelo://app?vid=f194ce90-013c-4fc7-8be7-5bad56e3b52c","ios":"levelo://app?vid=f194ce90-013c-4fc7-8be7-5bad56e3b52c"},"vehicle_type_id":"4","last_reported":1732505111,"current_range_meters":39200,"station_id":"ce4bhnp2rcd13ifvqgvg","pricing_plan_id":"cebpf4jnsgd1na2vs0mg"},{"bike_id":"38da27ca-389c-4f8d-8ec3-1657501c8e3e","system_id":"levelo_inurba_marseille","lat":43.31183,"lon":5.38696,"is_reserved":false,"is_disabled":false,"rental_uris":{"android":"levelo://app?vid=38da27ca-389c-4f8d-8ec3-1657501c8e3e","ios":"levelo://app?vid=38da27ca-389c-4f8d-8ec3-1657501c8e3e"},"vehicle_type_id":"4","last_reported":1732505111,"current_range_meters":39200,"station_id":"ce4bgv12rcd13ifvqcp0","pricing_plan_id":"cebpf4jnsgd1na2vs0mg"},{"bike_id":"30585094-ecfe-43ac-ae36-000c4a5ab426","system_id":"levelo_inurba_marseille","lat":43.30938,"lon":5.39002,"is_reserved":false,"is_disabled":true,"rental_uris":{"android":"levelo://app?vid=30585094-ecfe-43ac-ae36-000c4a5ab426","ios":"levelo://app?vid=30585094-ecfe-43ac-ae36-000c4a5ab426"},"vehicle_type_id":"4","last_reported":1732505111,"current_range_meters":19200,"station_id":"ce4bgup2rcd13ifvqco0","pricing_plan_id":"cebpf4jnsgd1na2vs0mg"},{"bike_id":"5f84fccb-6473-45c7-b4bf-9ab64c8af504","system_id":"levelo_inurba_marseille","lat":43.25109,"lon":5.40319,"is_reserved":false,"is_disabled":false,"rental_uris":{"android":"levelo://app?vid=5f84fccb-6473-45c7-b4bf-9ab64c8af504","ios":"levelo://app?vid=5f84fccb-6473-45c7-b4bf-9ab64c8af504"},"vehicle_type_id":"4","last_reported":1732505111,"current_range_meters":38800,"station_id":"ce4bhlh2rcd13ifvqgig","pricing_plan_id":"cebpf4jnsgd1na2vs0mg"},{"bike_id":"39b11e64-2962-470f-8250-90fe18d4a5f4","system_id":"levelo_inurba_marseille","lat":43.24727,"lon":5.39287,"is_reserved":false,"is_disabled":true,"rental_uris":{"android":"levelo://app?vid=39b11e64-2962-470f-8250-90fe18d4a5f4","ios":"levelo://app?vid=39b11e64-2962-470f-8250-90fe18d4a5f4"},"vehicle_type_id":"4","last_reported":1732505111,"current_range_meters":0,"station_id":"","pricing_plan_id":"cebpf4jnsgd1na2vs0mg"},{"bike_id":"e467ac19-4c89-442f-9dca-1bce0fd82179","system_id":"levelo_inurba_marseille","lat":43.31066,"lon":5.38344,"is_reserved":false,"is_disabled":false,"rental_uris":{"android":"levelo://app?vid=e467ac19-4c89-442f-9dca-1bce0fd82179","ios":"levelo://app?vid=e467ac19-4c89-442f-9dca-1bce0fd82179"},"vehicle_type_id":"4","last_reported":1732505111,"current_range_meters":20800,"station_id":"ce4bgv92rcd13ifvqcr0","pricing_plan_id":"cebpf4jnsgd1na2vs0mg"},{"bike_id":"48c65e97-1516-4538-82d5-5272854a7544","system_id":"levelo_inurba_marseille","lat":43.324817,"lon":5.365741,"is_reserved":false,"is_disabled":false,"rental_uris":{"android":"levelo://app?vid=48c65e97-1516-4538-82d5-5272854a7544","ios":"levelo://app?vid=48c65e97-1516-4538-82d5-5272854a7544"},"vehicle_type_id":"4","last_reported":1732505111,"current_range_meters":38800,"station_id":"ce4bhs12rcd13ifvqhvg","pricing_plan_id":"cebpf4jnsgd1na2vs0mg"},{"bike_id":"384ba50e-3dc5-4035-9991-574199bbdacc","system_id":"levelo_inurba_marseille","lat":43.25107,"lon":5.40325,"is_reserved":false,"is_disabled":false,"rental_uris":{"android":"levelo://app?vid=384ba50e-3dc5-4035-9991-574199bbdacc","ios":"levelo://app?vid=384ba50e-3dc5-4035-9991-574199bbdacc"},"vehicle_type_id":"4","last_reported":1732505111,"current_range_meters":28400,"station_id":"ce4bhlh2rcd13ifvqgig","pricing_plan_id":"cebpf4jnsgd1na2vs0mg"},{"bike_id":"ae544e9f-d8b1-4fbe-a0b7-d430c2674b74","system_id":"levelo_inurba_marseille","lat":43.28409,"lon":5.37507,"is_reserved":false,"is_disabled":false,"rental_uris":{"android":"levelo://app?vid=ae544e9f-d8b1-4fbe-a0b7-d430c2674b74","ios":"levelo://app?vid=ae544e9f-d8b1-4fbe-a0b7-d430c2674b74"},"vehicle_type_id":"4","last_reported":1732505111,"current_range_meters":24000,"station_id":"ce4bh412rcd13ifvqds0","pricing_plan_id":"cebpf4jnsgd1na2vs0mg"},{"bike_id":"efa12b00-49b6-4085-b62c-84b7c0766a16","system_id":"levelo_inurba_marseille","lat":43.27498,"lon":5.42454,"is_reserved":false,"is_disabled":false,"rental_uris":{"android":"levelo://app?vid=efa12b00-49b6-4085-b62c-84b7c0766a16","ios":"levelo://app?vid=efa12b00-49b6-4085-b62c-84b7c0766a16"},"vehicle_type_id":"4","last_reported":1732505111,"current_range_meters":18000,"station_id":"ce4bhn92rcd13ifvqgrg","pricing_plan_id":"cebpf4jnsgd1na2vs0mg"},{"bike_id":"e55d71d0-970e-4e17-ba14-4482cf574a53","system_id":"levelo_inurba_marseille","lat":43.29648,"lon":5.36949,"is_reserved":false,"is_disabled":false,"rental_uris":{"android":"levelo://app?vid=e55d71d0-970e-4e17-ba14-4482cf574a53","ios":"levelo://app?vid=e55d71d0-970e-4e17-ba14-4482cf574a53"},"vehicle_type_id":"4","last_reported":1732505111,"current_range_meters":36000,"station_id":"","pricing_plan_id":"cebpf4jnsgd1na2vs0mg"},{"bike_id":"65f54f07-0cc6-44cb-af71-c02689c24db0","system_id":"levelo_inurba_marseille","lat":43.28109,"lon":5.37823,"is_reserved":false,"is_disabled":false,"rental_uris":{"android":"levelo://app?vid=65f54f07-0cc6-44cb-af71-c02689c24db0","ios":"levelo://app?vid=65f54f07-0cc6-44cb-af71-c02689c24db0"},"vehicle_type_id":"4","last_reported":1732505111,"current_range_meters":37600,"station_id":"ce4bha12rcd13ifvqee0","pricing_plan_id":"cebpf4jnsgd1na2vs0mg"},{"bike_id":"f729f650-5893-4c1d-9000-6d6a5137657c","system_id":"levelo_inurba_marseille","lat":43.24671,"lon":5.38163,"is_reserved":false,"is_disabled":false,"rental_uris":{"android":"levelo://app?vid=f729f650-5893-4c1d-9000-6d6a5137657c","ios":"levelo://app?vid=f729f650-5893-4c1d-9000-6d6a5137657c"},"vehicle_type_id":"4","last_reported":1732505111,"current_range_meters":38800,"station_id":"ce4bhih2rcd13ifvqfr0","pricing_plan_id":"cebpf4jnsgd1na2vs0mg"},{"bike_id":"9f5a0e7a-8624-42ea-bdfa-88751bb19ddb","system_id":"levelo_inurba_marseille","lat":43.27945,"lon":5.41045,"is_reserved":false,"is_disabled":false,"rental_uris":{"android":"levelo://app?vid=9f5a0e7a-8624-42ea-bdfa-88751bb19ddb","ios":"levelo://app?vid=9f5a0e7a-8624-42ea-bdfa-88751bb19ddb"},"vehicle_type_id":"4","last_reported":1732505111,"current_range_meters":38800,"station_id":"ce4bhnp2rcd13ifvqh0g","pricing_plan_id":"cebpf4jnsgd1na2vs0mg"},{"bike_id":"3b762c09-79e3-4b69-88d6-96f2265a870d","system_id":"levelo_inurba_marseille","lat":43.30798,"lon":5.43529,"is_reserved":false,"is_disabled":false,"rental_uris":{"android":"levelo://app?vid=3b762c09-79e3-4b69-88d6-96f2265a870d","ios":"levelo://app?vid=3b762c09-79e3-4b69-88d6-96f2265a870d"},"vehicle_type_id":"4","last_reported":1732505111,"current_range_meters":38800,"station_id":"ce4bhph2rcd13ifvqheg","pricing_plan_id":"cebpf4jnsgd1na2vs0mg"},{"bike_id":"91a68738-cdbf-4a14-b836-ea88a53439f4","system_id":"levelo_inurba_marseille","lat":43.29434,"lon":5.39748,"is_reserved":false,"is_disabled":false,"rental_uris":{"android":"levelo://app?vid=91a68738-cdbf-4a14-b836-ea88a53439f4","ios":"levelo://app?vid=91a68738-cdbf-4a14-b836-ea88a53439f4"},"vehicle_type_id":"4","last_reported":1732505111,"current_range_meters":30800,"station_id":"ce4bh3h2rcd13ifvqdo0","pricing_plan_id":"cebpf4jnsgd1na2vs0mg"},{"bike_id":"63f406f9-a0ca-4d6c-b016-7c452cb901b9","system_id":"levelo_inurba_marseille","lat":43.31534,"lon":5.38032,"is_reserved":false,"is_disabled":false,"rental_uris":{"android":"levelo://app?vid=63f406f9-a0ca-4d6c-b016-7c452cb901b9","ios":"levelo://app?vid=63f406f9-a0ca-4d6c-b016-7c452cb901b9"},"vehicle_type_id":"4","last_reported":1732505111,"current_range_meters":34000,"station_id":"ce4bhsp2rcd13ifvqi50","pricing_plan_id":"cebpf4jnsgd1na2vs0mg"},{"bike_id":"6a2df70c-4e94-45ba-b67d-45bd465ca49d","system_id":"levelo_inurba_marseille","lat":43.29204,"lon":5.39319,"is_reserved":false,"is_disabled":true,"rental_uris":{"android":"levelo://app?vid=6a2df70c-4e94-45ba-b67d-45bd465ca49d","ios":"levelo://app?vid=6a2df70c-4e94-45ba-b67d-45bd465ca49d"},"vehicle_type_id":"4","last_reported":1732505111,"current_range_meters":28000,"station_id":"ce4bh192rcd13ifvqdd0","pricing_plan_id":"cebpf4jnsgd1na2vs0mg"},{"bike_id":"f0c9b009-6e7d-4316-96af-3036572d9258","system_id":"levelo_inurba_marseille","lat":43.295403,"lon":5.375054,"is_reserved":false,"is_disabled":true,"rental_uris":{"android":"levelo://app?vid=f0c9b009-6e7d-4316-96af-3036572d9258","ios":"levelo://app?vid=f0c9b009-6e7d-4316-96af-3036572d9258"},"vehicle_type_id":"4","last_reported":1732505111,"current_range_meters":27600,"station_id":"ce4bgkp2rcd13ifvqbmg","pricing_plan_id":"cebpf4jnsgd1na2vs0mg"},{"bike_id":"ec10fbd2-fc57-4853-94ca-2fece32c3a84","system_id":"levelo_inurba_marseille","lat":43.28728,"lon":5.36085,"is_reserved":false,"is_disabled":false,"rental_uris":{"android":"levelo://app?vid=ec10fbd2-fc57-4853-94ca-2fece32c3a84","ios":"levelo://app?vid=ec10fbd2-fc57-4853-94ca-2fece32c3a84"},"vehicle_type_id":"4","last_reported":1732505111,"current_range_meters":37600,"station_id":"cki0cbj6b192h4jlfktg","pricing_plan_id":"cebpf4jnsgd1na2vs0mg"},{"bike_id":"b2b158d0-8028-4675-9f9a-048f08fcfa95","system_id":"levelo_inurba_marseille","lat":43.27888,"lon":5.38008,"is_reserved":false,"is_disabled":false,"rental_uris":{"android":"levelo://app?vid=b2b158d0-8028-4675-9f9a-048f08fcfa95","ios":"levelo://app?vid=b2b158d0-8028-4675-9f9a-048f08fcfa95"},"vehicle_type_id":"4","last_reported":1732505111,"current_range_meters":38800,"station_id":"ce4bhf92rcd13ifvqf50","pricing_plan_id":"cebpf4jnsgd1na2vs0mg"},{"bike_id":"024f993e-b8be-495b-ab3d-853762792cfc","system_id":"levelo_inurba_marseille","lat":43.31175,"lon":5.38711,"is_reserved":false,"is_disabled":false,"rental_uris":{"android":"levelo://app?vid=024f993e-b8be-495b-ab3d-853762792cfc","ios":"levelo://app?vid=024f993e-b8be-495b-ab3d-853762792cfc"},"vehicle_type_id":"4","last_reported":1732505111,"current_range_meters":16400,"station_id":"ce4bgv12rcd13ifvqcp0","pricing_plan_id":"cebpf4jnsgd1na2vs0mg"},{"bike_id":"ff3594ee-f948-4832-9680-599cfdacc368","system_id":"levelo_inurba_marseille","lat":43.2719,"lon":5.40995,"is_reserved":false,"is_disabled":false,"rental_uris":{"android":"levelo://app?vid=ff3594ee-f948-4832-9680-599cfdacc368","ios":"levelo://app?vid=ff3594ee-f948-4832-9680-599cfdacc368"},"vehicle_type_id":"4","last_reported":1732505111,"current_range_meters":30000,"station_id":"ce4bhl12rcd13ifvqgf0","pricing_plan_id":"cebpf4jnsgd1na2vs0mg"},{"bike_id":"565a0b0b-afe1-4da1-b2e2-0df8233591e4","system_id":"levelo_inurba_marseille","lat":43.25104,"lon":5.40329,"is_reserved":false,"is_disabled":true,"rental_uris":{"android":"levelo://app?vid=565a0b0b-afe1-4da1-b2e2-0df8233591e4","ios":"levelo://app?vid=565a0b0b-afe1-4da1-b2e2-0df8233591e4"},"vehicle_type_id":"4","last_reported":1732505111,"current_range_meters":11200,"station_id":"ce4bhlh2rcd13ifvqgig","pricing_plan_id":"cebpf4jnsgd1na2vs0mg"},{"bike_id":"f77082c6-a346-4cd9-b5c0-448f93887024","system_id":"levelo_inurba_marseille","lat":43.30769,"lon":5.37653,"is_reserved":false,"is_disabled":true,"rental_uris":{"android":"levelo://app?vid=f77082c6-a346-4cd9-b5c0-448f93887024","ios":"levelo://app?vid=f77082c6-a346-4cd9-b5c0-448f93887024"},"vehicle_type_id":"4","last_reported":1732505111,"current_range_meters":35600,"station_id":"ce4bgv92rcd13ifvqcq0","pricing_plan_id":"cebpf4jnsgd1na2vs0mg"},{"bike_id":"1e126baa-22b4-4cf7-a05e-1c0611873009","system_id":"levelo_inurba_marseille","lat":43.311192,"lon":5.377708,"is_reserved":false,"is_disabled":true,"rental_uris":{"android":"levelo://app?vid=1e126baa-22b4-4cf7-a05e-1c0611873009","ios":"levelo://app?vid=1e126baa-22b4-4cf7-a05e-1c0611873009"},"vehicle_type_id":"4","last_reported":1732505111,"current_range_meters":400,"station_id":"","pricing_plan_id":"cebpf4jnsgd1na2vs0mg"},{"bike_id":"856c5296-7fea-42cc-be09-a6b9a37c0b30","system_id":"levelo_inurba_marseille","lat":43.2739,"lon":5.36264,"is_reserved":false,"is_disabled":true,"rental_uris":{"android":"levelo://app?vid=856c5296-7fea-42cc-be09-a6b9a37c0b30","ios":"levelo://app?vid=856c5296-7fea-42cc-be09-a6b9a37c0b30"},"vehicle_type_id":"4","last_reported":1732505111,"current_range_meters":0,"station_id":"ce4bhbh2rcd13ifvqeo0","pricing_plan_id":"cebpf4jnsgd1na2vs0mg"},{"bike_id":"c11c45b4-40c6-43d5-9e36-cd3695455c09","system_id":"levelo_inurba_marseille","lat":43.28703,"lon":5.3998,"is_reserved":false,"is_disabled":false,"rental_uris":{"android":"levelo://app?vid=c11c45b4-40c6-43d5-9e36-cd3695455c09","ios":"levelo://app?vid=c11c45b4-40c6-43d5-9e36-cd3695455c09"},"vehicle_type_id":"4","last_reported":1732505111,"current_range_meters":30000,"station_id":"ce4bho92rcd13ifvqh3g","pricing_plan_id":"cebpf4jnsgd1na2vs0mg"},{"bike_id":"4acfba0d-0d1b-436f-b509-52e30732ec64","system_id":"levelo_inurba_marseille","lat":43.23194,"lon":5.35554,"is_reserved":false,"is_disabled":false,"rental_uris":{"android":"levelo://app?vid=4acfba0d-0d1b-436f-b509-52e30732ec64","ios":"levelo://app?vid=4acfba0d-0d1b-436f-b509-52e30732ec64"},"vehicle_type_id":"4","last_reported":1732505111,"current_range_meters":38000,"station_id":"ce4bhu92rcd13ifvqi70","pricing_plan_id":"cebpf4jnsgd1na2vs0mg"},{"bike_id":"6e2deac2-e8cd-4e91-adc8-b7816265b252","system_id":"levelo_inurba_marseille","lat":43.29263,"lon":5.3844,"is_reserved":false,"is_disabled":true,"rental_uris":{"android":"levelo://app?vid=6e2deac2-e8cd-4e91-adc8-b7816265b252","ios":"levelo://app?vid=6e2deac2-e8cd-4e91-adc8-b7816265b252"},"vehicle_type_id":"4","last_reported":1732505111,"current_range_meters":33200,"station_id":"ce4bh692rcd13ifvqea0","pricing_plan_id":"cebpf4jnsgd1na2vs0mg"},{"bike_id":"0a81c939-609c-4db1-8698-84fd2dbf2549","system_id":"levelo_inurba_marseille","lat":43.31086,"lon":5.42433,"is_reserved":false,"is_disabled":false,"rental_uris":{"android":"levelo://app?vid=0a81c939-609c-4db1-8698-84fd2dbf2549","ios":"levelo://app?vid=0a81c939-609c-4db1-8698-84fd2dbf2549"},"vehicle_type_id":"4","last_reported":1732505111,"current_range_meters":37600,"station_id":"ce4bhp92rcd13ifvqhag","pricing_plan_id":"cebpf4jnsgd1na2vs0mg"},{"bike_id":"1d840dae-dbe8-46f4-bebd-7bdde2669885","system_id":"levelo_inurba_marseille","lat":43.27497,"lon":5.42454,"is_reserved":false,"is_disabled":false,"rental_uris":{"android":"levelo://app?vid=1d840dae-dbe8-46f4-bebd-7bdde2669885","ios":"levelo://app?vid=1d840dae-dbe8-46f4-bebd-7bdde2669885"},"vehicle_type_id":"4","last_reported":1732505111,"current_range_meters":20800,"station_id":"ce4bhn92rcd13ifvqgrg","pricing_plan_id":"cebpf4jnsgd1na2vs0mg"},{"bike_id":"9a122f92-8d1b-4a84-9637-aeed9243668f","system_id":"levelo_inurba_marseille","lat":43.28939,"lon":5.36628,"is_reserved":false,"is_disabled":true,"rental_uris":{"android":"levelo://app?vid=9a122f92-8d1b-4a84-9637-aeed9243668f","ios":"levelo://app?vid=9a122f92-8d1b-4a84-9637-aeed9243668f"},"vehicle_type_id":"4","last_reported":1732505111,"current_range_meters":0,"station_id":"ce4bhap2rcd13ifvqek0","pricing_plan_id":"cebpf4jnsgd1na2vs0mg"},{"bike_id":"5c75d5a6-b69d-43c4-a98b-d27d63f54dc9","system_id":"levelo_inurba_marseille","lat":43.24086,"lon":5.37765,"is_reserved":false,"is_disabled":false,"rental_uris":{"android":"levelo://app?vid=5c75d5a6-b69d-43c4-a98b-d27d63f54dc9","ios":"levelo://app?vid=5c75d5a6-b69d-43c4-a98b-d27d63f54dc9"},"vehicle_type_id":"4","last_reported":1732505111,"current_range_meters":14400,"station_id":"ce4bhnp2rcd13ifvqgvg","pricing_plan_id":"cebpf4jnsgd1na2vs0mg"},{"bike_id":"56330ce0-fb09-47e2-adcc-10deccf6f89c","system_id":"levelo_inurba_marseille","lat":43.30925,"lon":5.40149,"is_reserved":false,"is_disabled":false,"rental_uris":{"android":"levelo://app?vid=56330ce0-fb09-47e2-adcc-10deccf6f89c","ios":"levelo://app?vid=56330ce0-fb09-47e2-adcc-10deccf6f89c"},"vehicle_type_id":"4","last_reported":1732505111,"current_range_meters":26000,"station_id":"ce4bgvp2rcd13ifvqct0","pricing_plan_id":"cebpf4jnsgd1na2vs0mg"},{"bike_id":"6ec37f76-c454-4115-b5d1-b36d33ac60ca","system_id":"levelo_inurba_marseille","lat":43.24672,"lon":5.38156,"is_reserved":false,"is_disabled":false,"rental_uris":{"android":"levelo://app?vid=6ec37f76-c454-4115-b5d1-b36d33ac60ca","ios":"levelo://app?vid=6ec37f76-c454-4115-b5d1-b36d33ac60ca"},"vehicle_type_id":"4","last_reported":1732505111,"current_range_meters":11600,"station_id":"ce4bhih2rcd13ifvqfr0","pricing_plan_id":"cebpf4jnsgd1na2vs0mg"},{"bike_id":"0bff4688-540e-4e2c-808d-c9347a358a4f","system_id":"levelo_inurba_marseille","lat":43.27671,"lon":5.38903,"is_reserved":false,"is_disabled":true,"rental_uris":{"android":"levelo://app?vid=0bff4688-540e-4e2c-808d-c9347a358a4f","ios":"levelo://app?vid=0bff4688-540e-4e2c-808d-c9347a358a4f"},"vehicle_type_id":"4","last_reported":1732505111,"current_range_meters":38800,"station_id":"ce4bhi12rcd13ifvqfo0","pricing_plan_id":"cebpf4jnsgd1na2vs0mg"},{"bike_id":"09701bdb-c477-41d0-9054-a6baa2df5beb","system_id":"levelo_inurba_marseille","lat":43.32366,"lon":5.38874,"is_reserved":false,"is_disabled":false,"rental_uris":{"android":"levelo://app?vid=09701bdb-c477-41d0-9054-a6baa2df5beb","ios":"levelo://app?vid=09701bdb-c477-41d0-9054-a6baa2df5beb"},"vehicle_type_id":"4","last_reported":1732505111,"current_range_meters":29600,"station_id":"ce4bhqp2rcd13ifvqhog","pricing_plan_id":"cebpf4jnsgd1na2vs0mg"},{"bike_id":"8b68c921-2b79-4192-ae95-4b13a5e50fa5","system_id":"levelo_inurba_marseille","lat":43.29523,"lon":5.3904,"is_reserved":false,"is_disabled":false,"rental_uris":{"android":"levelo://app?vid=8b68c921-2b79-4192-ae95-4b13a5e50fa5","ios":"levelo://app?vid=8b68c921-2b79-4192-ae95-4b13a5e50fa5"},"vehicle_type_id":"4","last_reported":1732505111,"current_range_meters":38400,"station_id":"ce4bh3p2rcd13ifvqdp0","pricing_plan_id":"cebpf4jnsgd1na2vs0mg"},{"bike_id":"b7147bbf-9065-44dd-ac94-55b797b37b1f","system_id":"levelo_inurba_marseille","lat":43.284611,"lon":5.358884,"is_reserved":false,"is_disabled":false,"rental_uris":{"android":"levelo://app?vid=b7147bbf-9065-44dd-ac94-55b797b37b1f","ios":"levelo://app?vid=b7147bbf-9065-44dd-ac94-55b797b37b1f"},"vehicle_type_id":"4","last_reported":1732505111,"current_range_meters":30400,"station_id":"ce4bhah2rcd13ifvqei0","pricing_plan_id":"cebpf4jnsgd1na2vs0mg"},{"bike_id":"461247bd-e596-420c-8ccd-e1034b971e50","system_id":"levelo_inurba_marseille","lat":43.29207,"lon":5.39329,"is_reserved":false,"is_disabled":false,"rental_uris":{"android":"levelo://app?vid=461247bd-e596-420c-8ccd-e1034b971e50","ios":"levelo://app?vid=461247bd-e596-420c-8ccd-e1034b971e50"},"vehicle_type_id":"4","last_reported":1732505111,"current_range_meters":38800,"station_id":"ce4bh192rcd13ifvqdd0","pricing_plan_id":"cebpf4jnsgd1na2vs0mg"},{"bike_id":"0c4f6481-3c00-4c48-95d4-3d978278594b","system_id":"levelo_inurba_marseille","lat":43.29973,"lon":5.38496,"is_reserved":false,"is_disabled":false,"rental_uris":{"android":"levelo://app?vid=0c4f6481-3c00-4c48-95d4-3d978278594b","ios":"levelo://app?vid=0c4f6481-3c00-4c48-95d4-3d978278594b"},"vehicle_type_id":"4","last_reported":1732505111,"current_range_meters":36800,"station_id":"ce4bgj92rcd13ifvqbd0","pricing_plan_id":"cebpf4jnsgd1na2vs0mg"},{"bike_id":"348c507a-0710-4663-8d82-f2a675894ac0","system_id":"levelo_inurba_marseille","lat":43.28103,"lon":5.37832,"is_reserved":false,"is_disabled":false,"rental_uris":{"android":"levelo://app?vid=348c507a-0710-4663-8d82-f2a675894ac0","ios":"levelo://app?vid=348c507a-0710-4663-8d82-f2a675894ac0"},"vehicle_type_id":"4","last_reported":1732505111,"current_range_meters":38000,"station_id":"ce4bha12rcd13ifvqee0","pricing_plan_id":"cebpf4jnsgd1na2vs0mg"},{"bike_id":"6097d543-3b59-4123-a341-ea6a41bbd308","system_id":"levelo_inurba_marseille","lat":43.29425,"lon":5.39744,"is_reserved":false,"is_disabled":false,"rental_uris":{"android":"levelo://app?vid=6097d543-3b59-4123-a341-ea6a41bbd308","ios":"levelo://app?vid=6097d543-3b59-4123-a341-ea6a41bbd308"},"vehicle_type_id":"4","last_reported":1732505111,"current_range_meters":38800,"station_id":"ce4bh3h2rcd13ifvqdo0","pricing_plan_id":"cebpf4jnsgd1na2vs0mg"},{"bike_id":"c44be2ca-d29c-4055-a595-144cb499e948","system_id":"levelo_inurba_marseille","lat":43.27211,"lon":5.39189,"is_reserved":false,"is_disabled":true,"rental_uris":{"android":"levelo://app?vid=c44be2ca-d29c-4055-a595-144cb499e948","ios":"levelo://app?vid=c44be2ca-d29c-4055-a595-144cb499e948"},"vehicle_type_id":"4","last_reported":1732505111,"current_range_meters":10000,"station_id":"ce4bhhp2rcd13ifvqfm0","pricing_plan_id":"cebpf4jnsgd1na2vs0mg"},{"bike_id":"75dc2021-1ed8-4ad3-b244-e945bb5419df","system_id":"levelo_inurba_marseille","lat":43.3237,"lon":5.38882,"is_reserved":false,"is_disabled":false,"rental_uris":{"android":"levelo://app?vid=75dc2021-1ed8-4ad3-b244-e945bb5419df","ios":"levelo://app?vid=75dc2021-1ed8-4ad3-b244-e945bb5419df"},"vehicle_type_id":"4","last_reported":1732505111,"current_range_meters":21600,"station_id":"ce4bhqp2rcd13ifvqhog","pricing_plan_id":"cebpf4jnsgd1na2vs0mg"},{"bike_id":"405f90f7-1214-43b9-9c1f-53697c53e463","system_id":"levelo_inurba_marseille","lat":43.288481,"lon":5.358578,"is_reserved":false,"is_disabled":false,"rental_uris":{"android":"levelo://app?vid=405f90f7-1214-43b9-9c1f-53697c53e463","ios":"levelo://app?vid=405f90f7-1214-43b9-9c1f-53697c53e463"},"vehicle_type_id":"4","last_reported":1732505111,"current_range_meters":24400,"station_id":"ce4bhb12rcd13ifvqem0","pricing_plan_id":"cebpf4jnsgd1na2vs0mg"},{"bike_id":"4614c3ce-fa32-4b49-800d-cf02516d6ab9","system_id":"levelo_inurba_marseille","lat":43.32381,"lon":5.3897,"is_reserved":false,"is_disabled":false,"rental_uris":{"android":"levelo://app?vid=4614c3ce-fa32-4b49-800d-cf02516d6ab9","ios":"levelo://app?vid=4614c3ce-fa32-4b49-800d-cf02516d6ab9"},"vehicle_type_id":"4","last_reported":1732505111,"current_range_meters":17200,"station_id":"","pricing_plan_id":"cebpf4jnsgd1na2vs0mg"},{"bike_id":"e9fb58c7-51fa-41b2-8b88-015f3d1495a8","system_id":"levelo_inurba_marseille","lat":43.3172,"lon":5.42405,"is_reserved":false,"is_disabled":false,"rental_uris":{"android":"levelo://app?vid=e9fb58c7-51fa-41b2-8b88-015f3d1495a8","ios":"levelo://app?vid=e9fb58c7-51fa-41b2-8b88-015f3d1495a8"},"vehicle_type_id":"4","last_reported":1732505111,"current_range_meters":27600,"station_id":"ce4bhp92rcd13ifvqhbg","pricing_plan_id":"cebpf4jnsgd1na2vs0mg"},{"bike_id":"835b00c2-64c0-4cbe-82bb-c78dd70919e3","system_id":"levelo_inurba_marseille","lat":43.279661,"lon":5.407941,"is_reserved":false,"is_disabled":false,"rental_uris":{"android":"levelo://app?vid=835b00c2-64c0-4cbe-82bb-c78dd70919e3","ios":"levelo://app?vid=835b00c2-64c0-4cbe-82bb-c78dd70919e3"},"vehicle_type_id":"4","last_reported":1732505111,"current_range_meters":8800,"station_id":"","pricing_plan_id":"cebpf4jnsgd1na2vs0mg"},{"bike_id":"fd0e3340-543f-4c8a-8c34-222130852a29","system_id":"levelo_inurba_marseille","lat":43.27968,"lon":5.38736,"is_reserved":false,"is_disabled":true,"rental_uris":{"android":"levelo://app?vid=fd0e3340-543f-4c8a-8c34-222130852a29","ios":"levelo://app?vid=fd0e3340-543f-4c8a-8c34-222130852a29"},"vehicle_type_id":"4","last_reported":1732505111,"current_range_meters":14400,"station_id":"ce4bhg12rcd13ifvqf80","pricing_plan_id":"cebpf4jnsgd1na2vs0mg"},{"bike_id":"4ca95822-b6ca-4857-9f9b-e507d267fffa","system_id":"levelo_inurba_marseille","lat":43.31535,"lon":5.38027,"is_reserved":false,"is_disabled":false,"rental_uris":{"android":"levelo://app?vid=4ca95822-b6ca-4857-9f9b-e507d267fffa","ios":"levelo://app?vid=4ca95822-b6ca-4857-9f9b-e507d267fffa"},"vehicle_type_id":"4","last_reported":1732505111,"current_range_meters":38800,"station_id":"ce4bhsp2rcd13ifvqi50","pricing_plan_id":"cebpf4jnsgd1na2vs0mg"},{"bike_id":"e662b885-15c0-4344-8409-692fa14b9dbc","system_id":"levelo_inurba_marseille","lat":43.27493,"lon":5.42451,"is_reserved":false,"is_disabled":false,"rental_uris":{"android":"levelo://app?vid=e662b885-15c0-4344-8409-692fa14b9dbc","ios":"levelo://app?vid=e662b885-15c0-4344-8409-692fa14b9dbc"},"vehicle_type_id":"4","last_reported":1732505111,"current_range_meters":38800,"station_id":"ce4bhn92rcd13ifvqgrg","pricing_plan_id":"cebpf4jnsgd1na2vs0mg"},{"bike_id":"15dab6e5-b2c8-4964-be68-a8ee5e19b00d","system_id":"levelo_inurba_marseille","lat":43.30798,"lon":5.3814,"is_reserved":false,"is_disabled":false,"rental_uris":{"android":"levelo://app?vid=15dab6e5-b2c8-4964-be68-a8ee5e19b00d","ios":"levelo://app?vid=15dab6e5-b2c8-4964-be68-a8ee5e19b00d"},"vehicle_type_id":"4","last_reported":1732505111,"current_range_meters":27200,"station_id":"ce4bgt12rcd13ifvqce0","pricing_plan_id":"cebpf4jnsgd1na2vs0mg"},{"bike_id":"5c8055e5-a368-4312-8157-243ebc733ac9","system_id":"levelo_inurba_marseille","lat":43.30605,"lon":5.39356,"is_reserved":false,"is_disabled":true,"rental_uris":{"android":"levelo://app?vid=5c8055e5-a368-4312-8157-243ebc733ac9","ios":"levelo://app?vid=5c8055e5-a368-4312-8157-243ebc733ac9"},"vehicle_type_id":"4","last_reported":1732505111,"current_range_meters":18000,"station_id":"ce4bh0p2rcd13ifvqd80","pricing_plan_id":"cebpf4jnsgd1na2vs0mg"},{"bike_id":"c87dd6c0-4019-474a-a547-ed18b5eedbc3","system_id":"levelo_inurba_marseille","lat":43.29041,"lon":5.39982,"is_reserved":false,"is_disabled":false,"rental_uris":{"android":"levelo://app?vid=c87dd6c0-4019-474a-a547-ed18b5eedbc3","ios":"levelo://app?vid=c87dd6c0-4019-474a-a547-ed18b5eedbc3"},"vehicle_type_id":"4","last_reported":1732505111,"current_range_meters":38000,"station_id":"ce4bh392rcd13ifvqdm0","pricing_plan_id":"cebpf4jnsgd1na2vs0mg"},{"bike_id":"a63f026b-964a-429c-9110-87bd719c2c3a","system_id":"levelo_inurba_marseille","lat":43.293,"lon":5.37443,"is_reserved":false,"is_disabled":true,"rental_uris":{"android":"levelo://app?vid=a63f026b-964a-429c-9110-87bd719c2c3a","ios":"levelo://app?vid=a63f026b-964a-429c-9110-87bd719c2c3a"},"vehicle_type_id":"4","last_reported":1732505111,"current_range_meters":32400,"station_id":"ce4bgi12rcd13ifvqb70","pricing_plan_id":"cebpf4jnsgd1na2vs0mg"},{"bike_id":"c34e9276-9e8f-4214-bbde-aa6dffd5bcb6","system_id":"levelo_inurba_marseille","lat":43.30127,"lon":5.39869,"is_reserved":false,"is_disabled":false,"rental_uris":{"android":"levelo://app?vid=c34e9276-9e8f-4214-bbde-aa6dffd5bcb6","ios":"levelo://app?vid=c34e9276-9e8f-4214-bbde-aa6dffd5bcb6"},"vehicle_type_id":"4","last_reported":1732505111,"current_range_meters":38400,"station_id":"ce4bh0h2rcd13ifvqd40","pricing_plan_id":"cebpf4jnsgd1na2vs0mg"},{"bike_id":"600b3470-1dde-43ce-962b-7a6284b20990","system_id":"levelo_inurba_marseille","lat":43.2319,"lon":5.35561,"is_reserved":false,"is_disabled":true,"rental_uris":{"android":"levelo://app?vid=600b3470-1dde-43ce-962b-7a6284b20990","ios":"levelo://app?vid=600b3470-1dde-43ce-962b-7a6284b20990"},"vehicle_type_id":"4","last_reported":1732505111,"current_range_meters":24400,"station_id":"ce4bhu92rcd13ifvqi70","pricing_plan_id":"cebpf4jnsgd1na2vs0mg"},{"bike_id":"dc6423e0-32f1-4d3f-9e27-906b749a271b","system_id":"levelo_inurba_marseille","lat":43.2873,"lon":5.36099,"is_reserved":false,"is_disabled":false,"rental_uris":{"android":"levelo://app?vid=dc6423e0-32f1-4d3f-9e27-906b749a271b","ios":"levelo://app?vid=dc6423e0-32f1-4d3f-9e27-906b749a271b"},"vehicle_type_id":"4","last_reported":1732505111,"current_range_meters":35600,"station_id":"cki0cbj6b192h4jlfktg","pricing_plan_id":"cebpf4jnsgd1na2vs0mg"},{"bike_id":"08117995-990e-4451-96a5-afc9c181642a","system_id":"levelo_inurba_marseille","lat":43.28612,"lon":5.35106,"is_reserved":false,"is_disabled":true,"rental_uris":{"android":"levelo://app?vid=08117995-990e-4451-96a5-afc9c181642a","ios":"levelo://app?vid=08117995-990e-4451-96a5-afc9c181642a"},"vehicle_type_id":"4","last_reported":1732505111,"current_range_meters":24800,"station_id":"ce4bhch2rcd13ifvqeug","pricing_plan_id":"cebpf4jnsgd1na2vs0mg"},{"bike_id":"2e4dcd85-8c14-4b37-8914-e8aafee7ebb6","system_id":"levelo_inurba_marseille","lat":43.281026,"lon":5.378444,"is_reserved":false,"is_disabled":false,"rental_uris":{"android":"levelo://app?vid=2e4dcd85-8c14-4b37-8914-e8aafee7ebb6","ios":"levelo://app?vid=2e4dcd85-8c14-4b37-8914-e8aafee7ebb6"},"vehicle_type_id":"4","last_reported":1732505111,"current_range_meters":27600,"station_id":"ce4bha12rcd13ifvqee0","pricing_plan_id":"cebpf4jnsgd1na2vs0mg"},{"bike_id":"d201cb32-6fcd-4de8-937d-c1eb9619b947","system_id":"levelo_inurba_marseille","lat":43.30594,"lon":5.39341,"is_reserved":false,"is_disabled":false,"rental_uris":{"android":"levelo://app?vid=d201cb32-6fcd-4de8-937d-c1eb9619b947","ios":"levelo://app?vid=d201cb32-6fcd-4de8-937d-c1eb9619b947"},"vehicle_type_id":"4","last_reported":1732505111,"current_range_meters":38400,"station_id":"ce4bh0p2rcd13ifvqd80","pricing_plan_id":"cebpf4jnsgd1na2vs0mg"},{"bike_id":"4ccf56cf-21eb-44df-bed5-6a4e02ad6d36","system_id":"levelo_inurba_marseille","lat":43.3112,"lon":5.37752,"is_reserved":false,"is_disabled":false,"rental_uris":{"android":"levelo://app?vid=4ccf56cf-21eb-44df-bed5-6a4e02ad6d36","ios":"levelo://app?vid=4ccf56cf-21eb-44df-bed5-6a4e02ad6d36"},"vehicle_type_id":"4","last_reported":1732505111,"current_range_meters":22400,"station_id":"ce4bgt92rcd13ifvqcg0","pricing_plan_id":"cebpf4jnsgd1na2vs0mg"},{"bike_id":"1dcbbee1-59b8-4707-bb40-a52663558066","system_id":"levelo_inurba_marseille","lat":43.28706,"lon":5.39984,"is_reserved":false,"is_disabled":false,"rental_uris":{"android":"levelo://app?vid=1dcbbee1-59b8-4707-bb40-a52663558066","ios":"levelo://app?vid=1dcbbee1-59b8-4707-bb40-a52663558066"},"vehicle_type_id":"4","last_reported":1732505111,"current_range_meters":38800,"station_id":"ce4bho92rcd13ifvqh3g","pricing_plan_id":"cebpf4jnsgd1na2vs0mg"},{"bike_id":"f719b08b-5401-4233-ae62-415318b3e935","system_id":"levelo_inurba_marseille","lat":43.25108,"lon":5.40326,"is_reserved":false,"is_disabled":false,"rental_uris":{"android":"levelo://app?vid=f719b08b-5401-4233-ae62-415318b3e935","ios":"levelo://app?vid=f719b08b-5401-4233-ae62-415318b3e935"},"vehicle_type_id":"4","last_reported":1732505111,"current_range_meters":37600,"station_id":"ce4bhlh2rcd13ifvqgig","pricing_plan_id":"cebpf4jnsgd1na2vs0mg"},{"bike_id":"4cf68192-498e-49a8-b866-19367c604fb3","system_id":"levelo_inurba_marseille","lat":43.29583,"lon":5.39986,"is_reserved":false,"is_disabled":true,"rental_uris":{"android":"levelo://app?vid=4cf68192-498e-49a8-b866-19367c604fb3","ios":"levelo://app?vid=4cf68192-498e-49a8-b866-19367c604fb3"},"vehicle_type_id":"4","last_reported":1732505111,"current_range_meters":32000,"station_id":"ce4bh312rcd13ifvqdj0","pricing_plan_id":"cebpf4jnsgd1na2vs0mg"},{"bike_id":"da9435b6-0cdd-479a-827d-dbb1bab279d5","system_id":"levelo_inurba_marseille","lat":43.2656,"lon":5.38999,"is_reserved":false,"is_disabled":false,"rental_uris":{"android":"levelo://app?vid=da9435b6-0cdd-479a-827d-dbb1bab279d5","ios":"levelo://app?vid=da9435b6-0cdd-479a-827d-dbb1bab279d5"},"vehicle_type_id":"4","last_reported":1732505111,"current_range_meters":27600,"station_id":"ce4bhe12rcd13ifvqf30","pricing_plan_id":"cebpf4jnsgd1na2vs0mg"},{"bike_id":"61148eb3-27a7-40ff-99ba-d69849ce10eb","system_id":"levelo_inurba_marseille","lat":43.24549,"lon":5.39524,"is_reserved":false,"is_disabled":false,"rental_uris":{"android":"levelo://app?vid=61148eb3-27a7-40ff-99ba-d69849ce10eb","ios":"levelo://app?vid=61148eb3-27a7-40ff-99ba-d69849ce10eb"},"vehicle_type_id":"4","last_reported":1732505111,"current_range_meters":38400,"station_id":"ce4bhlp2rcd13ifvqgjg","pricing_plan_id":"cebpf4jnsgd1na2vs0mg"},{"bike_id":"fe50b852-c93a-4904-be5e-fd0e9efd1ca9","system_id":"levelo_inurba_marseille","lat":43.28944,"lon":5.36397,"is_reserved":false,"is_disabled":false,"rental_uris":{"android":"levelo://app?vid=fe50b852-c93a-4904-be5e-fd0e9efd1ca9","ios":"levelo://app?vid=fe50b852-c93a-4904-be5e-fd0e9efd1ca9"},"vehicle_type_id":"4","last_reported":1732505111,"current_range_meters":24000,"station_id":"ce4bhc92rcd13ifvqetg","pricing_plan_id":"cebpf4jnsgd1na2vs0mg"},{"bike_id":"1f8c85a0-4068-45bf-be22-512804de7e03","system_id":"levelo_inurba_marseille","lat":43.28432,"lon":5.3499,"is_reserved":false,"is_disabled":false,"rental_uris":{"android":"levelo://app?vid=1f8c85a0-4068-45bf-be22-512804de7e03","ios":"levelo://app?vid=1f8c85a0-4068-45bf-be22-512804de7e03"},"vehicle_type_id":"4","last_reported":1732505111,"current_range_meters":38800,"station_id":"ce4bhbh2rcd13ifvqepg","pricing_plan_id":"cebpf4jnsgd1na2vs0mg"},{"bike_id":"95e5db83-03a6-46f4-bc46-056a88e4ee38","system_id":"levelo_inurba_marseille","lat":43.28707,"lon":5.37932,"is_reserved":false,"is_disabled":false,"rental_uris":{"android":"levelo://app?vid=95e5db83-03a6-46f4-bc46-056a88e4ee38","ios":"levelo://app?vid=95e5db83-03a6-46f4-bc46-056a88e4ee38"},"vehicle_type_id":"4","last_reported":1732505111,"current_range_meters":18800,"station_id":"ce4bh9p2rcd13ifvqec0","pricing_plan_id":"cebpf4jnsgd1na2vs0mg"},{"bike_id":"46cba4db-67b7-4c35-b6f5-7b36b534dd40","system_id":"levelo_inurba_marseille","lat":43.282596,"lon":5.350694,"is_reserved":false,"is_disabled":false,"rental_uris":{"android":"levelo://app?vid=46cba4db-67b7-4c35-b6f5-7b36b534dd40","ios":"levelo://app?vid=46cba4db-67b7-4c35-b6f5-7b36b534dd40"},"vehicle_type_id":"4","last_reported":1732505111,"current_range_meters":37600,"station_id":"ce4bhbp2rcd13ifvqerg","pricing_plan_id":"cebpf4jnsgd1na2vs0mg"},{"bike_id":"4bd28e49-b726-4fac-85b9-f821c65cd0fa","system_id":"levelo_inurba_marseille","lat":43.284,"lon":5.37522,"is_reserved":false,"is_disabled":false,"rental_uris":{"android":"levelo://app?vid=4bd28e49-b726-4fac-85b9-f821c65cd0fa","ios":"levelo://app?vid=4bd28e49-b726-4fac-85b9-f821c65cd0fa"},"vehicle_type_id":"4","last_reported":1732505111,"current_range_meters":37600,"station_id":"ce4bh412rcd13ifvqds0","pricing_plan_id":"cebpf4jnsgd1na2vs0mg"},{"bike_id":"734ff0c4-f245-4197-8036-be5e222d76fd","system_id":"levelo_inurba_marseille","lat":43.28996,"lon":5.42589,"is_reserved":false,"is_disabled":true,"rental_uris":{"android":"levelo://app?vid=734ff0c4-f245-4197-8036-be5e222d76fd","ios":"levelo://app?vid=734ff0c4-f245-4197-8036-be5e222d76fd"},"vehicle_type_id":"4","last_reported":1732505111,"current_range_meters":0,"station_id":"","pricing_plan_id":"cebpf4jnsgd1na2vs0mg"},{"bike_id":"6a77cde1-ce49-473c-aa05-5c7828e65875","system_id":"levelo_inurba_marseille","lat":43.298048,"lon":5.381001,"is_reserved":false,"is_disabled":true,"rental_uris":{"android":"levelo://app?vid=6a77cde1-ce49-473c-aa05-5c7828e65875","ios":"levelo://app?vid=6a77cde1-ce49-473c-aa05-5c7828e65875"},"vehicle_type_id":"4","last_reported":1732505111,"current_range_meters":37600,"station_id":"ce4bgip2rcd13ifvqbb0","pricing_plan_id":"cebpf4jnsgd1na2vs0mg"},{"bike_id":"253a9bc2-8343-4a1e-bcc9-d27e88f0f243","system_id":"levelo_inurba_marseille","lat":43.30781,"lon":5.37657,"is_reserved":false,"is_disabled":false,"rental_uris":{"android":"levelo://app?vid=253a9bc2-8343-4a1e-bcc9-d27e88f0f243","ios":"levelo://app?vid=253a9bc2-8343-4a1e-bcc9-d27e88f0f243"},"vehicle_type_id":"4","last_reported":1732505111,"current_range_meters":37600,"station_id":"ce4bgv92rcd13ifvqcq0","pricing_plan_id":"cebpf4jnsgd1na2vs0mg"},{"bike_id":"c280ac96-2102-41c7-8821-d7aa3cfa85af","system_id":"levelo_inurba_marseille","lat":43.31169,"lon":5.38706,"is_reserved":false,"is_disabled":false,"rental_uris":{"android":"levelo://app?vid=c280ac96-2102-41c7-8821-d7aa3cfa85af","ios":"levelo://app?vid=c280ac96-2102-41c7-8821-d7aa3cfa85af"},"vehicle_type_id":"4","last_reported":1732505111,"current_range_meters":38400,"station_id":"ce4bgv12rcd13ifvqcp0","pricing_plan_id":"cebpf4jnsgd1na2vs0mg"},{"bike_id":"1391c526-f3ef-4e0c-b482-5d32c95746c8","system_id":"levelo_inurba_marseille","lat":43.29215,"lon":5.39321,"is_reserved":false,"is_disabled":false,"rental_uris":{"android":"levelo://app?vid=1391c526-f3ef-4e0c-b482-5d32c95746c8","ios":"levelo://app?vid=1391c526-f3ef-4e0c-b482-5d32c95746c8"},"vehicle_type_id":"4","last_reported":1732505111,"current_range_meters":34000,"station_id":"ce4bh192rcd13ifvqdd0","pricing_plan_id":"cebpf4jnsgd1na2vs0mg"},{"bike_id":"31b5f549-e42f-4f15-9a3c-d8f91ffe8ded","system_id":"levelo_inurba_marseille","lat":43.27809,"lon":5.40708,"is_reserved":false,"is_disabled":false,"rental_uris":{"android":"levelo://app?vid=31b5f549-e42f-4f15-9a3c-d8f91ffe8ded","ios":"levelo://app?vid=31b5f549-e42f-4f15-9a3c-d8f91ffe8ded"},"vehicle_type_id":"4","last_reported":1732505111,"current_range_meters":37600,"station_id":"ce4bhnh2rcd13ifvqgtg","pricing_plan_id":"cebpf4jnsgd1na2vs0mg"},{"bike_id":"2eca0a54-b574-4db5-8398-b952cfe77c8a","system_id":"levelo_inurba_marseille","lat":43.33605,"lon":5.41022,"is_reserved":false,"is_disabled":false,"rental_uris":{"android":"levelo://app?vid=2eca0a54-b574-4db5-8398-b952cfe77c8a","ios":"levelo://app?vid=2eca0a54-b574-4db5-8398-b952cfe77c8a"},"vehicle_type_id":"4","last_reported":1732505111,"current_range_meters":27200,"station_id":"ce4bhqh2rcd13ifvqhmg","pricing_plan_id":"cebpf4jnsgd1na2vs0mg"},{"bike_id":"846ebc9c-76df-47c6-a4bb-d2fccf938b34","system_id":"levelo_inurba_marseille","lat":43.28438,"lon":5.39188,"is_reserved":false,"is_disabled":false,"rental_uris":{"android":"levelo://app?vid=846ebc9c-76df-47c6-a4bb-d2fccf938b34","ios":"levelo://app?vid=846ebc9c-76df-47c6-a4bb-d2fccf938b34"},"vehicle_type_id":"4","last_reported":1732505111,"current_range_meters":33600,"station_id":"ce4bhoh2rcd13ifvqh5g","pricing_plan_id":"cebpf4jnsgd1na2vs0mg"},{"bike_id":"294eeb79-af1b-495a-909f-216801ae6b41","system_id":"levelo_inurba_marseille","lat":43.337444,"lon":5.374475,"is_reserved":false,"is_disabled":true,"rental_uris":{"android":"levelo://app?vid=294eeb79-af1b-495a-909f-216801ae6b41","ios":"levelo://app?vid=294eeb79-af1b-495a-909f-216801ae6b41"},"vehicle_type_id":"4","last_reported":1732505111,"current_range_meters":0,"station_id":"","pricing_plan_id":"cebpf4jnsgd1na2vs0mg"},{"bike_id":"74678ac5-5778-47ea-a5e4-c4d7eaf77b3a","system_id":"levelo_inurba_marseille","lat":43.28105,"lon":5.37832,"is_reserved":false,"is_disabled":false,"rental_uris":{"android":"levelo://app?vid=74678ac5-5778-47ea-a5e4-c4d7eaf77b3a","ios":"levelo://app?vid=74678ac5-5778-47ea-a5e4-c4d7eaf77b3a"},"vehicle_type_id":"4","last_reported":1732505111,"current_range_meters":10000,"station_id":"ce4bha12rcd13ifvqee0","pricing_plan_id":"cebpf4jnsgd1na2vs0mg"},{"bike_id":"40800856-a54b-429b-b0f8-c44b579dcaba","system_id":"levelo_inurba_marseille","lat":43.23959,"lon":5.36638,"is_reserved":false,"is_disabled":false,"rental_uris":{"android":"levelo://app?vid=40800856-a54b-429b-b0f8-c44b579dcaba","ios":"levelo://app?vid=40800856-a54b-429b-b0f8-c44b579dcaba"},"vehicle_type_id":"4","last_reported":1732505111,"current_range_meters":39200,"station_id":"ce4bhi12rcd13ifvqfp0","pricing_plan_id":"cebpf4jnsgd1na2vs0mg"},{"bike_id":"c0299046-c95c-4bcd-bc32-eb6d185f1ea9","system_id":"levelo_inurba_marseille","lat":43.29579,"lon":5.37495,"is_reserved":false,"is_disabled":true,"rental_uris":{"android":"levelo://app?vid=c0299046-c95c-4bcd-bc32-eb6d185f1ea9","ios":"levelo://app?vid=c0299046-c95c-4bcd-bc32-eb6d185f1ea9"},"vehicle_type_id":"4","last_reported":1732505111,"current_range_meters":36400,"station_id":"ce4bgh92rcd13ifvqb50","pricing_plan_id":"cebpf4jnsgd1na2vs0mg"},{"bike_id":"13d3a56b-18f6-4ef3-b963-de5f98b56151","system_id":"levelo_inurba_marseille","lat":43.27066,"lon":5.42272,"is_reserved":false,"is_disabled":false,"rental_uris":{"android":"levelo://app?vid=13d3a56b-18f6-4ef3-b963-de5f98b56151","ios":"levelo://app?vid=13d3a56b-18f6-4ef3-b963-de5f98b56151"},"vehicle_type_id":"4","last_reported":1732505111,"current_range_meters":22400,"station_id":"ce4bhk92rcd13ifvqgb0","pricing_plan_id":"cebpf4jnsgd1na2vs0mg"},{"bike_id":"9c2fe86d-c84c-4ad4-ba41-f353e57b14b6","system_id":"levelo_inurba_marseille","lat":43.28712,"lon":5.37392,"is_reserved":false,"is_disabled":false,"rental_uris":{"android":"levelo://app?vid=9c2fe86d-c84c-4ad4-ba41-f353e57b14b6","ios":"levelo://app?vid=9c2fe86d-c84c-4ad4-ba41-f353e57b14b6"},"vehicle_type_id":"4","last_reported":1732505111,"current_range_meters":38800,"station_id":"ce4bh3p2rcd13ifvqdq0","pricing_plan_id":"cebpf4jnsgd1na2vs0mg"},{"bike_id":"5ecd136b-2a29-43a4-82ab-c3c31b55b96d","system_id":"levelo_inurba_marseille","lat":43.27917,"lon":5.39581,"is_reserved":false,"is_disabled":false,"rental_uris":{"android":"levelo://app?vid=5ecd136b-2a29-43a4-82ab-c3c31b55b96d","ios":"levelo://app?vid=5ecd136b-2a29-43a4-82ab-c3c31b55b96d"},"vehicle_type_id":"4","last_reported":1732505111,"current_range_meters":36000,"station_id":"ce4bhf92rcd13ifvqf40","pricing_plan_id":"cebpf4jnsgd1na2vs0mg"},{"bike_id":"a23754f2-2b99-4ed9-88c4-9552c9e1b432","system_id":"levelo_inurba_marseille","lat":43.31283,"lon":5.40163,"is_reserved":false,"is_disabled":false,"rental_uris":{"android":"levelo://app?vid=a23754f2-2b99-4ed9-88c4-9552c9e1b432","ios":"levelo://app?vid=a23754f2-2b99-4ed9-88c4-9552c9e1b432"},"vehicle_type_id":"4","last_reported":1732505111,"current_range_meters":27200,"station_id":"ce4bh092rcd13ifvqd30","pricing_plan_id":"cebpf4jnsgd1na2vs0mg"},{"bike_id":"777b7fed-d395-4c97-b504-dee7c3479d4f","system_id":"levelo_inurba_marseille","lat":43.29836,"lon":5.3785,"is_reserved":false,"is_disabled":true,"rental_uris":{"android":"levelo://app?vid=777b7fed-d395-4c97-b504-dee7c3479d4f","ios":"levelo://app?vid=777b7fed-d395-4c97-b504-dee7c3479d4f"},"vehicle_type_id":"4","last_reported":1732505111,"current_range_meters":0,"station_id":"","pricing_plan_id":"cebpf4jnsgd1na2vs0mg"},{"bike_id":"cd78312a-142a-42d0-92e1-dbc654bf8bb4","system_id":"levelo_inurba_marseille","lat":43.24185,"lon":5.39725,"is_reserved":false,"is_disabled":true,"rental_uris":{"android":"levelo://app?vid=cd78312a-142a-42d0-92e1-dbc654bf8bb4","ios":"levelo://app?vid=cd78312a-142a-42d0-92e1-dbc654bf8bb4"},"vehicle_type_id":"4","last_reported":1732505111,"current_range_meters":6800,"station_id":"ce4bhn12rcd13ifvqgpg","pricing_plan_id":"cebpf4jnsgd1na2vs0mg"},{"bike_id":"dd75a17a-64f0-4f22-9129-e7700ff73442","system_id":"levelo_inurba_marseille","lat":43.24076,"lon":5.37758,"is_reserved":false,"is_disabled":false,"rental_uris":{"android":"levelo://app?vid=dd75a17a-64f0-4f22-9129-e7700ff73442","ios":"levelo://app?vid=dd75a17a-64f0-4f22-9129-e7700ff73442"},"vehicle_type_id":"4","last_reported":1732505111,"current_range_meters":28000,"station_id":"ce4bhnp2rcd13ifvqgvg","pricing_plan_id":"cebpf4jnsgd1na2vs0mg"},{"bike_id":"2b930fbc-d1c5-4e6e-b771-26da81254d66","system_id":"levelo_inurba_marseille","lat":43.27818,"lon":5.40716,"is_reserved":false,"is_disabled":false,"rental_uris":{"android":"levelo://app?vid=2b930fbc-d1c5-4e6e-b771-26da81254d66","ios":"levelo://app?vid=2b930fbc-d1c5-4e6e-b771-26da81254d66"},"vehicle_type_id":"4","last_reported":1732505111,"current_range_meters":38800,"station_id":"ce4bhnh2rcd13ifvqgtg","pricing_plan_id":"cebpf4jnsgd1na2vs0mg"},{"bike_id":"1c4b415b-5480-4cfa-88b6-31d9385f31d5","system_id":"levelo_inurba_marseille","lat":43.283718,"lon":5.386294,"is_reserved":false,"is_disabled":false,"rental_uris":{"android":"levelo://app?vid=1c4b415b-5480-4cfa-88b6-31d9385f31d5","ios":"levelo://app?vid=1c4b415b-5480-4cfa-88b6-31d9385f31d5"},"vehicle_type_id":"4","last_reported":1732505111,"current_range_meters":26000,"station_id":"ce4bh492rcd13ifvqdvg","pricing_plan_id":"cebpf4jnsgd1na2vs0mg"},{"bike_id":"43f6da94-5cf1-446e-9b8d-b4c4e86bf027","system_id":"levelo_inurba_marseille","lat":43.26191,"lon":5.37454,"is_reserved":false,"is_disabled":true,"rental_uris":{"android":"levelo://app?vid=43f6da94-5cf1-446e-9b8d-b4c4e86bf027","ios":"levelo://app?vid=43f6da94-5cf1-446e-9b8d-b4c4e86bf027"},"vehicle_type_id":"4","last_reported":1732505111,"current_range_meters":4000,"station_id":"ce4bhgp2rcd13ifvqfc0","pricing_plan_id":"cebpf4jnsgd1na2vs0mg"},{"bike_id":"dd5ab154-647e-4dfa-88f1-0f781c7552f5","system_id":"levelo_inurba_marseille","lat":43.25582,"lon":5.38235,"is_reserved":false,"is_disabled":false,"rental_uris":{"android":"levelo://app?vid=dd5ab154-647e-4dfa-88f1-0f781c7552f5","ios":"levelo://app?vid=dd5ab154-647e-4dfa-88f1-0f781c7552f5"},"vehicle_type_id":"4","last_reported":1732505111,"current_range_meters":24000,"station_id":"ce4bhih2rcd13ifvqfs0","pricing_plan_id":"cebpf4jnsgd1na2vs0mg"},{"bike_id":"14a83065-2c68-475c-99a7-32e0815b9f50","system_id":"levelo_inurba_marseille","lat":43.24673,"lon":5.38172,"is_reserved":false,"is_disabled":true,"rental_uris":{"android":"levelo://app?vid=14a83065-2c68-475c-99a7-32e0815b9f50","ios":"levelo://app?vid=14a83065-2c68-475c-99a7-32e0815b9f50"},"vehicle_type_id":"4","last_reported":1732505111,"current_range_meters":7200,"station_id":"ce4bhih2rcd13ifvqfr0","pricing_plan_id":"cebpf4jnsgd1na2vs0mg"},{"bike_id":"994195f6-b5da-4158-a5b5-8b38baad32b0","system_id":"levelo_inurba_marseille","lat":43.33734,"lon":5.39193,"is_reserved":false,"is_disabled":false,"rental_uris":{"android":"levelo://app?vid=994195f6-b5da-4158-a5b5-8b38baad32b0","ios":"levelo://app?vid=994195f6-b5da-4158-a5b5-8b38baad32b0"},"vehicle_type_id":"4","last_reported":1732505111,"current_range_meters":25200,"station_id":"ce4bhr92rcd13ifvqhsg","pricing_plan_id":"cebpf4jnsgd1na2vs0mg"},{"bike_id":"7c2f19f3-5373-4c2a-87bb-e1fd3ef39822","system_id":"levelo_inurba_marseille","lat":43.26566,"lon":5.39009,"is_reserved":false,"is_disabled":true,"rental_uris":{"android":"levelo://app?vid=7c2f19f3-5373-4c2a-87bb-e1fd3ef39822","ios":"levelo://app?vid=7c2f19f3-5373-4c2a-87bb-e1fd3ef39822"},"vehicle_type_id":"4","last_reported":1732505111,"current_range_meters":16400,"station_id":"ce4bhe12rcd13ifvqf30","pricing_plan_id":"cebpf4jnsgd1na2vs0mg"},{"bike_id":"36ef9a42-f4d8-45f5-adc2-b51fb9b962d0","system_id":"levelo_inurba_marseille","lat":43.34155,"lon":5.40896,"is_reserved":false,"is_disabled":false,"rental_uris":{"android":"levelo://app?vid=36ef9a42-f4d8-45f5-adc2-b51fb9b962d0","ios":"levelo://app?vid=36ef9a42-f4d8-45f5-adc2-b51fb9b962d0"},"vehicle_type_id":"4","last_reported":1732505111,"current_range_meters":38800,"station_id":"ce4bhqh2rcd13ifvqhlg","pricing_plan_id":"cebpf4jnsgd1na2vs0mg"},{"bike_id":"24fc129a-3a98-4f25-9554-234fc3a2dc8d","system_id":"levelo_inurba_marseille","lat":43.304196,"lon":5.412834,"is_reserved":false,"is_disabled":true,"rental_uris":{"android":"levelo://app?vid=24fc129a-3a98-4f25-9554-234fc3a2dc8d","ios":"levelo://app?vid=24fc129a-3a98-4f25-9554-234fc3a2dc8d"},"vehicle_type_id":"4","last_reported":1732505111,"current_range_meters":27200,"station_id":"ce4bhop2rcd13ifvqh8g","pricing_plan_id":"cebpf4jnsgd1na2vs0mg"},{"bike_id":"a3202fc1-85cb-42ee-bead-37756f81ff0f","system_id":"levelo_inurba_marseille","lat":43.30564,"lon":5.38373,"is_reserved":false,"is_disabled":true,"rental_uris":{"android":"levelo://app?vid=a3202fc1-85cb-42ee-bead-37756f81ff0f","ios":"levelo://app?vid=a3202fc1-85cb-42ee-bead-37756f81ff0f"},"vehicle_type_id":"4","last_reported":1732505111,"current_range_meters":21600,"station_id":"ce4bgg92rcd13ifvqb30","pricing_plan_id":"cebpf4jnsgd1na2vs0mg"},{"bike_id":"cd878848-f64d-4e74-96df-81e65abf032d","system_id":"levelo_inurba_marseille","lat":43.2904,"lon":5.39967,"is_reserved":false,"is_disabled":false,"rental_uris":{"android":"levelo://app?vid=cd878848-f64d-4e74-96df-81e65abf032d","ios":"levelo://app?vid=cd878848-f64d-4e74-96df-81e65abf032d"},"vehicle_type_id":"4","last_reported":1732505111,"current_range_meters":32800,"station_id":"ce4bh392rcd13ifvqdm0","pricing_plan_id":"cebpf4jnsgd1na2vs0mg"},{"bike_id":"aecc8779-6a1d-4445-b01a-0cf3bb974fca","system_id":"levelo_inurba_marseille","lat":43.31176,"lon":5.38716,"is_reserved":false,"is_disabled":false,"rental_uris":{"android":"levelo://app?vid=aecc8779-6a1d-4445-b01a-0cf3bb974fca","ios":"levelo://app?vid=aecc8779-6a1d-4445-b01a-0cf3bb974fca"},"vehicle_type_id":"4","last_reported":1732505111,"current_range_meters":27600,"station_id":"ce4bgv12rcd13ifvqcp0","pricing_plan_id":"cebpf4jnsgd1na2vs0mg"},{"bike_id":"5d9127b2-409a-4e00-b212-9b69c1248067","system_id":"levelo_inurba_marseille","lat":43.2621,"lon":5.37921,"is_reserved":false,"is_disabled":false,"rental_uris":{"android":"levelo://app?vid=5d9127b2-409a-4e00-b212-9b69c1248067","ios":"levelo://app?vid=5d9127b2-409a-4e00-b212-9b69c1248067"},"vehicle_type_id":"4","last_reported":1732505111,"current_range_meters":9600,"station_id":"ce4bhjp2rcd13ifvqg90","pricing_plan_id":"cebpf4jnsgd1na2vs0mg"},{"bike_id":"45900862-1d29-475b-aca9-7008519fc46b","system_id":"levelo_inurba_marseille","lat":43.24384,"lon":5.37058,"is_reserved":false,"is_disabled":false,"rental_uris":{"android":"levelo://app?vid=45900862-1d29-475b-aca9-7008519fc46b","ios":"levelo://app?vid=45900862-1d29-475b-aca9-7008519fc46b"},"vehicle_type_id":"4","last_reported":1732505111,"current_range_meters":39200,"station_id":"ce4bhhh2rcd13ifvqfk0","pricing_plan_id":"cebpf4jnsgd1na2vs0mg"},{"bike_id":"e23b27a7-2b68-4ef9-8cef-da4a3b60c45c","system_id":"levelo_inurba_marseille","lat":43.28107,"lon":5.37835,"is_reserved":false,"is_disabled":false,"rental_uris":{"android":"levelo://app?vid=e23b27a7-2b68-4ef9-8cef-da4a3b60c45c","ios":"levelo://app?vid=e23b27a7-2b68-4ef9-8cef-da4a3b60c45c"},"vehicle_type_id":"4","last_reported":1732505111,"current_range_meters":36800,"station_id":"ce4bha12rcd13ifvqee0","pricing_plan_id":"cebpf4jnsgd1na2vs0mg"},{"bike_id":"28d59ff9-3594-47bc-8f14-ae01b6935378","system_id":"levelo_inurba_marseille","lat":43.286995,"lon":5.373968,"is_reserved":false,"is_disabled":false,"rental_uris":{"android":"levelo://app?vid=28d59ff9-3594-47bc-8f14-ae01b6935378","ios":"levelo://app?vid=28d59ff9-3594-47bc-8f14-ae01b6935378"},"vehicle_type_id":"4","last_reported":1732505111,"current_range_meters":38800,"station_id":"ce4bh3p2rcd13ifvqdq0","pricing_plan_id":"cebpf4jnsgd1na2vs0mg"},{"bike_id":"f8b957eb-ac36-4e56-96cf-7474e1d53753","system_id":"levelo_inurba_marseille","lat":43.24663,"lon":5.38153,"is_reserved":false,"is_disabled":false,"rental_uris":{"android":"levelo://app?vid=f8b957eb-ac36-4e56-96cf-7474e1d53753","ios":"levelo://app?vid=f8b957eb-ac36-4e56-96cf-7474e1d53753"},"vehicle_type_id":"4","last_reported":1732505111,"current_range_meters":12000,"station_id":"ce4bhih2rcd13ifvqfr0","pricing_plan_id":"cebpf4jnsgd1na2vs0mg"},{"bike_id":"62bcad95-d3e2-434c-81f4-127757d19c4c","system_id":"levelo_inurba_marseille","lat":43.29221,"lon":5.39595,"is_reserved":false,"is_disabled":true,"rental_uris":{"android":"levelo://app?vid=62bcad95-d3e2-434c-81f4-127757d19c4c","ios":"levelo://app?vid=62bcad95-d3e2-434c-81f4-127757d19c4c"},"vehicle_type_id":"4","last_reported":1732505111,"current_range_meters":400,"station_id":"","pricing_plan_id":"cebpf4jnsgd1na2vs0mg"},{"bike_id":"f7dd9496-b2cd-4317-8fba-845d260fc7e5","system_id":"levelo_inurba_marseille","lat":43.2737,"lon":5.36263,"is_reserved":false,"is_disabled":true,"rental_uris":{"android":"levelo://app?vid=f7dd9496-b2cd-4317-8fba-845d260fc7e5","ios":"levelo://app?vid=f7dd9496-b2cd-4317-8fba-845d260fc7e5"},"vehicle_type_id":"4","last_reported":1732505111,"current_range_meters":38000,"station_id":"ce4bhbh2rcd13ifvqeo0","pricing_plan_id":"cebpf4jnsgd1na2vs0mg"},{"bike_id":"faddc5bf-9308-4490-a929-f5be12fd1597","system_id":"levelo_inurba_marseille","lat":43.25572,"lon":5.38232,"is_reserved":false,"is_disabled":false,"rental_uris":{"android":"levelo://app?vid=faddc5bf-9308-4490-a929-f5be12fd1597","ios":"levelo://app?vid=faddc5bf-9308-4490-a929-f5be12fd1597"},"vehicle_type_id":"4","last_reported":1732505111,"current_range_meters":16800,"station_id":"ce4bhih2rcd13ifvqfs0","pricing_plan_id":"cebpf4jnsgd1na2vs0mg"},{"bike_id":"cc19167c-24c1-4f24-b53d-286b28c07764","system_id":"levelo_inurba_marseille","lat":43.30944,"lon":5.39026,"is_reserved":false,"is_disabled":false,"rental_uris":{"android":"levelo://app?vid=cc19167c-24c1-4f24-b53d-286b28c07764","ios":"levelo://app?vid=cc19167c-24c1-4f24-b53d-286b28c07764"},"vehicle_type_id":"4","last_reported":1732505111,"current_range_meters":38800,"station_id":"ce4bgup2rcd13ifvqco0","pricing_plan_id":"cebpf4jnsgd1na2vs0mg"},{"bike_id":"36296f5c-0176-4be0-97c8-7930cda9c369","system_id":"levelo_inurba_marseille","lat":43.32111,"lon":5.36778,"is_reserved":false,"is_disabled":false,"rental_uris":{"android":"levelo://app?vid=36296f5c-0176-4be0-97c8-7930cda9c369","ios":"levelo://app?vid=36296f5c-0176-4be0-97c8-7930cda9c369"},"vehicle_type_id":"4","last_reported":1732505111,"current_range_meters":28400,"station_id":"ce4bhrh2rcd13ifvqhug","pricing_plan_id":"cebpf4jnsgd1na2vs0mg"},{"bike_id":"381bd02d-c247-46e1-b0bf-fec78ac5a001","system_id":"levelo_inurba_marseille","lat":43.25868,"lon":5.39906,"is_reserved":false,"is_disabled":false,"rental_uris":{"android":"levelo://app?vid=381bd02d-c247-46e1-b0bf-fec78ac5a001","ios":"levelo://app?vid=381bd02d-c247-46e1-b0bf-fec78ac5a001"},"vehicle_type_id":"4","last_reported":1732505111,"current_range_meters":6800,"station_id":"ce4bhl92rcd13ifvqghg","pricing_plan_id":"cebpf4jnsgd1na2vs0mg"},{"bike_id":"3749f547-26de-49f3-8704-9a5a504b68f5","system_id":"levelo_inurba_marseille","lat":43.25581,"lon":5.38238,"is_reserved":false,"is_disabled":false,"rental_uris":{"android":"levelo://app?vid=3749f547-26de-49f3-8704-9a5a504b68f5","ios":"levelo://app?vid=3749f547-26de-49f3-8704-9a5a504b68f5"},"vehicle_type_id":"4","last_reported":1732505111,"current_range_meters":32000,"station_id":"ce4bhih2rcd13ifvqfs0","pricing_plan_id":"cebpf4jnsgd1na2vs0mg"},{"bike_id":"d2a52b58-fabe-4a57-94ba-464e41b85800","system_id":"levelo_inurba_marseille","lat":43.30078,"lon":5.37412,"is_reserved":false,"is_disabled":true,"rental_uris":{"android":"levelo://app?vid=d2a52b58-fabe-4a57-94ba-464e41b85800","ios":"levelo://app?vid=d2a52b58-fabe-4a57-94ba-464e41b85800"},"vehicle_type_id":"4","last_reported":1732505111,"current_range_meters":23200,"station_id":"","pricing_plan_id":"cebpf4jnsgd1na2vs0mg"},{"bike_id":"e0d21058-6322-43f3-9dfa-bbc133ff9862","system_id":"levelo_inurba_marseille","lat":43.25108,"lon":5.4033,"is_reserved":false,"is_disabled":false,"rental_uris":{"android":"levelo://app?vid=e0d21058-6322-43f3-9dfa-bbc133ff9862","ios":"levelo://app?vid=e0d21058-6322-43f3-9dfa-bbc133ff9862"},"vehicle_type_id":"4","last_reported":1732505111,"current_range_meters":38800,"station_id":"ce4bhlh2rcd13ifvqgig","pricing_plan_id":"cebpf4jnsgd1na2vs0mg"},{"bike_id":"50b19cb2-c4bd-4d3e-9fe4-22e30fc6851b","system_id":"levelo_inurba_marseille","lat":43.31543,"lon":5.3803,"is_reserved":false,"is_disabled":true,"rental_uris":{"android":"levelo://app?vid=50b19cb2-c4bd-4d3e-9fe4-22e30fc6851b","ios":"levelo://app?vid=50b19cb2-c4bd-4d3e-9fe4-22e30fc6851b"},"vehicle_type_id":"4","last_reported":1732505111,"current_range_meters":33200,"station_id":"ce4bhsp2rcd13ifvqi50","pricing_plan_id":"cebpf4jnsgd1na2vs0mg"},{"bike_id":"c65c2dc6-1bc2-4de8-b9be-24653e7e0ff2","system_id":"levelo_inurba_marseille","lat":43.28375,"lon":5.38639,"is_reserved":false,"is_disabled":false,"rental_uris":{"android":"levelo://app?vid=c65c2dc6-1bc2-4de8-b9be-24653e7e0ff2","ios":"levelo://app?vid=c65c2dc6-1bc2-4de8-b9be-24653e7e0ff2"},"vehicle_type_id":"4","last_reported":1732505111,"current_range_meters":36800,"station_id":"ce4bh492rcd13ifvqdvg","pricing_plan_id":"cebpf4jnsgd1na2vs0mg"},{"bike_id":"e8479bc5-048e-4ade-b0dd-972a2df78971","system_id":"levelo_inurba_marseille","lat":43.313259,"lon":5.39702,"is_reserved":false,"is_disabled":false,"rental_uris":{"android":"levelo://app?vid=e8479bc5-048e-4ade-b0dd-972a2df78971","ios":"levelo://app?vid=e8479bc5-048e-4ade-b0dd-972a2df78971"},"vehicle_type_id":"4","last_reported":1732505111,"current_range_meters":37600,"station_id":"ce4bgvp2rcd13ifvqcu0","pricing_plan_id":"cebpf4jnsgd1na2vs0mg"},{"bike_id":"7e438134-db2f-4a93-8937-41f719af6d2c","system_id":"levelo_inurba_marseille","lat":43.26692,"lon":5.38271,"is_reserved":false,"is_disabled":false,"rental_uris":{"android":"levelo://app?vid=7e438134-db2f-4a93-8937-41f719af6d2c","ios":"levelo://app?vid=7e438134-db2f-4a93-8937-41f719af6d2c"},"vehicle_type_id":"4","last_reported":1732505111,"current_range_meters":38400,"station_id":"ce4bhg92rcd13ifvqf90","pricing_plan_id":"cebpf4jnsgd1na2vs0mg"},{"bike_id":"a3bbfbc0-1c5c-4437-9a5f-15f39af39c82","system_id":"levelo_inurba_marseille","lat":43.24669,"lon":5.38157,"is_reserved":false,"is_disabled":false,"rental_uris":{"android":"levelo://app?vid=a3bbfbc0-1c5c-4437-9a5f-15f39af39c82","ios":"levelo://app?vid=a3bbfbc0-1c5c-4437-9a5f-15f39af39c82"},"vehicle_type_id":"4","last_reported":1732505111,"current_range_meters":38800,"station_id":"ce4bhih2rcd13ifvqfr0","pricing_plan_id":"cebpf4jnsgd1na2vs0mg"},{"bike_id":"7e240e3e-6ce0-4cfb-84b0-52d7d524ee8d","system_id":"levelo_inurba_marseille","lat":43.27812,"lon":5.40705,"is_reserved":false,"is_disabled":false,"rental_uris":{"android":"levelo://app?vid=7e240e3e-6ce0-4cfb-84b0-52d7d524ee8d","ios":"levelo://app?vid=7e240e3e-6ce0-4cfb-84b0-52d7d524ee8d"},"vehicle_type_id":"4","last_reported":1732505111,"current_range_meters":38800,"station_id":"ce4bhnh2rcd13ifvqgtg","pricing_plan_id":"cebpf4jnsgd1na2vs0mg"},{"bike_id":"66d70828-b14f-4541-8984-1f382e380cdf","system_id":"levelo_inurba_marseille","lat":43.27318,"lon":5.39071,"is_reserved":false,"is_disabled":true,"rental_uris":{"android":"levelo://app?vid=66d70828-b14f-4541-8984-1f382e380cdf","ios":"levelo://app?vid=66d70828-b14f-4541-8984-1f382e380cdf"},"vehicle_type_id":"4","last_reported":1732505111,"current_range_meters":38000,"station_id":"ce4bhgp2rcd13ifvqfe0","pricing_plan_id":"cebpf4jnsgd1na2vs0mg"},{"bike_id":"dd3b09fe-b71a-401a-b299-a88383f47f1c","system_id":"levelo_inurba_marseille","lat":43.337444,"lon":5.374475,"is_reserved":false,"is_disabled":false,"rental_uris":{"android":"levelo://app?vid=dd3b09fe-b71a-401a-b299-a88383f47f1c","ios":"levelo://app?vid=dd3b09fe-b71a-401a-b299-a88383f47f1c"},"vehicle_type_id":"4","last_reported":1732505111,"current_range_meters":28400,"station_id":"","pricing_plan_id":"cebpf4jnsgd1na2vs0mg"},{"bike_id":"b0f390fe-f074-44e1-82a8-52d6615e9359","system_id":"levelo_inurba_marseille","lat":43.22917,"lon":5.35386,"is_reserved":false,"is_disabled":false,"rental_uris":{"android":"levelo://app?vid=b0f390fe-f074-44e1-82a8-52d6615e9359","ios":"levelo://app?vid=b0f390fe-f074-44e1-82a8-52d6615e9359"},"vehicle_type_id":"4","last_reported":1732505111,"current_range_meters":36800,"station_id":"cpo3532slgdg3j2ikp40","pricing_plan_id":"cebpf4jnsgd1na2vs0mg"},{"bike_id":"de5a9aa8-c532-4c45-a448-0a340119b30f","system_id":"levelo_inurba_marseille","lat":43.31765,"lon":5.39014,"is_reserved":false,"is_disabled":false,"rental_uris":{"android":"levelo://app?vid=de5a9aa8-c532-4c45-a448-0a340119b30f","ios":"levelo://app?vid=de5a9aa8-c532-4c45-a448-0a340119b30f"},"vehicle_type_id":"4","last_reported":1732505111,"current_range_meters":19600,"station_id":"ce4bhqp2rcd13ifvqhng","pricing_plan_id":"cebpf4jnsgd1na2vs0mg"},{"bike_id":"47c41cf3-e016-44ed-af78-c2174f07c59f","system_id":"levelo_inurba_marseille","lat":43.29036,"lon":5.38645,"is_reserved":false,"is_disabled":true,"rental_uris":{"android":"levelo://app?vid=47c41cf3-e016-44ed-af78-c2174f07c59f","ios":"levelo://app?vid=47c41cf3-e016-44ed-af78-c2174f07c59f"},"vehicle_type_id":"4","last_reported":1732505111,"current_range_meters":800,"station_id":"ce4bh4p2rcd13ifvqe0g","pricing_plan_id":"cebpf4jnsgd1na2vs0mg"},{"bike_id":"a2d657ef-21d2-4669-a964-7164b9f5cf64","system_id":"levelo_inurba_marseille","lat":43.25941,"lon":5.40901,"is_reserved":false,"is_disabled":false,"rental_uris":{"android":"levelo://app?vid=a2d657ef-21d2-4669-a964-7164b9f5cf64","ios":"levelo://app?vid=a2d657ef-21d2-4669-a964-7164b9f5cf64"},"vehicle_type_id":"4","last_reported":1732505111,"current_range_meters":29600,"station_id":"ce4bhm92rcd13ifvqglg","pricing_plan_id":"cebpf4jnsgd1na2vs0mg"},{"bike_id":"8824282a-8bba-4980-9249-b1ec8689e62d","system_id":"levelo_inurba_marseille","lat":43.28696,"lon":5.39979,"is_reserved":false,"is_disabled":false,"rental_uris":{"android":"levelo://app?vid=8824282a-8bba-4980-9249-b1ec8689e62d","ios":"levelo://app?vid=8824282a-8bba-4980-9249-b1ec8689e62d"},"vehicle_type_id":"4","last_reported":1732505111,"current_range_meters":38800,"station_id":"ce4bho92rcd13ifvqh3g","pricing_plan_id":"cebpf4jnsgd1na2vs0mg"},{"bike_id":"24b5621d-8e1f-4652-b7cf-a81bfd4aa7a6","system_id":"levelo_inurba_marseille","lat":43.297915,"lon":5.393547,"is_reserved":false,"is_disabled":false,"rental_uris":{"android":"levelo://app?vid=24b5621d-8e1f-4652-b7cf-a81bfd4aa7a6","ios":"levelo://app?vid=24b5621d-8e1f-4652-b7cf-a81bfd4aa7a6"},"vehicle_type_id":"4","last_reported":1732505111,"current_range_meters":21600,"station_id":"chh1huq6cuj3fo74tm60","pricing_plan_id":"cebpf4jnsgd1na2vs0mg"},{"bike_id":"21738a6b-9b43-4219-9c10-3e0b75c4d335","system_id":"levelo_inurba_marseille","lat":43.28274,"lon":5.35073,"is_reserved":false,"is_disabled":false,"rental_uris":{"android":"levelo://app?vid=21738a6b-9b43-4219-9c10-3e0b75c4d335","ios":"levelo://app?vid=21738a6b-9b43-4219-9c10-3e0b75c4d335"},"vehicle_type_id":"4","last_reported":1732505111,"current_range_meters":40000,"station_id":"ce4bhbp2rcd13ifvqerg","pricing_plan_id":"cebpf4jnsgd1na2vs0mg"},{"bike_id":"90232cb0-a3dd-4b90-9618-ab7eae2b422e","system_id":"levelo_inurba_marseille","lat":43.292,"lon":5.35793,"is_reserved":false,"is_disabled":false,"rental_uris":{"android":"levelo://app?vid=90232cb0-a3dd-4b90-9618-ab7eae2b422e","ios":"levelo://app?vid=90232cb0-a3dd-4b90-9618-ab7eae2b422e"},"vehicle_type_id":"4","last_reported":1732505111,"current_range_meters":36400,"station_id":"ce4bhb12rcd13ifvqel0","pricing_plan_id":"cebpf4jnsgd1na2vs0mg"},{"bike_id":"3f99f7d8-5bd5-4774-975d-6b45717f58a3","system_id":"levelo_inurba_marseille","lat":43.30321,"lon":5.40435,"is_reserved":false,"is_disabled":false,"rental_uris":{"android":"levelo://app?vid=3f99f7d8-5bd5-4774-975d-6b45717f58a3","ios":"levelo://app?vid=3f99f7d8-5bd5-4774-975d-6b45717f58a3"},"vehicle_type_id":"4","last_reported":1732505111,"current_range_meters":35600,"station_id":"ce4bh012rcd13ifvqd10","pricing_plan_id":"cebpf4jnsgd1na2vs0mg"},{"bike_id":"17ba6615-9f08-440e-93e9-f8f4f3600fcd","system_id":"levelo_inurba_marseille","lat":43.30542,"lon":5.36529,"is_reserved":false,"is_disabled":true,"rental_uris":{"android":"levelo://app?vid=17ba6615-9f08-440e-93e9-f8f4f3600fcd","ios":"levelo://app?vid=17ba6615-9f08-440e-93e9-f8f4f3600fcd"},"vehicle_type_id":"4","last_reported":1732505111,"current_range_meters":0,"station_id":"ce4bgs12rcd13ifvqcag","pricing_plan_id":"cebpf4jnsgd1na2vs0mg"},{"bike_id":"cbc2167d-639d-4b33-b914-3ad6f36f2868","system_id":"levelo_inurba_marseille","lat":43.22931,"lon":5.35369,"is_reserved":false,"is_disabled":false,"rental_uris":{"android":"levelo://app?vid=cbc2167d-639d-4b33-b914-3ad6f36f2868","ios":"levelo://app?vid=cbc2167d-639d-4b33-b914-3ad6f36f2868"},"vehicle_type_id":"4","last_reported":1732505111,"current_range_meters":32800,"station_id":"cpo3532slgdg3j2ikp40","pricing_plan_id":"cebpf4jnsgd1na2vs0mg"},{"bike_id":"3b76b434-c07f-48ef-bce6-5339bda9953e","system_id":"levelo_inurba_marseille","lat":43.2845,"lon":5.39187,"is_reserved":false,"is_disabled":false,"rental_uris":{"android":"levelo://app?vid=3b76b434-c07f-48ef-bce6-5339bda9953e","ios":"levelo://app?vid=3b76b434-c07f-48ef-bce6-5339bda9953e"},"vehicle_type_id":"4","last_reported":1732505111,"current_range_meters":36400,"station_id":"ce4bhoh2rcd13ifvqh5g","pricing_plan_id":"cebpf4jnsgd1na2vs0mg"},{"bike_id":"b27cab72-0c2b-403a-acee-6b24bfdee133","system_id":"levelo_inurba_marseille","lat":43.29206,"lon":5.39319,"is_reserved":false,"is_disabled":false,"rental_uris":{"android":"levelo://app?vid=b27cab72-0c2b-403a-acee-6b24bfdee133","ios":"levelo://app?vid=b27cab72-0c2b-403a-acee-6b24bfdee133"},"vehicle_type_id":"4","last_reported":1732505111,"current_range_meters":26800,"station_id":"ce4bh192rcd13ifvqdd0","pricing_plan_id":"cebpf4jnsgd1na2vs0mg"},{"bike_id":"f87b6061-5330-4017-8db4-f9c6a32fd5c5","system_id":"levelo_inurba_marseille","lat":43.2926,"lon":5.40912,"is_reserved":false,"is_disabled":false,"rental_uris":{"android":"levelo://app?vid=f87b6061-5330-4017-8db4-f9c6a32fd5c5","ios":"levelo://app?vid=f87b6061-5330-4017-8db4-f9c6a32fd5c5"},"vehicle_type_id":"4","last_reported":1732505111,"current_range_meters":24800,"station_id":"ce4bh192rcd13ifvqdc0","pricing_plan_id":"cebpf4jnsgd1na2vs0mg"},{"bike_id":"1a5dfa7a-1d4a-4735-b35d-631116c77557","system_id":"levelo_inurba_marseille","lat":43.3172,"lon":5.4239,"is_reserved":false,"is_disabled":false,"rental_uris":{"android":"levelo://app?vid=1a5dfa7a-1d4a-4735-b35d-631116c77557","ios":"levelo://app?vid=1a5dfa7a-1d4a-4735-b35d-631116c77557"},"vehicle_type_id":"4","last_reported":1732505111,"current_range_meters":39200,"station_id":"ce4bhp92rcd13ifvqhbg","pricing_plan_id":"cebpf4jnsgd1na2vs0mg"},{"bike_id":"635f2088-37d7-4c7e-b140-3292398be605","system_id":"levelo_inurba_marseille","lat":43.24812,"lon":5.37453,"is_reserved":false,"is_disabled":false,"rental_uris":{"android":"levelo://app?vid=635f2088-37d7-4c7e-b140-3292398be605","ios":"levelo://app?vid=635f2088-37d7-4c7e-b140-3292398be605"},"vehicle_type_id":"4","last_reported":1732505111,"current_range_meters":32000,"station_id":"ce4bhgh2rcd13ifvqfb0","pricing_plan_id":"cebpf4jnsgd1na2vs0mg"},{"bike_id":"94ea0621-f4a7-439d-a447-d0137de72d2c","system_id":"levelo_inurba_marseille","lat":43.26809,"lon":5.40262,"is_reserved":false,"is_disabled":false,"rental_uris":{"android":"levelo://app?vid=94ea0621-f4a7-439d-a447-d0137de72d2c","ios":"levelo://app?vid=94ea0621-f4a7-439d-a447-d0137de72d2c"},"vehicle_type_id":"4","last_reported":1732505111,"current_range_meters":38800,"station_id":"ce501612rcd8frsf0b60","pricing_plan_id":"cebpf4jnsgd1na2vs0mg"},{"bike_id":"88c9dc30-88d5-4cf2-9d3a-4d11709997f0","system_id":"levelo_inurba_marseille","lat":43.28268,"lon":5.35074,"is_reserved":false,"is_disabled":false,"rental_uris":{"android":"levelo://app?vid=88c9dc30-88d5-4cf2-9d3a-4d11709997f0","ios":"levelo://app?vid=88c9dc30-88d5-4cf2-9d3a-4d11709997f0"},"vehicle_type_id":"4","last_reported":1732505111,"current_range_meters":10800,"station_id":"ce4bhbp2rcd13ifvqerg","pricing_plan_id":"cebpf4jnsgd1na2vs0mg"},{"bike_id":"1fd154d2-b1c2-4c92-8ac6-1e55d3cc8118","system_id":"levelo_inurba_marseille","lat":43.30535,"lon":5.38418,"is_reserved":false,"is_disabled":true,"rental_uris":{"android":"levelo://app?vid=1fd154d2-b1c2-4c92-8ac6-1e55d3cc8118","ios":"levelo://app?vid=1fd154d2-b1c2-4c92-8ac6-1e55d3cc8118"},"vehicle_type_id":"4","last_reported":1732505111,"current_range_meters":0,"station_id":"ce4bgg92rcd13ifvqb30","pricing_plan_id":"cebpf4jnsgd1na2vs0mg"},{"bike_id":"8a4afc3d-cc84-4d9b-92f6-7c887d1122fb","system_id":"levelo_inurba_marseille","lat":43.29204,"lon":5.39324,"is_reserved":false,"is_disabled":false,"rental_uris":{"android":"levelo://app?vid=8a4afc3d-cc84-4d9b-92f6-7c887d1122fb","ios":"levelo://app?vid=8a4afc3d-cc84-4d9b-92f6-7c887d1122fb"},"vehicle_type_id":"4","last_reported":1732505111,"current_range_meters":37600,"station_id":"ce4bh192rcd13ifvqdd0","pricing_plan_id":"cebpf4jnsgd1na2vs0mg"},{"bike_id":"40ef2007-564f-49fc-8be7-96bbe8a9a72b","system_id":"levelo_inurba_marseille","lat":43.24174,"lon":5.39728,"is_reserved":false,"is_disabled":false,"rental_uris":{"android":"levelo://app?vid=40ef2007-564f-49fc-8be7-96bbe8a9a72b","ios":"levelo://app?vid=40ef2007-564f-49fc-8be7-96bbe8a9a72b"},"vehicle_type_id":"4","last_reported":1732505111,"current_range_meters":38000,"station_id":"ce4bhn12rcd13ifvqgpg","pricing_plan_id":"cebpf4jnsgd1na2vs0mg"},{"bike_id":"c569cd8d-4e4b-400f-9cd9-2ba61514ca33","system_id":"levelo_inurba_marseille","lat":43.26691,"lon":5.38276,"is_reserved":false,"is_disabled":true,"rental_uris":{"android":"levelo://app?vid=c569cd8d-4e4b-400f-9cd9-2ba61514ca33","ios":"levelo://app?vid=c569cd8d-4e4b-400f-9cd9-2ba61514ca33"},"vehicle_type_id":"4","last_reported":1732505111,"current_range_meters":37600,"station_id":"ce4bhg92rcd13ifvqf90","pricing_plan_id":"cebpf4jnsgd1na2vs0mg"},{"bike_id":"df95cc75-ce37-4f8e-8707-b0e5575b6285","system_id":"levelo_inurba_marseille","lat":43.30649,"lon":5.40079,"is_reserved":false,"is_disabled":false,"rental_uris":{"android":"levelo://app?vid=df95cc75-ce37-4f8e-8707-b0e5575b6285","ios":"levelo://app?vid=df95cc75-ce37-4f8e-8707-b0e5575b6285"},"vehicle_type_id":"4","last_reported":1732505111,"current_range_meters":25200,"station_id":"ce4bh112rcd13ifvqda0","pricing_plan_id":"cebpf4jnsgd1na2vs0mg"},{"bike_id":"0707a5ec-ea01-4994-b858-b1dd47dfc25d","system_id":"levelo_inurba_marseille","lat":43.29074,"lon":5.37166,"is_reserved":false,"is_disabled":false,"rental_uris":{"android":"levelo://app?vid=0707a5ec-ea01-4994-b858-b1dd47dfc25d","ios":"levelo://app?vid=0707a5ec-ea01-4994-b858-b1dd47dfc25d"},"vehicle_type_id":"4","last_reported":1732505111,"current_range_meters":38800,"station_id":"ce4bh5p2rcd13ifvqe4g","pricing_plan_id":"cebpf4jnsgd1na2vs0mg"},{"bike_id":"28f8ecf8-a7ae-4a32-aa4f-609e03eada5d","system_id":"levelo_inurba_marseille","lat":43.29536,"lon":5.38534,"is_reserved":false,"is_disabled":true,"rental_uris":{"android":"levelo://app?vid=28f8ecf8-a7ae-4a32-aa4f-609e03eada5d","ios":"levelo://app?vid=28f8ecf8-a7ae-4a32-aa4f-609e03eada5d"},"vehicle_type_id":"4","last_reported":1732505111,"current_range_meters":36800,"station_id":"ce4bgih2rcd13ifvqba0","pricing_plan_id":"cebpf4jnsgd1na2vs0mg"},{"bike_id":"8b56a362-167f-406c-8383-0af80cfbd41f","system_id":"levelo_inurba_marseille","lat":43.2808,"lon":5.39648,"is_reserved":false,"is_disabled":false,"rental_uris":{"android":"levelo://app?vid=8b56a362-167f-406c-8383-0af80cfbd41f","ios":"levelo://app?vid=8b56a362-167f-406c-8383-0af80cfbd41f"},"vehicle_type_id":"4","last_reported":1732505111,"current_range_meters":37600,"station_id":"ce4bho12rcd13ifvqh2g","pricing_plan_id":"cebpf4jnsgd1na2vs0mg"},{"bike_id":"858b65e1-94fc-4151-a71e-8b168cb19dcb","system_id":"levelo_inurba_marseille","lat":43.32249,"lon":5.39241,"is_reserved":false,"is_disabled":true,"rental_uris":{"android":"levelo://app?vid=858b65e1-94fc-4151-a71e-8b168cb19dcb","ios":"levelo://app?vid=858b65e1-94fc-4151-a71e-8b168cb19dcb"},"vehicle_type_id":"4","last_reported":1732505111,"current_range_meters":4000,"station_id":"","pricing_plan_id":"cebpf4jnsgd1na2vs0mg"},{"bike_id":"3642e313-d1ba-4ec4-a074-9625d1ce920b","system_id":"levelo_inurba_marseille","lat":43.27949,"lon":5.41041,"is_reserved":false,"is_disabled":false,"rental_uris":{"android":"levelo://app?vid=3642e313-d1ba-4ec4-a074-9625d1ce920b","ios":"levelo://app?vid=3642e313-d1ba-4ec4-a074-9625d1ce920b"},"vehicle_type_id":"4","last_reported":1732505111,"current_range_meters":38400,"station_id":"ce4bhnp2rcd13ifvqh0g","pricing_plan_id":"cebpf4jnsgd1na2vs0mg"},{"bike_id":"e98224a1-1049-461f-8341-477c68871201","system_id":"levelo_inurba_marseille","lat":43.28697,"lon":5.3739,"is_reserved":false,"is_disabled":false,"rental_uris":{"android":"levelo://app?vid=e98224a1-1049-461f-8341-477c68871201","ios":"levelo://app?vid=e98224a1-1049-461f-8341-477c68871201"},"vehicle_type_id":"4","last_reported":1732505111,"current_range_meters":28000,"station_id":"ce4bh3p2rcd13ifvqdq0","pricing_plan_id":"cebpf4jnsgd1na2vs0mg"},{"bike_id":"cf82e025-3ff7-4a37-a4ea-58691290748d","system_id":"levelo_inurba_marseille","lat":43.28562,"lon":5.39501,"is_reserved":false,"is_disabled":false,"rental_uris":{"android":"levelo://app?vid=cf82e025-3ff7-4a37-a4ea-58691290748d","ios":"levelo://app?vid=cf82e025-3ff7-4a37-a4ea-58691290748d"},"vehicle_type_id":"4","last_reported":1732505111,"current_range_meters":38800,"station_id":"ce4bh292rcd13ifvqdg0","pricing_plan_id":"cebpf4jnsgd1na2vs0mg"},{"bike_id":"133c0635-6ac4-49a6-b3b8-4ad5dda949c5","system_id":"levelo_inurba_marseille","lat":43.31721,"lon":5.37683,"is_reserved":false,"is_disabled":true,"rental_uris":{"android":"levelo://app?vid=133c0635-6ac4-49a6-b3b8-4ad5dda949c5","ios":"levelo://app?vid=133c0635-6ac4-49a6-b3b8-4ad5dda949c5"},"vehicle_type_id":"4","last_reported":1732505111,"current_range_meters":36400,"station_id":"ce4bgth2rcd13ifvqch0","pricing_plan_id":"cebpf4jnsgd1na2vs0mg"},{"bike_id":"b2631cb1-5f45-442a-a6d3-aafcb60645f5","system_id":"levelo_inurba_marseille","lat":43.29267,"lon":5.36848,"is_reserved":false,"is_disabled":true,"rental_uris":{"android":"levelo://app?vid=b2631cb1-5f45-442a-a6d3-aafcb60645f5","ios":"levelo://app?vid=b2631cb1-5f45-442a-a6d3-aafcb60645f5"},"vehicle_type_id":"4","last_reported":1732505111,"current_range_meters":0,"station_id":"ce4bhbp2rcd13ifvqesg","pricing_plan_id":"cebpf4jnsgd1na2vs0mg"},{"bike_id":"5b1848fc-624c-4c51-aee9-b2940f85a2d8","system_id":"levelo_inurba_marseille","lat":43.317054,"lon":5.377541,"is_reserved":false,"is_disabled":false,"rental_uris":{"android":"levelo://app?vid=5b1848fc-624c-4c51-aee9-b2940f85a2d8","ios":"levelo://app?vid=5b1848fc-624c-4c51-aee9-b2940f85a2d8"},"vehicle_type_id":"4","last_reported":1732505111,"current_range_meters":38800,"station_id":"ce4bgth2rcd13ifvqch0","pricing_plan_id":"cebpf4jnsgd1na2vs0mg"},{"bike_id":"1f7a2424-c270-4472-84c7-0f6ba57bbbb4","system_id":"levelo_inurba_marseille","lat":43.31384,"lon":5.38494,"is_reserved":false,"is_disabled":true,"rental_uris":{"android":"levelo://app?vid=1f7a2424-c270-4472-84c7-0f6ba57bbbb4","ios":"levelo://app?vid=1f7a2424-c270-4472-84c7-0f6ba57bbbb4"},"vehicle_type_id":"4","last_reported":1732505111,"current_range_meters":4800,"station_id":"ce4bgt92rcd13ifvqcf0","pricing_plan_id":"cebpf4jnsgd1na2vs0mg"},{"bike_id":"bb238d43-a600-4b96-a8d3-e84ce9536179","system_id":"levelo_inurba_marseille","lat":43.29442,"lon":5.39746,"is_reserved":false,"is_disabled":false,"rental_uris":{"android":"levelo://app?vid=bb238d43-a600-4b96-a8d3-e84ce9536179","ios":"levelo://app?vid=bb238d43-a600-4b96-a8d3-e84ce9536179"},"vehicle_type_id":"4","last_reported":1732505111,"current_range_meters":20400,"station_id":"ce4bh3h2rcd13ifvqdo0","pricing_plan_id":"cebpf4jnsgd1na2vs0mg"},{"bike_id":"6f38465d-ffe2-4b3e-af3f-0da8bcdbdb9b","system_id":"levelo_inurba_marseille","lat":43.27814,"lon":5.40709,"is_reserved":false,"is_disabled":false,"rental_uris":{"android":"levelo://app?vid=6f38465d-ffe2-4b3e-af3f-0da8bcdbdb9b","ios":"levelo://app?vid=6f38465d-ffe2-4b3e-af3f-0da8bcdbdb9b"},"vehicle_type_id":"4","last_reported":1732505111,"current_range_meters":30000,"station_id":"ce4bhnh2rcd13ifvqgtg","pricing_plan_id":"cebpf4jnsgd1na2vs0mg"},{"bike_id":"aacb2ed1-e434-437a-a9fb-464c857447f6","system_id":"levelo_inurba_marseille","lat":43.25505,"lon":5.37652,"is_reserved":false,"is_disabled":false,"rental_uris":{"android":"levelo://app?vid=aacb2ed1-e434-437a-a9fb-464c857447f6","ios":"levelo://app?vid=aacb2ed1-e434-437a-a9fb-464c857447f6"},"vehicle_type_id":"4","last_reported":1732505111,"current_range_meters":38800,"station_id":"ce4bhh12rcd13ifvqff0","pricing_plan_id":"cebpf4jnsgd1na2vs0mg"},{"bike_id":"890ceff7-9bd1-4363-9716-427976dbddef","system_id":"levelo_inurba_marseille","lat":43.27203,"lon":5.39192,"is_reserved":false,"is_disabled":true,"rental_uris":{"android":"levelo://app?vid=890ceff7-9bd1-4363-9716-427976dbddef","ios":"levelo://app?vid=890ceff7-9bd1-4363-9716-427976dbddef"},"vehicle_type_id":"4","last_reported":1732505111,"current_range_meters":0,"station_id":"ce4bhhp2rcd13ifvqfm0","pricing_plan_id":"cebpf4jnsgd1na2vs0mg"},{"bike_id":"e41b76d3-2179-462b-930f-689d66af4790","system_id":"levelo_inurba_marseille","lat":43.284376,"lon":5.391906,"is_reserved":false,"is_disabled":false,"rental_uris":{"android":"levelo://app?vid=e41b76d3-2179-462b-930f-689d66af4790","ios":"levelo://app?vid=e41b76d3-2179-462b-930f-689d66af4790"},"vehicle_type_id":"4","last_reported":1732505111,"current_range_meters":27600,"station_id":"ce4bhoh2rcd13ifvqh5g","pricing_plan_id":"cebpf4jnsgd1na2vs0mg"},{"bike_id":"552ae1f9-34eb-4d70-a19b-3616d3661778","system_id":"levelo_inurba_marseille","lat":43.337225,"lon":5.391791,"is_reserved":false,"is_disabled":false,"rental_uris":{"android":"levelo://app?vid=552ae1f9-34eb-4d70-a19b-3616d3661778","ios":"levelo://app?vid=552ae1f9-34eb-4d70-a19b-3616d3661778"},"vehicle_type_id":"4","last_reported":1732505111,"current_range_meters":11200,"station_id":"ce4bhr92rcd13ifvqhsg","pricing_plan_id":"cebpf4jnsgd1na2vs0mg"},{"bike_id":"f7f3756c-1ec7-4782-9c87-6273f87b6774","system_id":"levelo_inurba_marseille","lat":43.337444,"lon":5.374475,"is_reserved":false,"is_disabled":true,"rental_uris":{"android":"levelo://app?vid=f7f3756c-1ec7-4782-9c87-6273f87b6774","ios":"levelo://app?vid=f7f3756c-1ec7-4782-9c87-6273f87b6774"},"vehicle_type_id":"4","last_reported":1732505111,"current_range_meters":25600,"station_id":"","pricing_plan_id":"cebpf4jnsgd1na2vs0mg"},{"bike_id":"740f162e-a0c7-4af9-899d-283ea1409dc6","system_id":"levelo_inurba_marseille","lat":43.26936,"lon":5.3892,"is_reserved":false,"is_disabled":true,"rental_uris":{"android":"levelo://app?vid=740f162e-a0c7-4af9-899d-283ea1409dc6","ios":"levelo://app?vid=740f162e-a0c7-4af9-899d-283ea1409dc6"},"vehicle_type_id":"4","last_reported":1732505111,"current_range_meters":28000,"station_id":"ce4bhhh2rcd13ifvqfl0","pricing_plan_id":"cebpf4jnsgd1na2vs0mg"},{"bike_id":"d8d94634-4ac1-4f5f-8651-7a99e522961a","system_id":"levelo_inurba_marseille","lat":43.26258,"lon":5.40304,"is_reserved":false,"is_disabled":false,"rental_uris":{"android":"levelo://app?vid=d8d94634-4ac1-4f5f-8651-7a99e522961a","ios":"levelo://app?vid=d8d94634-4ac1-4f5f-8651-7a99e522961a"},"vehicle_type_id":"4","last_reported":1732505111,"current_range_meters":24800,"station_id":"","pricing_plan_id":"cebpf4jnsgd1na2vs0mg"},{"bike_id":"41030a91-371e-4331-8339-a807bf6ebf3c","system_id":"levelo_inurba_marseille","lat":43.32286,"lon":5.38272,"is_reserved":false,"is_disabled":false,"rental_uris":{"android":"levelo://app?vid=41030a91-371e-4331-8339-a807bf6ebf3c","ios":"levelo://app?vid=41030a91-371e-4331-8339-a807bf6ebf3c"},"vehicle_type_id":"4","last_reported":1732505111,"current_range_meters":36400,"station_id":"ce4bhr12rcd13ifvqhqg","pricing_plan_id":"cebpf4jnsgd1na2vs0mg"},{"bike_id":"4d7bdc63-911c-4686-ae29-ea5461fb3d3f","system_id":"levelo_inurba_marseille","lat":43.28153,"lon":5.42642,"is_reserved":false,"is_disabled":false,"rental_uris":{"android":"levelo://app?vid=4d7bdc63-911c-4686-ae29-ea5461fb3d3f","ios":"levelo://app?vid=4d7bdc63-911c-4686-ae29-ea5461fb3d3f"},"vehicle_type_id":"4","last_reported":1732505111,"current_range_meters":38800,"station_id":"ce4bhnh2rcd13ifvqgug","pricing_plan_id":"cebpf4jnsgd1na2vs0mg"},{"bike_id":"20bd74b5-69eb-496c-8de0-700585d290d1","system_id":"levelo_inurba_marseille","lat":43.29257,"lon":5.40907,"is_reserved":false,"is_disabled":false,"rental_uris":{"android":"levelo://app?vid=20bd74b5-69eb-496c-8de0-700585d290d1","ios":"levelo://app?vid=20bd74b5-69eb-496c-8de0-700585d290d1"},"vehicle_type_id":"4","last_reported":1732505111,"current_range_meters":38000,"station_id":"ce4bh192rcd13ifvqdc0","pricing_plan_id":"cebpf4jnsgd1na2vs0mg"},{"bike_id":"c99f82a6-1e75-4069-adf7-8d3dd61d2d09","system_id":"levelo_inurba_marseille","lat":43.299013,"lon":5.436614,"is_reserved":false,"is_disabled":false,"rental_uris":{"android":"levelo://app?vid=c99f82a6-1e75-4069-adf7-8d3dd61d2d09","ios":"levelo://app?vid=c99f82a6-1e75-4069-adf7-8d3dd61d2d09"},"vehicle_type_id":"4","last_reported":1732505111,"current_range_meters":12000,"station_id":"ce4bhpp2rcd13ifvqhfg","pricing_plan_id":"cebpf4jnsgd1na2vs0mg"},{"bike_id":"96fef04f-f424-4b1e-a003-fc645e04ed3a","system_id":"levelo_inurba_marseille","lat":43.27384,"lon":5.36247,"is_reserved":false,"is_disabled":true,"rental_uris":{"android":"levelo://app?vid=96fef04f-f424-4b1e-a003-fc645e04ed3a","ios":"levelo://app?vid=96fef04f-f424-4b1e-a003-fc645e04ed3a"},"vehicle_type_id":"4","last_reported":1732505111,"current_range_meters":28000,"station_id":"ce4bhbh2rcd13ifvqeo0","pricing_plan_id":"cebpf4jnsgd1na2vs0mg"},{"bike_id":"b7b61d62-d3cf-45c0-ae9e-f05215122577","system_id":"levelo_inurba_marseille","lat":43.30922,"lon":5.40152,"is_reserved":false,"is_disabled":true,"rental_uris":{"android":"levelo://app?vid=b7b61d62-d3cf-45c0-ae9e-f05215122577","ios":"levelo://app?vid=b7b61d62-d3cf-45c0-ae9e-f05215122577"},"vehicle_type_id":"4","last_reported":1732505111,"current_range_meters":0,"station_id":"ce4bgvp2rcd13ifvqct0","pricing_plan_id":"cebpf4jnsgd1na2vs0mg"},{"bike_id":"92aaf2ae-6395-4985-bda4-652f2001ddbe","system_id":"levelo_inurba_marseille","lat":43.27564,"lon":5.3842,"is_reserved":false,"is_disabled":false,"rental_uris":{"android":"levelo://app?vid=92aaf2ae-6395-4985-bda4-652f2001ddbe","ios":"levelo://app?vid=92aaf2ae-6395-4985-bda4-652f2001ddbe"},"vehicle_type_id":"4","last_reported":1732505111,"current_range_meters":39200,"station_id":"ce4bhh92rcd13ifvqfi0","pricing_plan_id":"cebpf4jnsgd1na2vs0mg"},{"bike_id":"7f89b812-16cb-4135-bc5f-efa2b244ec26","system_id":"levelo_inurba_marseille","lat":43.26561,"lon":5.37279,"is_reserved":false,"is_disabled":true,"rental_uris":{"android":"levelo://app?vid=7f89b812-16cb-4135-bc5f-efa2b244ec26","ios":"levelo://app?vid=7f89b812-16cb-4135-bc5f-efa2b244ec26"},"vehicle_type_id":"4","last_reported":1732505111,"current_range_meters":38000,"station_id":"ce4bhg12rcd13ifvqf70","pricing_plan_id":"cebpf4jnsgd1na2vs0mg"},{"bike_id":"e2f0ef73-8018-4db5-80ea-af7dd90396dd","system_id":"levelo_inurba_marseille","lat":43.28154,"lon":5.42642,"is_reserved":false,"is_disabled":false,"rental_uris":{"android":"levelo://app?vid=e2f0ef73-8018-4db5-80ea-af7dd90396dd","ios":"levelo://app?vid=e2f0ef73-8018-4db5-80ea-af7dd90396dd"},"vehicle_type_id":"4","last_reported":1732505111,"current_range_meters":20800,"station_id":"ce4bhnh2rcd13ifvqgug","pricing_plan_id":"cebpf4jnsgd1na2vs0mg"},{"bike_id":"86ec5835-1e76-4455-9969-54b44bba3755","system_id":"levelo_inurba_marseille","lat":43.324831,"lon":5.365644,"is_reserved":false,"is_disabled":false,"rental_uris":{"android":"levelo://app?vid=86ec5835-1e76-4455-9969-54b44bba3755","ios":"levelo://app?vid=86ec5835-1e76-4455-9969-54b44bba3755"},"vehicle_type_id":"4","last_reported":1732505111,"current_range_meters":38000,"station_id":"ce4bhs12rcd13ifvqhvg","pricing_plan_id":"cebpf4jnsgd1na2vs0mg"},{"bike_id":"0ed83b47-52ec-43b9-b2f6-22975bee1154","system_id":"levelo_inurba_marseille","lat":43.27571,"lon":5.38429,"is_reserved":false,"is_disabled":false,"rental_uris":{"android":"levelo://app?vid=0ed83b47-52ec-43b9-b2f6-22975bee1154","ios":"levelo://app?vid=0ed83b47-52ec-43b9-b2f6-22975bee1154"},"vehicle_type_id":"4","last_reported":1732505111,"current_range_meters":28800,"station_id":"ce4bhh92rcd13ifvqfi0","pricing_plan_id":"cebpf4jnsgd1na2vs0mg"},{"bike_id":"8bb9b9a0-fc62-4ed7-87e4-cc7fb81aba60","system_id":"levelo_inurba_marseille","lat":43.33613,"lon":5.41018,"is_reserved":false,"is_disabled":false,"rental_uris":{"android":"levelo://app?vid=8bb9b9a0-fc62-4ed7-87e4-cc7fb81aba60","ios":"levelo://app?vid=8bb9b9a0-fc62-4ed7-87e4-cc7fb81aba60"},"vehicle_type_id":"4","last_reported":1732505111,"current_range_meters":39200,"station_id":"ce4bhqh2rcd13ifvqhmg","pricing_plan_id":"cebpf4jnsgd1na2vs0mg"},{"bike_id":"63e5c75a-30c8-4be5-8ec8-448fdf89dbb8","system_id":"levelo_inurba_marseille","lat":43.23065,"lon":5.35489,"is_reserved":false,"is_disabled":false,"rental_uris":{"android":"levelo://app?vid=63e5c75a-30c8-4be5-8ec8-448fdf89dbb8","ios":"levelo://app?vid=63e5c75a-30c8-4be5-8ec8-448fdf89dbb8"},"vehicle_type_id":"4","last_reported":1732505111,"current_range_meters":38000,"station_id":"cpo3342slgdg3j2ifvpg","pricing_plan_id":"cebpf4jnsgd1na2vs0mg"},{"bike_id":"3e40a00b-dc7f-4c96-b167-619a71b59512","system_id":"levelo_inurba_marseille","lat":43.31529,"lon":5.38039,"is_reserved":false,"is_disabled":false,"rental_uris":{"android":"levelo://app?vid=3e40a00b-dc7f-4c96-b167-619a71b59512","ios":"levelo://app?vid=3e40a00b-dc7f-4c96-b167-619a71b59512"},"vehicle_type_id":"4","last_reported":1732505111,"current_range_meters":27600,"station_id":"ce4bhsp2rcd13ifvqi50","pricing_plan_id":"cebpf4jnsgd1na2vs0mg"},{"bike_id":"1e193d09-2cb0-4798-8e19-b0516f3ebb8e","system_id":"levelo_inurba_marseille","lat":43.28153,"lon":5.42607,"is_reserved":false,"is_disabled":false,"rental_uris":{"android":"levelo://app?vid=1e193d09-2cb0-4798-8e19-b0516f3ebb8e","ios":"levelo://app?vid=1e193d09-2cb0-4798-8e19-b0516f3ebb8e"},"vehicle_type_id":"4","last_reported":1732505111,"current_range_meters":16000,"station_id":"ce4bhnh2rcd13ifvqgug","pricing_plan_id":"cebpf4jnsgd1na2vs0mg"},{"bike_id":"d9511c65-c897-4fa5-8eab-bc1ed0e9b27c","system_id":"levelo_inurba_marseille","lat":43.28104,"lon":5.37838,"is_reserved":false,"is_disabled":false,"rental_uris":{"android":"levelo://app?vid=d9511c65-c897-4fa5-8eab-bc1ed0e9b27c","ios":"levelo://app?vid=d9511c65-c897-4fa5-8eab-bc1ed0e9b27c"},"vehicle_type_id":"4","last_reported":1732505111,"current_range_meters":25200,"station_id":"ce4bha12rcd13ifvqee0","pricing_plan_id":"cebpf4jnsgd1na2vs0mg"},{"bike_id":"0f22f840-4bd2-413b-a326-5e9bb8c6febb","system_id":"levelo_inurba_marseille","lat":43.28153,"lon":5.42646,"is_reserved":false,"is_disabled":false,"rental_uris":{"android":"levelo://app?vid=0f22f840-4bd2-413b-a326-5e9bb8c6febb","ios":"levelo://app?vid=0f22f840-4bd2-413b-a326-5e9bb8c6febb"},"vehicle_type_id":"4","last_reported":1732505111,"current_range_meters":38800,"station_id":"ce4bhnh2rcd13ifvqgug","pricing_plan_id":"cebpf4jnsgd1na2vs0mg"},{"bike_id":"a8fcd5d9-1261-4df7-bb0d-54dd0d3b00e9","system_id":"levelo_inurba_marseille","lat":43.32548,"lon":5.41444,"is_reserved":false,"is_disabled":false,"rental_uris":{"android":"levelo://app?vid=a8fcd5d9-1261-4df7-bb0d-54dd0d3b00e9","ios":"levelo://app?vid=a8fcd5d9-1261-4df7-bb0d-54dd0d3b00e9"},"vehicle_type_id":"4","last_reported":1732505111,"current_range_meters":36800,"station_id":"ce4bhq12rcd13ifvqhhg","pricing_plan_id":"cebpf4jnsgd1na2vs0mg"},{"bike_id":"319287df-687a-4519-8559-afdae3b3272f","system_id":"levelo_inurba_marseille","lat":43.29787,"lon":5.3811,"is_reserved":false,"is_disabled":true,"rental_uris":{"android":"levelo://app?vid=319287df-687a-4519-8559-afdae3b3272f","ios":"levelo://app?vid=319287df-687a-4519-8559-afdae3b3272f"},"vehicle_type_id":"4","last_reported":1732505111,"current_range_meters":30400,"station_id":"ce4bgip2rcd13ifvqbb0","pricing_plan_id":"cebpf4jnsgd1na2vs0mg"},{"bike_id":"bca3fd95-577b-4655-a940-7281cdb56793","system_id":"levelo_inurba_marseille","lat":43.28031,"lon":5.36938,"is_reserved":false,"is_disabled":true,"rental_uris":{"android":"levelo://app?vid=bca3fd95-577b-4655-a940-7281cdb56793","ios":"levelo://app?vid=bca3fd95-577b-4655-a940-7281cdb56793"},"vehicle_type_id":"4","last_reported":1732505111,"current_range_meters":32000,"station_id":"ce4bha12rcd13ifvqef0","pricing_plan_id":"cebpf4jnsgd1na2vs0mg"},{"bike_id":"e5951ee3-4a5a-4ebb-b469-096c5188dfa3","system_id":"levelo_inurba_marseille","lat":43.231914,"lon":5.355615,"is_reserved":false,"is_disabled":false,"rental_uris":{"android":"levelo://app?vid=e5951ee3-4a5a-4ebb-b469-096c5188dfa3","ios":"levelo://app?vid=e5951ee3-4a5a-4ebb-b469-096c5188dfa3"},"vehicle_type_id":"4","last_reported":1732505111,"current_range_meters":14400,"station_id":"ce4bhu92rcd13ifvqi70","pricing_plan_id":"cebpf4jnsgd1na2vs0mg"},{"bike_id":"41d2ae0a-43c4-4106-affd-c6c7a1fee43e","system_id":"levelo_inurba_marseille","lat":43.31278,"lon":5.40172,"is_reserved":false,"is_disabled":false,"rental_uris":{"android":"levelo://app?vid=41d2ae0a-43c4-4106-affd-c6c7a1fee43e","ios":"levelo://app?vid=41d2ae0a-43c4-4106-affd-c6c7a1fee43e"},"vehicle_type_id":"4","last_reported":1732505111,"current_range_meters":30000,"station_id":"ce4bh092rcd13ifvqd30","pricing_plan_id":"cebpf4jnsgd1na2vs0mg"},{"bike_id":"6be47ae7-a052-469a-8634-b4c36596f6ea","system_id":"levelo_inurba_marseille","lat":43.282675,"lon":5.350708,"is_reserved":false,"is_disabled":false,"rental_uris":{"android":"levelo://app?vid=6be47ae7-a052-469a-8634-b4c36596f6ea","ios":"levelo://app?vid=6be47ae7-a052-469a-8634-b4c36596f6ea"},"vehicle_type_id":"4","last_reported":1732505111,"current_range_meters":35200,"station_id":"ce4bhbp2rcd13ifvqerg","pricing_plan_id":"cebpf4jnsgd1na2vs0mg"},{"bike_id":"faf5578c-0192-4498-85b2-0cb319dbdd62","system_id":"levelo_inurba_marseille","lat":43.29873,"lon":5.3976,"is_reserved":false,"is_disabled":false,"rental_uris":{"android":"levelo://app?vid=faf5578c-0192-4498-85b2-0cb319dbdd62","ios":"levelo://app?vid=faf5578c-0192-4498-85b2-0cb319dbdd62"},"vehicle_type_id":"4","last_reported":1732505111,"current_range_meters":38800,"station_id":"ce4bh0h2rcd13ifvqd50","pricing_plan_id":"cebpf4jnsgd1na2vs0mg"},{"bike_id":"3346811b-c915-4142-aa81-0584cad20074","system_id":"levelo_inurba_marseille","lat":43.28657,"lon":5.36362,"is_reserved":false,"is_disabled":false,"rental_uris":{"android":"levelo://app?vid=3346811b-c915-4142-aa81-0584cad20074","ios":"levelo://app?vid=3346811b-c915-4142-aa81-0584cad20074"},"vehicle_type_id":"4","last_reported":1732505111,"current_range_meters":37600,"station_id":"ce4bhah2rcd13ifvqej0","pricing_plan_id":"cebpf4jnsgd1na2vs0mg"},{"bike_id":"aa868749-7868-48ee-914f-11e0d8f975f5","system_id":"levelo_inurba_marseille","lat":43.27813,"lon":5.40705,"is_reserved":false,"is_disabled":false,"rental_uris":{"android":"levelo://app?vid=aa868749-7868-48ee-914f-11e0d8f975f5","ios":"levelo://app?vid=aa868749-7868-48ee-914f-11e0d8f975f5"},"vehicle_type_id":"4","last_reported":1732505111,"current_range_meters":38800,"station_id":"ce4bhnh2rcd13ifvqgtg","pricing_plan_id":"cebpf4jnsgd1na2vs0mg"},{"bike_id":"81a37cae-e9cf-459f-9399-7a89da6edc9b","system_id":"levelo_inurba_marseille","lat":43.30375,"lon":5.45122,"is_reserved":false,"is_disabled":true,"rental_uris":{"android":"levelo://app?vid=81a37cae-e9cf-459f-9399-7a89da6edc9b","ios":"levelo://app?vid=81a37cae-e9cf-459f-9399-7a89da6edc9b"},"vehicle_type_id":"4","last_reported":1732505111,"current_range_meters":800,"station_id":"","pricing_plan_id":"cebpf4jnsgd1na2vs0mg"},{"bike_id":"6c948e9c-d5b3-4fe5-a918-1bd2f7c83b02","system_id":"levelo_inurba_marseille","lat":43.321096,"lon":5.367715,"is_reserved":false,"is_disabled":false,"rental_uris":{"android":"levelo://app?vid=6c948e9c-d5b3-4fe5-a918-1bd2f7c83b02","ios":"levelo://app?vid=6c948e9c-d5b3-4fe5-a918-1bd2f7c83b02"},"vehicle_type_id":"4","last_reported":1732505111,"current_range_meters":26000,"station_id":"ce4bhrh2rcd13ifvqhug","pricing_plan_id":"cebpf4jnsgd1na2vs0mg"},{"bike_id":"9e620abf-d324-4f99-84fc-d67e71109f2a","system_id":"levelo_inurba_marseille","lat":43.31077,"lon":5.42435,"is_reserved":false,"is_disabled":true,"rental_uris":{"android":"levelo://app?vid=9e620abf-d324-4f99-84fc-d67e71109f2a","ios":"levelo://app?vid=9e620abf-d324-4f99-84fc-d67e71109f2a"},"vehicle_type_id":"4","last_reported":1732505111,"current_range_meters":0,"station_id":"ce4bhp92rcd13ifvqhag","pricing_plan_id":"cebpf4jnsgd1na2vs0mg"},{"bike_id":"9388a7ff-9c5c-4c26-9899-39b2408cf7e3","system_id":"levelo_inurba_marseille","lat":43.31025,"lon":5.38342,"is_reserved":false,"is_disabled":true,"rental_uris":{"android":"levelo://app?vid=9388a7ff-9c5c-4c26-9899-39b2408cf7e3","ios":"levelo://app?vid=9388a7ff-9c5c-4c26-9899-39b2408cf7e3"},"vehicle_type_id":"4","last_reported":1732505111,"current_range_meters":0,"station_id":"","pricing_plan_id":"cebpf4jnsgd1na2vs0mg"},{"bike_id":"ac30c408-efb6-4cc0-8b69-b94fbc018051","system_id":"levelo_inurba_marseille","lat":43.30207,"lon":5.39468,"is_reserved":false,"is_disabled":true,"rental_uris":{"android":"levelo://app?vid=ac30c408-efb6-4cc0-8b69-b94fbc018051","ios":"levelo://app?vid=ac30c408-efb6-4cc0-8b69-b94fbc018051"},