{"last_updated":1730726347,"ttl":60,"version":"2.2","data":{"bikes":[{"bike_id":"78429442-f214-41d9-83db-6ee097d92aaa","system_id":"levelo_inurba_marseille","lat":43.23154,"lon":5.43701,"is_reserved":false,"is_disabled":false,"rental_uris":{"android":"levelo://app?vid=78429442-f214-41d9-83db-6ee097d92aaa","ios":"levelo://app?vid=78429442-f214-41d9-83db-6ee097d92aaa"},"vehicle_type_id":"4","last_reported":1730726348,"current_range_meters":4800,"station_id":"ce4bhmp2rcd13ifvqgog","pricing_plan_id":"cebpf4jnsgd1na2vs0mg"},{"bike_id":"d1f8de36-8e67-4976-ae37-49f1a3e59d16","system_id":"levelo_inurba_marseille","lat":43.29873,"lon":5.389,"is_reserved":false,"is_disabled":false,"rental_uris":{"android":"levelo://app?vid=d1f8de36-8e67-4976-ae37-49f1a3e59d16","ios":"levelo://app?vid=d1f8de36-8e67-4976-ae37-49f1a3e59d16"},"vehicle_type_id":"4","last_reported":1730726348,"current_range_meters":8800,"station_id":"ce4bh392rcd13ifvqdl0","pricing_plan_id":"cebpf4jnsgd1na2vs0mg"},{"bike_id":"7de9a790-8433-4027-a29c-d705b3c4902c","system_id":"levelo_inurba_marseille","lat":43.31112,"lon":5.37777,"is_reserved":false,"is_disabled":false,"rental_uris":{"android":"levelo://app?vid=7de9a790-8433-4027-a29c-d705b3c4902c","ios":"levelo://app?vid=7de9a790-8433-4027-a29c-d705b3c4902c"},"vehicle_type_id":"4","last_reported":1730726348,"current_range_meters":6400,"station_id":"ce4bgt92rcd13ifvqcg0","pricing_plan_id":"cebpf4jnsgd1na2vs0mg"},{"bike_id":"32e0bd39-8846-4b8b-9ff5-b45ce87f8492","system_id":"levelo_inurba_marseille","lat":43.2594,"lon":5.40906,"is_reserved":false,"is_disabled":false,"rental_uris":{"android":"levelo://app?vid=32e0bd39-8846-4b8b-9ff5-b45ce87f8492","ios":"levelo://app?vid=32e0bd39-8846-4b8b-9ff5-b45ce87f8492"},"vehicle_type_id":"4","last_reported":1730726348,"current_range_meters":23200,"station_id":"ce4bhm92rcd13ifvqglg","pricing_plan_id":"cebpf4jnsgd1na2vs0mg"},{"bike_id":"b45d93e2-137e-40d9-b8b9-f9ceab009d23","system_id":"levelo_inurba_marseille","lat":43.24178,"lon":5.39743,"is_reserved":false,"is_disabled":false,"rental_uris":{"android":"levelo://app?vid=b45d93e2-137e-40d9-b8b9-f9ceab009d23","ios":"levelo://app?vid=b45d93e2-137e-40d9-b8b9-f9ceab009d23"},"vehicle_type_id":"4","last_reported":1730726348,"current_range_meters":39200,"station_id":"ce4bhn12rcd13ifvqgpg","pricing_plan_id":"cebpf4jnsgd1na2vs0mg"},{"bike_id":"52340d74-270c-47a3-b3a7-f0ce31a16824","system_id":"levelo_inurba_marseille","lat":43.26499,"lon":5.39556,"is_reserved":false,"is_disabled":false,"rental_uris":{"android":"levelo://app?vid=52340d74-270c-47a3-b3a7-f0ce31a16824","ios":"levelo://app?vid=52340d74-270c-47a3-b3a7-f0ce31a16824"},"vehicle_type_id":"4","last_reported":1730726348,"current_range_meters":39200,"station_id":"ce4bhi12rcd13ifvqfq0","pricing_plan_id":"cebpf4jnsgd1na2vs0mg"},{"bike_id":"657922bf-48a9-4cc4-a302-b5458947a0f1","system_id":"levelo_inurba_marseille","lat":43.2408,"lon":5.37752,"is_reserved":false,"is_disabled":false,"rental_uris":{"android":"levelo://app?vid=657922bf-48a9-4cc4-a302-b5458947a0f1","ios":"levelo://app?vid=657922bf-48a9-4cc4-a302-b5458947a0f1"},"vehicle_type_id":"4","last_reported":1730726348,"current_range_meters":19600,"station_id":"ce4bhnp2rcd13ifvqgvg","pricing_plan_id":"cebpf4jnsgd1na2vs0mg"},{"bike_id":"b5b11d17-3f3b-46cf-8294-274ab7243e65","system_id":"levelo_inurba_marseille","lat":43.336,"lon":5.41023,"is_reserved":false,"is_disabled":false,"rental_uris":{"android":"levelo://app?vid=b5b11d17-3f3b-46cf-8294-274ab7243e65","ios":"levelo://app?vid=b5b11d17-3f3b-46cf-8294-274ab7243e65"},"vehicle_type_id":"4","last_reported":1730726348,"current_range_meters":38800,"station_id":"ce4bhqh2rcd13ifvqhmg","pricing_plan_id":"cebpf4jnsgd1na2vs0mg"},{"bike_id":"2a39fee9-2e1a-4506-90a5-52fa3c1e7f62","system_id":"levelo_inurba_marseille","lat":43.24079,"lon":5.37748,"is_reserved":false,"is_disabled":false,"rental_uris":{"android":"levelo://app?vid=2a39fee9-2e1a-4506-90a5-52fa3c1e7f62","ios":"levelo://app?vid=2a39fee9-2e1a-4506-90a5-52fa3c1e7f62"},"vehicle_type_id":"4","last_reported":1730726348,"current_range_meters":38800,"station_id":"ce4bhnp2rcd13ifvqgvg","pricing_plan_id":"cebpf4jnsgd1na2vs0mg"},{"bike_id":"7ef03a1c-b439-4b32-b42e-7ad7ea22a075","system_id":"levelo_inurba_marseille","lat":43.32541,"lon":5.4144,"is_reserved":false,"is_disabled":false,"rental_uris":{"android":"levelo://app?vid=7ef03a1c-b439-4b32-b42e-7ad7ea22a075","ios":"levelo://app?vid=7ef03a1c-b439-4b32-b42e-7ad7ea22a075"},"vehicle_type_id":"4","last_reported":1730726348,"current_range_meters":12400,"station_id":"ce4bhq12rcd13ifvqhhg","pricing_plan_id":"cebpf4jnsgd1na2vs0mg"},{"bike_id":"4147bbfb-4b14-4aca-b782-8ec6c0473609","system_id":"levelo_inurba_marseille","lat":43.23593,"lon":5.40351,"is_reserved":false,"is_disabled":false,"rental_uris":{"android":"levelo://app?vid=4147bbfb-4b14-4aca-b782-8ec6c0473609","ios":"levelo://app?vid=4147bbfb-4b14-4aca-b782-8ec6c0473609"},"vehicle_type_id":"4","last_reported":1730726348,"current_range_meters":14800,"station_id":"","pricing_plan_id":"cebpf4jnsgd1na2vs0mg"},{"bike_id":"b7dc39f9-16d6-404a-9777-aeee05a6f406","system_id":"levelo_inurba_marseille","lat":43.30469,"lon":5.37917,"is_reserved":false,"is_disabled":false,"rental_uris":{"android":"levelo://app?vid=b7dc39f9-16d6-404a-9777-aeee05a6f406","ios":"levelo://app?vid=b7dc39f9-16d6-404a-9777-aeee05a6f406"},"vehicle_type_id":"4","last_reported":1730726348,"current_range_meters":36800,"station_id":"ce4bgup2rcd13ifvqcn0","pricing_plan_id":"cebpf4jnsgd1na2vs0mg"},{"bike_id":"60188e7c-41b8-413d-9179-e9013c688863","system_id":"levelo_inurba_marseille","lat":43.26568,"lon":5.39012,"is_reserved":false,"is_disabled":false,"rental_uris":{"android":"levelo://app?vid=60188e7c-41b8-413d-9179-e9013c688863","ios":"levelo://app?vid=60188e7c-41b8-413d-9179-e9013c688863"},"vehicle_type_id":"4","last_reported":1730726348,"current_range_meters":10000,"station_id":"ce4bhe12rcd13ifvqf30","pricing_plan_id":"cebpf4jnsgd1na2vs0mg"},{"bike_id":"fde26fd2-2785-4b3c-861d-fd05a56632ee","system_id":"levelo_inurba_marseille","lat":43.27992,"lon":5.41672,"is_reserved":false,"is_disabled":false,"rental_uris":{"android":"levelo://app?vid=fde26fd2-2785-4b3c-861d-fd05a56632ee","ios":"levelo://app?vid=fde26fd2-2785-4b3c-861d-fd05a56632ee"},"vehicle_type_id":"4","last_reported":1730726348,"current_range_meters":6800,"station_id":"ce4bho12rcd13ifvqh1g","pricing_plan_id":"cebpf4jnsgd1na2vs0mg"},{"bike_id":"c3c4d41d-7148-4370-b749-aace2892e397","system_id":"levelo_inurba_marseille","lat":43.2315,"lon":5.43715,"is_reserved":false,"is_disabled":false,"rental_uris":{"android":"levelo://app?vid=c3c4d41d-7148-4370-b749-aace2892e397","ios":"levelo://app?vid=c3c4d41d-7148-4370-b749-aace2892e397"},"vehicle_type_id":"4","last_reported":1730726348,"current_range_meters":36400,"station_id":"ce4bhmp2rcd13ifvqgog","pricing_plan_id":"cebpf4jnsgd1na2vs0mg"},{"bike_id":"f004bb40-0c97-4961-ae2c-b0211cfc0184","system_id":"levelo_inurba_marseille","lat":43.31206,"lon":5.36847,"is_reserved":false,"is_disabled":false,"rental_uris":{"android":"levelo://app?vid=f004bb40-0c97-4961-ae2c-b0211cfc0184","ios":"levelo://app?vid=f004bb40-0c97-4961-ae2c-b0211cfc0184"},"vehicle_type_id":"4","last_reported":1730726348,"current_range_meters":39200,"station_id":"ce4bgl92rcd13ifvqbq0","pricing_plan_id":"cebpf4jnsgd1na2vs0mg"},{"bike_id":"76b8d797-d314-4451-a891-341320b006ff","system_id":"levelo_inurba_marseille","lat":43.29935,"lon":5.36542,"is_reserved":false,"is_disabled":false,"rental_uris":{"android":"levelo://app?vid=76b8d797-d314-4451-a891-341320b006ff","ios":"levelo://app?vid=76b8d797-d314-4451-a891-341320b006ff"},"vehicle_type_id":"4","last_reported":1730726348,"current_range_meters":23200,"station_id":"ce4bgm92rcd13ifvqbr0","pricing_plan_id":"cebpf4jnsgd1na2vs0mg"},{"bike_id":"13a31c8b-3468-43f9-84ec-7699d1c25b60","system_id":"levelo_inurba_marseille","lat":43.32534,"lon":5.41421,"is_reserved":false,"is_disabled":false,"rental_uris":{"android":"levelo://app?vid=13a31c8b-3468-43f9-84ec-7699d1c25b60","ios":"levelo://app?vid=13a31c8b-3468-43f9-84ec-7699d1c25b60"},"vehicle_type_id":"4","last_reported":1730726348,"current_range_meters":36000,"station_id":"ce4bhq12rcd13ifvqhhg","pricing_plan_id":"cebpf4jnsgd1na2vs0mg"},{"bike_id":"f282ef31-81dd-4a77-a90d-e0c55beb41d0","system_id":"levelo_inurba_marseille","lat":43.29929,"lon":5.36555,"is_reserved":false,"is_disabled":false,"rental_uris":{"android":"levelo://app?vid=f282ef31-81dd-4a77-a90d-e0c55beb41d0","ios":"levelo://app?vid=f282ef31-81dd-4a77-a90d-e0c55beb41d0"},"vehicle_type_id":"4","last_reported":1730726348,"current_range_meters":13600,"station_id":"ce4bgm92rcd13ifvqbr0","pricing_plan_id":"cebpf4jnsgd1na2vs0mg"},{"bike_id":"66476298-0009-4fac-b78a-95c0c35e5163","system_id":"levelo_inurba_marseille","lat":43.27068,"lon":5.42283,"is_reserved":false,"is_disabled":false,"rental_uris":{"android":"levelo://app?vid=66476298-0009-4fac-b78a-95c0c35e5163","ios":"levelo://app?vid=66476298-0009-4fac-b78a-95c0c35e5163"},"vehicle_type_id":"4","last_reported":1730726348,"current_range_meters":35200,"station_id":"ce4bhk92rcd13ifvqgb0","pricing_plan_id":"cebpf4jnsgd1na2vs0mg"},{"bike_id":"2378f453-72a7-4eb2-ab3b-946285d406fd","system_id":"levelo_inurba_marseille","lat":43.292271,"lon":5.377263,"is_reserved":false,"is_disabled":false,"rental_uris":{"android":"levelo://app?vid=2378f453-72a7-4eb2-ab3b-946285d406fd","ios":"levelo://app?vid=2378f453-72a7-4eb2-ab3b-946285d406fd"},"vehicle_type_id":"4","last_reported":1730726348,"current_range_meters":8400,"station_id":"","pricing_plan_id":"cebpf4jnsgd1na2vs0mg"},{"bike_id":"ab10bde3-0bb2-4034-a168-79a1a2170381","system_id":"levelo_inurba_marseille","lat":43.27972,"lon":5.38754,"is_reserved":false,"is_disabled":false,"rental_uris":{"android":"levelo://app?vid=ab10bde3-0bb2-4034-a168-79a1a2170381","ios":"levelo://app?vid=ab10bde3-0bb2-4034-a168-79a1a2170381"},"vehicle_type_id":"4","last_reported":1730726348,"current_range_meters":22000,"station_id":"ce4bhg12rcd13ifvqf80","pricing_plan_id":"cebpf4jnsgd1na2vs0mg"},{"bike_id":"62bd2e2b-49a7-4c83-a4ce-8c1424533664","system_id":"levelo_inurba_marseille","lat":43.24648,"lon":5.38889,"is_reserved":false,"is_disabled":false,"rental_uris":{"android":"levelo://app?vid=62bd2e2b-49a7-4c83-a4ce-8c1424533664","ios":"levelo://app?vid=62bd2e2b-49a7-4c83-a4ce-8c1424533664"},"vehicle_type_id":"4","last_reported":1730726348,"current_range_meters":8400,"station_id":"ce4bhg12rcd13ifvqf60","pricing_plan_id":"cebpf4jnsgd1na2vs0mg"},{"bike_id":"19dac7c4-c8ff-4259-b5ff-1862090d1c5a","system_id":"levelo_inurba_marseille","lat":43.25575,"lon":5.38232,"is_reserved":false,"is_disabled":false,"rental_uris":{"android":"levelo://app?vid=19dac7c4-c8ff-4259-b5ff-1862090d1c5a","ios":"levelo://app?vid=19dac7c4-c8ff-4259-b5ff-1862090d1c5a"},"vehicle_type_id":"4","last_reported":1730726348,"current_range_meters":38000,"station_id":"ce4bhih2rcd13ifvqfs0","pricing_plan_id":"cebpf4jnsgd1na2vs0mg"},{"bike_id":"1cd85e6a-540e-4343-83a3-ca6c4b27d331","system_id":"levelo_inurba_marseille","lat":43.24074,"lon":5.37761,"is_reserved":false,"is_disabled":false,"rental_uris":{"android":"levelo://app?vid=1cd85e6a-540e-4343-83a3-ca6c4b27d331","ios":"levelo://app?vid=1cd85e6a-540e-4343-83a3-ca6c4b27d331"},"vehicle_type_id":"4","last_reported":1730726348,"current_range_meters":34000,"station_id":"ce4bhnp2rcd13ifvqgvg","pricing_plan_id":"cebpf4jnsgd1na2vs0mg"},{"bike_id":"61dbaa79-fb29-4ce6-ad78-01486dfbbfff","system_id":"levelo_inurba_marseille","lat":43.239682,"lon":5.366263,"is_reserved":false,"is_disabled":false,"rental_uris":{"android":"levelo://app?vid=61dbaa79-fb29-4ce6-ad78-01486dfbbfff","ios":"levelo://app?vid=61dbaa79-fb29-4ce6-ad78-01486dfbbfff"},"vehicle_type_id":"4","last_reported":1730726348,"current_range_meters":38800,"station_id":"ce4bhi12rcd13ifvqfp0","pricing_plan_id":"cebpf4jnsgd1na2vs0mg"},{"bike_id":"02403e47-9327-4e49-8dc2-c5b82c02fcc5","system_id":"levelo_inurba_marseille","lat":43.30462,"lon":5.37914,"is_reserved":false,"is_disabled":false,"rental_uris":{"android":"levelo://app?vid=02403e47-9327-4e49-8dc2-c5b82c02fcc5","ios":"levelo://app?vid=02403e47-9327-4e49-8dc2-c5b82c02fcc5"},"vehicle_type_id":"4","last_reported":1730726348,"current_range_meters":36400,"station_id":"ce4bgup2rcd13ifvqcn0","pricing_plan_id":"cebpf4jnsgd1na2vs0mg"},{"bike_id":"3bd62d41-958b-4c0c-872c-6a72b57371ab","system_id":"levelo_inurba_marseille","lat":43.24069,"lon":5.37764,"is_reserved":false,"is_disabled":false,"rental_uris":{"android":"levelo://app?vid=3bd62d41-958b-4c0c-872c-6a72b57371ab","ios":"levelo://app?vid=3bd62d41-958b-4c0c-872c-6a72b57371ab"},"vehicle_type_id":"4","last_reported":1730726348,"current_range_meters":25200,"station_id":"ce4bhnp2rcd13ifvqgvg","pricing_plan_id":"cebpf4jnsgd1na2vs0mg"},{"bike_id":"7b70277a-675c-45b4-b11e-18a1eedd3d94","system_id":"levelo_inurba_marseille","lat":43.26483,"lon":5.39553,"is_reserved":false,"is_disabled":false,"rental_uris":{"android":"levelo://app?vid=7b70277a-675c-45b4-b11e-18a1eedd3d94","ios":"levelo://app?vid=7b70277a-675c-45b4-b11e-18a1eedd3d94"},"vehicle_type_id":"4","last_reported":1730726348,"current_range_meters":38400,"station_id":"ce4bhi12rcd13ifvqfq0","pricing_plan_id":"cebpf4jnsgd1na2vs0mg"},{"bike_id":"5f182c0f-58e8-4d44-8169-760b9016320b","system_id":"levelo_inurba_marseille","lat":43.28153,"lon":5.42643,"is_reserved":false,"is_disabled":false,"rental_uris":{"android":"levelo://app?vid=5f182c0f-58e8-4d44-8169-760b9016320b","ios":"levelo://app?vid=5f182c0f-58e8-4d44-8169-760b9016320b"},"vehicle_type_id":"4","last_reported":1730726348,"current_range_meters":29600,"station_id":"ce4bhnh2rcd13ifvqgug","pricing_plan_id":"cebpf4jnsgd1na2vs0mg"},{"bike_id":"729ed762-2084-40cb-ba5b-e8d2d89903cd","system_id":"levelo_inurba_marseille","lat":43.25926,"lon":5.40919,"is_reserved":false,"is_disabled":false,"rental_uris":{"android":"levelo://app?vid=729ed762-2084-40cb-ba5b-e8d2d89903cd","ios":"levelo://app?vid=729ed762-2084-40cb-ba5b-e8d2d89903cd"},"vehicle_type_id":"4","last_reported":1730726348,"current_range_meters":17200,"station_id":"ce4bhm92rcd13ifvqglg","pricing_plan_id":"cebpf4jnsgd1na2vs0mg"},{"bike_id":"55fb35ee-6b0f-484a-84f7-869335264178","system_id":"levelo_inurba_marseille","lat":43.29004,"lon":5.3561,"is_reserved":false,"is_disabled":false,"rental_uris":{"android":"levelo://app?vid=55fb35ee-6b0f-484a-84f7-869335264178","ios":"levelo://app?vid=55fb35ee-6b0f-484a-84f7-869335264178"},"vehicle_type_id":"4","last_reported":1730726348,"current_range_meters":36400,"station_id":"ce4bhb92rcd13ifvqen0","pricing_plan_id":"cebpf4jnsgd1na2vs0mg"},{"bike_id":"03deba6d-f3cf-4bc9-9bb4-5dddd2d34c9e","system_id":"levelo_inurba_marseille","lat":43.29779,"lon":5.37108,"is_reserved":false,"is_disabled":false,"rental_uris":{"android":"levelo://app?vid=03deba6d-f3cf-4bc9-9bb4-5dddd2d34c9e","ios":"levelo://app?vid=03deba6d-f3cf-4bc9-9bb4-5dddd2d34c9e"},"vehicle_type_id":"4","last_reported":1730726348,"current_range_meters":38800,"station_id":"ce4bgop2rcd13ifvqc1g","pricing_plan_id":"cebpf4jnsgd1na2vs0mg"},{"bike_id":"4e368622-7023-49a2-9a57-e9d62de5198a","system_id":"levelo_inurba_marseille","lat":43.29187,"lon":5.35803,"is_reserved":false,"is_disabled":false,"rental_uris":{"android":"levelo://app?vid=4e368622-7023-49a2-9a57-e9d62de5198a","ios":"levelo://app?vid=4e368622-7023-49a2-9a57-e9d62de5198a"},"vehicle_type_id":"4","last_reported":1730726348,"current_range_meters":37600,"station_id":"ce4bhb12rcd13ifvqel0","pricing_plan_id":"cebpf4jnsgd1na2vs0mg"},{"bike_id":"c5f8c5e3-de80-41eb-8a1b-32becacf2d96","system_id":"levelo_inurba_marseille","lat":43.30551,"lon":5.36535,"is_reserved":false,"is_disabled":false,"rental_uris":{"android":"levelo://app?vid=c5f8c5e3-de80-41eb-8a1b-32becacf2d96","ios":"levelo://app?vid=c5f8c5e3-de80-41eb-8a1b-32becacf2d96"},"vehicle_type_id":"4","last_reported":1730726348,"current_range_meters":26000,"station_id":"ce4bgs12rcd13ifvqcag","pricing_plan_id":"cebpf4jnsgd1na2vs0mg"},{"bike_id":"b0bfcf34-cfb5-4cf2-baa8-a2e99ed5e769","system_id":"levelo_inurba_marseille","lat":43.30544,"lon":5.36539,"is_reserved":false,"is_disabled":false,"rental_uris":{"android":"levelo://app?vid=b0bfcf34-cfb5-4cf2-baa8-a2e99ed5e769","ios":"levelo://app?vid=b0bfcf34-cfb5-4cf2-baa8-a2e99ed5e769"},"vehicle_type_id":"4","last_reported":1730726348,"current_range_meters":28400,"station_id":"ce4bgs12rcd13ifvqcag","pricing_plan_id":"cebpf4jnsgd1na2vs0mg"},{"bike_id":"0e8bfa5a-d8d9-421a-9ae1-bda4da6367ec","system_id":"levelo_inurba_marseille","lat":43.2844,"lon":5.39187,"is_reserved":false,"is_disabled":false,"rental_uris":{"android":"levelo://app?vid=0e8bfa5a-d8d9-421a-9ae1-bda4da6367ec","ios":"levelo://app?vid=0e8bfa5a-d8d9-421a-9ae1-bda4da6367ec"},"vehicle_type_id":"4","last_reported":1730726348,"current_range_meters":36800,"station_id":"ce4bhoh2rcd13ifvqh5g","pricing_plan_id":"cebpf4jnsgd1na2vs0mg"},{"bike_id":"8dacdb03-4cd0-474a-aa66-aaf18857d775","system_id":"levelo_inurba_marseille","lat":43.30599,"lon":5.37198,"is_reserved":false,"is_disabled":false,"rental_uris":{"android":"levelo://app?vid=8dacdb03-4cd0-474a-aa66-aaf18857d775","ios":"levelo://app?vid=8dacdb03-4cd0-474a-aa66-aaf18857d775"},"vehicle_type_id":"4","last_reported":1730726348,"current_range_meters":38400,"station_id":"ce4bgqh2rcd13ifvqc4g","pricing_plan_id":"cebpf4jnsgd1na2vs0mg"},{"bike_id":"6eb77e50-bdb4-4349-bcc8-ce6f43b78dcb","system_id":"levelo_inurba_marseille","lat":43.28154,"lon":5.42639,"is_reserved":false,"is_disabled":false,"rental_uris":{"android":"levelo://app?vid=6eb77e50-bdb4-4349-bcc8-ce6f43b78dcb","ios":"levelo://app?vid=6eb77e50-bdb4-4349-bcc8-ce6f43b78dcb"},"vehicle_type_id":"4","last_reported":1730726348,"current_range_meters":12000,"station_id":"ce4bhnh2rcd13ifvqgug","pricing_plan_id":"cebpf4jnsgd1na2vs0mg"},{"bike_id":"71a43f5e-2279-41cc-a44a-d92ed6068338","system_id":"levelo_inurba_marseille","lat":43.26953,"lon":5.38637,"is_reserved":false,"is_disabled":false,"rental_uris":{"android":"levelo://app?vid=71a43f5e-2279-41cc-a44a-d92ed6068338","ios":"levelo://app?vid=71a43f5e-2279-41cc-a44a-d92ed6068338"},"vehicle_type_id":"4","last_reported":1730726348,"current_range_meters":18800,"station_id":"ce4bhh92rcd13ifvqfh0","pricing_plan_id":"cebpf4jnsgd1na2vs0mg"},{"bike_id":"b32b7556-10cc-4d3a-8c12-df987a6243de","system_id":"levelo_inurba_marseille","lat":43.28422,"lon":5.34995,"is_reserved":false,"is_disabled":false,"rental_uris":{"android":"levelo://app?vid=b32b7556-10cc-4d3a-8c12-df987a6243de","ios":"levelo://app?vid=b32b7556-10cc-4d3a-8c12-df987a6243de"},"vehicle_type_id":"4","last_reported":1730726348,"current_range_meters":38800,"station_id":"ce4bhbh2rcd13ifvqepg","pricing_plan_id":"cebpf4jnsgd1na2vs0mg"},{"bike_id":"bfb4e9f1-502b-4eee-ad84-0c905afe5629","system_id":"levelo_inurba_marseille","lat":43.32481,"lon":5.36568,"is_reserved":false,"is_disabled":false,"rental_uris":{"android":"levelo://app?vid=bfb4e9f1-502b-4eee-ad84-0c905afe5629","ios":"levelo://app?vid=bfb4e9f1-502b-4eee-ad84-0c905afe5629"},"vehicle_type_id":"4","last_reported":1730726348,"current_range_meters":28800,"station_id":"ce4bhs12rcd13ifvqhvg","pricing_plan_id":"cebpf4jnsgd1na2vs0mg"},{"bike_id":"512ddf6d-33d9-4932-9b37-b059ab20f67d","system_id":"levelo_inurba_marseille","lat":43.31343,"lon":5.36701,"is_reserved":false,"is_disabled":false,"rental_uris":{"android":"levelo://app?vid=512ddf6d-33d9-4932-9b37-b059ab20f67d","ios":"levelo://app?vid=512ddf6d-33d9-4932-9b37-b059ab20f67d"},"vehicle_type_id":"4","last_reported":1730726348,"current_range_meters":31200,"station_id":"ce4bgr92rcd13ifvqc6g","pricing_plan_id":"cebpf4jnsgd1na2vs0mg"},{"bike_id":"c76928b7-a288-4cbb-b90a-27eee430ff43","system_id":"levelo_inurba_marseille","lat":43.30146,"lon":5.37408,"is_reserved":false,"is_disabled":false,"rental_uris":{"android":"levelo://app?vid=c76928b7-a288-4cbb-b90a-27eee430ff43","ios":"levelo://app?vid=c76928b7-a288-4cbb-b90a-27eee430ff43"},"vehicle_type_id":"4","last_reported":1730726348,"current_range_meters":5600,"station_id":"ce4bgs92rcd13ifvqcc0","pricing_plan_id":"cebpf4jnsgd1na2vs0mg"},{"bike_id":"cab3c935-529d-4398-91af-69bd532c8f8c","system_id":"levelo_inurba_marseille","lat":43.27069,"lon":5.42286,"is_reserved":false,"is_disabled":false,"rental_uris":{"android":"levelo://app?vid=cab3c935-529d-4398-91af-69bd532c8f8c","ios":"levelo://app?vid=cab3c935-529d-4398-91af-69bd532c8f8c"},"vehicle_type_id":"4","last_reported":1730726348,"current_range_meters":20400,"station_id":"ce4bhk92rcd13ifvqgb0","pricing_plan_id":"cebpf4jnsgd1na2vs0mg"},{"bike_id":"e376af00-43e0-486a-b96b-7261e4be8220","system_id":"levelo_inurba_marseille","lat":43.2668,"lon":5.38268,"is_reserved":false,"is_disabled":false,"rental_uris":{"android":"levelo://app?vid=e376af00-43e0-486a-b96b-7261e4be8220","ios":"levelo://app?vid=e376af00-43e0-486a-b96b-7261e4be8220"},"vehicle_type_id":"4","last_reported":1730726348,"current_range_meters":38800,"station_id":"ce4bhg92rcd13ifvqf90","pricing_plan_id":"cebpf4jnsgd1na2vs0mg"},{"bike_id":"6af9b4ef-84ae-4501-a87e-181c281be810","system_id":"levelo_inurba_marseille","lat":43.28342,"lon":5.38101,"is_reserved":false,"is_disabled":false,"rental_uris":{"android":"levelo://app?vid=6af9b4ef-84ae-4501-a87e-181c281be810","ios":"levelo://app?vid=6af9b4ef-84ae-4501-a87e-181c281be810"},"vehicle_type_id":"4","last_reported":1730726348,"current_range_meters":38800,"station_id":"ce4bh412rcd13ifvqdr0","pricing_plan_id":"cebpf4jnsgd1na2vs0mg"},{"bike_id":"ae5990b2-3c44-441b-bae9-7dc1928ee8b2","system_id":"levelo_inurba_marseille","lat":43.292,"lon":5.35799,"is_reserved":false,"is_disabled":false,"rental_uris":{"android":"levelo://app?vid=ae5990b2-3c44-441b-bae9-7dc1928ee8b2","ios":"levelo://app?vid=ae5990b2-3c44-441b-bae9-7dc1928ee8b2"},"vehicle_type_id":"4","last_reported":1730726348,"current_range_meters":22400,"station_id":"ce4bhb12rcd13ifvqel0","pricing_plan_id":"cebpf4jnsgd1na2vs0mg"},{"bike_id":"e7e316a9-0024-411a-b0df-2dc9d691ea3f","system_id":"levelo_inurba_marseille","lat":43.28616,"lon":5.35099,"is_reserved":false,"is_disabled":false,"rental_uris":{"android":"levelo://app?vid=e7e316a9-0024-411a-b0df-2dc9d691ea3f","ios":"levelo://app?vid=e7e316a9-0024-411a-b0df-2dc9d691ea3f"},"vehicle_type_id":"4","last_reported":1730726348,"current_range_meters":22000,"station_id":"ce4bhch2rcd13ifvqeug","pricing_plan_id":"cebpf4jnsgd1na2vs0mg"},{"bike_id":"426650bd-2c26-48a3-904a-6bad66a95624","system_id":"levelo_inurba_marseille","lat":43.29789,"lon":5.38111,"is_reserved":false,"is_disabled":false,"rental_uris":{"android":"levelo://app?vid=426650bd-2c26-48a3-904a-6bad66a95624","ios":"levelo://app?vid=426650bd-2c26-48a3-904a-6bad66a95624"},"vehicle_type_id":"4","last_reported":1730726348,"current_range_meters":19600,"station_id":"ce4bgip2rcd13ifvqbb0","pricing_plan_id":"cebpf4jnsgd1na2vs0mg"},{"bike_id":"589bd2b8-9799-4d5d-a4f3-b0f27fef0139","system_id":"levelo_inurba_marseille","lat":43.30887,"lon":5.39666,"is_reserved":false,"is_disabled":false,"rental_uris":{"android":"levelo://app?vid=589bd2b8-9799-4d5d-a4f3-b0f27fef0139","ios":"levelo://app?vid=589bd2b8-9799-4d5d-a4f3-b0f27fef0139"},"vehicle_type_id":"4","last_reported":1730726348,"current_range_meters":22000,"station_id":"ce4bh012rcd13ifvqcv0","pricing_plan_id":"cebpf4jnsgd1na2vs0mg"},{"bike_id":"68e6e4ba-53d1-4494-b1e0-e4bd8e29fea2","system_id":"levelo_inurba_marseille","lat":43.23153,"lon":5.4371,"is_reserved":false,"is_disabled":false,"rental_uris":{"android":"levelo://app?vid=68e6e4ba-53d1-4494-b1e0-e4bd8e29fea2","ios":"levelo://app?vid=68e6e4ba-53d1-4494-b1e0-e4bd8e29fea2"},"vehicle_type_id":"4","last_reported":1730726348,"current_range_meters":36800,"station_id":"ce4bhmp2rcd13ifvqgog","pricing_plan_id":"cebpf4jnsgd1na2vs0mg"},{"bike_id":"7ce77be2-28e6-467f-9494-16f057502bba","system_id":"levelo_inurba_marseille","lat":43.28148,"lon":5.42641,"is_reserved":false,"is_disabled":false,"rental_uris":{"android":"levelo://app?vid=7ce77be2-28e6-467f-9494-16f057502bba","ios":"levelo://app?vid=7ce77be2-28e6-467f-9494-16f057502bba"},"vehicle_type_id":"4","last_reported":1730726348,"current_range_meters":28400,"station_id":"ce4bhnh2rcd13ifvqgug","pricing_plan_id":"cebpf4jnsgd1na2vs0mg"},{"bike_id":"099239c1-6b46-45a8-a432-792ca10bd4b6","system_id":"levelo_inurba_marseille","lat":43.30457,"lon":5.37914,"is_reserved":false,"is_disabled":false,"rental_uris":{"android":"levelo://app?vid=099239c1-6b46-45a8-a432-792ca10bd4b6","ios":"levelo://app?vid=099239c1-6b46-45a8-a432-792ca10bd4b6"},"vehicle_type_id":"4","last_reported":1730726348,"current_range_meters":38800,"station_id":"ce4bgup2rcd13ifvqcn0","pricing_plan_id":"cebpf4jnsgd1na2vs0mg"},{"bike_id":"9299e630-899a-4526-ac0d-87e5ec9130b1","system_id":"levelo_inurba_marseille","lat":43.30134,"lon":5.38782,"is_reserved":false,"is_disabled":false,"rental_uris":{"android":"levelo://app?vid=9299e630-899a-4526-ac0d-87e5ec9130b1","ios":"levelo://app?vid=9299e630-899a-4526-ac0d-87e5ec9130b1"},"vehicle_type_id":"4","last_reported":1730726348,"current_range_meters":30000,"station_id":"ce4bghh2rcd13ifvqb60","pricing_plan_id":"cebpf4jnsgd1na2vs0mg"},{"bike_id":"496d1592-f444-4219-9dc2-55373938e639","system_id":"levelo_inurba_marseille","lat":43.28149,"lon":5.4264,"is_reserved":false,"is_disabled":false,"rental_uris":{"android":"levelo://app?vid=496d1592-f444-4219-9dc2-55373938e639","ios":"levelo://app?vid=496d1592-f444-4219-9dc2-55373938e639"},"vehicle_type_id":"4","last_reported":1730726348,"current_range_meters":35200,"station_id":"ce4bhnh2rcd13ifvqgug","pricing_plan_id":"cebpf4jnsgd1na2vs0mg"},{"bike_id":"14232ff8-21e4-4bc1-a726-757f951f7500","system_id":"levelo_inurba_marseille","lat":43.25498,"lon":5.37649,"is_reserved":false,"is_disabled":false,"rental_uris":{"android":"levelo://app?vid=14232ff8-21e4-4bc1-a726-757f951f7500","ios":"levelo://app?vid=14232ff8-21e4-4bc1-a726-757f951f7500"},"vehicle_type_id":"4","last_reported":1730726348,"current_range_meters":27600,"station_id":"ce4bhh12rcd13ifvqff0","pricing_plan_id":"cebpf4jnsgd1na2vs0mg"},{"bike_id":"9dc3374b-0b85-4a8b-88a8-db8ad8f687c8","system_id":"levelo_inurba_marseille","lat":43.24081,"lon":5.37748,"is_reserved":false,"is_disabled":false,"rental_uris":{"android":"levelo://app?vid=9dc3374b-0b85-4a8b-88a8-db8ad8f687c8","ios":"levelo://app?vid=9dc3374b-0b85-4a8b-88a8-db8ad8f687c8"},"vehicle_type_id":"4","last_reported":1730726348,"current_range_meters":11200,"station_id":"ce4bhnp2rcd13ifvqgvg","pricing_plan_id":"cebpf4jnsgd1na2vs0mg"},{"bike_id":"ba818494-363b-4a0b-bb06-5cc932ea759f","system_id":"levelo_inurba_marseille","lat":43.231802,"lon":5.399892,"is_reserved":false,"is_disabled":false,"rental_uris":{"android":"levelo://app?vid=ba818494-363b-4a0b-bb06-5cc932ea759f","ios":"levelo://app?vid=ba818494-363b-4a0b-bb06-5cc932ea759f"},"vehicle_type_id":"4","last_reported":1730726348,"current_range_meters":35200,"station_id":"ce4bhnp2rcd13ifvqgvg","pricing_plan_id":"cebpf4jnsgd1na2vs0mg"},{"bike_id":"5961e208-1b42-489a-8589-36d3dfc08d94","system_id":"levelo_inurba_marseille","lat":43.29971,"lon":5.38489,"is_reserved":false,"is_disabled":false,"rental_uris":{"android":"levelo://app?vid=5961e208-1b42-489a-8589-36d3dfc08d94","ios":"levelo://app?vid=5961e208-1b42-489a-8589-36d3dfc08d94"},"vehicle_type_id":"4","last_reported":1730726348,"current_range_meters":11600,"station_id":"ce4bhhh2rcd13ifvqfk0","pricing_plan_id":"cebpf4jnsgd1na2vs0mg"},{"bike_id":"57f7d510-d3b8-4ac1-8400-7af55059ac9b","system_id":"levelo_inurba_marseille","lat":43.24079,"lon":5.37752,"is_reserved":false,"is_disabled":false,"rental_uris":{"android":"levelo://app?vid=57f7d510-d3b8-4ac1-8400-7af55059ac9b","ios":"levelo://app?vid=57f7d510-d3b8-4ac1-8400-7af55059ac9b"},"vehicle_type_id":"4","last_reported":1730726348,"current_range_meters":32000,"station_id":"ce4bhnp2rcd13ifvqgvg","pricing_plan_id":"cebpf4jnsgd1na2vs0mg"},{"bike_id":"388ffd86-8447-4559-b59f-b9ae5fcf5ef9","system_id":"levelo_inurba_marseille","lat":43.28028,"lon":5.36945,"is_reserved":false,"is_disabled":false,"rental_uris":{"android":"levelo://app?vid=388ffd86-8447-4559-b59f-b9ae5fcf5ef9","ios":"levelo://app?vid=388ffd86-8447-4559-b59f-b9ae5fcf5ef9"},"vehicle_type_id":"4","last_reported":1730726348,"current_range_meters":22400,"station_id":"ce4bha12rcd13ifvqef0","pricing_plan_id":"cebpf4jnsgd1na2vs0mg"},{"bike_id":"3b6487dc-193d-41b6-8dd9-bd25e7833d1f","system_id":"levelo_inurba_marseille","lat":43.287323,"lon":5.360969,"is_reserved":false,"is_disabled":false,"rental_uris":{"android":"levelo://app?vid=3b6487dc-193d-41b6-8dd9-bd25e7833d1f","ios":"levelo://app?vid=3b6487dc-193d-41b6-8dd9-bd25e7833d1f"},"vehicle_type_id":"4","last_reported":1730726348,"current_range_meters":17200,"station_id":"cki0cbj6b192h4jlfktg","pricing_plan_id":"cebpf4jnsgd1na2vs0mg"},{"bike_id":"660c87cf-708e-4dbe-be46-090aab6c79d5","system_id":"levelo_inurba_marseille","lat":43.29793,"lon":5.38104,"is_reserved":false,"is_disabled":false,"rental_uris":{"android":"levelo://app?vid=660c87cf-708e-4dbe-be46-090aab6c79d5","ios":"levelo://app?vid=660c87cf-708e-4dbe-be46-090aab6c79d5"},"vehicle_type_id":"4","last_reported":1730726348,"current_range_meters":16400,"station_id":"ce4bgip2rcd13ifvqbb0","pricing_plan_id":"cebpf4jnsgd1na2vs0mg"},{"bike_id":"778e839f-a43f-40d4-be5c-9f8db47e5925","system_id":"levelo_inurba_marseille","lat":43.27566,"lon":5.38416,"is_reserved":false,"is_disabled":false,"rental_uris":{"android":"levelo://app?vid=778e839f-a43f-40d4-be5c-9f8db47e5925","ios":"levelo://app?vid=778e839f-a43f-40d4-be5c-9f8db47e5925"},"vehicle_type_id":"4","last_reported":1730726348,"current_range_meters":19200,"station_id":"ce4bhh92rcd13ifvqfi0","pricing_plan_id":"cebpf4jnsgd1na2vs0mg"},{"bike_id":"f4520195-bb64-41aa-a417-a30b55020a47","system_id":"levelo_inurba_marseille","lat":43.2926,"lon":5.36855,"is_reserved":false,"is_disabled":false,"rental_uris":{"android":"levelo://app?vid=f4520195-bb64-41aa-a417-a30b55020a47","ios":"levelo://app?vid=f4520195-bb64-41aa-a417-a30b55020a47"},"vehicle_type_id":"4","last_reported":1730726348,"current_range_meters":24000,"station_id":"ce4bhbp2rcd13ifvqesg","pricing_plan_id":"cebpf4jnsgd1na2vs0mg"},{"bike_id":"f335246e-3bff-4003-8d5f-f30408bb5a38","system_id":"levelo_inurba_marseille","lat":43.27069,"lon":5.42277,"is_reserved":false,"is_disabled":false,"rental_uris":{"android":"levelo://app?vid=f335246e-3bff-4003-8d5f-f30408bb5a38","ios":"levelo://app?vid=f335246e-3bff-4003-8d5f-f30408bb5a38"},"vehicle_type_id":"4","last_reported":1730726348,"current_range_meters":32800,"station_id":"ce4bhk92rcd13ifvqgb0","pricing_plan_id":"cebpf4jnsgd1na2vs0mg"},{"bike_id":"7d88b5d2-ee63-47a1-9ed6-4aaaebc4c09f","system_id":"levelo_inurba_marseille","lat":43.29611,"lon":5.381,"is_reserved":false,"is_disabled":false,"rental_uris":{"android":"levelo://app?vid=7d88b5d2-ee63-47a1-9ed6-4aaaebc4c09f","ios":"levelo://app?vid=7d88b5d2-ee63-47a1-9ed6-4aaaebc4c09f"},"vehicle_type_id":"4","last_reported":1730726348,"current_range_meters":38800,"station_id":"ce4bgl12rcd13ifvqbo0","pricing_plan_id":"cebpf4jnsgd1na2vs0mg"},{"bike_id":"249b0e46-4560-4d60-824d-97edd986d586","system_id":"levelo_inurba_marseille","lat":43.28478,"lon":5.38566,"is_reserved":false,"is_disabled":false,"rental_uris":{"android":"levelo://app?vid=249b0e46-4560-4d60-824d-97edd986d586","ios":"levelo://app?vid=249b0e46-4560-4d60-824d-97edd986d586"},"vehicle_type_id":"4","last_reported":1730726348,"current_range_meters":30000,"station_id":"ce4bh8p2rcd13ifvqeb0","pricing_plan_id":"cebpf4jnsgd1na2vs0mg"},{"bike_id":"3a38eb60-07fa-498b-8680-f7a2deecf1cc","system_id":"levelo_inurba_marseille","lat":43.27173,"lon":5.40987,"is_reserved":false,"is_disabled":false,"rental_uris":{"android":"levelo://app?vid=3a38eb60-07fa-498b-8680-f7a2deecf1cc","ios":"levelo://app?vid=3a38eb60-07fa-498b-8680-f7a2deecf1cc"},"vehicle_type_id":"4","last_reported":1730726348,"current_range_meters":28000,"station_id":"ce4bhl12rcd13ifvqgf0","pricing_plan_id":"cebpf4jnsgd1na2vs0mg"},{"bike_id":"d4472d20-9c4b-4c70-ad00-3a005519a429","system_id":"levelo_inurba_marseille","lat":43.35368,"lon":5.35732,"is_reserved":false,"is_disabled":false,"rental_uris":{"android":"levelo://app?vid=d4472d20-9c4b-4c70-ad00-3a005519a429","ios":"levelo://app?vid=d4472d20-9c4b-4c70-ad00-3a005519a429"},"vehicle_type_id":"4","last_reported":1730726348,"current_range_meters":9200,"station_id":"","pricing_plan_id":"cebpf4jnsgd1na2vs0mg"},{"bike_id":"909e0e2b-7677-457b-9751-755482e162e9","system_id":"levelo_inurba_marseille","lat":43.2962,"lon":5.37153,"is_reserved":false,"is_disabled":false,"rental_uris":{"android":"levelo://app?vid=909e0e2b-7677-457b-9751-755482e162e9","ios":"levelo://app?vid=909e0e2b-7677-457b-9751-755482e162e9"},"vehicle_type_id":"4","last_reported":1730726348,"current_range_meters":28800,"station_id":"ce4bgnh2rcd13ifvqc0g","pricing_plan_id":"cebpf4jnsgd1na2vs0mg"},{"bike_id":"ffe2ff47-10db-42c6-9e48-93c6f03ce582","system_id":"levelo_inurba_marseille","lat":43.29527,"lon":5.38545,"is_reserved":false,"is_disabled":false,"rental_uris":{"android":"levelo://app?vid=ffe2ff47-10db-42c6-9e48-93c6f03ce582","ios":"levelo://app?vid=ffe2ff47-10db-42c6-9e48-93c6f03ce582"},"vehicle_type_id":"4","last_reported":1730726348,"current_range_meters":14400,"station_id":"ce4bgih2rcd13ifvqba0","pricing_plan_id":"cebpf4jnsgd1na2vs0mg"},{"bike_id":"950661e8-0595-470a-9ddd-41f041c4f5e5","system_id":"levelo_inurba_marseille","lat":43.32287,"lon":5.38264,"is_reserved":false,"is_disabled":false,"rental_uris":{"android":"levelo://app?vid=950661e8-0595-470a-9ddd-41f041c4f5e5","ios":"levelo://app?vid=950661e8-0595-470a-9ddd-41f041c4f5e5"},"vehicle_type_id":"4","last_reported":1730726348,"current_range_meters":18000,"station_id":"ce4bhr12rcd13ifvqhqg","pricing_plan_id":"cebpf4jnsgd1na2vs0mg"},{"bike_id":"cd774888-43f1-48a5-aa4b-07f054c97ab4","system_id":"levelo_inurba_marseille","lat":43.29914,"lon":5.37467,"is_reserved":false,"is_disabled":false,"rental_uris":{"android":"levelo://app?vid=cd774888-43f1-48a5-aa4b-07f054c97ab4","ios":"levelo://app?vid=cd774888-43f1-48a5-aa4b-07f054c97ab4"},"vehicle_type_id":"4","last_reported":1730726348,"current_range_meters":38800,"station_id":"ce4bgjh2rcd13ifvqbg0","pricing_plan_id":"cebpf4jnsgd1na2vs0mg"},{"bike_id":"1f7dcee0-6c3e-4c04-b1c7-eca931fb163d","system_id":"levelo_inurba_marseille","lat":43.23147,"lon":5.43719,"is_reserved":false,"is_disabled":false,"rental_uris":{"android":"levelo://app?vid=1f7dcee0-6c3e-4c04-b1c7-eca931fb163d","ios":"levelo://app?vid=1f7dcee0-6c3e-4c04-b1c7-eca931fb163d"},"vehicle_type_id":"4","last_reported":1730726348,"current_range_meters":7200,"station_id":"ce4bhmp2rcd13ifvqgog","pricing_plan_id":"cebpf4jnsgd1na2vs0mg"},{"bike_id":"721105a1-3a1f-4fa4-9b6c-177d76caecf1","system_id":"levelo_inurba_marseille","lat":43.297079,"lon":5.366118,"is_reserved":false,"is_disabled":false,"rental_uris":{"android":"levelo://app?vid=721105a1-3a1f-4fa4-9b6c-177d76caecf1","ios":"levelo://app?vid=721105a1-3a1f-4fa4-9b6c-177d76caecf1"},"vehicle_type_id":"4","last_reported":1730726348,"current_range_meters":38800,"station_id":"ce4bgn12rcd13ifvqbt0","pricing_plan_id":"cebpf4jnsgd1na2vs0mg"},{"bike_id":"ee42b244-f3b4-458b-9928-b95d1604961c","system_id":"levelo_inurba_marseille","lat":43.28928,"lon":5.36379,"is_reserved":false,"is_disabled":false,"rental_uris":{"android":"levelo://app?vid=ee42b244-f3b4-458b-9928-b95d1604961c","ios":"levelo://app?vid=ee42b244-f3b4-458b-9928-b95d1604961c"},"vehicle_type_id":"4","last_reported":1730726348,"current_range_meters":27600,"station_id":"ce4bhc92rcd13ifvqetg","pricing_plan_id":"cebpf4jnsgd1na2vs0mg"},{"bike_id":"255a3061-1362-41f1-8c13-ee9fca9da59e","system_id":"levelo_inurba_marseille","lat":43.23055,"lon":5.35502,"is_reserved":false,"is_disabled":false,"rental_uris":{"android":"levelo://app?vid=255a3061-1362-41f1-8c13-ee9fca9da59e","ios":"levelo://app?vid=255a3061-1362-41f1-8c13-ee9fca9da59e"},"vehicle_type_id":"4","last_reported":1730726348,"current_range_meters":26000,"station_id":"cpo3342slgdg3j2ifvpg","pricing_plan_id":"cebpf4jnsgd1na2vs0mg"},{"bike_id":"d34b56cd-97d4-42d1-8eae-e0f42cf8266f","system_id":"levelo_inurba_marseille","lat":43.30461,"lon":5.379,"is_reserved":false,"is_disabled":false,"rental_uris":{"android":"levelo://app?vid=d34b56cd-97d4-42d1-8eae-e0f42cf8266f","ios":"levelo://app?vid=d34b56cd-97d4-42d1-8eae-e0f42cf8266f"},"vehicle_type_id":"4","last_reported":1730726348,"current_range_meters":30000,"station_id":"ce4bgup2rcd13ifvqcn0","pricing_plan_id":"cebpf4jnsgd1na2vs0mg"},{"bike_id":"8692c708-6749-4cff-a161-ad26fb2f62aa","system_id":"levelo_inurba_marseille","lat":43.30603,"lon":5.37234,"is_reserved":false,"is_disabled":false,"rental_uris":{"android":"levelo://app?vid=8692c708-6749-4cff-a161-ad26fb2f62aa","ios":"levelo://app?vid=8692c708-6749-4cff-a161-ad26fb2f62aa"},"vehicle_type_id":"4","last_reported":1730726348,"current_range_meters":38800,"station_id":"ce4bgqh2rcd13ifvqc4g","pricing_plan_id":"cebpf4jnsgd1na2vs0mg"},{"bike_id":"b14cb5d2-a3a0-4560-ac96-25061beacbf8","system_id":"levelo_inurba_marseille","lat":43.26032,"lon":5.37545,"is_reserved":false,"is_disabled":false,"rental_uris":{"android":"levelo://app?vid=b14cb5d2-a3a0-4560-ac96-25061beacbf8","ios":"levelo://app?vid=b14cb5d2-a3a0-4560-ac96-25061beacbf8"},"vehicle_type_id":"4","last_reported":1730726348,"current_range_meters":20800,"station_id":"ce4bhgh2rcd13ifvqfa0","pricing_plan_id":"cebpf4jnsgd1na2vs0mg"},{"bike_id":"2124c56b-1fd7-4a13-9a53-8080bda8ff85","system_id":"levelo_inurba_marseille","lat":43.26939,"lon":5.40255,"is_reserved":false,"is_disabled":false,"rental_uris":{"android":"levelo://app?vid=2124c56b-1fd7-4a13-9a53-8080bda8ff85","ios":"levelo://app?vid=2124c56b-1fd7-4a13-9a53-8080bda8ff85"},"vehicle_type_id":"4","last_reported":1730726348,"current_range_meters":26800,"station_id":"cjm6bp8fraef2m0cb0m0","pricing_plan_id":"cebpf4jnsgd1na2vs0mg"},{"bike_id":"c64630a8-6589-454d-bcb2-6cb4c7aa7e40","system_id":"levelo_inurba_marseille","lat":43.30522,"lon":5.36706,"is_reserved":false,"is_disabled":false,"rental_uris":{"android":"levelo://app?vid=c64630a8-6589-454d-bcb2-6cb4c7aa7e40","ios":"levelo://app?vid=c64630a8-6589-454d-bcb2-6cb4c7aa7e40"},"vehicle_type_id":"4","last_reported":1730726348,"current_range_meters":24800,"station_id":"ce4bgrp2rcd13ifvqc9g","pricing_plan_id":"cebpf4jnsgd1na2vs0mg"},{"bike_id":"10450a3d-3115-4b2e-a887-ddb45e478d7a","system_id":"levelo_inurba_marseille","lat":43.28106,"lon":5.37832,"is_reserved":false,"is_disabled":false,"rental_uris":{"android":"levelo://app?vid=10450a3d-3115-4b2e-a887-ddb45e478d7a","ios":"levelo://app?vid=10450a3d-3115-4b2e-a887-ddb45e478d7a"},"vehicle_type_id":"4","last_reported":1730726348,"current_range_meters":28800,"station_id":"ce4bha12rcd13ifvqee0","pricing_plan_id":"cebpf4jnsgd1na2vs0mg"},{"bike_id":"b958b3b3-492e-42d0-862f-2056ccc6a281","system_id":"levelo_inurba_marseille","lat":43.3372,"lon":5.39186,"is_reserved":false,"is_disabled":false,"rental_uris":{"android":"levelo://app?vid=b958b3b3-492e-42d0-862f-2056ccc6a281","ios":"levelo://app?vid=b958b3b3-492e-42d0-862f-2056ccc6a281"},"vehicle_type_id":"4","last_reported":1730726348,"current_range_meters":26000,"station_id":"ce4bhr92rcd13ifvqhsg","pricing_plan_id":"cebpf4jnsgd1na2vs0mg"},{"bike_id":"e20b044a-569c-44a1-90cf-80306a150e1e","system_id":"levelo_inurba_marseille","lat":43.26576,"lon":5.39013,"is_reserved":false,"is_disabled":false,"rental_uris":{"android":"levelo://app?vid=e20b044a-569c-44a1-90cf-80306a150e1e","ios":"levelo://app?vid=e20b044a-569c-44a1-90cf-80306a150e1e"},"vehicle_type_id":"4","last_reported":1730726348,"current_range_meters":38000,"station_id":"ce4bhe12rcd13ifvqf30","pricing_plan_id":"cebpf4jnsgd1na2vs0mg"},{"bike_id":"8163431b-da38-47be-941e-3e7094c52883","system_id":"levelo_inurba_marseille","lat":43.27494,"lon":5.42454,"is_reserved":false,"is_disabled":false,"rental_uris":{"android":"levelo://app?vid=8163431b-da38-47be-941e-3e7094c52883","ios":"levelo://app?vid=8163431b-da38-47be-941e-3e7094c52883"},"vehicle_type_id":"4","last_reported":1730726348,"current_range_meters":20400,"station_id":"ce4bhn92rcd13ifvqgrg","pricing_plan_id":"cebpf4jnsgd1na2vs0mg"},{"bike_id":"383962c0-9ac8-457d-ae66-e5b7490a5f68","system_id":"levelo_inurba_marseille","lat":43.28255,"lon":5.35075,"is_reserved":false,"is_disabled":false,"rental_uris":{"android":"levelo://app?vid=383962c0-9ac8-457d-ae66-e5b7490a5f68","ios":"levelo://app?vid=383962c0-9ac8-457d-ae66-e5b7490a5f68"},"vehicle_type_id":"4","last_reported":1730726348,"current_range_meters":3200,"station_id":"ce4bhbp2rcd13ifvqerg","pricing_plan_id":"cebpf4jnsgd1na2vs0mg"},{"bike_id":"3c32e44d-55ab-4736-b069-2d29cbe2627a","system_id":"levelo_inurba_marseille","lat":43.28265,"lon":5.35078,"is_reserved":false,"is_disabled":false,"rental_uris":{"android":"levelo://app?vid=3c32e44d-55ab-4736-b069-2d29cbe2627a","ios":"levelo://app?vid=3c32e44d-55ab-4736-b069-2d29cbe2627a"},"vehicle_type_id":"4","last_reported":1730726348,"current_range_meters":34800,"station_id":"ce4bhbp2rcd13ifvqerg","pricing_plan_id":"cebpf4jnsgd1na2vs0mg"},{"bike_id":"30dfc1e4-458d-4f28-b8e1-d8ba99fdf35c","system_id":"levelo_inurba_marseille","lat":43.2407,"lon":5.37759,"is_reserved":false,"is_disabled":false,"rental_uris":{"android":"levelo://app?vid=30dfc1e4-458d-4f28-b8e1-d8ba99fdf35c","ios":"levelo://app?vid=30dfc1e4-458d-4f28-b8e1-d8ba99fdf35c"},"vehicle_type_id":"4","last_reported":1730726348,"current_range_meters":33200,"station_id":"ce4bhnp2rcd13ifvqgvg","pricing_plan_id":"cebpf4jnsgd1na2vs0mg"},{"bike_id":"cfceb85a-8c7b-4241-b2ee-fb768a9758e3","system_id":"levelo_inurba_marseille","lat":43.27995,"lon":5.41658,"is_reserved":false,"is_disabled":false,"rental_uris":{"android":"levelo://app?vid=cfceb85a-8c7b-4241-b2ee-fb768a9758e3","ios":"levelo://app?vid=cfceb85a-8c7b-4241-b2ee-fb768a9758e3"},"vehicle_type_id":"4","last_reported":1730726348,"current_range_meters":36800,"station_id":"ce4bho12rcd13ifvqh1g","pricing_plan_id":"cebpf4jnsgd1na2vs0mg"},{"bike_id":"7aad5d6f-422f-478a-abc6-e20286c98efd","system_id":"levelo_inurba_marseille","lat":43.29588,"lon":5.37521,"is_reserved":false,"is_disabled":false,"rental_uris":{"android":"levelo://app?vid=7aad5d6f-422f-478a-abc6-e20286c98efd","ios":"levelo://app?vid=7aad5d6f-422f-478a-abc6-e20286c98efd"},"vehicle_type_id":"4","last_reported":1730726348,"current_range_meters":29600,"station_id":"ce4bgh92rcd13ifvqb50","pricing_plan_id":"cebpf4jnsgd1na2vs0mg"},{"bike_id":"54f1f457-5cb8-48d8-a7bb-d67cc1944c5e","system_id":"levelo_inurba_marseille","lat":43.25091,"lon":5.39518,"is_reserved":false,"is_disabled":false,"rental_uris":{"android":"levelo://app?vid=54f1f457-5cb8-48d8-a7bb-d67cc1944c5e","ios":"levelo://app?vid=54f1f457-5cb8-48d8-a7bb-d67cc1944c5e"},"vehicle_type_id":"4","last_reported":1730726348,"current_range_meters":16400,"station_id":"ce4bhm12rcd13ifvqgkg","pricing_plan_id":"cebpf4jnsgd1na2vs0mg"},{"bike_id":"0276cc7a-f556-468f-868d-e91e2a1f5a27","system_id":"levelo_inurba_marseille","lat":43.31483,"lon":5.3731,"is_reserved":false,"is_disabled":false,"rental_uris":{"android":"levelo://app?vid=0276cc7a-f556-468f-868d-e91e2a1f5a27","ios":"levelo://app?vid=0276cc7a-f556-468f-868d-e91e2a1f5a27"},"vehicle_type_id":"4","last_reported":1730726348,"current_range_meters":22800,"station_id":"ce4bgt12rcd13ifvqcd0","pricing_plan_id":"cebpf4jnsgd1na2vs0mg"},{"bike_id":"00921802-b185-4600-9cf1-51c3997ffcaf","system_id":"levelo_inurba_marseille","lat":43.31994,"lon":5.38155,"is_reserved":false,"is_disabled":false,"rental_uris":{"android":"levelo://app?vid=00921802-b185-4600-9cf1-51c3997ffcaf","ios":"levelo://app?vid=00921802-b185-4600-9cf1-51c3997ffcaf"},"vehicle_type_id":"4","last_reported":1730726348,"current_range_meters":5600,"station_id":"ce4bhr12rcd13ifvqhpg","pricing_plan_id":"cebpf4jnsgd1na2vs0mg"},{"bike_id":"0fb3a1bf-8d60-4830-a342-91a11563480e","system_id":"levelo_inurba_marseille","lat":43.33607,"lon":5.41018,"is_reserved":false,"is_disabled":false,"rental_uris":{"android":"levelo://app?vid=0fb3a1bf-8d60-4830-a342-91a11563480e","ios":"levelo://app?vid=0fb3a1bf-8d60-4830-a342-91a11563480e"},"vehicle_type_id":"4","last_reported":1730726348,"current_range_meters":12400,"station_id":"ce4bhqh2rcd13ifvqhmg","pricing_plan_id":"cebpf4jnsgd1na2vs0mg"},{"bike_id":"5908bc81-a7f9-48ff-a0cb-2e9155342915","system_id":"levelo_inurba_marseille","lat":43.31057,"lon":5.38343,"is_reserved":false,"is_disabled":false,"rental_uris":{"android":"levelo://app?vid=5908bc81-a7f9-48ff-a0cb-2e9155342915","ios":"levelo://app?vid=5908bc81-a7f9-48ff-a0cb-2e9155342915"},"vehicle_type_id":"4","last_reported":1730726348,"current_range_meters":24400,"station_id":"ce4bgv92rcd13ifvqcr0","pricing_plan_id":"cebpf4jnsgd1na2vs0mg"},{"bike_id":"4adb7e65-e18e-4ef1-be00-3ea3c7f6dd44","system_id":"levelo_inurba_marseille","lat":43.24076,"lon":5.37732,"is_reserved":false,"is_disabled":false,"rental_uris":{"android":"levelo://app?vid=4adb7e65-e18e-4ef1-be00-3ea3c7f6dd44","ios":"levelo://app?vid=4adb7e65-e18e-4ef1-be00-3ea3c7f6dd44"},"vehicle_type_id":"4","last_reported":1730726348,"current_range_meters":27200,"station_id":"ce4bhnp2rcd13ifvqgvg","pricing_plan_id":"cebpf4jnsgd1na2vs0mg"},{"bike_id":"702f9e20-18fd-410b-be74-eb6d9961dffb","system_id":"levelo_inurba_marseille","lat":43.3088,"lon":5.39652,"is_reserved":false,"is_disabled":false,"rental_uris":{"android":"levelo://app?vid=702f9e20-18fd-410b-be74-eb6d9961dffb","ios":"levelo://app?vid=702f9e20-18fd-410b-be74-eb6d9961dffb"},"vehicle_type_id":"4","last_reported":1730726348,"current_range_meters":30800,"station_id":"ce4bh012rcd13ifvqcv0","pricing_plan_id":"cebpf4jnsgd1na2vs0mg"},{"bike_id":"ee3dccf9-22bf-4760-8927-68d482635c84","system_id":"levelo_inurba_marseille","lat":43.30543,"lon":5.36536,"is_reserved":false,"is_disabled":false,"rental_uris":{"android":"levelo://app?vid=ee3dccf9-22bf-4760-8927-68d482635c84","ios":"levelo://app?vid=ee3dccf9-22bf-4760-8927-68d482635c84"},"vehicle_type_id":"4","last_reported":1730726348,"current_range_meters":38800,"station_id":"ce4bgs12rcd13ifvqcag","pricing_plan_id":"cebpf4jnsgd1na2vs0mg"},{"bike_id":"ba8f5d9a-4861-4465-b828-23e2245ef053","system_id":"levelo_inurba_marseille","lat":43.2318,"lon":5.39973,"is_reserved":false,"is_disabled":false,"rental_uris":{"android":"levelo://app?vid=ba8f5d9a-4861-4465-b828-23e2245ef053","ios":"levelo://app?vid=ba8f5d9a-4861-4465-b828-23e2245ef053"},"vehicle_type_id":"4","last_reported":1730726348,"current_range_meters":16800,"station_id":"ce4bhn12rcd13ifvqgqg","pricing_plan_id":"cebpf4jnsgd1na2vs0mg"},{"bike_id":"717e8a48-40bc-4c1e-9067-b64ea8a81389","system_id":"levelo_inurba_marseille","lat":43.31756,"lon":5.39018,"is_reserved":false,"is_disabled":false,"rental_uris":{"android":"levelo://app?vid=717e8a48-40bc-4c1e-9067-b64ea8a81389","ios":"levelo://app?vid=717e8a48-40bc-4c1e-9067-b64ea8a81389"},"vehicle_type_id":"4","last_reported":1730726348,"current_range_meters":39200,"station_id":"ce4bhqp2rcd13ifvqhng","pricing_plan_id":"cebpf4jnsgd1na2vs0mg"},{"bike_id":"1b80601b-8be3-4b0b-bcc4-eebb89de1629","system_id":"levelo_inurba_marseille","lat":43.25826,"lon":5.3942,"is_reserved":false,"is_disabled":false,"rental_uris":{"android":"levelo://app?vid=1b80601b-8be3-4b0b-bcc4-eebb89de1629","ios":"levelo://app?vid=1b80601b-8be3-4b0b-bcc4-eebb89de1629"},"vehicle_type_id":"4","last_reported":1730726348,"current_range_meters":29600,"station_id":"ce4bhip2rcd13ifvqft0","pricing_plan_id":"cebpf4jnsgd1na2vs0mg"},{"bike_id":"f1b30242-44b1-4c43-95df-1425365757cf","system_id":"levelo_inurba_marseille","lat":43.2971,"lon":5.36618,"is_reserved":false,"is_disabled":false,"rental_uris":{"android":"levelo://app?vid=f1b30242-44b1-4c43-95df-1425365757cf","ios":"levelo://app?vid=f1b30242-44b1-4c43-95df-1425365757cf"},"vehicle_type_id":"4","last_reported":1730726348,"current_range_meters":30800,"station_id":"ce4bgn12rcd13ifvqbt0","pricing_plan_id":"cebpf4jnsgd1na2vs0mg"},{"bike_id":"b22fc8a8-32a4-43b7-b65e-504387286a24","system_id":"levelo_inurba_marseille","lat":43.2781,"lon":5.40702,"is_reserved":false,"is_disabled":false,"rental_uris":{"android":"levelo://app?vid=b22fc8a8-32a4-43b7-b65e-504387286a24","ios":"levelo://app?vid=b22fc8a8-32a4-43b7-b65e-504387286a24"},"vehicle_type_id":"4","last_reported":1730726348,"current_range_meters":38400,"station_id":"ce4bhnh2rcd13ifvqgtg","pricing_plan_id":"cebpf4jnsgd1na2vs0mg"},{"bike_id":"7d3777f4-ee99-40e1-9fc4-1f825ddd535f","system_id":"levelo_inurba_marseille","lat":43.27993,"lon":5.4166,"is_reserved":false,"is_disabled":false,"rental_uris":{"android":"levelo://app?vid=7d3777f4-ee99-40e1-9fc4-1f825ddd535f","ios":"levelo://app?vid=7d3777f4-ee99-40e1-9fc4-1f825ddd535f"},"vehicle_type_id":"4","last_reported":1730726348,"current_range_meters":2800,"station_id":"ce4bho12rcd13ifvqh1g","pricing_plan_id":"cebpf4jnsgd1na2vs0mg"},{"bike_id":"73712a1d-51dd-4111-8bde-93fc74d15be4","system_id":"levelo_inurba_marseille","lat":43.2976,"lon":5.38723,"is_reserved":false,"is_disabled":false,"rental_uris":{"android":"levelo://app?vid=73712a1d-51dd-4111-8bde-93fc74d15be4","ios":"levelo://app?vid=73712a1d-51dd-4111-8bde-93fc74d15be4"},"vehicle_type_id":"4","last_reported":1730726348,"current_range_meters":16000,"station_id":"","pricing_plan_id":"cebpf4jnsgd1na2vs0mg"},{"bike_id":"9c19f7ff-59b0-4166-be79-9243ed482451","system_id":"levelo_inurba_marseille","lat":43.30889,"lon":5.39668,"is_reserved":false,"is_disabled":false,"rental_uris":{"android":"levelo://app?vid=9c19f7ff-59b0-4166-be79-9243ed482451","ios":"levelo://app?vid=9c19f7ff-59b0-4166-be79-9243ed482451"},"vehicle_type_id":"4","last_reported":1730726348,"current_range_meters":32800,"station_id":"ce4bh012rcd13ifvqcv0","pricing_plan_id":"cebpf4jnsgd1na2vs0mg"},{"bike_id":"beeef4e4-0d45-4dfa-9ccc-aedb2ce31115","system_id":"levelo_inurba_marseille","lat":43.321,"lon":5.36778,"is_reserved":false,"is_disabled":false,"rental_uris":{"android":"levelo://app?vid=beeef4e4-0d45-4dfa-9ccc-aedb2ce31115","ios":"levelo://app?vid=beeef4e4-0d45-4dfa-9ccc-aedb2ce31115"},"vehicle_type_id":"4","last_reported":1730726348,"current_range_meters":30400,"station_id":"ce4bhrh2rcd13ifvqhug","pricing_plan_id":"cebpf4jnsgd1na2vs0mg"},{"bike_id":"a3215fbf-8734-427a-9539-144aefcb7057","system_id":"levelo_inurba_marseille","lat":43.30798,"lon":5.43515,"is_reserved":false,"is_disabled":false,"rental_uris":{"android":"levelo://app?vid=a3215fbf-8734-427a-9539-144aefcb7057","ios":"levelo://app?vid=a3215fbf-8734-427a-9539-144aefcb7057"},"vehicle_type_id":"4","last_reported":1730726348,"current_range_meters":24400,"station_id":"ce4bhph2rcd13ifvqheg","pricing_plan_id":"cebpf4jnsgd1na2vs0mg"},{"bike_id":"2e1d0cd1-8441-4ba8-b68e-cd7faa70a2e3","system_id":"levelo_inurba_marseille","lat":43.30542,"lon":5.36528,"is_reserved":false,"is_disabled":false,"rental_uris":{"android":"levelo://app?vid=2e1d0cd1-8441-4ba8-b68e-cd7faa70a2e3","ios":"levelo://app?vid=2e1d0cd1-8441-4ba8-b68e-cd7faa70a2e3"},"vehicle_type_id":"4","last_reported":1730726348,"current_range_meters":34800,"station_id":"ce4bgs12rcd13ifvqcag","pricing_plan_id":"cebpf4jnsgd1na2vs0mg"},{"bike_id":"ac6e03e1-ef69-4ceb-8c12-c035becfe44f","system_id":"levelo_inurba_marseille","lat":43.28102,"lon":5.37839,"is_reserved":false,"is_disabled":false,"rental_uris":{"android":"levelo://app?vid=ac6e03e1-ef69-4ceb-8c12-c035becfe44f","ios":"levelo://app?vid=ac6e03e1-ef69-4ceb-8c12-c035becfe44f"},"vehicle_type_id":"4","last_reported":1730726348,"current_range_meters":25200,"station_id":"ce4bha12rcd13ifvqee0","pricing_plan_id":"cebpf4jnsgd1na2vs0mg"},{"bike_id":"a23d78a8-6cfe-405c-ac1d-ceb15aacb704","system_id":"levelo_inurba_marseille","lat":43.28026,"lon":5.36947,"is_reserved":false,"is_disabled":false,"rental_uris":{"android":"levelo://app?vid=a23d78a8-6cfe-405c-ac1d-ceb15aacb704","ios":"levelo://app?vid=a23d78a8-6cfe-405c-ac1d-ceb15aacb704"},"vehicle_type_id":"4","last_reported":1730726348,"current_range_meters":36800,"station_id":"ce4bha12rcd13ifvqef0","pricing_plan_id":"cebpf4jnsgd1na2vs0mg"},{"bike_id":"a8cd8421-a9a9-4281-9bc0-c39509e8e248","system_id":"levelo_inurba_marseille","lat":43.29791,"lon":5.38072,"is_reserved":false,"is_disabled":false,"rental_uris":{"android":"levelo://app?vid=a8cd8421-a9a9-4281-9bc0-c39509e8e248","ios":"levelo://app?vid=a8cd8421-a9a9-4281-9bc0-c39509e8e248"},"vehicle_type_id":"4","last_reported":1730726348,"current_range_meters":35600,"station_id":"ce4bgip2rcd13ifvqbb0","pricing_plan_id":"cebpf4jnsgd1na2vs0mg"},{"bike_id":"64a09596-b72a-4c2c-b2d4-4d18f2310608","system_id":"levelo_inurba_marseille","lat":43.30905,"lon":5.36852,"is_reserved":false,"is_disabled":false,"rental_uris":{"android":"levelo://app?vid=64a09596-b72a-4c2c-b2d4-4d18f2310608","ios":"levelo://app?vid=64a09596-b72a-4c2c-b2d4-4d18f2310608"},"vehicle_type_id":"4","last_reported":1730726348,"current_range_meters":24800,"station_id":"ce4bgn92rcd13ifvqbvg","pricing_plan_id":"cebpf4jnsgd1na2vs0mg"},{"bike_id":"8c8d6a07-95ef-497f-b260-63230415b537","system_id":"levelo_inurba_marseille","lat":43.30092,"lon":5.39074,"is_reserved":false,"is_disabled":false,"rental_uris":{"android":"levelo://app?vid=8c8d6a07-95ef-497f-b260-63230415b537","ios":"levelo://app?vid=8c8d6a07-95ef-497f-b260-63230415b537"},"vehicle_type_id":"4","last_reported":1730726348,"current_range_meters":38800,"station_id":"ce4bh192rcd13ifvqdb0","pricing_plan_id":"cebpf4jnsgd1na2vs0mg"},{"bike_id":"ad0b1c47-3b42-4ef4-b760-c7106501c60b","system_id":"levelo_inurba_marseille","lat":43.29793,"lon":5.38087,"is_reserved":false,"is_disabled":false,"rental_uris":{"android":"levelo://app?vid=ad0b1c47-3b42-4ef4-b760-c7106501c60b","ios":"levelo://app?vid=ad0b1c47-3b42-4ef4-b760-c7106501c60b"},"vehicle_type_id":"4","last_reported":1730726348,"current_range_meters":27600,"station_id":"ce4bgip2rcd13ifvqbb0","pricing_plan_id":"cebpf4jnsgd1na2vs0mg"},{"bike_id":"4e6cf579-66af-49fe-a2c0-c8a6798e5fa3","system_id":"levelo_inurba_marseille","lat":43.29802,"lon":5.38075,"is_reserved":false,"is_disabled":false,"rental_uris":{"android":"levelo://app?vid=4e6cf579-66af-49fe-a2c0-c8a6798e5fa3","ios":"levelo://app?vid=4e6cf579-66af-49fe-a2c0-c8a6798e5fa3"},"vehicle_type_id":"4","last_reported":1730726348,"current_range_meters":26000,"station_id":"ce4bgip2rcd13ifvqbb0","pricing_plan_id":"cebpf4jnsgd1na2vs0mg"},{"bike_id":"fe823c7d-054d-4087-a4ba-7742bc127e93","system_id":"levelo_inurba_marseille","lat":43.27489,"lon":5.42458,"is_reserved":false,"is_disabled":false,"rental_uris":{"android":"levelo://app?vid=fe823c7d-054d-4087-a4ba-7742bc127e93","ios":"levelo://app?vid=fe823c7d-054d-4087-a4ba-7742bc127e93"},"vehicle_type_id":"4","last_reported":1730726348,"current_range_meters":6400,"station_id":"ce4bhn92rcd13ifvqgrg","pricing_plan_id":"cebpf4jnsgd1na2vs0mg"},{"bike_id":"651a9232-63ac-410e-ad27-7a29ae3c534c","system_id":"levelo_inurba_marseille","lat":43.27066,"lon":5.4227,"is_reserved":false,"is_disabled":false,"rental_uris":{"android":"levelo://app?vid=651a9232-63ac-410e-ad27-7a29ae3c534c","ios":"levelo://app?vid=651a9232-63ac-410e-ad27-7a29ae3c534c"},"vehicle_type_id":"4","last_reported":1730726348,"current_range_meters":30400,"station_id":"ce4bhk92rcd13ifvqgb0","pricing_plan_id":"cebpf4jnsgd1na2vs0mg"},{"bike_id":"ba21ef20-5e7b-41b5-b91d-bece39556bba","system_id":"levelo_inurba_marseille","lat":43.2319,"lon":5.35556,"is_reserved":false,"is_disabled":false,"rental_uris":{"android":"levelo://app?vid=ba21ef20-5e7b-41b5-b91d-bece39556bba","ios":"levelo://app?vid=ba21ef20-5e7b-41b5-b91d-bece39556bba"},"vehicle_type_id":"4","last_reported":1730726348,"current_range_meters":8800,"station_id":"ce4bhu92rcd13ifvqi70","pricing_plan_id":"cebpf4jnsgd1na2vs0mg"},{"bike_id":"55113c86-91c3-4ed3-949b-b10f7dcf0c17","system_id":"levelo_inurba_marseille","lat":43.30466,"lon":5.37907,"is_reserved":false,"is_disabled":false,"rental_uris":{"android":"levelo://app?vid=55113c86-91c3-4ed3-949b-b10f7dcf0c17","ios":"levelo://app?vid=55113c86-91c3-4ed3-949b-b10f7dcf0c17"},"vehicle_type_id":"4","last_reported":1730726348,"current_range_meters":28400,"station_id":"ce4bgup2rcd13ifvqcn0","pricing_plan_id":"cebpf4jnsgd1na2vs0mg"},{"bike_id":"7580d83e-3d7c-46be-82b1-25f013a114af","system_id":"levelo_inurba_marseille","lat":43.31055,"lon":5.40127,"is_reserved":false,"is_disabled":false,"rental_uris":{"android":"levelo://app?vid=7580d83e-3d7c-46be-82b1-25f013a114af","ios":"levelo://app?vid=7580d83e-3d7c-46be-82b1-25f013a114af"},"vehicle_type_id":"4","last_reported":1730726348,"current_range_meters":22000,"station_id":"","pricing_plan_id":"cebpf4jnsgd1na2vs0mg"},{"bike_id":"0beee424-e81f-4821-93f8-913a6e29e82e","system_id":"levelo_inurba_marseille","lat":43.2306,"lon":5.35489,"is_reserved":false,"is_disabled":false,"rental_uris":{"android":"levelo://app?vid=0beee424-e81f-4821-93f8-913a6e29e82e","ios":"levelo://app?vid=0beee424-e81f-4821-93f8-913a6e29e82e"},"vehicle_type_id":"4","last_reported":1730726348,"current_range_meters":16000,"station_id":"cpo3342slgdg3j2ifvpg","pricing_plan_id":"cebpf4jnsgd1na2vs0mg"},{"bike_id":"cbd992d8-d7a7-48b2-95a9-f4fd11352bba","system_id":"levelo_inurba_marseille","lat":43.28267,"lon":5.3507,"is_reserved":false,"is_disabled":false,"rental_uris":{"android":"levelo://app?vid=cbd992d8-d7a7-48b2-95a9-f4fd11352bba","ios":"levelo://app?vid=cbd992d8-d7a7-48b2-95a9-f4fd11352bba"},"vehicle_type_id":"4","last_reported":1730726348,"current_range_meters":31200,"station_id":"ce4bhbp2rcd13ifvqerg","pricing_plan_id":"cebpf4jnsgd1na2vs0mg"},{"bike_id":"20776b46-775c-4274-b1bb-17617b49f6ee","system_id":"levelo_inurba_marseille","lat":43.29273,"lon":5.36848,"is_reserved":false,"is_disabled":false,"rental_uris":{"android":"levelo://app?vid=20776b46-775c-4274-b1bb-17617b49f6ee","ios":"levelo://app?vid=20776b46-775c-4274-b1bb-17617b49f6ee"},"vehicle_type_id":"4","last_reported":1730726348,"current_range_meters":27600,"station_id":"ce4bhbp2rcd13ifvqesg","pricing_plan_id":"cebpf4jnsgd1na2vs0mg"},{"bike_id":"e4646c1b-3291-4da5-8c23-aca19f81a89a","system_id":"levelo_inurba_marseille","lat":43.30155,"lon":5.38086,"is_reserved":false,"is_disabled":false,"rental_uris":{"android":"levelo://app?vid=e4646c1b-3291-4da5-8c23-aca19f81a89a","ios":"levelo://app?vid=e4646c1b-3291-4da5-8c23-aca19f81a89a"},"vehicle_type_id":"4","last_reported":1730726348,"current_range_meters":18000,"station_id":"ce4bgjp2rcd13ifvqbh0","pricing_plan_id":"cebpf4jnsgd1na2vs0mg"},{"bike_id":"c268f8a8-c8a2-4a9d-9297-31e089741b69","system_id":"levelo_inurba_marseille","lat":43.30185,"lon":5.36616,"is_reserved":false,"is_disabled":false,"rental_uris":{"android":"levelo://app?vid=c268f8a8-c8a2-4a9d-9297-31e089741b69","ios":"levelo://app?vid=c268f8a8-c8a2-4a9d-9297-31e089741b69"},"vehicle_type_id":"4","last_reported":1730726348,"current_range_meters":38800,"station_id":"ce4bgrh2rcd13ifvqc8g","pricing_plan_id":"cebpf4jnsgd1na2vs0mg"},{"bike_id":"a938ad26-c31c-4cc6-9b4f-a3e0f58e10a8","system_id":"levelo_inurba_marseille","lat":43.24167,"lon":5.36404,"is_reserved":false,"is_disabled":false,"rental_uris":{"android":"levelo://app?vid=a938ad26-c31c-4cc6-9b4f-a3e0f58e10a8","ios":"levelo://app?vid=a938ad26-c31c-4cc6-9b4f-a3e0f58e10a8"},"vehicle_type_id":"4","last_reported":1730726348,"current_range_meters":38800,"station_id":"cpo36qri1sfpv3e86is0","pricing_plan_id":"cebpf4jnsgd1na2vs0mg"},{"bike_id":"d86f3399-8ba3-486d-a26b-9441d9d3bdd3","system_id":"levelo_inurba_marseille","lat":43.27998,"lon":5.41668,"is_reserved":false,"is_disabled":false,"rental_uris":{"android":"levelo://app?vid=d86f3399-8ba3-486d-a26b-9441d9d3bdd3","ios":"levelo://app?vid=d86f3399-8ba3-486d-a26b-9441d9d3bdd3"},"vehicle_type_id":"4","last_reported":1730726348,"current_range_meters":14800,"station_id":"ce4bho12rcd13ifvqh1g","pricing_plan_id":"cebpf4jnsgd1na2vs0mg"},{"bike_id":"e7585f34-eb61-4983-876b-a626916d37c3","system_id":"levelo_inurba_marseille","lat":43.27068,"lon":5.42279,"is_reserved":false,"is_disabled":false,"rental_uris":{"android":"levelo://app?vid=e7585f34-eb61-4983-876b-a626916d37c3","ios":"levelo://app?vid=e7585f34-eb61-4983-876b-a626916d37c3"},"vehicle_type_id":"4","last_reported":1730726348,"current_range_meters":34800,"station_id":"ce4bhk92rcd13ifvqgb0","pricing_plan_id":"cebpf4jnsgd1na2vs0mg"},{"bike_id":"7b1e9bda-ec43-4be7-96ea-eb33edd44f28","system_id":"levelo_inurba_marseille","lat":43.27493,"lon":5.42456,"is_reserved":false,"is_disabled":false,"rental_uris":{"android":"levelo://app?vid=7b1e9bda-ec43-4be7-96ea-eb33edd44f28","ios":"levelo://app?vid=7b1e9bda-ec43-4be7-96ea-eb33edd44f28"},"vehicle_type_id":"4","last_reported":1730726348,"current_range_meters":19600,"station_id":"ce4bhn92rcd13ifvqgrg","pricing_plan_id":"cebpf4jnsgd1na2vs0mg"},{"bike_id":"84826187-31ec-4949-bd9b-654531a44675","system_id":"levelo_inurba_marseille","lat":43.23155,"lon":5.43699,"is_reserved":false,"is_disabled":false,"rental_uris":{"android":"levelo://app?vid=84826187-31ec-4949-bd9b-654531a44675","ios":"levelo://app?vid=84826187-31ec-4949-bd9b-654531a44675"},"vehicle_type_id":"4","last_reported":1730726348,"current_range_meters":24000,"station_id":"ce4bhmp2rcd13ifvqgog","pricing_plan_id":"cebpf4jnsgd1na2vs0mg"},{"bike_id":"00cfba8d-c12d-4c96-889d-6e07a2141dda","system_id":"levelo_inurba_marseille","lat":43.3089,"lon":5.39675,"is_reserved":false,"is_disabled":false,"rental_uris":{"android":"levelo://app?vid=00cfba8d-c12d-4c96-889d-6e07a2141dda","ios":"levelo://app?vid=00cfba8d-c12d-4c96-889d-6e07a2141dda"},"vehicle_type_id":"4","last_reported":1730726348,"current_range_meters":38800,"station_id":"ce4bh012rcd13ifvqcv0","pricing_plan_id":"cebpf4jnsgd1na2vs0mg"},{"bike_id":"b20d9850-7c78-4c99-90d1-708a5ff759b3","system_id":"levelo_inurba_marseille","lat":43.29889,"lon":5.38901,"is_reserved":false,"is_disabled":false,"rental_uris":{"android":"levelo://app?vid=b20d9850-7c78-4c99-90d1-708a5ff759b3","ios":"levelo://app?vid=b20d9850-7c78-4c99-90d1-708a5ff759b3"},"vehicle_type_id":"4","last_reported":1730726348,"current_range_meters":35600,"station_id":"ce4bh392rcd13ifvqdl0","pricing_plan_id":"cebpf4jnsgd1na2vs0mg"},{"bike_id":"26a97ae4-d453-471b-98ea-30e0cd8fc97f","system_id":"levelo_inurba_marseille","lat":43.25928,"lon":5.40913,"is_reserved":false,"is_disabled":false,"rental_uris":{"android":"levelo://app?vid=26a97ae4-d453-471b-98ea-30e0cd8fc97f","ios":"levelo://app?vid=26a97ae4-d453-471b-98ea-30e0cd8fc97f"},"vehicle_type_id":"4","last_reported":1730726348,"current_range_meters":6000,"station_id":"ce4bhm92rcd13ifvqglg","pricing_plan_id":"cebpf4jnsgd1na2vs0mg"},{"bike_id":"23396693-5f14-4253-9090-6c22f7c8a043","system_id":"levelo_inurba_marseille","lat":43.297054,"lon":5.37942,"is_reserved":false,"is_disabled":false,"rental_uris":{"android":"levelo://app?vid=23396693-5f14-4253-9090-6c22f7c8a043","ios":"levelo://app?vid=23396693-5f14-4253-9090-6c22f7c8a043"},"vehicle_type_id":"4","last_reported":1730726348,"current_range_meters":27600,"station_id":"ce4bgvh2rcd13ifvqcs0","pricing_plan_id":"cebpf4jnsgd1na2vs0mg"},{"bike_id":"909fd824-d8fe-4d38-b958-5046d8c9169b","system_id":"levelo_inurba_marseille","lat":43.32479,"lon":5.36551,"is_reserved":false,"is_disabled":false,"rental_uris":{"android":"levelo://app?vid=909fd824-d8fe-4d38-b958-5046d8c9169b","ios":"levelo://app?vid=909fd824-d8fe-4d38-b958-5046d8c9169b"},"vehicle_type_id":"4","last_reported":1730726348,"current_range_meters":38800,"station_id":"ce4bhs12rcd13ifvqhvg","pricing_plan_id":"cebpf4jnsgd1na2vs0mg"},{"bike_id":"4feeb200-6d10-4671-906a-51162dafb872","system_id":"levelo_inurba_marseille","lat":43.29004,"lon":5.35606,"is_reserved":false,"is_disabled":false,"rental_uris":{"android":"levelo://app?vid=4feeb200-6d10-4671-906a-51162dafb872","ios":"levelo://app?vid=4feeb200-6d10-4671-906a-51162dafb872"},"vehicle_type_id":"4","last_reported":1730726348,"current_range_meters":17600,"station_id":"ce4bhb92rcd13ifvqen0","pricing_plan_id":"cebpf4jnsgd1na2vs0mg"},{"bike_id":"0bf56120-2dc8-491c-8eae-97c1ea3bfa51","system_id":"levelo_inurba_marseille","lat":43.248108,"lon":5.37462,"is_reserved":false,"is_disabled":false,"rental_uris":{"android":"levelo://app?vid=0bf56120-2dc8-491c-8eae-97c1ea3bfa51","ios":"levelo://app?vid=0bf56120-2dc8-491c-8eae-97c1ea3bfa51"},"vehicle_type_id":"4","last_reported":1730726348,"current_range_meters":38000,"station_id":"ce4bhgh2rcd13ifvqfb0","pricing_plan_id":"cebpf4jnsgd1na2vs0mg"},{"bike_id":"0574c6f2-0d14-44ce-b627-9816e0d263f2","system_id":"levelo_inurba_marseille","lat":43.22932,"lon":5.35375,"is_reserved":false,"is_disabled":false,"rental_uris":{"android":"levelo://app?vid=0574c6f2-0d14-44ce-b627-9816e0d263f2","ios":"levelo://app?vid=0574c6f2-0d14-44ce-b627-9816e0d263f2"},"vehicle_type_id":"4","last_reported":1730726348,"current_range_meters":8800,"station_id":"cpo3532slgdg3j2ikp40","pricing_plan_id":"cebpf4jnsgd1na2vs0mg"},{"bike_id":"00fa663e-ca43-453d-afb5-fe8b2d7b7459","system_id":"levelo_inurba_marseille","lat":43.3054,"lon":5.36534,"is_reserved":false,"is_disabled":false,"rental_uris":{"android":"levelo://app?vid=00fa663e-ca43-453d-afb5-fe8b2d7b7459","ios":"levelo://app?vid=00fa663e-ca43-453d-afb5-fe8b2d7b7459"},"vehicle_type_id":"4","last_reported":1730726348,"current_range_meters":38800,"station_id":"ce4bgs12rcd13ifvqcag","pricing_plan_id":"cebpf4jnsgd1na2vs0mg"},{"bike_id":"2bfd22d7-a685-4f08-b1ba-16e1ddc4d13e","system_id":"levelo_inurba_marseille","lat":43.28341,"lon":5.38105,"is_reserved":false,"is_disabled":false,"rental_uris":{"android":"levelo://app?vid=2bfd22d7-a685-4f08-b1ba-16e1ddc4d13e","ios":"levelo://app?vid=2bfd22d7-a685-4f08-b1ba-16e1ddc4d13e"},"vehicle_type_id":"4","last_reported":1730726348,"current_range_meters":17200,"station_id":"ce4bh412rcd13ifvqdr0","pricing_plan_id":"cebpf4jnsgd1na2vs0mg"},{"bike_id":"b4f39b06-55c1-4573-ad86-d8cda41ddf56","system_id":"levelo_inurba_marseille","lat":43.30948,"lon":5.39042,"is_reserved":false,"is_disabled":false,"rental_uris":{"android":"levelo://app?vid=b4f39b06-55c1-4573-ad86-d8cda41ddf56","ios":"levelo://app?vid=b4f39b06-55c1-4573-ad86-d8cda41ddf56"},"vehicle_type_id":"4","last_reported":1730726348,"current_range_meters":34000,"station_id":"ce4bgup2rcd13ifvqco0","pricing_plan_id":"cebpf4jnsgd1na2vs0mg"},{"bike_id":"1228cbd5-3123-402f-b38f-4cbd1c53149d","system_id":"levelo_inurba_marseille","lat":43.29226,"lon":5.36079,"is_reserved":false,"is_disabled":false,"rental_uris":{"android":"levelo://app?vid=1228cbd5-3123-402f-b38f-4cbd1c53149d","ios":"levelo://app?vid=1228cbd5-3123-402f-b38f-4cbd1c53149d"},"vehicle_type_id":"4","last_reported":1730726348,"current_range_meters":20000,"station_id":"ce4bhbh2rcd13ifvqeqg","pricing_plan_id":"cebpf4jnsgd1na2vs0mg"},{"bike_id":"a62d9f9b-8c15-400e-9700-88059c205327","system_id":"levelo_inurba_marseille","lat":43.29799,"lon":5.38095,"is_reserved":false,"is_disabled":false,"rental_uris":{"android":"levelo://app?vid=a62d9f9b-8c15-400e-9700-88059c205327","ios":"levelo://app?vid=a62d9f9b-8c15-400e-9700-88059c205327"},"vehicle_type_id":"4","last_reported":1730726348,"current_range_meters":29600,"station_id":"ce4bgip2rcd13ifvqbb0","pricing_plan_id":"cebpf4jnsgd1na2vs0mg"},{"bike_id":"bbc4afbc-13e4-40b2-8eeb-b8c01dbe8875","system_id":"levelo_inurba_marseille","lat":43.3014,"lon":5.37422,"is_reserved":false,"is_disabled":false,"rental_uris":{"android":"levelo://app?vid=bbc4afbc-13e4-40b2-8eeb-b8c01dbe8875","ios":"levelo://app?vid=bbc4afbc-13e4-40b2-8eeb-b8c01dbe8875"},"vehicle_type_id":"4","last_reported":1730726348,"current_range_meters":40000,"station_id":"ce4bgs92rcd13ifvqcc0","pricing_plan_id":"cebpf4jnsgd1na2vs0mg"},{"bike_id":"72221e84-f23f-4bf6-a84e-03f5db5c9f83","system_id":"levelo_inurba_marseille","lat":43.25089,"lon":5.39527,"is_reserved":false,"is_disabled":false,"rental_uris":{"android":"levelo://app?vid=72221e84-f23f-4bf6-a84e-03f5db5c9f83","ios":"levelo://app?vid=72221e84-f23f-4bf6-a84e-03f5db5c9f83"},"vehicle_type_id":"4","last_reported":1730726348,"current_range_meters":8400,"station_id":"ce4bhm12rcd13ifvqgkg","pricing_plan_id":"cebpf4jnsgd1na2vs0mg"},{"bike_id":"ed3cc475-9352-4500-9e2a-f8144dc4b6f1","system_id":"levelo_inurba_marseille","lat":43.3302,"lon":5.39043,"is_reserved":false,"is_disabled":false,"rental_uris":{"android":"levelo://app?vid=ed3cc475-9352-4500-9e2a-f8144dc4b6f1","ios":"levelo://app?vid=ed3cc475-9352-4500-9e2a-f8144dc4b6f1"},"vehicle_type_id":"4","last_reported":1730726348,"current_range_meters":32000,"station_id":"ce4bhr92rcd13ifvqhrg","pricing_plan_id":"cebpf4jnsgd1na2vs0mg"},{"bike_id":"20ba62ee-2151-4dc9-8a72-2d3c7b78e768","system_id":"levelo_inurba_marseille","lat":43.2594,"lon":5.40902,"is_reserved":false,"is_disabled":false,"rental_uris":{"android":"levelo://app?vid=20ba62ee-2151-4dc9-8a72-2d3c7b78e768","ios":"levelo://app?vid=20ba62ee-2151-4dc9-8a72-2d3c7b78e768"},"vehicle_type_id":"4","last_reported":1730726348,"current_range_meters":33600,"station_id":"ce4bhm92rcd13ifvqglg","pricing_plan_id":"cebpf4jnsgd1na2vs0mg"},{"bike_id":"fe144177-327f-48aa-98bf-b0d3318680db","system_id":"levelo_inurba_marseille","lat":43.2407,"lon":5.37754,"is_reserved":false,"is_disabled":false,"rental_uris":{"android":"levelo://app?vid=fe144177-327f-48aa-98bf-b0d3318680db","ios":"levelo://app?vid=fe144177-327f-48aa-98bf-b0d3318680db"},"vehicle_type_id":"4","last_reported":1730726348,"current_range_meters":10800,"station_id":"ce4bhnp2rcd13ifvqgvg","pricing_plan_id":"cebpf4jnsgd1na2vs0mg"},{"bike_id":"3044ab8e-3335-40b2-9308-f3d6604164a9","system_id":"levelo_inurba_marseille","lat":43.30548,"lon":5.36535,"is_reserved":false,"is_disabled":false,"rental_uris":{"android":"levelo://app?vid=3044ab8e-3335-40b2-9308-f3d6604164a9","ios":"levelo://app?vid=3044ab8e-3335-40b2-9308-f3d6604164a9"},"vehicle_type_id":"4","last_reported":1730726348,"current_range_meters":38800,"station_id":"ce4bgs12rcd13ifvqcag","pricing_plan_id":"cebpf4jnsgd1na2vs0mg"},{"bike_id":"c881d663-e752-401d-a5fc-1d2996823ee4","system_id":"levelo_inurba_marseille","lat":43.2894,"lon":5.36645,"is_reserved":false,"is_disabled":false,"rental_uris":{"android":"levelo://app?vid=c881d663-e752-401d-a5fc-1d2996823ee4","ios":"levelo://app?vid=c881d663-e752-401d-a5fc-1d2996823ee4"},"vehicle_type_id":"4","last_reported":1730726348,"current_range_meters":27600,"station_id":"ce4bhap2rcd13ifvqek0","pricing_plan_id":"cebpf4jnsgd1na2vs0mg"},{"bike_id":"7a58136c-3165-4313-8fac-2c364b399752","system_id":"levelo_inurba_marseille","lat":43.33725,"lon":5.3918,"is_reserved":false,"is_disabled":false,"rental_uris":{"android":"levelo://app?vid=7a58136c-3165-4313-8fac-2c364b399752","ios":"levelo://app?vid=7a58136c-3165-4313-8fac-2c364b399752"},"vehicle_type_id":"4","last_reported":1730726348,"current_range_meters":28000,"station_id":"ce4bhr92rcd13ifvqhsg","pricing_plan_id":"cebpf4jnsgd1na2vs0mg"},{"bike_id":"ef6c598b-12f7-4d6c-97fa-13e183c4e772","system_id":"levelo_inurba_marseille","lat":43.24799,"lon":5.37454,"is_reserved":false,"is_disabled":false,"rental_uris":{"android":"levelo://app?vid=ef6c598b-12f7-4d6c-97fa-13e183c4e772","ios":"levelo://app?vid=ef6c598b-12f7-4d6c-97fa-13e183c4e772"},"vehicle_type_id":"4","last_reported":1730726348,"current_range_meters":20000,"station_id":"ce4bhgh2rcd13ifvqfb0","pricing_plan_id":"cebpf4jnsgd1na2vs0mg"},{"bike_id":"abe1ee53-97ca-4c4a-9fe2-bc4f63c0b03e","system_id":"levelo_inurba_marseille","lat":43.29577,"lon":5.36746,"is_reserved":false,"is_disabled":false,"rental_uris":{"android":"levelo://app?vid=abe1ee53-97ca-4c4a-9fe2-bc4f63c0b03e","ios":"levelo://app?vid=abe1ee53-97ca-4c4a-9fe2-bc4f63c0b03e"},"vehicle_type_id":"4","last_reported":1730726348,"current_range_meters":22400,"station_id":"ce4bgph2rcd13ifvqc2g","pricing_plan_id":"cebpf4jnsgd1na2vs0mg"},{"bike_id":"c0c1144b-55a3-4c12-934a-b6ac7a3ad5e6","system_id":"levelo_inurba_marseille","lat":43.26954,"lon":5.3863,"is_reserved":false,"is_disabled":false,"rental_uris":{"android":"levelo://app?vid=c0c1144b-55a3-4c12-934a-b6ac7a3ad5e6","ios":"levelo://app?vid=c0c1144b-55a3-4c12-934a-b6ac7a3ad5e6"},"vehicle_type_id":"4","last_reported":1730726348,"current_range_meters":26000,"station_id":"ce4bhh92rcd13ifvqfh0","pricing_plan_id":"cebpf4jnsgd1na2vs0mg"},{"bike_id":"a3ae4c1b-8ed3-43f0-95b2-9f60ca274476","system_id":"levelo_inurba_marseille","lat":43.32475,"lon":5.36565,"is_reserved":false,"is_disabled":false,"rental_uris":{"android":"levelo://app?vid=a3ae4c1b-8ed3-43f0-95b2-9f60ca274476","ios":"levelo://app?vid=a3ae4c1b-8ed3-43f0-95b2-9f60ca274476"},"vehicle_type_id":"4","last_reported":1730726348,"current_range_meters":38800,"station_id":"ce4bhs12rcd13ifvqhvg","pricing_plan_id":"cebpf4jnsgd1na2vs0mg"},{"bike_id":"af94a4d5-bf2c-4ed6-996c-6b9f9922b6f0","system_id":"levelo_inurba_marseille","lat":43.28266,"lon":5.35085,"is_reserved":false,"is_disabled":false,"rental_uris":{"android":"levelo://app?vid=af94a4d5-bf2c-4ed6-996c-6b9f9922b6f0","ios":"levelo://app?vid=af94a4d5-bf2c-4ed6-996c-6b9f9922b6f0"},"vehicle_type_id":"4","last_reported":1730726348,"current_range_meters":20400,"station_id":"ce4bhbp2rcd13ifvqerg","pricing_plan_id":"cebpf4jnsgd1na2vs0mg"},{"bike_id":"b848ff2c-dc37-4e58-8bc4-dca181ed20c6","system_id":"levelo_inurba_marseille","lat":43.30088,"lon":5.39088,"is_reserved":false,"is_disabled":false,"rental_uris":{"android":"levelo://app?vid=b848ff2c-dc37-4e58-8bc4-dca181ed20c6","ios":"levelo://app?vid=b848ff2c-dc37-4e58-8bc4-dca181ed20c6"},"vehicle_type_id":"4","last_reported":1730726348,"current_range_meters":30800,"station_id":"ce4bh192rcd13ifvqdb0","pricing_plan_id":"cebpf4jnsgd1na2vs0mg"},{"bike_id":"287d660f-98b6-46fc-807a-3d0421b9fc22","system_id":"levelo_inurba_marseille","lat":43.277533,"lon":5.407637,"is_reserved":false,"is_disabled":false,"rental_uris":{"android":"levelo://app?vid=287d660f-98b6-46fc-807a-3d0421b9fc22","ios":"levelo://app?vid=287d660f-98b6-46fc-807a-3d0421b9fc22"},"vehicle_type_id":"4","last_reported":1730726348,"current_range_meters":37600,"station_id":"ce4bhh12rcd13ifvqfg0","pricing_plan_id":"cebpf4jnsgd1na2vs0mg"},{"bike_id":"5d14ffc3-3770-493f-af10-c5936b534fc1","system_id":"levelo_inurba_marseille","lat":43.29227,"lon":5.36058,"is_reserved":false,"is_disabled":false,"rental_uris":{"android":"levelo://app?vid=5d14ffc3-3770-493f-af10-c5936b534fc1","ios":"levelo://app?vid=5d14ffc3-3770-493f-af10-c5936b534fc1"},"vehicle_type_id":"4","last_reported":1730726348,"current_range_meters":10800,"station_id":"ce4bhbh2rcd13ifvqeqg","pricing_plan_id":"cebpf4jnsgd1na2vs0mg"},{"bike_id":"ad6b9979-2833-497c-ae59-5afeb88a87ce","system_id":"levelo_inurba_marseille","lat":43.32359,"lon":5.36756,"is_reserved":false,"is_disabled":false,"rental_uris":{"android":"levelo://app?vid=ad6b9979-2833-497c-ae59-5afeb88a87ce","ios":"levelo://app?vid=ad6b9979-2833-497c-ae59-5afeb88a87ce"},"vehicle_type_id":"4","last_reported":1730726348,"current_range_meters":36800,"station_id":"ce4bhsh2rcd13ifvqi2g","pricing_plan_id":"cebpf4jnsgd1na2vs0mg"},{"bike_id":"21047ea7-1217-4889-9524-4350d2e53afa","system_id":"levelo_inurba_marseille","lat":43.2992,"lon":5.37481,"is_reserved":false,"is_disabled":false,"rental_uris":{"android":"levelo://app?vid=21047ea7-1217-4889-9524-4350d2e53afa","ios":"levelo://app?vid=21047ea7-1217-4889-9524-4350d2e53afa"},"vehicle_type_id":"4","last_reported":1730726348,"current_range_meters":7200,"station_id":"ce4bgjh2rcd13ifvqbg0","pricing_plan_id":"cebpf4jnsgd1na2vs0mg"},{"bike_id":"52d83f9a-c94d-483f-a129-78a637dbe7cd","system_id":"levelo_inurba_marseille","lat":43.28103,"lon":5.3784,"is_reserved":false,"is_disabled":false,"rental_uris":{"android":"levelo://app?vid=52d83f9a-c94d-483f-a129-78a637dbe7cd","ios":"levelo://app?vid=52d83f9a-c94d-483f-a129-78a637dbe7cd"},"vehicle_type_id":"4","last_reported":1730726348,"current_range_meters":31200,"station_id":"ce4bha12rcd13ifvqee0","pricing_plan_id":"cebpf4jnsgd1na2vs0mg"},{"bike_id":"9d01e6c0-f97c-47a1-b364-f40e25bb2614","system_id":"levelo_inurba_marseille","lat":43.24078,"lon":5.37753,"is_reserved":false,"is_disabled":false,"rental_uris":{"android":"levelo://app?vid=9d01e6c0-f97c-47a1-b364-f40e25bb2614","ios":"levelo://app?vid=9d01e6c0-f97c-47a1-b364-f40e25bb2614"},"vehicle_type_id":"4","last_reported":1730726348,"current_range_meters":32400,"station_id":"ce4bhnp2rcd13ifvqgvg","pricing_plan_id":"cebpf4jnsgd1na2vs0mg"},{"bike_id":"d2738cce-314b-4cee-88e4-e667009c47fa","system_id":"levelo_inurba_marseille","lat":43.25937,"lon":5.40894,"is_reserved":false,"is_disabled":false,"rental_uris":{"android":"levelo://app?vid=d2738cce-314b-4cee-88e4-e667009c47fa","ios":"levelo://app?vid=d2738cce-314b-4cee-88e4-e667009c47fa"},"vehicle_type_id":"4","last_reported":1730726348,"current_range_meters":6800,"station_id":"ce4bhm92rcd13ifvqglg","pricing_plan_id":"cebpf4jnsgd1na2vs0mg"},{"bike_id":"29bc6180-a326-437a-a82e-133190ee6ec6","system_id":"levelo_inurba_marseille","lat":43.267856,"lon":5.394164,"is_reserved":false,"is_disabled":false,"rental_uris":{"android":"levelo://app?vid=29bc6180-a326-437a-a82e-133190ee6ec6","ios":"levelo://app?vid=29bc6180-a326-437a-a82e-133190ee6ec6"},"vehicle_type_id":"4","last_reported":1730726348,"current_range_meters":38800,"station_id":"ce4bhh12rcd13ifvqfg0","pricing_plan_id":"cebpf4jnsgd1na2vs0mg"},{"bike_id":"dcfc3314-3fae-4653-8172-afb46edd1ad2","system_id":"levelo_inurba_marseille","lat":43.30532,"lon":5.36534,"is_reserved":false,"is_disabled":false,"rental_uris":{"android":"levelo://app?vid=dcfc3314-3fae-4653-8172-afb46edd1ad2","ios":"levelo://app?vid=dcfc3314-3fae-4653-8172-afb46edd1ad2"},"vehicle_type_id":"4","last_reported":1730726348,"current_range_meters":29600,"station_id":"ce4bgs12rcd13ifvqcag","pricing_plan_id":"cebpf4jnsgd1na2vs0mg"},{"bike_id":"853b27ea-e5f4-4c2e-a7da-3181274b83f8","system_id":"levelo_inurba_marseille","lat":43.29052,"lon":5.35903,"is_reserved":false,"is_disabled":false,"rental_uris":{"android":"levelo://app?vid=853b27ea-e5f4-4c2e-a7da-3181274b83f8","ios":"levelo://app?vid=853b27ea-e5f4-4c2e-a7da-3181274b83f8"},"vehicle_type_id":"4","last_reported":1730726348,"current_range_meters":5600,"station_id":"ce4bha92rcd13ifvqeg0","pricing_plan_id":"cebpf4jnsgd1na2vs0mg"},{"bike_id":"d1d75a46-49e0-4f3b-acbe-49b92e64d384","system_id":"levelo_inurba_marseille","lat":43.29603,"lon":5.38101,"is_reserved":false,"is_disabled":false,"rental_uris":{"android":"levelo://app?vid=d1d75a46-49e0-4f3b-acbe-49b92e64d384","ios":"levelo://app?vid=d1d75a46-49e0-4f3b-acbe-49b92e64d384"},"vehicle_type_id":"4","last_reported":1730726348,"current_range_meters":37600,"station_id":"ce4bgl12rcd13ifvqbo0","pricing_plan_id":"cebpf4jnsgd1na2vs0mg"},{"bike_id":"7caae66d-bc9c-458c-a817-19bb07d47995","system_id":"levelo_inurba_marseille","lat":43.2992,"lon":5.37478,"is_reserved":false,"is_disabled":false,"rental_uris":{"android":"levelo://app?vid=7caae66d-bc9c-458c-a817-19bb07d47995","ios":"levelo://app?vid=7caae66d-bc9c-458c-a817-19bb07d47995"},"vehicle_type_id":"4","last_reported":1730726348,"current_range_meters":39200,"station_id":"ce4bgjh2rcd13ifvqbg0","pricing_plan_id":"cebpf4jnsgd1na2vs0mg"},{"bike_id":"91986a4f-27e4-4185-933a-27c41e46f3b4","system_id":"levelo_inurba_marseille","lat":43.29931,"lon":5.36549,"is_reserved":false,"is_disabled":false,"rental_uris":{"android":"levelo://app?vid=91986a4f-27e4-4185-933a-27c41e46f3b4","ios":"levelo://app?vid=91986a4f-27e4-4185-933a-27c41e46f3b4"},"vehicle_type_id":"4","last_reported":1730726348,"current_range_meters":10800,"station_id":"ce4bgm92rcd13ifvqbr0","pricing_plan_id":"cebpf4jnsgd1na2vs0mg"},{"bike_id":"0816021a-d791-40b8-a0bc-3a861b847ef1","system_id":"levelo_inurba_marseille","lat":43.30468,"lon":5.37913,"is_reserved":false,"is_disabled":false,"rental_uris":{"android":"levelo://app?vid=0816021a-d791-40b8-a0bc-3a861b847ef1","ios":"levelo://app?vid=0816021a-d791-40b8-a0bc-3a861b847ef1"},"vehicle_type_id":"4","last_reported":1730726348,"current_range_meters":24000,"station_id":"ce4bgup2rcd13ifvqcn0","pricing_plan_id":"cebpf4jnsgd1na2vs0mg"},{"bike_id":"f18d76b3-aff3-44f0-97ce-80dd35e5f78d","system_id":"levelo_inurba_marseille","lat":43.31339,"lon":5.367,"is_reserved":false,"is_disabled":false,"rental_uris":{"android":"levelo://app?vid=f18d76b3-aff3-44f0-97ce-80dd35e5f78d","ios":"levelo://app?vid=f18d76b3-aff3-44f0-97ce-80dd35e5f78d"},"vehicle_type_id":"4","last_reported":1730726348,"current_range_meters":29600,"station_id":"ce4bgr92rcd13ifvqc6g","pricing_plan_id":"cebpf4jnsgd1na2vs0mg"},{"bike_id":"865ee77b-d856-4a55-b57c-b04c36da775e","system_id":"levelo_inurba_marseille","lat":43.293841,"lon":5.378499,"is_reserved":false,"is_disabled":false,"rental_uris":{"android":"levelo://app?vid=865ee77b-d856-4a55-b57c-b04c36da775e","ios":"levelo://app?vid=865ee77b-d856-4a55-b57c-b04c36da775e"},"vehicle_type_id":"4","last_reported":1730726348,"current_range_meters":6400,"station_id":"ce4bgjh2rcd13ifvqbf0","pricing_plan_id":"cebpf4jnsgd1na2vs0mg"},{"bike_id":"baef9837-9362-4b9e-8378-e964f8208509","system_id":"levelo_inurba_marseille","lat":43.25498,"lon":5.3765,"is_reserved":false,"is_disabled":false,"rental_uris":{"android":"levelo://app?vid=baef9837-9362-4b9e-8378-e964f8208509","ios":"levelo://app?vid=baef9837-9362-4b9e-8378-e964f8208509"},"vehicle_type_id":"4","last_reported":1730726348,"current_range_meters":20800,"station_id":"ce4bhh12rcd13ifvqff0","pricing_plan_id":"cebpf4jnsgd1na2vs0mg"},{"bike_id":"7d9ee8ba-656e-46e2-afbf-5eed9f48fbad","system_id":"levelo_inurba_marseille","lat":43.31219,"lon":5.36846,"is_reserved":false,"is_disabled":false,"rental_uris":{"android":"levelo://app?vid=7d9ee8ba-656e-46e2-afbf-5eed9f48fbad","ios":"levelo://app?vid=7d9ee8ba-656e-46e2-afbf-5eed9f48fbad"},"vehicle_type_id":"4","last_reported":1730726348,"current_range_meters":39200,"station_id":"ce4bgl92rcd13ifvqbq0","pricing_plan_id":"cebpf4jnsgd1na2vs0mg"},{"bike_id":"9cc0c0e0-f22e-422e-8353-f151445f4bd4","system_id":"levelo_inurba_marseille","lat":43.29809,"lon":5.38091,"is_reserved":false,"is_disabled":false,"rental_uris":{"android":"levelo://app?vid=9cc0c0e0-f22e-422e-8353-f151445f4bd4","ios":"levelo://app?vid=9cc0c0e0-f22e-422e-8353-f151445f4bd4"},"vehicle_type_id":"4","last_reported":1730726348,"current_range_meters":28800,"station_id":"","pricing_plan_id":"cebpf4jnsgd1na2vs0mg"},{"bike_id":"8637c130-49b0-4b3d-91c9-cc85ccf0119f","system_id":"levelo_inurba_marseille","lat":43.26026,"lon":5.37548,"is_reserved":false,"is_disabled":false,"rental_uris":{"android":"levelo://app?vid=8637c130-49b0-4b3d-91c9-cc85ccf0119f","ios":"levelo://app?vid=8637c130-49b0-4b3d-91c9-cc85ccf0119f"},"vehicle_type_id":"4","last_reported":1730726348,"current_range_meters":37600,"station_id":"ce4bhgh2rcd13ifvqfa0","pricing_plan_id":"cebpf4jnsgd1na2vs0mg"},{"bike_id":"cb81e8a1-f5c2-4c95-bfcd-076f7f535ffd","system_id":"levelo_inurba_marseille","lat":43.2973,"lon":5.37165,"is_reserved":false,"is_disabled":false,"rental_uris":{"android":"levelo://app?vid=cb81e8a1-f5c2-4c95-bfcd-076f7f535ffd","ios":"levelo://app?vid=cb81e8a1-f5c2-4c95-bfcd-076f7f535ffd"},"vehicle_type_id":"4","last_reported":1730726348,"current_range_meters":19200,"station_id":"","pricing_plan_id":"cebpf4jnsgd1na2vs0mg"},{"bike_id":"b002bdad-c1af-41c6-891d-1723b6bdf0d4","system_id":"levelo_inurba_marseille","lat":43.30943,"lon":5.39038,"is_reserved":false,"is_disabled":false,"rental_uris":{"android":"levelo://app?vid=b002bdad-c1af-41c6-891d-1723b6bdf0d4","ios":"levelo://app?vid=b002bdad-c1af-41c6-891d-1723b6bdf0d4"},"vehicle_type_id":"4","last_reported":1730726348,"current_range_meters":18800,"station_id":"ce4bgup2rcd13ifvqco0","pricing_plan_id":"cebpf4jnsgd1na2vs0mg"},{"bike_id":"5a5ca637-4a18-4597-b859-7ab9a6b224f3","system_id":"levelo_inurba_marseille","lat":43.2315,"lon":5.43727,"is_reserved":false,"is_disabled":false,"rental_uris":{"android":"levelo://app?vid=5a5ca637-4a18-4597-b859-7ab9a6b224f3","ios":"levelo://app?vid=5a5ca637-4a18-4597-b859-7ab9a6b224f3"},"vehicle_type_id":"4","last_reported":1730726348,"current_range_meters":8800,"station_id":"ce4bhmp2rcd13ifvqgog","pricing_plan_id":"cebpf4jnsgd1na2vs0mg"},{"bike_id":"ecf3602f-257a-40da-9d34-ad8a822e58fe","system_id":"levelo_inurba_marseille","lat":43.29568,"lon":5.37516,"is_reserved":false,"is_disabled":false,"rental_uris":{"android":"levelo://app?vid=ecf3602f-257a-40da-9d34-ad8a822e58fe","ios":"levelo://app?vid=ecf3602f-257a-40da-9d34-ad8a822e58fe"},"vehicle_type_id":"4","last_reported":1730726348,"current_range_meters":28000,"station_id":"ce4bgh92rcd13ifvqb50","pricing_plan_id":"cebpf4jnsgd1na2vs0mg"},{"bike_id":"65937ea1-e5ea-4b07-96e9-467ce4dd49ca","system_id":"levelo_inurba_marseille","lat":43.28913,"lon":5.36218,"is_reserved":false,"is_disabled":false,"rental_uris":{"android":"levelo://app?vid=65937ea1-e5ea-4b07-96e9-467ce4dd49ca","ios":"levelo://app?vid=65937ea1-e5ea-4b07-96e9-467ce4dd49ca"},"vehicle_type_id":"4","last_reported":1730726348,"current_range_meters":28800,"station_id":"ce4bha92rcd13ifvqeg0","pricing_plan_id":"cebpf4jnsgd1na2vs0mg"},{"bike_id":"335ca9fd-967d-414d-ae4f-f9703d0e8f09","system_id":"levelo_inurba_marseille","lat":43.27997,"lon":5.4167,"is_reserved":false,"is_disabled":false,"rental_uris":{"android":"levelo://app?vid=335ca9fd-967d-414d-ae4f-f9703d0e8f09","ios":"levelo://app?vid=335ca9fd-967d-414d-ae4f-f9703d0e8f09"},"vehicle_type_id":"4","last_reported":1730726348,"current_range_meters":26800,"station_id":"ce4bho12rcd13ifvqh1g","pricing_plan_id":"cebpf4jnsgd1na2vs0mg"},{"bike_id":"c2e5ff9a-9dd4-479a-9dd6-52948c6f960c","system_id":"levelo_inurba_marseille","lat":43.337568,"lon":5.374549,"is_reserved":false,"is_disabled":false,"rental_uris":{"android":"levelo://app?vid=c2e5ff9a-9dd4-479a-9dd6-52948c6f960c","ios":"levelo://app?vid=c2e5ff9a-9dd4-479a-9dd6-52948c6f960c"},"vehicle_type_id":"4","last_reported":1730726348,"current_range_meters":35600,"station_id":"","pricing_plan_id":"cebpf4jnsgd1na2vs0mg"},{"bike_id":"e517e444-219d-4b66-9484-eb2ced9a385a","system_id":"levelo_inurba_marseille","lat":43.29783,"lon":5.38099,"is_reserved":false,"is_disabled":false,"rental_uris":{"android":"levelo://app?vid=e517e444-219d-4b66-9484-eb2ced9a385a","ios":"levelo://app?vid=e517e444-219d-4b66-9484-eb2ced9a385a"},"vehicle_type_id":"4","last_reported":1730726348,"current_range_meters":30000,"station_id":"ce4bgip2rcd13ifvqbb0","pricing_plan_id":"cebpf4jnsgd1na2vs0mg"},{"bike_id":"b1078aa1-07c9-43e0-baad-b05bfd4fd1d1","system_id":"levelo_inurba_marseille","lat":43.30538,"lon":5.36539,"is_reserved":false,"is_disabled":false,"rental_uris":{"android":"levelo://app?vid=b1078aa1-07c9-43e0-baad-b05bfd4fd1d1","ios":"levelo://app?vid=b1078aa1-07c9-43e0-baad-b05bfd4fd1d1"},"vehicle_type_id":"4","last_reported":1730726348,"current_range_meters":18000,"station_id":"ce4bgs12rcd13ifvqcag","pricing_plan_id":"cebpf4jnsgd1na2vs0mg"},{"bike_id":"a7ce3e07-385e-4247-9f14-8d58313f5c7d","system_id":"levelo_inurba_marseille","lat":43.32329,"lon":5.36748,"is_reserved":false,"is_disabled":false,"rental_uris":{"android":"levelo://app?vid=a7ce3e07-385e-4247-9f14-8d58313f5c7d","ios":"levelo://app?vid=a7ce3e07-385e-4247-9f14-8d58313f5c7d"},"vehicle_type_id":"4","last_reported":1730726348,"current_range_meters":24000,"station_id":"","pricing_plan_id":"cebpf4jnsgd1na2vs0mg"},{"bike_id":"67952a0d-7a12-40f7-9973-075f0ec73383","system_id":"levelo_inurba_marseille","lat":43.27066,"lon":5.4228,"is_reserved":false,"is_disabled":false,"rental_uris":{"android":"levelo://app?vid=67952a0d-7a12-40f7-9973-075f0ec73383","ios":"levelo://app?vid=67952a0d-7a12-40f7-9973-075f0ec73383"},"vehicle_type_id":"4","last_reported":1730726348,"current_range_meters":32000,"station_id":"ce4bhk92rcd13ifvqgb0","pricing_plan_id":"cebpf4jnsgd1na2vs0mg"},{"bike_id":"c7363e4b-82d1-4c55-9d50-f26011d431a1","system_id":"levelo_inurba_marseille","lat":43.33605,"lon":5.41029,"is_reserved":false,"is_disabled":false,"rental_uris":{"android":"levelo://app?vid=c7363e4b-82d1-4c55-9d50-f26011d431a1","ios":"levelo://app?vid=c7363e4b-82d1-4c55-9d50-f26011d431a1"},"vehicle_type_id":"4","last_reported":1730726348,"current_range_meters":16800,"station_id":"ce4bhqh2rcd13ifvqhmg","pricing_plan_id":"cebpf4jnsgd1na2vs0mg"},{"bike_id":"56c05c79-4c9d-4015-b130-4cbb06ba8998","system_id":"levelo_inurba_marseille","lat":43.27319,"lon":5.39089,"is_reserved":false,"is_disabled":false,"rental_uris":{"android":"levelo://app?vid=56c05c79-4c9d-4015-b130-4cbb06ba8998","ios":"levelo://app?vid=56c05c79-4c9d-4015-b130-4cbb06ba8998"},"vehicle_type_id":"4","last_reported":1730726348,"current_range_meters":38000,"station_id":"ce4bhgp2rcd13ifvqfe0","pricing_plan_id":"cebpf4jnsgd1na2vs0mg"},{"bike_id":"b660520d-7bca-4b11-8965-e79652640606","system_id":"levelo_inurba_marseille","lat":43.32357,"lon":5.36765,"is_reserved":false,"is_disabled":false,"rental_uris":{"android":"levelo://app?vid=b660520d-7bca-4b11-8965-e79652640606","ios":"levelo://app?vid=b660520d-7bca-4b11-8965-e79652640606"},"vehicle_type_id":"4","last_reported":1730726348,"current_range_meters":8000,"station_id":"ce4bhsh2rcd13ifvqi2g","pricing_plan_id":"cebpf4jnsgd1na2vs0mg"},{"bike_id":"7b2daa43-2d7a-4e1a-b26e-724f64bf4f37","system_id":"levelo_inurba_marseille","lat":43.284186,"lon":5.349904,"is_reserved":false,"is_disabled":false,"rental_uris":{"android":"levelo://app?vid=7b2daa43-2d7a-4e1a-b26e-724f64bf4f37","ios":"levelo://app?vid=7b2daa43-2d7a-4e1a-b26e-724f64bf4f37"},"vehicle_type_id":"4","last_reported":1730726348,"current_range_meters":38400,"station_id":"ce4bhbh2rcd13ifvqepg","pricing_plan_id":"cebpf4jnsgd1na2vs0mg"},{"bike_id":"b47feee7-ca7b-44b8-983a-5ad0ad2fb4fe","system_id":"levelo_inurba_marseille","lat":43.27206,"lon":5.39195,"is_reserved":false,"is_disabled":false,"rental_uris":{"android":"levelo://app?vid=b47feee7-ca7b-44b8-983a-5ad0ad2fb4fe","ios":"levelo://app?vid=b47feee7-ca7b-44b8-983a-5ad0ad2fb4fe"},"vehicle_type_id":"4","last_reported":1730726348,"current_range_meters":12400,"station_id":"ce4bhhp2rcd13ifvqfm0","pricing_plan_id":"cebpf4jnsgd1na2vs0mg"},{"bike_id":"80335882-1ea1-4a99-b3f3-af3df7340cb7","system_id":"levelo_inurba_marseille","lat":43.26951,"lon":5.38623,"is_reserved":false,"is_disabled":false,"rental_uris":{"android":"levelo://app?vid=80335882-1ea1-4a99-b3f3-af3df7340cb7","ios":"levelo://app?vid=80335882-1ea1-4a99-b3f3-af3df7340cb7"},"vehicle_type_id":"4","last_reported":1730726348,"current_range_meters":38800,"station_id":"ce4bhh92rcd13ifvqfh0","pricing_plan_id":"cebpf4jnsgd1na2vs0mg"},{"bike_id":"63a65b91-603b-4aa1-b0c4-693c0f219c31","system_id":"levelo_inurba_marseille","lat":43.24075,"lon":5.37746,"is_reserved":false,"is_disabled":false,"rental_uris":{"android":"levelo://app?vid=63a65b91-603b-4aa1-b0c4-693c0f219c31","ios":"levelo://app?vid=63a65b91-603b-4aa1-b0c4-693c0f219c31"},"vehicle_type_id":"4","last_reported":1730726348,"current_range_meters":31200,"station_id":"ce4bhnp2rcd13ifvqgvg","pricing_plan_id":"cebpf4jnsgd1na2vs0mg"},{"bike_id":"d0d97701-c95d-46f0-ba63-51bffb584111","system_id":"levelo_inurba_marseille","lat":43.26949,"lon":5.38636,"is_reserved":false,"is_disabled":false,"rental_uris":{"android":"levelo://app?vid=d0d97701-c95d-46f0-ba63-51bffb584111","ios":"levelo://app?vid=d0d97701-c95d-46f0-ba63-51bffb584111"},"vehicle_type_id":"4","last_reported":1730726348,"current_range_meters":39200,"station_id":"ce4bhh92rcd13ifvqfh0","pricing_plan_id":"cebpf4jnsgd1na2vs0mg"},{"bike_id":"96d70380-3283-48bb-bbe8-9af6cbbc74fc","system_id":"levelo_inurba_marseille","lat":43.3014,"lon":5.380923,"is_reserved":false,"is_disabled":false,"rental_uris":{"android":"levelo://app?vid=96d70380-3283-48bb-bbe8-9af6cbbc74fc","ios":"levelo://app?vid=96d70380-3283-48bb-bbe8-9af6cbbc74fc"},"vehicle_type_id":"4","last_reported":1730726348,"current_range_meters":24800,"station_id":"ce4bhlh2rcd13ifvqgig","pricing_plan_id":"cebpf4jnsgd1na2vs0mg"},{"bike_id":"878259de-cb05-477f-9816-b0c844127509","system_id":"levelo_inurba_marseille","lat":43.292,"lon":5.35802,"is_reserved":false,"is_disabled":false,"rental_uris":{"android":"levelo://app?vid=878259de-cb05-477f-9816-b0c844127509","ios":"levelo://app?vid=878259de-cb05-477f-9816-b0c844127509"},"vehicle_type_id":"4","last_reported":1730726348,"current_range_meters":38400,"station_id":"ce4bhb12rcd13ifvqel0","pricing_plan_id":"cebpf4jnsgd1na2vs0mg"},{"bike_id":"408c7d21-9859-4976-80e8-c59e0d490723","system_id":"levelo_inurba_marseille","lat":43.28718,"lon":5.37947,"is_reserved":false,"is_disabled":false,"rental_uris":{"android":"levelo://app?vid=408c7d21-9859-4976-80e8-c59e0d490723","ios":"levelo://app?vid=408c7d21-9859-4976-80e8-c59e0d490723"},"vehicle_type_id":"4","last_reported":1730726348,"current_range_meters":31200,"station_id":"ce4bh9p2rcd13ifvqec0","pricing_plan_id":"cebpf4jnsgd1na2vs0mg"},{"bike_id":"863f9960-afd5-4098-bbef-a3dbd1b2e62f","system_id":"levelo_inurba_marseille","lat":43.2407,"lon":5.37759,"is_reserved":false,"is_disabled":false,"rental_uris":{"android":"levelo://app?vid=863f9960-afd5-4098-bbef-a3dbd1b2e62f","ios":"levelo://app?vid=863f9960-afd5-4098-bbef-a3dbd1b2e62f"},"vehicle_type_id":"4","last_reported":1730726348,"current_range_meters":33200,"station_id":"ce4bhnp2rcd13ifvqgvg","pricing_plan_id":"cebpf4jnsgd1na2vs0mg"},{"bike_id":"7dafb980-498c-4bea-bdc6-2942bbb179b0","system_id":"levelo_inurba_marseille","lat":43.30324,"lon":5.38571,"is_reserved":false,"is_disabled":false,"rental_uris":{"android":"levelo://app?vid=7dafb980-498c-4bea-bdc6-2942bbb179b0","ios":"levelo://app?vid=7dafb980-498c-4bea-bdc6-2942bbb179b0"},"vehicle_type_id":"4","last_reported":1730726348,"current_range_meters":4000,"station_id":"","pricing_plan_id":"cebpf4jnsgd1na2vs0mg"},{"bike_id":"a8728af4-1433-4719-9f1a-af851156fb3b","system_id":"levelo_inurba_marseille","lat":43.29797,"lon":5.381,"is_reserved":false,"is_disabled":false,"rental_uris":{"android":"levelo://app?vid=a8728af4-1433-4719-9f1a-af851156fb3b","ios":"levelo://app?vid=a8728af4-1433-4719-9f1a-af851156fb3b"},"vehicle_type_id":"4","last_reported":1730726348,"current_range_meters":35600,"station_id":"ce4bgip2rcd13ifvqbb0","pricing_plan_id":"cebpf4jnsgd1na2vs0mg"},{"bike_id":"87953497-0718-4edf-9fd9-38a5a46cc7f3","system_id":"levelo_inurba_marseille","lat":43.24077,"lon":5.3775,"is_reserved":false,"is_disabled":false,"rental_uris":{"android":"levelo://app?vid=87953497-0718-4edf-9fd9-38a5a46cc7f3","ios":"levelo://app?vid=87953497-0718-4edf-9fd9-38a5a46cc7f3"},"vehicle_type_id":"4","last_reported":1730726348,"current_range_meters":38800,"station_id":"ce4bhnp2rcd13ifvqgvg","pricing_plan_id":"cebpf4jnsgd1na2vs0mg"},{"bike_id":"328af48d-3db0-406d-8b9d-90b41d97e90b","system_id":"levelo_inurba_marseille","lat":43.31339,"lon":5.36734,"is_reserved":false,"is_disabled":false,"rental_uris":{"android":"levelo://app?vid=328af48d-3db0-406d-8b9d-90b41d97e90b","ios":"levelo://app?vid=328af48d-3db0-406d-8b9d-90b41d97e90b"},"vehicle_type_id":"4","last_reported":1730726348,"current_range_meters":28400,"station_id":"ce4bgr92rcd13ifvqc6g","pricing_plan_id":"cebpf4jnsgd1na2vs0mg"},{"bike_id":"998c594a-afa7-47a9-ac40-847ad22be8a8","system_id":"levelo_inurba_marseille","lat":43.25928,"lon":5.40909,"is_reserved":false,"is_disabled":false,"rental_uris":{"android":"levelo://app?vid=998c594a-afa7-47a9-ac40-847ad22be8a8","ios":"levelo://app?vid=998c594a-afa7-47a9-ac40-847ad22be8a8"},"vehicle_type_id":"4","last_reported":1730726348,"current_range_meters":6000,"station_id":"ce4bhm92rcd13ifvqglg","pricing_plan_id":"cebpf4jnsgd1na2vs0mg"},{"bike_id":"4c8e72b5-aba7-4439-8dcc-1e2370b4bb8a","system_id":"levelo_inurba_marseille","lat":43.30794,"lon":5.43535,"is_reserved":false,"is_disabled":false,"rental_uris":{"android":"levelo://app?vid=4c8e72b5-aba7-4439-8dcc-1e2370b4bb8a","ios":"levelo://app?vid=4c8e72b5-aba7-4439-8dcc-1e2370b4bb8a"},"vehicle_type_id":"4","last_reported":1730726348,"current_range_meters":32800,"station_id":"ce4bhph2rcd13ifvqheg","pricing_plan_id":"cebpf4jnsgd1na2vs0mg"},{"bike_id":"d579d701-026d-417a-b833-12e2cbe8d1a7","system_id":"levelo_inurba_marseille","lat":43.23145,"lon":5.43714,"is_reserved":false,"is_disabled":false,"rental_uris":{"android":"levelo://app?vid=d579d701-026d-417a-b833-12e2cbe8d1a7","ios":"levelo://app?vid=d579d701-026d-417a-b833-12e2cbe8d1a7"},"vehicle_type_id":"4","last_reported":1730726348,"current_range_meters":24000,"station_id":"ce4bhmp2rcd13ifvqgog","pricing_plan_id":"cebpf4jnsgd1na2vs0mg"},{"bike_id":"0c01a2f9-6b94-48cb-892c-7f231ba81827","system_id":"levelo_inurba_marseille","lat":43.24797,"lon":5.37457,"is_reserved":false,"is_disabled":false,"rental_uris":{"android":"levelo://app?vid=0c01a2f9-6b94-48cb-892c-7f231ba81827","ios":"levelo://app?vid=0c01a2f9-6b94-48cb-892c-7f231ba81827"},"vehicle_type_id":"4","last_reported":1730726348,"current_range_meters":38800,"station_id":"ce4bhgh2rcd13ifvqfb0","pricing_plan_id":"cebpf4jnsgd1na2vs0mg"},{"bike_id":"a0b3970e-a304-4d3c-860a-dcd765b16f37","system_id":"levelo_inurba_marseille","lat":43.25116,"lon":5.40321,"is_reserved":false,"is_disabled":false,"rental_uris":{"android":"levelo://app?vid=a0b3970e-a304-4d3c-860a-dcd765b16f37","ios":"levelo://app?vid=a0b3970e-a304-4d3c-860a-dcd765b16f37"},"vehicle_type_id":"4","last_reported":1730726348,"current_range_meters":28800,"station_id":"ce4bhlh2rcd13ifvqgig","pricing_plan_id":"cebpf4jnsgd1na2vs0mg"},{"bike_id":"1dac1e4b-16f0-459c-a017-f78742548329","system_id":"levelo_inurba_marseille","lat":43.29348,"lon":5.37882,"is_reserved":false,"is_disabled":false,"rental_uris":{"android":"levelo://app?vid=1dac1e4b-16f0-459c-a017-f78742548329","ios":"levelo://app?vid=1dac1e4b-16f0-459c-a017-f78742548329"},"vehicle_type_id":"4","last_reported":1730726348,"current_range_meters":31200,"station_id":"ce4bgjh2rcd13ifvqbf0","pricing_plan_id":"cebpf4jnsgd1na2vs0mg"},{"bike_id":"4ad7c7c2-8ff3-4ca5-9524-58a7633dd278","system_id":"levelo_inurba_marseille","lat":43.32477,"lon":5.36564,"is_reserved":false,"is_disabled":false,"rental_uris":{"android":"levelo://app?vid=4ad7c7c2-8ff3-4ca5-9524-58a7633dd278","ios":"levelo://app?vid=4ad7c7c2-8ff3-4ca5-9524-58a7633dd278"},"vehicle_type_id":"4","last_reported":1730726348,"current_range_meters":38800,"station_id":"ce4bhs12rcd13ifvqhvg","pricing_plan_id":"cebpf4jnsgd1na2vs0mg"},{"bike_id":"9b863083-7884-4eaf-9081-4a65fa6ba336","system_id":"levelo_inurba_marseille","lat":43.26554,"lon":5.37291,"is_reserved":false,"is_disabled":false,"rental_uris":{"android":"levelo://app?vid=9b863083-7884-4eaf-9081-4a65fa6ba336","ios":"levelo://app?vid=9b863083-7884-4eaf-9081-4a65fa6ba336"},"vehicle_type_id":"4","last_reported":1730726348,"current_range_meters":10800,"station_id":"ce4bhg12rcd13ifvqf70","pricing_plan_id":"cebpf4jnsgd1na2vs0mg"},{"bike_id":"652f14ff-bcf2-44b1-b689-093359d8cecf","system_id":"levelo_inurba_marseille","lat":43.2872,"lon":5.37946,"is_reserved":false,"is_disabled":false,"rental_uris":{"android":"levelo://app?vid=652f14ff-bcf2-44b1-b689-093359d8cecf","ios":"levelo://app?vid=652f14ff-bcf2-44b1-b689-093359d8cecf"},"vehicle_type_id":"4","last_reported":1730726348,"current_range_meters":3600,"station_id":"ce4bh9p2rcd13ifvqec0","pricing_plan_id":"cebpf4jnsgd1na2vs0mg"},{"bike_id":"cf19ee6a-1dbc-453c-9d95-0d09eedc369d","system_id":"levelo_inurba_marseille","lat":43.30909,"lon":5.36848,"is_reserved":false,"is_disabled":false,"rental_uris":{"android":"levelo://app?vid=cf19ee6a-1dbc-453c-9d95-0d09eedc369d","ios":"levelo://app?vid=cf19ee6a-1dbc-453c-9d95-0d09eedc369d"},"vehicle_type_id":"4","last_reported":1730726348,"current_range_meters":34800,"station_id":"ce4bgn92rcd13ifvqbvg","pricing_plan_id":"cebpf4jnsgd1na2vs0mg"},{"bike_id":"002ae8c1-e9e8-49e4-8f04-2f17fa761a04","system_id":"levelo_inurba_marseille","lat":43.26946,"lon":5.38645,"is_reserved":false,"is_disabled":false,"rental_uris":{"android":"levelo://app?vid=002ae8c1-e9e8-49e4-8f04-2f17fa761a04","ios":"levelo://app?vid=002ae8c1-e9e8-49e4-8f04-2f17fa761a04"},"vehicle_type_id":"4","last_reported":1730726348,"current_range_meters":36000,"station_id":"ce4bhh92rcd13ifvqfh0","pricing_plan_id":"cebpf4jnsgd1na2vs0mg"},