{"last_updated":1685135087,"ttl":30,"version":"2.2","data":{"bikes":[{"bike_id":"dae14076-258d-4f26-a508-60c5cece88b9","system_id":"levelo_inurba_marseille","lat":43.312239,"lon":5.368562,"is_reserved":false,"is_disabled":false,"rental_uris":{"android":"levelo://app?vid=dae14076-258d-4f26-a508-60c5cece88b9","ios":"levelo://app?vid=dae14076-258d-4f26-a508-60c5cece88b9"},"vehicle_type_id":"4","last_reported":1685135087,"current_range_meters":3200,"station_id":"ce4bgl92rcd13ifvqbq0","pricing_plan_id":"free"},{"bike_id":"0e22ce3b-c4bd-4856-919d-fede1ee8e798","system_id":"levelo_inurba_marseille","lat":43.30542,"lon":5.36692,"is_reserved":false,"is_disabled":false,"rental_uris":{"android":"levelo://app?vid=0e22ce3b-c4bd-4856-919d-fede1ee8e798","ios":"levelo://app?vid=0e22ce3b-c4bd-4856-919d-fede1ee8e798"},"vehicle_type_id":"4","last_reported":1685135087,"current_range_meters":2400,"station_id":"","pricing_plan_id":"free"},{"bike_id":"85c391c0-8ed9-4f88-82db-e89055ad9534","system_id":"levelo_inurba_marseille","lat":43.30537,"lon":5.367345,"is_reserved":false,"is_disabled":false,"rental_uris":{"android":"levelo://app?vid=85c391c0-8ed9-4f88-82db-e89055ad9534","ios":"levelo://app?vid=85c391c0-8ed9-4f88-82db-e89055ad9534"},"vehicle_type_id":"4","last_reported":1685135087,"current_range_meters":17600,"station_id":"ce4bgrp2rcd13ifvqc9g","pricing_plan_id":"free"},{"bike_id":"b23c3f4a-3075-4c32-9134-76f47c53e87d","system_id":"levelo_inurba_marseille","lat":43.305368,"lon":5.367343,"is_reserved":false,"is_disabled":false,"rental_uris":{"android":"levelo://app?vid=b23c3f4a-3075-4c32-9134-76f47c53e87d","ios":"levelo://app?vid=b23c3f4a-3075-4c32-9134-76f47c53e87d"},"vehicle_type_id":"4","last_reported":1685135087,"current_range_meters":0,"station_id":"ce4bgrp2rcd13ifvqc9g","pricing_plan_id":"free"},{"bike_id":"2ed85c0f-7d5c-4b0b-8081-3aedc78334ea","system_id":"levelo_inurba_marseille","lat":43.305989,"lon":5.37225,"is_reserved":false,"is_disabled":false,"rental_uris":{"android":"levelo://app?vid=2ed85c0f-7d5c-4b0b-8081-3aedc78334ea","ios":"levelo://app?vid=2ed85c0f-7d5c-4b0b-8081-3aedc78334ea"},"vehicle_type_id":"4","last_reported":1685135087,"current_range_meters":7600,"station_id":"ce4bgqh2rcd13ifvqc4g","pricing_plan_id":"free"},{"bike_id":"b1d47813-b66a-45fd-be70-b8cde36f92b7","system_id":"levelo_inurba_marseille","lat":43.305989,"lon":5.37225,"is_reserved":false,"is_disabled":false,"rental_uris":{"android":"levelo://app?vid=b1d47813-b66a-45fd-be70-b8cde36f92b7","ios":"levelo://app?vid=b1d47813-b66a-45fd-be70-b8cde36f92b7"},"vehicle_type_id":"4","last_reported":1685135087,"current_range_meters":13600,"station_id":"ce4bgqh2rcd13ifvqc4g","pricing_plan_id":"free"},{"bike_id":"b6f6f689-b1c8-4209-b452-210de354c7bf","system_id":"levelo_inurba_marseille","lat":43.305368,"lon":5.367343,"is_reserved":false,"is_disabled":false,"rental_uris":{"android":"levelo://app?vid=b6f6f689-b1c8-4209-b452-210de354c7bf","ios":"levelo://app?vid=b6f6f689-b1c8-4209-b452-210de354c7bf"},"vehicle_type_id":"4","last_reported":1685135087,"current_range_meters":6400,"station_id":"ce4bgrp2rcd13ifvqc9g","pricing_plan_id":"free"},{"bike_id":"9228354f-aee1-4f6d-bf9a-8f82b491c6d3","system_id":"levelo_inurba_marseille","lat":43.31709,"lon":5.37739,"is_reserved":false,"is_disabled":false,"rental_uris":{"android":"levelo://app?vid=9228354f-aee1-4f6d-bf9a-8f82b491c6d3","ios":"levelo://app?vid=9228354f-aee1-4f6d-bf9a-8f82b491c6d3"},"vehicle_type_id":"4","last_reported":1685135087,"current_range_meters":13600,"station_id":"ce4bgth2rcd13ifvqch0","pricing_plan_id":"free"},{"bike_id":"f47b8c93-abbd-42bc-9979-f8f6f8e17204","system_id":"levelo_inurba_marseille","lat":43.31707,"lon":5.37756,"is_reserved":false,"is_disabled":false,"rental_uris":{"android":"levelo://app?vid=f47b8c93-abbd-42bc-9979-f8f6f8e17204","ios":"levelo://app?vid=f47b8c93-abbd-42bc-9979-f8f6f8e17204"},"vehicle_type_id":"4","last_reported":1685135087,"current_range_meters":12000,"station_id":"ce4bgth2rcd13ifvqch0","pricing_plan_id":"free"},{"bike_id":"c0b0d062-8275-40cf-8874-7d9d55ab7e88","system_id":"levelo_inurba_marseille","lat":43.31713,"lon":5.37832,"is_reserved":false,"is_disabled":false,"rental_uris":{"android":"levelo://app?vid=c0b0d062-8275-40cf-8874-7d9d55ab7e88","ios":"levelo://app?vid=c0b0d062-8275-40cf-8874-7d9d55ab7e88"},"vehicle_type_id":"4","last_reported":1685135087,"current_range_meters":23200,"station_id":"","pricing_plan_id":"free"},{"bike_id":"f3e7fce9-5edd-4b52-b2e3-b62fae0f14e7","system_id":"levelo_inurba_marseille","lat":43.315293,"lon":5.380349,"is_reserved":false,"is_disabled":false,"rental_uris":{"android":"levelo://app?vid=f3e7fce9-5edd-4b52-b2e3-b62fae0f14e7","ios":"levelo://app?vid=f3e7fce9-5edd-4b52-b2e3-b62fae0f14e7"},"vehicle_type_id":"4","last_reported":1685135087,"current_range_meters":23200,"station_id":"ce4bhsp2rcd13ifvqi50","pricing_plan_id":"free"},{"bike_id":"b3c020c6-60b8-4bc1-a674-e8a4668b5645","system_id":"levelo_inurba_marseille","lat":43.30186,"lon":5.36604,"is_reserved":false,"is_disabled":false,"rental_uris":{"android":"levelo://app?vid=b3c020c6-60b8-4bc1-a674-e8a4668b5645","ios":"levelo://app?vid=b3c020c6-60b8-4bc1-a674-e8a4668b5645"},"vehicle_type_id":"4","last_reported":1685135087,"current_range_meters":1600,"station_id":"ce4bgrh2rcd13ifvqc8g","pricing_plan_id":"free"},{"bike_id":"15085faf-94d1-454c-8de1-c9482918e24b","system_id":"levelo_inurba_marseille","lat":43.31992,"lon":5.38151,"is_reserved":false,"is_disabled":false,"rental_uris":{"android":"levelo://app?vid=15085faf-94d1-454c-8de1-c9482918e24b","ios":"levelo://app?vid=15085faf-94d1-454c-8de1-c9482918e24b"},"vehicle_type_id":"4","last_reported":1685135087,"current_range_meters":7600,"station_id":"ce4bhr12rcd13ifvqhpg","pricing_plan_id":"free"},{"bike_id":"e5571f58-adb6-49b7-8c86-2d757ae8e1a0","system_id":"levelo_inurba_marseille","lat":43.31998,"lon":5.38148,"is_reserved":false,"is_disabled":false,"rental_uris":{"android":"levelo://app?vid=e5571f58-adb6-49b7-8c86-2d757ae8e1a0","ios":"levelo://app?vid=e5571f58-adb6-49b7-8c86-2d757ae8e1a0"},"vehicle_type_id":"4","last_reported":1685135087,"current_range_meters":16800,"station_id":"ce4bhr12rcd13ifvqhpg","pricing_plan_id":"free"},{"bike_id":"46349676-80ed-44a7-9bea-3a55a4175303","system_id":"levelo_inurba_marseille","lat":43.31992,"lon":5.38156,"is_reserved":false,"is_disabled":false,"rental_uris":{"android":"levelo://app?vid=46349676-80ed-44a7-9bea-3a55a4175303","ios":"levelo://app?vid=46349676-80ed-44a7-9bea-3a55a4175303"},"vehicle_type_id":"4","last_reported":1685135087,"current_range_meters":8800,"station_id":"ce4bhr12rcd13ifvqhpg","pricing_plan_id":"free"},{"bike_id":"5f66b5c8-c13e-4e6a-af73-99f8edb1fe4e","system_id":"levelo_inurba_marseille","lat":43.31995,"lon":5.3816,"is_reserved":false,"is_disabled":false,"rental_uris":{"android":"levelo://app?vid=5f66b5c8-c13e-4e6a-af73-99f8edb1fe4e","ios":"levelo://app?vid=5f66b5c8-c13e-4e6a-af73-99f8edb1fe4e"},"vehicle_type_id":"4","last_reported":1685135087,"current_range_meters":19600,"station_id":"ce4bhr12rcd13ifvqhpg","pricing_plan_id":"free"},{"bike_id":"7efe62c0-b2f0-4a0b-b673-f79ab860cb0d","system_id":"levelo_inurba_marseille","lat":43.313571,"lon":5.384829,"is_reserved":false,"is_disabled":false,"rental_uris":{"android":"levelo://app?vid=7efe62c0-b2f0-4a0b-b673-f79ab860cb0d","ios":"levelo://app?vid=7efe62c0-b2f0-4a0b-b673-f79ab860cb0d"},"vehicle_type_id":"4","last_reported":1685135087,"current_range_meters":8000,"station_id":"ce4bgt92rcd13ifvqcf0","pricing_plan_id":"free"},{"bike_id":"97b214bf-1b61-4e27-8be9-9ee88855c248","system_id":"levelo_inurba_marseille","lat":43.313571,"lon":5.384829,"is_reserved":false,"is_disabled":false,"rental_uris":{"android":"levelo://app?vid=97b214bf-1b61-4e27-8be9-9ee88855c248","ios":"levelo://app?vid=97b214bf-1b61-4e27-8be9-9ee88855c248"},"vehicle_type_id":"4","last_reported":1685135087,"current_range_meters":9200,"station_id":"ce4bgt92rcd13ifvqcf0","pricing_plan_id":"free"},{"bike_id":"c54a9467-eb1a-467c-b99a-2911073c7cb1","system_id":"levelo_inurba_marseille","lat":43.313571,"lon":5.384829,"is_reserved":false,"is_disabled":false,"rental_uris":{"android":"levelo://app?vid=c54a9467-eb1a-467c-b99a-2911073c7cb1","ios":"levelo://app?vid=c54a9467-eb1a-467c-b99a-2911073c7cb1"},"vehicle_type_id":"4","last_reported":1685135087,"current_range_meters":8800,"station_id":"ce4bgt92rcd13ifvqcf0","pricing_plan_id":"free"},{"bike_id":"c7781619-e55e-4ac4-b8b3-4561d131adca","system_id":"levelo_inurba_marseille","lat":43.313571,"lon":5.384829,"is_reserved":false,"is_disabled":false,"rental_uris":{"android":"levelo://app?vid=c7781619-e55e-4ac4-b8b3-4561d131adca","ios":"levelo://app?vid=c7781619-e55e-4ac4-b8b3-4561d131adca"},"vehicle_type_id":"4","last_reported":1685135087,"current_range_meters":5200,"station_id":"ce4bgt92rcd13ifvqcf0","pricing_plan_id":"free"},{"bike_id":"282e49a3-da6d-4821-a4f5-b04fc5157ca6","system_id":"levelo_inurba_marseille","lat":43.313571,"lon":5.384829,"is_reserved":false,"is_disabled":false,"rental_uris":{"android":"levelo://app?vid=282e49a3-da6d-4821-a4f5-b04fc5157ca6","ios":"levelo://app?vid=282e49a3-da6d-4821-a4f5-b04fc5157ca6"},"vehicle_type_id":"4","last_reported":1685135087,"current_range_meters":18000,"station_id":"ce4bgt92rcd13ifvqcf0","pricing_plan_id":"free"},{"bike_id":"9aa0181f-a722-469f-8f40-be6b8f468fb7","system_id":"levelo_inurba_marseille","lat":43.299222,"lon":5.365554,"is_reserved":false,"is_disabled":false,"rental_uris":{"android":"levelo://app?vid=9aa0181f-a722-469f-8f40-be6b8f468fb7","ios":"levelo://app?vid=9aa0181f-a722-469f-8f40-be6b8f468fb7"},"vehicle_type_id":"4","last_reported":1685135087,"current_range_meters":0,"station_id":"ce4bgm92rcd13ifvqbr0","pricing_plan_id":"free"},{"bike_id":"c4603a07-e82a-4229-9745-4da2a1337bb7","system_id":"levelo_inurba_marseille","lat":43.29848,"lon":5.36284,"is_reserved":false,"is_disabled":false,"rental_uris":{"android":"levelo://app?vid=c4603a07-e82a-4229-9745-4da2a1337bb7","ios":"levelo://app?vid=c4603a07-e82a-4229-9745-4da2a1337bb7"},"vehicle_type_id":"4","last_reported":1685135087,"current_range_meters":14800,"station_id":"ce4bgpp2rcd13ifvqc3g","pricing_plan_id":"free"},{"bike_id":"65621de8-a82e-45e0-a6df-74e9295f264e","system_id":"levelo_inurba_marseille","lat":43.298433,"lon":5.362774,"is_reserved":false,"is_disabled":false,"rental_uris":{"android":"levelo://app?vid=65621de8-a82e-45e0-a6df-74e9295f264e","ios":"levelo://app?vid=65621de8-a82e-45e0-a6df-74e9295f264e"},"vehicle_type_id":"4","last_reported":1685135087,"current_range_meters":20400,"station_id":"ce4bgpp2rcd13ifvqc3g","pricing_plan_id":"free"},{"bike_id":"a7ec12f9-521b-4fe7-8e31-e6601b7e04a4","system_id":"levelo_inurba_marseille","lat":43.2984,"lon":5.36264,"is_reserved":false,"is_disabled":false,"rental_uris":{"android":"levelo://app?vid=a7ec12f9-521b-4fe7-8e31-e6601b7e04a4","ios":"levelo://app?vid=a7ec12f9-521b-4fe7-8e31-e6601b7e04a4"},"vehicle_type_id":"4","last_reported":1685135087,"current_range_meters":28800,"station_id":"ce4bgpp2rcd13ifvqc3g","pricing_plan_id":"free"},{"bike_id":"04e0eaad-e904-4500-aace-9c4504be684d","system_id":"levelo_inurba_marseille","lat":43.311722,"lon":5.387247,"is_reserved":false,"is_disabled":false,"rental_uris":{"android":"levelo://app?vid=04e0eaad-e904-4500-aace-9c4504be684d","ios":"levelo://app?vid=04e0eaad-e904-4500-aace-9c4504be684d"},"vehicle_type_id":"4","last_reported":1685135087,"current_range_meters":22800,"station_id":"ce4bgv12rcd13ifvqcp0","pricing_plan_id":"free"},{"bike_id":"057c3517-864c-4de6-a954-2760993ac286","system_id":"levelo_inurba_marseille","lat":43.299243,"lon":5.374807,"is_reserved":false,"is_disabled":false,"rental_uris":{"android":"levelo://app?vid=057c3517-864c-4de6-a954-2760993ac286","ios":"levelo://app?vid=057c3517-864c-4de6-a954-2760993ac286"},"vehicle_type_id":"4","last_reported":1685135087,"current_range_meters":9600,"station_id":"ce4bgjh2rcd13ifvqbg0","pricing_plan_id":"free"},{"bike_id":"f4767b7a-e778-4275-97e8-cc92897cd8b8","system_id":"levelo_inurba_marseille","lat":43.297774,"lon":5.370875,"is_reserved":false,"is_disabled":false,"rental_uris":{"android":"levelo://app?vid=f4767b7a-e778-4275-97e8-cc92897cd8b8","ios":"levelo://app?vid=f4767b7a-e778-4275-97e8-cc92897cd8b8"},"vehicle_type_id":"4","last_reported":1685135087,"current_range_meters":18400,"station_id":"ce4bgop2rcd13ifvqc1g","pricing_plan_id":"free"},{"bike_id":"ae20297a-7d03-4de7-8c2e-c71212d35d77","system_id":"levelo_inurba_marseille","lat":43.297794,"lon":5.370888,"is_reserved":false,"is_disabled":false,"rental_uris":{"android":"levelo://app?vid=ae20297a-7d03-4de7-8c2e-c71212d35d77","ios":"levelo://app?vid=ae20297a-7d03-4de7-8c2e-c71212d35d77"},"vehicle_type_id":"4","last_reported":1685135087,"current_range_meters":31200,"station_id":"ce4bgop2rcd13ifvqc1g","pricing_plan_id":"free"},{"bike_id":"7532acfe-ca4a-4447-9989-b4f15137ce01","system_id":"levelo_inurba_marseille","lat":43.297794,"lon":5.370888,"is_reserved":false,"is_disabled":false,"rental_uris":{"android":"levelo://app?vid=7532acfe-ca4a-4447-9989-b4f15137ce01","ios":"levelo://app?vid=7532acfe-ca4a-4447-9989-b4f15137ce01"},"vehicle_type_id":"4","last_reported":1685135087,"current_range_meters":28400,"station_id":"ce4bgop2rcd13ifvqc1g","pricing_plan_id":"free"},{"bike_id":"5652c1f8-815f-469d-8fcb-efb1b722436f","system_id":"levelo_inurba_marseille","lat":43.297794,"lon":5.370888,"is_reserved":false,"is_disabled":false,"rental_uris":{"android":"levelo://app?vid=5652c1f8-815f-469d-8fcb-efb1b722436f","ios":"levelo://app?vid=5652c1f8-815f-469d-8fcb-efb1b722436f"},"vehicle_type_id":"4","last_reported":1685135087,"current_range_meters":27200,"station_id":"ce4bgop2rcd13ifvqc1g","pricing_plan_id":"free"},{"bike_id":"005b8460-ebc8-4406-b23f-ad9979fe05fd","system_id":"levelo_inurba_marseille","lat":43.297774,"lon":5.370875,"is_reserved":false,"is_disabled":false,"rental_uris":{"android":"levelo://app?vid=005b8460-ebc8-4406-b23f-ad9979fe05fd","ios":"levelo://app?vid=005b8460-ebc8-4406-b23f-ad9979fe05fd"},"vehicle_type_id":"4","last_reported":1685135087,"current_range_meters":19200,"station_id":"ce4bgop2rcd13ifvqc1g","pricing_plan_id":"free"},{"bike_id":"d198d2d7-56c5-4371-beb0-523e5aeec357","system_id":"levelo_inurba_marseille","lat":43.297791,"lon":5.371137,"is_reserved":false,"is_disabled":false,"rental_uris":{"android":"levelo://app?vid=d198d2d7-56c5-4371-beb0-523e5aeec357","ios":"levelo://app?vid=d198d2d7-56c5-4371-beb0-523e5aeec357"},"vehicle_type_id":"4","last_reported":1685135087,"current_range_meters":29200,"station_id":"","pricing_plan_id":"free"},{"bike_id":"51337bfd-a42e-4d1d-a61d-ad4456860b74","system_id":"levelo_inurba_marseille","lat":43.297774,"lon":5.370875,"is_reserved":false,"is_disabled":false,"rental_uris":{"android":"levelo://app?vid=51337bfd-a42e-4d1d-a61d-ad4456860b74","ios":"levelo://app?vid=51337bfd-a42e-4d1d-a61d-ad4456860b74"},"vehicle_type_id":"4","last_reported":1685135087,"current_range_meters":28800,"station_id":"ce4bgop2rcd13ifvqc1g","pricing_plan_id":"free"},{"bike_id":"f0b10346-21a9-4eef-a2bd-82135384a49a","system_id":"levelo_inurba_marseille","lat":43.297774,"lon":5.370875,"is_reserved":false,"is_disabled":false,"rental_uris":{"android":"levelo://app?vid=f0b10346-21a9-4eef-a2bd-82135384a49a","ios":"levelo://app?vid=f0b10346-21a9-4eef-a2bd-82135384a49a"},"vehicle_type_id":"4","last_reported":1685135087,"current_range_meters":31200,"station_id":"ce4bgop2rcd13ifvqc1g","pricing_plan_id":"free"},{"bike_id":"ff7c3ed0-2f42-4b40-bf24-f1914474dfa6","system_id":"levelo_inurba_marseille","lat":43.328371,"lon":5.366909,"is_reserved":false,"is_disabled":false,"rental_uris":{"android":"levelo://app?vid=ff7c3ed0-2f42-4b40-bf24-f1914474dfa6","ios":"levelo://app?vid=ff7c3ed0-2f42-4b40-bf24-f1914474dfa6"},"vehicle_type_id":"4","last_reported":1685135087,"current_range_meters":18000,"station_id":"ce4bhs92rcd13ifvqi0g","pricing_plan_id":"free"},{"bike_id":"15bdd509-ac6b-486d-a3af-74b1c552f2cb","system_id":"levelo_inurba_marseille","lat":43.32833,"lon":5.36689,"is_reserved":false,"is_disabled":false,"rental_uris":{"android":"levelo://app?vid=15bdd509-ac6b-486d-a3af-74b1c552f2cb","ios":"levelo://app?vid=15bdd509-ac6b-486d-a3af-74b1c552f2cb"},"vehicle_type_id":"4","last_reported":1685135087,"current_range_meters":14400,"station_id":"ce4bhs92rcd13ifvqi0g","pricing_plan_id":"free"},{"bike_id":"fd2f7b4b-349a-4854-83fe-5b667e45995a","system_id":"levelo_inurba_marseille","lat":43.31497,"lon":5.38925,"is_reserved":false,"is_disabled":false,"rental_uris":{"android":"levelo://app?vid=fd2f7b4b-349a-4854-83fe-5b667e45995a","ios":"levelo://app?vid=fd2f7b4b-349a-4854-83fe-5b667e45995a"},"vehicle_type_id":"4","last_reported":1685135087,"current_range_meters":23200,"station_id":"","pricing_plan_id":"free"},{"bike_id":"521a2ae4-946b-47bf-ba22-cf10bef5a9f9","system_id":"levelo_inurba_marseille","lat":43.29623,"lon":5.37149,"is_reserved":false,"is_disabled":false,"rental_uris":{"android":"levelo://app?vid=521a2ae4-946b-47bf-ba22-cf10bef5a9f9","ios":"levelo://app?vid=521a2ae4-946b-47bf-ba22-cf10bef5a9f9"},"vehicle_type_id":"4","last_reported":1685135087,"current_range_meters":13200,"station_id":"ce4bgk12rcd13ifvqbj0","pricing_plan_id":"free"},{"bike_id":"fdf0a725-9c01-4908-8366-413d4cb876aa","system_id":"levelo_inurba_marseille","lat":43.296129,"lon":5.370777,"is_reserved":false,"is_disabled":false,"rental_uris":{"android":"levelo://app?vid=fdf0a725-9c01-4908-8366-413d4cb876aa","ios":"levelo://app?vid=fdf0a725-9c01-4908-8366-413d4cb876aa"},"vehicle_type_id":"4","last_reported":1685135087,"current_range_meters":9600,"station_id":"ce4bgnh2rcd13ifvqc0g","pricing_plan_id":"free"},{"bike_id":"d2e562fe-f4ca-4d50-b9c6-6b304728701d","system_id":"levelo_inurba_marseille","lat":43.311722,"lon":5.387247,"is_reserved":false,"is_disabled":false,"rental_uris":{"android":"levelo://app?vid=d2e562fe-f4ca-4d50-b9c6-6b304728701d","ios":"levelo://app?vid=d2e562fe-f4ca-4d50-b9c6-6b304728701d"},"vehicle_type_id":"4","last_reported":1685135087,"current_range_meters":18000,"station_id":"ce4bgv12rcd13ifvqcp0","pricing_plan_id":"free"},{"bike_id":"76b6e55f-2900-4abe-b944-87c2d29d343e","system_id":"levelo_inurba_marseille","lat":43.309589,"lon":5.390258,"is_reserved":false,"is_disabled":false,"rental_uris":{"android":"levelo://app?vid=76b6e55f-2900-4abe-b944-87c2d29d343e","ios":"levelo://app?vid=76b6e55f-2900-4abe-b944-87c2d29d343e"},"vehicle_type_id":"4","last_reported":1685135087,"current_range_meters":3200,"station_id":"ce4bgup2rcd13ifvqco0","pricing_plan_id":"free"},{"bike_id":"d7f266a6-ce15-437e-86aa-7112b7a80e12","system_id":"levelo_inurba_marseille","lat":43.30942,"lon":5.39028,"is_reserved":false,"is_disabled":false,"rental_uris":{"android":"levelo://app?vid=d7f266a6-ce15-437e-86aa-7112b7a80e12","ios":"levelo://app?vid=d7f266a6-ce15-437e-86aa-7112b7a80e12"},"vehicle_type_id":"4","last_reported":1685135087,"current_range_meters":0,"station_id":"ce4bgup2rcd13ifvqco0","pricing_plan_id":"free"},{"bike_id":"210c85bb-fe3d-4a5e-93a8-0f61f249b038","system_id":"levelo_inurba_marseille","lat":43.309589,"lon":5.390258,"is_reserved":false,"is_disabled":false,"rental_uris":{"android":"levelo://app?vid=210c85bb-fe3d-4a5e-93a8-0f61f249b038","ios":"levelo://app?vid=210c85bb-fe3d-4a5e-93a8-0f61f249b038"},"vehicle_type_id":"4","last_reported":1685135087,"current_range_meters":0,"station_id":"ce4bgup2rcd13ifvqco0","pricing_plan_id":"free"},{"bike_id":"0a80d5e9-ad49-415c-9ece-72c4359f066d","system_id":"levelo_inurba_marseille","lat":43.317557,"lon":5.390173,"is_reserved":false,"is_disabled":false,"rental_uris":{"android":"levelo://app?vid=0a80d5e9-ad49-415c-9ece-72c4359f066d","ios":"levelo://app?vid=0a80d5e9-ad49-415c-9ece-72c4359f066d"},"vehicle_type_id":"4","last_reported":1685135087,"current_range_meters":24800,"station_id":"ce4bhqp2rcd13ifvqhng","pricing_plan_id":"free"},{"bike_id":"cf3fb89a-c959-4f23-8f03-a98d306de8af","system_id":"levelo_inurba_marseille","lat":43.317557,"lon":5.390173,"is_reserved":false,"is_disabled":false,"rental_uris":{"android":"levelo://app?vid=cf3fb89a-c959-4f23-8f03-a98d306de8af","ios":"levelo://app?vid=cf3fb89a-c959-4f23-8f03-a98d306de8af"},"vehicle_type_id":"4","last_reported":1685135087,"current_range_meters":24000,"station_id":"ce4bhqp2rcd13ifvqhng","pricing_plan_id":"free"},{"bike_id":"774ce504-2767-4c7f-b9b2-adba2127074c","system_id":"levelo_inurba_marseille","lat":43.317557,"lon":5.390173,"is_reserved":false,"is_disabled":false,"rental_uris":{"android":"levelo://app?vid=774ce504-2767-4c7f-b9b2-adba2127074c","ios":"levelo://app?vid=774ce504-2767-4c7f-b9b2-adba2127074c"},"vehicle_type_id":"4","last_reported":1685135087,"current_range_meters":28000,"station_id":"ce4bhqp2rcd13ifvqhng","pricing_plan_id":"free"},{"bike_id":"b760dc60-6d37-49c7-8dde-1a371397cdb8","system_id":"levelo_inurba_marseille","lat":43.317557,"lon":5.390173,"is_reserved":false,"is_disabled":false,"rental_uris":{"android":"levelo://app?vid=b760dc60-6d37-49c7-8dde-1a371397cdb8","ios":"levelo://app?vid=b760dc60-6d37-49c7-8dde-1a371397cdb8"},"vehicle_type_id":"4","last_reported":1685135087,"current_range_meters":28400,"station_id":"ce4bhqp2rcd13ifvqhng","pricing_plan_id":"free"},{"bike_id":"dbc6babd-04bd-4f3a-96e2-13f0529b2267","system_id":"levelo_inurba_marseille","lat":43.292749,"lon":5.368402,"is_reserved":false,"is_disabled":false,"rental_uris":{"android":"levelo://app?vid=dbc6babd-04bd-4f3a-96e2-13f0529b2267","ios":"levelo://app?vid=dbc6babd-04bd-4f3a-96e2-13f0529b2267"},"vehicle_type_id":"4","last_reported":1685135087,"current_range_meters":0,"station_id":"ce4bhbp2rcd13ifvqesg","pricing_plan_id":"free"},{"bike_id":"dfa5ecb0-c9ef-492a-9a3c-85fe473c8727","system_id":"levelo_inurba_marseille","lat":43.29305,"lon":5.37452,"is_reserved":false,"is_disabled":false,"rental_uris":{"android":"levelo://app?vid=dfa5ecb0-c9ef-492a-9a3c-85fe473c8727","ios":"levelo://app?vid=dfa5ecb0-c9ef-492a-9a3c-85fe473c8727"},"vehicle_type_id":"4","last_reported":1685135087,"current_range_meters":800,"station_id":"ce4bgi12rcd13ifvqb70","pricing_plan_id":"free"},{"bike_id":"7ffb8970-6963-4d60-8870-bb87abeea31c","system_id":"levelo_inurba_marseille","lat":43.305994,"lon":5.393687,"is_reserved":false,"is_disabled":false,"rental_uris":{"android":"levelo://app?vid=7ffb8970-6963-4d60-8870-bb87abeea31c","ios":"levelo://app?vid=7ffb8970-6963-4d60-8870-bb87abeea31c"},"vehicle_type_id":"4","last_reported":1685135087,"current_range_meters":4400,"station_id":"ce4bh0p2rcd13ifvqd80","pricing_plan_id":"free"},{"bike_id":"f11bd125-d0cf-458a-b939-a63fa0ed69bf","system_id":"levelo_inurba_marseille","lat":43.305994,"lon":5.393687,"is_reserved":false,"is_disabled":false,"rental_uris":{"android":"levelo://app?vid=f11bd125-d0cf-458a-b939-a63fa0ed69bf","ios":"levelo://app?vid=f11bd125-d0cf-458a-b939-a63fa0ed69bf"},"vehicle_type_id":"4","last_reported":1685135087,"current_range_meters":1600,"station_id":"ce4bh0p2rcd13ifvqd80","pricing_plan_id":"free"},{"bike_id":"c72d2722-7e91-4b1e-8913-1c4ea45f8156","system_id":"levelo_inurba_marseille","lat":43.293009,"lon":5.374584,"is_reserved":false,"is_disabled":false,"rental_uris":{"android":"levelo://app?vid=c72d2722-7e91-4b1e-8913-1c4ea45f8156","ios":"levelo://app?vid=c72d2722-7e91-4b1e-8913-1c4ea45f8156"},"vehicle_type_id":"4","last_reported":1685135087,"current_range_meters":21600,"station_id":"ce4bgi12rcd13ifvqb70","pricing_plan_id":"free"},{"bike_id":"5b6cf0a7-9268-4ecc-a234-3b352b909802","system_id":"levelo_inurba_marseille","lat":43.305994,"lon":5.393687,"is_reserved":false,"is_disabled":false,"rental_uris":{"android":"levelo://app?vid=5b6cf0a7-9268-4ecc-a234-3b352b909802","ios":"levelo://app?vid=5b6cf0a7-9268-4ecc-a234-3b352b909802"},"vehicle_type_id":"4","last_reported":1685135087,"current_range_meters":25600,"station_id":"ce4bh0p2rcd13ifvqd80","pricing_plan_id":"free"},{"bike_id":"2231e93a-cf5b-4e3a-a0d5-fa6d3f15c551","system_id":"levelo_inurba_marseille","lat":43.305994,"lon":5.393687,"is_reserved":false,"is_disabled":false,"rental_uris":{"android":"levelo://app?vid=2231e93a-cf5b-4e3a-a0d5-fa6d3f15c551","ios":"levelo://app?vid=2231e93a-cf5b-4e3a-a0d5-fa6d3f15c551"},"vehicle_type_id":"4","last_reported":1685135087,"current_range_meters":6800,"station_id":"ce4bh0p2rcd13ifvqd80","pricing_plan_id":"free"},{"bike_id":"aadf27cc-5db4-42eb-8733-763857df27aa","system_id":"levelo_inurba_marseille","lat":43.30088,"lon":5.39076,"is_reserved":false,"is_disabled":false,"rental_uris":{"android":"levelo://app?vid=aadf27cc-5db4-42eb-8733-763857df27aa","ios":"levelo://app?vid=aadf27cc-5db4-42eb-8733-763857df27aa"},"vehicle_type_id":"4","last_reported":1685135087,"current_range_meters":0,"station_id":"ce4bh192rcd13ifvqdb0","pricing_plan_id":"free"},{"bike_id":"96efd632-fbea-4a7d-a92f-53ba32c920e0","system_id":"levelo_inurba_marseille","lat":43.300852,"lon":5.390859,"is_reserved":false,"is_disabled":false,"rental_uris":{"android":"levelo://app?vid=96efd632-fbea-4a7d-a92f-53ba32c920e0","ios":"levelo://app?vid=96efd632-fbea-4a7d-a92f-53ba32c920e0"},"vehicle_type_id":"4","last_reported":1685135087,"current_range_meters":4400,"station_id":"ce4bh192rcd13ifvqdb0","pricing_plan_id":"free"},{"bike_id":"902f900b-40c8-4e8f-8130-ea5845de9aaf","system_id":"levelo_inurba_marseille","lat":43.31323,"lon":5.39692,"is_reserved":false,"is_disabled":false,"rental_uris":{"android":"levelo://app?vid=902f900b-40c8-4e8f-8130-ea5845de9aaf","ios":"levelo://app?vid=902f900b-40c8-4e8f-8130-ea5845de9aaf"},"vehicle_type_id":"4","last_reported":1685135087,"current_range_meters":2000,"station_id":"","pricing_plan_id":"free"},{"bike_id":"9b4e8208-6d52-4f13-8ec9-483de889b4d5","system_id":"levelo_inurba_marseille","lat":43.31325,"lon":5.39693,"is_reserved":false,"is_disabled":false,"rental_uris":{"android":"levelo://app?vid=9b4e8208-6d52-4f13-8ec9-483de889b4d5","ios":"levelo://app?vid=9b4e8208-6d52-4f13-8ec9-483de889b4d5"},"vehicle_type_id":"4","last_reported":1685135087,"current_range_meters":0,"station_id":"ce4bgvp2rcd13ifvqcu0","pricing_plan_id":"free"},{"bike_id":"e83efb7a-b88f-4299-9dc5-8a967077d059","system_id":"levelo_inurba_marseille","lat":43.309038,"lon":5.396546,"is_reserved":false,"is_disabled":false,"rental_uris":{"android":"levelo://app?vid=e83efb7a-b88f-4299-9dc5-8a967077d059","ios":"levelo://app?vid=e83efb7a-b88f-4299-9dc5-8a967077d059"},"vehicle_type_id":"4","last_reported":1685135087,"current_range_meters":6000,"station_id":"ce4bh012rcd13ifvqcv0","pricing_plan_id":"free"},{"bike_id":"3f9f0aa6-ed7e-4c2a-b4ae-2c96a41d9498","system_id":"levelo_inurba_marseille","lat":43.29529,"lon":5.385581,"is_reserved":false,"is_disabled":false,"rental_uris":{"android":"levelo://app?vid=3f9f0aa6-ed7e-4c2a-b4ae-2c96a41d9498","ios":"levelo://app?vid=3f9f0aa6-ed7e-4c2a-b4ae-2c96a41d9498"},"vehicle_type_id":"4","last_reported":1685135087,"current_range_meters":6800,"station_id":"ce4bgih2rcd13ifvqba0","pricing_plan_id":"free"},{"bike_id":"0c0ab4aa-2a33-44e2-9c09-ef9b12bcd7e7","system_id":"levelo_inurba_marseille","lat":43.290779,"lon":5.371482,"is_reserved":false,"is_disabled":false,"rental_uris":{"android":"levelo://app?vid=0c0ab4aa-2a33-44e2-9c09-ef9b12bcd7e7","ios":"levelo://app?vid=0c0ab4aa-2a33-44e2-9c09-ef9b12bcd7e7"},"vehicle_type_id":"4","last_reported":1685135087,"current_range_meters":13200,"station_id":"ce4bh5p2rcd13ifvqe4g","pricing_plan_id":"free"},{"bike_id":"02c3c6b2-d1e0-4ef6-a67d-dd7508efd795","system_id":"levelo_inurba_marseille","lat":43.290779,"lon":5.371482,"is_reserved":false,"is_disabled":false,"rental_uris":{"android":"levelo://app?vid=02c3c6b2-d1e0-4ef6-a67d-dd7508efd795","ios":"levelo://app?vid=02c3c6b2-d1e0-4ef6-a67d-dd7508efd795"},"vehicle_type_id":"4","last_reported":1685135087,"current_range_meters":6400,"station_id":"ce4bh5p2rcd13ifvqe4g","pricing_plan_id":"free"},{"bike_id":"01f89ae4-6af3-4309-90e5-0b3a6bfdb489","system_id":"levelo_inurba_marseille","lat":43.290779,"lon":5.371482,"is_reserved":false,"is_disabled":false,"rental_uris":{"android":"levelo://app?vid=01f89ae4-6af3-4309-90e5-0b3a6bfdb489","ios":"levelo://app?vid=01f89ae4-6af3-4309-90e5-0b3a6bfdb489"},"vehicle_type_id":"4","last_reported":1685135087,"current_range_meters":0,"station_id":"ce4bh5p2rcd13ifvqe4g","pricing_plan_id":"free"},{"bike_id":"11c9f11f-0d79-4d54-a818-863a9aacb5f4","system_id":"levelo_inurba_marseille","lat":43.302008,"lon":5.394694,"is_reserved":false,"is_disabled":false,"rental_uris":{"android":"levelo://app?vid=11c9f11f-0d79-4d54-a818-863a9aacb5f4","ios":"levelo://app?vid=11c9f11f-0d79-4d54-a818-863a9aacb5f4"},"vehicle_type_id":"4","last_reported":1685135087,"current_range_meters":400,"station_id":"ce4bh0p2rcd13ifvqd70","pricing_plan_id":"free"},{"bike_id":"546335e6-d515-4eac-9a36-7bf439aab264","system_id":"levelo_inurba_marseille","lat":43.290595,"lon":5.359249,"is_reserved":false,"is_disabled":false,"rental_uris":{"android":"levelo://app?vid=546335e6-d515-4eac-9a36-7bf439aab264","ios":"levelo://app?vid=546335e6-d515-4eac-9a36-7bf439aab264"},"vehicle_type_id":"4","last_reported":1685135087,"current_range_meters":11200,"station_id":"","pricing_plan_id":"free"},{"bike_id":"1924696e-c633-4904-8af9-8f510ee70743","system_id":"levelo_inurba_marseille","lat":43.290631,"lon":5.359244,"is_reserved":false,"is_disabled":false,"rental_uris":{"android":"levelo://app?vid=1924696e-c633-4904-8af9-8f510ee70743","ios":"levelo://app?vid=1924696e-c633-4904-8af9-8f510ee70743"},"vehicle_type_id":"4","last_reported":1685135087,"current_range_meters":5600,"station_id":"ce4bha92rcd13ifvqeg0","pricing_plan_id":"free"},{"bike_id":"3b4ce460-2818-494d-a136-17a79593eb34","system_id":"levelo_inurba_marseille","lat":43.294162,"lon":5.386292,"is_reserved":false,"is_disabled":false,"rental_uris":{"android":"levelo://app?vid=3b4ce460-2818-494d-a136-17a79593eb34","ios":"levelo://app?vid=3b4ce460-2818-494d-a136-17a79593eb34"},"vehicle_type_id":"4","last_reported":1685135087,"current_range_meters":11600,"station_id":"ce4bh2h2rcd13ifvqdh0","pricing_plan_id":"free"},{"bike_id":"ac854b4b-3050-4c62-bf53-409ce8a6f7ff","system_id":"levelo_inurba_marseille","lat":43.290319,"lon":5.375732,"is_reserved":false,"is_disabled":false,"rental_uris":{"android":"levelo://app?vid=ac854b4b-3050-4c62-bf53-409ce8a6f7ff","ios":"levelo://app?vid=ac854b4b-3050-4c62-bf53-409ce8a6f7ff"},"vehicle_type_id":"4","last_reported":1685135087,"current_range_meters":2000,"station_id":"ce4bh692rcd13ifvqe90","pricing_plan_id":"free"},{"bike_id":"0e5c2778-fa4f-403d-9298-846cf32cbd22","system_id":"levelo_inurba_marseille","lat":43.294162,"lon":5.386292,"is_reserved":false,"is_disabled":false,"rental_uris":{"android":"levelo://app?vid=0e5c2778-fa4f-403d-9298-846cf32cbd22","ios":"levelo://app?vid=0e5c2778-fa4f-403d-9298-846cf32cbd22"},"vehicle_type_id":"4","last_reported":1685135087,"current_range_meters":0,"station_id":"ce4bh2h2rcd13ifvqdh0","pricing_plan_id":"free"},{"bike_id":"4cc8f1a7-804e-449b-bc78-542c1666a191","system_id":"levelo_inurba_marseille","lat":43.294162,"lon":5.386292,"is_reserved":false,"is_disabled":false,"rental_uris":{"android":"levelo://app?vid=4cc8f1a7-804e-449b-bc78-542c1666a191","ios":"levelo://app?vid=4cc8f1a7-804e-449b-bc78-542c1666a191"},"vehicle_type_id":"4","last_reported":1685135087,"current_range_meters":0,"station_id":"ce4bh2h2rcd13ifvqdh0","pricing_plan_id":"free"},{"bike_id":"1def98d4-1744-4926-902d-391614b369f4","system_id":"levelo_inurba_marseille","lat":43.29133,"lon":5.38054,"is_reserved":false,"is_disabled":false,"rental_uris":{"android":"levelo://app?vid=1def98d4-1744-4926-902d-391614b369f4","ios":"levelo://app?vid=1def98d4-1744-4926-902d-391614b369f4"},"vehicle_type_id":"4","last_reported":1685135087,"current_range_meters":10400,"station_id":"","pricing_plan_id":"free"},{"bike_id":"88733e8e-f153-43e2-b570-4407cb085578","system_id":"levelo_inurba_marseille","lat":43.29017,"lon":5.35742,"is_reserved":false,"is_disabled":false,"rental_uris":{"android":"levelo://app?vid=88733e8e-f153-43e2-b570-4407cb085578","ios":"levelo://app?vid=88733e8e-f153-43e2-b570-4407cb085578"},"vehicle_type_id":"4","last_reported":1685135087,"current_range_meters":2800,"station_id":"","pricing_plan_id":"free"},{"bike_id":"45965492-6db7-4b9c-828f-19d1b9ad4ff1","system_id":"levelo_inurba_marseille","lat":43.33048,"lon":5.38911,"is_reserved":false,"is_disabled":false,"rental_uris":{"android":"levelo://app?vid=45965492-6db7-4b9c-828f-19d1b9ad4ff1","ios":"levelo://app?vid=45965492-6db7-4b9c-828f-19d1b9ad4ff1"},"vehicle_type_id":"4","last_reported":1685135087,"current_range_meters":4400,"station_id":"ce4bhr92rcd13ifvqhrg","pricing_plan_id":"free"},{"bike_id":"1201cde0-d2c9-4c81-8e4a-fe56cb90faf0","system_id":"levelo_inurba_marseille","lat":43.290103,"lon":5.356114,"is_reserved":false,"is_disabled":false,"rental_uris":{"android":"levelo://app?vid=1201cde0-d2c9-4c81-8e4a-fe56cb90faf0","ios":"levelo://app?vid=1201cde0-d2c9-4c81-8e4a-fe56cb90faf0"},"vehicle_type_id":"4","last_reported":1685135087,"current_range_meters":1200,"station_id":"ce4bhb92rcd13ifvqen0","pricing_plan_id":"free"},{"bike_id":"351acc09-8a17-4508-bb95-e897624cde5b","system_id":"levelo_inurba_marseille","lat":43.33051,"lon":5.38912,"is_reserved":false,"is_disabled":false,"rental_uris":{"android":"levelo://app?vid=351acc09-8a17-4508-bb95-e897624cde5b","ios":"levelo://app?vid=351acc09-8a17-4508-bb95-e897624cde5b"},"vehicle_type_id":"4","last_reported":1685135087,"current_range_meters":6800,"station_id":"ce4bhr92rcd13ifvqhrg","pricing_plan_id":"free"},{"bike_id":"10a79a0a-c52f-4e50-8f2c-6097b2b5c640","system_id":"levelo_inurba_marseille","lat":43.290104,"lon":5.356111,"is_reserved":false,"is_disabled":false,"rental_uris":{"android":"levelo://app?vid=10a79a0a-c52f-4e50-8f2c-6097b2b5c640","ios":"levelo://app?vid=10a79a0a-c52f-4e50-8f2c-6097b2b5c640"},"vehicle_type_id":"4","last_reported":1685135087,"current_range_meters":0,"station_id":"ce4bhb92rcd13ifvqen0","pricing_plan_id":"free"},{"bike_id":"a0c4f0fc-8de3-495f-8aaf-ac101c51ba73","system_id":"levelo_inurba_marseille","lat":43.28928,"lon":5.35928,"is_reserved":false,"is_disabled":false,"rental_uris":{"android":"levelo://app?vid=a0c4f0fc-8de3-495f-8aaf-ac101c51ba73","ios":"levelo://app?vid=a0c4f0fc-8de3-495f-8aaf-ac101c51ba73"},"vehicle_type_id":"4","last_reported":1685135087,"current_range_meters":0,"station_id":"ce4bhb12rcd13ifvqem0","pricing_plan_id":"free"},{"bike_id":"25a6f4aa-ea4b-4c84-96a9-d3dd75621ddc","system_id":"levelo_inurba_marseille","lat":43.297814,"lon":5.393513,"is_reserved":false,"is_disabled":false,"rental_uris":{"android":"levelo://app?vid=25a6f4aa-ea4b-4c84-96a9-d3dd75621ddc","ios":"levelo://app?vid=25a6f4aa-ea4b-4c84-96a9-d3dd75621ddc"},"vehicle_type_id":"4","last_reported":1685135087,"current_range_meters":0,"station_id":"chh1huq6cuj3fo74tm60","pricing_plan_id":"free"},{"bike_id":"dde1702e-0a65-4117-b6e8-5bf37db438d8","system_id":"levelo_inurba_marseille","lat":43.295169,"lon":5.390426,"is_reserved":false,"is_disabled":false,"rental_uris":{"android":"levelo://app?vid=dde1702e-0a65-4117-b6e8-5bf37db438d8","ios":"levelo://app?vid=dde1702e-0a65-4117-b6e8-5bf37db438d8"},"vehicle_type_id":"4","last_reported":1685135087,"current_range_meters":0,"station_id":"ce4bh3p2rcd13ifvqdp0","pricing_plan_id":"free"},{"bike_id":"e6d8b437-f762-4e63-87a5-2520eec7c9c9","system_id":"levelo_inurba_marseille","lat":43.28971,"lon":5.37832,"is_reserved":false,"is_disabled":false,"rental_uris":{"android":"levelo://app?vid=e6d8b437-f762-4e63-87a5-2520eec7c9c9","ios":"levelo://app?vid=e6d8b437-f762-4e63-87a5-2520eec7c9c9"},"vehicle_type_id":"4","last_reported":1685135087,"current_range_meters":800,"station_id":"ce4bh9p2rcd13ifvqed0","pricing_plan_id":"free"},{"bike_id":"cf382efa-307b-4dfb-bc3c-701c229ee8c6","system_id":"levelo_inurba_marseille","lat":43.29027,"lon":5.38119,"is_reserved":false,"is_disabled":false,"rental_uris":{"android":"levelo://app?vid=cf382efa-307b-4dfb-bc3c-701c229ee8c6","ios":"levelo://app?vid=cf382efa-307b-4dfb-bc3c-701c229ee8c6"},"vehicle_type_id":"4","last_reported":1685135087,"current_range_meters":13600,"station_id":"ce4bh4p2rcd13ifvqe1g","pricing_plan_id":"free"},{"bike_id":"5c7f0a31-65f8-4fa7-9833-ed8bc7f67f50","system_id":"levelo_inurba_marseille","lat":43.290094,"lon":5.381264,"is_reserved":false,"is_disabled":false,"rental_uris":{"android":"levelo://app?vid=5c7f0a31-65f8-4fa7-9833-ed8bc7f67f50","ios":"levelo://app?vid=5c7f0a31-65f8-4fa7-9833-ed8bc7f67f50"},"vehicle_type_id":"4","last_reported":1685135087,"current_range_meters":1200,"station_id":"ce4bh4p2rcd13ifvqe1g","pricing_plan_id":"free"},{"bike_id":"9f30382a-df71-4842-8f8a-a9d85c1e8de6","system_id":"levelo_inurba_marseille","lat":43.2901,"lon":5.381269,"is_reserved":false,"is_disabled":false,"rental_uris":{"android":"levelo://app?vid=9f30382a-df71-4842-8f8a-a9d85c1e8de6","ios":"levelo://app?vid=9f30382a-df71-4842-8f8a-a9d85c1e8de6"},"vehicle_type_id":"4","last_reported":1685135087,"current_range_meters":16800,"station_id":"ce4bh4p2rcd13ifvqe1g","pricing_plan_id":"free"},{"bike_id":"f93985a5-b44b-4fa4-b562-284e5a6d5cec","system_id":"levelo_inurba_marseille","lat":43.28844,"lon":5.35885,"is_reserved":false,"is_disabled":false,"rental_uris":{"android":"levelo://app?vid=f93985a5-b44b-4fa4-b562-284e5a6d5cec","ios":"levelo://app?vid=f93985a5-b44b-4fa4-b562-284e5a6d5cec"},"vehicle_type_id":"4","last_reported":1685135087,"current_range_meters":2400,"station_id":"","pricing_plan_id":"free"},{"bike_id":"2a6bc14b-9ddf-4789-a725-cab22264efa9","system_id":"levelo_inurba_marseille","lat":43.28851,"lon":5.35846,"is_reserved":false,"is_disabled":false,"rental_uris":{"android":"levelo://app?vid=2a6bc14b-9ddf-4789-a725-cab22264efa9","ios":"levelo://app?vid=2a6bc14b-9ddf-4789-a725-cab22264efa9"},"vehicle_type_id":"4","last_reported":1685135087,"current_range_meters":0,"station_id":"ce4bhb12rcd13ifvqem0","pricing_plan_id":"free"},{"bike_id":"141c14ea-594b-43ee-894e-8c44af1dcd73","system_id":"levelo_inurba_marseille","lat":43.33743,"lon":5.37441,"is_reserved":false,"is_disabled":false,"rental_uris":{"android":"levelo://app?vid=141c14ea-594b-43ee-894e-8c44af1dcd73","ios":"levelo://app?vid=141c14ea-594b-43ee-894e-8c44af1dcd73"},"vehicle_type_id":"4","last_reported":1685135087,"current_range_meters":14400,"station_id":"","pricing_plan_id":"free"},{"bike_id":"556c6db1-2600-4c2b-9521-aae8453517c1","system_id":"levelo_inurba_marseille","lat":43.33745,"lon":5.37445,"is_reserved":false,"is_disabled":false,"rental_uris":{"android":"levelo://app?vid=556c6db1-2600-4c2b-9521-aae8453517c1","ios":"levelo://app?vid=556c6db1-2600-4c2b-9521-aae8453517c1"},"vehicle_type_id":"4","last_reported":1685135087,"current_range_meters":20400,"station_id":"","pricing_plan_id":"free"},{"bike_id":"02362672-78e1-4667-9a77-d71f91f94365","system_id":"levelo_inurba_marseille","lat":43.33754,"lon":5.37427,"is_reserved":false,"is_disabled":false,"rental_uris":{"android":"levelo://app?vid=02362672-78e1-4667-9a77-d71f91f94365","ios":"levelo://app?vid=02362672-78e1-4667-9a77-d71f91f94365"},"vehicle_type_id":"4","last_reported":1685135087,"current_range_meters":18800,"station_id":"","pricing_plan_id":"free"},{"bike_id":"eb8ac404-8a95-4fc7-819a-ea19315069af","system_id":"levelo_inurba_marseille","lat":43.33765,"lon":5.3743,"is_reserved":false,"is_disabled":false,"rental_uris":{"android":"levelo://app?vid=eb8ac404-8a95-4fc7-819a-ea19315069af","ios":"levelo://app?vid=eb8ac404-8a95-4fc7-819a-ea19315069af"},"vehicle_type_id":"4","last_reported":1685135087,"current_range_meters":26400,"station_id":"","pricing_plan_id":"free"},{"bike_id":"1490fad1-fe90-4399-a2f2-79545cf03a2b","system_id":"levelo_inurba_marseille","lat":43.337578,"lon":5.374791,"is_reserved":false,"is_disabled":false,"rental_uris":{"android":"levelo://app?vid=1490fad1-fe90-4399-a2f2-79545cf03a2b","ios":"levelo://app?vid=1490fad1-fe90-4399-a2f2-79545cf03a2b"},"vehicle_type_id":"4","last_reported":1685135087,"current_range_meters":30000,"station_id":"","pricing_plan_id":"free"},{"bike_id":"d0371c4c-034a-4cf8-97fe-7ea81a1deae3","system_id":"levelo_inurba_marseille","lat":43.30642,"lon":5.401031,"is_reserved":false,"is_disabled":false,"rental_uris":{"android":"levelo://app?vid=d0371c4c-034a-4cf8-97fe-7ea81a1deae3","ios":"levelo://app?vid=d0371c4c-034a-4cf8-97fe-7ea81a1deae3"},"vehicle_type_id":"4","last_reported":1685135087,"current_range_meters":17200,"station_id":"ce4bh112rcd13ifvqda0","pricing_plan_id":"free"},{"bike_id":"5bd96745-9a19-4fe7-b597-4db9cabdc957","system_id":"levelo_inurba_marseille","lat":43.33772,"lon":5.37423,"is_reserved":false,"is_disabled":false,"rental_uris":{"android":"levelo://app?vid=5bd96745-9a19-4fe7-b597-4db9cabdc957","ios":"levelo://app?vid=5bd96745-9a19-4fe7-b597-4db9cabdc957"},"vehicle_type_id":"4","last_reported":1685135087,"current_range_meters":28000,"station_id":"","pricing_plan_id":"free"},{"bike_id":"5232e414-de7a-4323-a120-c55243939717","system_id":"levelo_inurba_marseille","lat":43.30642,"lon":5.401031,"is_reserved":false,"is_disabled":false,"rental_uris":{"android":"levelo://app?vid=5232e414-de7a-4323-a120-c55243939717","ios":"levelo://app?vid=5232e414-de7a-4323-a120-c55243939717"},"vehicle_type_id":"4","last_reported":1685135087,"current_range_meters":3200,"station_id":"ce4bh112rcd13ifvqda0","pricing_plan_id":"free"},{"bike_id":"31f720de-218a-4b5b-b0aa-c3e6fae4c874","system_id":"levelo_inurba_marseille","lat":43.30642,"lon":5.401031,"is_reserved":false,"is_disabled":false,"rental_uris":{"android":"levelo://app?vid=31f720de-218a-4b5b-b0aa-c3e6fae4c874","ios":"levelo://app?vid=31f720de-218a-4b5b-b0aa-c3e6fae4c874"},"vehicle_type_id":"4","last_reported":1685135087,"current_range_meters":30000,"station_id":"ce4bh112rcd13ifvqda0","pricing_plan_id":"free"},{"bike_id":"0f915385-1fd5-4f54-896c-f56a11a31d3d","system_id":"levelo_inurba_marseille","lat":43.33777,"lon":5.37432,"is_reserved":false,"is_disabled":false,"rental_uris":{"android":"levelo://app?vid=0f915385-1fd5-4f54-896c-f56a11a31d3d","ios":"levelo://app?vid=0f915385-1fd5-4f54-896c-f56a11a31d3d"},"vehicle_type_id":"4","last_reported":1685135087,"current_range_meters":21600,"station_id":"","pricing_plan_id":"free"},{"bike_id":"cc9109b3-cf80-44ee-93c9-22187c91c73e","system_id":"levelo_inurba_marseille","lat":43.28682,"lon":5.36993,"is_reserved":false,"is_disabled":false,"rental_uris":{"android":"levelo://app?vid=cc9109b3-cf80-44ee-93c9-22187c91c73e","ios":"levelo://app?vid=cc9109b3-cf80-44ee-93c9-22187c91c73e"},"vehicle_type_id":"4","last_reported":1685135087,"current_range_meters":3600,"station_id":"","pricing_plan_id":"free"},{"bike_id":"7a0c119d-4453-4428-a8b7-a08ffad9b6c7","system_id":"levelo_inurba_marseille","lat":43.302759,"lon":5.400793,"is_reserved":false,"is_disabled":false,"rental_uris":{"android":"levelo://app?vid=7a0c119d-4453-4428-a8b7-a08ffad9b6c7","ios":"levelo://app?vid=7a0c119d-4453-4428-a8b7-a08ffad9b6c7"},"vehicle_type_id":"4","last_reported":1685135087,"current_range_meters":0,"station_id":"ce4bgvh2rcd13ifvqcs0","pricing_plan_id":"free"},{"bike_id":"c90037cd-a76f-4d3e-8909-e4e10cbd2318","system_id":"levelo_inurba_marseille","lat":43.30237,"lon":5.40058,"is_reserved":false,"is_disabled":false,"rental_uris":{"android":"levelo://app?vid=c90037cd-a76f-4d3e-8909-e4e10cbd2318","ios":"levelo://app?vid=c90037cd-a76f-4d3e-8909-e4e10cbd2318"},"vehicle_type_id":"4","last_reported":1685135087,"current_range_meters":6000,"station_id":"","pricing_plan_id":"free"},{"bike_id":"b28de1da-f46c-4d86-bb02-43f067cad9a8","system_id":"levelo_inurba_marseille","lat":43.302526,"lon":5.400708,"is_reserved":false,"is_disabled":false,"rental_uris":{"android":"levelo://app?vid=b28de1da-f46c-4d86-bb02-43f067cad9a8","ios":"levelo://app?vid=b28de1da-f46c-4d86-bb02-43f067cad9a8"},"vehicle_type_id":"4","last_reported":1685135087,"current_range_meters":0,"station_id":"","pricing_plan_id":"free"},{"bike_id":"13b16b76-1446-47c5-8726-de68f333815f","system_id":"levelo_inurba_marseille","lat":43.30236,"lon":5.40069,"is_reserved":false,"is_disabled":false,"rental_uris":{"android":"levelo://app?vid=13b16b76-1446-47c5-8726-de68f333815f","ios":"levelo://app?vid=13b16b76-1446-47c5-8726-de68f333815f"},"vehicle_type_id":"4","last_reported":1685135087,"current_range_meters":24800,"station_id":"","pricing_plan_id":"free"},{"bike_id":"22c0db54-01c4-4d39-9332-ab376f45a5c2","system_id":"levelo_inurba_marseille","lat":43.2861,"lon":5.3706,"is_reserved":false,"is_disabled":false,"rental_uris":{"android":"levelo://app?vid=22c0db54-01c4-4d39-9332-ab376f45a5c2","ios":"levelo://app?vid=22c0db54-01c4-4d39-9332-ab376f45a5c2"},"vehicle_type_id":"4","last_reported":1685135087,"current_range_meters":4400,"station_id":"ce4bht12rcd13ifvqi60","pricing_plan_id":"free"},{"bike_id":"24ab1234-889b-4983-8fb6-2c87c90641ab","system_id":"levelo_inurba_marseille","lat":43.286086,"lon":5.370484,"is_reserved":false,"is_disabled":false,"rental_uris":{"android":"levelo://app?vid=24ab1234-889b-4983-8fb6-2c87c90641ab","ios":"levelo://app?vid=24ab1234-889b-4983-8fb6-2c87c90641ab"},"vehicle_type_id":"4","last_reported":1685135087,"current_range_meters":800,"station_id":"ce4bht12rcd13ifvqi60","pricing_plan_id":"free"},{"bike_id":"ab31e870-02c9-402b-a325-9603a60974ba","system_id":"levelo_inurba_marseille","lat":43.28609,"lon":5.37062,"is_reserved":false,"is_disabled":false,"rental_uris":{"android":"levelo://app?vid=ab31e870-02c9-402b-a325-9603a60974ba","ios":"levelo://app?vid=ab31e870-02c9-402b-a325-9603a60974ba"},"vehicle_type_id":"4","last_reported":1685135087,"current_range_meters":7200,"station_id":"ce4bht12rcd13ifvqi60","pricing_plan_id":"free"},{"bike_id":"55d421cd-6e20-457a-a8b9-1a1bd0bf94bf","system_id":"levelo_inurba_marseille","lat":43.28608,"lon":5.37057,"is_reserved":false,"is_disabled":false,"rental_uris":{"android":"levelo://app?vid=55d421cd-6e20-457a-a8b9-1a1bd0bf94bf","ios":"levelo://app?vid=55d421cd-6e20-457a-a8b9-1a1bd0bf94bf"},"vehicle_type_id":"4","last_reported":1685135087,"current_range_meters":16800,"station_id":"ce4bht12rcd13ifvqi60","pricing_plan_id":"free"},{"bike_id":"13a0130d-2b02-4c0e-bd81-394213939214","system_id":"levelo_inurba_marseille","lat":43.28607,"lon":5.37062,"is_reserved":false,"is_disabled":false,"rental_uris":{"android":"levelo://app?vid=13a0130d-2b02-4c0e-bd81-394213939214","ios":"levelo://app?vid=13a0130d-2b02-4c0e-bd81-394213939214"},"vehicle_type_id":"4","last_reported":1685135087,"current_range_meters":2000,"station_id":"ce4bht12rcd13ifvqi60","pricing_plan_id":"free"},{"bike_id":"b20c2acb-fdb3-4a65-9340-4a591ee118b6","system_id":"levelo_inurba_marseille","lat":43.28582,"lon":5.37061,"is_reserved":false,"is_disabled":false,"rental_uris":{"android":"levelo://app?vid=b20c2acb-fdb3-4a65-9340-4a591ee118b6","ios":"levelo://app?vid=b20c2acb-fdb3-4a65-9340-4a591ee118b6"},"vehicle_type_id":"4","last_reported":1685135087,"current_range_meters":2000,"station_id":"ce4bht12rcd13ifvqi60","pricing_plan_id":"free"},{"bike_id":"ec664f2f-a8dd-4cf1-83a7-8d818bc43d25","system_id":"levelo_inurba_marseille","lat":43.287184,"lon":5.37937,"is_reserved":false,"is_disabled":false,"rental_uris":{"android":"levelo://app?vid=ec664f2f-a8dd-4cf1-83a7-8d818bc43d25","ios":"levelo://app?vid=ec664f2f-a8dd-4cf1-83a7-8d818bc43d25"},"vehicle_type_id":"4","last_reported":1685135087,"current_range_meters":2000,"station_id":"ce4bh9p2rcd13ifvqec0","pricing_plan_id":"free"},{"bike_id":"62d6aa4a-54d8-4144-b04e-465952b5a2af","system_id":"levelo_inurba_marseille","lat":43.285848,"lon":5.350787,"is_reserved":false,"is_disabled":false,"rental_uris":{"android":"levelo://app?vid=62d6aa4a-54d8-4144-b04e-465952b5a2af","ios":"levelo://app?vid=62d6aa4a-54d8-4144-b04e-465952b5a2af"},"vehicle_type_id":"4","last_reported":1685135087,"current_range_meters":0,"station_id":"ce4bhch2rcd13ifvqeug","pricing_plan_id":"free"},{"bike_id":"dd49bbae-fcd2-42ce-9bf0-055cf441a536","system_id":"levelo_inurba_marseille","lat":43.285848,"lon":5.350787,"is_reserved":false,"is_disabled":false,"rental_uris":{"android":"levelo://app?vid=dd49bbae-fcd2-42ce-9bf0-055cf441a536","ios":"levelo://app?vid=dd49bbae-fcd2-42ce-9bf0-055cf441a536"},"vehicle_type_id":"4","last_reported":1685135087,"current_range_meters":17200,"station_id":"ce4bhch2rcd13ifvqeug","pricing_plan_id":"free"},{"bike_id":"702e9c61-8d11-43f1-8b64-bf273e1daab2","system_id":"levelo_inurba_marseille","lat":43.28613,"lon":5.35104,"is_reserved":false,"is_disabled":false,"rental_uris":{"android":"levelo://app?vid=702e9c61-8d11-43f1-8b64-bf273e1daab2","ios":"levelo://app?vid=702e9c61-8d11-43f1-8b64-bf273e1daab2"},"vehicle_type_id":"4","last_reported":1685135087,"current_range_meters":2000,"station_id":"","pricing_plan_id":"free"},{"bike_id":"1c7799e8-a324-4e2f-8f74-35d68e3e42b5","system_id":"levelo_inurba_marseille","lat":43.2861,"lon":5.35105,"is_reserved":false,"is_disabled":false,"rental_uris":{"android":"levelo://app?vid=1c7799e8-a324-4e2f-8f74-35d68e3e42b5","ios":"levelo://app?vid=1c7799e8-a324-4e2f-8f74-35d68e3e42b5"},"vehicle_type_id":"4","last_reported":1685135087,"current_range_meters":14800,"station_id":"","pricing_plan_id":"free"},{"bike_id":"c28e15fe-8b13-40b0-b06a-fd18ecc93488","system_id":"levelo_inurba_marseille","lat":43.286047,"lon":5.35112,"is_reserved":false,"is_disabled":false,"rental_uris":{"android":"levelo://app?vid=c28e15fe-8b13-40b0-b06a-fd18ecc93488","ios":"levelo://app?vid=c28e15fe-8b13-40b0-b06a-fd18ecc93488"},"vehicle_type_id":"4","last_reported":1685135087,"current_range_meters":6800,"station_id":"","pricing_plan_id":"free"},{"bike_id":"65046565-cbd6-470d-93f0-cb6bbf59cd08","system_id":"levelo_inurba_marseille","lat":43.295713,"lon":5.399639,"is_reserved":false,"is_disabled":false,"rental_uris":{"android":"levelo://app?vid=65046565-cbd6-470d-93f0-cb6bbf59cd08","ios":"levelo://app?vid=65046565-cbd6-470d-93f0-cb6bbf59cd08"},"vehicle_type_id":"4","last_reported":1685135087,"current_range_meters":2000,"station_id":"ce4bh312rcd13ifvqdj0","pricing_plan_id":"free"},{"bike_id":"9cf35dfa-9016-42ce-a515-2d55e9a648c0","system_id":"levelo_inurba_marseille","lat":43.286641,"lon":5.386633,"is_reserved":false,"is_disabled":false,"rental_uris":{"android":"levelo://app?vid=9cf35dfa-9016-42ce-a515-2d55e9a648c0","ios":"levelo://app?vid=9cf35dfa-9016-42ce-a515-2d55e9a648c0"},"vehicle_type_id":"4","last_reported":1685135087,"current_range_meters":5200,"station_id":"","pricing_plan_id":"free"},{"bike_id":"b2b4c97d-4feb-49ce-8ac2-9614480a179c","system_id":"levelo_inurba_marseille","lat":43.323464,"lon":5.406297,"is_reserved":false,"is_disabled":false,"rental_uris":{"android":"levelo://app?vid=b2b4c97d-4feb-49ce-8ac2-9614480a179c","ios":"levelo://app?vid=b2b4c97d-4feb-49ce-8ac2-9614480a179c"},"vehicle_type_id":"4","last_reported":1685135087,"current_range_meters":12800,"station_id":"ce4bhq92rcd13ifvqhjg","pricing_plan_id":"free"},{"bike_id":"5371bbd7-c92f-4fd0-bddb-eca2c7cd5808","system_id":"levelo_inurba_marseille","lat":43.323464,"lon":5.406297,"is_reserved":false,"is_disabled":false,"rental_uris":{"android":"levelo://app?vid=5371bbd7-c92f-4fd0-bddb-eca2c7cd5808","ios":"levelo://app?vid=5371bbd7-c92f-4fd0-bddb-eca2c7cd5808"},"vehicle_type_id":"4","last_reported":1685135087,"current_range_meters":32000,"station_id":"ce4bhq92rcd13ifvqhjg","pricing_plan_id":"free"},{"bike_id":"d5fd31a8-b7a4-48f5-9751-f4ba7b16e78e","system_id":"levelo_inurba_marseille","lat":43.323464,"lon":5.406297,"is_reserved":false,"is_disabled":false,"rental_uris":{"android":"levelo://app?vid=d5fd31a8-b7a4-48f5-9751-f4ba7b16e78e","ios":"levelo://app?vid=d5fd31a8-b7a4-48f5-9751-f4ba7b16e78e"},"vehicle_type_id":"4","last_reported":1685135087,"current_range_meters":32000,"station_id":"ce4bhq92rcd13ifvqhjg","pricing_plan_id":"free"},{"bike_id":"b0105e3b-210b-4116-8b00-8619a7bef7d4","system_id":"levelo_inurba_marseille","lat":43.284787,"lon":5.384116,"is_reserved":false,"is_disabled":false,"rental_uris":{"android":"levelo://app?vid=b0105e3b-210b-4116-8b00-8619a7bef7d4","ios":"levelo://app?vid=b0105e3b-210b-4116-8b00-8619a7bef7d4"},"vehicle_type_id":"4","last_reported":1685135087,"current_range_meters":21600,"station_id":"ce4bh512rcd13ifvqe3g","pricing_plan_id":"free"},{"bike_id":"f5e0fb3a-4c94-492f-9ede-c42fe2e89853","system_id":"levelo_inurba_marseille","lat":43.284787,"lon":5.384116,"is_reserved":false,"is_disabled":false,"rental_uris":{"android":"levelo://app?vid=f5e0fb3a-4c94-492f-9ede-c42fe2e89853","ios":"levelo://app?vid=f5e0fb3a-4c94-492f-9ede-c42fe2e89853"},"vehicle_type_id":"4","last_reported":1685135087,"current_range_meters":27600,"station_id":"ce4bh512rcd13ifvqe3g","pricing_plan_id":"free"},{"bike_id":"7148ea06-8424-4265-9b04-57925432ab4d","system_id":"levelo_inurba_marseille","lat":43.284787,"lon":5.384116,"is_reserved":false,"is_disabled":false,"rental_uris":{"android":"levelo://app?vid=7148ea06-8424-4265-9b04-57925432ab4d","ios":"levelo://app?vid=7148ea06-8424-4265-9b04-57925432ab4d"},"vehicle_type_id":"4","last_reported":1685135087,"current_range_meters":0,"station_id":"ce4bh512rcd13ifvqe3g","pricing_plan_id":"free"},{"bike_id":"151bafb5-f546-4c44-9e07-d5497734e678","system_id":"levelo_inurba_marseille","lat":43.283498,"lon":5.380948,"is_reserved":false,"is_disabled":false,"rental_uris":{"android":"levelo://app?vid=151bafb5-f546-4c44-9e07-d5497734e678","ios":"levelo://app?vid=151bafb5-f546-4c44-9e07-d5497734e678"},"vehicle_type_id":"4","last_reported":1685135087,"current_range_meters":1600,"station_id":"ce4bh412rcd13ifvqdr0","pricing_plan_id":"free"},{"bike_id":"60bd57b1-b797-4c2e-921b-aead0f9e7dac","system_id":"levelo_inurba_marseille","lat":43.283498,"lon":5.380948,"is_reserved":false,"is_disabled":false,"rental_uris":{"android":"levelo://app?vid=60bd57b1-b797-4c2e-921b-aead0f9e7dac","ios":"levelo://app?vid=60bd57b1-b797-4c2e-921b-aead0f9e7dac"},"vehicle_type_id":"4","last_reported":1685135087,"current_range_meters":27200,"station_id":"ce4bh412rcd13ifvqdr0","pricing_plan_id":"free"},{"bike_id":"ecb7b0a2-aa9e-4f0d-90bf-917d83cfa5ca","system_id":"levelo_inurba_marseille","lat":43.283498,"lon":5.380948,"is_reserved":false,"is_disabled":false,"rental_uris":{"android":"levelo://app?vid=ecb7b0a2-aa9e-4f0d-90bf-917d83cfa5ca","ios":"levelo://app?vid=ecb7b0a2-aa9e-4f0d-90bf-917d83cfa5ca"},"vehicle_type_id":"4","last_reported":1685135087,"current_range_meters":11200,"station_id":"ce4bh412rcd13ifvqdr0","pricing_plan_id":"free"},{"bike_id":"b0ca63a9-32a7-4f1d-9f06-aa7fae8b9643","system_id":"levelo_inurba_marseille","lat":43.282744,"lon":5.350533,"is_reserved":false,"is_disabled":false,"rental_uris":{"android":"levelo://app?vid=b0ca63a9-32a7-4f1d-9f06-aa7fae8b9643","ios":"levelo://app?vid=b0ca63a9-32a7-4f1d-9f06-aa7fae8b9643"},"vehicle_type_id":"4","last_reported":1685135087,"current_range_meters":8000,"station_id":"ce4bhbp2rcd13ifvqerg","pricing_plan_id":"free"},{"bike_id":"87e81cb5-3300-4422-bec8-e442d341ad23","system_id":"levelo_inurba_marseille","lat":43.28257,"lon":5.35071,"is_reserved":false,"is_disabled":false,"rental_uris":{"android":"levelo://app?vid=87e81cb5-3300-4422-bec8-e442d341ad23","ios":"levelo://app?vid=87e81cb5-3300-4422-bec8-e442d341ad23"},"vehicle_type_id":"4","last_reported":1685135087,"current_range_meters":0,"station_id":"ce4bhbp2rcd13ifvqerg","pricing_plan_id":"free"},{"bike_id":"5d938ba0-08ff-4cec-93e0-846d661030cb","system_id":"levelo_inurba_marseille","lat":43.28036,"lon":5.36943,"is_reserved":false,"is_disabled":false,"rental_uris":{"android":"levelo://app?vid=5d938ba0-08ff-4cec-93e0-846d661030cb","ios":"levelo://app?vid=5d938ba0-08ff-4cec-93e0-846d661030cb"},"vehicle_type_id":"4","last_reported":1685135087,"current_range_meters":0,"station_id":"ce4bha12rcd13ifvqef0","pricing_plan_id":"free"},{"bike_id":"32d46e86-922e-49ae-aa53-35a8ee07119f","system_id":"levelo_inurba_marseille","lat":43.28031,"lon":5.36947,"is_reserved":false,"is_disabled":false,"rental_uris":{"android":"levelo://app?vid=32d46e86-922e-49ae-aa53-35a8ee07119f","ios":"levelo://app?vid=32d46e86-922e-49ae-aa53-35a8ee07119f"},"vehicle_type_id":"4","last_reported":1685135087,"current_range_meters":4800,"station_id":"ce4bha12rcd13ifvqef0","pricing_plan_id":"free"},{"bike_id":"85bb6b45-781e-4cdf-9183-031fbacfbfae","system_id":"levelo_inurba_marseille","lat":43.280382,"lon":5.369291,"is_reserved":false,"is_disabled":false,"rental_uris":{"android":"levelo://app?vid=85bb6b45-781e-4cdf-9183-031fbacfbfae","ios":"levelo://app?vid=85bb6b45-781e-4cdf-9183-031fbacfbfae"},"vehicle_type_id":"4","last_reported":1685135087,"current_range_meters":23200,"station_id":"ce4bha12rcd13ifvqef0","pricing_plan_id":"free"},{"bike_id":"4d86ce40-e406-44d0-9e2e-59dcfae65e59","system_id":"levelo_inurba_marseille","lat":43.29041,"lon":5.39947,"is_reserved":false,"is_disabled":false,"rental_uris":{"android":"levelo://app?vid=4d86ce40-e406-44d0-9e2e-59dcfae65e59","ios":"levelo://app?vid=4d86ce40-e406-44d0-9e2e-59dcfae65e59"},"vehicle_type_id":"4","last_reported":1685135087,"current_range_meters":0,"station_id":"ce4bh392rcd13ifvqdm0","pricing_plan_id":"free"},{"bike_id":"0e1e0293-0442-42b3-aee6-e82a67c0d377","system_id":"levelo_inurba_marseille","lat":43.296263,"lon":5.40601,"is_reserved":false,"is_disabled":false,"rental_uris":{"android":"levelo://app?vid=0e1e0293-0442-42b3-aee6-e82a67c0d377","ios":"levelo://app?vid=0e1e0293-0442-42b3-aee6-e82a67c0d377"},"vehicle_type_id":"4","last_reported":1685135087,"current_range_meters":5200,"station_id":"ce4bh0h2rcd13ifvqd60","pricing_plan_id":"free"},{"bike_id":"4410fd1a-9b33-4464-9f4d-c4cc8489e809","system_id":"levelo_inurba_marseille","lat":43.284462,"lon":5.392121,"is_reserved":false,"is_disabled":false,"rental_uris":{"android":"levelo://app?vid=4410fd1a-9b33-4464-9f4d-c4cc8489e809","ios":"levelo://app?vid=4410fd1a-9b33-4464-9f4d-c4cc8489e809"},"vehicle_type_id":"4","last_reported":1685135087,"current_range_meters":1600,"station_id":"ce4bhoh2rcd13ifvqh5g","pricing_plan_id":"free"},{"bike_id":"137f255a-5e8f-4cdc-9f09-c622cfac7c65","system_id":"levelo_inurba_marseille","lat":43.304188,"lon":5.412904,"is_reserved":false,"is_disabled":false,"rental_uris":{"android":"levelo://app?vid=137f255a-5e8f-4cdc-9f09-c622cfac7c65","ios":"levelo://app?vid=137f255a-5e8f-4cdc-9f09-c622cfac7c65"},"vehicle_type_id":"4","last_reported":1685135087,"current_range_meters":5200,"station_id":"ce4bhop2rcd13ifvqh8g","pricing_plan_id":"free"},{"bike_id":"ae250fcd-bf63-4a78-b2f9-382673a2e168","system_id":"levelo_inurba_marseille","lat":43.304188,"lon":5.412904,"is_reserved":false,"is_disabled":false,"rental_uris":{"android":"levelo://app?vid=ae250fcd-bf63-4a78-b2f9-382673a2e168","ios":"levelo://app?vid=ae250fcd-bf63-4a78-b2f9-382673a2e168"},"vehicle_type_id":"4","last_reported":1685135087,"current_range_meters":16800,"station_id":"ce4bhop2rcd13ifvqh8g","pricing_plan_id":"free"},{"bike_id":"12ed4811-d4f0-43aa-9a13-aa3cc3c6a097","system_id":"levelo_inurba_marseille","lat":43.283494,"lon":5.380945,"is_reserved":false,"is_disabled":false,"rental_uris":{"android":"levelo://app?vid=12ed4811-d4f0-43aa-9a13-aa3cc3c6a097","ios":"levelo://app?vid=12ed4811-d4f0-43aa-9a13-aa3cc3c6a097"},"vehicle_type_id":"4","last_reported":1685135087,"current_range_meters":0,"station_id":"ce4bh412rcd13ifvqdr0","pricing_plan_id":"free"},{"bike_id":"c581f0d4-e46a-4d68-94b7-358e2a86e9c6","system_id":"levelo_inurba_marseille","lat":43.287154,"lon":5.399979,"is_reserved":false,"is_disabled":false,"rental_uris":{"android":"levelo://app?vid=c581f0d4-e46a-4d68-94b7-358e2a86e9c6","ios":"levelo://app?vid=c581f0d4-e46a-4d68-94b7-358e2a86e9c6"},"vehicle_type_id":"4","last_reported":1685135087,"current_range_meters":27600,"station_id":"ce4bho92rcd13ifvqh3g","pricing_plan_id":"free"},{"bike_id":"ac3963b2-be8c-498c-ae2f-09e027148ade","system_id":"levelo_inurba_marseille","lat":43.287061,"lon":5.399911,"is_reserved":false,"is_disabled":false,"rental_uris":{"android":"levelo://app?vid=ac3963b2-be8c-498c-ae2f-09e027148ade","ios":"levelo://app?vid=ac3963b2-be8c-498c-ae2f-09e027148ade"},"vehicle_type_id":"4","last_reported":1685135087,"current_range_meters":7600,"station_id":"","pricing_plan_id":"free"},{"bike_id":"d5481f23-2e90-49e5-90f9-50629faff775","system_id":"levelo_inurba_marseille","lat":43.28701,"lon":5.39986,"is_reserved":false,"is_disabled":false,"rental_uris":{"android":"levelo://app?vid=d5481f23-2e90-49e5-90f9-50629faff775","ios":"levelo://app?vid=d5481f23-2e90-49e5-90f9-50629faff775"},"vehicle_type_id":"4","last_reported":1685135087,"current_range_meters":30000,"station_id":"ce4bho92rcd13ifvqh3g","pricing_plan_id":"free"},{"bike_id":"88c76372-4890-4b26-8000-2839b66887cc","system_id":"levelo_inurba_marseille","lat":43.2762,"lon":5.3611,"is_reserved":false,"is_disabled":false,"rental_uris":{"android":"levelo://app?vid=88c76372-4890-4b26-8000-2839b66887cc","ios":"levelo://app?vid=88c76372-4890-4b26-8000-2839b66887cc"},"vehicle_type_id":"4","last_reported":1685135087,"current_range_meters":1600,"station_id":"ce4bgj92rcd13ifvqbe0","pricing_plan_id":"free"},{"bike_id":"8b6c7cc3-da73-4cc8-9d60-767d5457856d","system_id":"levelo_inurba_marseille","lat":43.27618,"lon":5.36104,"is_reserved":false,"is_disabled":false,"rental_uris":{"android":"levelo://app?vid=8b6c7cc3-da73-4cc8-9d60-767d5457856d","ios":"levelo://app?vid=8b6c7cc3-da73-4cc8-9d60-767d5457856d"},"vehicle_type_id":"4","last_reported":1685135087,"current_range_meters":13200,"station_id":"ce4bgj92rcd13ifvqbe0","pricing_plan_id":"free"},{"bike_id":"03d97fca-c398-400c-85e1-67957eebc50a","system_id":"levelo_inurba_marseille","lat":43.27612,"lon":5.3611,"is_reserved":false,"is_disabled":false,"rental_uris":{"android":"levelo://app?vid=03d97fca-c398-400c-85e1-67957eebc50a","ios":"levelo://app?vid=03d97fca-c398-400c-85e1-67957eebc50a"},"vehicle_type_id":"4","last_reported":1685135087,"current_range_meters":12800,"station_id":"ce4bgj92rcd13ifvqbe0","pricing_plan_id":"free"},{"bike_id":"c9fb1e01-5e7a-4746-8f60-a91da612ad5d","system_id":"levelo_inurba_marseille","lat":43.27551,"lon":5.35991,"is_reserved":false,"is_disabled":false,"rental_uris":{"android":"levelo://app?vid=c9fb1e01-5e7a-4746-8f60-a91da612ad5d","ios":"levelo://app?vid=c9fb1e01-5e7a-4746-8f60-a91da612ad5d"},"vehicle_type_id":"4","last_reported":1685135087,"current_range_meters":10000,"station_id":"ce4bgj92rcd13ifvqbe0","pricing_plan_id":"free"},{"bike_id":"6991f209-5fb3-48d7-aa03-820cb6dcd482","system_id":"levelo_inurba_marseille","lat":43.278399,"lon":5.392139,"is_reserved":false,"is_disabled":false,"rental_uris":{"android":"levelo://app?vid=6991f209-5fb3-48d7-aa03-820cb6dcd482","ios":"levelo://app?vid=6991f209-5fb3-48d7-aa03-820cb6dcd482"},"vehicle_type_id":"4","last_reported":1685135087,"current_range_meters":10400,"station_id":"ce4bhjp2rcd13ifvqga0","pricing_plan_id":"free"},{"bike_id":"1cabb930-8670-4b4a-a717-5f0ac9b7ee75","system_id":"levelo_inurba_marseille","lat":43.278399,"lon":5.392139,"is_reserved":false,"is_disabled":false,"rental_uris":{"android":"levelo://app?vid=1cabb930-8670-4b4a-a717-5f0ac9b7ee75","ios":"levelo://app?vid=1cabb930-8670-4b4a-a717-5f0ac9b7ee75"},"vehicle_type_id":"4","last_reported":1685135087,"current_range_meters":4400,"station_id":"ce4bhjp2rcd13ifvqga0","pricing_plan_id":"free"},{"bike_id":"f33fd8f3-b2db-48d4-9ff3-96678c7addbe","system_id":"levelo_inurba_marseille","lat":43.27378,"lon":5.36253,"is_reserved":false,"is_disabled":false,"rental_uris":{"android":"levelo://app?vid=f33fd8f3-b2db-48d4-9ff3-96678c7addbe","ios":"levelo://app?vid=f33fd8f3-b2db-48d4-9ff3-96678c7addbe"},"vehicle_type_id":"4","last_reported":1685135087,"current_range_meters":6400,"station_id":"ce4bhbh2rcd13ifvqeo0","pricing_plan_id":"free"},{"bike_id":"d904ec09-c5ed-4f07-bc2c-8d4a96c290b8","system_id":"levelo_inurba_marseille","lat":43.27378,"lon":5.36251,"is_reserved":false,"is_disabled":false,"rental_uris":{"android":"levelo://app?vid=d904ec09-c5ed-4f07-bc2c-8d4a96c290b8","ios":"levelo://app?vid=d904ec09-c5ed-4f07-bc2c-8d4a96c290b8"},"vehicle_type_id":"4","last_reported":1685135087,"current_range_meters":400,"station_id":"","pricing_plan_id":"free"},{"bike_id":"a0587798-83b3-485e-82e0-e4c71557d612","system_id":"levelo_inurba_marseille","lat":43.27377,"lon":5.36253,"is_reserved":false,"is_disabled":false,"rental_uris":{"android":"levelo://app?vid=a0587798-83b3-485e-82e0-e4c71557d612","ios":"levelo://app?vid=a0587798-83b3-485e-82e0-e4c71557d612"},"vehicle_type_id":"4","last_reported":1685135087,"current_range_meters":0,"station_id":"ce4bhbh2rcd13ifvqeo0","pricing_plan_id":"free"},{"bike_id":"2ca7e39e-3047-4036-ae29-d092084a7ba8","system_id":"levelo_inurba_marseille","lat":43.27376,"lon":5.36249,"is_reserved":false,"is_disabled":false,"rental_uris":{"android":"levelo://app?vid=2ca7e39e-3047-4036-ae29-d092084a7ba8","ios":"levelo://app?vid=2ca7e39e-3047-4036-ae29-d092084a7ba8"},"vehicle_type_id":"4","last_reported":1685135087,"current_range_meters":0,"station_id":"ce4bhbh2rcd13ifvqeo0","pricing_plan_id":"free"},{"bike_id":"ee175cfb-1107-4747-9a54-81f91054a068","system_id":"levelo_inurba_marseille","lat":43.33612,"lon":5.410321,"is_reserved":false,"is_disabled":false,"rental_uris":{"android":"levelo://app?vid=ee175cfb-1107-4747-9a54-81f91054a068","ios":"levelo://app?vid=ee175cfb-1107-4747-9a54-81f91054a068"},"vehicle_type_id":"4","last_reported":1685135087,"current_range_meters":3200,"station_id":"ce4bhqh2rcd13ifvqhmg","pricing_plan_id":"free"},{"bike_id":"959bf65e-fac0-4992-a582-2f91b5497d8d","system_id":"levelo_inurba_marseille","lat":43.317121,"lon":5.423936,"is_reserved":false,"is_disabled":false,"rental_uris":{"android":"levelo://app?vid=959bf65e-fac0-4992-a582-2f91b5497d8d","ios":"levelo://app?vid=959bf65e-fac0-4992-a582-2f91b5497d8d"},"vehicle_type_id":"4","last_reported":1685135087,"current_range_meters":28800,"station_id":"ce4bhp92rcd13ifvqhbg","pricing_plan_id":"free"},{"bike_id":"8924875d-c949-4a85-bd85-be15c0fdd64a","system_id":"levelo_inurba_marseille","lat":43.31725,"lon":5.42406,"is_reserved":false,"is_disabled":false,"rental_uris":{"android":"levelo://app?vid=8924875d-c949-4a85-bd85-be15c0fdd64a","ios":"levelo://app?vid=8924875d-c949-4a85-bd85-be15c0fdd64a"},"vehicle_type_id":"4","last_reported":1685135087,"current_range_meters":27600,"station_id":"ce4bhp92rcd13ifvqhbg","pricing_plan_id":"free"},{"bike_id":"1b3a9706-1d75-49da-b04f-a8d2d21f8a41","system_id":"levelo_inurba_marseille","lat":43.310785,"lon":5.424305,"is_reserved":false,"is_disabled":false,"rental_uris":{"android":"levelo://app?vid=1b3a9706-1d75-49da-b04f-a8d2d21f8a41","ios":"levelo://app?vid=1b3a9706-1d75-49da-b04f-a8d2d21f8a41"},"vehicle_type_id":"4","last_reported":1685135087,"current_range_meters":28400,"station_id":"ce4bhp92rcd13ifvqhag","pricing_plan_id":"free"},{"bike_id":"8d29b43d-06bf-464d-83a7-087b3ad9d954","system_id":"levelo_inurba_marseille","lat":43.270983,"lon":5.362858,"is_reserved":false,"is_disabled":false,"rental_uris":{"android":"levelo://app?vid=8d29b43d-06bf-464d-83a7-087b3ad9d954","ios":"levelo://app?vid=8d29b43d-06bf-464d-83a7-087b3ad9d954"},"vehicle_type_id":"4","last_reported":1685135087,"current_range_meters":12400,"station_id":"","pricing_plan_id":"free"},{"bike_id":"4a9ea90c-da9d-4cc4-82c4-0fccac99e7d4","system_id":"levelo_inurba_marseille","lat":43.27093,"lon":5.36291,"is_reserved":false,"is_disabled":false,"rental_uris":{"android":"levelo://app?vid=4a9ea90c-da9d-4cc4-82c4-0fccac99e7d4","ios":"levelo://app?vid=4a9ea90c-da9d-4cc4-82c4-0fccac99e7d4"},"vehicle_type_id":"4","last_reported":1685135087,"current_range_meters":0,"station_id":"","pricing_plan_id":"free"},{"bike_id":"ce8c51d0-723e-4fb5-b5e3-aeabd0db8c66","system_id":"levelo_inurba_marseille","lat":43.27318,"lon":5.3907,"is_reserved":false,"is_disabled":false,"rental_uris":{"android":"levelo://app?vid=ce8c51d0-723e-4fb5-b5e3-aeabd0db8c66","ios":"levelo://app?vid=ce8c51d0-723e-4fb5-b5e3-aeabd0db8c66"},"vehicle_type_id":"4","last_reported":1685135087,"current_range_meters":21600,"station_id":"ce4bhgp2rcd13ifvqfe0","pricing_plan_id":"free"},{"bike_id":"93da358e-ea20-48b9-9f83-8eba67f7af4f","system_id":"levelo_inurba_marseille","lat":43.27322,"lon":5.39092,"is_reserved":false,"is_disabled":false,"rental_uris":{"android":"levelo://app?vid=93da358e-ea20-48b9-9f83-8eba67f7af4f","ios":"levelo://app?vid=93da358e-ea20-48b9-9f83-8eba67f7af4f"},"vehicle_type_id":"4","last_reported":1685135087,"current_range_meters":0,"station_id":"ce4bhgp2rcd13ifvqfe0","pricing_plan_id":"free"},{"bike_id":"6d713c6e-b9c6-4bb9-9970-dd3ec8ae03ba","system_id":"levelo_inurba_marseille","lat":43.295511,"lon":5.422926,"is_reserved":false,"is_disabled":false,"rental_uris":{"android":"levelo://app?vid=6d713c6e-b9c6-4bb9-9970-dd3ec8ae03ba","ios":"levelo://app?vid=6d713c6e-b9c6-4bb9-9970-dd3ec8ae03ba"},"vehicle_type_id":"4","last_reported":1685135087,"current_range_meters":5200,"station_id":"ce4bhph2rcd13ifvqhdg","pricing_plan_id":"free"},{"bike_id":"aa48024b-638e-4c91-8341-bb88b8e8aa05","system_id":"levelo_inurba_marseille","lat":43.295511,"lon":5.422926,"is_reserved":false,"is_disabled":false,"rental_uris":{"android":"levelo://app?vid=aa48024b-638e-4c91-8341-bb88b8e8aa05","ios":"levelo://app?vid=aa48024b-638e-4c91-8341-bb88b8e8aa05"},"vehicle_type_id":"4","last_reported":1685135087,"current_range_meters":0,"station_id":"ce4bhph2rcd13ifvqhdg","pricing_plan_id":"free"},{"bike_id":"de79f32b-5b48-49af-978b-7aeae2c3cc2e","system_id":"levelo_inurba_marseille","lat":43.295523,"lon":5.422926,"is_reserved":false,"is_disabled":false,"rental_uris":{"android":"levelo://app?vid=de79f32b-5b48-49af-978b-7aeae2c3cc2e","ios":"levelo://app?vid=de79f32b-5b48-49af-978b-7aeae2c3cc2e"},"vehicle_type_id":"4","last_reported":1685135087,"current_range_meters":0,"station_id":"ce4bhph2rcd13ifvqhdg","pricing_plan_id":"free"},{"bike_id":"024bb93f-eeb2-4137-92c1-6686f77d1a01","system_id":"levelo_inurba_marseille","lat":43.265714,"lon":5.372891,"is_reserved":false,"is_disabled":false,"rental_uris":{"android":"levelo://app?vid=024bb93f-eeb2-4137-92c1-6686f77d1a01","ios":"levelo://app?vid=024bb93f-eeb2-4137-92c1-6686f77d1a01"},"vehicle_type_id":"4","last_reported":1685135087,"current_range_meters":20400,"station_id":"ce4bhg12rcd13ifvqf70","pricing_plan_id":"free"},{"bike_id":"9a7f8fbd-c7bd-4e17-82b4-0c28f5f6a891","system_id":"levelo_inurba_marseille","lat":43.265714,"lon":5.372891,"is_reserved":false,"is_disabled":false,"rental_uris":{"android":"levelo://app?vid=9a7f8fbd-c7bd-4e17-82b4-0c28f5f6a891","ios":"levelo://app?vid=9a7f8fbd-c7bd-4e17-82b4-0c28f5f6a891"},"vehicle_type_id":"4","last_reported":1685135087,"current_range_meters":20400,"station_id":"ce4bhg12rcd13ifvqf70","pricing_plan_id":"free"},{"bike_id":"23b7f3dd-d248-4d47-9f88-c352914e1bde","system_id":"levelo_inurba_marseille","lat":43.26553,"lon":5.37281,"is_reserved":false,"is_disabled":false,"rental_uris":{"android":"levelo://app?vid=23b7f3dd-d248-4d47-9f88-c352914e1bde","ios":"levelo://app?vid=23b7f3dd-d248-4d47-9f88-c352914e1bde"},"vehicle_type_id":"4","last_reported":1685135087,"current_range_meters":8000,"station_id":"ce4bhg12rcd13ifvqf70","pricing_plan_id":"free"},{"bike_id":"b819dc8f-de73-4a85-abb0-f1e6ac980edd","system_id":"levelo_inurba_marseille","lat":43.26551,"lon":5.37283,"is_reserved":false,"is_disabled":false,"rental_uris":{"android":"levelo://app?vid=b819dc8f-de73-4a85-abb0-f1e6ac980edd","ios":"levelo://app?vid=b819dc8f-de73-4a85-abb0-f1e6ac980edd"},"vehicle_type_id":"4","last_reported":1685135087,"current_range_meters":8400,"station_id":"ce4bhg12rcd13ifvqf70","pricing_plan_id":"free"},{"bike_id":"b35a7040-bbda-43db-9397-f046555e255b","system_id":"levelo_inurba_marseille","lat":43.308,"lon":5.43517,"is_reserved":false,"is_disabled":false,"rental_uris":{"android":"levelo://app?vid=b35a7040-bbda-43db-9397-f046555e255b","ios":"levelo://app?vid=b35a7040-bbda-43db-9397-f046555e255b"},"vehicle_type_id":"4","last_reported":1685135087,"current_range_meters":22800,"station_id":"","pricing_plan_id":"free"},{"bike_id":"2e18f64f-160d-4cc2-ab99-cf430a92b7d9","system_id":"levelo_inurba_marseille","lat":43.30799,"lon":5.43527,"is_reserved":false,"is_disabled":false,"rental_uris":{"android":"levelo://app?vid=2e18f64f-160d-4cc2-ab99-cf430a92b7d9","ios":"levelo://app?vid=2e18f64f-160d-4cc2-ab99-cf430a92b7d9"},"vehicle_type_id":"4","last_reported":1685135087,"current_range_meters":0,"station_id":"","pricing_plan_id":"free"},{"bike_id":"eb1e7463-04a7-4eb1-b297-dd018c79d527","system_id":"levelo_inurba_marseille","lat":43.30799,"lon":5.43528,"is_reserved":false,"is_disabled":false,"rental_uris":{"android":"levelo://app?vid=eb1e7463-04a7-4eb1-b297-dd018c79d527","ios":"levelo://app?vid=eb1e7463-04a7-4eb1-b297-dd018c79d527"},"vehicle_type_id":"4","last_reported":1685135087,"current_range_meters":0,"station_id":"","pricing_plan_id":"free"},{"bike_id":"97f92444-dc7f-4ac8-885e-43ac50454dc0","system_id":"levelo_inurba_marseille","lat":43.31709,"lon":5.43695,"is_reserved":false,"is_disabled":false,"rental_uris":{"android":"levelo://app?vid=97f92444-dc7f-4ac8-885e-43ac50454dc0","ios":"levelo://app?vid=97f92444-dc7f-4ac8-885e-43ac50454dc0"},"vehicle_type_id":"4","last_reported":1685135087,"current_range_meters":0,"station_id":"ce4bhp92rcd13ifvqhcg","pricing_plan_id":"free"},{"bike_id":"9a01b56e-14f8-4606-8072-e8009cab66ad","system_id":"levelo_inurba_marseille","lat":43.261782,"lon":5.374515,"is_reserved":false,"is_disabled":false,"rental_uris":{"android":"levelo://app?vid=9a01b56e-14f8-4606-8072-e8009cab66ad","ios":"levelo://app?vid=9a01b56e-14f8-4606-8072-e8009cab66ad"},"vehicle_type_id":"4","last_reported":1685135087,"current_range_meters":8800,"station_id":"ce4bhgp2rcd13ifvqfc0","pricing_plan_id":"free"},{"bike_id":"2425d774-0463-4cbd-826e-09324cf93fd1","system_id":"levelo_inurba_marseille","lat":43.261782,"lon":5.374515,"is_reserved":false,"is_disabled":false,"rental_uris":{"android":"levelo://app?vid=2425d774-0463-4cbd-826e-09324cf93fd1","ios":"levelo://app?vid=2425d774-0463-4cbd-826e-09324cf93fd1"},"vehicle_type_id":"4","last_reported":1685135087,"current_range_meters":2400,"station_id":"ce4bhgp2rcd13ifvqfc0","pricing_plan_id":"free"},{"bike_id":"a40b814c-8d11-48f9-af9c-8f2d70505adb","system_id":"levelo_inurba_marseille","lat":43.31705,"lon":5.43705,"is_reserved":false,"is_disabled":false,"rental_uris":{"android":"levelo://app?vid=a40b814c-8d11-48f9-af9c-8f2d70505adb","ios":"levelo://app?vid=a40b814c-8d11-48f9-af9c-8f2d70505adb"},"vehicle_type_id":"4","last_reported":1685135087,"current_range_meters":25200,"station_id":"ce4bhp92rcd13ifvqhcg","pricing_plan_id":"free"},{"bike_id":"6caacd0e-46b0-41a9-8c62-afb29db7e6c7","system_id":"levelo_inurba_marseille","lat":43.317104,"lon":5.436818,"is_reserved":false,"is_disabled":false,"rental_uris":{"android":"levelo://app?vid=6caacd0e-46b0-41a9-8c62-afb29db7e6c7","ios":"levelo://app?vid=6caacd0e-46b0-41a9-8c62-afb29db7e6c7"},"vehicle_type_id":"4","last_reported":1685135087,"current_range_meters":31200,"station_id":"ce4bhp92rcd13ifvqhcg","pricing_plan_id":"free"},{"bike_id":"677fe151-801a-4d73-9e92-e9bc07905498","system_id":"levelo_inurba_marseille","lat":43.31718,"lon":5.43707,"is_reserved":false,"is_disabled":false,"rental_uris":{"android":"levelo://app?vid=677fe151-801a-4d73-9e92-e9bc07905498","ios":"levelo://app?vid=677fe151-801a-4d73-9e92-e9bc07905498"},"vehicle_type_id":"4","last_reported":1685135087,"current_range_meters":30000,"station_id":"ce4bhp92rcd13ifvqhcg","pricing_plan_id":"free"},{"bike_id":"f4b15ad6-64b6-4617-9da8-320a68cfbcf8","system_id":"levelo_inurba_marseille","lat":43.26212,"lon":5.37921,"is_reserved":false,"is_disabled":false,"rental_uris":{"android":"levelo://app?vid=f4b15ad6-64b6-4617-9da8-320a68cfbcf8","ios":"levelo://app?vid=f4b15ad6-64b6-4617-9da8-320a68cfbcf8"},"vehicle_type_id":"4","last_reported":1685135087,"current_range_meters":31200,"station_id":"ce4bhjp2rcd13ifvqg90","pricing_plan_id":"free"},{"bike_id":"3c4da686-1083-4ed3-a126-9823d8b0642d","system_id":"levelo_inurba_marseille","lat":43.262012,"lon":5.379307,"is_reserved":false,"is_disabled":false,"rental_uris":{"android":"levelo://app?vid=3c4da686-1083-4ed3-a126-9823d8b0642d","ios":"levelo://app?vid=3c4da686-1083-4ed3-a126-9823d8b0642d"},"vehicle_type_id":"4","last_reported":1685135087,"current_range_meters":4400,"station_id":"ce4bhjp2rcd13ifvqg90","pricing_plan_id":"free"},{"bike_id":"c291d3e5-ca72-462a-a5b0-b4ba026a2870","system_id":"levelo_inurba_marseille","lat":43.26202,"lon":5.379299,"is_reserved":false,"is_disabled":false,"rental_uris":{"android":"levelo://app?vid=c291d3e5-ca72-462a-a5b0-b4ba026a2870","ios":"levelo://app?vid=c291d3e5-ca72-462a-a5b0-b4ba026a2870"},"vehicle_type_id":"4","last_reported":1685135087,"current_range_meters":0,"station_id":"ce4bhjp2rcd13ifvqg90","pricing_plan_id":"free"},{"bike_id":"c0b1d61f-95d0-43f1-8852-8a7f67e94801","system_id":"levelo_inurba_marseille","lat":43.267959,"lon":5.402687,"is_reserved":false,"is_disabled":false,"rental_uris":{"android":"levelo://app?vid=c0b1d61f-95d0-43f1-8852-8a7f67e94801","ios":"levelo://app?vid=c0b1d61f-95d0-43f1-8852-8a7f67e94801"},"vehicle_type_id":"4","last_reported":1685135087,"current_range_meters":27200,"station_id":"ce501612rcd8frsf0b60","pricing_plan_id":"free"},{"bike_id":"4e1b86b6-b12c-441f-b5c1-ba0a90fca197","system_id":"levelo_inurba_marseille","lat":43.298768,"lon":5.43643,"is_reserved":false,"is_disabled":false,"rental_uris":{"android":"levelo://app?vid=4e1b86b6-b12c-441f-b5c1-ba0a90fca197","ios":"levelo://app?vid=4e1b86b6-b12c-441f-b5c1-ba0a90fca197"},"vehicle_type_id":"4","last_reported":1685135087,"current_range_meters":30800,"station_id":"ce4bhpp2rcd13ifvqhfg","pricing_plan_id":"free"},{"bike_id":"2bec87da-92f9-4fd1-a31d-4f8c41246cb1","system_id":"levelo_inurba_marseille","lat":43.29895,"lon":5.43662,"is_reserved":false,"is_disabled":false,"rental_uris":{"android":"levelo://app?vid=2bec87da-92f9-4fd1-a31d-4f8c41246cb1","ios":"levelo://app?vid=2bec87da-92f9-4fd1-a31d-4f8c41246cb1"},"vehicle_type_id":"4","last_reported":1685135087,"current_range_meters":6400,"station_id":"ce4bhpp2rcd13ifvqhfg","pricing_plan_id":"free"},{"bike_id":"a01b8269-cd6f-432a-9c44-37513ea96cd0","system_id":"levelo_inurba_marseille","lat":43.298768,"lon":5.43643,"is_reserved":false,"is_disabled":false,"rental_uris":{"android":"levelo://app?vid=a01b8269-cd6f-432a-9c44-37513ea96cd0","ios":"levelo://app?vid=a01b8269-cd6f-432a-9c44-37513ea96cd0"},"vehicle_type_id":"4","last_reported":1685135087,"current_range_meters":24000,"station_id":"ce4bhpp2rcd13ifvqhfg","pricing_plan_id":"free"},{"bike_id":"625cf51e-ab1a-4754-ae5a-a72655adf3ff","system_id":"levelo_inurba_marseille","lat":43.299,"lon":5.43666,"is_reserved":false,"is_disabled":false,"rental_uris":{"android":"levelo://app?vid=625cf51e-ab1a-4754-ae5a-a72655adf3ff","ios":"levelo://app?vid=625cf51e-ab1a-4754-ae5a-a72655adf3ff"},"vehicle_type_id":"4","last_reported":1685135087,"current_range_meters":10400,"station_id":"ce4bhpp2rcd13ifvqhfg","pricing_plan_id":"free"},{"bike_id":"c8de2773-0f39-49ca-aaaa-0510f3608265","system_id":"levelo_inurba_marseille","lat":43.29899,"lon":5.43667,"is_reserved":false,"is_disabled":false,"rental_uris":{"android":"levelo://app?vid=c8de2773-0f39-49ca-aaaa-0510f3608265","ios":"levelo://app?vid=c8de2773-0f39-49ca-aaaa-0510f3608265"},"vehicle_type_id":"4","last_reported":1685135087,"current_range_meters":24800,"station_id":"","pricing_plan_id":"free"},{"bike_id":"608b499d-e068-453a-896b-74bff4555044","system_id":"levelo_inurba_marseille","lat":43.29899,"lon":5.43668,"is_reserved":false,"is_disabled":false,"rental_uris":{"android":"levelo://app?vid=608b499d-e068-453a-896b-74bff4555044","ios":"levelo://app?vid=608b499d-e068-453a-896b-74bff4555044"},"vehicle_type_id":"4","last_reported":1685135087,"current_range_meters":20800,"station_id":"","pricing_plan_id":"free"},{"bike_id":"1522e6fe-e66c-4a0c-a606-391cd3d5a93b","system_id":"levelo_inurba_marseille","lat":43.298768,"lon":5.43643,"is_reserved":false,"is_disabled":false,"rental_uris":{"android":"levelo://app?vid=1522e6fe-e66c-4a0c-a606-391cd3d5a93b","ios":"levelo://app?vid=1522e6fe-e66c-4a0c-a606-391cd3d5a93b"},"vehicle_type_id":"4","last_reported":1685135087,"current_range_meters":18800,"station_id":"ce4bhpp2rcd13ifvqhfg","pricing_plan_id":"free"},{"bike_id":"dde9f2f0-56ac-4fd7-8d1e-ed84b13d9718","system_id":"levelo_inurba_marseille","lat":43.29903,"lon":5.4367,"is_reserved":false,"is_disabled":false,"rental_uris":{"android":"levelo://app?vid=dde9f2f0-56ac-4fd7-8d1e-ed84b13d9718","ios":"levelo://app?vid=dde9f2f0-56ac-4fd7-8d1e-ed84b13d9718"},"vehicle_type_id":"4","last_reported":1685135087,"current_range_meters":29600,"station_id":"ce4bhpp2rcd13ifvqhfg","pricing_plan_id":"free"},{"bike_id":"141abb9c-baa0-4410-bbbc-e3f6497daf31","system_id":"levelo_inurba_marseille","lat":43.29895,"lon":5.43669,"is_reserved":false,"is_disabled":false,"rental_uris":{"android":"levelo://app?vid=141abb9c-baa0-4410-bbbc-e3f6497daf31","ios":"levelo://app?vid=141abb9c-baa0-4410-bbbc-e3f6497daf31"},"vehicle_type_id":"4","last_reported":1685135087,"current_range_meters":6000,"station_id":"","pricing_plan_id":"free"},{"bike_id":"2bbf39e5-5485-4880-b9ce-9ba5fff1a707","system_id":"levelo_inurba_marseille","lat":43.29899,"lon":5.43675,"is_reserved":false,"is_disabled":false,"rental_uris":{"android":"levelo://app?vid=2bbf39e5-5485-4880-b9ce-9ba5fff1a707","ios":"levelo://app?vid=2bbf39e5-5485-4880-b9ce-9ba5fff1a707"},"vehicle_type_id":"4","last_reported":1685135087,"current_range_meters":16400,"station_id":"","pricing_plan_id":"free"},{"bike_id":"57572c88-3708-4036-891a-204b9f884608","system_id":"levelo_inurba_marseille","lat":43.29896,"lon":5.43675,"is_reserved":false,"is_disabled":false,"rental_uris":{"android":"levelo://app?vid=57572c88-3708-4036-891a-204b9f884608","ios":"levelo://app?vid=57572c88-3708-4036-891a-204b9f884608"},"vehicle_type_id":"4","last_reported":1685135087,"current_range_meters":12800,"station_id":"","pricing_plan_id":"free"},{"bike_id":"36a9397e-755f-4c9d-a9f2-6abdda2ba578","system_id":"levelo_inurba_marseille","lat":43.26035,"lon":5.3754,"is_reserved":false,"is_disabled":false,"rental_uris":{"android":"levelo://app?vid=36a9397e-755f-4c9d-a9f2-6abdda2ba578","ios":"levelo://app?vid=36a9397e-755f-4c9d-a9f2-6abdda2ba578"},"vehicle_type_id":"4","last_reported":1685135087,"current_range_meters":0,"station_id":"ce4bhgh2rcd13ifvqfa0","pricing_plan_id":"free"},{"bike_id":"e2babc3f-884a-4e8d-8199-9d67d1723bc0","system_id":"levelo_inurba_marseille","lat":43.2607,"lon":5.393983,"is_reserved":false,"is_disabled":false,"rental_uris":{"android":"levelo://app?vid=e2babc3f-884a-4e8d-8199-9d67d1723bc0","ios":"levelo://app?vid=e2babc3f-884a-4e8d-8199-9d67d1723bc0"},"vehicle_type_id":"4","last_reported":1685135087,"current_range_meters":6000,"station_id":"ce4bhh92rcd13ifvqfj0","pricing_plan_id":"free"},{"bike_id":"4441101a-0e23-4762-b4ed-d88e6abf1afd","system_id":"levelo_inurba_marseille","lat":43.2607,"lon":5.393983,"is_reserved":false,"is_disabled":false,"rental_uris":{"android":"levelo://app?vid=4441101a-0e23-4762-b4ed-d88e6abf1afd","ios":"levelo://app?vid=4441101a-0e23-4762-b4ed-d88e6abf1afd"},"vehicle_type_id":"4","last_reported":1685135087,"current_range_meters":2800,"station_id":"ce4bhh92rcd13ifvqfj0","pricing_plan_id":"free"},{"bike_id":"b70aa6c8-f9b2-472e-81c9-bfb0ea7365cb","system_id":"levelo_inurba_marseille","lat":43.260909,"lon":5.397591,"is_reserved":false,"is_disabled":false,"rental_uris":{"android":"levelo://app?vid=b70aa6c8-f9b2-472e-81c9-bfb0ea7365cb","ios":"levelo://app?vid=b70aa6c8-f9b2-472e-81c9-bfb0ea7365cb"},"vehicle_type_id":"4","last_reported":1685135087,"current_range_meters":800,"station_id":"ce4bhi12rcd13ifvqfq0","pricing_plan_id":"free"},{"bike_id":"226e8c74-7958-4851-a145-0d9c6cb57da2","system_id":"levelo_inurba_marseille","lat":43.255756,"lon":5.382303,"is_reserved":false,"is_disabled":false,"rental_uris":{"android":"levelo://app?vid=226e8c74-7958-4851-a145-0d9c6cb57da2","ios":"levelo://app?vid=226e8c74-7958-4851-a145-0d9c6cb57da2"},"vehicle_type_id":"4","last_reported":1685135087,"current_range_meters":16400,"station_id":"ce4bhih2rcd13ifvqfs0","pricing_plan_id":"free"},{"bike_id":"d9cfb92c-48bd-4f17-b87b-eca62c898de3","system_id":"levelo_inurba_marseille","lat":43.255756,"lon":5.382303,"is_reserved":false,"is_disabled":false,"rental_uris":{"android":"levelo://app?vid=d9cfb92c-48bd-4f17-b87b-eca62c898de3","ios":"levelo://app?vid=d9cfb92c-48bd-4f17-b87b-eca62c898de3"},"vehicle_type_id":"4","last_reported":1685135087,"current_range_meters":16000,"station_id":"ce4bhih2rcd13ifvqfs0","pricing_plan_id":"free"},{"bike_id":"ad147a66-c1ef-44cb-a464-b5e210457720","system_id":"levelo_inurba_marseille","lat":43.254947,"lon":5.376454,"is_reserved":false,"is_disabled":false,"rental_uris":{"android":"levelo://app?vid=ad147a66-c1ef-44cb-a464-b5e210457720","ios":"levelo://app?vid=ad147a66-c1ef-44cb-a464-b5e210457720"},"vehicle_type_id":"4","last_reported":1685135087,"current_range_meters":6400,"station_id":"ce4bhh12rcd13ifvqff0","pricing_plan_id":"free"},{"bike_id":"e26923c1-8aeb-45f0-be81-daeb8ffc4d5e","system_id":"levelo_inurba_marseille","lat":43.25498,"lon":5.37648,"is_reserved":false,"is_disabled":false,"rental_uris":{"android":"levelo://app?vid=e26923c1-8aeb-45f0-be81-daeb8ffc4d5e","ios":"levelo://app?vid=e26923c1-8aeb-45f0-be81-daeb8ffc4d5e"},"vehicle_type_id":"4","last_reported":1685135087,"current_range_meters":0,"station_id":"ce4bhh12rcd13ifvqff0","pricing_plan_id":"free"},{"bike_id":"d2e7b64c-d038-4266-99f8-f2d5722fa649","system_id":"levelo_inurba_marseille","lat":43.254945,"lon":5.376454,"is_reserved":false,"is_disabled":false,"rental_uris":{"android":"levelo://app?vid=d2e7b64c-d038-4266-99f8-f2d5722fa649","ios":"levelo://app?vid=d2e7b64c-d038-4266-99f8-f2d5722fa649"},"vehicle_type_id":"4","last_reported":1685135087,"current_range_meters":4800,"station_id":"ce4bhh12rcd13ifvqff0","pricing_plan_id":"free"},{"bike_id":"21a94e83-2bcf-4902-8a6a-85407ac0d3c9","system_id":"levelo_inurba_marseille","lat":43.254952,"lon":5.376471,"is_reserved":false,"is_disabled":false,"rental_uris":{"android":"levelo://app?vid=21a94e83-2bcf-4902-8a6a-85407ac0d3c9","ios":"levelo://app?vid=21a94e83-2bcf-4902-8a6a-85407ac0d3c9"},"vehicle_type_id":"4","last_reported":1685135087,"current_range_meters":7200,"station_id":"","pricing_plan_id":"free"},{"bike_id":"e8f59228-c055-445f-b886-383c56a342a9","system_id":"levelo_inurba_marseille","lat":43.25493,"lon":5.37644,"is_reserved":false,"is_disabled":false,"rental_uris":{"android":"levelo://app?vid=e8f59228-c055-445f-b886-383c56a342a9","ios":"levelo://app?vid=e8f59228-c055-445f-b886-383c56a342a9"},"vehicle_type_id":"4","last_reported":1685135087,"current_range_meters":0,"station_id":"ce4bhh12rcd13ifvqff0","pricing_plan_id":"free"},{"bike_id":"783ca787-6440-405d-808e-48711cfe8ddc","system_id":"levelo_inurba_marseille","lat":43.270721,"lon":5.422764,"is_reserved":false,"is_disabled":false,"rental_uris":{"android":"levelo://app?vid=783ca787-6440-405d-808e-48711cfe8ddc","ios":"levelo://app?vid=783ca787-6440-405d-808e-48711cfe8ddc"},"vehicle_type_id":"4","last_reported":1685135087,"current_range_meters":31200,"station_id":"ce4bhk92rcd13ifvqgb0","pricing_plan_id":"free"},{"bike_id":"e07724f5-d80a-4c8d-b1c3-67b7d1904c8b","system_id":"levelo_inurba_marseille","lat":43.270721,"lon":5.422764,"is_reserved":false,"is_disabled":false,"rental_uris":{"android":"levelo://app?vid=e07724f5-d80a-4c8d-b1c3-67b7d1904c8b","ios":"levelo://app?vid=e07724f5-d80a-4c8d-b1c3-67b7d1904c8b"},"vehicle_type_id":"4","last_reported":1685135087,"current_range_meters":4800,"station_id":"ce4bhk92rcd13ifvqgb0","pricing_plan_id":"free"},{"bike_id":"fb391ea4-e81d-46d6-bf8b-15607b8eba32","system_id":"levelo_inurba_marseille","lat":43.2707,"lon":5.42279,"is_reserved":false,"is_disabled":false,"rental_uris":{"android":"levelo://app?vid=fb391ea4-e81d-46d6-bf8b-15607b8eba32","ios":"levelo://app?vid=fb391ea4-e81d-46d6-bf8b-15607b8eba32"},"vehicle_type_id":"4","last_reported":1685135087,"current_range_meters":24400,"station_id":"ce4bhk92rcd13ifvqgb0","pricing_plan_id":"free"},{"bike_id":"3583dbe0-433b-4cf5-8a78-02a3550f1dd8","system_id":"levelo_inurba_marseille","lat":43.27439,"lon":5.42943,"is_reserved":false,"is_disabled":false,"rental_uris":{"android":"levelo://app?vid=3583dbe0-433b-4cf5-8a78-02a3550f1dd8","ios":"levelo://app?vid=3583dbe0-433b-4cf5-8a78-02a3550f1dd8"},"vehicle_type_id":"4","last_reported":1685135087,"current_range_meters":1600,"station_id":"","pricing_plan_id":"free"},{"bike_id":"c1870ba5-a989-4a94-bc9d-d61b9ba266b2","system_id":"levelo_inurba_marseille","lat":43.2479,"lon":5.374457,"is_reserved":false,"is_disabled":false,"rental_uris":{"android":"levelo://app?vid=c1870ba5-a989-4a94-bc9d-d61b9ba266b2","ios":"levelo://app?vid=c1870ba5-a989-4a94-bc9d-d61b9ba266b2"},"vehicle_type_id":"4","last_reported":1685135087,"current_range_meters":29600,"station_id":"ce4bhgh2rcd13ifvqfb0","pricing_plan_id":"free"},{"bike_id":"8cd1edb9-73fb-4fb4-bc90-5780c3d27624","system_id":"levelo_inurba_marseille","lat":43.2479,"lon":5.374457,"is_reserved":false,"is_disabled":false,"rental_uris":{"android":"levelo://app?vid=8cd1edb9-73fb-4fb4-bc90-5780c3d27624","ios":"levelo://app?vid=8cd1edb9-73fb-4fb4-bc90-5780c3d27624"},"vehicle_type_id":"4","last_reported":1685135087,"current_range_meters":15600,"station_id":"ce4bhgh2rcd13ifvqfb0","pricing_plan_id":"free"},{"bike_id":"cf15dda1-302e-4688-b38a-0dda27caf7af","system_id":"levelo_inurba_marseille","lat":43.2479,"lon":5.374457,"is_reserved":false,"is_disabled":false,"rental_uris":{"android":"levelo://app?vid=cf15dda1-302e-4688-b38a-0dda27caf7af","ios":"levelo://app?vid=cf15dda1-302e-4688-b38a-0dda27caf7af"},"vehicle_type_id":"4","last_reported":1685135087,"current_range_meters":0,"station_id":"ce4bhgh2rcd13ifvqfb0","pricing_plan_id":"free"},{"bike_id":"5c7d4f96-5d8f-4c7b-acb5-e6450a92735e","system_id":"levelo_inurba_marseille","lat":43.2479,"lon":5.374457,"is_reserved":false,"is_disabled":false,"rental_uris":{"android":"levelo://app?vid=5c7d4f96-5d8f-4c7b-acb5-e6450a92735e","ios":"levelo://app?vid=5c7d4f96-5d8f-4c7b-acb5-e6450a92735e"},"vehicle_type_id":"4","last_reported":1685135087,"current_range_meters":9200,"station_id":"ce4bhgh2rcd13ifvqfb0","pricing_plan_id":"free"},{"bike_id":"c04d6376-4dc7-4b58-aa38-5cfd0328ed86","system_id":"levelo_inurba_marseille","lat":43.2479,"lon":5.374457,"is_reserved":false,"is_disabled":false,"rental_uris":{"android":"levelo://app?vid=c04d6376-4dc7-4b58-aa38-5cfd0328ed86","ios":"levelo://app?vid=c04d6376-4dc7-4b58-aa38-5cfd0328ed86"},"vehicle_type_id":"4","last_reported":1685135087,"current_range_meters":4000,"station_id":"ce4bhgh2rcd13ifvqfb0","pricing_plan_id":"free"},{"bike_id":"2e07a4aa-1679-4a03-980d-7111139337a2","system_id":"levelo_inurba_marseille","lat":43.24693,"lon":5.382096,"is_reserved":false,"is_disabled":false,"rental_uris":{"android":"levelo://app?vid=2e07a4aa-1679-4a03-980d-7111139337a2","ios":"levelo://app?vid=2e07a4aa-1679-4a03-980d-7111139337a2"},"vehicle_type_id":"4","last_reported":1685135087,"current_range_meters":11200,"station_id":"ce4bhih2rcd13ifvqfr0","pricing_plan_id":"free"},{"bike_id":"5b82427d-45cb-4005-bb73-bceaa3b72b6e","system_id":"levelo_inurba_marseille","lat":43.246629,"lon":5.381738,"is_reserved":false,"is_disabled":false,"rental_uris":{"android":"levelo://app?vid=5b82427d-45cb-4005-bb73-bceaa3b72b6e","ios":"levelo://app?vid=5b82427d-45cb-4005-bb73-bceaa3b72b6e"},"vehicle_type_id":"4","last_reported":1685135087,"current_range_meters":22000,"station_id":"ce4bhih2rcd13ifvqfr0","pricing_plan_id":"free"},{"bike_id":"a3a6033a-3d3f-4b8b-83f9-7a494171cebc","system_id":"levelo_inurba_marseille","lat":43.24693,"lon":5.382096,"is_reserved":false,"is_disabled":false,"rental_uris":{"android":"levelo://app?vid=a3a6033a-3d3f-4b8b-83f9-7a494171cebc","ios":"levelo://app?vid=a3a6033a-3d3f-4b8b-83f9-7a494171cebc"},"vehicle_type_id":"4","last_reported":1685135087,"current_range_meters":6400,"station_id":"ce4bhih2rcd13ifvqfr0","pricing_plan_id":"free"},{"bike_id":"ebe8b0fd-425f-473d-8f53-37f0f78f6f0b","system_id":"levelo_inurba_marseille","lat":43.243884,"lon":5.370736,"is_reserved":false,"is_disabled":false,"rental_uris":{"android":"levelo://app?vid=ebe8b0fd-425f-473d-8f53-37f0f78f6f0b","ios":"levelo://app?vid=ebe8b0fd-425f-473d-8f53-37f0f78f6f0b"},"vehicle_type_id":"4","last_reported":1685135087,"current_range_meters":0,"station_id":"ce4bhhh2rcd13ifvqfk0","pricing_plan_id":"free"},{"bike_id":"66466a38-a0d5-4fb0-9317-8cb5e3af0f37","system_id":"levelo_inurba_marseille","lat":43.243884,"lon":5.370737,"is_reserved":false,"is_disabled":false,"rental_uris":{"android":"levelo://app?vid=66466a38-a0d5-4fb0-9317-8cb5e3af0f37","ios":"levelo://app?vid=66466a38-a0d5-4fb0-9317-8cb5e3af0f37"},"vehicle_type_id":"4","last_reported":1685135087,"current_range_meters":7200,"station_id":"ce4bhhh2rcd13ifvqfk0","pricing_plan_id":"free"},{"bike_id":"a0b1ec9d-a306-4d9a-8bd6-6f739b6fe927","system_id":"levelo_inurba_marseille","lat":43.243884,"lon":5.370736,"is_reserved":false,"is_disabled":false,"rental_uris":{"android":"levelo://app?vid=a0b1ec9d-a306-4d9a-8bd6-6f739b6fe927","ios":"levelo://app?vid=a0b1ec9d-a306-4d9a-8bd6-6f739b6fe927"},"vehicle_type_id":"4","last_reported":1685135087,"current_range_meters":26000,"station_id":"ce4bhhh2rcd13ifvqfk0","pricing_plan_id":"free"},{"bike_id":"017cbb90-9d16-469d-ab9b-008c01d90208","system_id":"levelo_inurba_marseille","lat":43.23919,"lon":5.38464,"is_reserved":false,"is_disabled":false,"rental_uris":{"android":"levelo://app?vid=017cbb90-9d16-469d-ab9b-008c01d90208","ios":"levelo://app?vid=017cbb90-9d16-469d-ab9b-008c01d90208"},"vehicle_type_id":"4","last_reported":1685135087,"current_range_meters":7600,"station_id":"","pricing_plan_id":"free"},{"bike_id":"16e751e9-9edd-4155-bc9f-8de735fe1021","system_id":"levelo_inurba_marseille","lat":43.231919,"lon":5.355532,"is_reserved":false,"is_disabled":false,"rental_uris":{"android":"levelo://app?vid=16e751e9-9edd-4155-bc9f-8de735fe1021","ios":"levelo://app?vid=16e751e9-9edd-4155-bc9f-8de735fe1021"},"vehicle_type_id":"4","last_reported":1685135087,"current_range_meters":28800,"station_id":"ce4bhu92rcd13ifvqi70","pricing_plan_id":"free"},{"bike_id":"ba4d59a8-54c3-439d-b6ce-459d537c072d","system_id":"levelo_inurba_marseille","lat":43.2319,"lon":5.35555,"is_reserved":false,"is_disabled":false,"rental_uris":{"android":"levelo://app?vid=ba4d59a8-54c3-439d-b6ce-459d537c072d","ios":"levelo://app?vid=ba4d59a8-54c3-439d-b6ce-459d537c072d"},"vehicle_type_id":"4","last_reported":1685135087,"current_range_meters":11600,"station_id":"ce4bhu92rcd13ifvqi70","pricing_plan_id":"free"},{"bike_id":"81d4dcc7-3fc7-449d-ab1e-2ea2b47e5952","system_id":"levelo_inurba_marseille","lat":43.2319,"lon":5.35553,"is_reserved":false,"is_disabled":false,"rental_uris":{"android":"levelo://app?vid=81d4dcc7-3fc7-449d-ab1e-2ea2b47e5952","ios":"levelo://app?vid=81d4dcc7-3fc7-449d-ab1e-2ea2b47e5952"},"vehicle_type_id":"4","last_reported":1685135087,"current_range_meters":16800,"station_id":"ce4bhu92rcd13ifvqi70","pricing_plan_id":"free"},{"bike_id":"b3218611-a475-42a9-92c5-070141c073f0","system_id":"levelo_inurba_marseille","lat":43.23189,"lon":5.35561,"is_reserved":false,"is_disabled":false,"rental_uris":{"android":"levelo://app?vid=b3218611-a475-42a9-92c5-070141c073f0","ios":"levelo://app?vid=b3218611-a475-42a9-92c5-070141c073f0"},"vehicle_type_id":"4","last_reported":1685135087,"current_range_meters":25600,"station_id":"ce4bhu92rcd13ifvqi70","pricing_plan_id":"free"},{"bike_id":"6ed80210-e865-4830-a64d-7a44325491b1","system_id":"levelo_inurba_marseille","lat":43.2319,"lon":5.35545,"is_reserved":false,"is_disabled":false,"rental_uris":{"android":"levelo://app?vid=6ed80210-e865-4830-a64d-7a44325491b1","ios":"levelo://app?vid=6ed80210-e865-4830-a64d-7a44325491b1"},"vehicle_type_id":"4","last_reported":1685135087,"current_range_meters":28000,"station_id":"ce4bhu92rcd13ifvqi70","pricing_plan_id":"free"},{"bike_id":"06cc29fe-4669-4afc-bb35-a5e1af0a1bc4","system_id":"levelo_inurba_marseille","lat":43.23187,"lon":5.3555,"is_reserved":false,"is_disabled":false,"rental_uris":{"android":"levelo://app?vid=06cc29fe-4669-4afc-bb35-a5e1af0a1bc4","ios":"levelo://app?vid=06cc29fe-4669-4afc-bb35-a5e1af0a1bc4"},"vehicle_type_id":"4","last_reported":1685135087,"current_range_meters":4400,"station_id":"ce4bhu92rcd13ifvqi70","pricing_plan_id":"free"},{"bike_id":"50387e49-f9cb-45f2-830b-f9804e09b35a","system_id":"levelo_inurba_marseille","lat":43.23183,"lon":5.3556,"is_reserved":false,"is_disabled":false,"rental_uris":{"android":"levelo://app?vid=50387e49-f9cb-45f2-830b-f9804e09b35a","ios":"levelo://app?vid=50387e49-f9cb-45f2-830b-f9804e09b35a"},"vehicle_type_id":"4","last_reported":1685135087,"current_range_meters":4000,"station_id":"ce4bhu92rcd13ifvqi70","pricing_plan_id":"free"},{"bike_id":"5c272820-3a04-409e-a879-87b2d365273d","system_id":"levelo_inurba_marseille","lat":43.23128,"lon":5.35505,"is_reserved":false,"is_disabled":false,"rental_uris":{"android":"levelo://app?vid=5c272820-3a04-409e-a879-87b2d365273d","ios":"levelo://app?vid=5c272820-3a04-409e-a879-87b2d365273d"},"vehicle_type_id":"4","last_reported":1685135087,"current_range_meters":14400,"station_id":"","pricing_plan_id":"free"},{"bike_id":"b8c47a34-ff34-4067-b87c-33640e964fbc","system_id":"levelo_inurba_marseille","lat":43.231794,"lon":5.400052,"is_reserved":false,"is_disabled":false,"rental_uris":{"android":"levelo://app?vid=b8c47a34-ff34-4067-b87c-33640e964fbc","ios":"levelo://app?vid=b8c47a34-ff34-4067-b87c-33640e964fbc"},"vehicle_type_id":"4","last_reported":1685135087,"current_range_meters":31600,"station_id":"ce4bhn12rcd13ifvqgqg","pricing_plan_id":"free"},{"bike_id":"34abd7a2-e4aa-4639-88a1-75020959dd9f","system_id":"levelo_inurba_marseille","lat":43.231794,"lon":5.400052,"is_reserved":false,"is_disabled":false,"rental_uris":{"android":"levelo://app?vid=34abd7a2-e4aa-4639-88a1-75020959dd9f","ios":"levelo://app?vid=34abd7a2-e4aa-4639-88a1-75020959dd9f"},"vehicle_type_id":"4","last_reported":1685135087,"current_range_meters":31600,"station_id":"ce4bhn12rcd13ifvqgqg","pricing_plan_id":"free"},{"bike_id":"8c241283-b8ed-4c41-b054-8d4f0354626e","system_id":"levelo_inurba_marseille","lat":43.231793,"lon":5.400044,"is_reserved":false,"is_disabled":false,"rental_uris":{"android":"levelo://app?vid=8c241283-b8ed-4c41-b054-8d4f0354626e","ios":"levelo://app?vid=8c241283-b8ed-4c41-b054-8d4f0354626e"},"vehicle_type_id":"4","last_reported":1685135087,"current_range_meters":2800,"station_id":"ce4bhn12rcd13ifvqgqg","pricing_plan_id":"free"},{"bike_id":"67b77559-a903-49c5-9f37-4b2143617b52","system_id":"levelo_inurba_marseille","lat":43.231794,"lon":5.400052,"is_reserved":false,"is_disabled":false,"rental_uris":{"android":"levelo://app?vid=67b77559-a903-49c5-9f37-4b2143617b52","ios":"levelo://app?vid=67b77559-a903-49c5-9f37-4b2143617b52"},"vehicle_type_id":"4","last_reported":1685135087,"current_range_meters":14000,"station_id":"ce4bhn12rcd13ifvqgqg","pricing_plan_id":"free"},{"bike_id":"6909e9f4-7190-4de5-9454-7cc1785d277a","system_id":"levelo_inurba_marseille","lat":43.231794,"lon":5.400052,"is_reserved":false,"is_disabled":false,"rental_uris":{"android":"levelo://app?vid=6909e9f4-7190-4de5-9454-7cc1785d277a","ios":"levelo://app?vid=6909e9f4-7190-4de5-9454-7cc1785d277a"},"vehicle_type_id":"4","last_reported":1685135087,"current_range_meters":32000,"station_id":"ce4bhn12rcd13ifvqgqg","pricing_plan_id":"free"},{"bike_id":"a7fbfb05-3a72-4dea-b5c9-12ad7997a8ad","system_id":"levelo_inurba_marseille","lat":43.231794,"lon":5.400052,"is_reserved":false,"is_disabled":false,"rental_uris":{"android":"levelo://app?vid=a7fbfb05-3a72-4dea-b5c9-12ad7997a8ad","ios":"levelo://app?vid=a7fbfb05-3a72-4dea-b5c9-12ad7997a8ad"},"vehicle_type_id":"4","last_reported":1685135087,"current_range_meters":24800,"station_id":"ce4bhn12rcd13ifvqgqg","pricing_plan_id":"free"},