{"last_updated":1715468868,"ttl":30,"version":"2.2","data":{"bikes":[{"bike_id":"096dfa13-1683-4237-968e-e34d910667b1","system_id":"levelo_inurba_marseille","lat":43.313391,"lon":5.36706,"is_reserved":false,"is_disabled":false,"rental_uris":{"android":"levelo://app?vid=096dfa13-1683-4237-968e-e34d910667b1","ios":"levelo://app?vid=096dfa13-1683-4237-968e-e34d910667b1"},"vehicle_type_id":"4","last_reported":1715468868,"current_range_meters":18800,"station_id":"ce4bgr92rcd13ifvqc6g","pricing_plan_id":"cebpf4jnsgd1na2vs0mg"},{"bike_id":"37173049-93a5-486a-b3d2-6425b934bdad","system_id":"levelo_inurba_marseille","lat":43.31248,"lon":5.36845,"is_reserved":false,"is_disabled":false,"rental_uris":{"android":"levelo://app?vid=37173049-93a5-486a-b3d2-6425b934bdad","ios":"levelo://app?vid=37173049-93a5-486a-b3d2-6425b934bdad"},"vehicle_type_id":"4","last_reported":1715468868,"current_range_meters":4400,"station_id":"ce4bgl92rcd13ifvqbq0","pricing_plan_id":"cebpf4jnsgd1na2vs0mg"},{"bike_id":"797d066d-e843-4120-af98-be5455e2e437","system_id":"levelo_inurba_marseille","lat":43.31224,"lon":5.36849,"is_reserved":false,"is_disabled":false,"rental_uris":{"android":"levelo://app?vid=797d066d-e843-4120-af98-be5455e2e437","ios":"levelo://app?vid=797d066d-e843-4120-af98-be5455e2e437"},"vehicle_type_id":"4","last_reported":1715468868,"current_range_meters":26000,"station_id":"ce4bgl92rcd13ifvqbq0","pricing_plan_id":"cebpf4jnsgd1na2vs0mg"},{"bike_id":"e6bc617b-31c1-4357-ba1a-2e90e6ff8100","system_id":"levelo_inurba_marseille","lat":43.312239,"lon":5.368562,"is_reserved":false,"is_disabled":false,"rental_uris":{"android":"levelo://app?vid=e6bc617b-31c1-4357-ba1a-2e90e6ff8100","ios":"levelo://app?vid=e6bc617b-31c1-4357-ba1a-2e90e6ff8100"},"vehicle_type_id":"4","last_reported":1715468868,"current_range_meters":1200,"station_id":"ce4bgl92rcd13ifvqbq0","pricing_plan_id":"cebpf4jnsgd1na2vs0mg"},{"bike_id":"1e41a50c-5ea5-4d6d-af8a-88248a15d18b","system_id":"levelo_inurba_marseille","lat":43.309076,"lon":5.368465,"is_reserved":false,"is_disabled":false,"rental_uris":{"android":"levelo://app?vid=1e41a50c-5ea5-4d6d-af8a-88248a15d18b","ios":"levelo://app?vid=1e41a50c-5ea5-4d6d-af8a-88248a15d18b"},"vehicle_type_id":"4","last_reported":1715468868,"current_range_meters":28800,"station_id":"ce4bgn92rcd13ifvqbvg","pricing_plan_id":"cebpf4jnsgd1na2vs0mg"},{"bike_id":"ff754133-205a-41e4-8370-98f4dd91f115","system_id":"levelo_inurba_marseille","lat":43.314811,"lon":5.373104,"is_reserved":false,"is_disabled":false,"rental_uris":{"android":"levelo://app?vid=ff754133-205a-41e4-8370-98f4dd91f115","ios":"levelo://app?vid=ff754133-205a-41e4-8370-98f4dd91f115"},"vehicle_type_id":"4","last_reported":1715468868,"current_range_meters":6800,"station_id":"ce4bgt12rcd13ifvqcd0","pricing_plan_id":"cebpf4jnsgd1na2vs0mg"},{"bike_id":"f810f5a0-f783-44fc-b524-774d35ca36aa","system_id":"levelo_inurba_marseille","lat":43.314811,"lon":5.373103,"is_reserved":false,"is_disabled":false,"rental_uris":{"android":"levelo://app?vid=f810f5a0-f783-44fc-b524-774d35ca36aa","ios":"levelo://app?vid=f810f5a0-f783-44fc-b524-774d35ca36aa"},"vehicle_type_id":"4","last_reported":1715468868,"current_range_meters":0,"station_id":"ce4bgt12rcd13ifvqcd0","pricing_plan_id":"cebpf4jnsgd1na2vs0mg"},{"bike_id":"7e215152-8961-43ce-b528-62b928622efc","system_id":"levelo_inurba_marseille","lat":43.31492,"lon":5.37307,"is_reserved":false,"is_disabled":false,"rental_uris":{"android":"levelo://app?vid=7e215152-8961-43ce-b528-62b928622efc","ios":"levelo://app?vid=7e215152-8961-43ce-b528-62b928622efc"},"vehicle_type_id":"4","last_reported":1715468868,"current_range_meters":0,"station_id":"ce4bgt12rcd13ifvqcd0","pricing_plan_id":"cebpf4jnsgd1na2vs0mg"},{"bike_id":"1b1f3287-4eae-4c77-94f7-ebda2dc0c3a8","system_id":"levelo_inurba_marseille","lat":43.314811,"lon":5.373103,"is_reserved":false,"is_disabled":false,"rental_uris":{"android":"levelo://app?vid=1b1f3287-4eae-4c77-94f7-ebda2dc0c3a8","ios":"levelo://app?vid=1b1f3287-4eae-4c77-94f7-ebda2dc0c3a8"},"vehicle_type_id":"4","last_reported":1715468868,"current_range_meters":1200,"station_id":"ce4bgt12rcd13ifvqcd0","pricing_plan_id":"cebpf4jnsgd1na2vs0mg"},{"bike_id":"5acd7848-2e8e-455a-8471-8c0c15999baf","system_id":"levelo_inurba_marseille","lat":43.314811,"lon":5.373104,"is_reserved":false,"is_disabled":false,"rental_uris":{"android":"levelo://app?vid=5acd7848-2e8e-455a-8471-8c0c15999baf","ios":"levelo://app?vid=5acd7848-2e8e-455a-8471-8c0c15999baf"},"vehicle_type_id":"4","last_reported":1715468868,"current_range_meters":2400,"station_id":"ce4bgt12rcd13ifvqcd0","pricing_plan_id":"cebpf4jnsgd1na2vs0mg"},{"bike_id":"dd62bde6-6d10-4ce5-a382-398ff291eceb","system_id":"levelo_inurba_marseille","lat":43.309039,"lon":5.371797,"is_reserved":false,"is_disabled":false,"rental_uris":{"android":"levelo://app?vid=dd62bde6-6d10-4ce5-a382-398ff291eceb","ios":"levelo://app?vid=dd62bde6-6d10-4ce5-a382-398ff291eceb"},"vehicle_type_id":"4","last_reported":1715468868,"current_range_meters":7200,"station_id":"ce4bguh2rcd13ifvqckg","pricing_plan_id":"cebpf4jnsgd1na2vs0mg"},{"bike_id":"6f969598-bb3d-450e-ad15-877552d055e0","system_id":"levelo_inurba_marseille","lat":43.309039,"lon":5.371797,"is_reserved":false,"is_disabled":false,"rental_uris":{"android":"levelo://app?vid=6f969598-bb3d-450e-ad15-877552d055e0","ios":"levelo://app?vid=6f969598-bb3d-450e-ad15-877552d055e0"},"vehicle_type_id":"4","last_reported":1715468868,"current_range_meters":9200,"station_id":"ce4bguh2rcd13ifvqckg","pricing_plan_id":"cebpf4jnsgd1na2vs0mg"},{"bike_id":"a145c673-db6f-466b-98ed-cc8d16e03397","system_id":"levelo_inurba_marseille","lat":43.305714,"lon":5.365633,"is_reserved":false,"is_disabled":false,"rental_uris":{"android":"levelo://app?vid=a145c673-db6f-466b-98ed-cc8d16e03397","ios":"levelo://app?vid=a145c673-db6f-466b-98ed-cc8d16e03397"},"vehicle_type_id":"4","last_reported":1715468868,"current_range_meters":12400,"station_id":"ce4bgs12rcd13ifvqcag","pricing_plan_id":"cebpf4jnsgd1na2vs0mg"},{"bike_id":"83bf5deb-dc40-4446-8b6e-1ea6e7f5fe6d","system_id":"levelo_inurba_marseille","lat":43.305714,"lon":5.365633,"is_reserved":false,"is_disabled":false,"rental_uris":{"android":"levelo://app?vid=83bf5deb-dc40-4446-8b6e-1ea6e7f5fe6d","ios":"levelo://app?vid=83bf5deb-dc40-4446-8b6e-1ea6e7f5fe6d"},"vehicle_type_id":"4","last_reported":1715468868,"current_range_meters":0,"station_id":"ce4bgs12rcd13ifvqcag","pricing_plan_id":"cebpf4jnsgd1na2vs0mg"},{"bike_id":"1a012f14-e8e7-4012-a145-b8c2c944e930","system_id":"levelo_inurba_marseille","lat":43.305368,"lon":5.367343,"is_reserved":false,"is_disabled":false,"rental_uris":{"android":"levelo://app?vid=1a012f14-e8e7-4012-a145-b8c2c944e930","ios":"levelo://app?vid=1a012f14-e8e7-4012-a145-b8c2c944e930"},"vehicle_type_id":"4","last_reported":1715468868,"current_range_meters":14000,"station_id":"ce4bgrp2rcd13ifvqc9g","pricing_plan_id":"cebpf4jnsgd1na2vs0mg"},{"bike_id":"c317af9c-df59-4a3f-9ef8-114edae49360","system_id":"levelo_inurba_marseille","lat":43.311131,"lon":5.377651,"is_reserved":false,"is_disabled":false,"rental_uris":{"android":"levelo://app?vid=c317af9c-df59-4a3f-9ef8-114edae49360","ios":"levelo://app?vid=c317af9c-df59-4a3f-9ef8-114edae49360"},"vehicle_type_id":"4","last_reported":1715468868,"current_range_meters":26800,"station_id":"ce4bgt92rcd13ifvqcg0","pricing_plan_id":"cebpf4jnsgd1na2vs0mg"},{"bike_id":"d080e089-308f-4331-8522-fd542409311a","system_id":"levelo_inurba_marseille","lat":43.311131,"lon":5.377651,"is_reserved":false,"is_disabled":false,"rental_uris":{"android":"levelo://app?vid=d080e089-308f-4331-8522-fd542409311a","ios":"levelo://app?vid=d080e089-308f-4331-8522-fd542409311a"},"vehicle_type_id":"4","last_reported":1715468868,"current_range_meters":30000,"station_id":"ce4bgt92rcd13ifvqcg0","pricing_plan_id":"cebpf4jnsgd1na2vs0mg"},{"bike_id":"425e9729-26b4-4634-9a15-836e01acf79f","system_id":"levelo_inurba_marseille","lat":43.311131,"lon":5.377651,"is_reserved":false,"is_disabled":false,"rental_uris":{"android":"levelo://app?vid=425e9729-26b4-4634-9a15-836e01acf79f","ios":"levelo://app?vid=425e9729-26b4-4634-9a15-836e01acf79f"},"vehicle_type_id":"4","last_reported":1715468868,"current_range_meters":27600,"station_id":"ce4bgt92rcd13ifvqcg0","pricing_plan_id":"cebpf4jnsgd1na2vs0mg"},{"bike_id":"fb5808e5-e022-4350-bb01-d63c608c75ed","system_id":"levelo_inurba_marseille","lat":43.311131,"lon":5.377651,"is_reserved":false,"is_disabled":false,"rental_uris":{"android":"levelo://app?vid=fb5808e5-e022-4350-bb01-d63c608c75ed","ios":"levelo://app?vid=fb5808e5-e022-4350-bb01-d63c608c75ed"},"vehicle_type_id":"4","last_reported":1715468868,"current_range_meters":7600,"station_id":"ce4bgt92rcd13ifvqcg0","pricing_plan_id":"cebpf4jnsgd1na2vs0mg"},{"bike_id":"615a255f-48e3-4230-bf8e-df5fd47a43b1","system_id":"levelo_inurba_marseille","lat":43.31118,"lon":5.37758,"is_reserved":false,"is_disabled":false,"rental_uris":{"android":"levelo://app?vid=615a255f-48e3-4230-bf8e-df5fd47a43b1","ios":"levelo://app?vid=615a255f-48e3-4230-bf8e-df5fd47a43b1"},"vehicle_type_id":"4","last_reported":1715468868,"current_range_meters":28000,"station_id":"ce4bgt92rcd13ifvqcg0","pricing_plan_id":"cebpf4jnsgd1na2vs0mg"},{"bike_id":"6a48b64b-b605-4eb9-bb9c-e30ab168d7a6","system_id":"levelo_inurba_marseille","lat":43.311188,"lon":5.3776,"is_reserved":false,"is_disabled":false,"rental_uris":{"android":"levelo://app?vid=6a48b64b-b605-4eb9-bb9c-e30ab168d7a6","ios":"levelo://app?vid=6a48b64b-b605-4eb9-bb9c-e30ab168d7a6"},"vehicle_type_id":"4","last_reported":1715468868,"current_range_meters":24400,"station_id":"ce4bgt92rcd13ifvqcg0","pricing_plan_id":"cebpf4jnsgd1na2vs0mg"},{"bike_id":"a8d7d92e-a121-4505-95a7-3c0d330425e8","system_id":"levelo_inurba_marseille","lat":43.311131,"lon":5.377651,"is_reserved":false,"is_disabled":false,"rental_uris":{"android":"levelo://app?vid=a8d7d92e-a121-4505-95a7-3c0d330425e8","ios":"levelo://app?vid=a8d7d92e-a121-4505-95a7-3c0d330425e8"},"vehicle_type_id":"4","last_reported":1715468868,"current_range_meters":21600,"station_id":"ce4bgt92rcd13ifvqcg0","pricing_plan_id":"cebpf4jnsgd1na2vs0mg"},{"bike_id":"4c9a5573-21a0-431d-8e1b-df63ac6306c8","system_id":"levelo_inurba_marseille","lat":43.311131,"lon":5.377651,"is_reserved":false,"is_disabled":false,"rental_uris":{"android":"levelo://app?vid=4c9a5573-21a0-431d-8e1b-df63ac6306c8","ios":"levelo://app?vid=4c9a5573-21a0-431d-8e1b-df63ac6306c8"},"vehicle_type_id":"4","last_reported":1715468868,"current_range_meters":14800,"station_id":"ce4bgt92rcd13ifvqcg0","pricing_plan_id":"cebpf4jnsgd1na2vs0mg"},{"bike_id":"8c25579f-f663-4f4d-9762-bbb9c1788c12","system_id":"levelo_inurba_marseille","lat":43.311173,"lon":5.37768,"is_reserved":false,"is_disabled":false,"rental_uris":{"android":"levelo://app?vid=8c25579f-f663-4f4d-9762-bbb9c1788c12","ios":"levelo://app?vid=8c25579f-f663-4f4d-9762-bbb9c1788c12"},"vehicle_type_id":"4","last_reported":1715468868,"current_range_meters":16800,"station_id":"ce4bgt92rcd13ifvqcg0","pricing_plan_id":"cebpf4jnsgd1na2vs0mg"},{"bike_id":"359f4f25-9049-4c72-9b7b-347831cd2f77","system_id":"levelo_inurba_marseille","lat":43.311131,"lon":5.377651,"is_reserved":false,"is_disabled":false,"rental_uris":{"android":"levelo://app?vid=359f4f25-9049-4c72-9b7b-347831cd2f77","ios":"levelo://app?vid=359f4f25-9049-4c72-9b7b-347831cd2f77"},"vehicle_type_id":"4","last_reported":1715468868,"current_range_meters":16000,"station_id":"ce4bgt92rcd13ifvqcg0","pricing_plan_id":"cebpf4jnsgd1na2vs0mg"},{"bike_id":"f8d20546-d8ee-463a-8b4d-11488346c47f","system_id":"levelo_inurba_marseille","lat":43.311125,"lon":5.377624,"is_reserved":false,"is_disabled":false,"rental_uris":{"android":"levelo://app?vid=f8d20546-d8ee-463a-8b4d-11488346c47f","ios":"levelo://app?vid=f8d20546-d8ee-463a-8b4d-11488346c47f"},"vehicle_type_id":"4","last_reported":1715468868,"current_range_meters":0,"station_id":"ce4bgt92rcd13ifvqcg0","pricing_plan_id":"cebpf4jnsgd1na2vs0mg"},{"bike_id":"db593278-0cd0-48f4-b0f3-b45a949b3233","system_id":"levelo_inurba_marseille","lat":43.307945,"lon":5.376487,"is_reserved":false,"is_disabled":false,"rental_uris":{"android":"levelo://app?vid=db593278-0cd0-48f4-b0f3-b45a949b3233","ios":"levelo://app?vid=db593278-0cd0-48f4-b0f3-b45a949b3233"},"vehicle_type_id":"4","last_reported":1715468868,"current_range_meters":28400,"station_id":"ce4bgv92rcd13ifvqcq0","pricing_plan_id":"cebpf4jnsgd1na2vs0mg"},{"bike_id":"1e951596-e0f6-4281-ae91-b8faa0a8a9df","system_id":"levelo_inurba_marseille","lat":43.307945,"lon":5.376487,"is_reserved":false,"is_disabled":false,"rental_uris":{"android":"levelo://app?vid=1e951596-e0f6-4281-ae91-b8faa0a8a9df","ios":"levelo://app?vid=1e951596-e0f6-4281-ae91-b8faa0a8a9df"},"vehicle_type_id":"4","last_reported":1715468868,"current_range_meters":28800,"station_id":"ce4bgv92rcd13ifvqcq0","pricing_plan_id":"cebpf4jnsgd1na2vs0mg"},{"bike_id":"05a50c20-ad26-48c0-83f7-7c902e684f18","system_id":"levelo_inurba_marseille","lat":43.307945,"lon":5.376487,"is_reserved":false,"is_disabled":false,"rental_uris":{"android":"levelo://app?vid=05a50c20-ad26-48c0-83f7-7c902e684f18","ios":"levelo://app?vid=05a50c20-ad26-48c0-83f7-7c902e684f18"},"vehicle_type_id":"4","last_reported":1715468868,"current_range_meters":0,"station_id":"ce4bgv92rcd13ifvqcq0","pricing_plan_id":"cebpf4jnsgd1na2vs0mg"},{"bike_id":"afb700f7-0596-4734-948b-8354cca7ed3e","system_id":"levelo_inurba_marseille","lat":43.307945,"lon":5.376487,"is_reserved":false,"is_disabled":false,"rental_uris":{"android":"levelo://app?vid=afb700f7-0596-4734-948b-8354cca7ed3e","ios":"levelo://app?vid=afb700f7-0596-4734-948b-8354cca7ed3e"},"vehicle_type_id":"4","last_reported":1715468868,"current_range_meters":11200,"station_id":"ce4bgv92rcd13ifvqcq0","pricing_plan_id":"cebpf4jnsgd1na2vs0mg"},{"bike_id":"1c14a33c-4bb3-4af0-b434-70776da4b7a3","system_id":"levelo_inurba_marseille","lat":43.307945,"lon":5.376487,"is_reserved":false,"is_disabled":false,"rental_uris":{"android":"levelo://app?vid=1c14a33c-4bb3-4af0-b434-70776da4b7a3","ios":"levelo://app?vid=1c14a33c-4bb3-4af0-b434-70776da4b7a3"},"vehicle_type_id":"4","last_reported":1715468868,"current_range_meters":17200,"station_id":"ce4bgv92rcd13ifvqcq0","pricing_plan_id":"cebpf4jnsgd1na2vs0mg"},{"bike_id":"c18f8ad2-c894-4022-be26-5423684aa512","system_id":"levelo_inurba_marseille","lat":43.307945,"lon":5.376487,"is_reserved":false,"is_disabled":false,"rental_uris":{"android":"levelo://app?vid=c18f8ad2-c894-4022-be26-5423684aa512","ios":"levelo://app?vid=c18f8ad2-c894-4022-be26-5423684aa512"},"vehicle_type_id":"4","last_reported":1715468868,"current_range_meters":28000,"station_id":"ce4bgv92rcd13ifvqcq0","pricing_plan_id":"cebpf4jnsgd1na2vs0mg"},{"bike_id":"a8420d12-5ea1-4553-ba77-74153419b9a1","system_id":"levelo_inurba_marseille","lat":43.307945,"lon":5.376487,"is_reserved":false,"is_disabled":false,"rental_uris":{"android":"levelo://app?vid=a8420d12-5ea1-4553-ba77-74153419b9a1","ios":"levelo://app?vid=a8420d12-5ea1-4553-ba77-74153419b9a1"},"vehicle_type_id":"4","last_reported":1715468868,"current_range_meters":31600,"station_id":"ce4bgv92rcd13ifvqcq0","pricing_plan_id":"cebpf4jnsgd1na2vs0mg"},{"bike_id":"2e766caf-c75e-4dfa-80ad-bb7ac8dc6af7","system_id":"levelo_inurba_marseille","lat":43.307945,"lon":5.376487,"is_reserved":false,"is_disabled":false,"rental_uris":{"android":"levelo://app?vid=2e766caf-c75e-4dfa-80ad-bb7ac8dc6af7","ios":"levelo://app?vid=2e766caf-c75e-4dfa-80ad-bb7ac8dc6af7"},"vehicle_type_id":"4","last_reported":1715468868,"current_range_meters":4000,"station_id":"ce4bgv92rcd13ifvqcq0","pricing_plan_id":"cebpf4jnsgd1na2vs0mg"},{"bike_id":"4bf92838-c09e-4f8e-aa7d-448a6884f219","system_id":"levelo_inurba_marseille","lat":43.307945,"lon":5.376487,"is_reserved":false,"is_disabled":false,"rental_uris":{"android":"levelo://app?vid=4bf92838-c09e-4f8e-aa7d-448a6884f219","ios":"levelo://app?vid=4bf92838-c09e-4f8e-aa7d-448a6884f219"},"vehicle_type_id":"4","last_reported":1715468868,"current_range_meters":26000,"station_id":"ce4bgv92rcd13ifvqcq0","pricing_plan_id":"cebpf4jnsgd1na2vs0mg"},{"bike_id":"38227d49-b2f9-4e1e-adcd-b8939f7ea0a4","system_id":"levelo_inurba_marseille","lat":43.307945,"lon":5.376487,"is_reserved":false,"is_disabled":false,"rental_uris":{"android":"levelo://app?vid=38227d49-b2f9-4e1e-adcd-b8939f7ea0a4","ios":"levelo://app?vid=38227d49-b2f9-4e1e-adcd-b8939f7ea0a4"},"vehicle_type_id":"4","last_reported":1715468868,"current_range_meters":24800,"station_id":"ce4bgv92rcd13ifvqcq0","pricing_plan_id":"cebpf4jnsgd1na2vs0mg"},{"bike_id":"57e96d4e-aa35-4a7e-8ac8-a7cd46ff08fa","system_id":"levelo_inurba_marseille","lat":43.307945,"lon":5.376487,"is_reserved":false,"is_disabled":false,"rental_uris":{"android":"levelo://app?vid=57e96d4e-aa35-4a7e-8ac8-a7cd46ff08fa","ios":"levelo://app?vid=57e96d4e-aa35-4a7e-8ac8-a7cd46ff08fa"},"vehicle_type_id":"4","last_reported":1715468868,"current_range_meters":2400,"station_id":"ce4bgv92rcd13ifvqcq0","pricing_plan_id":"cebpf4jnsgd1na2vs0mg"},{"bike_id":"530a4b43-07e1-45f4-bfbe-64a88e02b0e8","system_id":"levelo_inurba_marseille","lat":43.307945,"lon":5.376487,"is_reserved":false,"is_disabled":false,"rental_uris":{"android":"levelo://app?vid=530a4b43-07e1-45f4-bfbe-64a88e02b0e8","ios":"levelo://app?vid=530a4b43-07e1-45f4-bfbe-64a88e02b0e8"},"vehicle_type_id":"4","last_reported":1715468868,"current_range_meters":23200,"station_id":"ce4bgv92rcd13ifvqcq0","pricing_plan_id":"cebpf4jnsgd1na2vs0mg"},{"bike_id":"0f0d5a3e-fc92-42fb-94e4-9e27778ddb09","system_id":"levelo_inurba_marseille","lat":43.307945,"lon":5.376487,"is_reserved":false,"is_disabled":false,"rental_uris":{"android":"levelo://app?vid=0f0d5a3e-fc92-42fb-94e4-9e27778ddb09","ios":"levelo://app?vid=0f0d5a3e-fc92-42fb-94e4-9e27778ddb09"},"vehicle_type_id":"4","last_reported":1715468868,"current_range_meters":2800,"station_id":"ce4bgv92rcd13ifvqcq0","pricing_plan_id":"cebpf4jnsgd1na2vs0mg"},{"bike_id":"f11099b3-1b7f-4559-9884-83e89a0555a9","system_id":"levelo_inurba_marseille","lat":43.317075,"lon":5.377367,"is_reserved":false,"is_disabled":false,"rental_uris":{"android":"levelo://app?vid=f11099b3-1b7f-4559-9884-83e89a0555a9","ios":"levelo://app?vid=f11099b3-1b7f-4559-9884-83e89a0555a9"},"vehicle_type_id":"4","last_reported":1715468868,"current_range_meters":22400,"station_id":"ce4bgth2rcd13ifvqch0","pricing_plan_id":"cebpf4jnsgd1na2vs0mg"},{"bike_id":"364e401a-9982-4c21-b839-632f6eba0d1f","system_id":"levelo_inurba_marseille","lat":43.317075,"lon":5.377367,"is_reserved":false,"is_disabled":false,"rental_uris":{"android":"levelo://app?vid=364e401a-9982-4c21-b839-632f6eba0d1f","ios":"levelo://app?vid=364e401a-9982-4c21-b839-632f6eba0d1f"},"vehicle_type_id":"4","last_reported":1715468868,"current_range_meters":21600,"station_id":"ce4bgth2rcd13ifvqch0","pricing_plan_id":"cebpf4jnsgd1na2vs0mg"},{"bike_id":"43eeca73-981a-4e0a-b033-348ec10d81e0","system_id":"levelo_inurba_marseille","lat":43.317075,"lon":5.377367,"is_reserved":false,"is_disabled":false,"rental_uris":{"android":"levelo://app?vid=43eeca73-981a-4e0a-b033-348ec10d81e0","ios":"levelo://app?vid=43eeca73-981a-4e0a-b033-348ec10d81e0"},"vehicle_type_id":"4","last_reported":1715468868,"current_range_meters":27600,"station_id":"ce4bgth2rcd13ifvqch0","pricing_plan_id":"cebpf4jnsgd1na2vs0mg"},{"bike_id":"8c097122-685e-41d0-8670-2bb464d989b0","system_id":"levelo_inurba_marseille","lat":43.317075,"lon":5.377367,"is_reserved":false,"is_disabled":false,"rental_uris":{"android":"levelo://app?vid=8c097122-685e-41d0-8670-2bb464d989b0","ios":"levelo://app?vid=8c097122-685e-41d0-8670-2bb464d989b0"},"vehicle_type_id":"4","last_reported":1715468868,"current_range_meters":18400,"station_id":"ce4bgth2rcd13ifvqch0","pricing_plan_id":"cebpf4jnsgd1na2vs0mg"},{"bike_id":"8533b163-b6b6-42fc-a4aa-477d37cba268","system_id":"levelo_inurba_marseille","lat":43.303046,"lon":5.368981,"is_reserved":false,"is_disabled":false,"rental_uris":{"android":"levelo://app?vid=8533b163-b6b6-42fc-a4aa-477d37cba268","ios":"levelo://app?vid=8533b163-b6b6-42fc-a4aa-477d37cba268"},"vehicle_type_id":"4","last_reported":1715468868,"current_range_meters":9600,"station_id":"ce4bgqh2rcd13ifvqc5g","pricing_plan_id":"cebpf4jnsgd1na2vs0mg"},{"bike_id":"d639d74a-4134-44fd-8bf1-42e5ba95ea91","system_id":"levelo_inurba_marseille","lat":43.315289,"lon":5.380349,"is_reserved":false,"is_disabled":false,"rental_uris":{"android":"levelo://app?vid=d639d74a-4134-44fd-8bf1-42e5ba95ea91","ios":"levelo://app?vid=d639d74a-4134-44fd-8bf1-42e5ba95ea91"},"vehicle_type_id":"4","last_reported":1715468868,"current_range_meters":14800,"station_id":"ce4bhsp2rcd13ifvqi50","pricing_plan_id":"cebpf4jnsgd1na2vs0mg"},{"bike_id":"7f510b18-2eec-4aa0-8891-5e462e3bcb11","system_id":"levelo_inurba_marseille","lat":43.302432,"lon":5.369256,"is_reserved":false,"is_disabled":false,"rental_uris":{"android":"levelo://app?vid=7f510b18-2eec-4aa0-8891-5e462e3bcb11","ios":"levelo://app?vid=7f510b18-2eec-4aa0-8891-5e462e3bcb11"},"vehicle_type_id":"4","last_reported":1715468868,"current_range_meters":7200,"station_id":"","pricing_plan_id":"cebpf4jnsgd1na2vs0mg"},{"bike_id":"a2b6beba-e19e-40ae-b577-d87cc8cc051a","system_id":"levelo_inurba_marseille","lat":43.301939,"lon":5.366286,"is_reserved":false,"is_disabled":false,"rental_uris":{"android":"levelo://app?vid=a2b6beba-e19e-40ae-b577-d87cc8cc051a","ios":"levelo://app?vid=a2b6beba-e19e-40ae-b577-d87cc8cc051a"},"vehicle_type_id":"4","last_reported":1715468868,"current_range_meters":16400,"station_id":"ce4bgrh2rcd13ifvqc8g","pricing_plan_id":"cebpf4jnsgd1na2vs0mg"},{"bike_id":"dfc7ec82-cde0-4457-a8fa-45b6c6a6be39","system_id":"levelo_inurba_marseille","lat":43.30187,"lon":5.36606,"is_reserved":false,"is_disabled":false,"rental_uris":{"android":"levelo://app?vid=dfc7ec82-cde0-4457-a8fa-45b6c6a6be39","ios":"levelo://app?vid=dfc7ec82-cde0-4457-a8fa-45b6c6a6be39"},"vehicle_type_id":"4","last_reported":1715468868,"current_range_meters":0,"station_id":"ce4bgrh2rcd13ifvqc8g","pricing_plan_id":"cebpf4jnsgd1na2vs0mg"},{"bike_id":"a1abd2ad-0a2c-4c28-846d-b1eba05978ef","system_id":"levelo_inurba_marseille","lat":43.307945,"lon":5.376487,"is_reserved":false,"is_disabled":false,"rental_uris":{"android":"levelo://app?vid=a1abd2ad-0a2c-4c28-846d-b1eba05978ef","ios":"levelo://app?vid=a1abd2ad-0a2c-4c28-846d-b1eba05978ef"},"vehicle_type_id":"4","last_reported":1715468868,"current_range_meters":30400,"station_id":"ce4bgv92rcd13ifvqcq0","pricing_plan_id":"cebpf4jnsgd1na2vs0mg"},{"bike_id":"46ca62fe-2200-4fb9-b209-fa360db28095","system_id":"levelo_inurba_marseille","lat":43.308012,"lon":5.381511,"is_reserved":false,"is_disabled":false,"rental_uris":{"android":"levelo://app?vid=46ca62fe-2200-4fb9-b209-fa360db28095","ios":"levelo://app?vid=46ca62fe-2200-4fb9-b209-fa360db28095"},"vehicle_type_id":"4","last_reported":1715468868,"current_range_meters":14800,"station_id":"ce4bgt12rcd13ifvqce0","pricing_plan_id":"cebpf4jnsgd1na2vs0mg"},{"bike_id":"aa6b2747-fc8e-44cc-b1a0-3a7f1394569a","system_id":"levelo_inurba_marseille","lat":43.308,"lon":5.38142,"is_reserved":false,"is_disabled":false,"rental_uris":{"android":"levelo://app?vid=aa6b2747-fc8e-44cc-b1a0-3a7f1394569a","ios":"levelo://app?vid=aa6b2747-fc8e-44cc-b1a0-3a7f1394569a"},"vehicle_type_id":"4","last_reported":1715468868,"current_range_meters":2800,"station_id":"ce4bgt12rcd13ifvqce0","pricing_plan_id":"cebpf4jnsgd1na2vs0mg"},{"bike_id":"3ca35f78-1ed2-40ef-a3d9-4ab8e251fb4a","system_id":"levelo_inurba_marseille","lat":43.308012,"lon":5.381511,"is_reserved":false,"is_disabled":false,"rental_uris":{"android":"levelo://app?vid=3ca35f78-1ed2-40ef-a3d9-4ab8e251fb4a","ios":"levelo://app?vid=3ca35f78-1ed2-40ef-a3d9-4ab8e251fb4a"},"vehicle_type_id":"4","last_reported":1715468868,"current_range_meters":0,"station_id":"ce4bgt12rcd13ifvqce0","pricing_plan_id":"cebpf4jnsgd1na2vs0mg"},{"bike_id":"02b0faa7-289c-4b50-8314-7603932f402f","system_id":"levelo_inurba_marseille","lat":43.308012,"lon":5.381511,"is_reserved":false,"is_disabled":false,"rental_uris":{"android":"levelo://app?vid=02b0faa7-289c-4b50-8314-7603932f402f","ios":"levelo://app?vid=02b0faa7-289c-4b50-8314-7603932f402f"},"vehicle_type_id":"4","last_reported":1715468868,"current_range_meters":14400,"station_id":"ce4bgt12rcd13ifvqce0","pricing_plan_id":"cebpf4jnsgd1na2vs0mg"},{"bike_id":"7b518c58-1b73-46bf-99fd-da5482feded9","system_id":"levelo_inurba_marseille","lat":43.308012,"lon":5.381511,"is_reserved":false,"is_disabled":false,"rental_uris":{"android":"levelo://app?vid=7b518c58-1b73-46bf-99fd-da5482feded9","ios":"levelo://app?vid=7b518c58-1b73-46bf-99fd-da5482feded9"},"vehicle_type_id":"4","last_reported":1715468868,"current_range_meters":26800,"station_id":"ce4bgt12rcd13ifvqce0","pricing_plan_id":"cebpf4jnsgd1na2vs0mg"},{"bike_id":"e3ea635f-d611-4869-bb4d-1059c3e3dba2","system_id":"levelo_inurba_marseille","lat":43.308012,"lon":5.381511,"is_reserved":false,"is_disabled":false,"rental_uris":{"android":"levelo://app?vid=e3ea635f-d611-4869-bb4d-1059c3e3dba2","ios":"levelo://app?vid=e3ea635f-d611-4869-bb4d-1059c3e3dba2"},"vehicle_type_id":"4","last_reported":1715468868,"current_range_meters":22000,"station_id":"ce4bgt12rcd13ifvqce0","pricing_plan_id":"cebpf4jnsgd1na2vs0mg"},{"bike_id":"3ae2715d-2433-45b2-b7d6-86b62772c557","system_id":"levelo_inurba_marseille","lat":43.308012,"lon":5.381511,"is_reserved":false,"is_disabled":false,"rental_uris":{"android":"levelo://app?vid=3ae2715d-2433-45b2-b7d6-86b62772c557","ios":"levelo://app?vid=3ae2715d-2433-45b2-b7d6-86b62772c557"},"vehicle_type_id":"4","last_reported":1715468868,"current_range_meters":8000,"station_id":"ce4bgt12rcd13ifvqce0","pricing_plan_id":"cebpf4jnsgd1na2vs0mg"},{"bike_id":"f0519099-c2a2-4b00-9e88-4684a9a3ca1e","system_id":"levelo_inurba_marseille","lat":43.308012,"lon":5.381511,"is_reserved":false,"is_disabled":false,"rental_uris":{"android":"levelo://app?vid=f0519099-c2a2-4b00-9e88-4684a9a3ca1e","ios":"levelo://app?vid=f0519099-c2a2-4b00-9e88-4684a9a3ca1e"},"vehicle_type_id":"4","last_reported":1715468868,"current_range_meters":31200,"station_id":"ce4bgt12rcd13ifvqce0","pricing_plan_id":"cebpf4jnsgd1na2vs0mg"},{"bike_id":"14c0fe8c-5abc-4534-a883-5b8f728fd279","system_id":"levelo_inurba_marseille","lat":43.308012,"lon":5.381511,"is_reserved":false,"is_disabled":false,"rental_uris":{"android":"levelo://app?vid=14c0fe8c-5abc-4534-a883-5b8f728fd279","ios":"levelo://app?vid=14c0fe8c-5abc-4534-a883-5b8f728fd279"},"vehicle_type_id":"4","last_reported":1715468868,"current_range_meters":2400,"station_id":"ce4bgt12rcd13ifvqce0","pricing_plan_id":"cebpf4jnsgd1na2vs0mg"},{"bike_id":"4b0d06c7-696b-4a4d-acfd-185c77660e8a","system_id":"levelo_inurba_marseille","lat":43.324771,"lon":5.36557,"is_reserved":false,"is_disabled":false,"rental_uris":{"android":"levelo://app?vid=4b0d06c7-696b-4a4d-acfd-185c77660e8a","ios":"levelo://app?vid=4b0d06c7-696b-4a4d-acfd-185c77660e8a"},"vehicle_type_id":"4","last_reported":1715468868,"current_range_meters":26800,"station_id":"ce4bhs12rcd13ifvqhvg","pricing_plan_id":"cebpf4jnsgd1na2vs0mg"},{"bike_id":"a76ac9e1-e5fc-45aa-83a4-d1570f8cca81","system_id":"levelo_inurba_marseille","lat":43.3248,"lon":5.36556,"is_reserved":false,"is_disabled":false,"rental_uris":{"android":"levelo://app?vid=a76ac9e1-e5fc-45aa-83a4-d1570f8cca81","ios":"levelo://app?vid=a76ac9e1-e5fc-45aa-83a4-d1570f8cca81"},"vehicle_type_id":"4","last_reported":1715468868,"current_range_meters":8400,"station_id":"","pricing_plan_id":"cebpf4jnsgd1na2vs0mg"},{"bike_id":"7279300e-a5c4-4f3b-858a-e2bd296be7c9","system_id":"levelo_inurba_marseille","lat":43.324771,"lon":5.36557,"is_reserved":false,"is_disabled":false,"rental_uris":{"android":"levelo://app?vid=7279300e-a5c4-4f3b-858a-e2bd296be7c9","ios":"levelo://app?vid=7279300e-a5c4-4f3b-858a-e2bd296be7c9"},"vehicle_type_id":"4","last_reported":1715468868,"current_range_meters":8000,"station_id":"ce4bhs12rcd13ifvqhvg","pricing_plan_id":"cebpf4jnsgd1na2vs0mg"},{"bike_id":"de363a9b-b8dd-4f25-97c4-05ca23eea0b0","system_id":"levelo_inurba_marseille","lat":43.324771,"lon":5.36557,"is_reserved":false,"is_disabled":false,"rental_uris":{"android":"levelo://app?vid=de363a9b-b8dd-4f25-97c4-05ca23eea0b0","ios":"levelo://app?vid=de363a9b-b8dd-4f25-97c4-05ca23eea0b0"},"vehicle_type_id":"4","last_reported":1715468868,"current_range_meters":30000,"station_id":"ce4bhs12rcd13ifvqhvg","pricing_plan_id":"cebpf4jnsgd1na2vs0mg"},{"bike_id":"d48e85bd-0e54-4244-87ed-8513561bc3d3","system_id":"levelo_inurba_marseille","lat":43.324771,"lon":5.36557,"is_reserved":false,"is_disabled":false,"rental_uris":{"android":"levelo://app?vid=d48e85bd-0e54-4244-87ed-8513561bc3d3","ios":"levelo://app?vid=d48e85bd-0e54-4244-87ed-8513561bc3d3"},"vehicle_type_id":"4","last_reported":1715468868,"current_range_meters":4800,"station_id":"ce4bhs12rcd13ifvqhvg","pricing_plan_id":"cebpf4jnsgd1na2vs0mg"},{"bike_id":"4a9a9665-1cd2-49ce-8806-5d25ff857789","system_id":"levelo_inurba_marseille","lat":43.324771,"lon":5.36557,"is_reserved":false,"is_disabled":false,"rental_uris":{"android":"levelo://app?vid=4a9a9665-1cd2-49ce-8806-5d25ff857789","ios":"levelo://app?vid=4a9a9665-1cd2-49ce-8806-5d25ff857789"},"vehicle_type_id":"4","last_reported":1715468868,"current_range_meters":20000,"station_id":"ce4bhs12rcd13ifvqhvg","pricing_plan_id":"cebpf4jnsgd1na2vs0mg"},{"bike_id":"b477d686-c217-4fd8-853d-78a541c0c23e","system_id":"levelo_inurba_marseille","lat":43.324771,"lon":5.36557,"is_reserved":false,"is_disabled":false,"rental_uris":{"android":"levelo://app?vid=b477d686-c217-4fd8-853d-78a541c0c23e","ios":"levelo://app?vid=b477d686-c217-4fd8-853d-78a541c0c23e"},"vehicle_type_id":"4","last_reported":1715468868,"current_range_meters":1200,"station_id":"ce4bhs12rcd13ifvqhvg","pricing_plan_id":"cebpf4jnsgd1na2vs0mg"},{"bike_id":"333cb693-6337-42b4-8566-231779fdd3f3","system_id":"levelo_inurba_marseille","lat":43.324771,"lon":5.36557,"is_reserved":false,"is_disabled":false,"rental_uris":{"android":"levelo://app?vid=333cb693-6337-42b4-8566-231779fdd3f3","ios":"levelo://app?vid=333cb693-6337-42b4-8566-231779fdd3f3"},"vehicle_type_id":"4","last_reported":1715468868,"current_range_meters":5200,"station_id":"ce4bhs12rcd13ifvqhvg","pricing_plan_id":"cebpf4jnsgd1na2vs0mg"},{"bike_id":"7d725402-757b-4cd9-84ff-6dd57d0cc79e","system_id":"levelo_inurba_marseille","lat":43.32487,"lon":5.36565,"is_reserved":false,"is_disabled":false,"rental_uris":{"android":"levelo://app?vid=7d725402-757b-4cd9-84ff-6dd57d0cc79e","ios":"levelo://app?vid=7d725402-757b-4cd9-84ff-6dd57d0cc79e"},"vehicle_type_id":"4","last_reported":1715468868,"current_range_meters":26800,"station_id":"ce4bhs12rcd13ifvqhvg","pricing_plan_id":"cebpf4jnsgd1na2vs0mg"},{"bike_id":"27864151-07c6-46e0-bb7f-76413df57206","system_id":"levelo_inurba_marseille","lat":43.324771,"lon":5.36557,"is_reserved":false,"is_disabled":false,"rental_uris":{"android":"levelo://app?vid=27864151-07c6-46e0-bb7f-76413df57206","ios":"levelo://app?vid=27864151-07c6-46e0-bb7f-76413df57206"},"vehicle_type_id":"4","last_reported":1715468868,"current_range_meters":18800,"station_id":"ce4bhs12rcd13ifvqhvg","pricing_plan_id":"cebpf4jnsgd1na2vs0mg"},{"bike_id":"3122e0f8-a2e2-4908-9064-d596e83f2d1f","system_id":"levelo_inurba_marseille","lat":43.310804,"lon":5.38359,"is_reserved":false,"is_disabled":false,"rental_uris":{"android":"levelo://app?vid=3122e0f8-a2e2-4908-9064-d596e83f2d1f","ios":"levelo://app?vid=3122e0f8-a2e2-4908-9064-d596e83f2d1f"},"vehicle_type_id":"4","last_reported":1715468868,"current_range_meters":8000,"station_id":"ce4bgv92rcd13ifvqcr0","pricing_plan_id":"cebpf4jnsgd1na2vs0mg"},{"bike_id":"9533a675-c7b3-4a17-9a94-05ea11af0952","system_id":"levelo_inurba_marseille","lat":43.310804,"lon":5.38359,"is_reserved":false,"is_disabled":false,"rental_uris":{"android":"levelo://app?vid=9533a675-c7b3-4a17-9a94-05ea11af0952","ios":"levelo://app?vid=9533a675-c7b3-4a17-9a94-05ea11af0952"},"vehicle_type_id":"4","last_reported":1715468868,"current_range_meters":800,"station_id":"ce4bgv92rcd13ifvqcr0","pricing_plan_id":"cebpf4jnsgd1na2vs0mg"},{"bike_id":"7fbc73b3-4d11-4a56-ac77-2791e4c90885","system_id":"levelo_inurba_marseille","lat":43.31073,"lon":5.38353,"is_reserved":false,"is_disabled":false,"rental_uris":{"android":"levelo://app?vid=7fbc73b3-4d11-4a56-ac77-2791e4c90885","ios":"levelo://app?vid=7fbc73b3-4d11-4a56-ac77-2791e4c90885"},"vehicle_type_id":"4","last_reported":1715468868,"current_range_meters":8400,"station_id":"ce4bgv92rcd13ifvqcr0","pricing_plan_id":"cebpf4jnsgd1na2vs0mg"},{"bike_id":"a5aae73a-6cf1-4b49-87b4-d746ca727a77","system_id":"levelo_inurba_marseille","lat":43.310804,"lon":5.38359,"is_reserved":false,"is_disabled":false,"rental_uris":{"android":"levelo://app?vid=a5aae73a-6cf1-4b49-87b4-d746ca727a77","ios":"levelo://app?vid=a5aae73a-6cf1-4b49-87b4-d746ca727a77"},"vehicle_type_id":"4","last_reported":1715468868,"current_range_meters":9600,"station_id":"ce4bgv92rcd13ifvqcr0","pricing_plan_id":"cebpf4jnsgd1na2vs0mg"},{"bike_id":"bafb89d5-b9ff-4089-bf2a-39f198a2b403","system_id":"levelo_inurba_marseille","lat":43.310804,"lon":5.38359,"is_reserved":false,"is_disabled":false,"rental_uris":{"android":"levelo://app?vid=bafb89d5-b9ff-4089-bf2a-39f198a2b403","ios":"levelo://app?vid=bafb89d5-b9ff-4089-bf2a-39f198a2b403"},"vehicle_type_id":"4","last_reported":1715468868,"current_range_meters":20800,"station_id":"ce4bgv92rcd13ifvqcr0","pricing_plan_id":"cebpf4jnsgd1na2vs0mg"},{"bike_id":"8f48c512-046e-4018-bc08-1af00933015a","system_id":"levelo_inurba_marseille","lat":43.310804,"lon":5.38359,"is_reserved":false,"is_disabled":false,"rental_uris":{"android":"levelo://app?vid=8f48c512-046e-4018-bc08-1af00933015a","ios":"levelo://app?vid=8f48c512-046e-4018-bc08-1af00933015a"},"vehicle_type_id":"4","last_reported":1715468868,"current_range_meters":1200,"station_id":"ce4bgv92rcd13ifvqcr0","pricing_plan_id":"cebpf4jnsgd1na2vs0mg"},{"bike_id":"3db36aae-7278-45ac-af1f-eb0a4a516be7","system_id":"levelo_inurba_marseille","lat":43.302784,"lon":5.377158,"is_reserved":false,"is_disabled":false,"rental_uris":{"android":"levelo://app?vid=3db36aae-7278-45ac-af1f-eb0a4a516be7","ios":"levelo://app?vid=3db36aae-7278-45ac-af1f-eb0a4a516be7"},"vehicle_type_id":"4","last_reported":1715468868,"current_range_meters":17600,"station_id":"ce4bguh2rcd13ifvqcj0","pricing_plan_id":"cebpf4jnsgd1na2vs0mg"},{"bike_id":"1a38fb57-2535-4934-96a8-f89a21145f3a","system_id":"levelo_inurba_marseille","lat":43.302784,"lon":5.377158,"is_reserved":false,"is_disabled":false,"rental_uris":{"android":"levelo://app?vid=1a38fb57-2535-4934-96a8-f89a21145f3a","ios":"levelo://app?vid=1a38fb57-2535-4934-96a8-f89a21145f3a"},"vehicle_type_id":"4","last_reported":1715468868,"current_range_meters":14400,"station_id":"ce4bguh2rcd13ifvqcj0","pricing_plan_id":"cebpf4jnsgd1na2vs0mg"},{"bike_id":"b6abf3a2-63a5-477e-a11e-0f37ce7c3b5f","system_id":"levelo_inurba_marseille","lat":43.319935,"lon":5.381699,"is_reserved":false,"is_disabled":false,"rental_uris":{"android":"levelo://app?vid=b6abf3a2-63a5-477e-a11e-0f37ce7c3b5f","ios":"levelo://app?vid=b6abf3a2-63a5-477e-a11e-0f37ce7c3b5f"},"vehicle_type_id":"4","last_reported":1715468868,"current_range_meters":15200,"station_id":"ce4bhr12rcd13ifvqhpg","pricing_plan_id":"cebpf4jnsgd1na2vs0mg"},{"bike_id":"1463d3df-f5b0-4c6f-8531-d9529b904137","system_id":"levelo_inurba_marseille","lat":43.319935,"lon":5.381699,"is_reserved":false,"is_disabled":false,"rental_uris":{"android":"levelo://app?vid=1463d3df-f5b0-4c6f-8531-d9529b904137","ios":"levelo://app?vid=1463d3df-f5b0-4c6f-8531-d9529b904137"},"vehicle_type_id":"4","last_reported":1715468868,"current_range_meters":3200,"station_id":"ce4bhr12rcd13ifvqhpg","pricing_plan_id":"cebpf4jnsgd1na2vs0mg"},{"bike_id":"337f63d9-192f-4bfb-864b-bc69c26d4437","system_id":"levelo_inurba_marseille","lat":43.319935,"lon":5.381699,"is_reserved":false,"is_disabled":false,"rental_uris":{"android":"levelo://app?vid=337f63d9-192f-4bfb-864b-bc69c26d4437","ios":"levelo://app?vid=337f63d9-192f-4bfb-864b-bc69c26d4437"},"vehicle_type_id":"4","last_reported":1715468868,"current_range_meters":0,"station_id":"ce4bhr12rcd13ifvqhpg","pricing_plan_id":"cebpf4jnsgd1na2vs0mg"},{"bike_id":"22fa4011-4a7b-4477-a693-7849c32dda0a","system_id":"levelo_inurba_marseille","lat":43.319935,"lon":5.381699,"is_reserved":false,"is_disabled":false,"rental_uris":{"android":"levelo://app?vid=22fa4011-4a7b-4477-a693-7849c32dda0a","ios":"levelo://app?vid=22fa4011-4a7b-4477-a693-7849c32dda0a"},"vehicle_type_id":"4","last_reported":1715468868,"current_range_meters":13200,"station_id":"ce4bhr12rcd13ifvqhpg","pricing_plan_id":"cebpf4jnsgd1na2vs0mg"},{"bike_id":"12c2797e-51cc-4735-b1e8-f49ea8deb456","system_id":"levelo_inurba_marseille","lat":43.319935,"lon":5.381699,"is_reserved":false,"is_disabled":false,"rental_uris":{"android":"levelo://app?vid=12c2797e-51cc-4735-b1e8-f49ea8deb456","ios":"levelo://app?vid=12c2797e-51cc-4735-b1e8-f49ea8deb456"},"vehicle_type_id":"4","last_reported":1715468868,"current_range_meters":8400,"station_id":"ce4bhr12rcd13ifvqhpg","pricing_plan_id":"cebpf4jnsgd1na2vs0mg"},{"bike_id":"8dfff8d3-5c67-4fd9-9d57-da2dd2a721b6","system_id":"levelo_inurba_marseille","lat":43.319935,"lon":5.381699,"is_reserved":false,"is_disabled":false,"rental_uris":{"android":"levelo://app?vid=8dfff8d3-5c67-4fd9-9d57-da2dd2a721b6","ios":"levelo://app?vid=8dfff8d3-5c67-4fd9-9d57-da2dd2a721b6"},"vehicle_type_id":"4","last_reported":1715468868,"current_range_meters":26800,"station_id":"ce4bhr12rcd13ifvqhpg","pricing_plan_id":"cebpf4jnsgd1na2vs0mg"},{"bike_id":"9025c251-869b-42bd-97c6-d19350ecc07a","system_id":"levelo_inurba_marseille","lat":43.313571,"lon":5.384829,"is_reserved":false,"is_disabled":false,"rental_uris":{"android":"levelo://app?vid=9025c251-869b-42bd-97c6-d19350ecc07a","ios":"levelo://app?vid=9025c251-869b-42bd-97c6-d19350ecc07a"},"vehicle_type_id":"4","last_reported":1715468868,"current_range_meters":10800,"station_id":"ce4bgt92rcd13ifvqcf0","pricing_plan_id":"cebpf4jnsgd1na2vs0mg"},{"bike_id":"824678c8-d02e-4845-9caa-d250dffb6a67","system_id":"levelo_inurba_marseille","lat":43.313571,"lon":5.384829,"is_reserved":false,"is_disabled":false,"rental_uris":{"android":"levelo://app?vid=824678c8-d02e-4845-9caa-d250dffb6a67","ios":"levelo://app?vid=824678c8-d02e-4845-9caa-d250dffb6a67"},"vehicle_type_id":"4","last_reported":1715468868,"current_range_meters":10000,"station_id":"ce4bgt92rcd13ifvqcf0","pricing_plan_id":"cebpf4jnsgd1na2vs0mg"},{"bike_id":"8a892240-39c1-4809-8bab-7ab6c51e5c34","system_id":"levelo_inurba_marseille","lat":43.313571,"lon":5.384829,"is_reserved":false,"is_disabled":false,"rental_uris":{"android":"levelo://app?vid=8a892240-39c1-4809-8bab-7ab6c51e5c34","ios":"levelo://app?vid=8a892240-39c1-4809-8bab-7ab6c51e5c34"},"vehicle_type_id":"4","last_reported":1715468868,"current_range_meters":10800,"station_id":"ce4bgt92rcd13ifvqcf0","pricing_plan_id":"cebpf4jnsgd1na2vs0mg"},{"bike_id":"e8ef476a-b1e3-4e8c-82c7-a87911daffc5","system_id":"levelo_inurba_marseille","lat":43.313571,"lon":5.384829,"is_reserved":false,"is_disabled":false,"rental_uris":{"android":"levelo://app?vid=e8ef476a-b1e3-4e8c-82c7-a87911daffc5","ios":"levelo://app?vid=e8ef476a-b1e3-4e8c-82c7-a87911daffc5"},"vehicle_type_id":"4","last_reported":1715468868,"current_range_meters":32000,"station_id":"ce4bgt92rcd13ifvqcf0","pricing_plan_id":"cebpf4jnsgd1na2vs0mg"},{"bike_id":"b125298d-03d9-4812-acc8-376d3fccfa8d","system_id":"levelo_inurba_marseille","lat":43.313571,"lon":5.384829,"is_reserved":false,"is_disabled":false,"rental_uris":{"android":"levelo://app?vid=b125298d-03d9-4812-acc8-376d3fccfa8d","ios":"levelo://app?vid=b125298d-03d9-4812-acc8-376d3fccfa8d"},"vehicle_type_id":"4","last_reported":1715468868,"current_range_meters":6000,"station_id":"ce4bgt92rcd13ifvqcf0","pricing_plan_id":"cebpf4jnsgd1na2vs0mg"},{"bike_id":"6ff5d58b-5ace-4581-805a-0848a463a96e","system_id":"levelo_inurba_marseille","lat":43.313571,"lon":5.384829,"is_reserved":false,"is_disabled":false,"rental_uris":{"android":"levelo://app?vid=6ff5d58b-5ace-4581-805a-0848a463a96e","ios":"levelo://app?vid=6ff5d58b-5ace-4581-805a-0848a463a96e"},"vehicle_type_id":"4","last_reported":1715468868,"current_range_meters":3600,"station_id":"ce4bgt92rcd13ifvqcf0","pricing_plan_id":"cebpf4jnsgd1na2vs0mg"},{"bike_id":"61c4bc93-e2d0-4033-8381-b6e28ffd1e17","system_id":"levelo_inurba_marseille","lat":43.313571,"lon":5.384829,"is_reserved":false,"is_disabled":false,"rental_uris":{"android":"levelo://app?vid=61c4bc93-e2d0-4033-8381-b6e28ffd1e17","ios":"levelo://app?vid=61c4bc93-e2d0-4033-8381-b6e28ffd1e17"},"vehicle_type_id":"4","last_reported":1715468868,"current_range_meters":15600,"station_id":"ce4bgt92rcd13ifvqcf0","pricing_plan_id":"cebpf4jnsgd1na2vs0mg"},{"bike_id":"ab66e624-79f5-419e-ab4d-504c9d1261a5","system_id":"levelo_inurba_marseille","lat":43.313571,"lon":5.384829,"is_reserved":false,"is_disabled":false,"rental_uris":{"android":"levelo://app?vid=ab66e624-79f5-419e-ab4d-504c9d1261a5","ios":"levelo://app?vid=ab66e624-79f5-419e-ab4d-504c9d1261a5"},"vehicle_type_id":"4","last_reported":1715468868,"current_range_meters":20000,"station_id":"ce4bgt92rcd13ifvqcf0","pricing_plan_id":"cebpf4jnsgd1na2vs0mg"},{"bike_id":"91f15aa0-956c-4e68-9661-be4732281b5e","system_id":"levelo_inurba_marseille","lat":43.313571,"lon":5.384829,"is_reserved":false,"is_disabled":false,"rental_uris":{"android":"levelo://app?vid=91f15aa0-956c-4e68-9661-be4732281b5e","ios":"levelo://app?vid=91f15aa0-956c-4e68-9661-be4732281b5e"},"vehicle_type_id":"4","last_reported":1715468868,"current_range_meters":0,"station_id":"ce4bgt92rcd13ifvqcf0","pricing_plan_id":"cebpf4jnsgd1na2vs0mg"},{"bike_id":"d2506008-a100-435a-bffe-83df217b07b5","system_id":"levelo_inurba_marseille","lat":43.313571,"lon":5.384829,"is_reserved":false,"is_disabled":false,"rental_uris":{"android":"levelo://app?vid=d2506008-a100-435a-bffe-83df217b07b5","ios":"levelo://app?vid=d2506008-a100-435a-bffe-83df217b07b5"},"vehicle_type_id":"4","last_reported":1715468868,"current_range_meters":1200,"station_id":"ce4bgt92rcd13ifvqcf0","pricing_plan_id":"cebpf4jnsgd1na2vs0mg"},{"bike_id":"bcc739ae-5e43-4f31-bb87-9f6fe09e2442","system_id":"levelo_inurba_marseille","lat":43.313571,"lon":5.384829,"is_reserved":false,"is_disabled":false,"rental_uris":{"android":"levelo://app?vid=bcc739ae-5e43-4f31-bb87-9f6fe09e2442","ios":"levelo://app?vid=bcc739ae-5e43-4f31-bb87-9f6fe09e2442"},"vehicle_type_id":"4","last_reported":1715468868,"current_range_meters":12400,"station_id":"ce4bgt92rcd13ifvqcf0","pricing_plan_id":"cebpf4jnsgd1na2vs0mg"},{"bike_id":"217b4672-bb68-4f72-9b99-22fe469e5cc6","system_id":"levelo_inurba_marseille","lat":43.313571,"lon":5.384829,"is_reserved":false,"is_disabled":false,"rental_uris":{"android":"levelo://app?vid=217b4672-bb68-4f72-9b99-22fe469e5cc6","ios":"levelo://app?vid=217b4672-bb68-4f72-9b99-22fe469e5cc6"},"vehicle_type_id":"4","last_reported":1715468868,"current_range_meters":26800,"station_id":"ce4bgt92rcd13ifvqcf0","pricing_plan_id":"cebpf4jnsgd1na2vs0mg"},{"bike_id":"71f32a51-aac5-46d6-bd87-52815eff3e1b","system_id":"levelo_inurba_marseille","lat":43.313571,"lon":5.384829,"is_reserved":false,"is_disabled":false,"rental_uris":{"android":"levelo://app?vid=71f32a51-aac5-46d6-bd87-52815eff3e1b","ios":"levelo://app?vid=71f32a51-aac5-46d6-bd87-52815eff3e1b"},"vehicle_type_id":"4","last_reported":1715468868,"current_range_meters":31200,"station_id":"ce4bgt92rcd13ifvqcf0","pricing_plan_id":"cebpf4jnsgd1na2vs0mg"},{"bike_id":"c7bea60e-910f-4220-9a58-7743cbc63306","system_id":"levelo_inurba_marseille","lat":43.313571,"lon":5.384829,"is_reserved":false,"is_disabled":false,"rental_uris":{"android":"levelo://app?vid=c7bea60e-910f-4220-9a58-7743cbc63306","ios":"levelo://app?vid=c7bea60e-910f-4220-9a58-7743cbc63306"},"vehicle_type_id":"4","last_reported":1715468868,"current_range_meters":23600,"station_id":"ce4bgt92rcd13ifvqcf0","pricing_plan_id":"cebpf4jnsgd1na2vs0mg"},{"bike_id":"73362ed0-5e9b-4895-a546-a64c9ab1bb0d","system_id":"levelo_inurba_marseille","lat":43.299222,"lon":5.365554,"is_reserved":false,"is_disabled":false,"rental_uris":{"android":"levelo://app?vid=73362ed0-5e9b-4895-a546-a64c9ab1bb0d","ios":"levelo://app?vid=73362ed0-5e9b-4895-a546-a64c9ab1bb0d"},"vehicle_type_id":"4","last_reported":1715468868,"current_range_meters":2400,"station_id":"ce4bgm92rcd13ifvqbr0","pricing_plan_id":"cebpf4jnsgd1na2vs0mg"},{"bike_id":"34963ce4-b49b-4cf4-b68e-ab344478ce00","system_id":"levelo_inurba_marseille","lat":43.30002,"lon":5.3746,"is_reserved":false,"is_disabled":false,"rental_uris":{"android":"levelo://app?vid=34963ce4-b49b-4cf4-b68e-ab344478ce00","ios":"levelo://app?vid=34963ce4-b49b-4cf4-b68e-ab344478ce00"},"vehicle_type_id":"4","last_reported":1715468868,"current_range_meters":10000,"station_id":"","pricing_plan_id":"cebpf4jnsgd1na2vs0mg"},{"bike_id":"b6d7ca49-85a3-4171-8064-f5ed125ecee0","system_id":"levelo_inurba_marseille","lat":43.31185,"lon":5.38676,"is_reserved":false,"is_disabled":false,"rental_uris":{"android":"levelo://app?vid=b6d7ca49-85a3-4171-8064-f5ed125ecee0","ios":"levelo://app?vid=b6d7ca49-85a3-4171-8064-f5ed125ecee0"},"vehicle_type_id":"4","last_reported":1715468868,"current_range_meters":1200,"station_id":"ce4bgv12rcd13ifvqcp0","pricing_plan_id":"cebpf4jnsgd1na2vs0mg"},{"bike_id":"54a1d89e-df4b-4799-b4c3-21437836e2bc","system_id":"levelo_inurba_marseille","lat":43.29855,"lon":5.36288,"is_reserved":false,"is_disabled":false,"rental_uris":{"android":"levelo://app?vid=54a1d89e-df4b-4799-b4c3-21437836e2bc","ios":"levelo://app?vid=54a1d89e-df4b-4799-b4c3-21437836e2bc"},"vehicle_type_id":"4","last_reported":1715468868,"current_range_meters":24800,"station_id":"ce4bgpp2rcd13ifvqc3g","pricing_plan_id":"cebpf4jnsgd1na2vs0mg"},{"bike_id":"41652381-016a-4d60-989e-be2a71ece869","system_id":"levelo_inurba_marseille","lat":43.31173,"lon":5.38688,"is_reserved":false,"is_disabled":false,"rental_uris":{"android":"levelo://app?vid=41652381-016a-4d60-989e-be2a71ece869","ios":"levelo://app?vid=41652381-016a-4d60-989e-be2a71ece869"},"vehicle_type_id":"4","last_reported":1715468868,"current_range_meters":11600,"station_id":"ce4bgv12rcd13ifvqcp0","pricing_plan_id":"cebpf4jnsgd1na2vs0mg"},{"bike_id":"e3714528-3356-4621-98dd-64f632056a95","system_id":"levelo_inurba_marseille","lat":43.305364,"lon":5.384119,"is_reserved":false,"is_disabled":false,"rental_uris":{"android":"levelo://app?vid=e3714528-3356-4621-98dd-64f632056a95","ios":"levelo://app?vid=e3714528-3356-4621-98dd-64f632056a95"},"vehicle_type_id":"4","last_reported":1715468868,"current_range_meters":24000,"station_id":"ce4bgg92rcd13ifvqb30","pricing_plan_id":"cebpf4jnsgd1na2vs0mg"},{"bike_id":"126edc97-9664-4b70-b366-4336f83ffa1c","system_id":"levelo_inurba_marseille","lat":43.29926,"lon":5.37454,"is_reserved":false,"is_disabled":false,"rental_uris":{"android":"levelo://app?vid=126edc97-9664-4b70-b366-4336f83ffa1c","ios":"levelo://app?vid=126edc97-9664-4b70-b366-4336f83ffa1c"},"vehicle_type_id":"4","last_reported":1715468868,"current_range_meters":12000,"station_id":"ce4bgjh2rcd13ifvqbg0","pricing_plan_id":"cebpf4jnsgd1na2vs0mg"},{"bike_id":"ba944ba5-e0f9-44ca-a4f1-ead4ab55be8c","system_id":"levelo_inurba_marseille","lat":43.305364,"lon":5.384119,"is_reserved":false,"is_disabled":false,"rental_uris":{"android":"levelo://app?vid=ba944ba5-e0f9-44ca-a4f1-ead4ab55be8c","ios":"levelo://app?vid=ba944ba5-e0f9-44ca-a4f1-ead4ab55be8c"},"vehicle_type_id":"4","last_reported":1715468868,"current_range_meters":7600,"station_id":"ce4bgg92rcd13ifvqb30","pricing_plan_id":"cebpf4jnsgd1na2vs0mg"},{"bike_id":"a4a4e9ef-47f0-46ad-b177-b844b3f64167","system_id":"levelo_inurba_marseille","lat":43.305364,"lon":5.384119,"is_reserved":false,"is_disabled":false,"rental_uris":{"android":"levelo://app?vid=a4a4e9ef-47f0-46ad-b177-b844b3f64167","ios":"levelo://app?vid=a4a4e9ef-47f0-46ad-b177-b844b3f64167"},"vehicle_type_id":"4","last_reported":1715468868,"current_range_meters":5200,"station_id":"ce4bgg92rcd13ifvqb30","pricing_plan_id":"cebpf4jnsgd1na2vs0mg"},{"bike_id":"892bc279-a447-4209-b4cd-5e0f5885348f","system_id":"levelo_inurba_marseille","lat":43.305364,"lon":5.384119,"is_reserved":false,"is_disabled":false,"rental_uris":{"android":"levelo://app?vid=892bc279-a447-4209-b4cd-5e0f5885348f","ios":"levelo://app?vid=892bc279-a447-4209-b4cd-5e0f5885348f"},"vehicle_type_id":"4","last_reported":1715468868,"current_range_meters":17200,"station_id":"ce4bgg92rcd13ifvqb30","pricing_plan_id":"cebpf4jnsgd1na2vs0mg"},{"bike_id":"28208c5e-a420-44e7-b0a7-fbc156da9b7d","system_id":"levelo_inurba_marseille","lat":43.31173,"lon":5.38703,"is_reserved":false,"is_disabled":false,"rental_uris":{"android":"levelo://app?vid=28208c5e-a420-44e7-b0a7-fbc156da9b7d","ios":"levelo://app?vid=28208c5e-a420-44e7-b0a7-fbc156da9b7d"},"vehicle_type_id":"4","last_reported":1715468868,"current_range_meters":14000,"station_id":"ce4bgv12rcd13ifvqcp0","pricing_plan_id":"cebpf4jnsgd1na2vs0mg"},{"bike_id":"93bda417-4709-43f5-9a25-85df3cb92379","system_id":"levelo_inurba_marseille","lat":43.31168,"lon":5.38707,"is_reserved":false,"is_disabled":false,"rental_uris":{"android":"levelo://app?vid=93bda417-4709-43f5-9a25-85df3cb92379","ios":"levelo://app?vid=93bda417-4709-43f5-9a25-85df3cb92379"},"vehicle_type_id":"4","last_reported":1715468868,"current_range_meters":21200,"station_id":"ce4bgv12rcd13ifvqcp0","pricing_plan_id":"cebpf4jnsgd1na2vs0mg"},{"bike_id":"2915bcef-6d0f-41af-8423-16b6d0b335f0","system_id":"levelo_inurba_marseille","lat":43.299137,"lon":5.374587,"is_reserved":false,"is_disabled":false,"rental_uris":{"android":"levelo://app?vid=2915bcef-6d0f-41af-8423-16b6d0b335f0","ios":"levelo://app?vid=2915bcef-6d0f-41af-8423-16b6d0b335f0"},"vehicle_type_id":"4","last_reported":1715468868,"current_range_meters":18800,"station_id":"ce4bgjh2rcd13ifvqbg0","pricing_plan_id":"cebpf4jnsgd1na2vs0mg"},{"bike_id":"748f2757-e8ff-4f73-a074-a57de5c4052c","system_id":"levelo_inurba_marseille","lat":43.311722,"lon":5.387247,"is_reserved":false,"is_disabled":false,"rental_uris":{"android":"levelo://app?vid=748f2757-e8ff-4f73-a074-a57de5c4052c","ios":"levelo://app?vid=748f2757-e8ff-4f73-a074-a57de5c4052c"},"vehicle_type_id":"4","last_reported":1715468868,"current_range_meters":12000,"station_id":"ce4bgv12rcd13ifvqcp0","pricing_plan_id":"cebpf4jnsgd1na2vs0mg"},{"bike_id":"196f3c27-e4a4-4e62-9489-fc8203994a86","system_id":"levelo_inurba_marseille","lat":43.311722,"lon":5.387247,"is_reserved":false,"is_disabled":false,"rental_uris":{"android":"levelo://app?vid=196f3c27-e4a4-4e62-9489-fc8203994a86","ios":"levelo://app?vid=196f3c27-e4a4-4e62-9489-fc8203994a86"},"vehicle_type_id":"4","last_reported":1715468868,"current_range_meters":30000,"station_id":"ce4bgv12rcd13ifvqcp0","pricing_plan_id":"cebpf4jnsgd1na2vs0mg"},{"bike_id":"adc645d1-2cba-4f8d-8498-884fa926c78d","system_id":"levelo_inurba_marseille","lat":43.311722,"lon":5.387247,"is_reserved":false,"is_disabled":false,"rental_uris":{"android":"levelo://app?vid=adc645d1-2cba-4f8d-8498-884fa926c78d","ios":"levelo://app?vid=adc645d1-2cba-4f8d-8498-884fa926c78d"},"vehicle_type_id":"4","last_reported":1715468868,"current_range_meters":8400,"station_id":"ce4bgv12rcd13ifvqcp0","pricing_plan_id":"cebpf4jnsgd1na2vs0mg"},{"bike_id":"5d3d217e-c5e2-44ba-9704-4fda0f7b1d35","system_id":"levelo_inurba_marseille","lat":43.311733,"lon":5.387116,"is_reserved":false,"is_disabled":false,"rental_uris":{"android":"levelo://app?vid=5d3d217e-c5e2-44ba-9704-4fda0f7b1d35","ios":"levelo://app?vid=5d3d217e-c5e2-44ba-9704-4fda0f7b1d35"},"vehicle_type_id":"4","last_reported":1715468868,"current_range_meters":0,"station_id":"ce4bgv12rcd13ifvqcp0","pricing_plan_id":"cebpf4jnsgd1na2vs0mg"},{"bike_id":"9853a789-7e91-46ed-bd87-beee1c9c9b0d","system_id":"levelo_inurba_marseille","lat":43.311722,"lon":5.387247,"is_reserved":false,"is_disabled":false,"rental_uris":{"android":"levelo://app?vid=9853a789-7e91-46ed-bd87-beee1c9c9b0d","ios":"levelo://app?vid=9853a789-7e91-46ed-bd87-beee1c9c9b0d"},"vehicle_type_id":"4","last_reported":1715468868,"current_range_meters":4000,"station_id":"ce4bgv12rcd13ifvqcp0","pricing_plan_id":"cebpf4jnsgd1na2vs0mg"},{"bike_id":"12c261f4-ac1b-4364-83d4-2dbe87ccc028","system_id":"levelo_inurba_marseille","lat":43.31167,"lon":5.38714,"is_reserved":false,"is_disabled":false,"rental_uris":{"android":"levelo://app?vid=12c261f4-ac1b-4364-83d4-2dbe87ccc028","ios":"levelo://app?vid=12c261f4-ac1b-4364-83d4-2dbe87ccc028"},"vehicle_type_id":"4","last_reported":1715468868,"current_range_meters":15600,"station_id":"ce4bgv12rcd13ifvqcp0","pricing_plan_id":"cebpf4jnsgd1na2vs0mg"},{"bike_id":"31d00131-9d69-4686-88dc-035e989c2905","system_id":"levelo_inurba_marseille","lat":43.299243,"lon":5.37481,"is_reserved":false,"is_disabled":false,"rental_uris":{"android":"levelo://app?vid=31d00131-9d69-4686-88dc-035e989c2905","ios":"levelo://app?vid=31d00131-9d69-4686-88dc-035e989c2905"},"vehicle_type_id":"4","last_reported":1715468868,"current_range_meters":4400,"station_id":"ce4bgjh2rcd13ifvqbg0","pricing_plan_id":"cebpf4jnsgd1na2vs0mg"},{"bike_id":"a07b5903-6c70-4780-9fa4-6152d2ef3244","system_id":"levelo_inurba_marseille","lat":43.31172,"lon":5.3872,"is_reserved":false,"is_disabled":false,"rental_uris":{"android":"levelo://app?vid=a07b5903-6c70-4780-9fa4-6152d2ef3244","ios":"levelo://app?vid=a07b5903-6c70-4780-9fa4-6152d2ef3244"},"vehicle_type_id":"4","last_reported":1715468868,"current_range_meters":13600,"station_id":"ce4bgv12rcd13ifvqcp0","pricing_plan_id":"cebpf4jnsgd1na2vs0mg"},{"bike_id":"078d9ff7-c914-44e8-a460-7ba2ef2c060c","system_id":"levelo_inurba_marseille","lat":43.31164,"lon":5.3872,"is_reserved":false,"is_disabled":false,"rental_uris":{"android":"levelo://app?vid=078d9ff7-c914-44e8-a460-7ba2ef2c060c","ios":"levelo://app?vid=078d9ff7-c914-44e8-a460-7ba2ef2c060c"},"vehicle_type_id":"4","last_reported":1715468868,"current_range_meters":10800,"station_id":"ce4bgv12rcd13ifvqcp0","pricing_plan_id":"cebpf4jnsgd1na2vs0mg"},{"bike_id":"1545ff4f-348b-4fe0-804c-f630af12b414","system_id":"levelo_inurba_marseille","lat":43.31164,"lon":5.38721,"is_reserved":false,"is_disabled":false,"rental_uris":{"android":"levelo://app?vid=1545ff4f-348b-4fe0-804c-f630af12b414","ios":"levelo://app?vid=1545ff4f-348b-4fe0-804c-f630af12b414"},"vehicle_type_id":"4","last_reported":1715468868,"current_range_meters":0,"station_id":"ce4bgv12rcd13ifvqcp0","pricing_plan_id":"cebpf4jnsgd1na2vs0mg"},{"bike_id":"495de359-5c19-42e8-80a4-d033eb1d44b5","system_id":"levelo_inurba_marseille","lat":43.31162,"lon":5.38723,"is_reserved":false,"is_disabled":false,"rental_uris":{"android":"levelo://app?vid=495de359-5c19-42e8-80a4-d033eb1d44b5","ios":"levelo://app?vid=495de359-5c19-42e8-80a4-d033eb1d44b5"},"vehicle_type_id":"4","last_reported":1715468868,"current_range_meters":24800,"station_id":"ce4bgv12rcd13ifvqcp0","pricing_plan_id":"cebpf4jnsgd1na2vs0mg"},{"bike_id":"3269a82e-20fd-46cb-9087-cc49c8cec2db","system_id":"levelo_inurba_marseille","lat":43.32787,"lon":5.36578,"is_reserved":false,"is_disabled":false,"rental_uris":{"android":"levelo://app?vid=3269a82e-20fd-46cb-9087-cc49c8cec2db","ios":"levelo://app?vid=3269a82e-20fd-46cb-9087-cc49c8cec2db"},"vehicle_type_id":"4","last_reported":1715468868,"current_range_meters":7200,"station_id":"","pricing_plan_id":"cebpf4jnsgd1na2vs0mg"},{"bike_id":"c7ed04b1-ca51-46e7-a967-5a308cfa05bb","system_id":"levelo_inurba_marseille","lat":43.29779,"lon":5.37111,"is_reserved":false,"is_disabled":false,"rental_uris":{"android":"levelo://app?vid=c7ed04b1-ca51-46e7-a967-5a308cfa05bb","ios":"levelo://app?vid=c7ed04b1-ca51-46e7-a967-5a308cfa05bb"},"vehicle_type_id":"4","last_reported":1715468868,"current_range_meters":2800,"station_id":"ce4bgop2rcd13ifvqc1g","pricing_plan_id":"cebpf4jnsgd1na2vs0mg"},{"bike_id":"e927a95c-94ec-448d-a33b-2db2c79eee0f","system_id":"levelo_inurba_marseille","lat":43.322872,"lon":5.382756,"is_reserved":false,"is_disabled":false,"rental_uris":{"android":"levelo://app?vid=e927a95c-94ec-448d-a33b-2db2c79eee0f","ios":"levelo://app?vid=e927a95c-94ec-448d-a33b-2db2c79eee0f"},"vehicle_type_id":"4","last_reported":1715468868,"current_range_meters":28000,"station_id":"ce4bhr12rcd13ifvqhqg","pricing_plan_id":"cebpf4jnsgd1na2vs0mg"},{"bike_id":"9ed04feb-ca9f-485d-a242-3a380fde45fa","system_id":"levelo_inurba_marseille","lat":43.299243,"lon":5.37481,"is_reserved":false,"is_disabled":false,"rental_uris":{"android":"levelo://app?vid=9ed04feb-ca9f-485d-a242-3a380fde45fa","ios":"levelo://app?vid=9ed04feb-ca9f-485d-a242-3a380fde45fa"},"vehicle_type_id":"4","last_reported":1715468868,"current_range_meters":16000,"station_id":"ce4bgjh2rcd13ifvqbg0","pricing_plan_id":"cebpf4jnsgd1na2vs0mg"},{"bike_id":"8b8b727e-8cc4-407b-b396-22de4655dafa","system_id":"levelo_inurba_marseille","lat":43.322872,"lon":5.382756,"is_reserved":false,"is_disabled":false,"rental_uris":{"android":"levelo://app?vid=8b8b727e-8cc4-407b-b396-22de4655dafa","ios":"levelo://app?vid=8b8b727e-8cc4-407b-b396-22de4655dafa"},"vehicle_type_id":"4","last_reported":1715468868,"current_range_meters":23600,"station_id":"ce4bhr12rcd13ifvqhqg","pricing_plan_id":"cebpf4jnsgd1na2vs0mg"},{"bike_id":"0e719a90-1353-479f-a655-b3481ca7816b","system_id":"levelo_inurba_marseille","lat":43.297163,"lon":5.365866,"is_reserved":false,"is_disabled":false,"rental_uris":{"android":"levelo://app?vid=0e719a90-1353-479f-a655-b3481ca7816b","ios":"levelo://app?vid=0e719a90-1353-479f-a655-b3481ca7816b"},"vehicle_type_id":"4","last_reported":1715468868,"current_range_meters":16800,"station_id":"ce4bgn12rcd13ifvqbt0","pricing_plan_id":"cebpf4jnsgd1na2vs0mg"},{"bike_id":"eb82e8f5-3fed-48ac-af5d-365108770a05","system_id":"levelo_inurba_marseille","lat":43.297163,"lon":5.365866,"is_reserved":false,"is_disabled":false,"rental_uris":{"android":"levelo://app?vid=eb82e8f5-3fed-48ac-af5d-365108770a05","ios":"levelo://app?vid=eb82e8f5-3fed-48ac-af5d-365108770a05"},"vehicle_type_id":"4","last_reported":1715468868,"current_range_meters":7200,"station_id":"ce4bgn12rcd13ifvqbt0","pricing_plan_id":"cebpf4jnsgd1na2vs0mg"},{"bike_id":"bfe2e381-08d3-4e4f-a851-e70fad132e17","system_id":"levelo_inurba_marseille","lat":43.29708,"lon":5.3724,"is_reserved":false,"is_disabled":false,"rental_uris":{"android":"levelo://app?vid=bfe2e381-08d3-4e4f-a851-e70fad132e17","ios":"levelo://app?vid=bfe2e381-08d3-4e4f-a851-e70fad132e17"},"vehicle_type_id":"4","last_reported":1715468868,"current_range_meters":800,"station_id":"","pricing_plan_id":"cebpf4jnsgd1na2vs0mg"},{"bike_id":"6ee3ba36-86bc-48a2-bab8-eb048a740a21","system_id":"levelo_inurba_marseille","lat":43.29911,"lon":5.38129,"is_reserved":false,"is_disabled":false,"rental_uris":{"android":"levelo://app?vid=6ee3ba36-86bc-48a2-bab8-eb048a740a21","ios":"levelo://app?vid=6ee3ba36-86bc-48a2-bab8-eb048a740a21"},"vehicle_type_id":"4","last_reported":1715468868,"current_range_meters":15200,"station_id":"ce4bgj12rcd13ifvqbc0","pricing_plan_id":"cebpf4jnsgd1na2vs0mg"},{"bike_id":"1e49265a-2b11-4c6e-95f4-3eb5bd1a695c","system_id":"levelo_inurba_marseille","lat":43.299028,"lon":5.381509,"is_reserved":false,"is_disabled":false,"rental_uris":{"android":"levelo://app?vid=1e49265a-2b11-4c6e-95f4-3eb5bd1a695c","ios":"levelo://app?vid=1e49265a-2b11-4c6e-95f4-3eb5bd1a695c"},"vehicle_type_id":"4","last_reported":1715468868,"current_range_meters":14000,"station_id":"ce4bgj12rcd13ifvqbc0","pricing_plan_id":"cebpf4jnsgd1na2vs0mg"},{"bike_id":"69c676b7-c8fa-4a01-8db9-10d4e313e8cd","system_id":"levelo_inurba_marseille","lat":43.309589,"lon":5.390258,"is_reserved":false,"is_disabled":false,"rental_uris":{"android":"levelo://app?vid=69c676b7-c8fa-4a01-8db9-10d4e313e8cd","ios":"levelo://app?vid=69c676b7-c8fa-4a01-8db9-10d4e313e8cd"},"vehicle_type_id":"4","last_reported":1715468868,"current_range_meters":0,"station_id":"ce4bgup2rcd13ifvqco0","pricing_plan_id":"cebpf4jnsgd1na2vs0mg"},{"bike_id":"305badf6-9b2c-498b-ad7a-f470f5e82ce6","system_id":"levelo_inurba_marseille","lat":43.30959,"lon":5.39033,"is_reserved":false,"is_disabled":false,"rental_uris":{"android":"levelo://app?vid=305badf6-9b2c-498b-ad7a-f470f5e82ce6","ios":"levelo://app?vid=305badf6-9b2c-498b-ad7a-f470f5e82ce6"},"vehicle_type_id":"4","last_reported":1715468868,"current_range_meters":0,"station_id":"ce4bgup2rcd13ifvqco0","pricing_plan_id":"cebpf4jnsgd1na2vs0mg"},{"bike_id":"d912ccda-0402-4f48-91cf-98a1a174e6ff","system_id":"levelo_inurba_marseille","lat":43.304274,"lon":5.388873,"is_reserved":false,"is_disabled":false,"rental_uris":{"android":"levelo://app?vid=d912ccda-0402-4f48-91cf-98a1a174e6ff","ios":"levelo://app?vid=d912ccda-0402-4f48-91cf-98a1a174e6ff"},"vehicle_type_id":"4","last_reported":1715468868,"current_range_meters":17200,"station_id":"ce4bgk12rcd13ifvqbi0","pricing_plan_id":"cebpf4jnsgd1na2vs0mg"},{"bike_id":"66f07dc0-e62d-42d0-af4e-5d18350d2a53","system_id":"levelo_inurba_marseille","lat":43.317557,"lon":5.390173,"is_reserved":false,"is_disabled":false,"rental_uris":{"android":"levelo://app?vid=66f07dc0-e62d-42d0-af4e-5d18350d2a53","ios":"levelo://app?vid=66f07dc0-e62d-42d0-af4e-5d18350d2a53"},"vehicle_type_id":"4","last_reported":1715468868,"current_range_meters":17600,"station_id":"ce4bhqp2rcd13ifvqhng","pricing_plan_id":"cebpf4jnsgd1na2vs0mg"},{"bike_id":"0022243f-d40b-480c-98ea-30091299131e","system_id":"levelo_inurba_marseille","lat":43.317557,"lon":5.390173,"is_reserved":false,"is_disabled":false,"rental_uris":{"android":"levelo://app?vid=0022243f-d40b-480c-98ea-30091299131e","ios":"levelo://app?vid=0022243f-d40b-480c-98ea-30091299131e"},"vehicle_type_id":"4","last_reported":1715468868,"current_range_meters":400,"station_id":"ce4bhqp2rcd13ifvqhng","pricing_plan_id":"cebpf4jnsgd1na2vs0mg"},{"bike_id":"5ac93315-54c4-458e-afef-cc7b23a07317","system_id":"levelo_inurba_marseille","lat":43.317557,"lon":5.390173,"is_reserved":false,"is_disabled":false,"rental_uris":{"android":"levelo://app?vid=5ac93315-54c4-458e-afef-cc7b23a07317","ios":"levelo://app?vid=5ac93315-54c4-458e-afef-cc7b23a07317"},"vehicle_type_id":"4","last_reported":1715468868,"current_range_meters":21200,"station_id":"ce4bhqp2rcd13ifvqhng","pricing_plan_id":"cebpf4jnsgd1na2vs0mg"},{"bike_id":"dd631198-812c-404c-a00f-2b8fc8478619","system_id":"levelo_inurba_marseille","lat":43.317557,"lon":5.390173,"is_reserved":false,"is_disabled":false,"rental_uris":{"android":"levelo://app?vid=dd631198-812c-404c-a00f-2b8fc8478619","ios":"levelo://app?vid=dd631198-812c-404c-a00f-2b8fc8478619"},"vehicle_type_id":"4","last_reported":1715468868,"current_range_meters":5200,"station_id":"ce4bhqp2rcd13ifvqhng","pricing_plan_id":"cebpf4jnsgd1na2vs0mg"},{"bike_id":"62657501-42b4-411e-b226-985de7d4151c","system_id":"levelo_inurba_marseille","lat":43.317557,"lon":5.390173,"is_reserved":false,"is_disabled":false,"rental_uris":{"android":"levelo://app?vid=62657501-42b4-411e-b226-985de7d4151c","ios":"levelo://app?vid=62657501-42b4-411e-b226-985de7d4151c"},"vehicle_type_id":"4","last_reported":1715468868,"current_range_meters":800,"station_id":"ce4bhqp2rcd13ifvqhng","pricing_plan_id":"cebpf4jnsgd1na2vs0mg"},{"bike_id":"117ea6a9-01af-49f7-ba3b-ee891c9546f5","system_id":"levelo_inurba_marseille","lat":43.317596,"lon":5.390148,"is_reserved":false,"is_disabled":false,"rental_uris":{"android":"levelo://app?vid=117ea6a9-01af-49f7-ba3b-ee891c9546f5","ios":"levelo://app?vid=117ea6a9-01af-49f7-ba3b-ee891c9546f5"},"vehicle_type_id":"4","last_reported":1715468868,"current_range_meters":2000,"station_id":"ce4bhqp2rcd13ifvqhng","pricing_plan_id":"cebpf4jnsgd1na2vs0mg"},{"bike_id":"e3604d0e-f552-4bef-ab20-0b6ff1bd1e80","system_id":"levelo_inurba_marseille","lat":43.317557,"lon":5.390173,"is_reserved":false,"is_disabled":false,"rental_uris":{"android":"levelo://app?vid=e3604d0e-f552-4bef-ab20-0b6ff1bd1e80","ios":"levelo://app?vid=e3604d0e-f552-4bef-ab20-0b6ff1bd1e80"},"vehicle_type_id":"4","last_reported":1715468868,"current_range_meters":31600,"station_id":"ce4bhqp2rcd13ifvqhng","pricing_plan_id":"cebpf4jnsgd1na2vs0mg"},{"bike_id":"88031d4c-0039-492a-b461-541581b52a53","system_id":"levelo_inurba_marseille","lat":43.317557,"lon":5.390173,"is_reserved":false,"is_disabled":false,"rental_uris":{"android":"levelo://app?vid=88031d4c-0039-492a-b461-541581b52a53","ios":"levelo://app?vid=88031d4c-0039-492a-b461-541581b52a53"},"vehicle_type_id":"4","last_reported":1715468868,"current_range_meters":31600,"station_id":"ce4bhqp2rcd13ifvqhng","pricing_plan_id":"cebpf4jnsgd1na2vs0mg"},{"bike_id":"662197a8-0a40-4bac-ae79-87f649ced84e","system_id":"levelo_inurba_marseille","lat":43.29527,"lon":5.36385,"is_reserved":false,"is_disabled":false,"rental_uris":{"android":"levelo://app?vid=662197a8-0a40-4bac-ae79-87f649ced84e","ios":"levelo://app?vid=662197a8-0a40-4bac-ae79-87f649ced84e"},"vehicle_type_id":"4","last_reported":1715468868,"current_range_meters":20000,"station_id":"","pricing_plan_id":"cebpf4jnsgd1na2vs0mg"},{"bike_id":"fffedb30-e0ca-481c-84ee-6dc5026b84f3","system_id":"levelo_inurba_marseille","lat":43.304274,"lon":5.388873,"is_reserved":false,"is_disabled":false,"rental_uris":{"android":"levelo://app?vid=fffedb30-e0ca-481c-84ee-6dc5026b84f3","ios":"levelo://app?vid=fffedb30-e0ca-481c-84ee-6dc5026b84f3"},"vehicle_type_id":"4","last_reported":1715468868,"current_range_meters":19200,"station_id":"ce4bgk12rcd13ifvqbi0","pricing_plan_id":"cebpf4jnsgd1na2vs0mg"},{"bike_id":"3324f607-1d68-42aa-acae-82e5866b8623","system_id":"levelo_inurba_marseille","lat":43.304274,"lon":5.388873,"is_reserved":false,"is_disabled":false,"rental_uris":{"android":"levelo://app?vid=3324f607-1d68-42aa-acae-82e5866b8623","ios":"levelo://app?vid=3324f607-1d68-42aa-acae-82e5866b8623"},"vehicle_type_id":"4","last_reported":1715468868,"current_range_meters":14400,"station_id":"ce4bgk12rcd13ifvqbi0","pricing_plan_id":"cebpf4jnsgd1na2vs0mg"},{"bike_id":"a712a299-e107-4791-99a3-dc2acb03ee56","system_id":"levelo_inurba_marseille","lat":43.29793,"lon":5.38108,"is_reserved":false,"is_disabled":false,"rental_uris":{"android":"levelo://app?vid=a712a299-e107-4791-99a3-dc2acb03ee56","ios":"levelo://app?vid=a712a299-e107-4791-99a3-dc2acb03ee56"},"vehicle_type_id":"4","last_reported":1715468868,"current_range_meters":22400,"station_id":"ce4bgip2rcd13ifvqbb0","pricing_plan_id":"cebpf4jnsgd1na2vs0mg"},{"bike_id":"68f5a890-4c84-4811-a15a-c80320776e65","system_id":"levelo_inurba_marseille","lat":43.304284,"lon":5.388845,"is_reserved":false,"is_disabled":false,"rental_uris":{"android":"levelo://app?vid=68f5a890-4c84-4811-a15a-c80320776e65","ios":"levelo://app?vid=68f5a890-4c84-4811-a15a-c80320776e65"},"vehicle_type_id":"4","last_reported":1715468868,"current_range_meters":14800,"station_id":"ce4bgk12rcd13ifvqbi0","pricing_plan_id":"cebpf4jnsgd1na2vs0mg"},{"bike_id":"419d3dee-4201-4f54-bda3-96dca33c1d22","system_id":"levelo_inurba_marseille","lat":43.3043,"lon":5.38886,"is_reserved":false,"is_disabled":false,"rental_uris":{"android":"levelo://app?vid=419d3dee-4201-4f54-bda3-96dca33c1d22","ios":"levelo://app?vid=419d3dee-4201-4f54-bda3-96dca33c1d22"},"vehicle_type_id":"4","last_reported":1715468868,"current_range_meters":0,"station_id":"ce4bgk12rcd13ifvqbi0","pricing_plan_id":"cebpf4jnsgd1na2vs0mg"},{"bike_id":"2e554462-2fcf-4e27-b5c3-bb4d9a666e2e","system_id":"levelo_inurba_marseille","lat":43.295748,"lon":5.37522,"is_reserved":false,"is_disabled":false,"rental_uris":{"android":"levelo://app?vid=2e554462-2fcf-4e27-b5c3-bb4d9a666e2e","ios":"levelo://app?vid=2e554462-2fcf-4e27-b5c3-bb4d9a666e2e"},"vehicle_type_id":"4","last_reported":1715468868,"current_range_meters":18800,"station_id":"ce4bgh92rcd13ifvqb50","pricing_plan_id":"cebpf4jnsgd1na2vs0mg"},{"bike_id":"648ed277-9eaf-4389-8e11-c673859e1757","system_id":"levelo_inurba_marseille","lat":43.296277,"lon":5.377108,"is_reserved":false,"is_disabled":false,"rental_uris":{"android":"levelo://app?vid=648ed277-9eaf-4389-8e11-c673859e1757","ios":"levelo://app?vid=648ed277-9eaf-4389-8e11-c673859e1757"},"vehicle_type_id":"4","last_reported":1715468868,"current_range_meters":27200,"station_id":"ce4bgi92rcd13ifvqb90","pricing_plan_id":"cebpf4jnsgd1na2vs0mg"},{"bike_id":"301f08e1-8da8-448e-9445-cb769feb4021","system_id":"levelo_inurba_marseille","lat":43.304278,"lon":5.388868,"is_reserved":false,"is_disabled":false,"rental_uris":{"android":"levelo://app?vid=301f08e1-8da8-448e-9445-cb769feb4021","ios":"levelo://app?vid=301f08e1-8da8-448e-9445-cb769feb4021"},"vehicle_type_id":"4","last_reported":1715468868,"current_range_meters":31600,"station_id":"ce4bgk12rcd13ifvqbi0","pricing_plan_id":"cebpf4jnsgd1na2vs0mg"},{"bike_id":"52105503-3333-476a-b162-16619bfe7cad","system_id":"levelo_inurba_marseille","lat":43.304278,"lon":5.388868,"is_reserved":false,"is_disabled":false,"rental_uris":{"android":"levelo://app?vid=52105503-3333-476a-b162-16619bfe7cad","ios":"levelo://app?vid=52105503-3333-476a-b162-16619bfe7cad"},"vehicle_type_id":"4","last_reported":1715468868,"current_range_meters":31600,"station_id":"ce4bgk12rcd13ifvqbi0","pricing_plan_id":"cebpf4jnsgd1na2vs0mg"},{"bike_id":"5b117286-d995-458e-a7d7-d3a9f68676ae","system_id":"levelo_inurba_marseille","lat":43.304274,"lon":5.388873,"is_reserved":false,"is_disabled":false,"rental_uris":{"android":"levelo://app?vid=5b117286-d995-458e-a7d7-d3a9f68676ae","ios":"levelo://app?vid=5b117286-d995-458e-a7d7-d3a9f68676ae"},"vehicle_type_id":"4","last_reported":1715468868,"current_range_meters":29200,"station_id":"ce4bgk12rcd13ifvqbi0","pricing_plan_id":"cebpf4jnsgd1na2vs0mg"},{"bike_id":"bc312e84-8f22-4a2c-bf99-b1e1272342ec","system_id":"levelo_inurba_marseille","lat":43.30432,"lon":5.38894,"is_reserved":false,"is_disabled":false,"rental_uris":{"android":"levelo://app?vid=bc312e84-8f22-4a2c-bf99-b1e1272342ec","ios":"levelo://app?vid=bc312e84-8f22-4a2c-bf99-b1e1272342ec"},"vehicle_type_id":"4","last_reported":1715468868,"current_range_meters":21600,"station_id":"ce4bgk12rcd13ifvqbi0","pricing_plan_id":"cebpf4jnsgd1na2vs0mg"},{"bike_id":"847ffd41-b33d-438c-8926-628255fb64f9","system_id":"levelo_inurba_marseille","lat":43.30431,"lon":5.38894,"is_reserved":false,"is_disabled":false,"rental_uris":{"android":"levelo://app?vid=847ffd41-b33d-438c-8926-628255fb64f9","ios":"levelo://app?vid=847ffd41-b33d-438c-8926-628255fb64f9"},"vehicle_type_id":"4","last_reported":1715468868,"current_range_meters":23200,"station_id":"ce4bgk12rcd13ifvqbi0","pricing_plan_id":"cebpf4jnsgd1na2vs0mg"},{"bike_id":"be223a97-935e-46f9-b52d-084b5572b3f9","system_id":"levelo_inurba_marseille","lat":43.29788,"lon":5.38115,"is_reserved":false,"is_disabled":false,"rental_uris":{"android":"levelo://app?vid=be223a97-935e-46f9-b52d-084b5572b3f9","ios":"levelo://app?vid=be223a97-935e-46f9-b52d-084b5572b3f9"},"vehicle_type_id":"4","last_reported":1715468868,"current_range_meters":22000,"station_id":"ce4bgip2rcd13ifvqbb0","pricing_plan_id":"cebpf4jnsgd1na2vs0mg"},{"bike_id":"e87bf59a-0e7f-4dbc-adcc-81e95b6f2c59","system_id":"levelo_inurba_marseille","lat":43.29624,"lon":5.37728,"is_reserved":false,"is_disabled":false,"rental_uris":{"android":"levelo://app?vid=e87bf59a-0e7f-4dbc-adcc-81e95b6f2c59","ios":"levelo://app?vid=e87bf59a-0e7f-4dbc-adcc-81e95b6f2c59"},"vehicle_type_id":"4","last_reported":1715468868,"current_range_meters":12400,"station_id":"ce4bgi92rcd13ifvqb90","pricing_plan_id":"cebpf4jnsgd1na2vs0mg"},{"bike_id":"f579cca4-b094-4b88-85a0-e07fb55b060a","system_id":"levelo_inurba_marseille","lat":43.29619,"lon":5.37727,"is_reserved":false,"is_disabled":false,"rental_uris":{"android":"levelo://app?vid=f579cca4-b094-4b88-85a0-e07fb55b060a","ios":"levelo://app?vid=f579cca4-b094-4b88-85a0-e07fb55b060a"},"vehicle_type_id":"4","last_reported":1715468868,"current_range_meters":27200,"station_id":"ce4bgi92rcd13ifvqb90","pricing_plan_id":"cebpf4jnsgd1na2vs0mg"},{"bike_id":"f9b1fb64-dce4-4428-85b1-93aa2852b359","system_id":"levelo_inurba_marseille","lat":43.296263,"lon":5.377094,"is_reserved":false,"is_disabled":false,"rental_uris":{"android":"levelo://app?vid=f9b1fb64-dce4-4428-85b1-93aa2852b359","ios":"levelo://app?vid=f9b1fb64-dce4-4428-85b1-93aa2852b359"},"vehicle_type_id":"4","last_reported":1715468868,"current_range_meters":15600,"station_id":"ce4bgi92rcd13ifvqb90","pricing_plan_id":"cebpf4jnsgd1na2vs0mg"},{"bike_id":"6eade27a-763d-4f00-b865-03f835783ec3","system_id":"levelo_inurba_marseille","lat":43.299724,"lon":5.384848,"is_reserved":false,"is_disabled":false,"rental_uris":{"android":"levelo://app?vid=6eade27a-763d-4f00-b865-03f835783ec3","ios":"levelo://app?vid=6eade27a-763d-4f00-b865-03f835783ec3"},"vehicle_type_id":"4","last_reported":1715468868,"current_range_meters":20400,"station_id":"ce4bgj92rcd13ifvqbd0","pricing_plan_id":"cebpf4jnsgd1na2vs0mg"},{"bike_id":"fe1a4256-c71d-46e5-8f25-5936e418ef5a","system_id":"levelo_inurba_marseille","lat":43.29972,"lon":5.38487,"is_reserved":false,"is_disabled":false,"rental_uris":{"android":"levelo://app?vid=fe1a4256-c71d-46e5-8f25-5936e418ef5a","ios":"levelo://app?vid=fe1a4256-c71d-46e5-8f25-5936e418ef5a"},"vehicle_type_id":"4","last_reported":1715468868,"current_range_meters":3600,"station_id":"ce4bgj92rcd13ifvqbd0","pricing_plan_id":"cebpf4jnsgd1na2vs0mg"},{"bike_id":"6b402abd-b8cd-42a1-be9d-a3b99b70e38d","system_id":"levelo_inurba_marseille","lat":43.295279,"lon":5.375048,"is_reserved":false,"is_disabled":false,"rental_uris":{"android":"levelo://app?vid=6b402abd-b8cd-42a1-be9d-a3b99b70e38d","ios":"levelo://app?vid=6b402abd-b8cd-42a1-be9d-a3b99b70e38d"},"vehicle_type_id":"4","last_reported":1715468868,"current_range_meters":4400,"station_id":"ce4bgkp2rcd13ifvqbmg","pricing_plan_id":"cebpf4jnsgd1na2vs0mg"},{"bike_id":"270a7ebd-7534-4e2d-958d-bb595c18b704","system_id":"levelo_inurba_marseille","lat":43.29968,"lon":5.38491,"is_reserved":false,"is_disabled":false,"rental_uris":{"android":"levelo://app?vid=270a7ebd-7534-4e2d-958d-bb595c18b704","ios":"levelo://app?vid=270a7ebd-7534-4e2d-958d-bb595c18b704"},"vehicle_type_id":"4","last_reported":1715468868,"current_range_meters":28400,"station_id":"ce4bgj92rcd13ifvqbd0","pricing_plan_id":"cebpf4jnsgd1na2vs0mg"},{"bike_id":"91f3e9ec-7362-46ef-b80e-a6da674cd805","system_id":"levelo_inurba_marseille","lat":43.299717,"lon":5.384845,"is_reserved":false,"is_disabled":false,"rental_uris":{"android":"levelo://app?vid=91f3e9ec-7362-46ef-b80e-a6da674cd805","ios":"levelo://app?vid=91f3e9ec-7362-46ef-b80e-a6da674cd805"},"vehicle_type_id":"4","last_reported":1715468868,"current_range_meters":5600,"station_id":"ce4bgj92rcd13ifvqbd0","pricing_plan_id":"cebpf4jnsgd1na2vs0mg"},{"bike_id":"fb898be3-ec57-4138-90c1-9d32451f6b46","system_id":"levelo_inurba_marseille","lat":43.29519,"lon":5.37501,"is_reserved":false,"is_disabled":false,"rental_uris":{"android":"levelo://app?vid=fb898be3-ec57-4138-90c1-9d32451f6b46","ios":"levelo://app?vid=fb898be3-ec57-4138-90c1-9d32451f6b46"},"vehicle_type_id":"4","last_reported":1715468868,"current_range_meters":0,"station_id":"ce4bgkp2rcd13ifvqbmg","pricing_plan_id":"cebpf4jnsgd1na2vs0mg"},{"bike_id":"d187df53-c242-45ff-86cd-9db5bd2d40b0","system_id":"levelo_inurba_marseille","lat":43.295279,"lon":5.375048,"is_reserved":false,"is_disabled":false,"rental_uris":{"android":"levelo://app?vid=d187df53-c242-45ff-86cd-9db5bd2d40b0","ios":"levelo://app?vid=d187df53-c242-45ff-86cd-9db5bd2d40b0"},"vehicle_type_id":"4","last_reported":1715468868,"current_range_meters":26000,"station_id":"ce4bgkp2rcd13ifvqbmg","pricing_plan_id":"cebpf4jnsgd1na2vs0mg"},{"bike_id":"eade8db3-70bf-4841-8eed-d21f9f55ccae","system_id":"levelo_inurba_marseille","lat":43.29509,"lon":5.37507,"is_reserved":false,"is_disabled":false,"rental_uris":{"android":"levelo://app?vid=eade8db3-70bf-4841-8eed-d21f9f55ccae","ios":"levelo://app?vid=eade8db3-70bf-4841-8eed-d21f9f55ccae"},"vehicle_type_id":"4","last_reported":1715468868,"current_range_meters":1600,"station_id":"ce4bgkp2rcd13ifvqbmg","pricing_plan_id":"cebpf4jnsgd1na2vs0mg"},{"bike_id":"daea4f0b-c564-46fd-8cac-acc3bab5e006","system_id":"levelo_inurba_marseille","lat":43.299065,"lon":5.38482,"is_reserved":false,"is_disabled":false,"rental_uris":{"android":"levelo://app?vid=daea4f0b-c564-46fd-8cac-acc3bab5e006","ios":"levelo://app?vid=daea4f0b-c564-46fd-8cac-acc3bab5e006"},"vehicle_type_id":"4","last_reported":1715468868,"current_range_meters":0,"station_id":"","pricing_plan_id":"cebpf4jnsgd1na2vs0mg"},{"bike_id":"3512b53f-9906-4c3e-8801-a85814bc0d02","system_id":"levelo_inurba_marseille","lat":43.32372,"lon":5.38874,"is_reserved":false,"is_disabled":false,"rental_uris":{"android":"levelo://app?vid=3512b53f-9906-4c3e-8801-a85814bc0d02","ios":"levelo://app?vid=3512b53f-9906-4c3e-8801-a85814bc0d02"},"vehicle_type_id":"4","last_reported":1715468868,"current_range_meters":4800,"station_id":"ce4bhqp2rcd13ifvqhog","pricing_plan_id":"cebpf4jnsgd1na2vs0mg"},{"bike_id":"83cb1ab1-ec7f-488f-97dd-7a4be64c170c","system_id":"levelo_inurba_marseille","lat":43.32365,"lon":5.38881,"is_reserved":false,"is_disabled":false,"rental_uris":{"android":"levelo://app?vid=83cb1ab1-ec7f-488f-97dd-7a4be64c170c","ios":"levelo://app?vid=83cb1ab1-ec7f-488f-97dd-7a4be64c170c"},"vehicle_type_id":"4","last_reported":1715468868,"current_range_meters":16800,"station_id":"ce4bhqp2rcd13ifvqhog","pricing_plan_id":"cebpf4jnsgd1na2vs0mg"},{"bike_id":"59f7ed56-efa1-4a89-b479-251d4588ad8a","system_id":"levelo_inurba_marseille","lat":43.32366,"lon":5.38882,"is_reserved":false,"is_disabled":false,"rental_uris":{"android":"levelo://app?vid=59f7ed56-efa1-4a89-b479-251d4588ad8a","ios":"levelo://app?vid=59f7ed56-efa1-4a89-b479-251d4588ad8a"},"vehicle_type_id":"4","last_reported":1715468868,"current_range_meters":14000,"station_id":"ce4bhqp2rcd13ifvqhog","pricing_plan_id":"cebpf4jnsgd1na2vs0mg"},{"bike_id":"81efba0e-12fe-4fa0-a4ae-da8c5b033846","system_id":"levelo_inurba_marseille","lat":43.32369,"lon":5.3888,"is_reserved":false,"is_disabled":false,"rental_uris":{"android":"levelo://app?vid=81efba0e-12fe-4fa0-a4ae-da8c5b033846","ios":"levelo://app?vid=81efba0e-12fe-4fa0-a4ae-da8c5b033846"},"vehicle_type_id":"4","last_reported":1715468868,"current_range_meters":8800,"station_id":"ce4bhqp2rcd13ifvqhog","pricing_plan_id":"cebpf4jnsgd1na2vs0mg"},{"bike_id":"62d89777-5e88-42c4-9b78-e3aaa49751a4","system_id":"levelo_inurba_marseille","lat":43.32368,"lon":5.38881,"is_reserved":false,"is_disabled":false,"rental_uris":{"android":"levelo://app?vid=62d89777-5e88-42c4-9b78-e3aaa49751a4","ios":"levelo://app?vid=62d89777-5e88-42c4-9b78-e3aaa49751a4"},"vehicle_type_id":"4","last_reported":1715468868,"current_range_meters":800,"station_id":"ce4bhqp2rcd13ifvqhog","pricing_plan_id":"cebpf4jnsgd1na2vs0mg"},{"bike_id":"b7a8912c-8a7d-4e12-9580-854fcaddddcb","system_id":"levelo_inurba_marseille","lat":43.32366,"lon":5.38883,"is_reserved":false,"is_disabled":false,"rental_uris":{"android":"levelo://app?vid=b7a8912c-8a7d-4e12-9580-854fcaddddcb","ios":"levelo://app?vid=b7a8912c-8a7d-4e12-9580-854fcaddddcb"},"vehicle_type_id":"4","last_reported":1715468868,"current_range_meters":6400,"station_id":"ce4bhqp2rcd13ifvqhog","pricing_plan_id":"cebpf4jnsgd1na2vs0mg"},{"bike_id":"53f4033f-b9cb-412c-b6b0-275f1c656d8f","system_id":"levelo_inurba_marseille","lat":43.32367,"lon":5.38886,"is_reserved":false,"is_disabled":false,"rental_uris":{"android":"levelo://app?vid=53f4033f-b9cb-412c-b6b0-275f1c656d8f","ios":"levelo://app?vid=53f4033f-b9cb-412c-b6b0-275f1c656d8f"},"vehicle_type_id":"4","last_reported":1715468868,"current_range_meters":0,"station_id":"ce4bhqp2rcd13ifvqhog","pricing_plan_id":"cebpf4jnsgd1na2vs0mg"},{"bike_id":"d0ddbb0a-9dbe-4059-99e0-309d3facdd52","system_id":"levelo_inurba_marseille","lat":43.29608,"lon":5.38077,"is_reserved":false,"is_disabled":false,"rental_uris":{"android":"levelo://app?vid=d0ddbb0a-9dbe-4059-99e0-309d3facdd52","ios":"levelo://app?vid=d0ddbb0a-9dbe-4059-99e0-309d3facdd52"},"vehicle_type_id":"4","last_reported":1715468868,"current_range_meters":20400,"station_id":"ce4bgl12rcd13ifvqbo0","pricing_plan_id":"cebpf4jnsgd1na2vs0mg"},{"bike_id":"730bb873-a3bc-4693-9665-5ffcca74c19b","system_id":"levelo_inurba_marseille","lat":43.29605,"lon":5.3809,"is_reserved":false,"is_disabled":false,"rental_uris":{"android":"levelo://app?vid=730bb873-a3bc-4693-9665-5ffcca74c19b","ios":"levelo://app?vid=730bb873-a3bc-4693-9665-5ffcca74c19b"},"vehicle_type_id":"4","last_reported":1715468868,"current_range_meters":31200,"station_id":"ce4bgl12rcd13ifvqbo0","pricing_plan_id":"cebpf4jnsgd1na2vs0mg"},{"bike_id":"83d7e098-8f60-4537-8920-d2e4b0f5e2d1","system_id":"levelo_inurba_marseille","lat":43.29605,"lon":5.38091,"is_reserved":false,"is_disabled":false,"rental_uris":{"android":"levelo://app?vid=83d7e098-8f60-4537-8920-d2e4b0f5e2d1","ios":"levelo://app?vid=83d7e098-8f60-4537-8920-d2e4b0f5e2d1"},"vehicle_type_id":"4","last_reported":1715468868,"current_range_meters":2800,"station_id":"ce4bgl12rcd13ifvqbo0","pricing_plan_id":"cebpf4jnsgd1na2vs0mg"},{"bike_id":"96767bc4-d7db-4db6-baf6-ec3983546ffb","system_id":"levelo_inurba_marseille","lat":43.29601,"lon":5.38082,"is_reserved":false,"is_disabled":false,"rental_uris":{"android":"levelo://app?vid=96767bc4-d7db-4db6-baf6-ec3983546ffb","ios":"levelo://app?vid=96767bc4-d7db-4db6-baf6-ec3983546ffb"},"vehicle_type_id":"4","last_reported":1715468868,"current_range_meters":30000,"station_id":"ce4bgl12rcd13ifvqbo0","pricing_plan_id":"cebpf4jnsgd1na2vs0mg"},{"bike_id":"6332f1c8-4c8e-4147-baf5-80057df70d11","system_id":"levelo_inurba_marseille","lat":43.29602,"lon":5.381084,"is_reserved":false,"is_disabled":false,"rental_uris":{"android":"levelo://app?vid=6332f1c8-4c8e-4147-baf5-80057df70d11","ios":"levelo://app?vid=6332f1c8-4c8e-4147-baf5-80057df70d11"},"vehicle_type_id":"4","last_reported":1715468868,"current_range_meters":13600,"station_id":"ce4bgl12rcd13ifvqbo0","pricing_plan_id":"cebpf4jnsgd1na2vs0mg"},{"bike_id":"45082d2b-e532-426b-97ee-daf61b7ab1ff","system_id":"levelo_inurba_marseille","lat":43.29602,"lon":5.381084,"is_reserved":false,"is_disabled":false,"rental_uris":{"android":"levelo://app?vid=45082d2b-e532-426b-97ee-daf61b7ab1ff","ios":"levelo://app?vid=45082d2b-e532-426b-97ee-daf61b7ab1ff"},"vehicle_type_id":"4","last_reported":1715468868,"current_range_meters":0,"station_id":"ce4bgl12rcd13ifvqbo0","pricing_plan_id":"cebpf4jnsgd1na2vs0mg"},{"bike_id":"9e4824f0-d923-43b9-b6e7-b3aa210b366e","system_id":"levelo_inurba_marseille","lat":43.29601,"lon":5.38087,"is_reserved":false,"is_disabled":false,"rental_uris":{"android":"levelo://app?vid=9e4824f0-d923-43b9-b6e7-b3aa210b366e","ios":"levelo://app?vid=9e4824f0-d923-43b9-b6e7-b3aa210b366e"},"vehicle_type_id":"4","last_reported":1715468868,"current_range_meters":27200,"station_id":"ce4bgl12rcd13ifvqbo0","pricing_plan_id":"cebpf4jnsgd1na2vs0mg"},{"bike_id":"12481540-880a-4c62-accc-752652629842","system_id":"levelo_inurba_marseille","lat":43.29602,"lon":5.381084,"is_reserved":false,"is_disabled":false,"rental_uris":{"android":"levelo://app?vid=12481540-880a-4c62-accc-752652629842","ios":"levelo://app?vid=12481540-880a-4c62-accc-752652629842"},"vehicle_type_id":"4","last_reported":1715468868,"current_range_meters":0,"station_id":"ce4bgl12rcd13ifvqbo0","pricing_plan_id":"cebpf4jnsgd1na2vs0mg"},{"bike_id":"89eaeaa6-bf3b-4581-a1cc-6797819dc791","system_id":"levelo_inurba_marseille","lat":43.29598,"lon":5.380921,"is_reserved":false,"is_disabled":false,"rental_uris":{"android":"levelo://app?vid=89eaeaa6-bf3b-4581-a1cc-6797819dc791","ios":"levelo://app?vid=89eaeaa6-bf3b-4581-a1cc-6797819dc791"},"vehicle_type_id":"4","last_reported":1715468868,"current_range_meters":24800,"station_id":"ce4bgl12rcd13ifvqbo0","pricing_plan_id":"cebpf4jnsgd1na2vs0mg"},{"bike_id":"84b35357-ef20-478d-9c0e-185ec9dc6d25","system_id":"levelo_inurba_marseille","lat":43.296,"lon":5.38103,"is_reserved":false,"is_disabled":false,"rental_uris":{"android":"levelo://app?vid=84b35357-ef20-478d-9c0e-185ec9dc6d25","ios":"levelo://app?vid=84b35357-ef20-478d-9c0e-185ec9dc6d25"},"vehicle_type_id":"4","last_reported":1715468868,"current_range_meters":4400,"station_id":"ce4bgl12rcd13ifvqbo0","pricing_plan_id":"cebpf4jnsgd1na2vs0mg"},{"bike_id":"1b7b001c-6cb9-44c2-b971-3d9ac76347ab","system_id":"levelo_inurba_marseille","lat":43.29594,"lon":5.38092,"is_reserved":false,"is_disabled":false,"rental_uris":{"android":"levelo://app?vid=1b7b001c-6cb9-44c2-b971-3d9ac76347ab","ios":"levelo://app?vid=1b7b001c-6cb9-44c2-b971-3d9ac76347ab"},"vehicle_type_id":"4","last_reported":1715468868,"current_range_meters":31200,"station_id":"ce4bgl12rcd13ifvqbo0","pricing_plan_id":"cebpf4jnsgd1na2vs0mg"},{"bike_id":"f6cfe7cb-f254-48b2-9dae-f8d0e2af11c9","system_id":"levelo_inurba_marseille","lat":43.295945,"lon":5.380965,"is_reserved":false,"is_disabled":false,"rental_uris":{"android":"levelo://app?vid=f6cfe7cb-f254-48b2-9dae-f8d0e2af11c9","ios":"levelo://app?vid=f6cfe7cb-f254-48b2-9dae-f8d0e2af11c9"},"vehicle_type_id":"4","last_reported":1715468868,"current_range_meters":3600,"station_id":"ce4bgl12rcd13ifvqbo0","pricing_plan_id":"cebpf4jnsgd1na2vs0mg"},{"bike_id":"acecbad5-c116-4b34-8cc6-d9a2a944ef66","system_id":"levelo_inurba_marseille","lat":43.29602,"lon":5.381084,"is_reserved":false,"is_disabled":false,"rental_uris":{"android":"levelo://app?vid=acecbad5-c116-4b34-8cc6-d9a2a944ef66","ios":"levelo://app?vid=acecbad5-c116-4b34-8cc6-d9a2a944ef66"},"vehicle_type_id":"4","last_reported":1715468868,"current_range_meters":7600,"station_id":"ce4bgl12rcd13ifvqbo0","pricing_plan_id":"cebpf4jnsgd1na2vs0mg"},{"bike_id":"989a3472-16df-4419-b065-7b7f774b8fd3","system_id":"levelo_inurba_marseille","lat":43.293259,"lon":5.371586,"is_reserved":false,"is_disabled":false,"rental_uris":{"android":"levelo://app?vid=989a3472-16df-4419-b065-7b7f774b8fd3","ios":"levelo://app?vid=989a3472-16df-4419-b065-7b7f774b8fd3"},"vehicle_type_id":"4","last_reported":1715468868,"current_range_meters":13200,"station_id":"ce4bgh92rcd13ifvqb40","pricing_plan_id":"cebpf4jnsgd1na2vs0mg"},{"bike_id":"8807b0dc-ee86-4cb1-bd33-5d8de370838d","system_id":"levelo_inurba_marseille","lat":43.29307,"lon":5.37173,"is_reserved":false,"is_disabled":false,"rental_uris":{"android":"levelo://app?vid=8807b0dc-ee86-4cb1-bd33-5d8de370838d","ios":"levelo://app?vid=8807b0dc-ee86-4cb1-bd33-5d8de370838d"},"vehicle_type_id":"4","last_reported":1715468868,"current_range_meters":0,"station_id":"ce4bgh92rcd13ifvqb40","pricing_plan_id":"cebpf4jnsgd1na2vs0mg"},{"bike_id":"9467f9e2-b080-40b7-95c7-56e6524a0f1b","system_id":"levelo_inurba_marseille","lat":43.292749,"lon":5.368402,"is_reserved":false,"is_disabled":false,"rental_uris":{"android":"levelo://app?vid=9467f9e2-b080-40b7-95c7-56e6524a0f1b","ios":"levelo://app?vid=9467f9e2-b080-40b7-95c7-56e6524a0f1b"},"vehicle_type_id":"4","last_reported":1715468868,"current_range_meters":19200,"station_id":"ce4bhbp2rcd13ifvqesg","pricing_plan_id":"cebpf4jnsgd1na2vs0mg"},{"bike_id":"ace5f1ba-d409-47f8-8f94-137520b885a6","system_id":"levelo_inurba_marseille","lat":43.292749,"lon":5.368402,"is_reserved":false,"is_disabled":false,"rental_uris":{"android":"levelo://app?vid=ace5f1ba-d409-47f8-8f94-137520b885a6","ios":"levelo://app?vid=ace5f1ba-d409-47f8-8f94-137520b885a6"},"vehicle_type_id":"4","last_reported":1715468868,"current_range_meters":0,"station_id":"ce4bhbp2rcd13ifvqesg","pricing_plan_id":"cebpf4jnsgd1na2vs0mg"},{"bike_id":"0427881a-3f91-4083-8014-f1f2ca5778ae","system_id":"levelo_inurba_marseille","lat":43.29299,"lon":5.3745,"is_reserved":false,"is_disabled":false,"rental_uris":{"android":"levelo://app?vid=0427881a-3f91-4083-8014-f1f2ca5778ae","ios":"levelo://app?vid=0427881a-3f91-4083-8014-f1f2ca5778ae"},"vehicle_type_id":"4","last_reported":1715468868,"current_range_meters":0,"station_id":"ce4bgi12rcd13ifvqb70","pricing_plan_id":"cebpf4jnsgd1na2vs0mg"},{"bike_id":"2af4424c-fd65-4ff0-9cf6-31460101abf4","system_id":"levelo_inurba_marseille","lat":43.306011,"lon":5.393551,"is_reserved":false,"is_disabled":false,"rental_uris":{"android":"levelo://app?vid=2af4424c-fd65-4ff0-9cf6-31460101abf4","ios":"levelo://app?vid=2af4424c-fd65-4ff0-9cf6-31460101abf4"},"vehicle_type_id":"4","last_reported":1715468868,"current_range_meters":8400,"station_id":"ce4bh0p2rcd13ifvqd80","pricing_plan_id":"cebpf4jnsgd1na2vs0mg"},{"bike_id":"07ad7608-a4a2-45ce-ac84-648ae59f6db7","system_id":"levelo_inurba_marseille","lat":43.305994,"lon":5.393687,"is_reserved":false,"is_disabled":false,"rental_uris":{"android":"levelo://app?vid=07ad7608-a4a2-45ce-ac84-648ae59f6db7","ios":"levelo://app?vid=07ad7608-a4a2-45ce-ac84-648ae59f6db7"},"vehicle_type_id":"4","last_reported":1715468868,"current_range_meters":16800,"station_id":"ce4bh0p2rcd13ifvqd80","pricing_plan_id":"cebpf4jnsgd1na2vs0mg"},{"bike_id":"82961a74-95a2-447d-bf18-51976edce71d","system_id":"levelo_inurba_marseille","lat":43.305994,"lon":5.393687,"is_reserved":false,"is_disabled":false,"rental_uris":{"android":"levelo://app?vid=82961a74-95a2-447d-bf18-51976edce71d","ios":"levelo://app?vid=82961a74-95a2-447d-bf18-51976edce71d"},"vehicle_type_id":"4","last_reported":1715468868,"current_range_meters":14400,"station_id":"ce4bh0p2rcd13ifvqd80","pricing_plan_id":"cebpf4jnsgd1na2vs0mg"},{"bike_id":"c9129cab-2d51-40bc-a34a-d5d5133fed38","system_id":"levelo_inurba_marseille","lat":43.29297,"lon":5.37463,"is_reserved":false,"is_disabled":false,"rental_uris":{"android":"levelo://app?vid=c9129cab-2d51-40bc-a34a-d5d5133fed38","ios":"levelo://app?vid=c9129cab-2d51-40bc-a34a-d5d5133fed38"},"vehicle_type_id":"4","last_reported":1715468868,"current_range_meters":15200,"station_id":"ce4bgi12rcd13ifvqb70","pricing_plan_id":"cebpf4jnsgd1na2vs0mg"},{"bike_id":"9e188b7b-ba99-4deb-b9d8-2db0527deb65","system_id":"levelo_inurba_marseille","lat":43.303002,"lon":5.392142,"is_reserved":false,"is_disabled":false,"rental_uris":{"android":"levelo://app?vid=9e188b7b-ba99-4deb-b9d8-2db0527deb65","ios":"levelo://app?vid=9e188b7b-ba99-4deb-b9d8-2db0527deb65"},"vehicle_type_id":"4","last_reported":1715468868,"current_range_meters":4400,"station_id":"ce4bgkh2rcd13ifvqbk0","pricing_plan_id":"cebpf4jnsgd1na2vs0mg"},{"bike_id":"3a6b8a46-784d-4d03-b44e-f684f66c229a","system_id":"levelo_inurba_marseille","lat":43.303002,"lon":5.392142,"is_reserved":false,"is_disabled":false,"rental_uris":{"android":"levelo://app?vid=3a6b8a46-784d-4d03-b44e-f684f66c229a","ios":"levelo://app?vid=3a6b8a46-784d-4d03-b44e-f684f66c229a"},"vehicle_type_id":"4","last_reported":1715468868,"current_range_meters":12000,"station_id":"ce4bgkh2rcd13ifvqbk0","pricing_plan_id":"cebpf4jnsgd1na2vs0mg"},{"bike_id":"f3f7b03b-40bb-4f83-9a47-cde57329742b","system_id":"levelo_inurba_marseille","lat":43.302995,"lon":5.392,"is_reserved":false,"is_disabled":false,"rental_uris":{"android":"levelo://app?vid=f3f7b03b-40bb-4f83-9a47-cde57329742b","ios":"levelo://app?vid=f3f7b03b-40bb-4f83-9a47-cde57329742b"},"vehicle_type_id":"4","last_reported":1715468868,"current_range_meters":0,"station_id":"ce4bgkh2rcd13ifvqbk0","pricing_plan_id":"cebpf4jnsgd1na2vs0mg"},{"bike_id":"75c60b03-f942-4a59-b374-dce630dd76e5","system_id":"levelo_inurba_marseille","lat":43.303002,"lon":5.392142,"is_reserved":false,"is_disabled":false,"rental_uris":{"android":"levelo://app?vid=75c60b03-f942-4a59-b374-dce630dd76e5","ios":"levelo://app?vid=75c60b03-f942-4a59-b374-dce630dd76e5"},"vehicle_type_id":"4","last_reported":1715468868,"current_range_meters":30400,"station_id":"ce4bgkh2rcd13ifvqbk0","pricing_plan_id":"cebpf4jnsgd1na2vs0mg"},{"bike_id":"1acf8b9b-b4fd-4c7e-8aa7-e1be247cb818","system_id":"levelo_inurba_marseille","lat":43.30085,"lon":5.390856,"is_reserved":false,"is_disabled":false,"rental_uris":{"android":"levelo://app?vid=1acf8b9b-b4fd-4c7e-8aa7-e1be247cb818","ios":"levelo://app?vid=1acf8b9b-b4fd-4c7e-8aa7-e1be247cb818"},"vehicle_type_id":"4","last_reported":1715468868,"current_range_meters":17200,"station_id":"ce4bh192rcd13ifvqdb0","pricing_plan_id":"cebpf4jnsgd1na2vs0mg"},{"bike_id":"ab03bcb5-9633-4828-b9bf-0ca2a813ea59","system_id":"levelo_inurba_marseille","lat":43.303002,"lon":5.392142,"is_reserved":false,"is_disabled":false,"rental_uris":{"android":"levelo://app?vid=ab03bcb5-9633-4828-b9bf-0ca2a813ea59","ios":"levelo://app?vid=ab03bcb5-9633-4828-b9bf-0ca2a813ea59"},"vehicle_type_id":"4","last_reported":1715468868,"current_range_meters":7600,"station_id":"ce4bgkh2rcd13ifvqbk0","pricing_plan_id":"cebpf4jnsgd1na2vs0mg"},{"bike_id":"ec821044-58a2-4082-942a-518b1ab60297","system_id":"levelo_inurba_marseille","lat":43.2936,"lon":5.37835,"is_reserved":false,"is_disabled":false,"rental_uris":{"android":"levelo://app?vid=ec821044-58a2-4082-942a-518b1ab60297","ios":"levelo://app?vid=ec821044-58a2-4082-942a-518b1ab60297"},"vehicle_type_id":"4","last_reported":1715468868,"current_range_meters":15600,"station_id":"ce4bgjh2rcd13ifvqbf0","pricing_plan_id":"cebpf4jnsgd1na2vs0mg"},{"bike_id":"55e71824-3fe3-4a83-93c9-e20f1887bf0b","system_id":"levelo_inurba_marseille","lat":43.30303,"lon":5.39215,"is_reserved":false,"is_disabled":false,"rental_uris":{"android":"levelo://app?vid=55e71824-3fe3-4a83-93c9-e20f1887bf0b","ios":"levelo://app?vid=55e71824-3fe3-4a83-93c9-e20f1887bf0b"},"vehicle_type_id":"4","last_reported":1715468868,"current_range_meters":6000,"station_id":"ce4bgkh2rcd13ifvqbk0","pricing_plan_id":"cebpf4jnsgd1na2vs0mg"},{"bike_id":"372f5a94-93ff-4042-8655-2526339459ec","system_id":"levelo_inurba_marseille","lat":43.303,"lon":5.392138,"is_reserved":false,"is_disabled":false,"rental_uris":{"android":"levelo://app?vid=372f5a94-93ff-4042-8655-2526339459ec","ios":"levelo://app?vid=372f5a94-93ff-4042-8655-2526339459ec"},"vehicle_type_id":"4","last_reported":1715468868,"current_range_meters":0,"station_id":"ce4bgkh2rcd13ifvqbk0","pricing_plan_id":"cebpf4jnsgd1na2vs0mg"},{"bike_id":"be5ef0d5-9a6d-4dff-a781-961eb6489d1a","system_id":"levelo_inurba_marseille","lat":43.302992,"lon":5.392136,"is_reserved":false,"is_disabled":false,"rental_uris":{"android":"levelo://app?vid=be5ef0d5-9a6d-4dff-a781-961eb6489d1a","ios":"levelo://app?vid=be5ef0d5-9a6d-4dff-a781-961eb6489d1a"},"vehicle_type_id":"4","last_reported":1715468868,"current_range_meters":21200,"station_id":"ce4bgkh2rcd13ifvqbk0","pricing_plan_id":"cebpf4jnsgd1na2vs0mg"},{"bike_id":"b6538cb7-c30a-44f5-a669-0faf7240a998","system_id":"levelo_inurba_marseille","lat":43.2936,"lon":5.37835,"is_reserved":false,"is_disabled":false,"rental_uris":{"android":"levelo://app?vid=b6538cb7-c30a-44f5-a669-0faf7240a998","ios":"levelo://app?vid=b6538cb7-c30a-44f5-a669-0faf7240a998"},"vehicle_type_id":"4","last_reported":1715468868,"current_range_meters":15200,"station_id":"ce4bgjh2rcd13ifvqbf0","pricing_plan_id":"cebpf4jnsgd1na2vs0mg"},{"bike_id":"7a2ff73b-fdb8-4f31-b199-2786ca049ed3","system_id":"levelo_inurba_marseille","lat":43.2936,"lon":5.37835,"is_reserved":false,"is_disabled":false,"rental_uris":{"android":"levelo://app?vid=7a2ff73b-fdb8-4f31-b199-2786ca049ed3","ios":"levelo://app?vid=7a2ff73b-fdb8-4f31-b199-2786ca049ed3"},"vehicle_type_id":"4","last_reported":1715468868,"current_range_meters":19200,"station_id":"ce4bgjh2rcd13ifvqbf0","pricing_plan_id":"cebpf4jnsgd1na2vs0mg"},{"bike_id":"52722fa8-6a1d-456b-a32e-a41febe4d7c8","system_id":"levelo_inurba_marseille","lat":43.300852,"lon":5.390859,"is_reserved":false,"is_disabled":false,"rental_uris":{"android":"levelo://app?vid=52722fa8-6a1d-456b-a32e-a41febe4d7c8","ios":"levelo://app?vid=52722fa8-6a1d-456b-a32e-a41febe4d7c8"},"vehicle_type_id":"4","last_reported":1715468868,"current_range_meters":18000,"station_id":"ce4bh192rcd13ifvqdb0","pricing_plan_id":"cebpf4jnsgd1na2vs0mg"},{"bike_id":"4ef0c972-fbed-4ec9-8a9b-398fdc5b1fb5","system_id":"levelo_inurba_marseille","lat":43.30085,"lon":5.390856,"is_reserved":false,"is_disabled":false,"rental_uris":{"android":"levelo://app?vid=4ef0c972-fbed-4ec9-8a9b-398fdc5b1fb5","ios":"levelo://app?vid=4ef0c972-fbed-4ec9-8a9b-398fdc5b1fb5"},"vehicle_type_id":"4","last_reported":1715468868,"current_range_meters":6000,"station_id":"ce4bh192rcd13ifvqdb0","pricing_plan_id":"cebpf4jnsgd1na2vs0mg"},{"bike_id":"ba554edd-5113-4132-bdb1-70829cb3bd87","system_id":"levelo_inurba_marseille","lat":43.30085,"lon":5.390856,"is_reserved":false,"is_disabled":false,"rental_uris":{"android":"levelo://app?vid=ba554edd-5113-4132-bdb1-70829cb3bd87","ios":"levelo://app?vid=ba554edd-5113-4132-bdb1-70829cb3bd87"},"vehicle_type_id":"4","last_reported":1715468868,"current_range_meters":29200,"station_id":"ce4bh192rcd13ifvqdb0","pricing_plan_id":"cebpf4jnsgd1na2vs0mg"},{"bike_id":"f17be9fb-01b9-4d6b-9b73-79de9865d668","system_id":"levelo_inurba_marseille","lat":43.30085,"lon":5.390856,"is_reserved":false,"is_disabled":false,"rental_uris":{"android":"levelo://app?vid=f17be9fb-01b9-4d6b-9b73-79de9865d668","ios":"levelo://app?vid=f17be9fb-01b9-4d6b-9b73-79de9865d668"},"vehicle_type_id":"4","last_reported":1715468868,"current_range_meters":5600,"station_id":"ce4bh192rcd13ifvqdb0","pricing_plan_id":"cebpf4jnsgd1na2vs0mg"},{"bike_id":"29c8f684-9084-46de-9430-73cd10b78f25","system_id":"levelo_inurba_marseille","lat":43.30085,"lon":5.390856,"is_reserved":false,"is_disabled":false,"rental_uris":{"android":"levelo://app?vid=29c8f684-9084-46de-9430-73cd10b78f25","ios":"levelo://app?vid=29c8f684-9084-46de-9430-73cd10b78f25"},"vehicle_type_id":"4","last_reported":1715468868,"current_range_meters":6000,"station_id":"ce4bh192rcd13ifvqdb0","pricing_plan_id":"cebpf4jnsgd1na2vs0mg"},{"bike_id":"0322000d-19eb-4892-a802-9b9eb340759c","system_id":"levelo_inurba_marseille","lat":43.298764,"lon":5.388973,"is_reserved":false,"is_disabled":false,"rental_uris":{"android":"levelo://app?vid=0322000d-19eb-4892-a802-9b9eb340759c","ios":"levelo://app?vid=0322000d-19eb-4892-a802-9b9eb340759c"},"vehicle_type_id":"4","last_reported":1715468868,"current_range_meters":0,"station_id":"ce4bh392rcd13ifvqdl0","pricing_plan_id":"cebpf4jnsgd1na2vs0mg"},{"bike_id":"83777f52-cad5-455a-9b75-de42762aacff","system_id":"levelo_inurba_marseille","lat":43.298764,"lon":5.388973,"is_reserved":false,"is_disabled":false,"rental_uris":{"android":"levelo://app?vid=83777f52-cad5-455a-9b75-de42762aacff","ios":"levelo://app?vid=83777f52-cad5-455a-9b75-de42762aacff"},"vehicle_type_id":"4","last_reported":1715468868,"current_range_meters":17600,"station_id":"ce4bh392rcd13ifvqdl0","pricing_plan_id":"cebpf4jnsgd1na2vs0mg"},{"bike_id":"5afbec35-3136-48a3-a7d2-efce90fa9c91","system_id":"levelo_inurba_marseille","lat":43.29259,"lon":5.37627,"is_reserved":false,"is_disabled":false,"rental_uris":{"android":"levelo://app?vid=5afbec35-3136-48a3-a7d2-efce90fa9c91","ios":"levelo://app?vid=5afbec35-3136-48a3-a7d2-efce90fa9c91"},"vehicle_type_id":"4","last_reported":1715468868,"current_range_meters":14000,"station_id":"","pricing_plan_id":"cebpf4jnsgd1na2vs0mg"},{"bike_id":"d7845b46-475b-4cc9-9d64-abdf91f2f50e","system_id":"levelo_inurba_marseille","lat":43.29878,"lon":5.38902,"is_reserved":false,"is_disabled":false,"rental_uris":{"android":"levelo://app?vid=d7845b46-475b-4cc9-9d64-abdf91f2f50e","ios":"levelo://app?vid=d7845b46-475b-4cc9-9d64-abdf91f2f50e"},"vehicle_type_id":"4","last_reported":1715468868,"current_range_meters":31200,"station_id":"ce4bh392rcd13ifvqdl0","pricing_plan_id":"cebpf4jnsgd1na2vs0mg"},{"bike_id":"a1005953-1e96-4385-84c7-3a2395f5e69d","system_id":"levelo_inurba_marseille","lat":43.29882,"lon":5.38908,"is_reserved":false,"is_disabled":false,"rental_uris":{"android":"levelo://app?vid=a1005953-1e96-4385-84c7-3a2395f5e69d","ios":"levelo://app?vid=a1005953-1e96-4385-84c7-3a2395f5e69d"},"vehicle_type_id":"4","last_reported":1715468868,"current_range_meters":24800,"station_id":"ce4bh392rcd13ifvqdl0","pricing_plan_id":"cebpf4jnsgd1na2vs0mg"},{"bike_id":"506e6c17-ff09-4914-9f9d-34ae981afa2a","system_id":"levelo_inurba_marseille","lat":43.298764,"lon":5.388973,"is_reserved":false,"is_disabled":false,"rental_uris":{"android":"levelo://app?vid=506e6c17-ff09-4914-9f9d-34ae981afa2a","ios":"levelo://app?vid=506e6c17-ff09-4914-9f9d-34ae981afa2a"},