{"last_updated":1719418209,"ttl":30,"version":"2.2","data":{"bikes":[{"bike_id":"ebd18cb3-a41c-4f33-b4d7-21a6803c3233","system_id":"levelo_inurba_marseille","lat":43.312239,"lon":5.368562,"is_reserved":false,"is_disabled":false,"rental_uris":{"android":"levelo://app?vid=ebd18cb3-a41c-4f33-b4d7-21a6803c3233","ios":"levelo://app?vid=ebd18cb3-a41c-4f33-b4d7-21a6803c3233"},"vehicle_type_id":"4","last_reported":1719418209,"current_range_meters":24000,"station_id":"ce4bgl92rcd13ifvqbq0","pricing_plan_id":"cebpf4jnsgd1na2vs0mg"},{"bike_id":"bcc3e4e7-49ad-4827-ad72-a8aac5cd29e6","system_id":"levelo_inurba_marseille","lat":43.31509,"lon":5.37089,"is_reserved":false,"is_disabled":false,"rental_uris":{"android":"levelo://app?vid=bcc3e4e7-49ad-4827-ad72-a8aac5cd29e6","ios":"levelo://app?vid=bcc3e4e7-49ad-4827-ad72-a8aac5cd29e6"},"vehicle_type_id":"4","last_reported":1719418209,"current_range_meters":15200,"station_id":"","pricing_plan_id":"cebpf4jnsgd1na2vs0mg"},{"bike_id":"9c26620b-0fbb-466c-82d8-73d4d2f39c58","system_id":"levelo_inurba_marseille","lat":43.314811,"lon":5.373104,"is_reserved":false,"is_disabled":false,"rental_uris":{"android":"levelo://app?vid=9c26620b-0fbb-466c-82d8-73d4d2f39c58","ios":"levelo://app?vid=9c26620b-0fbb-466c-82d8-73d4d2f39c58"},"vehicle_type_id":"4","last_reported":1719418209,"current_range_meters":2000,"station_id":"ce4bgt12rcd13ifvqcd0","pricing_plan_id":"cebpf4jnsgd1na2vs0mg"},{"bike_id":"5e5c1648-dccc-4446-8ffe-0885faa486da","system_id":"levelo_inurba_marseille","lat":43.30911,"lon":5.37183,"is_reserved":false,"is_disabled":false,"rental_uris":{"android":"levelo://app?vid=5e5c1648-dccc-4446-8ffe-0885faa486da","ios":"levelo://app?vid=5e5c1648-dccc-4446-8ffe-0885faa486da"},"vehicle_type_id":"4","last_reported":1719418209,"current_range_meters":20400,"station_id":"ce4bguh2rcd13ifvqckg","pricing_plan_id":"cebpf4jnsgd1na2vs0mg"},{"bike_id":"efc7615d-30bb-4754-a9dd-645c7db295a4","system_id":"levelo_inurba_marseille","lat":43.30527,"lon":5.366707,"is_reserved":false,"is_disabled":false,"rental_uris":{"android":"levelo://app?vid=efc7615d-30bb-4754-a9dd-645c7db295a4","ios":"levelo://app?vid=efc7615d-30bb-4754-a9dd-645c7db295a4"},"vehicle_type_id":"4","last_reported":1719418209,"current_range_meters":31200,"station_id":"","pricing_plan_id":"cebpf4jnsgd1na2vs0mg"},{"bike_id":"36c140fe-d18f-4ff5-be8f-386de33eddf0","system_id":"levelo_inurba_marseille","lat":43.311178,"lon":5.377647,"is_reserved":false,"is_disabled":false,"rental_uris":{"android":"levelo://app?vid=36c140fe-d18f-4ff5-be8f-386de33eddf0","ios":"levelo://app?vid=36c140fe-d18f-4ff5-be8f-386de33eddf0"},"vehicle_type_id":"4","last_reported":1719418209,"current_range_meters":25200,"station_id":"ce4bgt92rcd13ifvqcg0","pricing_plan_id":"cebpf4jnsgd1na2vs0mg"},{"bike_id":"4eeab532-37fd-4009-bc3b-ce5446142f05","system_id":"levelo_inurba_marseille","lat":43.30304,"lon":5.368987,"is_reserved":false,"is_disabled":false,"rental_uris":{"android":"levelo://app?vid=4eeab532-37fd-4009-bc3b-ce5446142f05","ios":"levelo://app?vid=4eeab532-37fd-4009-bc3b-ce5446142f05"},"vehicle_type_id":"4","last_reported":1719418209,"current_range_meters":800,"station_id":"ce4bgqh2rcd13ifvqc5g","pricing_plan_id":"cebpf4jnsgd1na2vs0mg"},{"bike_id":"55197fde-73a1-4059-9efb-8c5f8104024f","system_id":"levelo_inurba_marseille","lat":43.301939,"lon":5.366286,"is_reserved":false,"is_disabled":false,"rental_uris":{"android":"levelo://app?vid=55197fde-73a1-4059-9efb-8c5f8104024f","ios":"levelo://app?vid=55197fde-73a1-4059-9efb-8c5f8104024f"},"vehicle_type_id":"4","last_reported":1719418209,"current_range_meters":22400,"station_id":"ce4bgrh2rcd13ifvqc8g","pricing_plan_id":"cebpf4jnsgd1na2vs0mg"},{"bike_id":"c83ce489-8608-4457-912c-c74ac8a43c1c","system_id":"levelo_inurba_marseille","lat":43.301939,"lon":5.366286,"is_reserved":false,"is_disabled":false,"rental_uris":{"android":"levelo://app?vid=c83ce489-8608-4457-912c-c74ac8a43c1c","ios":"levelo://app?vid=c83ce489-8608-4457-912c-c74ac8a43c1c"},"vehicle_type_id":"4","last_reported":1719418209,"current_range_meters":1600,"station_id":"ce4bgrh2rcd13ifvqc8g","pricing_plan_id":"cebpf4jnsgd1na2vs0mg"},{"bike_id":"f7338f64-719d-4a3f-9982-2db267b93f5a","system_id":"levelo_inurba_marseille","lat":43.324554,"lon":5.364902,"is_reserved":false,"is_disabled":false,"rental_uris":{"android":"levelo://app?vid=f7338f64-719d-4a3f-9982-2db267b93f5a","ios":"levelo://app?vid=f7338f64-719d-4a3f-9982-2db267b93f5a"},"vehicle_type_id":"4","last_reported":1719418209,"current_range_meters":2800,"station_id":"","pricing_plan_id":"cebpf4jnsgd1na2vs0mg"},{"bike_id":"a0fb5996-db28-4457-90a5-e4c561cbe3aa","system_id":"levelo_inurba_marseille","lat":43.304606,"lon":5.379026,"is_reserved":false,"is_disabled":false,"rental_uris":{"android":"levelo://app?vid=a0fb5996-db28-4457-90a5-e4c561cbe3aa","ios":"levelo://app?vid=a0fb5996-db28-4457-90a5-e4c561cbe3aa"},"vehicle_type_id":"4","last_reported":1719418209,"current_range_meters":400,"station_id":"ce4bgup2rcd13ifvqcn0","pricing_plan_id":"cebpf4jnsgd1na2vs0mg"},{"bike_id":"88817587-016d-48e7-9360-9b34ece3c5db","system_id":"levelo_inurba_marseille","lat":43.304606,"lon":5.379026,"is_reserved":false,"is_disabled":false,"rental_uris":{"android":"levelo://app?vid=88817587-016d-48e7-9360-9b34ece3c5db","ios":"levelo://app?vid=88817587-016d-48e7-9360-9b34ece3c5db"},"vehicle_type_id":"4","last_reported":1719418209,"current_range_meters":0,"station_id":"ce4bgup2rcd13ifvqcn0","pricing_plan_id":"cebpf4jnsgd1na2vs0mg"},{"bike_id":"bbbf8ddb-cc3d-4eda-a807-4c78aca5001c","system_id":"levelo_inurba_marseille","lat":43.324771,"lon":5.36557,"is_reserved":false,"is_disabled":false,"rental_uris":{"android":"levelo://app?vid=bbbf8ddb-cc3d-4eda-a807-4c78aca5001c","ios":"levelo://app?vid=bbbf8ddb-cc3d-4eda-a807-4c78aca5001c"},"vehicle_type_id":"4","last_reported":1719418209,"current_range_meters":13600,"station_id":"ce4bhs12rcd13ifvqhvg","pricing_plan_id":"cebpf4jnsgd1na2vs0mg"},{"bike_id":"6dcdd0f0-cfea-4b8d-af8d-a0d23239959a","system_id":"levelo_inurba_marseille","lat":43.324771,"lon":5.36557,"is_reserved":false,"is_disabled":false,"rental_uris":{"android":"levelo://app?vid=6dcdd0f0-cfea-4b8d-af8d-a0d23239959a","ios":"levelo://app?vid=6dcdd0f0-cfea-4b8d-af8d-a0d23239959a"},"vehicle_type_id":"4","last_reported":1719418209,"current_range_meters":8400,"station_id":"ce4bhs12rcd13ifvqhvg","pricing_plan_id":"cebpf4jnsgd1na2vs0mg"},{"bike_id":"72bafb86-d841-44a2-ac16-6d9373c7a7ae","system_id":"levelo_inurba_marseille","lat":43.310703,"lon":5.383466,"is_reserved":false,"is_disabled":false,"rental_uris":{"android":"levelo://app?vid=72bafb86-d841-44a2-ac16-6d9373c7a7ae","ios":"levelo://app?vid=72bafb86-d841-44a2-ac16-6d9373c7a7ae"},"vehicle_type_id":"4","last_reported":1719418209,"current_range_meters":0,"station_id":"ce4bgv92rcd13ifvqcr0","pricing_plan_id":"cebpf4jnsgd1na2vs0mg"},{"bike_id":"935297c3-826f-44e2-9df5-4a1587892834","system_id":"levelo_inurba_marseille","lat":43.303175,"lon":5.378816,"is_reserved":false,"is_disabled":false,"rental_uris":{"android":"levelo://app?vid=935297c3-826f-44e2-9df5-4a1587892834","ios":"levelo://app?vid=935297c3-826f-44e2-9df5-4a1587892834"},"vehicle_type_id":"4","last_reported":1719418209,"current_range_meters":25200,"station_id":"","pricing_plan_id":"cebpf4jnsgd1na2vs0mg"},{"bike_id":"caa03c27-e5f3-44ff-9707-c20fa5c63d85","system_id":"levelo_inurba_marseille","lat":43.30679,"lon":5.38275,"is_reserved":false,"is_disabled":false,"rental_uris":{"android":"levelo://app?vid=caa03c27-e5f3-44ff-9707-c20fa5c63d85","ios":"levelo://app?vid=caa03c27-e5f3-44ff-9707-c20fa5c63d85"},"vehicle_type_id":"4","last_reported":1719418209,"current_range_meters":0,"station_id":"","pricing_plan_id":"cebpf4jnsgd1na2vs0mg"},{"bike_id":"12b3cf0a-1c75-4b31-bdae-143e1181296c","system_id":"levelo_inurba_marseille","lat":43.313571,"lon":5.384829,"is_reserved":false,"is_disabled":false,"rental_uris":{"android":"levelo://app?vid=12b3cf0a-1c75-4b31-bdae-143e1181296c","ios":"levelo://app?vid=12b3cf0a-1c75-4b31-bdae-143e1181296c"},"vehicle_type_id":"4","last_reported":1719418209,"current_range_meters":0,"station_id":"ce4bgt92rcd13ifvqcf0","pricing_plan_id":"cebpf4jnsgd1na2vs0mg"},{"bike_id":"35005f95-f677-4fc3-9328-d2e9b477bb94","system_id":"levelo_inurba_marseille","lat":43.299222,"lon":5.365554,"is_reserved":false,"is_disabled":false,"rental_uris":{"android":"levelo://app?vid=35005f95-f677-4fc3-9328-d2e9b477bb94","ios":"levelo://app?vid=35005f95-f677-4fc3-9328-d2e9b477bb94"},"vehicle_type_id":"4","last_reported":1719418209,"current_range_meters":0,"station_id":"ce4bgm92rcd13ifvqbr0","pricing_plan_id":"cebpf4jnsgd1na2vs0mg"},{"bike_id":"b4e90371-b51b-4bb3-9f26-7d543acd8573","system_id":"levelo_inurba_marseille","lat":43.30941,"lon":5.3863,"is_reserved":false,"is_disabled":false,"rental_uris":{"android":"levelo://app?vid=b4e90371-b51b-4bb3-9f26-7d543acd8573","ios":"levelo://app?vid=b4e90371-b51b-4bb3-9f26-7d543acd8573"},"vehicle_type_id":"4","last_reported":1719418209,"current_range_meters":20000,"station_id":"","pricing_plan_id":"cebpf4jnsgd1na2vs0mg"},{"bike_id":"32d54977-55fb-4c89-9d2f-a8a5196a0898","system_id":"levelo_inurba_marseille","lat":43.311722,"lon":5.387247,"is_reserved":false,"is_disabled":false,"rental_uris":{"android":"levelo://app?vid=32d54977-55fb-4c89-9d2f-a8a5196a0898","ios":"levelo://app?vid=32d54977-55fb-4c89-9d2f-a8a5196a0898"},"vehicle_type_id":"4","last_reported":1719418209,"current_range_meters":0,"station_id":"ce4bgv12rcd13ifvqcp0","pricing_plan_id":"cebpf4jnsgd1na2vs0mg"},{"bike_id":"6babb08c-6291-4744-9a15-56cc1e6c0e29","system_id":"levelo_inurba_marseille","lat":43.30136,"lon":5.38013,"is_reserved":false,"is_disabled":false,"rental_uris":{"android":"levelo://app?vid=6babb08c-6291-4744-9a15-56cc1e6c0e29","ios":"levelo://app?vid=6babb08c-6291-4744-9a15-56cc1e6c0e29"},"vehicle_type_id":"4","last_reported":1719418209,"current_range_meters":6400,"station_id":"","pricing_plan_id":"cebpf4jnsgd1na2vs0mg"},{"bike_id":"3cfdca2e-1e1f-4968-bd6b-f5bab36b78a2","system_id":"levelo_inurba_marseille","lat":43.298433,"lon":5.362774,"is_reserved":false,"is_disabled":false,"rental_uris":{"android":"levelo://app?vid=3cfdca2e-1e1f-4968-bd6b-f5bab36b78a2","ios":"levelo://app?vid=3cfdca2e-1e1f-4968-bd6b-f5bab36b78a2"},"vehicle_type_id":"4","last_reported":1719418209,"current_range_meters":25600,"station_id":"ce4bgpp2rcd13ifvqc3g","pricing_plan_id":"cebpf4jnsgd1na2vs0mg"},{"bike_id":"301ed522-8bdf-4b25-8b8c-9414ea2a75a0","system_id":"levelo_inurba_marseille","lat":43.297794,"lon":5.370888,"is_reserved":false,"is_disabled":false,"rental_uris":{"android":"levelo://app?vid=301ed522-8bdf-4b25-8b8c-9414ea2a75a0","ios":"levelo://app?vid=301ed522-8bdf-4b25-8b8c-9414ea2a75a0"},"vehicle_type_id":"4","last_reported":1719418209,"current_range_meters":15200,"station_id":"ce4bgop2rcd13ifvqc1g","pricing_plan_id":"cebpf4jnsgd1na2vs0mg"},{"bike_id":"2a3af535-f006-492d-871d-ada23c2392e5","system_id":"levelo_inurba_marseille","lat":43.297163,"lon":5.365866,"is_reserved":false,"is_disabled":false,"rental_uris":{"android":"levelo://app?vid=2a3af535-f006-492d-871d-ada23c2392e5","ios":"levelo://app?vid=2a3af535-f006-492d-871d-ada23c2392e5"},"vehicle_type_id":"4","last_reported":1719418209,"current_range_meters":23600,"station_id":"ce4bgn12rcd13ifvqbt0","pricing_plan_id":"cebpf4jnsgd1na2vs0mg"},{"bike_id":"bafe5991-9514-4e4b-9e6d-6328438c8af8","system_id":"levelo_inurba_marseille","lat":43.297163,"lon":5.365866,"is_reserved":false,"is_disabled":false,"rental_uris":{"android":"levelo://app?vid=bafe5991-9514-4e4b-9e6d-6328438c8af8","ios":"levelo://app?vid=bafe5991-9514-4e4b-9e6d-6328438c8af8"},"vehicle_type_id":"4","last_reported":1719418209,"current_range_meters":21600,"station_id":"ce4bgn12rcd13ifvqbt0","pricing_plan_id":"cebpf4jnsgd1na2vs0mg"},{"bike_id":"8a3dee68-befb-495c-8c53-779d24084da1","system_id":"levelo_inurba_marseille","lat":43.297083,"lon":5.365409,"is_reserved":false,"is_disabled":false,"rental_uris":{"android":"levelo://app?vid=8a3dee68-befb-495c-8c53-779d24084da1","ios":"levelo://app?vid=8a3dee68-befb-495c-8c53-779d24084da1"},"vehicle_type_id":"4","last_reported":1719418209,"current_range_meters":22400,"station_id":"","pricing_plan_id":"cebpf4jnsgd1na2vs0mg"},{"bike_id":"bcfeee5e-e88a-45f0-bc38-0324d6034e2d","system_id":"levelo_inurba_marseille","lat":43.29873,"lon":5.37666,"is_reserved":false,"is_disabled":false,"rental_uris":{"android":"levelo://app?vid=bcfeee5e-e88a-45f0-bc38-0324d6034e2d","ios":"levelo://app?vid=bcfeee5e-e88a-45f0-bc38-0324d6034e2d"},"vehicle_type_id":"4","last_reported":1719418209,"current_range_meters":0,"station_id":"","pricing_plan_id":"cebpf4jnsgd1na2vs0mg"},{"bike_id":"18af5eea-8b09-49f3-a8fc-f6ecb650ba0d","system_id":"levelo_inurba_marseille","lat":43.313291,"lon":5.396838,"is_reserved":false,"is_disabled":false,"rental_uris":{"android":"levelo://app?vid=18af5eea-8b09-49f3-a8fc-f6ecb650ba0d","ios":"levelo://app?vid=18af5eea-8b09-49f3-a8fc-f6ecb650ba0d"},"vehicle_type_id":"4","last_reported":1719418209,"current_range_meters":20400,"station_id":"ce4bgvp2rcd13ifvqcu0","pricing_plan_id":"cebpf4jnsgd1na2vs0mg"},{"bike_id":"fbd2908d-55af-4cde-9d7e-aa318e8aca0c","system_id":"levelo_inurba_marseille","lat":43.296131,"lon":5.370791,"is_reserved":false,"is_disabled":false,"rental_uris":{"android":"levelo://app?vid=fbd2908d-55af-4cde-9d7e-aa318e8aca0c","ios":"levelo://app?vid=fbd2908d-55af-4cde-9d7e-aa318e8aca0c"},"vehicle_type_id":"4","last_reported":1719418209,"current_range_meters":31200,"station_id":"ce4bgnh2rcd13ifvqc0g","pricing_plan_id":"cebpf4jnsgd1na2vs0mg"},{"bike_id":"7b1c930c-c6ac-4cef-8f16-57cd1eb67f9b","system_id":"levelo_inurba_marseille","lat":43.29573,"lon":5.367355,"is_reserved":false,"is_disabled":false,"rental_uris":{"android":"levelo://app?vid=7b1c930c-c6ac-4cef-8f16-57cd1eb67f9b","ios":"levelo://app?vid=7b1c930c-c6ac-4cef-8f16-57cd1eb67f9b"},"vehicle_type_id":"4","last_reported":1719418209,"current_range_meters":0,"station_id":"ce4bgph2rcd13ifvqc2g","pricing_plan_id":"cebpf4jnsgd1na2vs0mg"},{"bike_id":"4932cdf9-1ead-4381-955c-ed054dd36714","system_id":"levelo_inurba_marseille","lat":43.29577,"lon":5.367433,"is_reserved":false,"is_disabled":false,"rental_uris":{"android":"levelo://app?vid=4932cdf9-1ead-4381-955c-ed054dd36714","ios":"levelo://app?vid=4932cdf9-1ead-4381-955c-ed054dd36714"},"vehicle_type_id":"4","last_reported":1719418209,"current_range_meters":12000,"station_id":"ce4bgph2rcd13ifvqc2g","pricing_plan_id":"cebpf4jnsgd1na2vs0mg"},{"bike_id":"ff7c302c-124e-4728-a142-ba353fac78e0","system_id":"levelo_inurba_marseille","lat":43.299028,"lon":5.381509,"is_reserved":false,"is_disabled":false,"rental_uris":{"android":"levelo://app?vid=ff7c302c-124e-4728-a142-ba353fac78e0","ios":"levelo://app?vid=ff7c302c-124e-4728-a142-ba353fac78e0"},"vehicle_type_id":"4","last_reported":1719418209,"current_range_meters":16800,"station_id":"ce4bgj12rcd13ifvqbc0","pricing_plan_id":"cebpf4jnsgd1na2vs0mg"},{"bike_id":"cfcc7869-4a44-412d-bca6-33c26b7ec880","system_id":"levelo_inurba_marseille","lat":43.296935,"lon":5.376544,"is_reserved":false,"is_disabled":false,"rental_uris":{"android":"levelo://app?vid=cfcc7869-4a44-412d-bca6-33c26b7ec880","ios":"levelo://app?vid=cfcc7869-4a44-412d-bca6-33c26b7ec880"},"vehicle_type_id":"4","last_reported":1719418209,"current_range_meters":27600,"station_id":"ce4bgkh2rcd13ifvqbl0","pricing_plan_id":"cebpf4jnsgd1na2vs0mg"},{"bike_id":"3a38a28d-534c-4c54-aa5f-95edf7fbe6e3","system_id":"levelo_inurba_marseille","lat":43.295748,"lon":5.37522,"is_reserved":false,"is_disabled":false,"rental_uris":{"android":"levelo://app?vid=3a38a28d-534c-4c54-aa5f-95edf7fbe6e3","ios":"levelo://app?vid=3a38a28d-534c-4c54-aa5f-95edf7fbe6e3"},"vehicle_type_id":"4","last_reported":1719418209,"current_range_meters":0,"station_id":"ce4bgh92rcd13ifvqb50","pricing_plan_id":"cebpf4jnsgd1na2vs0mg"},{"bike_id":"504923aa-d4b2-4219-b354-1ac91ce8b0ab","system_id":"levelo_inurba_marseille","lat":43.299724,"lon":5.384848,"is_reserved":false,"is_disabled":false,"rental_uris":{"android":"levelo://app?vid=504923aa-d4b2-4219-b354-1ac91ce8b0ab","ios":"levelo://app?vid=504923aa-d4b2-4219-b354-1ac91ce8b0ab"},"vehicle_type_id":"4","last_reported":1719418209,"current_range_meters":0,"station_id":"ce4bgj92rcd13ifvqbd0","pricing_plan_id":"cebpf4jnsgd1na2vs0mg"},{"bike_id":"60810d91-cec0-4f9a-aa93-e75de280bb0e","system_id":"levelo_inurba_marseille","lat":43.32367,"lon":5.388836,"is_reserved":false,"is_disabled":false,"rental_uris":{"android":"levelo://app?vid=60810d91-cec0-4f9a-aa93-e75de280bb0e","ios":"levelo://app?vid=60810d91-cec0-4f9a-aa93-e75de280bb0e"},"vehicle_type_id":"4","last_reported":1719418209,"current_range_meters":0,"station_id":"ce4bhqp2rcd13ifvqhog","pricing_plan_id":"cebpf4jnsgd1na2vs0mg"},{"bike_id":"8c84994e-ea55-4683-98fa-835bb0a5bc9f","system_id":"levelo_inurba_marseille","lat":43.32367,"lon":5.388836,"is_reserved":false,"is_disabled":false,"rental_uris":{"android":"levelo://app?vid=8c84994e-ea55-4683-98fa-835bb0a5bc9f","ios":"levelo://app?vid=8c84994e-ea55-4683-98fa-835bb0a5bc9f"},"vehicle_type_id":"4","last_reported":1719418209,"current_range_meters":15600,"station_id":"ce4bhqp2rcd13ifvqhog","pricing_plan_id":"cebpf4jnsgd1na2vs0mg"},{"bike_id":"6bbce985-be9e-445e-a384-20018f18f240","system_id":"levelo_inurba_marseille","lat":43.32358,"lon":5.38902,"is_reserved":false,"is_disabled":false,"rental_uris":{"android":"levelo://app?vid=6bbce985-be9e-445e-a384-20018f18f240","ios":"levelo://app?vid=6bbce985-be9e-445e-a384-20018f18f240"},"vehicle_type_id":"4","last_reported":1719418209,"current_range_meters":19200,"station_id":"ce4bhqp2rcd13ifvqhog","pricing_plan_id":"cebpf4jnsgd1na2vs0mg"},{"bike_id":"27e07424-9669-4832-9f68-054585cb44c7","system_id":"levelo_inurba_marseille","lat":43.29602,"lon":5.381084,"is_reserved":false,"is_disabled":false,"rental_uris":{"android":"levelo://app?vid=27e07424-9669-4832-9f68-054585cb44c7","ios":"levelo://app?vid=27e07424-9669-4832-9f68-054585cb44c7"},"vehicle_type_id":"4","last_reported":1719418209,"current_range_meters":12800,"station_id":"ce4bgl12rcd13ifvqbo0","pricing_plan_id":"cebpf4jnsgd1na2vs0mg"},{"bike_id":"a5500af6-0a72-4844-bbd2-3d72720ba5c0","system_id":"levelo_inurba_marseille","lat":43.29602,"lon":5.381084,"is_reserved":false,"is_disabled":false,"rental_uris":{"android":"levelo://app?vid=a5500af6-0a72-4844-bbd2-3d72720ba5c0","ios":"levelo://app?vid=a5500af6-0a72-4844-bbd2-3d72720ba5c0"},"vehicle_type_id":"4","last_reported":1719418209,"current_range_meters":4400,"station_id":"ce4bgl12rcd13ifvqbo0","pricing_plan_id":"cebpf4jnsgd1na2vs0mg"},{"bike_id":"c92fc14c-0abb-4324-9687-56b31fe5773a","system_id":"levelo_inurba_marseille","lat":43.29589,"lon":5.38108,"is_reserved":false,"is_disabled":false,"rental_uris":{"android":"levelo://app?vid=c92fc14c-0abb-4324-9687-56b31fe5773a","ios":"levelo://app?vid=c92fc14c-0abb-4324-9687-56b31fe5773a"},"vehicle_type_id":"4","last_reported":1719418209,"current_range_meters":0,"station_id":"ce4bgl12rcd13ifvqbo0","pricing_plan_id":"cebpf4jnsgd1na2vs0mg"},{"bike_id":"17d60a4a-5d3b-48ee-9e00-dad8ab5fd3fb","system_id":"levelo_inurba_marseille","lat":43.292749,"lon":5.368402,"is_reserved":false,"is_disabled":false,"rental_uris":{"android":"levelo://app?vid=17d60a4a-5d3b-48ee-9e00-dad8ab5fd3fb","ios":"levelo://app?vid=17d60a4a-5d3b-48ee-9e00-dad8ab5fd3fb"},"vehicle_type_id":"4","last_reported":1719418209,"current_range_meters":20400,"station_id":"ce4bhbp2rcd13ifvqesg","pricing_plan_id":"cebpf4jnsgd1na2vs0mg"},{"bike_id":"dec35be3-5847-4510-bac6-f407b9f33d32","system_id":"levelo_inurba_marseille","lat":43.292749,"lon":5.368402,"is_reserved":false,"is_disabled":false,"rental_uris":{"android":"levelo://app?vid=dec35be3-5847-4510-bac6-f407b9f33d32","ios":"levelo://app?vid=dec35be3-5847-4510-bac6-f407b9f33d32"},"vehicle_type_id":"4","last_reported":1719418209,"current_range_meters":9200,"station_id":"ce4bhbp2rcd13ifvqesg","pricing_plan_id":"cebpf4jnsgd1na2vs0mg"},{"bike_id":"05c27933-6c98-4790-86ca-4fbbd19b9692","system_id":"levelo_inurba_marseille","lat":43.29306,"lon":5.37179,"is_reserved":false,"is_disabled":false,"rental_uris":{"android":"levelo://app?vid=05c27933-6c98-4790-86ca-4fbbd19b9692","ios":"levelo://app?vid=05c27933-6c98-4790-86ca-4fbbd19b9692"},"vehicle_type_id":"4","last_reported":1719418209,"current_range_meters":0,"station_id":"ce4bgh92rcd13ifvqb40","pricing_plan_id":"cebpf4jnsgd1na2vs0mg"},{"bike_id":"037e4a1d-1bbf-4d94-84b0-6bfa46c8b860","system_id":"levelo_inurba_marseille","lat":43.293009,"lon":5.374584,"is_reserved":false,"is_disabled":false,"rental_uris":{"android":"levelo://app?vid=037e4a1d-1bbf-4d94-84b0-6bfa46c8b860","ios":"levelo://app?vid=037e4a1d-1bbf-4d94-84b0-6bfa46c8b860"},"vehicle_type_id":"4","last_reported":1719418209,"current_range_meters":17600,"station_id":"ce4bgi12rcd13ifvqb70","pricing_plan_id":"cebpf4jnsgd1na2vs0mg"},{"bike_id":"2344f338-d722-46f3-9ac0-4eca1b9bf07c","system_id":"levelo_inurba_marseille","lat":43.305994,"lon":5.393687,"is_reserved":false,"is_disabled":false,"rental_uris":{"android":"levelo://app?vid=2344f338-d722-46f3-9ac0-4eca1b9bf07c","ios":"levelo://app?vid=2344f338-d722-46f3-9ac0-4eca1b9bf07c"},"vehicle_type_id":"4","last_reported":1719418209,"current_range_meters":30000,"station_id":"ce4bh0p2rcd13ifvqd80","pricing_plan_id":"cebpf4jnsgd1na2vs0mg"},{"bike_id":"80ca561d-16c9-405a-b00f-5ae84a1db1da","system_id":"levelo_inurba_marseille","lat":43.305994,"lon":5.393687,"is_reserved":false,"is_disabled":false,"rental_uris":{"android":"levelo://app?vid=80ca561d-16c9-405a-b00f-5ae84a1db1da","ios":"levelo://app?vid=80ca561d-16c9-405a-b00f-5ae84a1db1da"},"vehicle_type_id":"4","last_reported":1719418209,"current_range_meters":4000,"station_id":"ce4bh0p2rcd13ifvqd80","pricing_plan_id":"cebpf4jnsgd1na2vs0mg"},{"bike_id":"32181403-81d6-41f2-b197-a8fb29371c62","system_id":"levelo_inurba_marseille","lat":43.305994,"lon":5.393687,"is_reserved":false,"is_disabled":false,"rental_uris":{"android":"levelo://app?vid=32181403-81d6-41f2-b197-a8fb29371c62","ios":"levelo://app?vid=32181403-81d6-41f2-b197-a8fb29371c62"},"vehicle_type_id":"4","last_reported":1719418209,"current_range_meters":0,"station_id":"ce4bh0p2rcd13ifvqd80","pricing_plan_id":"cebpf4jnsgd1na2vs0mg"},{"bike_id":"83b5671e-ea00-4853-9575-c95cfb9752cf","system_id":"levelo_inurba_marseille","lat":43.2936,"lon":5.37835,"is_reserved":false,"is_disabled":false,"rental_uris":{"android":"levelo://app?vid=83b5671e-ea00-4853-9575-c95cfb9752cf","ios":"levelo://app?vid=83b5671e-ea00-4853-9575-c95cfb9752cf"},"vehicle_type_id":"4","last_reported":1719418209,"current_range_meters":9600,"station_id":"ce4bgjh2rcd13ifvqbf0","pricing_plan_id":"cebpf4jnsgd1na2vs0mg"},{"bike_id":"84af8e48-34f6-41bb-b154-dda5ec946ba3","system_id":"levelo_inurba_marseille","lat":43.2936,"lon":5.37835,"is_reserved":false,"is_disabled":false,"rental_uris":{"android":"levelo://app?vid=84af8e48-34f6-41bb-b154-dda5ec946ba3","ios":"levelo://app?vid=84af8e48-34f6-41bb-b154-dda5ec946ba3"},"vehicle_type_id":"4","last_reported":1719418209,"current_range_meters":8000,"station_id":"ce4bgjh2rcd13ifvqbf0","pricing_plan_id":"cebpf4jnsgd1na2vs0mg"},{"bike_id":"215626d4-291a-4ae4-8264-1b8bf45fbc03","system_id":"levelo_inurba_marseille","lat":43.29238,"lon":5.36062,"is_reserved":false,"is_disabled":false,"rental_uris":{"android":"levelo://app?vid=215626d4-291a-4ae4-8264-1b8bf45fbc03","ios":"levelo://app?vid=215626d4-291a-4ae4-8264-1b8bf45fbc03"},"vehicle_type_id":"4","last_reported":1719418209,"current_range_meters":0,"station_id":"ce4bhbh2rcd13ifvqeqg","pricing_plan_id":"cebpf4jnsgd1na2vs0mg"},{"bike_id":"835b1d67-0679-4f55-8966-159e73ffbb0e","system_id":"levelo_inurba_marseille","lat":43.2936,"lon":5.37835,"is_reserved":false,"is_disabled":false,"rental_uris":{"android":"levelo://app?vid=835b1d67-0679-4f55-8966-159e73ffbb0e","ios":"levelo://app?vid=835b1d67-0679-4f55-8966-159e73ffbb0e"},"vehicle_type_id":"4","last_reported":1719418209,"current_range_meters":20000,"station_id":"ce4bgjh2rcd13ifvqbf0","pricing_plan_id":"cebpf4jnsgd1na2vs0mg"},{"bike_id":"407f8980-47d7-4626-a44b-c9b1d3871fc6","system_id":"levelo_inurba_marseille","lat":43.2936,"lon":5.37835,"is_reserved":false,"is_disabled":false,"rental_uris":{"android":"levelo://app?vid=407f8980-47d7-4626-a44b-c9b1d3871fc6","ios":"levelo://app?vid=407f8980-47d7-4626-a44b-c9b1d3871fc6"},"vehicle_type_id":"4","last_reported":1719418209,"current_range_meters":5200,"station_id":"ce4bgjh2rcd13ifvqbf0","pricing_plan_id":"cebpf4jnsgd1na2vs0mg"},{"bike_id":"3fdd4f01-8eb8-4083-a180-e671839656e5","system_id":"levelo_inurba_marseille","lat":43.292311,"lon":5.360731,"is_reserved":false,"is_disabled":false,"rental_uris":{"android":"levelo://app?vid=3fdd4f01-8eb8-4083-a180-e671839656e5","ios":"levelo://app?vid=3fdd4f01-8eb8-4083-a180-e671839656e5"},"vehicle_type_id":"4","last_reported":1719418209,"current_range_meters":0,"station_id":"ce4bhbh2rcd13ifvqeqg","pricing_plan_id":"cebpf4jnsgd1na2vs0mg"},{"bike_id":"7bbf4277-b0f0-4642-b36f-8697ef0e625f","system_id":"levelo_inurba_marseille","lat":43.2936,"lon":5.37835,"is_reserved":false,"is_disabled":false,"rental_uris":{"android":"levelo://app?vid=7bbf4277-b0f0-4642-b36f-8697ef0e625f","ios":"levelo://app?vid=7bbf4277-b0f0-4642-b36f-8697ef0e625f"},"vehicle_type_id":"4","last_reported":1719418209,"current_range_meters":5600,"station_id":"ce4bgjh2rcd13ifvqbf0","pricing_plan_id":"cebpf4jnsgd1na2vs0mg"},{"bike_id":"30f4e278-d606-4d92-81bf-7ce6b93a3040","system_id":"levelo_inurba_marseille","lat":43.30085,"lon":5.390856,"is_reserved":false,"is_disabled":false,"rental_uris":{"android":"levelo://app?vid=30f4e278-d606-4d92-81bf-7ce6b93a3040","ios":"levelo://app?vid=30f4e278-d606-4d92-81bf-7ce6b93a3040"},"vehicle_type_id":"4","last_reported":1719418209,"current_range_meters":4000,"station_id":"ce4bh192rcd13ifvqdb0","pricing_plan_id":"cebpf4jnsgd1na2vs0mg"},{"bike_id":"32fc9142-fc45-43f3-9d75-2102bc0ee066","system_id":"levelo_inurba_marseille","lat":43.30085,"lon":5.390856,"is_reserved":false,"is_disabled":false,"rental_uris":{"android":"levelo://app?vid=32fc9142-fc45-43f3-9d75-2102bc0ee066","ios":"levelo://app?vid=32fc9142-fc45-43f3-9d75-2102bc0ee066"},"vehicle_type_id":"4","last_reported":1719418209,"current_range_meters":400,"station_id":"ce4bh192rcd13ifvqdb0","pricing_plan_id":"cebpf4jnsgd1na2vs0mg"},{"bike_id":"24ce4960-8902-4b55-816f-a504f0723f15","system_id":"levelo_inurba_marseille","lat":43.30085,"lon":5.390856,"is_reserved":false,"is_disabled":false,"rental_uris":{"android":"levelo://app?vid=24ce4960-8902-4b55-816f-a504f0723f15","ios":"levelo://app?vid=24ce4960-8902-4b55-816f-a504f0723f15"},"vehicle_type_id":"4","last_reported":1719418209,"current_range_meters":17600,"station_id":"ce4bh192rcd13ifvqdb0","pricing_plan_id":"cebpf4jnsgd1na2vs0mg"},{"bike_id":"8bc68be2-303d-475e-b8d6-9e1e0acca21b","system_id":"levelo_inurba_marseille","lat":43.296925,"lon":5.386475,"is_reserved":false,"is_disabled":false,"rental_uris":{"android":"levelo://app?vid=8bc68be2-303d-475e-b8d6-9e1e0acca21b","ios":"levelo://app?vid=8bc68be2-303d-475e-b8d6-9e1e0acca21b"},"vehicle_type_id":"4","last_reported":1719418209,"current_range_meters":6800,"station_id":"","pricing_plan_id":"cebpf4jnsgd1na2vs0mg"},{"bike_id":"36021faa-6a0a-486b-81de-51766bb72a99","system_id":"levelo_inurba_marseille","lat":43.291675,"lon":5.371583,"is_reserved":false,"is_disabled":false,"rental_uris":{"android":"levelo://app?vid=36021faa-6a0a-486b-81de-51766bb72a99","ios":"levelo://app?vid=36021faa-6a0a-486b-81de-51766bb72a99"},"vehicle_type_id":"4","last_reported":1719418209,"current_range_meters":0,"station_id":"ce4bha92rcd13ifvqeh0","pricing_plan_id":"cebpf4jnsgd1na2vs0mg"},{"bike_id":"936e2530-bf4a-4f0f-85db-24bb6900f76e","system_id":"levelo_inurba_marseille","lat":43.313291,"lon":5.396838,"is_reserved":false,"is_disabled":false,"rental_uris":{"android":"levelo://app?vid=936e2530-bf4a-4f0f-85db-24bb6900f76e","ios":"levelo://app?vid=936e2530-bf4a-4f0f-85db-24bb6900f76e"},"vehicle_type_id":"4","last_reported":1719418209,"current_range_meters":7600,"station_id":"ce4bgvp2rcd13ifvqcu0","pricing_plan_id":"cebpf4jnsgd1na2vs0mg"},{"bike_id":"1b315a56-a0f7-4251-8595-393195dbc722","system_id":"levelo_inurba_marseille","lat":43.313291,"lon":5.396838,"is_reserved":false,"is_disabled":false,"rental_uris":{"android":"levelo://app?vid=1b315a56-a0f7-4251-8595-393195dbc722","ios":"levelo://app?vid=1b315a56-a0f7-4251-8595-393195dbc722"},"vehicle_type_id":"4","last_reported":1719418209,"current_range_meters":31600,"station_id":"ce4bgvp2rcd13ifvqcu0","pricing_plan_id":"cebpf4jnsgd1na2vs0mg"},{"bike_id":"be299cf3-c692-4f3d-bf77-fdd15ced9513","system_id":"levelo_inurba_marseille","lat":43.309038,"lon":5.396546,"is_reserved":false,"is_disabled":false,"rental_uris":{"android":"levelo://app?vid=be299cf3-c692-4f3d-bf77-fdd15ced9513","ios":"levelo://app?vid=be299cf3-c692-4f3d-bf77-fdd15ced9513"},"vehicle_type_id":"4","last_reported":1719418209,"current_range_meters":9600,"station_id":"ce4bh012rcd13ifvqcv0","pricing_plan_id":"cebpf4jnsgd1na2vs0mg"},{"bike_id":"6b0214fb-536f-445f-97f3-1f12995f1558","system_id":"levelo_inurba_marseille","lat":43.313291,"lon":5.396838,"is_reserved":false,"is_disabled":false,"rental_uris":{"android":"levelo://app?vid=6b0214fb-536f-445f-97f3-1f12995f1558","ios":"levelo://app?vid=6b0214fb-536f-445f-97f3-1f12995f1558"},"vehicle_type_id":"4","last_reported":1719418209,"current_range_meters":16000,"station_id":"ce4bgvp2rcd13ifvqcu0","pricing_plan_id":"cebpf4jnsgd1na2vs0mg"},{"bike_id":"3530066b-c0c0-427d-9743-778a435454e9","system_id":"levelo_inurba_marseille","lat":43.313291,"lon":5.396838,"is_reserved":false,"is_disabled":false,"rental_uris":{"android":"levelo://app?vid=3530066b-c0c0-427d-9743-778a435454e9","ios":"levelo://app?vid=3530066b-c0c0-427d-9743-778a435454e9"},"vehicle_type_id":"4","last_reported":1719418209,"current_range_meters":31600,"station_id":"ce4bgvp2rcd13ifvqcu0","pricing_plan_id":"cebpf4jnsgd1na2vs0mg"},{"bike_id":"6621ddb4-788a-4365-945a-8898d7698991","system_id":"levelo_inurba_marseille","lat":43.313291,"lon":5.396838,"is_reserved":false,"is_disabled":false,"rental_uris":{"android":"levelo://app?vid=6621ddb4-788a-4365-945a-8898d7698991","ios":"levelo://app?vid=6621ddb4-788a-4365-945a-8898d7698991"},"vehicle_type_id":"4","last_reported":1719418209,"current_range_meters":22400,"station_id":"ce4bgvp2rcd13ifvqcu0","pricing_plan_id":"cebpf4jnsgd1na2vs0mg"},{"bike_id":"e2e38ac2-7d3d-4874-8ae3-03b6f1803f54","system_id":"levelo_inurba_marseille","lat":43.313291,"lon":5.396838,"is_reserved":false,"is_disabled":false,"rental_uris":{"android":"levelo://app?vid=e2e38ac2-7d3d-4874-8ae3-03b6f1803f54","ios":"levelo://app?vid=e2e38ac2-7d3d-4874-8ae3-03b6f1803f54"},"vehicle_type_id":"4","last_reported":1719418209,"current_range_meters":24000,"station_id":"ce4bgvp2rcd13ifvqcu0","pricing_plan_id":"cebpf4jnsgd1na2vs0mg"},{"bike_id":"c557ff76-d2ce-423e-a433-ba3713688927","system_id":"levelo_inurba_marseille","lat":43.313291,"lon":5.396838,"is_reserved":false,"is_disabled":false,"rental_uris":{"android":"levelo://app?vid=c557ff76-d2ce-423e-a433-ba3713688927","ios":"levelo://app?vid=c557ff76-d2ce-423e-a433-ba3713688927"},"vehicle_type_id":"4","last_reported":1719418209,"current_range_meters":27600,"station_id":"ce4bgvp2rcd13ifvqcu0","pricing_plan_id":"cebpf4jnsgd1na2vs0mg"},{"bike_id":"c256dbe5-c892-4ca0-9d23-ab839d5ea3c8","system_id":"levelo_inurba_marseille","lat":43.309038,"lon":5.396546,"is_reserved":false,"is_disabled":false,"rental_uris":{"android":"levelo://app?vid=c256dbe5-c892-4ca0-9d23-ab839d5ea3c8","ios":"levelo://app?vid=c256dbe5-c892-4ca0-9d23-ab839d5ea3c8"},"vehicle_type_id":"4","last_reported":1719418209,"current_range_meters":14000,"station_id":"ce4bh012rcd13ifvqcv0","pricing_plan_id":"cebpf4jnsgd1na2vs0mg"},{"bike_id":"476444fd-36ec-429e-b224-438a03ded9aa","system_id":"levelo_inurba_marseille","lat":43.313291,"lon":5.396838,"is_reserved":false,"is_disabled":false,"rental_uris":{"android":"levelo://app?vid=476444fd-36ec-429e-b224-438a03ded9aa","ios":"levelo://app?vid=476444fd-36ec-429e-b224-438a03ded9aa"},"vehicle_type_id":"4","last_reported":1719418209,"current_range_meters":18400,"station_id":"ce4bgvp2rcd13ifvqcu0","pricing_plan_id":"cebpf4jnsgd1na2vs0mg"},{"bike_id":"7edc0eca-b1e6-4ac7-83a7-5b41e4cab1fd","system_id":"levelo_inurba_marseille","lat":43.313291,"lon":5.396838,"is_reserved":false,"is_disabled":false,"rental_uris":{"android":"levelo://app?vid=7edc0eca-b1e6-4ac7-83a7-5b41e4cab1fd","ios":"levelo://app?vid=7edc0eca-b1e6-4ac7-83a7-5b41e4cab1fd"},"vehicle_type_id":"4","last_reported":1719418209,"current_range_meters":16000,"station_id":"ce4bgvp2rcd13ifvqcu0","pricing_plan_id":"cebpf4jnsgd1na2vs0mg"},{"bike_id":"0bf1e263-edc2-4583-b40e-fcfd21b6d833","system_id":"levelo_inurba_marseille","lat":43.313291,"lon":5.396838,"is_reserved":false,"is_disabled":false,"rental_uris":{"android":"levelo://app?vid=0bf1e263-edc2-4583-b40e-fcfd21b6d833","ios":"levelo://app?vid=0bf1e263-edc2-4583-b40e-fcfd21b6d833"},"vehicle_type_id":"4","last_reported":1719418209,"current_range_meters":10000,"station_id":"ce4bgvp2rcd13ifvqcu0","pricing_plan_id":"cebpf4jnsgd1na2vs0mg"},{"bike_id":"ffe4bbe6-dae7-431e-9422-6a6d54fea34b","system_id":"levelo_inurba_marseille","lat":43.313291,"lon":5.396838,"is_reserved":false,"is_disabled":false,"rental_uris":{"android":"levelo://app?vid=ffe4bbe6-dae7-431e-9422-6a6d54fea34b","ios":"levelo://app?vid=ffe4bbe6-dae7-431e-9422-6a6d54fea34b"},"vehicle_type_id":"4","last_reported":1719418209,"current_range_meters":17200,"station_id":"ce4bgvp2rcd13ifvqcu0","pricing_plan_id":"cebpf4jnsgd1na2vs0mg"},{"bike_id":"333b7198-fda9-480e-80b1-b0bcb24a314d","system_id":"levelo_inurba_marseille","lat":43.313291,"lon":5.396838,"is_reserved":false,"is_disabled":false,"rental_uris":{"android":"levelo://app?vid=333b7198-fda9-480e-80b1-b0bcb24a314d","ios":"levelo://app?vid=333b7198-fda9-480e-80b1-b0bcb24a314d"},"vehicle_type_id":"4","last_reported":1719418209,"current_range_meters":16000,"station_id":"ce4bgvp2rcd13ifvqcu0","pricing_plan_id":"cebpf4jnsgd1na2vs0mg"},{"bike_id":"f7a1c13b-5042-465b-8168-ed3e15f5830d","system_id":"levelo_inurba_marseille","lat":43.29529,"lon":5.385581,"is_reserved":false,"is_disabled":false,"rental_uris":{"android":"levelo://app?vid=f7a1c13b-5042-465b-8168-ed3e15f5830d","ios":"levelo://app?vid=f7a1c13b-5042-465b-8168-ed3e15f5830d"},"vehicle_type_id":"4","last_reported":1719418209,"current_range_meters":6400,"station_id":"ce4bgih2rcd13ifvqba0","pricing_plan_id":"cebpf4jnsgd1na2vs0mg"},{"bike_id":"b5b9fd40-cffd-4420-8a6f-1acc9ba1c709","system_id":"levelo_inurba_marseille","lat":43.29529,"lon":5.385581,"is_reserved":false,"is_disabled":false,"rental_uris":{"android":"levelo://app?vid=b5b9fd40-cffd-4420-8a6f-1acc9ba1c709","ios":"levelo://app?vid=b5b9fd40-cffd-4420-8a6f-1acc9ba1c709"},"vehicle_type_id":"4","last_reported":1719418209,"current_range_meters":28000,"station_id":"ce4bgih2rcd13ifvqba0","pricing_plan_id":"cebpf4jnsgd1na2vs0mg"},{"bike_id":"6e26b30d-205c-4a4b-aa6d-f07658bf3b5b","system_id":"levelo_inurba_marseille","lat":43.29529,"lon":5.385581,"is_reserved":false,"is_disabled":false,"rental_uris":{"android":"levelo://app?vid=6e26b30d-205c-4a4b-aa6d-f07658bf3b5b","ios":"levelo://app?vid=6e26b30d-205c-4a4b-aa6d-f07658bf3b5b"},"vehicle_type_id":"4","last_reported":1719418209,"current_range_meters":10000,"station_id":"ce4bgih2rcd13ifvqba0","pricing_plan_id":"cebpf4jnsgd1na2vs0mg"},{"bike_id":"59fd47fc-376c-4b27-b2f2-1a22469ce656","system_id":"levelo_inurba_marseille","lat":43.29529,"lon":5.385581,"is_reserved":false,"is_disabled":false,"rental_uris":{"android":"levelo://app?vid=59fd47fc-376c-4b27-b2f2-1a22469ce656","ios":"levelo://app?vid=59fd47fc-376c-4b27-b2f2-1a22469ce656"},"vehicle_type_id":"4","last_reported":1719418209,"current_range_meters":18400,"station_id":"ce4bgih2rcd13ifvqba0","pricing_plan_id":"cebpf4jnsgd1na2vs0mg"},{"bike_id":"c6f32423-282c-4f78-a9b5-2ca2524c5c84","system_id":"levelo_inurba_marseille","lat":43.29529,"lon":5.385581,"is_reserved":false,"is_disabled":false,"rental_uris":{"android":"levelo://app?vid=c6f32423-282c-4f78-a9b5-2ca2524c5c84","ios":"levelo://app?vid=c6f32423-282c-4f78-a9b5-2ca2524c5c84"},"vehicle_type_id":"4","last_reported":1719418209,"current_range_meters":0,"station_id":"ce4bgih2rcd13ifvqba0","pricing_plan_id":"cebpf4jnsgd1na2vs0mg"},{"bike_id":"260618cf-c1eb-442a-b3ab-a9db8be2c27f","system_id":"levelo_inurba_marseille","lat":43.29529,"lon":5.385581,"is_reserved":false,"is_disabled":false,"rental_uris":{"android":"levelo://app?vid=260618cf-c1eb-442a-b3ab-a9db8be2c27f","ios":"levelo://app?vid=260618cf-c1eb-442a-b3ab-a9db8be2c27f"},"vehicle_type_id":"4","last_reported":1719418209,"current_range_meters":6800,"station_id":"ce4bgih2rcd13ifvqba0","pricing_plan_id":"cebpf4jnsgd1na2vs0mg"},{"bike_id":"ebff3afa-58b5-4615-96d7-e9505e16f498","system_id":"levelo_inurba_marseille","lat":43.290779,"lon":5.371482,"is_reserved":false,"is_disabled":false,"rental_uris":{"android":"levelo://app?vid=ebff3afa-58b5-4615-96d7-e9505e16f498","ios":"levelo://app?vid=ebff3afa-58b5-4615-96d7-e9505e16f498"},"vehicle_type_id":"4","last_reported":1719418209,"current_range_meters":6400,"station_id":"ce4bh5p2rcd13ifvqe4g","pricing_plan_id":"cebpf4jnsgd1na2vs0mg"},{"bike_id":"56286c0e-a71b-48c1-9ad9-903f1b9fd02d","system_id":"levelo_inurba_marseille","lat":43.290631,"lon":5.359244,"is_reserved":false,"is_disabled":false,"rental_uris":{"android":"levelo://app?vid=56286c0e-a71b-48c1-9ad9-903f1b9fd02d","ios":"levelo://app?vid=56286c0e-a71b-48c1-9ad9-903f1b9fd02d"},"vehicle_type_id":"4","last_reported":1719418209,"current_range_meters":22800,"station_id":"ce4bha92rcd13ifvqeg0","pricing_plan_id":"cebpf4jnsgd1na2vs0mg"},{"bike_id":"6d0a0d7c-1599-457a-998d-a70fa99c4e11","system_id":"levelo_inurba_marseille","lat":43.294153,"lon":5.386305,"is_reserved":false,"is_disabled":false,"rental_uris":{"android":"levelo://app?vid=6d0a0d7c-1599-457a-998d-a70fa99c4e11","ios":"levelo://app?vid=6d0a0d7c-1599-457a-998d-a70fa99c4e11"},"vehicle_type_id":"4","last_reported":1719418209,"current_range_meters":0,"station_id":"ce4bh2h2rcd13ifvqdh0","pricing_plan_id":"cebpf4jnsgd1na2vs0mg"},{"bike_id":"087575be-5b00-4870-8848-779c2274d518","system_id":"levelo_inurba_marseille","lat":43.294162,"lon":5.386292,"is_reserved":false,"is_disabled":false,"rental_uris":{"android":"levelo://app?vid=087575be-5b00-4870-8848-779c2274d518","ios":"levelo://app?vid=087575be-5b00-4870-8848-779c2274d518"},"vehicle_type_id":"4","last_reported":1719418209,"current_range_meters":10000,"station_id":"ce4bh2h2rcd13ifvqdh0","pricing_plan_id":"cebpf4jnsgd1na2vs0mg"},{"bike_id":"845599a5-fe8c-4834-be69-a20e2379059e","system_id":"levelo_inurba_marseille","lat":43.289468,"lon":5.363719,"is_reserved":false,"is_disabled":false,"rental_uris":{"android":"levelo://app?vid=845599a5-fe8c-4834-be69-a20e2379059e","ios":"levelo://app?vid=845599a5-fe8c-4834-be69-a20e2379059e"},"vehicle_type_id":"4","last_reported":1719418209,"current_range_meters":25200,"station_id":"ce4bhc92rcd13ifvqetg","pricing_plan_id":"cebpf4jnsgd1na2vs0mg"},{"bike_id":"5dfd30d3-9840-458e-9848-ed5cb5d76f2a","system_id":"levelo_inurba_marseille","lat":43.294153,"lon":5.386305,"is_reserved":false,"is_disabled":false,"rental_uris":{"android":"levelo://app?vid=5dfd30d3-9840-458e-9848-ed5cb5d76f2a","ios":"levelo://app?vid=5dfd30d3-9840-458e-9848-ed5cb5d76f2a"},"vehicle_type_id":"4","last_reported":1719418209,"current_range_meters":22000,"station_id":"ce4bh2h2rcd13ifvqdh0","pricing_plan_id":"cebpf4jnsgd1na2vs0mg"},{"bike_id":"1f3e7055-b29d-4931-a62c-471956538826","system_id":"levelo_inurba_marseille","lat":43.294153,"lon":5.386305,"is_reserved":false,"is_disabled":false,"rental_uris":{"android":"levelo://app?vid=1f3e7055-b29d-4931-a62c-471956538826","ios":"levelo://app?vid=1f3e7055-b29d-4931-a62c-471956538826"},"vehicle_type_id":"4","last_reported":1719418209,"current_range_meters":29200,"station_id":"ce4bh2h2rcd13ifvqdh0","pricing_plan_id":"cebpf4jnsgd1na2vs0mg"},{"bike_id":"8485e091-673d-4185-a7c8-3b0c613434c9","system_id":"levelo_inurba_marseille","lat":43.292644,"lon":5.384257,"is_reserved":false,"is_disabled":false,"rental_uris":{"android":"levelo://app?vid=8485e091-673d-4185-a7c8-3b0c613434c9","ios":"levelo://app?vid=8485e091-673d-4185-a7c8-3b0c613434c9"},"vehicle_type_id":"4","last_reported":1719418209,"current_range_meters":2800,"station_id":"ce4bh692rcd13ifvqea0","pricing_plan_id":"cebpf4jnsgd1na2vs0mg"},{"bike_id":"33d54b8d-7a4d-425f-9964-ff3cdd232f9a","system_id":"levelo_inurba_marseille","lat":43.292642,"lon":5.384254,"is_reserved":false,"is_disabled":false,"rental_uris":{"android":"levelo://app?vid=33d54b8d-7a4d-425f-9964-ff3cdd232f9a","ios":"levelo://app?vid=33d54b8d-7a4d-425f-9964-ff3cdd232f9a"},"vehicle_type_id":"4","last_reported":1719418209,"current_range_meters":0,"station_id":"ce4bh692rcd13ifvqea0","pricing_plan_id":"cebpf4jnsgd1na2vs0mg"},{"bike_id":"a918518d-5b84-4eac-8440-f4ffb0f135d3","system_id":"levelo_inurba_marseille","lat":43.290104,"lon":5.356111,"is_reserved":false,"is_disabled":false,"rental_uris":{"android":"levelo://app?vid=a918518d-5b84-4eac-8440-f4ffb0f135d3","ios":"levelo://app?vid=a918518d-5b84-4eac-8440-f4ffb0f135d3"},"vehicle_type_id":"4","last_reported":1719418209,"current_range_meters":2400,"station_id":"ce4bhb92rcd13ifvqen0","pricing_plan_id":"cebpf4jnsgd1na2vs0mg"},{"bike_id":"f5a35f0f-6ef5-44b5-89ee-7b075f282f71","system_id":"levelo_inurba_marseille","lat":43.290995,"lon":5.381361,"is_reserved":false,"is_disabled":false,"rental_uris":{"android":"levelo://app?vid=f5a35f0f-6ef5-44b5-89ee-7b075f282f71","ios":"levelo://app?vid=f5a35f0f-6ef5-44b5-89ee-7b075f282f71"},"vehicle_type_id":"4","last_reported":1719418209,"current_range_meters":12400,"station_id":"ce4bh512rcd13ifvqe2g","pricing_plan_id":"cebpf4jnsgd1na2vs0mg"},{"bike_id":"d0be198f-5e97-44b7-8ce0-333d41c6eed1","system_id":"levelo_inurba_marseille","lat":43.29779,"lon":5.39325,"is_reserved":false,"is_disabled":false,"rental_uris":{"android":"levelo://app?vid=d0be198f-5e97-44b7-8ce0-333d41c6eed1","ios":"levelo://app?vid=d0be198f-5e97-44b7-8ce0-333d41c6eed1"},"vehicle_type_id":"4","last_reported":1719418209,"current_range_meters":0,"station_id":"chh1huq6cuj3fo74tm60","pricing_plan_id":"cebpf4jnsgd1na2vs0mg"},{"bike_id":"27ee11dd-f224-4f7d-855c-ac3a4b798b82","system_id":"levelo_inurba_marseille","lat":43.295169,"lon":5.390426,"is_reserved":false,"is_disabled":false,"rental_uris":{"android":"levelo://app?vid=27ee11dd-f224-4f7d-855c-ac3a4b798b82","ios":"levelo://app?vid=27ee11dd-f224-4f7d-855c-ac3a4b798b82"},"vehicle_type_id":"4","last_reported":1719418209,"current_range_meters":30800,"station_id":"ce4bh3p2rcd13ifvqdp0","pricing_plan_id":"cebpf4jnsgd1na2vs0mg"},{"bike_id":"eb24b57a-2764-46dc-a5c4-12b230e7815c","system_id":"levelo_inurba_marseille","lat":43.29797,"lon":5.39347,"is_reserved":false,"is_disabled":false,"rental_uris":{"android":"levelo://app?vid=eb24b57a-2764-46dc-a5c4-12b230e7815c","ios":"levelo://app?vid=eb24b57a-2764-46dc-a5c4-12b230e7815c"},"vehicle_type_id":"4","last_reported":1719418209,"current_range_meters":0,"station_id":"chh1huq6cuj3fo74tm60","pricing_plan_id":"cebpf4jnsgd1na2vs0mg"},{"bike_id":"1358a6bf-7185-4724-a604-11970f83a7ab","system_id":"levelo_inurba_marseille","lat":43.297815,"lon":5.393548,"is_reserved":false,"is_disabled":false,"rental_uris":{"android":"levelo://app?vid=1358a6bf-7185-4724-a604-11970f83a7ab","ios":"levelo://app?vid=1358a6bf-7185-4724-a604-11970f83a7ab"},"vehicle_type_id":"4","last_reported":1719418209,"current_range_meters":22000,"station_id":"chh1huq6cuj3fo74tm60","pricing_plan_id":"cebpf4jnsgd1na2vs0mg"},{"bike_id":"e368f56f-a92d-4231-9e48-b1d8d2cddbe0","system_id":"levelo_inurba_marseille","lat":43.295169,"lon":5.390426,"is_reserved":false,"is_disabled":false,"rental_uris":{"android":"levelo://app?vid=e368f56f-a92d-4231-9e48-b1d8d2cddbe0","ios":"levelo://app?vid=e368f56f-a92d-4231-9e48-b1d8d2cddbe0"},"vehicle_type_id":"4","last_reported":1719418209,"current_range_meters":2000,"station_id":"ce4bh3p2rcd13ifvqdp0","pricing_plan_id":"cebpf4jnsgd1na2vs0mg"},{"bike_id":"a6ac7c30-4a25-4095-b169-d732e84fdc66","system_id":"levelo_inurba_marseille","lat":43.29785,"lon":5.39348,"is_reserved":false,"is_disabled":false,"rental_uris":{"android":"levelo://app?vid=a6ac7c30-4a25-4095-b169-d732e84fdc66","ios":"levelo://app?vid=a6ac7c30-4a25-4095-b169-d732e84fdc66"},"vehicle_type_id":"4","last_reported":1719418209,"current_range_meters":400,"station_id":"chh1huq6cuj3fo74tm60","pricing_plan_id":"cebpf4jnsgd1na2vs0mg"},{"bike_id":"8dbeeb4c-1222-425e-abae-4b689dec6bf2","system_id":"levelo_inurba_marseille","lat":43.29776,"lon":5.39343,"is_reserved":false,"is_disabled":false,"rental_uris":{"android":"levelo://app?vid=8dbeeb4c-1222-425e-abae-4b689dec6bf2","ios":"levelo://app?vid=8dbeeb4c-1222-425e-abae-4b689dec6bf2"},"vehicle_type_id":"4","last_reported":1719418209,"current_range_meters":23600,"station_id":"chh1huq6cuj3fo74tm60","pricing_plan_id":"cebpf4jnsgd1na2vs0mg"},{"bike_id":"53f4bc1b-73ef-49c1-a968-39e127ca6414","system_id":"levelo_inurba_marseille","lat":43.295169,"lon":5.390426,"is_reserved":false,"is_disabled":false,"rental_uris":{"android":"levelo://app?vid=53f4bc1b-73ef-49c1-a968-39e127ca6414","ios":"levelo://app?vid=53f4bc1b-73ef-49c1-a968-39e127ca6414"},"vehicle_type_id":"4","last_reported":1719418209,"current_range_meters":24800,"station_id":"ce4bh3p2rcd13ifvqdp0","pricing_plan_id":"cebpf4jnsgd1na2vs0mg"},{"bike_id":"c6552949-a6af-48d9-8219-54009400bd0f","system_id":"levelo_inurba_marseille","lat":43.295169,"lon":5.390426,"is_reserved":false,"is_disabled":false,"rental_uris":{"android":"levelo://app?vid=c6552949-a6af-48d9-8219-54009400bd0f","ios":"levelo://app?vid=c6552949-a6af-48d9-8219-54009400bd0f"},"vehicle_type_id":"4","last_reported":1719418209,"current_range_meters":9600,"station_id":"ce4bh3p2rcd13ifvqdp0","pricing_plan_id":"cebpf4jnsgd1na2vs0mg"},{"bike_id":"d0839562-1f85-480f-927a-6a92926a0b6c","system_id":"levelo_inurba_marseille","lat":43.289743,"lon":5.378304,"is_reserved":false,"is_disabled":false,"rental_uris":{"android":"levelo://app?vid=d0839562-1f85-480f-927a-6a92926a0b6c","ios":"levelo://app?vid=d0839562-1f85-480f-927a-6a92926a0b6c"},"vehicle_type_id":"4","last_reported":1719418209,"current_range_meters":0,"station_id":"ce4bh9p2rcd13ifvqed0","pricing_plan_id":"cebpf4jnsgd1na2vs0mg"},{"bike_id":"dab3be62-bc8c-488e-b182-17df47cf49f5","system_id":"levelo_inurba_marseille","lat":43.29779,"lon":5.39353,"is_reserved":false,"is_disabled":false,"rental_uris":{"android":"levelo://app?vid=dab3be62-bc8c-488e-b182-17df47cf49f5","ios":"levelo://app?vid=dab3be62-bc8c-488e-b182-17df47cf49f5"},"vehicle_type_id":"4","last_reported":1719418209,"current_range_meters":0,"station_id":"chh1huq6cuj3fo74tm60","pricing_plan_id":"cebpf4jnsgd1na2vs0mg"},{"bike_id":"e843dbd3-19cc-4576-9a48-37de45a91780","system_id":"levelo_inurba_marseille","lat":43.295169,"lon":5.390426,"is_reserved":false,"is_disabled":false,"rental_uris":{"android":"levelo://app?vid=e843dbd3-19cc-4576-9a48-37de45a91780","ios":"levelo://app?vid=e843dbd3-19cc-4576-9a48-37de45a91780"},"vehicle_type_id":"4","last_reported":1719418209,"current_range_meters":24800,"station_id":"ce4bh3p2rcd13ifvqdp0","pricing_plan_id":"cebpf4jnsgd1na2vs0mg"},{"bike_id":"f2ef5448-2d64-4a1a-a8c6-7e3db0ba6e29","system_id":"levelo_inurba_marseille","lat":43.330442,"lon":5.389148,"is_reserved":false,"is_disabled":false,"rental_uris":{"android":"levelo://app?vid=f2ef5448-2d64-4a1a-a8c6-7e3db0ba6e29","ios":"levelo://app?vid=f2ef5448-2d64-4a1a-a8c6-7e3db0ba6e29"},"vehicle_type_id":"4","last_reported":1719418209,"current_range_meters":24800,"station_id":"ce4bhr92rcd13ifvqhrg","pricing_plan_id":"cebpf4jnsgd1na2vs0mg"},{"bike_id":"b4c6dc89-fea4-4d25-a9b0-c3dc4158a743","system_id":"levelo_inurba_marseille","lat":43.295169,"lon":5.390426,"is_reserved":false,"is_disabled":false,"rental_uris":{"android":"levelo://app?vid=b4c6dc89-fea4-4d25-a9b0-c3dc4158a743","ios":"levelo://app?vid=b4c6dc89-fea4-4d25-a9b0-c3dc4158a743"},"vehicle_type_id":"4","last_reported":1719418209,"current_range_meters":5600,"station_id":"ce4bh3p2rcd13ifvqdp0","pricing_plan_id":"cebpf4jnsgd1na2vs0mg"},{"bike_id":"f54d5994-db81-46e3-91ef-26d31c6b13e0","system_id":"levelo_inurba_marseille","lat":43.295205,"lon":5.390475,"is_reserved":false,"is_disabled":false,"rental_uris":{"android":"levelo://app?vid=f54d5994-db81-46e3-91ef-26d31c6b13e0","ios":"levelo://app?vid=f54d5994-db81-46e3-91ef-26d31c6b13e0"},"vehicle_type_id":"4","last_reported":1719418209,"current_range_meters":0,"station_id":"ce4bh3p2rcd13ifvqdp0","pricing_plan_id":"cebpf4jnsgd1na2vs0mg"},{"bike_id":"15e3f3b7-26c3-4013-bdc8-9a51b0d559c4","system_id":"levelo_inurba_marseille","lat":43.295169,"lon":5.390426,"is_reserved":false,"is_disabled":false,"rental_uris":{"android":"levelo://app?vid=15e3f3b7-26c3-4013-bdc8-9a51b0d559c4","ios":"levelo://app?vid=15e3f3b7-26c3-4013-bdc8-9a51b0d559c4"},"vehicle_type_id":"4","last_reported":1719418209,"current_range_meters":19200,"station_id":"ce4bh3p2rcd13ifvqdp0","pricing_plan_id":"cebpf4jnsgd1na2vs0mg"},{"bike_id":"bebdbea3-4766-4241-9897-2089b0780aae","system_id":"levelo_inurba_marseille","lat":43.291077,"lon":5.38337,"is_reserved":false,"is_disabled":false,"rental_uris":{"android":"levelo://app?vid=bebdbea3-4766-4241-9897-2089b0780aae","ios":"levelo://app?vid=bebdbea3-4766-4241-9897-2089b0780aae"},"vehicle_type_id":"4","last_reported":1719418209,"current_range_meters":22000,"station_id":"","pricing_plan_id":"cebpf4jnsgd1na2vs0mg"},{"bike_id":"6cb841b1-e3d8-48e6-a5b9-c65a2f18b91e","system_id":"levelo_inurba_marseille","lat":43.31059,"lon":5.40098,"is_reserved":false,"is_disabled":false,"rental_uris":{"android":"levelo://app?vid=6cb841b1-e3d8-48e6-a5b9-c65a2f18b91e","ios":"levelo://app?vid=6cb841b1-e3d8-48e6-a5b9-c65a2f18b91e"},"vehicle_type_id":"4","last_reported":1719418209,"current_range_meters":10000,"station_id":"","pricing_plan_id":"cebpf4jnsgd1na2vs0mg"},{"bike_id":"ee564f38-abd2-482e-a709-622fa38a1aa7","system_id":"levelo_inurba_marseille","lat":43.290094,"lon":5.381264,"is_reserved":false,"is_disabled":false,"rental_uris":{"android":"levelo://app?vid=ee564f38-abd2-482e-a709-622fa38a1aa7","ios":"levelo://app?vid=ee564f38-abd2-482e-a709-622fa38a1aa7"},"vehicle_type_id":"4","last_reported":1719418209,"current_range_meters":28400,"station_id":"ce4bh4p2rcd13ifvqe1g","pricing_plan_id":"cebpf4jnsgd1na2vs0mg"},{"bike_id":"fd556b07-a9ba-4488-8686-1a37e2b12f8c","system_id":"levelo_inurba_marseille","lat":43.28867,"lon":5.35825,"is_reserved":false,"is_disabled":false,"rental_uris":{"android":"levelo://app?vid=fd556b07-a9ba-4488-8686-1a37e2b12f8c","ios":"levelo://app?vid=fd556b07-a9ba-4488-8686-1a37e2b12f8c"},"vehicle_type_id":"4","last_reported":1719418209,"current_range_meters":16800,"station_id":"ce4bhb12rcd13ifvqem0","pricing_plan_id":"cebpf4jnsgd1na2vs0mg"},{"bike_id":"3962a2e6-0145-4bcf-9858-f69cde878201","system_id":"levelo_inurba_marseille","lat":43.28856,"lon":5.358371,"is_reserved":false,"is_disabled":false,"rental_uris":{"android":"levelo://app?vid=3962a2e6-0145-4bcf-9858-f69cde878201","ios":"levelo://app?vid=3962a2e6-0145-4bcf-9858-f69cde878201"},"vehicle_type_id":"4","last_reported":1719418209,"current_range_meters":28000,"station_id":"ce4bhb12rcd13ifvqem0","pricing_plan_id":"cebpf4jnsgd1na2vs0mg"},{"bike_id":"db84c695-9baa-4fb6-9069-754adeee93f3","system_id":"levelo_inurba_marseille","lat":43.28856,"lon":5.358371,"is_reserved":false,"is_disabled":false,"rental_uris":{"android":"levelo://app?vid=db84c695-9baa-4fb6-9069-754adeee93f3","ios":"levelo://app?vid=db84c695-9baa-4fb6-9069-754adeee93f3"},"vehicle_type_id":"4","last_reported":1719418209,"current_range_meters":3200,"station_id":"ce4bhb12rcd13ifvqem0","pricing_plan_id":"cebpf4jnsgd1na2vs0mg"},{"bike_id":"c3ddbe4a-157d-4893-acf1-f1f626a65d21","system_id":"levelo_inurba_marseille","lat":43.33715,"lon":5.37426,"is_reserved":false,"is_disabled":false,"rental_uris":{"android":"levelo://app?vid=c3ddbe4a-157d-4893-acf1-f1f626a65d21","ios":"levelo://app?vid=c3ddbe4a-157d-4893-acf1-f1f626a65d21"},"vehicle_type_id":"0","last_reported":1719418209,"current_range_meters":19200,"station_id":"","pricing_plan_id":"cebpf4jnsgd1na2vs0mg"},{"bike_id":"5f7c3a63-8710-4600-bb45-a72afa10e863","system_id":"levelo_inurba_marseille","lat":43.28856,"lon":5.358371,"is_reserved":false,"is_disabled":false,"rental_uris":{"android":"levelo://app?vid=5f7c3a63-8710-4600-bb45-a72afa10e863","ios":"levelo://app?vid=5f7c3a63-8710-4600-bb45-a72afa10e863"},"vehicle_type_id":"4","last_reported":1719418209,"current_range_meters":4400,"station_id":"ce4bhb12rcd13ifvqem0","pricing_plan_id":"cebpf4jnsgd1na2vs0mg"},{"bike_id":"70df0eff-7892-4d64-8b33-f9b25d3cdb77","system_id":"levelo_inurba_marseille","lat":43.337363,"lon":5.374653,"is_reserved":false,"is_disabled":false,"rental_uris":{"android":"levelo://app?vid=70df0eff-7892-4d64-8b33-f9b25d3cdb77","ios":"levelo://app?vid=70df0eff-7892-4d64-8b33-f9b25d3cdb77"},"vehicle_type_id":"4","last_reported":1719418209,"current_range_meters":18400,"station_id":"","pricing_plan_id":"cebpf4jnsgd1na2vs0mg"},{"bike_id":"cdba7398-38d4-46c1-ab97-e50387a0dd94","system_id":"levelo_inurba_marseille","lat":43.312609,"lon":5.401662,"is_reserved":false,"is_disabled":false,"rental_uris":{"android":"levelo://app?vid=cdba7398-38d4-46c1-ab97-e50387a0dd94","ios":"levelo://app?vid=cdba7398-38d4-46c1-ab97-e50387a0dd94"},"vehicle_type_id":"4","last_reported":1719418209,"current_range_meters":17200,"station_id":"ce4bh092rcd13ifvqd30","pricing_plan_id":"cebpf4jnsgd1na2vs0mg"},{"bike_id":"11da98ef-d0c3-43c2-a7e4-890f2c23ccbc","system_id":"levelo_inurba_marseille","lat":43.33738,"lon":5.37467,"is_reserved":false,"is_disabled":false,"rental_uris":{"android":"levelo://app?vid=11da98ef-d0c3-43c2-a7e4-890f2c23ccbc","ios":"levelo://app?vid=11da98ef-d0c3-43c2-a7e4-890f2c23ccbc"},"vehicle_type_id":"4","last_reported":1719418209,"current_range_meters":12400,"station_id":"","pricing_plan_id":"cebpf4jnsgd1na2vs0mg"},{"bike_id":"9b81675f-44cd-4cbe-9733-2d36a516d8f7","system_id":"levelo_inurba_marseille","lat":43.3374,"lon":5.3746,"is_reserved":false,"is_disabled":false,"rental_uris":{"android":"levelo://app?vid=9b81675f-44cd-4cbe-9733-2d36a516d8f7","ios":"levelo://app?vid=9b81675f-44cd-4cbe-9733-2d36a516d8f7"},"vehicle_type_id":"0","last_reported":1719418209,"current_range_meters":20400,"station_id":"","pricing_plan_id":"cebpf4jnsgd1na2vs0mg"},{"bike_id":"bb65fb70-df82-47d8-b27f-438620895501","system_id":"levelo_inurba_marseille","lat":43.337386,"lon":5.374694,"is_reserved":false,"is_disabled":false,"rental_uris":{"android":"levelo://app?vid=bb65fb70-df82-47d8-b27f-438620895501","ios":"levelo://app?vid=bb65fb70-df82-47d8-b27f-438620895501"},"vehicle_type_id":"4","last_reported":1719418209,"current_range_meters":12400,"station_id":"","pricing_plan_id":"cebpf4jnsgd1na2vs0mg"},{"bike_id":"c25a3696-e1cc-43ba-8656-23d4a118ee2e","system_id":"levelo_inurba_marseille","lat":43.337388,"lon":5.374716,"is_reserved":false,"is_disabled":false,"rental_uris":{"android":"levelo://app?vid=c25a3696-e1cc-43ba-8656-23d4a118ee2e","ios":"levelo://app?vid=c25a3696-e1cc-43ba-8656-23d4a118ee2e"},"vehicle_type_id":"4","last_reported":1719418209,"current_range_meters":18400,"station_id":"","pricing_plan_id":"cebpf4jnsgd1na2vs0mg"},{"bike_id":"bf709b1a-1e81-4c69-a36a-dfef45d67fee","system_id":"levelo_inurba_marseille","lat":43.337402,"lon":5.37468,"is_reserved":false,"is_disabled":false,"rental_uris":{"android":"levelo://app?vid=bf709b1a-1e81-4c69-a36a-dfef45d67fee","ios":"levelo://app?vid=bf709b1a-1e81-4c69-a36a-dfef45d67fee"},"vehicle_type_id":"4","last_reported":1719418209,"current_range_meters":18400,"station_id":"","pricing_plan_id":"cebpf4jnsgd1na2vs0mg"},{"bike_id":"bd9a6c26-2db3-4e30-92c7-c85ae97147aa","system_id":"levelo_inurba_marseille","lat":43.3374,"lon":5.37472,"is_reserved":false,"is_disabled":false,"rental_uris":{"android":"levelo://app?vid=bd9a6c26-2db3-4e30-92c7-c85ae97147aa","ios":"levelo://app?vid=bd9a6c26-2db3-4e30-92c7-c85ae97147aa"},"vehicle_type_id":"0","last_reported":1719418209,"current_range_meters":21600,"station_id":"","pricing_plan_id":"cebpf4jnsgd1na2vs0mg"},{"bike_id":"2a0fb516-a307-4861-b129-104556c40f00","system_id":"levelo_inurba_marseille","lat":43.337408,"lon":5.37468,"is_reserved":false,"is_disabled":false,"rental_uris":{"android":"levelo://app?vid=2a0fb516-a307-4861-b129-104556c40f00","ios":"levelo://app?vid=2a0fb516-a307-4861-b129-104556c40f00"},"vehicle_type_id":"0","last_reported":1719418209,"current_range_meters":10400,"station_id":"","pricing_plan_id":"cebpf4jnsgd1na2vs0mg"},{"bike_id":"aa527c2c-31a5-479b-bfbe-daae0d9bb514","system_id":"levelo_inurba_marseille","lat":43.337426,"lon":5.374698,"is_reserved":false,"is_disabled":false,"rental_uris":{"android":"levelo://app?vid=aa527c2c-31a5-479b-bfbe-daae0d9bb514","ios":"levelo://app?vid=aa527c2c-31a5-479b-bfbe-daae0d9bb514"},"vehicle_type_id":"0","last_reported":1719418209,"current_range_meters":8000,"station_id":"","pricing_plan_id":"cebpf4jnsgd1na2vs0mg"},{"bike_id":"cbff8e2e-87ad-4d9e-a09d-9b1fba1c0aeb","system_id":"levelo_inurba_marseille","lat":43.337424,"lon":5.374709,"is_reserved":false,"is_disabled":false,"rental_uris":{"android":"levelo://app?vid=cbff8e2e-87ad-4d9e-a09d-9b1fba1c0aeb","ios":"levelo://app?vid=cbff8e2e-87ad-4d9e-a09d-9b1fba1c0aeb"},"vehicle_type_id":"0","last_reported":1719418209,"current_range_meters":18400,"station_id":"","pricing_plan_id":"cebpf4jnsgd1na2vs0mg"},{"bike_id":"985eda3a-8205-4c72-8b0d-a44593dd15b5","system_id":"levelo_inurba_marseille","lat":43.33744,"lon":5.374668,"is_reserved":false,"is_disabled":false,"rental_uris":{"android":"levelo://app?vid=985eda3a-8205-4c72-8b0d-a44593dd15b5","ios":"levelo://app?vid=985eda3a-8205-4c72-8b0d-a44593dd15b5"},"vehicle_type_id":"0","last_reported":1719418209,"current_range_meters":11600,"station_id":"","pricing_plan_id":"cebpf4jnsgd1na2vs0mg"},{"bike_id":"8043cc8a-f702-4e45-9523-d56dfd7ee432","system_id":"levelo_inurba_marseille","lat":43.337442,"lon":5.3747,"is_reserved":false,"is_disabled":false,"rental_uris":{"android":"levelo://app?vid=8043cc8a-f702-4e45-9523-d56dfd7ee432","ios":"levelo://app?vid=8043cc8a-f702-4e45-9523-d56dfd7ee432"},"vehicle_type_id":"0","last_reported":1719418209,"current_range_meters":17600,"station_id":"","pricing_plan_id":"cebpf4jnsgd1na2vs0mg"},{"bike_id":"115596e8-9d6d-4d2f-a08e-3ae15b72df5e","system_id":"levelo_inurba_marseille","lat":43.31268,"lon":5.40184,"is_reserved":false,"is_disabled":false,"rental_uris":{"android":"levelo://app?vid=115596e8-9d6d-4d2f-a08e-3ae15b72df5e","ios":"levelo://app?vid=115596e8-9d6d-4d2f-a08e-3ae15b72df5e"},"vehicle_type_id":"4","last_reported":1719418209,"current_range_meters":2400,"station_id":"ce4bh092rcd13ifvqd30","pricing_plan_id":"cebpf4jnsgd1na2vs0mg"},{"bike_id":"5558f318-ebfd-4275-a55b-6b0f1f6b01a9","system_id":"levelo_inurba_marseille","lat":43.30648,"lon":5.40091,"is_reserved":false,"is_disabled":false,"rental_uris":{"android":"levelo://app?vid=5558f318-ebfd-4275-a55b-6b0f1f6b01a9","ios":"levelo://app?vid=5558f318-ebfd-4275-a55b-6b0f1f6b01a9"},"vehicle_type_id":"4","last_reported":1719418209,"current_range_meters":0,"station_id":"ce4bh112rcd13ifvqda0","pricing_plan_id":"cebpf4jnsgd1na2vs0mg"},{"bike_id":"9c212851-943a-4b41-a824-e19458f60cad","system_id":"levelo_inurba_marseille","lat":43.33776,"lon":5.37444,"is_reserved":false,"is_disabled":false,"rental_uris":{"android":"levelo://app?vid=9c212851-943a-4b41-a824-e19458f60cad","ios":"levelo://app?vid=9c212851-943a-4b41-a824-e19458f60cad"},"vehicle_type_id":"4","last_reported":1719418209,"current_range_meters":20000,"station_id":"","pricing_plan_id":"cebpf4jnsgd1na2vs0mg"},{"bike_id":"29fd0838-8c71-4610-9a10-c0c0b41d164f","system_id":"levelo_inurba_marseille","lat":43.301117,"lon":5.398795,"is_reserved":false,"is_disabled":false,"rental_uris":{"android":"levelo://app?vid=29fd0838-8c71-4610-9a10-c0c0b41d164f","ios":"levelo://app?vid=29fd0838-8c71-4610-9a10-c0c0b41d164f"},"vehicle_type_id":"4","last_reported":1719418209,"current_range_meters":29200,"station_id":"ce4bh0h2rcd13ifvqd40","pricing_plan_id":"cebpf4jnsgd1na2vs0mg"},{"bike_id":"9d65a0ae-11f7-4608-81d2-bf03ed8911ba","system_id":"levelo_inurba_marseille","lat":43.290345,"lon":5.38646,"is_reserved":false,"is_disabled":false,"rental_uris":{"android":"levelo://app?vid=9d65a0ae-11f7-4608-81d2-bf03ed8911ba","ios":"levelo://app?vid=9d65a0ae-11f7-4608-81d2-bf03ed8911ba"},"vehicle_type_id":"4","last_reported":1719418209,"current_range_meters":10400,"station_id":"ce4bh4p2rcd13ifvqe0g","pricing_plan_id":"cebpf4jnsgd1na2vs0mg"},{"bike_id":"d9607a4d-c36a-4b90-92a6-d495332a24f9","system_id":"levelo_inurba_marseille","lat":43.29592,"lon":5.39362,"is_reserved":false,"is_disabled":false,"rental_uris":{"android":"levelo://app?vid=d9607a4d-c36a-4b90-92a6-d495332a24f9","ios":"levelo://app?vid=d9607a4d-c36a-4b90-92a6-d495332a24f9"},"vehicle_type_id":"4","last_reported":1719418209,"current_range_meters":6400,"station_id":"","pricing_plan_id":"cebpf4jnsgd1na2vs0mg"},{"bike_id":"cf65fc39-7383-4935-a7d0-bdfec0ce7790","system_id":"levelo_inurba_marseille","lat":43.28727,"lon":5.36078,"is_reserved":false,"is_disabled":false,"rental_uris":{"android":"levelo://app?vid=cf65fc39-7383-4935-a7d0-bdfec0ce7790","ios":"levelo://app?vid=cf65fc39-7383-4935-a7d0-bdfec0ce7790"},"vehicle_type_id":"4","last_reported":1719418209,"current_range_meters":15200,"station_id":"cki0cbj6b192h4jlfktg","pricing_plan_id":"cebpf4jnsgd1na2vs0mg"},{"bike_id":"ed0047f6-ae62-4fbf-b5e6-094dd265727f","system_id":"levelo_inurba_marseille","lat":43.28727,"lon":5.36078,"is_reserved":false,"is_disabled":false,"rental_uris":{"android":"levelo://app?vid=ed0047f6-ae62-4fbf-b5e6-094dd265727f","ios":"levelo://app?vid=ed0047f6-ae62-4fbf-b5e6-094dd265727f"},"vehicle_type_id":"4","last_reported":1719418209,"current_range_meters":3600,"station_id":"cki0cbj6b192h4jlfktg","pricing_plan_id":"cebpf4jnsgd1na2vs0mg"},{"bike_id":"42fd5624-fed8-4784-a695-17d44c3e440b","system_id":"levelo_inurba_marseille","lat":43.286591,"lon":5.363346,"is_reserved":false,"is_disabled":false,"rental_uris":{"android":"levelo://app?vid=42fd5624-fed8-4784-a695-17d44c3e440b","ios":"levelo://app?vid=42fd5624-fed8-4784-a695-17d44c3e440b"},"vehicle_type_id":"4","last_reported":1719418209,"current_range_meters":4800,"station_id":"ce4bhah2rcd13ifvqej0","pricing_plan_id":"cebpf4jnsgd1na2vs0mg"},{"bike_id":"9189b7fb-58dc-4498-85f7-76f9d7dbbab1","system_id":"levelo_inurba_marseille","lat":43.28663,"lon":5.36356,"is_reserved":false,"is_disabled":false,"rental_uris":{"android":"levelo://app?vid=9189b7fb-58dc-4498-85f7-76f9d7dbbab1","ios":"levelo://app?vid=9189b7fb-58dc-4498-85f7-76f9d7dbbab1"},"vehicle_type_id":"4","last_reported":1719418209,"current_range_meters":5600,"station_id":"ce4bhah2rcd13ifvqej0","pricing_plan_id":"cebpf4jnsgd1na2vs0mg"},{"bike_id":"b6c9af51-7a5d-47c9-9d4d-45bb40da0229","system_id":"levelo_inurba_marseille","lat":43.298681,"lon":5.397225,"is_reserved":false,"is_disabled":false,"rental_uris":{"android":"levelo://app?vid=b6c9af51-7a5d-47c9-9d4d-45bb40da0229","ios":"levelo://app?vid=b6c9af51-7a5d-47c9-9d4d-45bb40da0229"},"vehicle_type_id":"4","last_reported":1719418209,"current_range_meters":0,"station_id":"ce4bh0h2rcd13ifvqd50","pricing_plan_id":"cebpf4jnsgd1na2vs0mg"},{"bike_id":"c0ab239b-fae9-4cc6-ab1e-8578df14d7c7","system_id":"levelo_inurba_marseille","lat":43.295194,"lon":5.39397,"is_reserved":false,"is_disabled":false,"rental_uris":{"android":"levelo://app?vid=c0ab239b-fae9-4cc6-ab1e-8578df14d7c7","ios":"levelo://app?vid=c0ab239b-fae9-4cc6-ab1e-8578df14d7c7"},"vehicle_type_id":"4","last_reported":1719418209,"current_range_meters":14800,"station_id":"ce4bh292rcd13ifvqdf0","pricing_plan_id":"cebpf4jnsgd1na2vs0mg"},{"bike_id":"c19eacfc-456d-4fff-84ea-3eac87a7385b","system_id":"levelo_inurba_marseille","lat":43.295194,"lon":5.39397,"is_reserved":false,"is_disabled":false,"rental_uris":{"android":"levelo://app?vid=c19eacfc-456d-4fff-84ea-3eac87a7385b","ios":"levelo://app?vid=c19eacfc-456d-4fff-84ea-3eac87a7385b"},"vehicle_type_id":"4","last_reported":1719418209,"current_range_meters":24800,"station_id":"ce4bh292rcd13ifvqdf0","pricing_plan_id":"cebpf4jnsgd1na2vs0mg"},{"bike_id":"37b55bf7-ee86-42be-82d9-3250af08ff08","system_id":"levelo_inurba_marseille","lat":43.295196,"lon":5.39397,"is_reserved":false,"is_disabled":false,"rental_uris":{"android":"levelo://app?vid=37b55bf7-ee86-42be-82d9-3250af08ff08","ios":"levelo://app?vid=37b55bf7-ee86-42be-82d9-3250af08ff08"},"vehicle_type_id":"4","last_reported":1719418209,"current_range_meters":29200,"station_id":"ce4bh292rcd13ifvqdf0","pricing_plan_id":"cebpf4jnsgd1na2vs0mg"},{"bike_id":"5f0930d2-1d5b-422d-a92d-1d4549de56ac","system_id":"levelo_inurba_marseille","lat":43.295196,"lon":5.39397,"is_reserved":false,"is_disabled":false,"rental_uris":{"android":"levelo://app?vid=5f0930d2-1d5b-422d-a92d-1d4549de56ac","ios":"levelo://app?vid=5f0930d2-1d5b-422d-a92d-1d4549de56ac"},"vehicle_type_id":"4","last_reported":1719418209,"current_range_meters":20400,"station_id":"ce4bh292rcd13ifvqdf0","pricing_plan_id":"cebpf4jnsgd1na2vs0mg"},{"bike_id":"a30128ab-ef1d-4c9d-a593-26af5a99184b","system_id":"levelo_inurba_marseille","lat":43.29514,"lon":5.39402,"is_reserved":false,"is_disabled":false,"rental_uris":{"android":"levelo://app?vid=a30128ab-ef1d-4c9d-a593-26af5a99184b","ios":"levelo://app?vid=a30128ab-ef1d-4c9d-a593-26af5a99184b"},"vehicle_type_id":"4","last_reported":1719418209,"current_range_meters":0,"station_id":"ce4bh292rcd13ifvqdf0","pricing_plan_id":"cebpf4jnsgd1na2vs0mg"},{"bike_id":"e55fe20c-d4dc-45ad-a4af-38336cf2c6ed","system_id":"levelo_inurba_marseille","lat":43.295194,"lon":5.39397,"is_reserved":false,"is_disabled":false,"rental_uris":{"android":"levelo://app?vid=e55fe20c-d4dc-45ad-a4af-38336cf2c6ed","ios":"levelo://app?vid=e55fe20c-d4dc-45ad-a4af-38336cf2c6ed"},"vehicle_type_id":"4","last_reported":1719418209,"current_range_meters":19200,"station_id":"ce4bh292rcd13ifvqdf0","pricing_plan_id":"cebpf4jnsgd1na2vs0mg"},{"bike_id":"3e43592b-2d92-417c-84fa-1fee2652f9de","system_id":"levelo_inurba_marseille","lat":43.295196,"lon":5.39397,"is_reserved":false,"is_disabled":false,"rental_uris":{"android":"levelo://app?vid=3e43592b-2d92-417c-84fa-1fee2652f9de","ios":"levelo://app?vid=3e43592b-2d92-417c-84fa-1fee2652f9de"},"vehicle_type_id":"4","last_reported":1719418209,"current_range_meters":6000,"station_id":"ce4bh292rcd13ifvqdf0","pricing_plan_id":"cebpf4jnsgd1na2vs0mg"},{"bike_id":"4a274a79-7ff7-4ef8-8fd5-a8e9b2ce48a2","system_id":"levelo_inurba_marseille","lat":43.290345,"lon":5.38646,"is_reserved":false,"is_disabled":false,"rental_uris":{"android":"levelo://app?vid=4a274a79-7ff7-4ef8-8fd5-a8e9b2ce48a2","ios":"levelo://app?vid=4a274a79-7ff7-4ef8-8fd5-a8e9b2ce48a2"},"vehicle_type_id":"4","last_reported":1719418209,"current_range_meters":11200,"station_id":"ce4bh4p2rcd13ifvqe0g","pricing_plan_id":"cebpf4jnsgd1na2vs0mg"},{"bike_id":"28ededdc-5c5d-4d67-801d-916e9f0434ba","system_id":"levelo_inurba_marseille","lat":43.29031,"lon":5.38649,"is_reserved":false,"is_disabled":false,"rental_uris":{"android":"levelo://app?vid=28ededdc-5c5d-4d67-801d-916e9f0434ba","ios":"levelo://app?vid=28ededdc-5c5d-4d67-801d-916e9f0434ba"},"vehicle_type_id":"4","last_reported":1719418209,"current_range_meters":25200,"station_id":"ce4bh4p2rcd13ifvqe0g","pricing_plan_id":"cebpf4jnsgd1na2vs0mg"},{"bike_id":"cf7b18a6-ad90-4065-8331-adce5b07385e","system_id":"levelo_inurba_marseille","lat":43.29025,"lon":5.38637,"is_reserved":false,"is_disabled":false,"rental_uris":{"android":"levelo://app?vid=cf7b18a6-ad90-4065-8331-adce5b07385e","ios":"levelo://app?vid=cf7b18a6-ad90-4065-8331-adce5b07385e"},"vehicle_type_id":"4","last_reported":1719418209,"current_range_meters":7600,"station_id":"ce4bh4p2rcd13ifvqe0g","pricing_plan_id":"cebpf4jnsgd1na2vs0mg"},{"bike_id":"92570ab7-16be-483f-9b17-1700eca42bfd","system_id":"levelo_inurba_marseille","lat":43.290345,"lon":5.38646,"is_reserved":false,"is_disabled":false,"rental_uris":{"android":"levelo://app?vid=92570ab7-16be-483f-9b17-1700eca42bfd","ios":"levelo://app?vid=92570ab7-16be-483f-9b17-1700eca42bfd"},"vehicle_type_id":"4","last_reported":1719418209,"current_range_meters":5600,"station_id":"ce4bh4p2rcd13ifvqe0g","pricing_plan_id":"cebpf4jnsgd1na2vs0mg"},{"bike_id":"6964ad50-aabe-4fb7-abbc-82ba4b60521d","system_id":"levelo_inurba_marseille","lat":43.28608,"lon":5.37061,"is_reserved":false,"is_disabled":false,"rental_uris":{"android":"levelo://app?vid=6964ad50-aabe-4fb7-abbc-82ba4b60521d","ios":"levelo://app?vid=6964ad50-aabe-4fb7-abbc-82ba4b60521d"},"vehicle_type_id":"4","last_reported":1719418209,"current_range_meters":4400,"station_id":"ce4bht12rcd13ifvqi60","pricing_plan_id":"cebpf4jnsgd1na2vs0mg"},{"bike_id":"152967e7-f018-43ec-9bf8-5e2ad6599f10","system_id":"levelo_inurba_marseille","lat":43.316821,"lon":5.404737,"is_reserved":false,"is_disabled":false,"rental_uris":{"android":"levelo://app?vid=152967e7-f018-43ec-9bf8-5e2ad6599f10","ios":"levelo://app?vid=152967e7-f018-43ec-9bf8-5e2ad6599f10"},"vehicle_type_id":"4","last_reported":1719418209,"current_range_meters":13600,"station_id":"ce4bh012rcd13ifvqd00","pricing_plan_id":"cebpf4jnsgd1na2vs0mg"},{"bike_id":"872cf456-0f22-40ea-bcc9-b846b02563cd","system_id":"levelo_inurba_marseille","lat":43.316821,"lon":5.404737,"is_reserved":false,"is_disabled":false,"rental_uris":{"android":"levelo://app?vid=872cf456-0f22-40ea-bcc9-b846b02563cd","ios":"levelo://app?vid=872cf456-0f22-40ea-bcc9-b846b02563cd"},"vehicle_type_id":"4","last_reported":1719418209,"current_range_meters":16400,"station_id":"ce4bh012rcd13ifvqd00","pricing_plan_id":"cebpf4jnsgd1na2vs0mg"},{"bike_id":"4238fddd-03b8-4526-9238-1e41f284b8f7","system_id":"levelo_inurba_marseille","lat":43.316828,"lon":5.404723,"is_reserved":false,"is_disabled":false,"rental_uris":{"android":"levelo://app?vid=4238fddd-03b8-4526-9238-1e41f284b8f7","ios":"levelo://app?vid=4238fddd-03b8-4526-9238-1e41f284b8f7"},"vehicle_type_id":"4","last_reported":1719418209,"current_range_meters":20400,"station_id":"ce4bh012rcd13ifvqd00","pricing_plan_id":"cebpf4jnsgd1na2vs0mg"},{"bike_id":"aa78e2e2-3232-4b63-a510-0252c9e5ec8f","system_id":"levelo_inurba_marseille","lat":43.31689,"lon":5.40477,"is_reserved":false,"is_disabled":false,"rental_uris":{"android":"levelo://app?vid=aa78e2e2-3232-4b63-a510-0252c9e5ec8f","ios":"levelo://app?vid=aa78e2e2-3232-4b63-a510-0252c9e5ec8f"},"vehicle_type_id":"4","last_reported":1719418209,"current_range_meters":0,"station_id":"ce4bh012rcd13ifvqd00","pricing_plan_id":"cebpf4jnsgd1na2vs0mg"},{"bike_id":"41b37190-9675-424c-86b0-079351cffd9c","system_id":"levelo_inurba_marseille","lat":43.316821,"lon":5.404737,"is_reserved":false,"is_disabled":false,"rental_uris":{"android":"levelo://app?vid=41b37190-9675-424c-86b0-079351cffd9c","ios":"levelo://app?vid=41b37190-9675-424c-86b0-079351cffd9c"},"vehicle_type_id":"4","last_reported":1719418209,"current_range_meters":10400,"station_id":"ce4bh012rcd13ifvqd00","pricing_plan_id":"cebpf4jnsgd1na2vs0mg"},{"bike_id":"d03e37b4-48ba-4a33-b116-e6114606e030","system_id":"levelo_inurba_marseille","lat":43.316828,"lon":5.404723,"is_reserved":false,"is_disabled":false,"rental_uris":{"android":"levelo://app?vid=d03e37b4-48ba-4a33-b116-e6114606e030","ios":"levelo://app?vid=d03e37b4-48ba-4a33-b116-e6114606e030"},"vehicle_type_id":"4","last_reported":1719418209,"current_range_meters":24800,"station_id":"ce4bh012rcd13ifvqd00","pricing_plan_id":"cebpf4jnsgd1na2vs0mg"},{"bike_id":"49ff1731-8aa4-490a-9b7b-38fef5b36322","system_id":"levelo_inurba_marseille","lat":43.316821,"lon":5.404737,"is_reserved":false,"is_disabled":false,"rental_uris":{"android":"levelo://app?vid=49ff1731-8aa4-490a-9b7b-38fef5b36322","ios":"levelo://app?vid=49ff1731-8aa4-490a-9b7b-38fef5b36322"},"vehicle_type_id":"4","last_reported":1719418209,"current_range_meters":28400,"station_id":"ce4bh012rcd13ifvqd00","pricing_plan_id":"cebpf4jnsgd1na2vs0mg"},{"bike_id":"83da41a6-b384-4e5d-af91-f3cec0de59fb","system_id":"levelo_inurba_marseille","lat":43.284534,"lon":5.358662,"is_reserved":false,"is_disabled":false,"rental_uris":{"android":"levelo://app?vid=83da41a6-b384-4e5d-af91-f3cec0de59fb","ios":"levelo://app?vid=83da41a6-b384-4e5d-af91-f3cec0de59fb"},"vehicle_type_id":"4","last_reported":1719418209,"current_range_meters":0,"station_id":"ce4bhah2rcd13ifvqei0","pricing_plan_id":"cebpf4jnsgd1na2vs0mg"},{"bike_id":"895b1c80-8455-4947-8b78-91c58160e79d","system_id":"levelo_inurba_marseille","lat":43.291994,"lon":5.392907,"is_reserved":false,"is_disabled":false,"rental_uris":{"android":"levelo://app?vid=895b1c80-8455-4947-8b78-91c58160e79d","ios":"levelo://app?vid=895b1c80-8455-4947-8b78-91c58160e79d"},"vehicle_type_id":"4","last_reported":1719418209,"current_range_meters":17600,"station_id":"ce4bh192rcd13ifvqdd0","pricing_plan_id":"cebpf4jnsgd1na2vs0mg"},{"bike_id":"20fbb4ef-753b-4f9e-9acb-5119c9dc503b","system_id":"levelo_inurba_marseille","lat":43.291994,"lon":5.392907,"is_reserved":false,"is_disabled":false,"rental_uris":{"android":"levelo://app?vid=20fbb4ef-753b-4f9e-9acb-5119c9dc503b","ios":"levelo://app?vid=20fbb4ef-753b-4f9e-9acb-5119c9dc503b"},"vehicle_type_id":"4","last_reported":1719418209,"current_range_meters":1600,"station_id":"ce4bh192rcd13ifvqdd0","pricing_plan_id":"cebpf4jnsgd1na2vs0mg"},{"bike_id":"dd7e344e-1860-4467-8635-77133bf35488","system_id":"levelo_inurba_marseille","lat":43.28441,"lon":5.37164,"is_reserved":false,"is_disabled":false,"rental_uris":{"android":"levelo://app?vid=dd7e344e-1860-4467-8635-77133bf35488","ios":"levelo://app?vid=dd7e344e-1860-4467-8635-77133bf35488"},"vehicle_type_id":"4","last_reported":1719418209,"current_range_meters":22800,"station_id":"","pricing_plan_id":"cebpf4jnsgd1na2vs0mg"},{"bike_id":"0d0e9f9c-22fa-460a-8e3d-ef4f4f4e0fec","system_id":"levelo_inurba_marseille","lat":43.294314,"lon":5.397498,"is_reserved":false,"is_disabled":false,"rental_uris":{"android":"levelo://app?vid=0d0e9f9c-22fa-460a-8e3d-ef4f4f4e0fec","ios":"levelo://app?vid=0d0e9f9c-22fa-460a-8e3d-ef4f4f4e0fec"},"vehicle_type_id":"4","last_reported":1719418209,"current_range_meters":19600,"station_id":"ce4bh3h2rcd13ifvqdo0","pricing_plan_id":"cebpf4jnsgd1na2vs0mg"},{"bike_id":"1c37b8f4-a9c1-4d54-a64b-5a72b2876817","system_id":"levelo_inurba_marseille","lat":43.28615,"lon":5.35098,"is_reserved":false,"is_disabled":false,"rental_uris":{"android":"levelo://app?vid=1c37b8f4-a9c1-4d54-a64b-5a72b2876817","ios":"levelo://app?vid=1c37b8f4-a9c1-4d54-a64b-5a72b2876817"},"vehicle_type_id":"4","last_reported":1719418209,"current_range_meters":26000,"station_id":"ce4bhch2rcd13ifvqeug","pricing_plan_id":"cebpf4jnsgd1na2vs0mg"},{"bike_id":"a7c76dda-eb68-4fd5-a311-67f02109d140","system_id":"levelo_inurba_marseille","lat":43.28613,"lon":5.351,"is_reserved":false,"is_disabled":false,"rental_uris":{"android":"levelo://app?vid=a7c76dda-eb68-4fd5-a311-67f02109d140","ios":"levelo://app?vid=a7c76dda-eb68-4fd5-a311-67f02109d140"},"vehicle_type_id":"4","last_reported":1719418209,"current_range_meters":0,"station_id":"ce4bhch2rcd13ifvqeug","pricing_plan_id":"cebpf4jnsgd1na2vs0mg"},{"bike_id":"f6e67595-1b33-4a70-8399-54130a14adaa","system_id":"levelo_inurba_marseille","lat":43.28612,"lon":5.35099,"is_reserved":false,"is_disabled":false,"rental_uris":{"android":"levelo://app?vid=f6e67595-1b33-4a70-8399-54130a14adaa","ios":"levelo://app?vid=f6e67595-1b33-4a70-8399-54130a14adaa"},"vehicle_type_id":"4","last_reported":1719418209,"current_range_meters":10000,"station_id":"ce4bhch2rcd13ifvqeug","pricing_plan_id":"cebpf4jnsgd1na2vs0mg"},{"bike_id":"c56425b5-d81d-4d0a-9ade-d5e9599e3e94","system_id":"levelo_inurba_marseille","lat":43.28401,"lon":5.37501,"is_reserved":false,"is_disabled":false,"rental_uris":{"android":"levelo://app?vid=c56425b5-d81d-4d0a-9ade-d5e9599e3e94","ios":"levelo://app?vid=c56425b5-d81d-4d0a-9ade-d5e9599e3e94"},"vehicle_type_id":"4","last_reported":1719418209,"current_range_meters":18400,"station_id":"ce4bh412rcd13ifvqds0","pricing_plan_id":"cebpf4jnsgd1na2vs0mg"},{"bike_id":"67269ef0-d7bb-4f5e-8418-e350fc086f8b","system_id":"levelo_inurba_marseille","lat":43.286595,"lon":5.386795,"is_reserved":false,"is_disabled":false,"rental_uris":{"android":"levelo://app?vid=67269ef0-d7bb-4f5e-8418-e350fc086f8b","ios":"levelo://app?vid=67269ef0-d7bb-4f5e-8418-e350fc086f8b"},"vehicle_type_id":"4","last_reported":1719418209,"current_range_meters":0,"station_id":"ce4bh492rcd13ifvqdug","pricing_plan_id":"cebpf4jnsgd1na2vs0mg"},{"bike_id":"496e0c27-fea7-47b5-b9f5-2193dd60a70a","system_id":"levelo_inurba_marseille","lat":43.319179,"lon":5.407725,"is_reserved":false,"is_disabled":false,"rental_uris":{"android":"levelo://app?vid=496e0c27-fea7-47b5-b9f5-2193dd60a70a","ios":"levelo://app?vid=496e0c27-fea7-47b5-b9f5-2193dd60a70a"},"vehicle_type_id":"4","last_reported":1719418209,"current_range_meters":25600,"station_id":"ce4bhq12rcd13ifvqhig","pricing_plan_id":"cebpf4jnsgd1na2vs0mg"},{"bike_id":"df27ffef-1398-46a7-831f-e0a59d29e452","system_id":"levelo_inurba_marseille","lat":43.319179,"lon":5.407725,"is_reserved":false,"is_disabled":false,"rental_uris":{"android":"levelo://app?vid=df27ffef-1398-46a7-831f-e0a59d29e452","ios":"levelo://app?vid=df27ffef-1398-46a7-831f-e0a59d29e452"},"vehicle_type_id":"4","last_reported":1719418209,"current_range_meters":29200,"station_id":"ce4bhq12rcd13ifvqhig","pricing_plan_id":"cebpf4jnsgd1na2vs0mg"},{"bike_id":"e39137e7-ac4b-40d2-876d-3dcdc7707937","system_id":"levelo_inurba_marseille","lat":43.337168,"lon":5.391825,"is_reserved":false,"is_disabled":false,"rental_uris":{"android":"levelo://app?vid=e39137e7-ac4b-40d2-876d-3dcdc7707937","ios":"levelo://app?vid=e39137e7-ac4b-40d2-876d-3dcdc7707937"},"vehicle_type_id":"4","last_reported":1719418209,"current_range_meters":31200,"station_id":"ce4bhr92rcd13ifvqhsg","pricing_plan_id":"cebpf4jnsgd1na2vs0mg"},{"bike_id":"844cce4e-ec17-4fc7-bc1e-ed33c5d2dc49","system_id":"levelo_inurba_marseille","lat":43.323464,"lon":5.406297,"is_reserved":false,"is_disabled":false,"rental_uris":{"android":"levelo://app?vid=844cce4e-ec17-4fc7-bc1e-ed33c5d2dc49","ios":"levelo://app?vid=844cce4e-ec17-4fc7-bc1e-ed33c5d2dc49"},"vehicle_type_id":"4","last_reported":1719418209,"current_range_meters":10800,"station_id":"ce4bhq92rcd13ifvqhjg","pricing_plan_id":"cebpf4jnsgd1na2vs0mg"},{"bike_id":"6429e62f-b980-46b9-81d6-5064d82f15ba","system_id":"levelo_inurba_marseille","lat":43.337168,"lon":5.391825,"is_reserved":false,"is_disabled":false,"rental_uris":{"android":"levelo://app?vid=6429e62f-b980-46b9-81d6-5064d82f15ba","ios":"levelo://app?vid=6429e62f-b980-46b9-81d6-5064d82f15ba"},"vehicle_type_id":"4","last_reported":1719418209,"current_range_meters":30400,"station_id":"ce4bhr92rcd13ifvqhsg","pricing_plan_id":"cebpf4jnsgd1na2vs0mg"},{"bike_id":"01bbbddb-c58f-4855-9e73-d817391c38de","system_id":"levelo_inurba_marseille","lat":43.323464,"lon":5.406297,"is_reserved":false,"is_disabled":false,"rental_uris":{"android":"levelo://app?vid=01bbbddb-c58f-4855-9e73-d817391c38de","ios":"levelo://app?vid=01bbbddb-c58f-4855-9e73-d817391c38de"},"vehicle_type_id":"4","last_reported":1719418209,"current_range_meters":11200,"station_id":"ce4bhq92rcd13ifvqhjg","pricing_plan_id":"cebpf4jnsgd1na2vs0mg"},{"bike_id":"311c3a7d-ed26-4e20-b696-f702ef51dba3","system_id":"levelo_inurba_marseille","lat":43.32339,"lon":5.40622,"is_reserved":false,"is_disabled":false,"rental_uris":{"android":"levelo://app?vid=311c3a7d-ed26-4e20-b696-f702ef51dba3","ios":"levelo://app?vid=311c3a7d-ed26-4e20-b696-f702ef51dba3"},"vehicle_type_id":"4","last_reported":1719418209,"current_range_meters":2000,"station_id":"ce4bhq92rcd13ifvqhjg","pricing_plan_id":"cebpf4jnsgd1na2vs0mg"},{"bike_id":"01234115-4ef9-4020-bbe4-eb39fbd93d56","system_id":"levelo_inurba_marseille","lat":43.323464,"lon":5.406297,"is_reserved":false,"is_disabled":false,"rental_uris":{"android":"levelo://app?vid=01234115-4ef9-4020-bbe4-eb39fbd93d56","ios":"levelo://app?vid=01234115-4ef9-4020-bbe4-eb39fbd93d56"},"vehicle_type_id":"4","last_reported":1719418209,"current_range_meters":12800,"station_id":"ce4bhq92rcd13ifvqhjg","pricing_plan_id":"cebpf4jnsgd1na2vs0mg"},{"bike_id":"91a0b8db-5f6c-48cd-b341-c2c7d9151ea2","system_id":"levelo_inurba_marseille","lat":43.284793,"lon":5.384119,"is_reserved":false,"is_disabled":false,"rental_uris":{"android":"levelo://app?vid=91a0b8db-5f6c-48cd-b341-c2c7d9151ea2","ios":"levelo://app?vid=91a0b8db-5f6c-48cd-b341-c2c7d9151ea2"},"vehicle_type_id":"4","last_reported":1719418209,"current_range_meters":4000,"station_id":"ce4bh512rcd13ifvqe3g","pricing_plan_id":"cebpf4jnsgd1na2vs0mg"},{"bike_id":"1a37bc04-3a32-4266-bba3-7f156ba883ff","system_id":"levelo_inurba_marseille","lat":43.284787,"lon":5.384116,"is_reserved":false,"is_disabled":false,"rental_uris":{"android":"levelo://app?vid=1a37bc04-3a32-4266-bba3-7f156ba883ff","ios":"levelo://app?vid=1a37bc04-3a32-4266-bba3-7f156ba883ff"},"vehicle_type_id":"4","last_reported":1719418209,"current_range_meters":2800,"station_id":"ce4bh512rcd13ifvqe3g","pricing_plan_id":"cebpf4jnsgd1na2vs0mg"},{"bike_id":"1691b3e7-3b13-4b48-bc64-ec93ed8a6c6d","system_id":"levelo_inurba_marseille","lat":43.284787,"lon":5.384116,"is_reserved":false,"is_disabled":false,"rental_uris":{"android":"levelo://app?vid=1691b3e7-3b13-4b48-bc64-ec93ed8a6c6d","ios":"levelo://app?vid=1691b3e7-3b13-4b48-bc64-ec93ed8a6c6d"},"vehicle_type_id":"4","last_reported":1719418209,"current_range_meters":400,"station_id":"ce4bh512rcd13ifvqe3g","pricing_plan_id":"cebpf4jnsgd1na2vs0mg"},{"bike_id":"5b0d0050-119f-450c-a2ed-9941c223f57b","system_id":"levelo_inurba_marseille","lat":43.288501,"lon":5.393087,"is_reserved":false,"is_disabled":false,"rental_uris":{"android":"levelo://app?vid=5b0d0050-119f-450c-a2ed-9941c223f57b","ios":"levelo://app?vid=5b0d0050-119f-450c-a2ed-9941c223f57b"},"vehicle_type_id":"4","last_reported":1719418209,"current_range_meters":14400,"station_id":"ce4bh2p2rcd13ifvqdi0","pricing_plan_id":"cebpf4jnsgd1na2vs0mg"},{"bike_id":"b47a84e0-ba2b-4f29-9007-93e245c34163","system_id":"levelo_inurba_marseille","lat":43.28847,"lon":5.3932,"is_reserved":false,"is_disabled":false,"rental_uris":{"android":"levelo://app?vid=b47a84e0-ba2b-4f29-9007-93e245c34163","ios":"levelo://app?vid=b47a84e0-ba2b-4f29-9007-93e245c34163"},"vehicle_type_id":"4","last_reported":1719418209,"current_range_meters":12800,"station_id":"ce4bh2p2rcd13ifvqdi0","pricing_plan_id":"cebpf4jnsgd1na2vs0mg"},{"bike_id":"c1486f0d-3e75-4b96-ae65-cf1455572fb2","system_id":"levelo_inurba_marseille","lat":43.283498,"lon":5.380948,"is_reserved":false,"is_disabled":false,"rental_uris":{"android":"levelo://app?vid=c1486f0d-3e75-4b96-ae65-cf1455572fb2","ios":"levelo://app?vid=c1486f0d-3e75-4b96-ae65-cf1455572fb2"},"vehicle_type_id":"4","last_reported":1719418209,"current_range_meters":0,"station_id":"ce4bh412rcd13ifvqdr0","pricing_plan_id":"cebpf4jnsgd1na2vs0mg"},{"bike_id":"5677cb4b-02f8-4639-8011-d7cd1e26564f","system_id":"levelo_inurba_marseille","lat":43.288501,"lon":5.393087,"is_reserved":false,"is_disabled":false,"rental_uris":{"android":"levelo://app?vid=5677cb4b-02f8-4639-8011-d7cd1e26564f","ios":"levelo://app?vid=5677cb4b-02f8-4639-8011-d7cd1e26564f"},"vehicle_type_id":"4","last_reported":1719418209,"current_range_meters":400,"station_id":"ce4bh2p2rcd13ifvqdi0","pricing_plan_id":"cebpf4jnsgd1na2vs0mg"},{"bike_id":"1f099d9b-0a83-4f2d-b62b-5e3c1efa488a","system_id":"levelo_inurba_marseille","lat":43.28424,"lon":5.349875,"is_reserved":false,"is_disabled":false,"rental_uris":{"android":"levelo://app?vid=1f099d9b-0a83-4f2d-b62b-5e3c1efa488a","ios":"levelo://app?vid=1f099d9b-0a83-4f2d-b62b-5e3c1efa488a"},"vehicle_type_id":"4","last_reported":1719418209,"current_range_meters":18800,"station_id":"ce4bhbh2rcd13ifvqepg","pricing_plan_id":"cebpf4jnsgd1na2vs0mg"},{"bike_id":"16c8444c-369f-45dd-8f14-13a30fc6fff5","system_id":"levelo_inurba_marseille","lat":43.284214,"lon":5.349706,"is_reserved":false,"is_disabled":false,"rental_uris":{"android":"levelo://app?vid=16c8444c-369f-45dd-8f14-13a30fc6fff5","ios":"levelo://app?vid=16c8444c-369f-45dd-8f14-13a30fc6fff5"},"vehicle_type_id":"4","last_reported":1719418209,"current_range_meters":26000,"station_id":"ce4bhbh2rcd13ifvqepg","pricing_plan_id":"cebpf4jnsgd1na2vs0mg"},{"bike_id":"639667a2-f27d-4132-986d-0b385115b920","system_id":"levelo_inurba_marseille","lat":43.28415,"lon":5.35,"is_reserved":false,"is_disabled":false,"rental_uris":{"android":"levelo://app?vid=639667a2-f27d-4132-986d-0b385115b920","ios":"levelo://app?vid=639667a2-f27d-4132-986d-0b385115b920"},"vehicle_type_id":"4","last_reported":1719418209,"current_range_meters":0,"station_id":"ce4bhbh2rcd13ifvqepg","pricing_plan_id":"cebpf4jnsgd1na2vs0mg"},{"bike_id":"3868d300-38f2-4d09-a199-146608b04abc","system_id":"levelo_inurba_marseille","lat":43.28417,"lon":5.34991,"is_reserved":false,"is_disabled":false,"rental_uris":{"android":"levelo://app?vid=3868d300-38f2-4d09-a199-146608b04abc","ios":"levelo://app?vid=3868d300-38f2-4d09-a199-146608b04abc"},"vehicle_type_id":"4","last_reported":1719418209,"current_range_meters":31200,"station_id":"ce4bhbh2rcd13ifvqepg","pricing_plan_id":"cebpf4jnsgd1na2vs0mg"},{"bike_id":"92e4d199-6863-4884-a445-73d233be8c10","system_id":"levelo_inurba_marseille","lat":43.28411,"lon":5.34987,"is_reserved":false,"is_disabled":false,"rental_uris":{"android":"levelo://app?vid=92e4d199-6863-4884-a445-73d233be8c10","ios":"levelo://app?vid=92e4d199-6863-4884-a445-73d233be8c10"},"vehicle_type_id":"4","last_reported":1719418209,"current_range_meters":0,"station_id":"ce4bhbh2rcd13ifvqepg","pricing_plan_id":"cebpf4jnsgd1na2vs0mg"},{"bike_id":"3ee8da6e-de85-474c-a659-01faa7a4948d","system_id":"levelo_inurba_marseille","lat":43.28382,"lon":5.35,"is_reserved":false,"is_disabled":false,"rental_uris":{"android":"levelo://app?vid=3ee8da6e-de85-474c-a659-01faa7a4948d","ios":"levelo://app?vid=3ee8da6e-de85-474c-a659-01faa7a4948d"},"vehicle_type_id":"4","last_reported":1719418209,"current_range_meters":29600,"station_id":"ce4bhbh2rcd13ifvqepg","pricing_plan_id":"cebpf4jnsgd1na2vs0mg"},{"bike_id":"b8aa2b6d-bc1b-4d8b-b55b-78b9e8325fd2","system_id":"levelo_inurba_marseille","lat":43.289363,"lon":5.396322,"is_reserved":false,"is_disabled":false,"rental_uris":{"android":"levelo://app?vid=b8aa2b6d-bc1b-4d8b-b55b-78b9e8325fd2","ios":"levelo://app?vid=b8aa2b6d-bc1b-4d8b-b55b-78b9e8325fd2"},"vehicle_type_id":"4","last_reported":1719418209,"current_range_meters":3600,"station_id":"ce4bh3h2rcd13ifvqdn0","pricing_plan_id":"cebpf4jnsgd1na2vs0mg"},{"bike_id":"40d4a1e3-253f-4f13-b824-d8c64f75382c","system_id":"levelo_inurba_marseille","lat":43.292724,"lon":5.401131,"is_reserved":false,"is_disabled":false,"rental_uris":{"android":"levelo://app?vid=40d4a1e3-253f-4f13-b824-d8c64f75382c","ios":"levelo://app?vid=40d4a1e3-253f-4f13-b824-d8c64f75382c"},"vehicle_type_id":"4","last_reported":1719418209,"current_range_meters":1600,"station_id":"ce4bh312rcd13ifvqdk0","pricing_plan_id":"cebpf4jnsgd1na2vs0mg"},{"bike_id":"d63be9e9-5056-47e1-b726-c29b2ad4dde5","system_id":"levelo_inurba_marseille","lat":43.280382,"lon":5.369291,"is_reserved":false,"is_disabled":false,"rental_uris":{"android":"levelo://app?vid=d63be9e9-5056-47e1-b726-c29b2ad4dde5","ios":"levelo://app?vid=d63be9e9-5056-47e1-b726-c29b2ad4dde5"},"vehicle_type_id":"4","last_reported":1719418209,"current_range_meters":16800,"station_id":"ce4bha12rcd13ifvqef0","pricing_plan_id":"cebpf4jnsgd1na2vs0mg"},{"bike_id":"754cb81b-fad5-41fb-a7f9-cdbc93b877e7","system_id":"levelo_inurba_marseille","lat":43.283502,"lon":5.386471,"is_reserved":false,"is_disabled":false,"rental_uris":{"android":"levelo://app?vid=754cb81b-fad5-41fb-a7f9-cdbc93b877e7","ios":"levelo://app?vid=754cb81b-fad5-41fb-a7f9-cdbc93b877e7"},"vehicle_type_id":"4","last_reported":1719418209,"current_range_meters":22400,"station_id":"ce4bh492rcd13ifvqdvg","pricing_plan_id":"cebpf4jnsgd1na2vs0mg"},{"bike_id":"aeed60c1-04b0-497b-ac4f-22e53381046f","system_id":"levelo_inurba_marseille","lat":43.282744,"lon":5.350533,"is_reserved":false,"is_disabled":false,"rental_uris":{"android":"levelo://app?vid=aeed60c1-04b0-497b-ac4f-22e53381046f","ios":"levelo://app?vid=aeed60c1-04b0-497b-ac4f-22e53381046f"},"vehicle_type_id":"4","last_reported":1719418209,"current_range_meters":0,"station_id":"ce4bhbp2rcd13ifvqerg","pricing_plan_id":"cebpf4jnsgd1na2vs0mg"},{"bike_id":"8dd24734-724c-4cff-9e0a-aa45189adc04","system_id":"levelo_inurba_marseille","lat":43.283502,"lon":5.386471,"is_reserved":false,"is_disabled":false,"rental_uris":{"android":"levelo://app?vid=8dd24734-724c-4cff-9e0a-aa45189adc04","ios":"levelo://app?vid=8dd24734-724c-4cff-9e0a-aa45189adc04"},"vehicle_type_id":"4","last_reported":1719418209,"current_range_meters":17200,"station_id":"ce4bh492rcd13ifvqdvg","pricing_plan_id":"cebpf4jnsgd1na2vs0mg"},{"bike_id":"49fca321-7160-46a4-936e-dbe973ce1249","system_id":"levelo_inurba_marseille","lat":43.28265,"lon":5.35072,"is_reserved":false,"is_disabled":false,"rental_uris":{"android":"levelo://app?vid=49fca321-7160-46a4-936e-dbe973ce1249","ios":"levelo://app?vid=49fca321-7160-46a4-936e-dbe973ce1249"},"vehicle_type_id":"4","last_reported":1719418209,"current_range_meters":0,"station_id":"ce4bhbp2rcd13ifvqerg","pricing_plan_id":"cebpf4jnsgd1na2vs0mg"},{"bike_id":"4b4db96b-defa-4f70-88dd-f9c760767ef3","system_id":"levelo_inurba_marseille","lat":43.282648,"lon":5.350582,"is_reserved":false,"is_disabled":false,"rental_uris":{"android":"levelo://app?vid=4b4db96b-defa-4f70-88dd-f9c760767ef3","ios":"levelo://app?vid=4b4db96b-defa-4f70-88dd-f9c760767ef3"},"vehicle_type_id":"4","last_reported":1719418209,"current_range_meters":31600,"station_id":"ce4bhbp2rcd13ifvqerg","pricing_plan_id":"cebpf4jnsgd1na2vs0mg"},{"bike_id":"f106c344-ef46-4791-abc1-fd5a09c78475","system_id":"levelo_inurba_marseille","lat":43.28259,"lon":5.35069,"is_reserved":false,"is_disabled":false,"rental_uris":{"android":"levelo://app?vid=f106c344-ef46-4791-abc1-fd5a09c78475","ios":"levelo://app?vid=f106c344-ef46-4791-abc1-fd5a09c78475"},"vehicle_type_id":"4","last_reported":1719418209,"current_range_meters":0,"station_id":"ce4bhbp2rcd13ifvqerg","pricing_plan_id":"cebpf4jnsgd1na2vs0mg"},{"bike_id":"51280948-6929-4970-8f5c-fa763833beff","system_id":"levelo_inurba_marseille","lat":43.28039,"lon":5.369297,"is_reserved":false,"is_disabled":false,"rental_uris":{"android":"levelo://app?vid=51280948-6929-4970-8f5c-fa763833beff","ios":"levelo://app?vid=51280948-6929-4970-8f5c-fa763833beff"},"vehicle_type_id":"4","last_reported":1719418209,"current_range_meters":0,"station_id":"ce4bha12rcd13ifvqef0","pricing_plan_id":"cebpf4jnsgd1na2vs0mg"},{"bike_id":"863400d3-d370-4737-9053-167fc9892fe6","system_id":"levelo_inurba_marseille","lat":43.28033,"lon":5.36943,"is_reserved":false,"is_disabled":false,"rental_uris":{"android":"levelo://app?vid=863400d3-d370-4737-9053-167fc9892fe6","ios":"levelo://app?vid=863400d3-d370-4737-9053-167fc9892fe6"},"vehicle_type_id":"4","last_reported":1719418209,"current_range_meters":9200,"station_id":"ce4bha12rcd13ifvqef0","pricing_plan_id":"cebpf4jnsgd1na2vs0mg"},{"bike_id":"6158811d-f19e-406f-a3ef-905423a589bd","system_id":"levelo_inurba_marseille","lat":43.29041,"lon":5.399634,"is_reserved":false,"is_disabled":false,"rental_uris":{"android":"levelo://app?vid=6158811d-f19e-406f-a3ef-905423a589bd","ios":"levelo://app?vid=6158811d-f19e-406f-a3ef-905423a589bd"},"vehicle_type_id":"4","last_reported":1719418209,"current_range_meters":26000,"station_id":"ce4bh392rcd13ifvqdm0","pricing_plan_id":"cebpf4jnsgd1na2vs0mg"},{"bike_id":"f20481be-a45e-4a72-b4fb-9a285b937811","system_id":"levelo_inurba_marseille","lat":43.296235,"lon":5.405659,"is_reserved":false,"is_disabled":false,"rental_uris":{"android":"levelo://app?vid=f20481be-a45e-4a72-b4fb-9a285b937811","ios":"levelo://app?vid=f20481be-a45e-4a72-b4fb-9a285b937811"},"vehicle_type_id":"4","last_reported":1719418209,"current_range_meters":7200,"station_id":"ce4bh0h2rcd13ifvqd60","pricing_plan_id":"cebpf4jnsgd1na2vs0mg"},{"bike_id":"7bae9b08-df31-463a-985d-237a37e443df","system_id":"levelo_inurba_marseille","lat":43.29041,"lon":5.399634,"is_reserved":false,"is_disabled":false,"rental_uris":{"android":"levelo://app?vid=7bae9b08-df31-463a-985d-237a37e443df","ios":"levelo://app?vid=7bae9b08-df31-463a-985d-237a37e443df"},"vehicle_type_id":"4","last_reported":1719418209,"current_range_meters":2000,"station_id":"ce4bh392rcd13ifvqdm0","pricing_plan_id":"cebpf4jnsgd1na2vs0mg"},{"bike_id":"b156c31a-0bd9-44b6-9339-fd5e49fe953a","system_id":"levelo_inurba_marseille","lat":43.304188,"lon":5.412904,"is_reserved":false,"is_disabled":false,"rental_uris":{"android":"levelo://app?vid=b156c31a-0bd9-44b6-9339-fd5e49fe953a","ios":"levelo://app?vid=b156c31a-0bd9-44b6-9339-fd5e49fe953a"},"vehicle_type_id":"4","last_reported":1719418209,"current_range_meters":2800,"station_id":"ce4bhop2rcd13ifvqh8g","pricing_plan_id":"cebpf4jnsgd1na2vs0mg"},{"bike_id":"4a54f657-6406-4675-bae5-e34d0d16f105","system_id":"levelo_inurba_marseille","lat":43.281044,"lon":5.378308,"is_reserved":false,"is_disabled":false,"rental_uris":{"android":"levelo://app?vid=4a54f657-6406-4675-bae5-e34d0d16f105","ios":"levelo://app?vid=4a54f657-6406-4675-bae5-e34d0d16f105"},"vehicle_type_id":"4","last_reported":1719418209,"current_range_meters":0,"station_id":"ce4bha12rcd13ifvqee0","pricing_plan_id":"cebpf4jnsgd1na2vs0mg"},{"bike_id":"d0b75629-73f7-43b6-babf-f5e0bee56887","system_id":"levelo_inurba_marseille","lat":43.296263,"lon":5.40601,"is_reserved":false,"is_disabled":false,"rental_uris":{"android":"levelo://app?vid=d0b75629-73f7-43b6-babf-f5e0bee56887","ios":"levelo://app?vid=d0b75629-73f7-43b6-babf-f5e0bee56887"},"vehicle_type_id":"4","last_reported":1719418209,"current_range_meters":29600,"station_id":"ce4bh0h2rcd13ifvqd60","pricing_plan_id":"cebpf4jnsgd1na2vs0mg"},{"bike_id":"1734cf19-4cf2-4b6c-820e-6e9ee03c1b6c","system_id":"levelo_inurba_marseille","lat":43.296263,"lon":5.40601,"is_reserved":false,"is_disabled":false,"rental_uris":{"android":"levelo://app?vid=1734cf19-4cf2-4b6c-820e-6e9ee03c1b6c","ios":"levelo://app?vid=1734cf19-4cf2-4b6c-820e-6e9ee03c1b6c"},"vehicle_type_id":"4","last_reported":1719418209,"current_range_meters":8800,"station_id":"ce4bh0h2rcd13ifvqd60","pricing_plan_id":"cebpf4jnsgd1na2vs0mg"},{"bike_id":"665daef3-014b-4878-88b0-ef42278058cf","system_id":"levelo_inurba_marseille","lat":43.296263,"lon":5.40601,"is_reserved":false,"is_disabled":false,"rental_uris":{"android":"levelo://app?vid=665daef3-014b-4878-88b0-ef42278058cf","ios":"levelo://app?vid=665daef3-014b-4878-88b0-ef42278058cf"},"vehicle_type_id":"4","last_reported":1719418209,"current_range_meters":0,"station_id":"ce4bh0h2rcd13ifvqd60","pricing_plan_id":"cebpf4jnsgd1na2vs0mg"},{"bike_id":"da1a64cb-15a3-4add-81c5-3af41a67ae1c","system_id":"levelo_inurba_marseille","lat":43.284462,"lon":5.392121,"is_reserved":false,"is_disabled":false,"rental_uris":{"android":"levelo://app?vid=da1a64cb-15a3-4add-81c5-3af41a67ae1c","ios":"levelo://app?vid=da1a64cb-15a3-4add-81c5-3af41a67ae1c"},"vehicle_type_id":"4","last_reported":1719418209,"current_range_meters":1600,"station_id":"ce4bhoh2rcd13ifvqh5g","pricing_plan_id":"cebpf4jnsgd1na2vs0mg"},{"bike_id":"1596bc7a-a333-422e-9053-bd161e3d9132","system_id":"levelo_inurba_marseille","lat":43.28573,"lon":5.394992,"is_reserved":false,"is_disabled":false,"rental_uris":{"android":"levelo://app?vid=1596bc7a-a333-422e-9053-bd161e3d9132","ios":"levelo://app?vid=1596bc7a-a333-422e-9053-bd161e3d9132"},"vehicle_type_id":"4","last_reported":1719418209,"current_range_meters":25600,"station_id":"ce4bh292rcd13ifvqdg0","pricing_plan_id":"cebpf4jnsgd1na2vs0mg"},{"bike_id":"b939b291-0213-45b2-8d73-0c23c3d3550b","system_id":"levelo_inurba_marseille","lat":43.284462,"lon":5.392121,"is_reserved":false,"is_disabled":false,"rental_uris":{"android":"levelo://app?vid=b939b291-0213-45b2-8d73-0c23c3d3550b","ios":"levelo://app?vid=b939b291-0213-45b2-8d73-0c23c3d3550b"},"vehicle_type_id":"4","last_reported":1719418209,"current_range_meters":4000,"station_id":"ce4bhoh2rcd13ifvqh5g","pricing_plan_id":"cebpf4jnsgd1na2vs0mg"},{"bike_id":"debee612-cbf9-4901-8b62-f026960d58ff","system_id":"levelo_inurba_marseille","lat":43.304188,"lon":5.412904,"is_reserved":false,"is_disabled":false,"rental_uris":{"android":"levelo://app?vid=debee612-cbf9-4901-8b62-f026960d58ff","ios":"levelo://app?vid=debee612-cbf9-4901-8b62-f026960d58ff"},"vehicle_type_id":"4","last_reported":1719418209,"current_range_meters":4800,"station_id":"ce4bhop2rcd13ifvqh8g","pricing_plan_id":"cebpf4jnsgd1na2vs0mg"},{"bike_id":"166823ad-e73e-4c7b-bd4f-01d168e01ebf","system_id":"levelo_inurba_marseille","lat":43.304188,"lon":5.412904,"is_reserved":false,"is_disabled":false,"rental_uris":{"android":"levelo://app?vid=166823ad-e73e-4c7b-bd4f-01d168e01ebf","ios":"levelo://app?vid=166823ad-e73e-4c7b-bd4f-01d168e01ebf"},"vehicle_type_id":"4","last_reported":1719418209,"current_range_meters":2400,"station_id":"ce4bhop2rcd13ifvqh8g","pricing_plan_id":"cebpf4jnsgd1na2vs0mg"},{"bike_id":"fbe99d28-f31c-40b7-8b50-72bc2ff50faa","system_id":"levelo_inurba_marseille","lat":43.279087,"lon":5.380114,"is_reserved":false,"is_disabled":false,"rental_uris":{"android":"levelo://app?vid=fbe99d28-f31c-40b7-8b50-72bc2ff50faa","ios":"levelo://app?vid=fbe99d28-f31c-40b7-8b50-72bc2ff50faa"},"vehicle_type_id":"4","last_reported":1719418209,"current_range_meters":0,"station_id":"ce4bhf92rcd13ifvqf50","pricing_plan_id":"cebpf4jnsgd1na2vs0mg"},{"bike_id":"ff77e2a8-98aa-4f20-b391-7f559225a6b6","system_id":"levelo_inurba_marseille","lat":43.287154,"lon":5.399979,"is_reserved":false,"is_disabled":false,"rental_uris":{"android":"levelo://app?vid=ff77e2a8-98aa-4f20-b391-7f559225a6b6","ios":"levelo://app?vid=ff77e2a8-98aa-4f20-b391-7f559225a6b6"},"vehicle_type_id":"4","last_reported":1719418209,"current_range_meters":16400,"station_id":"ce4bho92rcd13ifvqh3g","pricing_plan_id":"cebpf4jnsgd1na2vs0mg"},{"bike_id":"c000d436-5591-43a7-bd34-f038b87b1412","system_id":"levelo_inurba_marseille","lat":43.28702,"lon":5.3999,"is_reserved":false,"is_disabled":false,"rental_uris":{"android":"levelo://app?vid=c000d436-5591-43a7-bd34-f038b87b1412","ios":"levelo://app?vid=c000d436-5591-43a7-bd34-f038b87b1412"},"vehicle_type_id":"4","last_reported":1719418209,"current_range_meters":0,"station_id":"ce4bho92rcd13ifvqh3g","pricing_plan_id":"cebpf4jnsgd1na2vs0mg"},{"bike_id":"2b3a7047-d4af-4137-8faf-349c4328e20d","system_id":"levelo_inurba_marseille","lat":43.299579,"lon":5.413255,"is_reserved":false,"is_disabled":false,"rental_uris":{"android":"levelo://app?vid=2b3a7047-d4af-4137-8faf-349c4328e20d","ios":"levelo://app?vid=2b3a7047-d4af-4137-8faf-349c4328e20d"},"vehicle_type_id":"4","last_reported":1719418209,"current_range_meters":0,"station_id":"ce4bhp12rcd13ifvqh9g","pricing_plan_id":"cebpf4jnsgd1na2vs0mg"},{"bike_id":"3491b74d-032c-4881-9511-ff93839614dd","system_id":"levelo_inurba_marseille","lat":43.279742,"lon":5.38744,"is_reserved":false,"is_disabled":false,"rental_uris":{"android":"levelo://app?vid=3491b74d-032c-4881-9511-ff93839614dd","ios":"levelo://app?vid=3491b74d-032c-4881-9511-ff93839614dd"},"vehicle_type_id":"4","last_reported":1719418209,"current_range_meters":0,"station_id":"ce4bhg12rcd13ifvqf80","pricing_plan_id":"cebpf4jnsgd1na2vs0mg"},{"bike_id":"f9f68edf-c723-4da7-a8b0-9faf0ee90f8c","system_id":"levelo_inurba_marseille","lat":43.27968,"lon":5.38735,"is_reserved":false,"is_disabled":false,"rental_uris":{"android":"levelo://app?vid=f9f68edf-c723-4da7-a8b0-9faf0ee90f8c","ios":"levelo://app?vid=f9f68edf-c723-4da7-a8b0-9faf0ee90f8c"},