{"last_updated":1731010156,"ttl":60,"version":"2.2","data":{"bikes":[{"bike_id":"41b901e5-6e6e-4573-b6d6-cb34b17a6d21","system_id":"levelo_inurba_marseille","lat":43.2893,"lon":5.38401,"is_reserved":false,"is_disabled":false,"rental_uris":{"android":"levelo://app?vid=41b901e5-6e6e-4573-b6d6-cb34b17a6d21","ios":"levelo://app?vid=41b901e5-6e6e-4573-b6d6-cb34b17a6d21"},"vehicle_type_id":"4","last_reported":1731010157,"current_range_meters":34000,"station_id":"ce4bh612rcd13ifvqe6g","pricing_plan_id":"cebpf4jnsgd1na2vs0mg"},{"bike_id":"a35bc0f5-e1de-4780-9c30-3d5f9603529a","system_id":"levelo_inurba_marseille","lat":43.23964,"lon":5.36622,"is_reserved":false,"is_disabled":false,"rental_uris":{"android":"levelo://app?vid=a35bc0f5-e1de-4780-9c30-3d5f9603529a","ios":"levelo://app?vid=a35bc0f5-e1de-4780-9c30-3d5f9603529a"},"vehicle_type_id":"4","last_reported":1731010157,"current_range_meters":33600,"station_id":"ce4bhi12rcd13ifvqfp0","pricing_plan_id":"cebpf4jnsgd1na2vs0mg"},{"bike_id":"d96608c4-583d-41f3-97f5-4c4bf41d32e6","system_id":"levelo_inurba_marseille","lat":43.29077,"lon":5.37164,"is_reserved":false,"is_disabled":false,"rental_uris":{"android":"levelo://app?vid=d96608c4-583d-41f3-97f5-4c4bf41d32e6","ios":"levelo://app?vid=d96608c4-583d-41f3-97f5-4c4bf41d32e6"},"vehicle_type_id":"4","last_reported":1731010157,"current_range_meters":38800,"station_id":"ce4bh5p2rcd13ifvqe4g","pricing_plan_id":"cebpf4jnsgd1na2vs0mg"},{"bike_id":"55cb1b5c-d167-4240-a3b1-5feec9b1b11f","system_id":"levelo_inurba_marseille","lat":43.30942,"lon":5.39008,"is_reserved":false,"is_disabled":false,"rental_uris":{"android":"levelo://app?vid=55cb1b5c-d167-4240-a3b1-5feec9b1b11f","ios":"levelo://app?vid=55cb1b5c-d167-4240-a3b1-5feec9b1b11f"},"vehicle_type_id":"4","last_reported":1731010157,"current_range_meters":36000,"station_id":"ce4bgup2rcd13ifvqco0","pricing_plan_id":"cebpf4jnsgd1na2vs0mg"},{"bike_id":"7f774ae5-6cb7-4c53-91e0-4e9519e7a5f3","system_id":"levelo_inurba_marseille","lat":43.3172,"lon":5.42387,"is_reserved":false,"is_disabled":false,"rental_uris":{"android":"levelo://app?vid=7f774ae5-6cb7-4c53-91e0-4e9519e7a5f3","ios":"levelo://app?vid=7f774ae5-6cb7-4c53-91e0-4e9519e7a5f3"},"vehicle_type_id":"4","last_reported":1731010157,"current_range_meters":34800,"station_id":"ce4bhp92rcd13ifvqhbg","pricing_plan_id":"cebpf4jnsgd1na2vs0mg"},{"bike_id":"d4947291-c9b6-4852-93dd-ff304d3405ed","system_id":"levelo_inurba_marseille","lat":43.28974,"lon":5.37836,"is_reserved":false,"is_disabled":false,"rental_uris":{"android":"levelo://app?vid=d4947291-c9b6-4852-93dd-ff304d3405ed","ios":"levelo://app?vid=d4947291-c9b6-4852-93dd-ff304d3405ed"},"vehicle_type_id":"4","last_reported":1731010157,"current_range_meters":38800,"station_id":"ce4bh9p2rcd13ifvqed0","pricing_plan_id":"cebpf4jnsgd1na2vs0mg"},{"bike_id":"5648f010-86c7-4ae4-bbb3-fc2fa2c2ca2d","system_id":"levelo_inurba_marseille","lat":43.30207,"lon":5.39467,"is_reserved":false,"is_disabled":false,"rental_uris":{"android":"levelo://app?vid=5648f010-86c7-4ae4-bbb3-fc2fa2c2ca2d","ios":"levelo://app?vid=5648f010-86c7-4ae4-bbb3-fc2fa2c2ca2d"},"vehicle_type_id":"4","last_reported":1731010157,"current_range_meters":38800,"station_id":"ce4bh0p2rcd13ifvqd70","pricing_plan_id":"cebpf4jnsgd1na2vs0mg"},{"bike_id":"4e2bf624-3094-4a12-982c-9efedbfe7b6e","system_id":"levelo_inurba_marseille","lat":43.31171,"lon":5.38709,"is_reserved":false,"is_disabled":false,"rental_uris":{"android":"levelo://app?vid=4e2bf624-3094-4a12-982c-9efedbfe7b6e","ios":"levelo://app?vid=4e2bf624-3094-4a12-982c-9efedbfe7b6e"},"vehicle_type_id":"4","last_reported":1731010157,"current_range_meters":12800,"station_id":"ce4bgv12rcd13ifvqcp0","pricing_plan_id":"cebpf4jnsgd1na2vs0mg"},{"bike_id":"23e65921-100e-4ead-8eb4-cf14e6ed6f70","system_id":"levelo_inurba_marseille","lat":43.31118,"lon":5.37769,"is_reserved":false,"is_disabled":false,"rental_uris":{"android":"levelo://app?vid=23e65921-100e-4ead-8eb4-cf14e6ed6f70","ios":"levelo://app?vid=23e65921-100e-4ead-8eb4-cf14e6ed6f70"},"vehicle_type_id":"4","last_reported":1731010157,"current_range_meters":29600,"station_id":"ce4bgt92rcd13ifvqcg0","pricing_plan_id":"cebpf4jnsgd1na2vs0mg"},{"bike_id":"40dd4257-d6e7-454b-ba60-8d003c5e1cfc","system_id":"levelo_inurba_marseille","lat":43.30888,"lon":5.39626,"is_reserved":false,"is_disabled":false,"rental_uris":{"android":"levelo://app?vid=40dd4257-d6e7-454b-ba60-8d003c5e1cfc","ios":"levelo://app?vid=40dd4257-d6e7-454b-ba60-8d003c5e1cfc"},"vehicle_type_id":"4","last_reported":1731010157,"current_range_meters":22000,"station_id":"ce4bh012rcd13ifvqcv0","pricing_plan_id":"cebpf4jnsgd1na2vs0mg"},{"bike_id":"89c11e47-eb77-42a5-aa57-76bb44ed2a42","system_id":"levelo_inurba_marseille","lat":43.29415,"lon":5.38621,"is_reserved":false,"is_disabled":false,"rental_uris":{"android":"levelo://app?vid=89c11e47-eb77-42a5-aa57-76bb44ed2a42","ios":"levelo://app?vid=89c11e47-eb77-42a5-aa57-76bb44ed2a42"},"vehicle_type_id":"4","last_reported":1731010157,"current_range_meters":4400,"station_id":"ce4bh2h2rcd13ifvqdh0","pricing_plan_id":"cebpf4jnsgd1na2vs0mg"},{"bike_id":"e3570efc-e935-45a5-b8d5-8484352f749e","system_id":"levelo_inurba_marseille","lat":43.29417,"lon":5.38618,"is_reserved":false,"is_disabled":false,"rental_uris":{"android":"levelo://app?vid=e3570efc-e935-45a5-b8d5-8484352f749e","ios":"levelo://app?vid=e3570efc-e935-45a5-b8d5-8484352f749e"},"vehicle_type_id":"4","last_reported":1731010157,"current_range_meters":19200,"station_id":"ce4bh2h2rcd13ifvqdh0","pricing_plan_id":"cebpf4jnsgd1na2vs0mg"},{"bike_id":"9cfbbf35-57e6-44b8-bdb5-b4feb1f5b4ce","system_id":"levelo_inurba_marseille","lat":43.3302,"lon":5.3904,"is_reserved":false,"is_disabled":false,"rental_uris":{"android":"levelo://app?vid=9cfbbf35-57e6-44b8-bdb5-b4feb1f5b4ce","ios":"levelo://app?vid=9cfbbf35-57e6-44b8-bdb5-b4feb1f5b4ce"},"vehicle_type_id":"4","last_reported":1731010157,"current_range_meters":4000,"station_id":"ce4bhr92rcd13ifvqhrg","pricing_plan_id":"cebpf4jnsgd1na2vs0mg"},{"bike_id":"6c83ff02-b003-425c-9abe-ef761ad5224c","system_id":"levelo_inurba_marseille","lat":43.30946,"lon":5.3903,"is_reserved":false,"is_disabled":false,"rental_uris":{"android":"levelo://app?vid=6c83ff02-b003-425c-9abe-ef761ad5224c","ios":"levelo://app?vid=6c83ff02-b003-425c-9abe-ef761ad5224c"},"vehicle_type_id":"4","last_reported":1731010157,"current_range_meters":6400,"station_id":"ce4bgup2rcd13ifvqco0","pricing_plan_id":"cebpf4jnsgd1na2vs0mg"},{"bike_id":"efb6c261-c5d9-48f9-a1c2-7076fea51111","system_id":"levelo_inurba_marseille","lat":43.29099,"lon":5.38139,"is_reserved":false,"is_disabled":false,"rental_uris":{"android":"levelo://app?vid=efb6c261-c5d9-48f9-a1c2-7076fea51111","ios":"levelo://app?vid=efb6c261-c5d9-48f9-a1c2-7076fea51111"},"vehicle_type_id":"4","last_reported":1731010157,"current_range_meters":38800,"station_id":"ce4bh512rcd13ifvqe2g","pricing_plan_id":"cebpf4jnsgd1na2vs0mg"},{"bike_id":"9376aae0-732a-4b6b-b0fd-e43a510090eb","system_id":"levelo_inurba_marseille","lat":43.31161,"lon":5.38716,"is_reserved":false,"is_disabled":false,"rental_uris":{"android":"levelo://app?vid=9376aae0-732a-4b6b-b0fd-e43a510090eb","ios":"levelo://app?vid=9376aae0-732a-4b6b-b0fd-e43a510090eb"},"vehicle_type_id":"4","last_reported":1731010157,"current_range_meters":2000,"station_id":"ce4bgv12rcd13ifvqcp0","pricing_plan_id":"cebpf4jnsgd1na2vs0mg"},{"bike_id":"c929586b-2c81-4dc1-ab6b-0154037f2a45","system_id":"levelo_inurba_marseille","lat":43.29192,"lon":5.39322,"is_reserved":false,"is_disabled":false,"rental_uris":{"android":"levelo://app?vid=c929586b-2c81-4dc1-ab6b-0154037f2a45","ios":"levelo://app?vid=c929586b-2c81-4dc1-ab6b-0154037f2a45"},"vehicle_type_id":"4","last_reported":1731010157,"current_range_meters":39200,"station_id":"ce4bh192rcd13ifvqdd0","pricing_plan_id":"cebpf4jnsgd1na2vs0mg"},{"bike_id":"ac1b3300-95a2-4810-8668-8a45f5a9cf48","system_id":"levelo_inurba_marseille","lat":43.26183,"lon":5.39707,"is_reserved":false,"is_disabled":false,"rental_uris":{"android":"levelo://app?vid=ac1b3300-95a2-4810-8668-8a45f5a9cf48","ios":"levelo://app?vid=ac1b3300-95a2-4810-8668-8a45f5a9cf48"},"vehicle_type_id":"4","last_reported":1731010157,"current_range_meters":10800,"station_id":"ce4bhl92rcd13ifvqghg","pricing_plan_id":"cebpf4jnsgd1na2vs0mg"},{"bike_id":"bcf5dad1-721a-4f4e-82b2-15a9cc44926f","system_id":"levelo_inurba_marseille","lat":43.33776,"lon":5.37438,"is_reserved":false,"is_disabled":false,"rental_uris":{"android":"levelo://app?vid=bcf5dad1-721a-4f4e-82b2-15a9cc44926f","ios":"levelo://app?vid=bcf5dad1-721a-4f4e-82b2-15a9cc44926f"},"vehicle_type_id":"4","last_reported":1731010157,"current_range_meters":34800,"station_id":"","pricing_plan_id":"cebpf4jnsgd1na2vs0mg"},{"bike_id":"00cbf6d0-0b9c-4198-9ba9-38e2e5f72e1d","system_id":"levelo_inurba_marseille","lat":43.28081,"lon":5.39661,"is_reserved":false,"is_disabled":false,"rental_uris":{"android":"levelo://app?vid=00cbf6d0-0b9c-4198-9ba9-38e2e5f72e1d","ios":"levelo://app?vid=00cbf6d0-0b9c-4198-9ba9-38e2e5f72e1d"},"vehicle_type_id":"4","last_reported":1731010157,"current_range_meters":39200,"station_id":"ce4bho12rcd13ifvqh2g","pricing_plan_id":"cebpf4jnsgd1na2vs0mg"},{"bike_id":"704142a8-56a8-4ad7-9294-4403ce35519b","system_id":"levelo_inurba_marseille","lat":43.29622,"lon":5.37155,"is_reserved":false,"is_disabled":false,"rental_uris":{"android":"levelo://app?vid=704142a8-56a8-4ad7-9294-4403ce35519b","ios":"levelo://app?vid=704142a8-56a8-4ad7-9294-4403ce35519b"},"vehicle_type_id":"4","last_reported":1731010157,"current_range_meters":38400,"station_id":"ce4bgnh2rcd13ifvqc0g","pricing_plan_id":"cebpf4jnsgd1na2vs0mg"},{"bike_id":"50df4800-213f-4faf-8df7-23477624ac32","system_id":"levelo_inurba_marseille","lat":43.27897,"lon":5.38003,"is_reserved":false,"is_disabled":false,"rental_uris":{"android":"levelo://app?vid=50df4800-213f-4faf-8df7-23477624ac32","ios":"levelo://app?vid=50df4800-213f-4faf-8df7-23477624ac32"},"vehicle_type_id":"4","last_reported":1731010157,"current_range_meters":39200,"station_id":"ce4bhf92rcd13ifvqf50","pricing_plan_id":"cebpf4jnsgd1na2vs0mg"},{"bike_id":"f00b8b7a-20f1-40a7-8dce-634caae61508","system_id":"levelo_inurba_marseille","lat":43.3035,"lon":5.41872,"is_reserved":false,"is_disabled":false,"rental_uris":{"android":"levelo://app?vid=f00b8b7a-20f1-40a7-8dce-634caae61508","ios":"levelo://app?vid=f00b8b7a-20f1-40a7-8dce-634caae61508"},"vehicle_type_id":"4","last_reported":1731010157,"current_range_meters":28000,"station_id":"ce4bhop2rcd13ifvqh7g","pricing_plan_id":"cebpf4jnsgd1na2vs0mg"},{"bike_id":"123f6207-e5f7-4a86-815d-3aa76283c5cb","system_id":"levelo_inurba_marseille","lat":43.28016,"lon":5.44227,"is_reserved":false,"is_disabled":false,"rental_uris":{"android":"levelo://app?vid=123f6207-e5f7-4a86-815d-3aa76283c5cb","ios":"levelo://app?vid=123f6207-e5f7-4a86-815d-3aa76283c5cb"},"vehicle_type_id":"4","last_reported":1731010157,"current_range_meters":11600,"station_id":"","pricing_plan_id":"cebpf4jnsgd1na2vs0mg"},{"bike_id":"e6e17729-cfe6-425c-920e-5c3e9a8c2687","system_id":"levelo_inurba_marseille","lat":43.27997,"lon":5.4001,"is_reserved":false,"is_disabled":false,"rental_uris":{"android":"levelo://app?vid=e6e17729-cfe6-425c-920e-5c3e9a8c2687","ios":"levelo://app?vid=e6e17729-cfe6-425c-920e-5c3e9a8c2687"},"vehicle_type_id":"4","last_reported":1731010157,"current_range_meters":6000,"station_id":"ce4bho92rcd13ifvqh4g","pricing_plan_id":"cebpf4jnsgd1na2vs0mg"},{"bike_id":"89d15e56-a2d2-4c88-8106-4528be1dfdba","system_id":"levelo_inurba_marseille","lat":43.29867,"lon":5.39728,"is_reserved":false,"is_disabled":false,"rental_uris":{"android":"levelo://app?vid=89d15e56-a2d2-4c88-8106-4528be1dfdba","ios":"levelo://app?vid=89d15e56-a2d2-4c88-8106-4528be1dfdba"},"vehicle_type_id":"4","last_reported":1731010157,"current_range_meters":37600,"station_id":"ce4bh0h2rcd13ifvqd50","pricing_plan_id":"cebpf4jnsgd1na2vs0mg"},{"bike_id":"4654c5d8-752f-4f4b-bf52-6ada77a502e7","system_id":"levelo_inurba_marseille","lat":43.24748,"lon":5.38142,"is_reserved":false,"is_disabled":false,"rental_uris":{"android":"levelo://app?vid=4654c5d8-752f-4f4b-bf52-6ada77a502e7","ios":"levelo://app?vid=4654c5d8-752f-4f4b-bf52-6ada77a502e7"},"vehicle_type_id":"4","last_reported":1731010157,"current_range_meters":28000,"station_id":"ce4bhlp2rcd13ifvqgjg","pricing_plan_id":"cebpf4jnsgd1na2vs0mg"},{"bike_id":"4b45fd59-8621-4186-95ee-ca077d308c62","system_id":"levelo_inurba_marseille","lat":43.304297,"lon":5.397403,"is_reserved":false,"is_disabled":false,"rental_uris":{"android":"levelo://app?vid=4b45fd59-8621-4186-95ee-ca077d308c62","ios":"levelo://app?vid=4b45fd59-8621-4186-95ee-ca077d308c62"},"vehicle_type_id":"4","last_reported":1731010157,"current_range_meters":36000,"station_id":"ce4bh012rcd13ifvqcv0","pricing_plan_id":"cebpf4jnsgd1na2vs0mg"},{"bike_id":"ff3d86de-5c8f-44df-8c76-d883f8fa9ba1","system_id":"levelo_inurba_marseille","lat":43.23179,"lon":5.39988,"is_reserved":false,"is_disabled":false,"rental_uris":{"android":"levelo://app?vid=ff3d86de-5c8f-44df-8c76-d883f8fa9ba1","ios":"levelo://app?vid=ff3d86de-5c8f-44df-8c76-d883f8fa9ba1"},"vehicle_type_id":"4","last_reported":1731010157,"current_range_meters":20000,"station_id":"ce4bhn12rcd13ifvqgqg","pricing_plan_id":"cebpf4jnsgd1na2vs0mg"},{"bike_id":"3232343b-b00a-47b1-9de8-95cc6580cbfa","system_id":"levelo_inurba_marseille","lat":43.2293,"lon":5.35376,"is_reserved":false,"is_disabled":false,"rental_uris":{"android":"levelo://app?vid=3232343b-b00a-47b1-9de8-95cc6580cbfa","ios":"levelo://app?vid=3232343b-b00a-47b1-9de8-95cc6580cbfa"},"vehicle_type_id":"4","last_reported":1731010157,"current_range_meters":29600,"station_id":"cpo3532slgdg3j2ikp40","pricing_plan_id":"cebpf4jnsgd1na2vs0mg"},{"bike_id":"8838674c-71ef-4915-9d5e-517d54e399ba","system_id":"levelo_inurba_marseille","lat":43.31712,"lon":5.37749,"is_reserved":false,"is_disabled":false,"rental_uris":{"android":"levelo://app?vid=8838674c-71ef-4915-9d5e-517d54e399ba","ios":"levelo://app?vid=8838674c-71ef-4915-9d5e-517d54e399ba"},"vehicle_type_id":"4","last_reported":1731010157,"current_range_meters":11200,"station_id":"ce4bgth2rcd13ifvqch0","pricing_plan_id":"cebpf4jnsgd1na2vs0mg"},{"bike_id":"30c122d9-3c8b-4500-b013-ed517a07df34","system_id":"levelo_inurba_marseille","lat":43.27914,"lon":5.39578,"is_reserved":false,"is_disabled":false,"rental_uris":{"android":"levelo://app?vid=30c122d9-3c8b-4500-b013-ed517a07df34","ios":"levelo://app?vid=30c122d9-3c8b-4500-b013-ed517a07df34"},"vehicle_type_id":"4","last_reported":1731010157,"current_range_meters":30400,"station_id":"ce4bhf92rcd13ifvqf40","pricing_plan_id":"cebpf4jnsgd1na2vs0mg"},{"bike_id":"72c658b7-e9b5-48f3-8a85-0c044f096792","system_id":"levelo_inurba_marseille","lat":43.29579,"lon":5.36732,"is_reserved":false,"is_disabled":false,"rental_uris":{"android":"levelo://app?vid=72c658b7-e9b5-48f3-8a85-0c044f096792","ios":"levelo://app?vid=72c658b7-e9b5-48f3-8a85-0c044f096792"},"vehicle_type_id":"4","last_reported":1731010157,"current_range_meters":28800,"station_id":"ce4bgph2rcd13ifvqc2g","pricing_plan_id":"cebpf4jnsgd1na2vs0mg"},{"bike_id":"d46fc949-017c-4337-a007-b5f9f19a0bfa","system_id":"levelo_inurba_marseille","lat":43.337444,"lon":5.374475,"is_reserved":false,"is_disabled":false,"rental_uris":{"android":"levelo://app?vid=d46fc949-017c-4337-a007-b5f9f19a0bfa","ios":"levelo://app?vid=d46fc949-017c-4337-a007-b5f9f19a0bfa"},"vehicle_type_id":"4","last_reported":1731010157,"current_range_meters":33200,"station_id":"","pricing_plan_id":"cebpf4jnsgd1na2vs0mg"},{"bike_id":"b856fee3-5c8e-425e-8bbb-320e2cda8238","system_id":"levelo_inurba_marseille","lat":43.31328,"lon":5.39694,"is_reserved":false,"is_disabled":false,"rental_uris":{"android":"levelo://app?vid=b856fee3-5c8e-425e-8bbb-320e2cda8238","ios":"levelo://app?vid=b856fee3-5c8e-425e-8bbb-320e2cda8238"},"vehicle_type_id":"4","last_reported":1731010157,"current_range_meters":38800,"station_id":"ce4bgvp2rcd13ifvqcu0","pricing_plan_id":"cebpf4jnsgd1na2vs0mg"},{"bike_id":"055ee07f-9744-4502-8bb1-b6708cfbb0cd","system_id":"levelo_inurba_marseille","lat":43.28712,"lon":5.37927,"is_reserved":false,"is_disabled":false,"rental_uris":{"android":"levelo://app?vid=055ee07f-9744-4502-8bb1-b6708cfbb0cd","ios":"levelo://app?vid=055ee07f-9744-4502-8bb1-b6708cfbb0cd"},"vehicle_type_id":"4","last_reported":1731010157,"current_range_meters":8000,"station_id":"ce4bh9p2rcd13ifvqec0","pricing_plan_id":"cebpf4jnsgd1na2vs0mg"},{"bike_id":"aad35a44-34ae-4441-83dc-9774611a838e","system_id":"levelo_inurba_marseille","lat":43.29563,"lon":5.39962,"is_reserved":false,"is_disabled":false,"rental_uris":{"android":"levelo://app?vid=aad35a44-34ae-4441-83dc-9774611a838e","ios":"levelo://app?vid=aad35a44-34ae-4441-83dc-9774611a838e"},"vehicle_type_id":"4","last_reported":1731010157,"current_range_meters":27600,"station_id":"ce4bh312rcd13ifvqdj0","pricing_plan_id":"cebpf4jnsgd1na2vs0mg"},{"bike_id":"d22a5075-cb9d-43bb-84a0-2513ed243a9c","system_id":"levelo_inurba_marseille","lat":43.27803,"lon":5.40707,"is_reserved":false,"is_disabled":false,"rental_uris":{"android":"levelo://app?vid=d22a5075-cb9d-43bb-84a0-2513ed243a9c","ios":"levelo://app?vid=d22a5075-cb9d-43bb-84a0-2513ed243a9c"},"vehicle_type_id":"4","last_reported":1731010157,"current_range_meters":35200,"station_id":"ce4bhnh2rcd13ifvqgtg","pricing_plan_id":"cebpf4jnsgd1na2vs0mg"},{"bike_id":"3e723fc4-8225-4299-918f-339c6c165ed5","system_id":"levelo_inurba_marseille","lat":43.279388,"lon":5.41044,"is_reserved":false,"is_disabled":false,"rental_uris":{"android":"levelo://app?vid=3e723fc4-8225-4299-918f-339c6c165ed5","ios":"levelo://app?vid=3e723fc4-8225-4299-918f-339c6c165ed5"},"vehicle_type_id":"4","last_reported":1731010157,"current_range_meters":7200,"station_id":"","pricing_plan_id":"cebpf4jnsgd1na2vs0mg"},{"bike_id":"7feae80f-14fc-4d7f-8d58-76f4309c7e1f","system_id":"levelo_inurba_marseille","lat":43.29572,"lon":5.39962,"is_reserved":false,"is_disabled":false,"rental_uris":{"android":"levelo://app?vid=7feae80f-14fc-4d7f-8d58-76f4309c7e1f","ios":"levelo://app?vid=7feae80f-14fc-4d7f-8d58-76f4309c7e1f"},"vehicle_type_id":"4","last_reported":1731010157,"current_range_meters":38800,"station_id":"ce4bh312rcd13ifvqdj0","pricing_plan_id":"cebpf4jnsgd1na2vs0mg"},{"bike_id":"fb9a4917-24cd-45ae-967d-97aed9b41d4d","system_id":"levelo_inurba_marseille","lat":43.31987,"lon":5.38134,"is_reserved":false,"is_disabled":false,"rental_uris":{"android":"levelo://app?vid=fb9a4917-24cd-45ae-967d-97aed9b41d4d","ios":"levelo://app?vid=fb9a4917-24cd-45ae-967d-97aed9b41d4d"},"vehicle_type_id":"4","last_reported":1731010157,"current_range_meters":29600,"station_id":"ce4bhr12rcd13ifvqhpg","pricing_plan_id":"cebpf4jnsgd1na2vs0mg"},{"bike_id":"b8fdd341-0697-41ca-82c9-e4253415f4e6","system_id":"levelo_inurba_marseille","lat":43.27492,"lon":5.42453,"is_reserved":false,"is_disabled":false,"rental_uris":{"android":"levelo://app?vid=b8fdd341-0697-41ca-82c9-e4253415f4e6","ios":"levelo://app?vid=b8fdd341-0697-41ca-82c9-e4253415f4e6"},"vehicle_type_id":"4","last_reported":1731010157,"current_range_meters":38800,"station_id":"ce4bhn92rcd13ifvqgrg","pricing_plan_id":"cebpf4jnsgd1na2vs0mg"},{"bike_id":"9b96d1a7-1bb0-4837-8ce5-5f6325109a7b","system_id":"levelo_inurba_marseille","lat":43.2318,"lon":5.39987,"is_reserved":false,"is_disabled":false,"rental_uris":{"android":"levelo://app?vid=9b96d1a7-1bb0-4837-8ce5-5f6325109a7b","ios":"levelo://app?vid=9b96d1a7-1bb0-4837-8ce5-5f6325109a7b"},"vehicle_type_id":"4","last_reported":1731010157,"current_range_meters":9200,"station_id":"ce4bhn12rcd13ifvqgqg","pricing_plan_id":"cebpf4jnsgd1na2vs0mg"},{"bike_id":"7148e5a3-e345-4df8-9602-6c428d6f2779","system_id":"levelo_inurba_marseille","lat":43.2667,"lon":5.40289,"is_reserved":false,"is_disabled":false,"rental_uris":{"android":"levelo://app?vid=7148e5a3-e345-4df8-9602-6c428d6f2779","ios":"levelo://app?vid=7148e5a3-e345-4df8-9602-6c428d6f2779"},"vehicle_type_id":"4","last_reported":1731010157,"current_range_meters":14400,"station_id":"","pricing_plan_id":"cebpf4jnsgd1na2vs0mg"},{"bike_id":"3c5eb033-d4c8-4599-9cb2-3cbc11befe15","system_id":"levelo_inurba_marseille","lat":43.27863,"lon":5.38039,"is_reserved":false,"is_disabled":false,"rental_uris":{"android":"levelo://app?vid=3c5eb033-d4c8-4599-9cb2-3cbc11befe15","ios":"levelo://app?vid=3c5eb033-d4c8-4599-9cb2-3cbc11befe15"},"vehicle_type_id":"4","last_reported":1731010157,"current_range_meters":2800,"station_id":"","pricing_plan_id":"cebpf4jnsgd1na2vs0mg"},{"bike_id":"14a66910-2e94-4fbc-860a-5889a2a2ac9a","system_id":"levelo_inurba_marseille","lat":43.27168,"lon":5.40988,"is_reserved":false,"is_disabled":false,"rental_uris":{"android":"levelo://app?vid=14a66910-2e94-4fbc-860a-5889a2a2ac9a","ios":"levelo://app?vid=14a66910-2e94-4fbc-860a-5889a2a2ac9a"},"vehicle_type_id":"4","last_reported":1731010157,"current_range_meters":34000,"station_id":"ce4bhl12rcd13ifvqgf0","pricing_plan_id":"cebpf4jnsgd1na2vs0mg"},{"bike_id":"de07c4a3-b2d7-41ca-81cd-912b8ec4830c","system_id":"levelo_inurba_marseille","lat":43.25722,"lon":5.41105,"is_reserved":false,"is_disabled":false,"rental_uris":{"android":"levelo://app?vid=de07c4a3-b2d7-41ca-81cd-912b8ec4830c","ios":"levelo://app?vid=de07c4a3-b2d7-41ca-81cd-912b8ec4830c"},"vehicle_type_id":"4","last_reported":1731010157,"current_range_meters":17200,"station_id":"ce4bhkp2rcd13ifvqgd0","pricing_plan_id":"cebpf4jnsgd1na2vs0mg"},{"bike_id":"dc1b2743-31f5-4beb-badc-27599fab1a00","system_id":"levelo_inurba_marseille","lat":43.31069,"lon":5.38353,"is_reserved":false,"is_disabled":false,"rental_uris":{"android":"levelo://app?vid=dc1b2743-31f5-4beb-badc-27599fab1a00","ios":"levelo://app?vid=dc1b2743-31f5-4beb-badc-27599fab1a00"},"vehicle_type_id":"4","last_reported":1731010157,"current_range_meters":27200,"station_id":"ce4bgv92rcd13ifvqcr0","pricing_plan_id":"cebpf4jnsgd1na2vs0mg"},{"bike_id":"42758877-c4e6-4f54-b67e-2527e84c4894","system_id":"levelo_inurba_marseille","lat":43.23191,"lon":5.39979,"is_reserved":false,"is_disabled":false,"rental_uris":{"android":"levelo://app?vid=42758877-c4e6-4f54-b67e-2527e84c4894","ios":"levelo://app?vid=42758877-c4e6-4f54-b67e-2527e84c4894"},"vehicle_type_id":"4","last_reported":1731010157,"current_range_meters":20000,"station_id":"ce4bhn12rcd13ifvqgqg","pricing_plan_id":"cebpf4jnsgd1na2vs0mg"},{"bike_id":"973dce11-2f40-4c59-94dd-16594fbc1da6","system_id":"levelo_inurba_marseille","lat":43.28444,"lon":5.39182,"is_reserved":false,"is_disabled":false,"rental_uris":{"android":"levelo://app?vid=973dce11-2f40-4c59-94dd-16594fbc1da6","ios":"levelo://app?vid=973dce11-2f40-4c59-94dd-16594fbc1da6"},"vehicle_type_id":"4","last_reported":1731010157,"current_range_meters":2000,"station_id":"ce4bhoh2rcd13ifvqh5g","pricing_plan_id":"cebpf4jnsgd1na2vs0mg"},{"bike_id":"9a154384-87ec-4d47-9093-6f8069746fd8","system_id":"levelo_inurba_marseille","lat":43.2849,"lon":5.38549,"is_reserved":false,"is_disabled":false,"rental_uris":{"android":"levelo://app?vid=9a154384-87ec-4d47-9093-6f8069746fd8","ios":"levelo://app?vid=9a154384-87ec-4d47-9093-6f8069746fd8"},"vehicle_type_id":"4","last_reported":1731010157,"current_range_meters":10000,"station_id":"ce4bh8p2rcd13ifvqeb0","pricing_plan_id":"cebpf4jnsgd1na2vs0mg"},{"bike_id":"d4d5c039-1142-4413-a3f4-c97fbd90d38b","system_id":"levelo_inurba_marseille","lat":43.31712,"lon":5.43705,"is_reserved":false,"is_disabled":false,"rental_uris":{"android":"levelo://app?vid=d4d5c039-1142-4413-a3f4-c97fbd90d38b","ios":"levelo://app?vid=d4d5c039-1142-4413-a3f4-c97fbd90d38b"},"vehicle_type_id":"4","last_reported":1731010157,"current_range_meters":8800,"station_id":"ce4bhp92rcd13ifvqhcg","pricing_plan_id":"cebpf4jnsgd1na2vs0mg"},{"bike_id":"a85f285b-8c19-4ed6-af81-44b5ac43acf9","system_id":"levelo_inurba_marseille","lat":43.3122,"lon":5.36853,"is_reserved":false,"is_disabled":false,"rental_uris":{"android":"levelo://app?vid=a85f285b-8c19-4ed6-af81-44b5ac43acf9","ios":"levelo://app?vid=a85f285b-8c19-4ed6-af81-44b5ac43acf9"},"vehicle_type_id":"4","last_reported":1731010157,"current_range_meters":32000,"station_id":"ce4bgl92rcd13ifvqbq0","pricing_plan_id":"cebpf4jnsgd1na2vs0mg"},{"bike_id":"96af24a7-9c6e-4e43-9718-e21c9845789c","system_id":"levelo_inurba_marseille","lat":43.28409,"lon":5.37507,"is_reserved":false,"is_disabled":false,"rental_uris":{"android":"levelo://app?vid=96af24a7-9c6e-4e43-9718-e21c9845789c","ios":"levelo://app?vid=96af24a7-9c6e-4e43-9718-e21c9845789c"},"vehicle_type_id":"4","last_reported":1731010157,"current_range_meters":38800,"station_id":"ce4bh412rcd13ifvqds0","pricing_plan_id":"cebpf4jnsgd1na2vs0mg"},{"bike_id":"6ee84fef-bc76-4b47-88f3-3c4344293f4b","system_id":"levelo_inurba_marseille","lat":43.31324,"lon":5.39683,"is_reserved":false,"is_disabled":false,"rental_uris":{"android":"levelo://app?vid=6ee84fef-bc76-4b47-88f3-3c4344293f4b","ios":"levelo://app?vid=6ee84fef-bc76-4b47-88f3-3c4344293f4b"},"vehicle_type_id":"4","last_reported":1731010157,"current_range_meters":22400,"station_id":"ce4bgvp2rcd13ifvqcu0","pricing_plan_id":"cebpf4jnsgd1na2vs0mg"},{"bike_id":"c54d8938-bd66-4746-8397-6468d0e45158","system_id":"levelo_inurba_marseille","lat":43.30798,"lon":5.43521,"is_reserved":false,"is_disabled":false,"rental_uris":{"android":"levelo://app?vid=c54d8938-bd66-4746-8397-6468d0e45158","ios":"levelo://app?vid=c54d8938-bd66-4746-8397-6468d0e45158"},"vehicle_type_id":"4","last_reported":1731010157,"current_range_meters":39200,"station_id":"ce4bhph2rcd13ifvqheg","pricing_plan_id":"cebpf4jnsgd1na2vs0mg"},{"bike_id":"95ac8b55-d461-4c79-bf07-3deece0b5544","system_id":"levelo_inurba_marseille","lat":43.337444,"lon":5.374475,"is_reserved":false,"is_disabled":false,"rental_uris":{"android":"levelo://app?vid=95ac8b55-d461-4c79-bf07-3deece0b5544","ios":"levelo://app?vid=95ac8b55-d461-4c79-bf07-3deece0b5544"},"vehicle_type_id":"4","last_reported":1731010157,"current_range_meters":36000,"station_id":"","pricing_plan_id":"cebpf4jnsgd1na2vs0mg"},{"bike_id":"b628361a-0730-4bd5-85eb-4a8bf5e79bc5","system_id":"levelo_inurba_marseille","lat":43.30461,"lon":5.37899,"is_reserved":false,"is_disabled":false,"rental_uris":{"android":"levelo://app?vid=b628361a-0730-4bd5-85eb-4a8bf5e79bc5","ios":"levelo://app?vid=b628361a-0730-4bd5-85eb-4a8bf5e79bc5"},"vehicle_type_id":"4","last_reported":1731010157,"current_range_meters":27200,"station_id":"ce4bgup2rcd13ifvqcn0","pricing_plan_id":"cebpf4jnsgd1na2vs0mg"},{"bike_id":"2e20f2a1-b564-48ea-877a-8fba77b4c953","system_id":"levelo_inurba_marseille","lat":43.22935,"lon":5.35378,"is_reserved":false,"is_disabled":false,"rental_uris":{"android":"levelo://app?vid=2e20f2a1-b564-48ea-877a-8fba77b4c953","ios":"levelo://app?vid=2e20f2a1-b564-48ea-877a-8fba77b4c953"},"vehicle_type_id":"4","last_reported":1731010157,"current_range_meters":35200,"station_id":"cpo3532slgdg3j2ikp40","pricing_plan_id":"cebpf4jnsgd1na2vs0mg"},{"bike_id":"9a656868-40ac-4cbb-a202-e4677612cbed","system_id":"levelo_inurba_marseille","lat":43.29297,"lon":5.3717,"is_reserved":false,"is_disabled":false,"rental_uris":{"android":"levelo://app?vid=9a656868-40ac-4cbb-a202-e4677612cbed","ios":"levelo://app?vid=9a656868-40ac-4cbb-a202-e4677612cbed"},"vehicle_type_id":"4","last_reported":1731010157,"current_range_meters":38800,"station_id":"ce4bgh92rcd13ifvqb40","pricing_plan_id":"cebpf4jnsgd1na2vs0mg"},{"bike_id":"a33de4ee-a3bf-4089-85aa-47e730f8c2c0","system_id":"levelo_inurba_marseille","lat":43.28266,"lon":5.35063,"is_reserved":false,"is_disabled":false,"rental_uris":{"android":"levelo://app?vid=a33de4ee-a3bf-4089-85aa-47e730f8c2c0","ios":"levelo://app?vid=a33de4ee-a3bf-4089-85aa-47e730f8c2c0"},"vehicle_type_id":"4","last_reported":1731010157,"current_range_meters":16000,"station_id":"ce4bhbp2rcd13ifvqerg","pricing_plan_id":"cebpf4jnsgd1na2vs0mg"},{"bike_id":"21cd2f46-7e50-4832-8919-1d871df023a1","system_id":"levelo_inurba_marseille","lat":43.28456,"lon":5.35882,"is_reserved":false,"is_disabled":false,"rental_uris":{"android":"levelo://app?vid=21cd2f46-7e50-4832-8919-1d871df023a1","ios":"levelo://app?vid=21cd2f46-7e50-4832-8919-1d871df023a1"},"vehicle_type_id":"4","last_reported":1731010157,"current_range_meters":33600,"station_id":"ce4bhah2rcd13ifvqei0","pricing_plan_id":"cebpf4jnsgd1na2vs0mg"},{"bike_id":"a5317aa5-9b24-4e08-b792-49a9aabb2f94","system_id":"levelo_inurba_marseille","lat":43.28425,"lon":5.39178,"is_reserved":false,"is_disabled":false,"rental_uris":{"android":"levelo://app?vid=a5317aa5-9b24-4e08-b792-49a9aabb2f94","ios":"levelo://app?vid=a5317aa5-9b24-4e08-b792-49a9aabb2f94"},"vehicle_type_id":"4","last_reported":1731010157,"current_range_meters":12400,"station_id":"ce4bhoh2rcd13ifvqh5g","pricing_plan_id":"cebpf4jnsgd1na2vs0mg"},{"bike_id":"f139c0b7-52a7-4153-bf41-ccb9fdb0faad","system_id":"levelo_inurba_marseille","lat":43.28731,"lon":5.36079,"is_reserved":false,"is_disabled":false,"rental_uris":{"android":"levelo://app?vid=f139c0b7-52a7-4153-bf41-ccb9fdb0faad","ios":"levelo://app?vid=f139c0b7-52a7-4153-bf41-ccb9fdb0faad"},"vehicle_type_id":"4","last_reported":1731010157,"current_range_meters":38800,"station_id":"cki0cbj6b192h4jlfktg","pricing_plan_id":"cebpf4jnsgd1na2vs0mg"},{"bike_id":"06624136-cb06-4e33-94b0-ea22add0287a","system_id":"levelo_inurba_marseille","lat":43.32034,"lon":5.41555,"is_reserved":false,"is_disabled":false,"rental_uris":{"android":"levelo://app?vid=06624136-cb06-4e33-94b0-ea22add0287a","ios":"levelo://app?vid=06624136-cb06-4e33-94b0-ea22add0287a"},"vehicle_type_id":"4","last_reported":1731010157,"current_range_meters":38400,"station_id":"ce4bhq92rcd13ifvqhkg","pricing_plan_id":"cebpf4jnsgd1na2vs0mg"},{"bike_id":"4ab5195d-86f1-45bb-a318-b19c0f6fdf4a","system_id":"levelo_inurba_marseille","lat":43.27069,"lon":5.42271,"is_reserved":false,"is_disabled":false,"rental_uris":{"android":"levelo://app?vid=4ab5195d-86f1-45bb-a318-b19c0f6fdf4a","ios":"levelo://app?vid=4ab5195d-86f1-45bb-a318-b19c0f6fdf4a"},"vehicle_type_id":"4","last_reported":1731010157,"current_range_meters":38000,"station_id":"ce4bhk92rcd13ifvqgb0","pricing_plan_id":"cebpf4jnsgd1na2vs0mg"},{"bike_id":"0acba3aa-d268-4ac7-831e-709a8ecc8570","system_id":"levelo_inurba_marseille","lat":43.30648,"lon":5.40077,"is_reserved":false,"is_disabled":false,"rental_uris":{"android":"levelo://app?vid=0acba3aa-d268-4ac7-831e-709a8ecc8570","ios":"levelo://app?vid=0acba3aa-d268-4ac7-831e-709a8ecc8570"},"vehicle_type_id":"4","last_reported":1731010157,"current_range_meters":10000,"station_id":"ce4bh112rcd13ifvqda0","pricing_plan_id":"cebpf4jnsgd1na2vs0mg"},{"bike_id":"03aac47a-870f-474f-98b2-53c038d2acf5","system_id":"levelo_inurba_marseille","lat":43.31763,"lon":5.39014,"is_reserved":false,"is_disabled":false,"rental_uris":{"android":"levelo://app?vid=03aac47a-870f-474f-98b2-53c038d2acf5","ios":"levelo://app?vid=03aac47a-870f-474f-98b2-53c038d2acf5"},"vehicle_type_id":"4","last_reported":1731010157,"current_range_meters":16400,"station_id":"ce4bhqp2rcd13ifvqhng","pricing_plan_id":"cebpf4jnsgd1na2vs0mg"},{"bike_id":"1835ded3-7a8c-4f45-8400-61d351942c91","system_id":"levelo_inurba_marseille","lat":43.308,"lon":5.38142,"is_reserved":false,"is_disabled":false,"rental_uris":{"android":"levelo://app?vid=1835ded3-7a8c-4f45-8400-61d351942c91","ios":"levelo://app?vid=1835ded3-7a8c-4f45-8400-61d351942c91"},"vehicle_type_id":"4","last_reported":1731010157,"current_range_meters":13600,"station_id":"ce4bgt12rcd13ifvqce0","pricing_plan_id":"cebpf4jnsgd1na2vs0mg"},{"bike_id":"746f8df5-cd38-4c92-9c55-a49257706bc6","system_id":"levelo_inurba_marseille","lat":43.31325,"lon":5.39694,"is_reserved":false,"is_disabled":false,"rental_uris":{"android":"levelo://app?vid=746f8df5-cd38-4c92-9c55-a49257706bc6","ios":"levelo://app?vid=746f8df5-cd38-4c92-9c55-a49257706bc6"},"vehicle_type_id":"4","last_reported":1731010157,"current_range_meters":40000,"station_id":"ce4bgvp2rcd13ifvqcu0","pricing_plan_id":"cebpf4jnsgd1na2vs0mg"},{"bike_id":"b52da1a9-e4d2-4561-bb34-6989d9ea44b8","system_id":"levelo_inurba_marseille","lat":43.29539,"lon":5.42281,"is_reserved":false,"is_disabled":false,"rental_uris":{"android":"levelo://app?vid=b52da1a9-e4d2-4561-bb34-6989d9ea44b8","ios":"levelo://app?vid=b52da1a9-e4d2-4561-bb34-6989d9ea44b8"},"vehicle_type_id":"4","last_reported":1731010157,"current_range_meters":36800,"station_id":"ce4bhph2rcd13ifvqhdg","pricing_plan_id":"cebpf4jnsgd1na2vs0mg"},{"bike_id":"bfa99726-44b9-4c05-aca4-317219070eb0","system_id":"levelo_inurba_marseille","lat":43.26477,"lon":5.39546,"is_reserved":false,"is_disabled":false,"rental_uris":{"android":"levelo://app?vid=bfa99726-44b9-4c05-aca4-317219070eb0","ios":"levelo://app?vid=bfa99726-44b9-4c05-aca4-317219070eb0"},"vehicle_type_id":"4","last_reported":1731010157,"current_range_meters":38800,"station_id":"ce4bhi12rcd13ifvqfq0","pricing_plan_id":"cebpf4jnsgd1na2vs0mg"},{"bike_id":"80d5c89e-745d-46d6-9ab9-4f5ea40b6def","system_id":"levelo_inurba_marseille","lat":43.27177,"lon":5.40992,"is_reserved":false,"is_disabled":false,"rental_uris":{"android":"levelo://app?vid=80d5c89e-745d-46d6-9ab9-4f5ea40b6def","ios":"levelo://app?vid=80d5c89e-745d-46d6-9ab9-4f5ea40b6def"},"vehicle_type_id":"4","last_reported":1731010157,"current_range_meters":14000,"station_id":"ce4bhl12rcd13ifvqgf0","pricing_plan_id":"cebpf4jnsgd1na2vs0mg"},{"bike_id":"a5eab15b-fd07-43d5-8df1-a2dbda32e0e1","system_id":"levelo_inurba_marseille","lat":43.31715,"lon":5.42404,"is_reserved":false,"is_disabled":false,"rental_uris":{"android":"levelo://app?vid=a5eab15b-fd07-43d5-8df1-a2dbda32e0e1","ios":"levelo://app?vid=a5eab15b-fd07-43d5-8df1-a2dbda32e0e1"},"vehicle_type_id":"4","last_reported":1731010157,"current_range_meters":2000,"station_id":"ce4bhp92rcd13ifvqhbg","pricing_plan_id":"cebpf4jnsgd1na2vs0mg"},{"bike_id":"ef288286-229d-4b9a-a189-8d61840dcffb","system_id":"levelo_inurba_marseille","lat":43.23197,"lon":5.35538,"is_reserved":false,"is_disabled":false,"rental_uris":{"android":"levelo://app?vid=ef288286-229d-4b9a-a189-8d61840dcffb","ios":"levelo://app?vid=ef288286-229d-4b9a-a189-8d61840dcffb"},"vehicle_type_id":"4","last_reported":1731010157,"current_range_meters":9200,"station_id":"ce4bhu92rcd13ifvqi70","pricing_plan_id":"cebpf4jnsgd1na2vs0mg"},{"bike_id":"b8d5eb92-e65b-43ff-8497-f0b1e9cf45b8","system_id":"levelo_inurba_marseille","lat":43.30955,"lon":5.39018,"is_reserved":false,"is_disabled":false,"rental_uris":{"android":"levelo://app?vid=b8d5eb92-e65b-43ff-8497-f0b1e9cf45b8","ios":"levelo://app?vid=b8d5eb92-e65b-43ff-8497-f0b1e9cf45b8"},"vehicle_type_id":"4","last_reported":1731010157,"current_range_meters":29600,"station_id":"ce4bgup2rcd13ifvqco0","pricing_plan_id":"cebpf4jnsgd1na2vs0mg"},{"bike_id":"9044ed43-de46-4645-b2ad-5e136647239a","system_id":"levelo_inurba_marseille","lat":43.337444,"lon":5.374475,"is_reserved":false,"is_disabled":false,"rental_uris":{"android":"levelo://app?vid=9044ed43-de46-4645-b2ad-5e136647239a","ios":"levelo://app?vid=9044ed43-de46-4645-b2ad-5e136647239a"},"vehicle_type_id":"4","last_reported":1731010157,"current_range_meters":35600,"station_id":"","pricing_plan_id":"cebpf4jnsgd1na2vs0mg"},{"bike_id":"0e2b7fe2-e116-40cc-a675-ef2c386223b4","system_id":"levelo_inurba_marseille","lat":43.26805,"lon":5.4026,"is_reserved":false,"is_disabled":false,"rental_uris":{"android":"levelo://app?vid=0e2b7fe2-e116-40cc-a675-ef2c386223b4","ios":"levelo://app?vid=0e2b7fe2-e116-40cc-a675-ef2c386223b4"},"vehicle_type_id":"4","last_reported":1731010157,"current_range_meters":9200,"station_id":"ce501612rcd8frsf0b60","pricing_plan_id":"cebpf4jnsgd1na2vs0mg"},{"bike_id":"cde33d01-4fdf-4588-9993-50576e545d63","system_id":"levelo_inurba_marseille","lat":43.29899,"lon":5.4365,"is_reserved":false,"is_disabled":false,"rental_uris":{"android":"levelo://app?vid=cde33d01-4fdf-4588-9993-50576e545d63","ios":"levelo://app?vid=cde33d01-4fdf-4588-9993-50576e545d63"},"vehicle_type_id":"4","last_reported":1731010157,"current_range_meters":32000,"station_id":"ce4bhpp2rcd13ifvqhfg","pricing_plan_id":"cebpf4jnsgd1na2vs0mg"},{"bike_id":"b4c52ca2-a0b3-468a-8831-acdb1b623697","system_id":"levelo_inurba_marseille","lat":43.2762,"lon":5.36109,"is_reserved":false,"is_disabled":false,"rental_uris":{"android":"levelo://app?vid=b4c52ca2-a0b3-468a-8831-acdb1b623697","ios":"levelo://app?vid=b4c52ca2-a0b3-468a-8831-acdb1b623697"},"vehicle_type_id":"4","last_reported":1731010157,"current_range_meters":8400,"station_id":"ce4bgj92rcd13ifvqbe0","pricing_plan_id":"cebpf4jnsgd1na2vs0mg"},{"bike_id":"84d60574-e97d-416a-bb69-40e9fb469182","system_id":"levelo_inurba_marseille","lat":43.22928,"lon":5.35377,"is_reserved":false,"is_disabled":false,"rental_uris":{"android":"levelo://app?vid=84d60574-e97d-416a-bb69-40e9fb469182","ios":"levelo://app?vid=84d60574-e97d-416a-bb69-40e9fb469182"},"vehicle_type_id":"4","last_reported":1731010157,"current_range_meters":40000,"station_id":"cpo3532slgdg3j2ikp40","pricing_plan_id":"cebpf4jnsgd1na2vs0mg"},{"bike_id":"500662de-b496-4d79-81fb-4de9303325e1","system_id":"levelo_inurba_marseille","lat":43.25867,"lon":5.39895,"is_reserved":false,"is_disabled":false,"rental_uris":{"android":"levelo://app?vid=500662de-b496-4d79-81fb-4de9303325e1","ios":"levelo://app?vid=500662de-b496-4d79-81fb-4de9303325e1"},"vehicle_type_id":"4","last_reported":1731010157,"current_range_meters":38800,"station_id":"ce4bhl92rcd13ifvqghg","pricing_plan_id":"cebpf4jnsgd1na2vs0mg"},{"bike_id":"d77f11fa-2f6b-422c-9039-da98424bc8d8","system_id":"levelo_inurba_marseille","lat":43.28706,"lon":5.39988,"is_reserved":false,"is_disabled":false,"rental_uris":{"android":"levelo://app?vid=d77f11fa-2f6b-422c-9039-da98424bc8d8","ios":"levelo://app?vid=d77f11fa-2f6b-422c-9039-da98424bc8d8"},"vehicle_type_id":"4","last_reported":1731010157,"current_range_meters":38800,"station_id":"ce4bho92rcd13ifvqh3g","pricing_plan_id":"cebpf4jnsgd1na2vs0mg"},{"bike_id":"cef4ba18-6b26-473a-a064-48d4678e3c78","system_id":"levelo_inurba_marseille","lat":43.29528,"lon":5.39397,"is_reserved":false,"is_disabled":false,"rental_uris":{"android":"levelo://app?vid=cef4ba18-6b26-473a-a064-48d4678e3c78","ios":"levelo://app?vid=cef4ba18-6b26-473a-a064-48d4678e3c78"},"vehicle_type_id":"4","last_reported":1731010157,"current_range_meters":38000,"station_id":"ce4bh292rcd13ifvqdf0","pricing_plan_id":"cebpf4jnsgd1na2vs0mg"},{"bike_id":"38c9c563-2dc8-4ec3-94f6-fd20caf6397c","system_id":"levelo_inurba_marseille","lat":43.28573,"lon":5.39499,"is_reserved":false,"is_disabled":false,"rental_uris":{"android":"levelo://app?vid=38c9c563-2dc8-4ec3-94f6-fd20caf6397c","ios":"levelo://app?vid=38c9c563-2dc8-4ec3-94f6-fd20caf6397c"},"vehicle_type_id":"4","last_reported":1731010157,"current_range_meters":39200,"station_id":"ce4bh292rcd13ifvqdg0","pricing_plan_id":"cebpf4jnsgd1na2vs0mg"},{"bike_id":"4eecdf01-2312-4036-b477-5b5650016af3","system_id":"levelo_inurba_marseille","lat":43.28348,"lon":5.38098,"is_reserved":false,"is_disabled":false,"rental_uris":{"android":"levelo://app?vid=4eecdf01-2312-4036-b477-5b5650016af3","ios":"levelo://app?vid=4eecdf01-2312-4036-b477-5b5650016af3"},"vehicle_type_id":"4","last_reported":1731010157,"current_range_meters":30800,"station_id":"ce4bh412rcd13ifvqdr0","pricing_plan_id":"cebpf4jnsgd1na2vs0mg"},{"bike_id":"a0b2c6a8-478f-4627-940b-49dabaf233e2","system_id":"levelo_inurba_marseille","lat":43.29187,"lon":5.39327,"is_reserved":false,"is_disabled":false,"rental_uris":{"android":"levelo://app?vid=a0b2c6a8-478f-4627-940b-49dabaf233e2","ios":"levelo://app?vid=a0b2c6a8-478f-4627-940b-49dabaf233e2"},"vehicle_type_id":"4","last_reported":1731010157,"current_range_meters":9200,"station_id":"ce4bh192rcd13ifvqdd0","pricing_plan_id":"cebpf4jnsgd1na2vs0mg"},{"bike_id":"b4fe880b-ea39-4cf1-bd26-55b3d43a96d2","system_id":"levelo_inurba_marseille","lat":43.25501,"lon":5.37647,"is_reserved":false,"is_disabled":false,"rental_uris":{"android":"levelo://app?vid=b4fe880b-ea39-4cf1-bd26-55b3d43a96d2","ios":"levelo://app?vid=b4fe880b-ea39-4cf1-bd26-55b3d43a96d2"},"vehicle_type_id":"4","last_reported":1731010157,"current_range_meters":35200,"station_id":"ce4bhh12rcd13ifvqff0","pricing_plan_id":"cebpf4jnsgd1na2vs0mg"},{"bike_id":"09cfd608-0b86-44c5-9610-2386498bbed1","system_id":"levelo_inurba_marseille","lat":43.30194,"lon":5.39456,"is_reserved":false,"is_disabled":false,"rental_uris":{"android":"levelo://app?vid=09cfd608-0b86-44c5-9610-2386498bbed1","ios":"levelo://app?vid=09cfd608-0b86-44c5-9610-2386498bbed1"},"vehicle_type_id":"4","last_reported":1731010157,"current_range_meters":38800,"station_id":"ce4bh0p2rcd13ifvqd70","pricing_plan_id":"cebpf4jnsgd1na2vs0mg"},{"bike_id":"e7cd005d-d362-4c36-a955-3c59f122a64d","system_id":"levelo_inurba_marseille","lat":43.28152,"lon":5.42639,"is_reserved":false,"is_disabled":false,"rental_uris":{"android":"levelo://app?vid=e7cd005d-d362-4c36-a955-3c59f122a64d","ios":"levelo://app?vid=e7cd005d-d362-4c36-a955-3c59f122a64d"},"vehicle_type_id":"4","last_reported":1731010157,"current_range_meters":27200,"station_id":"ce4bhnh2rcd13ifvqgug","pricing_plan_id":"cebpf4jnsgd1na2vs0mg"},{"bike_id":"8076f17f-f351-4de2-a510-77d522922526","system_id":"levelo_inurba_marseille","lat":43.25108,"lon":5.40316,"is_reserved":false,"is_disabled":false,"rental_uris":{"android":"levelo://app?vid=8076f17f-f351-4de2-a510-77d522922526","ios":"levelo://app?vid=8076f17f-f351-4de2-a510-77d522922526"},"vehicle_type_id":"4","last_reported":1731010157,"current_range_meters":24000,"station_id":"ce4bhlh2rcd13ifvqgig","pricing_plan_id":"cebpf4jnsgd1na2vs0mg"},{"bike_id":"86df6946-1e8b-4481-962b-4975b4baf575","system_id":"levelo_inurba_marseille","lat":43.27911,"lon":5.39586,"is_reserved":false,"is_disabled":false,"rental_uris":{"android":"levelo://app?vid=86df6946-1e8b-4481-962b-4975b4baf575","ios":"levelo://app?vid=86df6946-1e8b-4481-962b-4975b4baf575"},"vehicle_type_id":"4","last_reported":1731010157,"current_range_meters":25600,"station_id":"ce4bhf92rcd13ifvqf40","pricing_plan_id":"cebpf4jnsgd1na2vs0mg"},{"bike_id":"ca962693-2895-4340-9047-baf52dc420f0","system_id":"levelo_inurba_marseille","lat":43.29802,"lon":5.40417,"is_reserved":false,"is_disabled":false,"rental_uris":{"android":"levelo://app?vid=ca962693-2895-4340-9047-baf52dc420f0","ios":"levelo://app?vid=ca962693-2895-4340-9047-baf52dc420f0"},"vehicle_type_id":"4","last_reported":1731010157,"current_range_meters":38800,"station_id":"ce4bh112rcd13ifvqd90","pricing_plan_id":"cebpf4jnsgd1na2vs0mg"},{"bike_id":"90d33b3e-223d-4c24-a613-66023cfbca99","system_id":"levelo_inurba_marseille","lat":43.3046,"lon":5.37892,"is_reserved":false,"is_disabled":false,"rental_uris":{"android":"levelo://app?vid=90d33b3e-223d-4c24-a613-66023cfbca99","ios":"levelo://app?vid=90d33b3e-223d-4c24-a613-66023cfbca99"},"vehicle_type_id":"4","last_reported":1731010157,"current_range_meters":2800,"station_id":"ce4bgup2rcd13ifvqcn0","pricing_plan_id":"cebpf4jnsgd1na2vs0mg"},{"bike_id":"ecde584f-5379-4d17-af3f-ba7114b2c649","system_id":"levelo_inurba_marseille","lat":43.26047,"lon":5.39385,"is_reserved":false,"is_disabled":false,"rental_uris":{"android":"levelo://app?vid=ecde584f-5379-4d17-af3f-ba7114b2c649","ios":"levelo://app?vid=ecde584f-5379-4d17-af3f-ba7114b2c649"},"vehicle_type_id":"4","last_reported":1731010157,"current_range_meters":38800,"station_id":"ce4bhh92rcd13ifvqfj0","pricing_plan_id":"cebpf4jnsgd1na2vs0mg"},{"bike_id":"d9f62232-bf1d-4648-a44d-0d8f902be5a7","system_id":"levelo_inurba_marseille","lat":43.27617,"lon":5.42643,"is_reserved":false,"is_disabled":false,"rental_uris":{"android":"levelo://app?vid=d9f62232-bf1d-4648-a44d-0d8f902be5a7","ios":"levelo://app?vid=d9f62232-bf1d-4648-a44d-0d8f902be5a7"},"vehicle_type_id":"4","last_reported":1731010157,"current_range_meters":14800,"station_id":"","pricing_plan_id":"cebpf4jnsgd1na2vs0mg"},{"bike_id":"5f5fed70-1a16-4a51-9daa-ef868c6df0d0","system_id":"levelo_inurba_marseille","lat":43.23955,"lon":5.36635,"is_reserved":false,"is_disabled":false,"rental_uris":{"android":"levelo://app?vid=5f5fed70-1a16-4a51-9daa-ef868c6df0d0","ios":"levelo://app?vid=5f5fed70-1a16-4a51-9daa-ef868c6df0d0"},"vehicle_type_id":"4","last_reported":1731010157,"current_range_meters":18000,"station_id":"ce4bhi12rcd13ifvqfp0","pricing_plan_id":"cebpf4jnsgd1na2vs0mg"},{"bike_id":"6c04de54-8dbd-4e1b-8912-9143e705093a","system_id":"levelo_inurba_marseille","lat":43.28302,"lon":5.36088,"is_reserved":false,"is_disabled":false,"rental_uris":{"android":"levelo://app?vid=6c04de54-8dbd-4e1b-8912-9143e705093a","ios":"levelo://app?vid=6c04de54-8dbd-4e1b-8912-9143e705093a"},"vehicle_type_id":"4","last_reported":1731010157,"current_range_meters":22800,"station_id":"","pricing_plan_id":"cebpf4jnsgd1na2vs0mg"},{"bike_id":"67678471-8900-40c3-b5bb-806b24feb686","system_id":"levelo_inurba_marseille","lat":43.31327,"lon":5.39688,"is_reserved":false,"is_disabled":false,"rental_uris":{"android":"levelo://app?vid=67678471-8900-40c3-b5bb-806b24feb686","ios":"levelo://app?vid=67678471-8900-40c3-b5bb-806b24feb686"},"vehicle_type_id":"4","last_reported":1731010157,"current_range_meters":26800,"station_id":"ce4bgvp2rcd13ifvqcu0","pricing_plan_id":"cebpf4jnsgd1na2vs0mg"},{"bike_id":"56f25a01-e9b4-4614-888c-cf6de6b16e2a","system_id":"levelo_inurba_marseille","lat":43.31711,"lon":5.37747,"is_reserved":false,"is_disabled":false,"rental_uris":{"android":"levelo://app?vid=56f25a01-e9b4-4614-888c-cf6de6b16e2a","ios":"levelo://app?vid=56f25a01-e9b4-4614-888c-cf6de6b16e2a"},"vehicle_type_id":"4","last_reported":1731010157,"current_range_meters":16800,"station_id":"ce4bgth2rcd13ifvqch0","pricing_plan_id":"cebpf4jnsgd1na2vs0mg"},{"bike_id":"65eea0cd-2ca5-4855-b964-b026702e1d71","system_id":"levelo_inurba_marseille","lat":43.27922,"lon":5.39583,"is_reserved":false,"is_disabled":false,"rental_uris":{"android":"levelo://app?vid=65eea0cd-2ca5-4855-b964-b026702e1d71","ios":"levelo://app?vid=65eea0cd-2ca5-4855-b964-b026702e1d71"},"vehicle_type_id":"4","last_reported":1731010157,"current_range_meters":22400,"station_id":"ce4bhf92rcd13ifvqf40","pricing_plan_id":"cebpf4jnsgd1na2vs0mg"},{"bike_id":"543afa15-d496-41e7-8907-f8db45558c2e","system_id":"levelo_inurba_marseille","lat":43.29789,"lon":5.39346,"is_reserved":false,"is_disabled":false,"rental_uris":{"android":"levelo://app?vid=543afa15-d496-41e7-8907-f8db45558c2e","ios":"levelo://app?vid=543afa15-d496-41e7-8907-f8db45558c2e"},"vehicle_type_id":"4","last_reported":1731010157,"current_range_meters":9200,"station_id":"chh1huq6cuj3fo74tm60","pricing_plan_id":"cebpf4jnsgd1na2vs0mg"},{"bike_id":"c70f3a51-3c77-47f4-afdc-c467e625745f","system_id":"levelo_inurba_marseille","lat":43.28112,"lon":5.3821,"is_reserved":false,"is_disabled":false,"rental_uris":{"android":"levelo://app?vid=c70f3a51-3c77-47f4-afdc-c467e625745f","ios":"levelo://app?vid=c70f3a51-3c77-47f4-afdc-c467e625745f"},"vehicle_type_id":"4","last_reported":1731010157,"current_range_meters":26800,"station_id":"","pricing_plan_id":"cebpf4jnsgd1na2vs0mg"},{"bike_id":"01ca18e2-c792-4842-b02f-e362a735b596","system_id":"levelo_inurba_marseille","lat":43.29026,"lon":5.38644,"is_reserved":false,"is_disabled":false,"rental_uris":{"android":"levelo://app?vid=01ca18e2-c792-4842-b02f-e362a735b596","ios":"levelo://app?vid=01ca18e2-c792-4842-b02f-e362a735b596"},"vehicle_type_id":"4","last_reported":1731010157,"current_range_meters":10000,"station_id":"ce4bh4p2rcd13ifvqe0g","pricing_plan_id":"cebpf4jnsgd1na2vs0mg"},{"bike_id":"d6fdae69-642e-4d84-a8fd-edeb75ed0ef4","system_id":"levelo_inurba_marseille","lat":43.22925,"lon":5.35377,"is_reserved":false,"is_disabled":false,"rental_uris":{"android":"levelo://app?vid=d6fdae69-642e-4d84-a8fd-edeb75ed0ef4","ios":"levelo://app?vid=d6fdae69-642e-4d84-a8fd-edeb75ed0ef4"},"vehicle_type_id":"4","last_reported":1731010157,"current_range_meters":26800,"station_id":"cpo3532slgdg3j2ikp40","pricing_plan_id":"cebpf4jnsgd1na2vs0mg"},{"bike_id":"750e93d0-01f1-496d-93b1-920137237eef","system_id":"levelo_inurba_marseille","lat":43.31173,"lon":5.38712,"is_reserved":false,"is_disabled":false,"rental_uris":{"android":"levelo://app?vid=750e93d0-01f1-496d-93b1-920137237eef","ios":"levelo://app?vid=750e93d0-01f1-496d-93b1-920137237eef"},"vehicle_type_id":"4","last_reported":1731010157,"current_range_meters":38800,"station_id":"ce4bgv12rcd13ifvqcp0","pricing_plan_id":"cebpf4jnsgd1na2vs0mg"},{"bike_id":"183c50e1-dbbb-4a7f-9574-fb93083badb0","system_id":"levelo_inurba_marseille","lat":43.290024,"lon":5.381386,"is_reserved":false,"is_disabled":false,"rental_uris":{"android":"levelo://app?vid=183c50e1-dbbb-4a7f-9574-fb93083badb0","ios":"levelo://app?vid=183c50e1-dbbb-4a7f-9574-fb93083badb0"},"vehicle_type_id":"4","last_reported":1731010157,"current_range_meters":16400,"station_id":"ce4bh4p2rcd13ifvqe1g","pricing_plan_id":"cebpf4jnsgd1na2vs0mg"},{"bike_id":"b6f0aee3-ea07-4a39-96df-0eabe4095941","system_id":"levelo_inurba_marseille","lat":43.31225,"lon":5.36853,"is_reserved":false,"is_disabled":false,"rental_uris":{"android":"levelo://app?vid=b6f0aee3-ea07-4a39-96df-0eabe4095941","ios":"levelo://app?vid=b6f0aee3-ea07-4a39-96df-0eabe4095941"},"vehicle_type_id":"4","last_reported":1731010157,"current_range_meters":30400,"station_id":"ce4bgl92rcd13ifvqbq0","pricing_plan_id":"cebpf4jnsgd1na2vs0mg"},{"bike_id":"04f61d43-77d9-4b29-aa44-71c6fe78b7ef","system_id":"levelo_inurba_marseille","lat":43.28573,"lon":5.3949,"is_reserved":false,"is_disabled":false,"rental_uris":{"android":"levelo://app?vid=04f61d43-77d9-4b29-aa44-71c6fe78b7ef","ios":"levelo://app?vid=04f61d43-77d9-4b29-aa44-71c6fe78b7ef"},"vehicle_type_id":"4","last_reported":1731010157,"current_range_meters":16000,"station_id":"ce4bh292rcd13ifvqdg0","pricing_plan_id":"cebpf4jnsgd1na2vs0mg"},{"bike_id":"f514e9d2-622e-4f9c-8674-304ce0e33a58","system_id":"levelo_inurba_marseille","lat":43.28096,"lon":5.37843,"is_reserved":false,"is_disabled":false,"rental_uris":{"android":"levelo://app?vid=f514e9d2-622e-4f9c-8674-304ce0e33a58","ios":"levelo://app?vid=f514e9d2-622e-4f9c-8674-304ce0e33a58"},"vehicle_type_id":"4","last_reported":1731010157,"current_range_meters":39200,"station_id":"ce4bha12rcd13ifvqee0","pricing_plan_id":"cebpf4jnsgd1na2vs0mg"},{"bike_id":"001b7c42-40a7-47a9-927f-6c03197892aa","system_id":"levelo_inurba_marseille","lat":43.33717,"lon":5.39169,"is_reserved":false,"is_disabled":false,"rental_uris":{"android":"levelo://app?vid=001b7c42-40a7-47a9-927f-6c03197892aa","ios":"levelo://app?vid=001b7c42-40a7-47a9-927f-6c03197892aa"},"vehicle_type_id":"4","last_reported":1731010157,"current_range_meters":38800,"station_id":"ce4bhr92rcd13ifvqhsg","pricing_plan_id":"cebpf4jnsgd1na2vs0mg"},{"bike_id":"123ba1a2-baad-4b61-b134-9759f3649988","system_id":"levelo_inurba_marseille","lat":43.2957,"lon":5.39973,"is_reserved":false,"is_disabled":false,"rental_uris":{"android":"levelo://app?vid=123ba1a2-baad-4b61-b134-9759f3649988","ios":"levelo://app?vid=123ba1a2-baad-4b61-b134-9759f3649988"},"vehicle_type_id":"4","last_reported":1731010157,"current_range_meters":38800,"station_id":"ce4bh312rcd13ifvqdj0","pricing_plan_id":"cebpf4jnsgd1na2vs0mg"},{"bike_id":"80f88f91-d648-453a-88b2-cfa7d57ba25b","system_id":"levelo_inurba_marseille","lat":43.26505,"lon":5.40905,"is_reserved":false,"is_disabled":false,"rental_uris":{"android":"levelo://app?vid=80f88f91-d648-453a-88b2-cfa7d57ba25b","ios":"levelo://app?vid=80f88f91-d648-453a-88b2-cfa7d57ba25b"},"vehicle_type_id":"4","last_reported":1731010157,"current_range_meters":36800,"station_id":"ce4bhn12rcd13ifvqgqg","pricing_plan_id":"cebpf4jnsgd1na2vs0mg"},{"bike_id":"d45628f9-b0bb-4e9b-addd-9b627203addd","system_id":"levelo_inurba_marseille","lat":43.2843,"lon":5.39182,"is_reserved":false,"is_disabled":false,"rental_uris":{"android":"levelo://app?vid=d45628f9-b0bb-4e9b-addd-9b627203addd","ios":"levelo://app?vid=d45628f9-b0bb-4e9b-addd-9b627203addd"},"vehicle_type_id":"4","last_reported":1731010157,"current_range_meters":22800,"station_id":"ce4bhoh2rcd13ifvqh5g","pricing_plan_id":"cebpf4jnsgd1na2vs0mg"},{"bike_id":"761d0bbe-1bdc-4a97-a6b1-543c37308b0b","system_id":"levelo_inurba_marseille","lat":43.29414,"lon":5.38631,"is_reserved":false,"is_disabled":false,"rental_uris":{"android":"levelo://app?vid=761d0bbe-1bdc-4a97-a6b1-543c37308b0b","ios":"levelo://app?vid=761d0bbe-1bdc-4a97-a6b1-543c37308b0b"},"vehicle_type_id":"4","last_reported":1731010157,"current_range_meters":11600,"station_id":"ce4bh2h2rcd13ifvqdh0","pricing_plan_id":"cebpf4jnsgd1na2vs0mg"},{"bike_id":"9178d598-d5de-4d5c-85ae-0efa9377149a","system_id":"levelo_inurba_marseille","lat":43.23181,"lon":5.39975,"is_reserved":false,"is_disabled":false,"rental_uris":{"android":"levelo://app?vid=9178d598-d5de-4d5c-85ae-0efa9377149a","ios":"levelo://app?vid=9178d598-d5de-4d5c-85ae-0efa9377149a"},"vehicle_type_id":"4","last_reported":1731010157,"current_range_meters":19600,"station_id":"ce4bhn12rcd13ifvqgqg","pricing_plan_id":"cebpf4jnsgd1na2vs0mg"},{"bike_id":"48742f64-e858-4fb2-8692-be25629b4a9d","system_id":"levelo_inurba_marseille","lat":43.30781,"lon":5.3765,"is_reserved":false,"is_disabled":false,"rental_uris":{"android":"levelo://app?vid=48742f64-e858-4fb2-8692-be25629b4a9d","ios":"levelo://app?vid=48742f64-e858-4fb2-8692-be25629b4a9d"},"vehicle_type_id":"4","last_reported":1731010157,"current_range_meters":36400,"station_id":"ce4bgv92rcd13ifvqcq0","pricing_plan_id":"cebpf4jnsgd1na2vs0mg"},{"bike_id":"0f6720d0-0074-4d75-8954-368ef2125385","system_id":"levelo_inurba_marseille","lat":43.31725,"lon":5.37742,"is_reserved":false,"is_disabled":false,"rental_uris":{"android":"levelo://app?vid=0f6720d0-0074-4d75-8954-368ef2125385","ios":"levelo://app?vid=0f6720d0-0074-4d75-8954-368ef2125385"},"vehicle_type_id":"4","last_reported":1731010157,"current_range_meters":34800,"station_id":"ce4bgth2rcd13ifvqch0","pricing_plan_id":"cebpf4jnsgd1na2vs0mg"},{"bike_id":"cb300f83-c24b-4307-9f12-6424f075e412","system_id":"levelo_inurba_marseille","lat":43.30074,"lon":5.37622,"is_reserved":false,"is_disabled":false,"rental_uris":{"android":"levelo://app?vid=cb300f83-c24b-4307-9f12-6424f075e412","ios":"levelo://app?vid=cb300f83-c24b-4307-9f12-6424f075e412"},"vehicle_type_id":"4","last_reported":1731010157,"current_range_meters":17600,"station_id":"ce4bgs92rcd13ifvqcc0","pricing_plan_id":"cebpf4jnsgd1na2vs0mg"},{"bike_id":"fdf26527-6c0f-4b2a-b565-d41399ed3242","system_id":"levelo_inurba_marseille","lat":43.31538,"lon":5.38027,"is_reserved":false,"is_disabled":false,"rental_uris":{"android":"levelo://app?vid=fdf26527-6c0f-4b2a-b565-d41399ed3242","ios":"levelo://app?vid=fdf26527-6c0f-4b2a-b565-d41399ed3242"},"vehicle_type_id":"4","last_reported":1731010157,"current_range_meters":4000,"station_id":"ce4bhsp2rcd13ifvqi50","pricing_plan_id":"cebpf4jnsgd1na2vs0mg"},{"bike_id":"0d6fd0c4-c1ea-494c-8ca1-cf1730b804a2","system_id":"levelo_inurba_marseille","lat":43.27498,"lon":5.42456,"is_reserved":false,"is_disabled":false,"rental_uris":{"android":"levelo://app?vid=0d6fd0c4-c1ea-494c-8ca1-cf1730b804a2","ios":"levelo://app?vid=0d6fd0c4-c1ea-494c-8ca1-cf1730b804a2"},"vehicle_type_id":"4","last_reported":1731010157,"current_range_meters":32800,"station_id":"ce4bhn92rcd13ifvqgrg","pricing_plan_id":"cebpf4jnsgd1na2vs0mg"},{"bike_id":"61c2e5eb-d7cc-46d2-bd4f-f803061d8cb6","system_id":"levelo_inurba_marseille","lat":43.30885,"lon":5.39629,"is_reserved":false,"is_disabled":false,"rental_uris":{"android":"levelo://app?vid=61c2e5eb-d7cc-46d2-bd4f-f803061d8cb6","ios":"levelo://app?vid=61c2e5eb-d7cc-46d2-bd4f-f803061d8cb6"},"vehicle_type_id":"4","last_reported":1731010157,"current_range_meters":24400,"station_id":"ce4bh012rcd13ifvqcv0","pricing_plan_id":"cebpf4jnsgd1na2vs0mg"},{"bike_id":"c9e13d95-f398-4116-bddd-1e4a516b34dd","system_id":"levelo_inurba_marseille","lat":43.29,"lon":5.35602,"is_reserved":false,"is_disabled":false,"rental_uris":{"android":"levelo://app?vid=c9e13d95-f398-4116-bddd-1e4a516b34dd","ios":"levelo://app?vid=c9e13d95-f398-4116-bddd-1e4a516b34dd"},"vehicle_type_id":"4","last_reported":1731010157,"current_range_meters":3600,"station_id":"ce4bhb92rcd13ifvqen0","pricing_plan_id":"cebpf4jnsgd1na2vs0mg"},{"bike_id":"0993ae53-b33b-4ec0-8420-6942bdb9eb84","system_id":"levelo_inurba_marseille","lat":43.30791,"lon":5.43509,"is_reserved":false,"is_disabled":false,"rental_uris":{"android":"levelo://app?vid=0993ae53-b33b-4ec0-8420-6942bdb9eb84","ios":"levelo://app?vid=0993ae53-b33b-4ec0-8420-6942bdb9eb84"},"vehicle_type_id":"4","last_reported":1731010157,"current_range_meters":39200,"station_id":"ce4bhph2rcd13ifvqheg","pricing_plan_id":"cebpf4jnsgd1na2vs0mg"},{"bike_id":"f4675348-4353-44d2-9731-5d9ce4545678","system_id":"levelo_inurba_marseille","lat":43.30966,"lon":5.39061,"is_reserved":false,"is_disabled":false,"rental_uris":{"android":"levelo://app?vid=f4675348-4353-44d2-9731-5d9ce4545678","ios":"levelo://app?vid=f4675348-4353-44d2-9731-5d9ce4545678"},"vehicle_type_id":"4","last_reported":1731010157,"current_range_meters":38800,"station_id":"ce4bgup2rcd13ifvqco0","pricing_plan_id":"cebpf4jnsgd1na2vs0mg"},{"bike_id":"fb02ac8c-7e83-437b-9987-0aa22546cfee","system_id":"levelo_inurba_marseille","lat":43.33018,"lon":5.3904,"is_reserved":false,"is_disabled":false,"rental_uris":{"android":"levelo://app?vid=fb02ac8c-7e83-437b-9987-0aa22546cfee","ios":"levelo://app?vid=fb02ac8c-7e83-437b-9987-0aa22546cfee"},"vehicle_type_id":"4","last_reported":1731010157,"current_range_meters":19200,"station_id":"ce4bhr92rcd13ifvqhrg","pricing_plan_id":"cebpf4jnsgd1na2vs0mg"},{"bike_id":"8800e696-f3cc-4c98-974a-e4a4ac198aaf","system_id":"levelo_inurba_marseille","lat":43.272916,"lon":5.390957,"is_reserved":false,"is_disabled":false,"rental_uris":{"android":"levelo://app?vid=8800e696-f3cc-4c98-974a-e4a4ac198aaf","ios":"levelo://app?vid=8800e696-f3cc-4c98-974a-e4a4ac198aaf"},"vehicle_type_id":"4","last_reported":1731010157,"current_range_meters":38000,"station_id":"ce4bhgp2rcd13ifvqfe0","pricing_plan_id":"cebpf4jnsgd1na2vs0mg"},{"bike_id":"650f5835-bc4e-42c7-b5d8-20d584cdd8af","system_id":"levelo_inurba_marseille","lat":43.32484,"lon":5.36559,"is_reserved":false,"is_disabled":false,"rental_uris":{"android":"levelo://app?vid=650f5835-bc4e-42c7-b5d8-20d584cdd8af","ios":"levelo://app?vid=650f5835-bc4e-42c7-b5d8-20d584cdd8af"},"vehicle_type_id":"4","last_reported":1731010157,"current_range_meters":32000,"station_id":"ce4bhs12rcd13ifvqhvg","pricing_plan_id":"cebpf4jnsgd1na2vs0mg"},{"bike_id":"f2272917-66e4-42ae-84cc-f15f7f5dbf3b","system_id":"levelo_inurba_marseille","lat":43.31166,"lon":5.38706,"is_reserved":false,"is_disabled":false,"rental_uris":{"android":"levelo://app?vid=f2272917-66e4-42ae-84cc-f15f7f5dbf3b","ios":"levelo://app?vid=f2272917-66e4-42ae-84cc-f15f7f5dbf3b"},"vehicle_type_id":"4","last_reported":1731010157,"current_range_meters":20000,"station_id":"ce4bgv12rcd13ifvqcp0","pricing_plan_id":"cebpf4jnsgd1na2vs0mg"},{"bike_id":"99d420af-c409-4765-8814-f5b1820625bf","system_id":"levelo_inurba_marseille","lat":43.30596,"lon":5.37234,"is_reserved":false,"is_disabled":false,"rental_uris":{"android":"levelo://app?vid=99d420af-c409-4765-8814-f5b1820625bf","ios":"levelo://app?vid=99d420af-c409-4765-8814-f5b1820625bf"},"vehicle_type_id":"4","last_reported":1731010157,"current_range_meters":36800,"station_id":"ce4bgqh2rcd13ifvqc4g","pricing_plan_id":"cebpf4jnsgd1na2vs0mg"},{"bike_id":"71700844-c58d-4be3-9777-e0563cffd741","system_id":"levelo_inurba_marseille","lat":43.28706,"lon":5.39981,"is_reserved":false,"is_disabled":false,"rental_uris":{"android":"levelo://app?vid=71700844-c58d-4be3-9777-e0563cffd741","ios":"levelo://app?vid=71700844-c58d-4be3-9777-e0563cffd741"},"vehicle_type_id":"4","last_reported":1731010157,"current_range_meters":38800,"station_id":"ce4bho92rcd13ifvqh3g","pricing_plan_id":"cebpf4jnsgd1na2vs0mg"},{"bike_id":"928945a9-829e-4eae-a34b-7dbc357fb10c","system_id":"levelo_inurba_marseille","lat":43.28933,"lon":5.36397,"is_reserved":false,"is_disabled":false,"rental_uris":{"android":"levelo://app?vid=928945a9-829e-4eae-a34b-7dbc357fb10c","ios":"levelo://app?vid=928945a9-829e-4eae-a34b-7dbc357fb10c"},"vehicle_type_id":"4","last_reported":1731010157,"current_range_meters":28800,"station_id":"ce4bhc92rcd13ifvqetg","pricing_plan_id":"cebpf4jnsgd1na2vs0mg"},{"bike_id":"4aaf6f1e-6fb3-42ca-b792-aa07d9924fbd","system_id":"levelo_inurba_marseille","lat":43.27811,"lon":5.40703,"is_reserved":false,"is_disabled":false,"rental_uris":{"android":"levelo://app?vid=4aaf6f1e-6fb3-42ca-b792-aa07d9924fbd","ios":"levelo://app?vid=4aaf6f1e-6fb3-42ca-b792-aa07d9924fbd"},"vehicle_type_id":"4","last_reported":1731010157,"current_range_meters":28000,"station_id":"ce4bhnh2rcd13ifvqgtg","pricing_plan_id":"cebpf4jnsgd1na2vs0mg"},{"bike_id":"92bbe5af-b5d9-48fc-afb8-3b15fc8d3190","system_id":"levelo_inurba_marseille","lat":43.31718,"lon":5.42401,"is_reserved":false,"is_disabled":false,"rental_uris":{"android":"levelo://app?vid=92bbe5af-b5d9-48fc-afb8-3b15fc8d3190","ios":"levelo://app?vid=92bbe5af-b5d9-48fc-afb8-3b15fc8d3190"},"vehicle_type_id":"4","last_reported":1731010157,"current_range_meters":32400,"station_id":"ce4bhp92rcd13ifvqhbg","pricing_plan_id":"cebpf4jnsgd1na2vs0mg"},{"bike_id":"b89da140-c3b6-426f-a346-4fa42ea03fdf","system_id":"levelo_inurba_marseille","lat":43.28566,"lon":5.39499,"is_reserved":false,"is_disabled":false,"rental_uris":{"android":"levelo://app?vid=b89da140-c3b6-426f-a346-4fa42ea03fdf","ios":"levelo://app?vid=b89da140-c3b6-426f-a346-4fa42ea03fdf"},"vehicle_type_id":"4","last_reported":1731010157,"current_range_meters":39200,"station_id":"ce4bh292rcd13ifvqdg0","pricing_plan_id":"cebpf4jnsgd1na2vs0mg"},{"bike_id":"087c12e0-51d1-40d3-8796-641de37d21e4","system_id":"levelo_inurba_marseille","lat":43.28269,"lon":5.35059,"is_reserved":false,"is_disabled":false,"rental_uris":{"android":"levelo://app?vid=087c12e0-51d1-40d3-8796-641de37d21e4","ios":"levelo://app?vid=087c12e0-51d1-40d3-8796-641de37d21e4"},"vehicle_type_id":"4","last_reported":1731010157,"current_range_meters":38800,"station_id":"ce4bhbp2rcd13ifvqerg","pricing_plan_id":"cebpf4jnsgd1na2vs0mg"},{"bike_id":"71ed2f20-f876-4297-99ba-4e251415358b","system_id":"levelo_inurba_marseille","lat":43.31167,"lon":5.38716,"is_reserved":false,"is_disabled":false,"rental_uris":{"android":"levelo://app?vid=71ed2f20-f876-4297-99ba-4e251415358b","ios":"levelo://app?vid=71ed2f20-f876-4297-99ba-4e251415358b"},"vehicle_type_id":"4","last_reported":1731010157,"current_range_meters":27600,"station_id":"ce4bgv12rcd13ifvqcp0","pricing_plan_id":"cebpf4jnsgd1na2vs0mg"},{"bike_id":"6b793bbd-5954-4f81-bfef-fd4d8b2129e3","system_id":"levelo_inurba_marseille","lat":43.33714,"lon":5.39174,"is_reserved":false,"is_disabled":false,"rental_uris":{"android":"levelo://app?vid=6b793bbd-5954-4f81-bfef-fd4d8b2129e3","ios":"levelo://app?vid=6b793bbd-5954-4f81-bfef-fd4d8b2129e3"},"vehicle_type_id":"4","last_reported":1731010157,"current_range_meters":38000,"station_id":"ce4bhr92rcd13ifvqhsg","pricing_plan_id":"cebpf4jnsgd1na2vs0mg"},{"bike_id":"0366bdb5-16ac-4a75-93d2-d1f7e545a0e7","system_id":"levelo_inurba_marseille","lat":43.24668,"lon":5.38171,"is_reserved":false,"is_disabled":false,"rental_uris":{"android":"levelo://app?vid=0366bdb5-16ac-4a75-93d2-d1f7e545a0e7","ios":"levelo://app?vid=0366bdb5-16ac-4a75-93d2-d1f7e545a0e7"},"vehicle_type_id":"4","last_reported":1731010157,"current_range_meters":19200,"station_id":"ce4bhih2rcd13ifvqfr0","pricing_plan_id":"cebpf4jnsgd1na2vs0mg"},{"bike_id":"82249930-49fa-479f-bef4-f6fa9c7557f9","system_id":"levelo_inurba_marseille","lat":43.27997,"lon":5.40004,"is_reserved":false,"is_disabled":false,"rental_uris":{"android":"levelo://app?vid=82249930-49fa-479f-bef4-f6fa9c7557f9","ios":"levelo://app?vid=82249930-49fa-479f-bef4-f6fa9c7557f9"},"vehicle_type_id":"4","last_reported":1731010157,"current_range_meters":16000,"station_id":"ce4bho92rcd13ifvqh4g","pricing_plan_id":"cebpf4jnsgd1na2vs0mg"},{"bike_id":"6e6e001a-2d4b-4e63-8f57-413c2cf4540c","system_id":"levelo_inurba_marseille","lat":43.27917,"lon":5.3958,"is_reserved":false,"is_disabled":false,"rental_uris":{"android":"levelo://app?vid=6e6e001a-2d4b-4e63-8f57-413c2cf4540c","ios":"levelo://app?vid=6e6e001a-2d4b-4e63-8f57-413c2cf4540c"},"vehicle_type_id":"4","last_reported":1731010157,"current_range_meters":28800,"station_id":"ce4bhf92rcd13ifvqf40","pricing_plan_id":"cebpf4jnsgd1na2vs0mg"},{"bike_id":"afe4fe7e-ff5a-4c7a-a96f-1dbe19d04a5e","system_id":"levelo_inurba_marseille","lat":43.28613,"lon":5.35099,"is_reserved":false,"is_disabled":false,"rental_uris":{"android":"levelo://app?vid=afe4fe7e-ff5a-4c7a-a96f-1dbe19d04a5e","ios":"levelo://app?vid=afe4fe7e-ff5a-4c7a-a96f-1dbe19d04a5e"},"vehicle_type_id":"4","last_reported":1731010157,"current_range_meters":37600,"station_id":"ce4bhch2rcd13ifvqeug","pricing_plan_id":"cebpf4jnsgd1na2vs0mg"},{"bike_id":"102201e4-ae03-426f-9d76-30c6796fee42","system_id":"levelo_inurba_marseille","lat":43.31687,"lon":5.40476,"is_reserved":false,"is_disabled":false,"rental_uris":{"android":"levelo://app?vid=102201e4-ae03-426f-9d76-30c6796fee42","ios":"levelo://app?vid=102201e4-ae03-426f-9d76-30c6796fee42"},"vehicle_type_id":"4","last_reported":1731010157,"current_range_meters":22800,"station_id":"ce4bh012rcd13ifvqd00","pricing_plan_id":"cebpf4jnsgd1na2vs0mg"},{"bike_id":"72b49cdd-0fcb-488d-b3bf-b71acf18d5ce","system_id":"levelo_inurba_marseille","lat":43.28036,"lon":5.3695,"is_reserved":false,"is_disabled":false,"rental_uris":{"android":"levelo://app?vid=72b49cdd-0fcb-488d-b3bf-b71acf18d5ce","ios":"levelo://app?vid=72b49cdd-0fcb-488d-b3bf-b71acf18d5ce"},"vehicle_type_id":"4","last_reported":1731010157,"current_range_meters":8800,"station_id":"ce4bha12rcd13ifvqef0","pricing_plan_id":"cebpf4jnsgd1na2vs0mg"},{"bike_id":"399025e6-7f35-4342-9d98-3c2224090b18","system_id":"levelo_inurba_marseille","lat":43.28565,"lon":5.39506,"is_reserved":false,"is_disabled":false,"rental_uris":{"android":"levelo://app?vid=399025e6-7f35-4342-9d98-3c2224090b18","ios":"levelo://app?vid=399025e6-7f35-4342-9d98-3c2224090b18"},"vehicle_type_id":"4","last_reported":1731010157,"current_range_meters":40000,"station_id":"ce4bh292rcd13ifvqdg0","pricing_plan_id":"cebpf4jnsgd1na2vs0mg"},{"bike_id":"0d6be441-232b-4181-b96b-e0c18742fdc7","system_id":"levelo_inurba_marseille","lat":43.26496,"lon":5.39538,"is_reserved":false,"is_disabled":false,"rental_uris":{"android":"levelo://app?vid=0d6be441-232b-4181-b96b-e0c18742fdc7","ios":"levelo://app?vid=0d6be441-232b-4181-b96b-e0c18742fdc7"},"vehicle_type_id":"4","last_reported":1731010157,"current_range_meters":29600,"station_id":"ce4bhi12rcd13ifvqfq0","pricing_plan_id":"cebpf4jnsgd1na2vs0mg"},{"bike_id":"26ee007d-c521-4271-a726-fe0c9aeca07e","system_id":"levelo_inurba_marseille","lat":43.33121,"lon":5.38213,"is_reserved":false,"is_disabled":false,"rental_uris":{"android":"levelo://app?vid=26ee007d-c521-4271-a726-fe0c9aeca07e","ios":"levelo://app?vid=26ee007d-c521-4271-a726-fe0c9aeca07e"},"vehicle_type_id":"4","last_reported":1731010157,"current_range_meters":7200,"station_id":"","pricing_plan_id":"cebpf4jnsgd1na2vs0mg"},{"bike_id":"55832718-3048-4754-b6c7-735f796a1db1","system_id":"levelo_inurba_marseille","lat":43.24801,"lon":5.37451,"is_reserved":false,"is_disabled":false,"rental_uris":{"android":"levelo://app?vid=55832718-3048-4754-b6c7-735f796a1db1","ios":"levelo://app?vid=55832718-3048-4754-b6c7-735f796a1db1"},"vehicle_type_id":"4","last_reported":1731010157,"current_range_meters":24000,"station_id":"ce4bhgh2rcd13ifvqfb0","pricing_plan_id":"cebpf4jnsgd1na2vs0mg"},{"bike_id":"7e02be68-6753-41d9-adcd-443fd738b253","system_id":"levelo_inurba_marseille","lat":43.24662,"lon":5.38164,"is_reserved":false,"is_disabled":false,"rental_uris":{"android":"levelo://app?vid=7e02be68-6753-41d9-adcd-443fd738b253","ios":"levelo://app?vid=7e02be68-6753-41d9-adcd-443fd738b253"},"vehicle_type_id":"4","last_reported":1731010157,"current_range_meters":30800,"station_id":"ce4bhih2rcd13ifvqfr0","pricing_plan_id":"cebpf4jnsgd1na2vs0mg"},{"bike_id":"ed1950b8-ad71-419c-86f1-823759e2f846","system_id":"levelo_inurba_marseille","lat":43.30968,"lon":5.39043,"is_reserved":false,"is_disabled":false,"rental_uris":{"android":"levelo://app?vid=ed1950b8-ad71-419c-86f1-823759e2f846","ios":"levelo://app?vid=ed1950b8-ad71-419c-86f1-823759e2f846"},"vehicle_type_id":"4","last_reported":1731010157,"current_range_meters":19600,"station_id":"ce4bgup2rcd13ifvqco0","pricing_plan_id":"cebpf4jnsgd1na2vs0mg"},{"bike_id":"dfcf3015-64e1-4c73-9065-23a58d1a316f","system_id":"levelo_inurba_marseille","lat":43.337444,"lon":5.374475,"is_reserved":false,"is_disabled":false,"rental_uris":{"android":"levelo://app?vid=dfcf3015-64e1-4c73-9065-23a58d1a316f","ios":"levelo://app?vid=dfcf3015-64e1-4c73-9065-23a58d1a316f"},"vehicle_type_id":"4","last_reported":1731010157,"current_range_meters":33200,"station_id":"","pricing_plan_id":"cebpf4jnsgd1na2vs0mg"},{"bike_id":"1e803bdd-3770-48c7-9e72-71ce7c6ba7a7","system_id":"levelo_inurba_marseille","lat":43.24664,"lon":5.38157,"is_reserved":false,"is_disabled":false,"rental_uris":{"android":"levelo://app?vid=1e803bdd-3770-48c7-9e72-71ce7c6ba7a7","ios":"levelo://app?vid=1e803bdd-3770-48c7-9e72-71ce7c6ba7a7"},"vehicle_type_id":"4","last_reported":1731010157,"current_range_meters":19600,"station_id":"ce4bhih2rcd13ifvqfr0","pricing_plan_id":"cebpf4jnsgd1na2vs0mg"},{"bike_id":"1a4da3d4-5f38-4038-87f3-4fe4d4322da2","system_id":"levelo_inurba_marseille","lat":43.282737,"lon":5.350691,"is_reserved":false,"is_disabled":false,"rental_uris":{"android":"levelo://app?vid=1a4da3d4-5f38-4038-87f3-4fe4d4322da2","ios":"levelo://app?vid=1a4da3d4-5f38-4038-87f3-4fe4d4322da2"},"vehicle_type_id":"4","last_reported":1731010157,"current_range_meters":8400,"station_id":"ce4bhbp2rcd13ifvqerg","pricing_plan_id":"cebpf4jnsgd1na2vs0mg"},{"bike_id":"75d13495-8752-445e-bee3-11ee7f872d1a","system_id":"levelo_inurba_marseille","lat":43.299593,"lon":5.413266,"is_reserved":false,"is_disabled":false,"rental_uris":{"android":"levelo://app?vid=75d13495-8752-445e-bee3-11ee7f872d1a","ios":"levelo://app?vid=75d13495-8752-445e-bee3-11ee7f872d1a"},"vehicle_type_id":"4","last_reported":1731010157,"current_range_meters":39200,"station_id":"ce4bgj12rcd13ifvqbc0","pricing_plan_id":"cebpf4jnsgd1na2vs0mg"},{"bike_id":"d0017142-a36b-4713-b8cf-cf5e11d9b628","system_id":"levelo_inurba_marseille","lat":43.31885,"lon":5.40741,"is_reserved":false,"is_disabled":false,"rental_uris":{"android":"levelo://app?vid=d0017142-a36b-4713-b8cf-cf5e11d9b628","ios":"levelo://app?vid=d0017142-a36b-4713-b8cf-cf5e11d9b628"},"vehicle_type_id":"4","last_reported":1731010157,"current_range_meters":19200,"station_id":"ce4bhq12rcd13ifvqhig","pricing_plan_id":"cebpf4jnsgd1na2vs0mg"},{"bike_id":"74fd6152-e3be-45fe-8d9b-0e9706c1b1e2","system_id":"levelo_inurba_marseille","lat":43.3089,"lon":5.39632,"is_reserved":false,"is_disabled":false,"rental_uris":{"android":"levelo://app?vid=74fd6152-e3be-45fe-8d9b-0e9706c1b1e2","ios":"levelo://app?vid=74fd6152-e3be-45fe-8d9b-0e9706c1b1e2"},"vehicle_type_id":"4","last_reported":1731010157,"current_range_meters":6000,"station_id":"ce4bh012rcd13ifvqcv0","pricing_plan_id":"cebpf4jnsgd1na2vs0mg"},{"bike_id":"85b778b5-d486-429a-8de2-c1a57817ec6a","system_id":"levelo_inurba_marseille","lat":43.2953,"lon":5.38546,"is_reserved":false,"is_disabled":false,"rental_uris":{"android":"levelo://app?vid=85b778b5-d486-429a-8de2-c1a57817ec6a","ios":"levelo://app?vid=85b778b5-d486-429a-8de2-c1a57817ec6a"},"vehicle_type_id":"4","last_reported":1731010157,"current_range_meters":34800,"station_id":"ce4bgih2rcd13ifvqba0","pricing_plan_id":"cebpf4jnsgd1na2vs0mg"},{"bike_id":"b9d9ea02-c428-4fab-b4d9-359c58bdb5b0","system_id":"levelo_inurba_marseille","lat":43.28142,"lon":5.39183,"is_reserved":false,"is_disabled":false,"rental_uris":{"android":"levelo://app?vid=b9d9ea02-c428-4fab-b4d9-359c58bdb5b0","ios":"levelo://app?vid=b9d9ea02-c428-4fab-b4d9-359c58bdb5b0"},"vehicle_type_id":"4","last_reported":1731010157,"current_range_meters":20800,"station_id":"ce4bh4p2rcd13ifvqe0g","pricing_plan_id":"cebpf4jnsgd1na2vs0mg"},{"bike_id":"920540f0-9297-4bba-9b55-948fb17ca737","system_id":"levelo_inurba_marseille","lat":43.28945,"lon":5.36399,"is_reserved":false,"is_disabled":false,"rental_uris":{"android":"levelo://app?vid=920540f0-9297-4bba-9b55-948fb17ca737","ios":"levelo://app?vid=920540f0-9297-4bba-9b55-948fb17ca737"},"vehicle_type_id":"4","last_reported":1731010157,"current_range_meters":17200,"station_id":"ce4bhc92rcd13ifvqetg","pricing_plan_id":"cebpf4jnsgd1na2vs0mg"},{"bike_id":"e9c8a630-2d73-4117-9bf7-aca5570a0743","system_id":"levelo_inurba_marseille","lat":43.23183,"lon":5.39994,"is_reserved":false,"is_disabled":false,"rental_uris":{"android":"levelo://app?vid=e9c8a630-2d73-4117-9bf7-aca5570a0743","ios":"levelo://app?vid=e9c8a630-2d73-4117-9bf7-aca5570a0743"},"vehicle_type_id":"4","last_reported":1731010157,"current_range_meters":38800,"station_id":"ce4bhn12rcd13ifvqgqg","pricing_plan_id":"cebpf4jnsgd1na2vs0mg"},{"bike_id":"f24105d9-ae0c-4434-b8b9-2eeb31afa2b6","system_id":"levelo_inurba_marseille","lat":43.3095,"lon":5.39034,"is_reserved":false,"is_disabled":false,"rental_uris":{"android":"levelo://app?vid=f24105d9-ae0c-4434-b8b9-2eeb31afa2b6","ios":"levelo://app?vid=f24105d9-ae0c-4434-b8b9-2eeb31afa2b6"},"vehicle_type_id":"4","last_reported":1731010157,"current_range_meters":11600,"station_id":"ce4bgup2rcd13ifvqco0","pricing_plan_id":"cebpf4jnsgd1na2vs0mg"},{"bike_id":"ff58b15d-8525-4fbb-8f5c-c9819aec9b24","system_id":"levelo_inurba_marseille","lat":43.28924,"lon":5.36383,"is_reserved":false,"is_disabled":false,"rental_uris":{"android":"levelo://app?vid=ff58b15d-8525-4fbb-8f5c-c9819aec9b24","ios":"levelo://app?vid=ff58b15d-8525-4fbb-8f5c-c9819aec9b24"},"vehicle_type_id":"4","last_reported":1731010157,"current_range_meters":14800,"station_id":"ce4bhc92rcd13ifvqetg","pricing_plan_id":"cebpf4jnsgd1na2vs0mg"},{"bike_id":"9864b138-7e9d-412a-aabc-bf8d7ac4478c","system_id":"levelo_inurba_marseille","lat":43.28935,"lon":5.36638,"is_reserved":false,"is_disabled":false,"rental_uris":{"android":"levelo://app?vid=9864b138-7e9d-412a-aabc-bf8d7ac4478c","ios":"levelo://app?vid=9864b138-7e9d-412a-aabc-bf8d7ac4478c"},"vehicle_type_id":"4","last_reported":1731010157,"current_range_meters":8000,"station_id":"ce4bhap2rcd13ifvqek0","pricing_plan_id":"cebpf4jnsgd1na2vs0mg"},{"bike_id":"942d5332-6b05-4294-af36-1f2ce9f35539","system_id":"levelo_inurba_marseille","lat":43.30602,"lon":5.39356,"is_reserved":false,"is_disabled":false,"rental_uris":{"android":"levelo://app?vid=942d5332-6b05-4294-af36-1f2ce9f35539","ios":"levelo://app?vid=942d5332-6b05-4294-af36-1f2ce9f35539"},"vehicle_type_id":"4","last_reported":1731010157,"current_range_meters":38800,"station_id":"ce4bh0p2rcd13ifvqd80","pricing_plan_id":"cebpf4jnsgd1na2vs0mg"},{"bike_id":"6ca029db-655d-4d11-9eb8-584d76bc27d6","system_id":"levelo_inurba_marseille","lat":43.31106,"lon":5.3775,"is_reserved":false,"is_disabled":false,"rental_uris":{"android":"levelo://app?vid=6ca029db-655d-4d11-9eb8-584d76bc27d6","ios":"levelo://app?vid=6ca029db-655d-4d11-9eb8-584d76bc27d6"},"vehicle_type_id":"4","last_reported":1731010157,"current_range_meters":11200,"station_id":"ce4bgt92rcd13ifvqcg0","pricing_plan_id":"cebpf4jnsgd1na2vs0mg"},{"bike_id":"88454638-28a0-4e63-81dc-90114f528ab6","system_id":"levelo_inurba_marseille","lat":43.25118,"lon":5.40313,"is_reserved":false,"is_disabled":false,"rental_uris":{"android":"levelo://app?vid=88454638-28a0-4e63-81dc-90114f528ab6","ios":"levelo://app?vid=88454638-28a0-4e63-81dc-90114f528ab6"},"vehicle_type_id":"4","last_reported":1731010157,"current_range_meters":7200,"station_id":"ce4bhlh2rcd13ifvqgig","pricing_plan_id":"cebpf4jnsgd1na2vs0mg"},{"bike_id":"d268f9ca-10ca-4885-b2c9-3af50927f032","system_id":"levelo_inurba_marseille","lat":43.31711,"lon":5.43706,"is_reserved":false,"is_disabled":false,"rental_uris":{"android":"levelo://app?vid=d268f9ca-10ca-4885-b2c9-3af50927f032","ios":"levelo://app?vid=d268f9ca-10ca-4885-b2c9-3af50927f032"},"vehicle_type_id":"4","last_reported":1731010157,"current_range_meters":14800,"station_id":"ce4bhp92rcd13ifvqhcg","pricing_plan_id":"cebpf4jnsgd1na2vs0mg"},{"bike_id":"8be228a2-3b45-46f3-a76b-feb94522fe12","system_id":"levelo_inurba_marseille","lat":43.33022,"lon":5.3904,"is_reserved":false,"is_disabled":false,"rental_uris":{"android":"levelo://app?vid=8be228a2-3b45-46f3-a76b-feb94522fe12","ios":"levelo://app?vid=8be228a2-3b45-46f3-a76b-feb94522fe12"},"vehicle_type_id":"4","last_reported":1731010157,"current_range_meters":21600,"station_id":"ce4bhr92rcd13ifvqhrg","pricing_plan_id":"cebpf4jnsgd1na2vs0mg"},{"bike_id":"79d52c0f-d1cd-4104-b7b0-1077bd5bf860","system_id":"levelo_inurba_marseille","lat":43.28149,"lon":5.42638,"is_reserved":false,"is_disabled":false,"rental_uris":{"android":"levelo://app?vid=79d52c0f-d1cd-4104-b7b0-1077bd5bf860","ios":"levelo://app?vid=79d52c0f-d1cd-4104-b7b0-1077bd5bf860"},"vehicle_type_id":"4","last_reported":1731010157,"current_range_meters":38800,"station_id":"ce4bhnh2rcd13ifvqgug","pricing_plan_id":"cebpf4jnsgd1na2vs0mg"},{"bike_id":"ae005bb8-395e-4213-a2de-e2aa309c7f81","system_id":"levelo_inurba_marseille","lat":43.27941,"lon":5.41039,"is_reserved":false,"is_disabled":false,"rental_uris":{"android":"levelo://app?vid=ae005bb8-395e-4213-a2de-e2aa309c7f81","ios":"levelo://app?vid=ae005bb8-395e-4213-a2de-e2aa309c7f81"},"vehicle_type_id":"4","last_reported":1731010157,"current_range_meters":38800,"station_id":"ce4bhnp2rcd13ifvqh0g","pricing_plan_id":"cebpf4jnsgd1na2vs0mg"},{"bike_id":"875b5b0b-c19d-4dd8-878c-ff683684389c","system_id":"levelo_inurba_marseille","lat":43.27953,"lon":5.39181,"is_reserved":false,"is_disabled":false,"rental_uris":{"android":"levelo://app?vid=875b5b0b-c19d-4dd8-878c-ff683684389c","ios":"levelo://app?vid=875b5b0b-c19d-4dd8-878c-ff683684389c"},"vehicle_type_id":"4","last_reported":1731010157,"current_range_meters":26000,"station_id":"ce4bhf92rcd13ifvqf40","pricing_plan_id":"cebpf4jnsgd1na2vs0mg"},{"bike_id":"a49229f6-a47b-402a-a188-f54c6cfafa9d","system_id":"levelo_inurba_marseille","lat":43.3302,"lon":5.39147,"is_reserved":false,"is_disabled":false,"rental_uris":{"android":"levelo://app?vid=a49229f6-a47b-402a-a188-f54c6cfafa9d","ios":"levelo://app?vid=a49229f6-a47b-402a-a188-f54c6cfafa9d"},"vehicle_type_id":"4","last_reported":1731010157,"current_range_meters":38800,"station_id":"","pricing_plan_id":"cebpf4jnsgd1na2vs0mg"},{"bike_id":"32a97d34-90a6-439f-8959-c959f63cbde0","system_id":"levelo_inurba_marseille","lat":43.26811,"lon":5.40254,"is_reserved":false,"is_disabled":false,"rental_uris":{"android":"levelo://app?vid=32a97d34-90a6-439f-8959-c959f63cbde0","ios":"levelo://app?vid=32a97d34-90a6-439f-8959-c959f63cbde0"},"vehicle_type_id":"4","last_reported":1731010157,"current_range_meters":38800,"station_id":"ce501612rcd8frsf0b60","pricing_plan_id":"cebpf4jnsgd1na2vs0mg"},{"bike_id":"56164b2b-8fab-4060-9748-27221c5d4253","system_id":"levelo_inurba_marseille","lat":43.28414,"lon":5.34974,"is_reserved":false,"is_disabled":false,"rental_uris":{"android":"levelo://app?vid=56164b2b-8fab-4060-9748-27221c5d4253","ios":"levelo://app?vid=56164b2b-8fab-4060-9748-27221c5d4253"},"vehicle_type_id":"4","last_reported":1731010157,"current_range_meters":24000,"station_id":"ce4bhbh2rcd13ifvqepg","pricing_plan_id":"cebpf4jnsgd1na2vs0mg"},{"bike_id":"be16878b-2944-4903-b0da-8d02aded3ffb","system_id":"levelo_inurba_marseille","lat":43.24546,"lon":5.39526,"is_reserved":false,"is_disabled":false,"rental_uris":{"android":"levelo://app?vid=be16878b-2944-4903-b0da-8d02aded3ffb","ios":"levelo://app?vid=be16878b-2944-4903-b0da-8d02aded3ffb"},"vehicle_type_id":"4","last_reported":1731010157,"current_range_meters":24800,"station_id":"ce4bhlp2rcd13ifvqgjg","pricing_plan_id":"cebpf4jnsgd1na2vs0mg"},{"bike_id":"25a74856-3a6d-4391-aaa7-12afd90c3294","system_id":"levelo_inurba_marseille","lat":43.24998,"lon":5.3893,"is_reserved":false,"is_disabled":false,"rental_uris":{"android":"levelo://app?vid=25a74856-3a6d-4391-aaa7-12afd90c3294","ios":"levelo://app?vid=25a74856-3a6d-4391-aaa7-12afd90c3294"},"vehicle_type_id":"4","last_reported":1731010157,"current_range_meters":38000,"station_id":"ce4bhgp2rcd13ifvqfd0","pricing_plan_id":"cebpf4jnsgd1na2vs0mg"},{"bike_id":"2a941a5e-af72-412c-a0c9-ca1913dc4558","system_id":"levelo_inurba_marseille","lat":43.30092,"lon":5.39074,"is_reserved":false,"is_disabled":false,"rental_uris":{"android":"levelo://app?vid=2a941a5e-af72-412c-a0c9-ca1913dc4558","ios":"levelo://app?vid=2a941a5e-af72-412c-a0c9-ca1913dc4558"},"vehicle_type_id":"4","last_reported":1731010157,"current_range_meters":39200,"station_id":"ce4bh192rcd13ifvqdb0","pricing_plan_id":"cebpf4jnsgd1na2vs0mg"},{"bike_id":"7aa89ab7-bfe4-4c30-8344-300c7d69ac3f","system_id":"levelo_inurba_marseille","lat":43.28935,"lon":5.36395,"is_reserved":false,"is_disabled":false,"rental_uris":{"android":"levelo://app?vid=7aa89ab7-bfe4-4c30-8344-300c7d69ac3f","ios":"levelo://app?vid=7aa89ab7-bfe4-4c30-8344-300c7d69ac3f"},"vehicle_type_id":"4","last_reported":1731010157,"current_range_meters":17200,"station_id":"ce4bhc92rcd13ifvqetg","pricing_plan_id":"cebpf4jnsgd1na2vs0mg"},{"bike_id":"d3e54780-ddfb-432e-bfd3-55d19e8c43c8","system_id":"levelo_inurba_marseille","lat":43.31747,"lon":5.39018,"is_reserved":false,"is_disabled":false,"rental_uris":{"android":"levelo://app?vid=d3e54780-ddfb-432e-bfd3-55d19e8c43c8","ios":"levelo://app?vid=d3e54780-ddfb-432e-bfd3-55d19e8c43c8"},"vehicle_type_id":"4","last_reported":1731010157,"current_range_meters":30000,"station_id":"ce4bhqp2rcd13ifvqhng","pricing_plan_id":"cebpf4jnsgd1na2vs0mg"},{"bike_id":"9b50d14a-856e-4a18-9687-4360874e7e60","system_id":"levelo_inurba_marseille","lat":43.31483,"lon":5.37304,"is_reserved":false,"is_disabled":false,"rental_uris":{"android":"levelo://app?vid=9b50d14a-856e-4a18-9687-4360874e7e60","ios":"levelo://app?vid=9b50d14a-856e-4a18-9687-4360874e7e60"},"vehicle_type_id":"4","last_reported":1731010157,"current_range_meters":11200,"station_id":"ce4bgt12rcd13ifvqcd0","pricing_plan_id":"cebpf4jnsgd1na2vs0mg"},{"bike_id":"f6240ba0-900a-4bbb-b767-16165ed8fd4d","system_id":"levelo_inurba_marseille","lat":43.31328,"lon":5.3969,"is_reserved":false,"is_disabled":false,"rental_uris":{"android":"levelo://app?vid=f6240ba0-900a-4bbb-b767-16165ed8fd4d","ios":"levelo://app?vid=f6240ba0-900a-4bbb-b767-16165ed8fd4d"},"vehicle_type_id":"4","last_reported":1731010157,"current_range_meters":16400,"station_id":"ce4bgvp2rcd13ifvqcu0","pricing_plan_id":"cebpf4jnsgd1na2vs0mg"},{"bike_id":"82b97aae-830e-4430-ae99-7cef8ad2c993","system_id":"levelo_inurba_marseille","lat":43.337444,"lon":5.374475,"is_reserved":false,"is_disabled":false,"rental_uris":{"android":"levelo://app?vid=82b97aae-830e-4430-ae99-7cef8ad2c993","ios":"levelo://app?vid=82b97aae-830e-4430-ae99-7cef8ad2c993"},"vehicle_type_id":"4","last_reported":1731010157,"current_range_meters":35200,"station_id":"","pricing_plan_id":"cebpf4jnsgd1na2vs0mg"},{"bike_id":"3971fa10-e036-45be-b0a3-d36e00cbd28b","system_id":"levelo_inurba_marseille","lat":43.31073,"lon":5.38344,"is_reserved":false,"is_disabled":false,"rental_uris":{"android":"levelo://app?vid=3971fa10-e036-45be-b0a3-d36e00cbd28b","ios":"levelo://app?vid=3971fa10-e036-45be-b0a3-d36e00cbd28b"},"vehicle_type_id":"4","last_reported":1731010157,"current_range_meters":27600,"station_id":"ce4bgv92rcd13ifvqcr0","pricing_plan_id":"cebpf4jnsgd1na2vs0mg"},{"bike_id":"104b7612-1d7b-4440-bf47-6ebc74032279","system_id":"levelo_inurba_marseille","lat":43.267951,"lon":5.39546,"is_reserved":false,"is_disabled":false,"rental_uris":{"android":"levelo://app?vid=104b7612-1d7b-4440-bf47-6ebc74032279","ios":"levelo://app?vid=104b7612-1d7b-4440-bf47-6ebc74032279"},"vehicle_type_id":"4","last_reported":1731010157,"current_range_meters":38800,"station_id":"ce4bhh12rcd13ifvqfg0","pricing_plan_id":"cebpf4jnsgd1na2vs0mg"},{"bike_id":"e11f2957-c866-431f-b50b-d0178644b09f","system_id":"levelo_inurba_marseille","lat":43.2319,"lon":5.39983,"is_reserved":false,"is_disabled":false,"rental_uris":{"android":"levelo://app?vid=e11f2957-c866-431f-b50b-d0178644b09f","ios":"levelo://app?vid=e11f2957-c866-431f-b50b-d0178644b09f"},"vehicle_type_id":"4","last_reported":1731010157,"current_range_meters":40000,"station_id":"ce4bhn12rcd13ifvqgqg","pricing_plan_id":"cebpf4jnsgd1na2vs0mg"},{"bike_id":"16ead66c-6467-4329-aa08-b6c3668377d5","system_id":"levelo_inurba_marseille","lat":43.28002,"lon":5.4001,"is_reserved":false,"is_disabled":false,"rental_uris":{"android":"levelo://app?vid=16ead66c-6467-4329-aa08-b6c3668377d5","ios":"levelo://app?vid=16ead66c-6467-4329-aa08-b6c3668377d5"},"vehicle_type_id":"4","last_reported":1731010157,"current_range_meters":38800,"station_id":"ce4bho92rcd13ifvqh4g","pricing_plan_id":"cebpf4jnsgd1na2vs0mg"},{"bike_id":"dfee0016-6e8c-4279-8c99-41984bfd05b3","system_id":"levelo_inurba_marseille","lat":43.31272,"lon":5.40166,"is_reserved":false,"is_disabled":false,"rental_uris":{"android":"levelo://app?vid=dfee0016-6e8c-4279-8c99-41984bfd05b3","ios":"levelo://app?vid=dfee0016-6e8c-4279-8c99-41984bfd05b3"},"vehicle_type_id":"4","last_reported":1731010157,"current_range_meters":6000,"station_id":"ce4bh092rcd13ifvqd30","pricing_plan_id":"cebpf4jnsgd1na2vs0mg"},{"bike_id":"8befa393-3872-493a-9a5d-6005d6827670","system_id":"levelo_inurba_marseille","lat":43.33717,"lon":5.39174,"is_reserved":false,"is_disabled":false,"rental_uris":{"android":"levelo://app?vid=8befa393-3872-493a-9a5d-6005d6827670","ios":"levelo://app?vid=8befa393-3872-493a-9a5d-6005d6827670"},"vehicle_type_id":"4","last_reported":1731010157,"current_range_meters":38800,"station_id":"ce4bhr92rcd13ifvqhsg","pricing_plan_id":"cebpf4jnsgd1na2vs0mg"},{"bike_id":"0d0ff24e-86ec-4f53-a53e-729084bc5fd4","system_id":"levelo_inurba_marseille","lat":43.28413,"lon":5.37523,"is_reserved":false,"is_disabled":false,"rental_uris":{"android":"levelo://app?vid=0d0ff24e-86ec-4f53-a53e-729084bc5fd4","ios":"levelo://app?vid=0d0ff24e-86ec-4f53-a53e-729084bc5fd4"},"vehicle_type_id":"4","last_reported":1731010157,"current_range_meters":11200,"station_id":"ce4bh412rcd13ifvqds0","pricing_plan_id":"cebpf4jnsgd1na2vs0mg"},{"bike_id":"75b94260-785a-4b7b-b7ac-a6131b897a7e","system_id":"levelo_inurba_marseille","lat":43.24075,"lon":5.37762,"is_reserved":false,"is_disabled":false,"rental_uris":{"android":"levelo://app?vid=75b94260-785a-4b7b-b7ac-a6131b897a7e","ios":"levelo://app?vid=75b94260-785a-4b7b-b7ac-a6131b897a7e"},"vehicle_type_id":"4","last_reported":1731010157,"current_range_meters":22400,"station_id":"ce4bhnp2rcd13ifvqgvg","pricing_plan_id":"cebpf4jnsgd1na2vs0mg"},{"bike_id":"a139ad76-ca7f-458e-a30e-a008b671ca8b","system_id":"levelo_inurba_marseille","lat":43.30932,"lon":5.40145,"is_reserved":false,"is_disabled":false,"rental_uris":{"android":"levelo://app?vid=a139ad76-ca7f-458e-a30e-a008b671ca8b","ios":"levelo://app?vid=a139ad76-ca7f-458e-a30e-a008b671ca8b"},"vehicle_type_id":"4","last_reported":1731010157,"current_range_meters":7200,"station_id":"ce4bgvp2rcd13ifvqct0","pricing_plan_id":"cebpf4jnsgd1na2vs0mg"},{"bike_id":"d478d4f9-d5ac-4c59-b386-afffeac404e4","system_id":"levelo_inurba_marseille","lat":43.29256,"lon":5.40913,"is_reserved":false,"is_disabled":false,"rental_uris":{"android":"levelo://app?vid=d478d4f9-d5ac-4c59-b386-afffeac404e4","ios":"levelo://app?vid=d478d4f9-d5ac-4c59-b386-afffeac404e4"},"vehicle_type_id":"4","last_reported":1731010157,"current_range_meters":39200,"station_id":"ce4bh192rcd13ifvqdc0","pricing_plan_id":"cebpf4jnsgd1na2vs0mg"},{"bike_id":"4154d8ba-1ea3-4b1d-accf-e24995be1de0","system_id":"levelo_inurba_marseille","lat":43.28852,"lon":5.39307,"is_reserved":false,"is_disabled":false,"rental_uris":{"android":"levelo://app?vid=4154d8ba-1ea3-4b1d-accf-e24995be1de0","ios":"levelo://app?vid=4154d8ba-1ea3-4b1d-accf-e24995be1de0"},"vehicle_type_id":"4","last_reported":1731010157,"current_range_meters":31200,"station_id":"ce4bh2p2rcd13ifvqdi0","pricing_plan_id":"cebpf4jnsgd1na2vs0mg"},{"bike_id":"9f845d93-6bd2-4f0f-a836-9ddf5aa70670","system_id":"levelo_inurba_marseille","lat":43.30954,"lon":5.39045,"is_reserved":false,"is_disabled":false,"rental_uris":{"android":"levelo://app?vid=9f845d93-6bd2-4f0f-a836-9ddf5aa70670","ios":"levelo://app?vid=9f845d93-6bd2-4f0f-a836-9ddf5aa70670"},"vehicle_type_id":"4","last_reported":1731010157,"current_range_meters":29600,"station_id":"ce4bgup2rcd13ifvqco0","pricing_plan_id":"cebpf4jnsgd1na2vs0mg"},{"bike_id":"26876a5d-b612-4389-8709-c96dc2f5c01d","system_id":"levelo_inurba_marseille","lat":43.30123,"lon":5.39865,"is_reserved":false,"is_disabled":false,"rental_uris":{"android":"levelo://app?vid=26876a5d-b612-4389-8709-c96dc2f5c01d","ios":"levelo://app?vid=26876a5d-b612-4389-8709-c96dc2f5c01d"},"vehicle_type_id":"4","last_reported":1731010157,"current_range_meters":38800,"station_id":"ce4bh0h2rcd13ifvqd40","pricing_plan_id":"cebpf4jnsgd1na2vs0mg"},{"bike_id":"fe7e3579-a119-400b-8f17-3c2acef46518","system_id":"levelo_inurba_marseille","lat":43.24813,"lon":5.37459,"is_reserved":false,"is_disabled":false,"rental_uris":{"android":"levelo://app?vid=fe7e3579-a119-400b-8f17-3c2acef46518","ios":"levelo://app?vid=fe7e3579-a119-400b-8f17-3c2acef46518"},"vehicle_type_id":"4","last_reported":1731010157,"current_range_meters":18800,"station_id":"ce4bhgh2rcd13ifvqfb0","pricing_plan_id":"cebpf4jnsgd1na2vs0mg"},{"bike_id":"bc469091-c8da-4cc1-b953-ff1695968e64","system_id":"levelo_inurba_marseille","lat":43.29258,"lon":5.38432,"is_reserved":false,"is_disabled":false,"rental_uris":{"android":"levelo://app?vid=bc469091-c8da-4cc1-b953-ff1695968e64","ios":"levelo://app?vid=bc469091-c8da-4cc1-b953-ff1695968e64"},"vehicle_type_id":"4","last_reported":1731010157,"current_range_meters":38800,"station_id":"ce4bh692rcd13ifvqea0","pricing_plan_id":"cebpf4jnsgd1na2vs0mg"},{"bike_id":"49851df5-99f0-4c43-b60b-46ad19e6280d","system_id":"levelo_inurba_marseille","lat":43.279,"lon":5.38008,"is_reserved":false,"is_disabled":false,"rental_uris":{"android":"levelo://app?vid=49851df5-99f0-4c43-b60b-46ad19e6280d","ios":"levelo://app?vid=49851df5-99f0-4c43-b60b-46ad19e6280d"},"vehicle_type_id":"4","last_reported":1731010157,"current_range_meters":16800,"station_id":"ce4bhf92rcd13ifvqf50","pricing_plan_id":"cebpf4jnsgd1na2vs0mg"},{"bike_id":"be8a8470-0733-4e01-aa83-6e6a9840885b","system_id":"levelo_inurba_marseille","lat":43.2571,"lon":5.41038,"is_reserved":false,"is_disabled":false,"rental_uris":{"android":"levelo://app?vid=be8a8470-0733-4e01-aa83-6e6a9840885b","ios":"levelo://app?vid=be8a8470-0733-4e01-aa83-6e6a9840885b"},"vehicle_type_id":"4","last_reported":1731010157,"current_range_meters":38400,"station_id":"ce4bhkp2rcd13ifvqgd0","pricing_plan_id":"cebpf4jnsgd1na2vs0mg"},{"bike_id":"ff90f044-b67a-4b64-a278-2703b27d5b23","system_id":"levelo_inurba_marseille","lat":43.28543,"lon":5.37781,"is_reserved":false,"is_disabled":false,"rental_uris":{"android":"levelo://app?vid=ff90f044-b67a-4b64-a278-2703b27d5b23","ios":"levelo://app?vid=ff90f044-b67a-4b64-a278-2703b27d5b23"},"vehicle_type_id":"4","last_reported":1731010157,"current_range_meters":24800,"station_id":"","pricing_plan_id":"cebpf4jnsgd1na2vs0mg"},{"bike_id":"a731ffe1-2356-4662-a346-572da2bfd5ca","system_id":"levelo_inurba_marseille","lat":43.2632,"lon":5.37623,"is_reserved":false,"is_disabled":false,"rental_uris":{"android":"levelo://app?vid=a731ffe1-2356-4662-a346-572da2bfd5ca","ios":"levelo://app?vid=a731ffe1-2356-4662-a346-572da2bfd5ca"},"vehicle_type_id":"4","last_reported":1731010157,"current_range_meters":27200,"station_id":"","pricing_plan_id":"cebpf4jnsgd1na2vs0mg"},{"bike_id":"3ccf5d47-f5a1-439d-8070-e8a062a956dd","system_id":"levelo_inurba_marseille","lat":43.28269,"lon":5.35053,"is_reserved":false,"is_disabled":false,"rental_uris":{"android":"levelo://app?vid=3ccf5d47-f5a1-439d-8070-e8a062a956dd","ios":"levelo://app?vid=3ccf5d47-f5a1-439d-8070-e8a062a956dd"},"vehicle_type_id":"4","last_reported":1731010157,"current_range_meters":8000,"station_id":"ce4bhbp2rcd13ifvqerg","pricing_plan_id":"cebpf4jnsgd1na2vs0mg"},{"bike_id":"f849f296-21e1-4e88-a8c4-f20b6e2b275f","system_id":"levelo_inurba_marseille","lat":43.24797,"lon":5.37446,"is_reserved":false,"is_disabled":false,"rental_uris":{"android":"levelo://app?vid=f849f296-21e1-4e88-a8c4-f20b6e2b275f","ios":"levelo://app?vid=f849f296-21e1-4e88-a8c4-f20b6e2b275f"},"vehicle_type_id":"4","last_reported":1731010157,"current_range_meters":16800,"station_id":"ce4bhgh2rcd13ifvqfb0","pricing_plan_id":"cebpf4jnsgd1na2vs0mg"},{"bike_id":"7b49f682-3dcc-4629-aea8-ffabec26c66a","system_id":"levelo_inurba_marseille","lat":43.29065,"lon":5.37167,"is_reserved":false,"is_disabled":false,"rental_uris":{"android":"levelo://app?vid=7b49f682-3dcc-4629-aea8-ffabec26c66a","ios":"levelo://app?vid=7b49f682-3dcc-4629-aea8-ffabec26c66a"},"vehicle_type_id":"4","last_reported":1731010157,"current_range_meters":34000,"station_id":"ce4bh5p2rcd13ifvqe4g","pricing_plan_id":"cebpf4jnsgd1na2vs0mg"},{"bike_id":"90a71ddb-86ba-434f-ba86-f0410ca34fe9","system_id":"levelo_inurba_marseille","lat":43.3133,"lon":5.39689,"is_reserved":false,"is_disabled":false,"rental_uris":{"android":"levelo://app?vid=90a71ddb-86ba-434f-ba86-f0410ca34fe9","ios":"levelo://app?vid=90a71ddb-86ba-434f-ba86-f0410ca34fe9"},"vehicle_type_id":"4","last_reported":1731010157,"current_range_meters":38400,"station_id":"ce4bgvp2rcd13ifvqcu0","pricing_plan_id":"cebpf4jnsgd1na2vs0mg"},{"bike_id":"ec58f4d7-5c6b-4386-a8fc-e671423fee08","system_id":"levelo_inurba_marseille","lat":43.31074,"lon":5.38338,"is_reserved":false,"is_disabled":false,"rental_uris":{"android":"levelo://app?vid=ec58f4d7-5c6b-4386-a8fc-e671423fee08","ios":"levelo://app?vid=ec58f4d7-5c6b-4386-a8fc-e671423fee08"},"vehicle_type_id":"4","last_reported":1731010157,"current_range_meters":16000,"station_id":"ce4bgv92rcd13ifvqcr0","pricing_plan_id":"cebpf4jnsgd1na2vs0mg"},{"bike_id":"78900df1-7c35-4c15-92e5-9227f73d28d6","system_id":"levelo_inurba_marseille","lat":43.28459,"lon":5.35878,"is_reserved":false,"is_disabled":false,"rental_uris":{"android":"levelo://app?vid=78900df1-7c35-4c15-92e5-9227f73d28d6","ios":"levelo://app?vid=78900df1-7c35-4c15-92e5-9227f73d28d6"},"vehicle_type_id":"4","last_reported":1731010157,"current_range_meters":4800,"station_id":"ce4bhah2rcd13ifvqei0","pricing_plan_id":"cebpf4jnsgd1na2vs0mg"},{"bike_id":"74a57a09-403d-48eb-be12-7bdece1e2a42","system_id":"levelo_inurba_marseille","lat":43.31716,"lon":5.42394,"is_reserved":false,"is_disabled":false,"rental_uris":{"android":"levelo://app?vid=74a57a09-403d-48eb-be12-7bdece1e2a42","ios":"levelo://app?vid=74a57a09-403d-48eb-be12-7bdece1e2a42"},"vehicle_type_id":"4","last_reported":1731010157,"current_range_meters":6000,"station_id":"ce4bhp92rcd13ifvqhbg","pricing_plan_id":"cebpf4jnsgd1na2vs0mg"},{"bike_id":"45836ad7-2e92-4f2f-9fe7-fb3e6b64650d","system_id":"levelo_inurba_marseille","lat":43.28725,"lon":5.3609,"is_reserved":false,"is_disabled":false,"rental_uris":{"android":"levelo://app?vid=45836ad7-2e92-4f2f-9fe7-fb3e6b64650d","ios":"levelo://app?vid=45836ad7-2e92-4f2f-9fe7-fb3e6b64650d"},"vehicle_type_id":"4","last_reported":1731010157,"current_range_meters":38800,"station_id":"cki0cbj6b192h4jlfktg","pricing_plan_id":"cebpf4jnsgd1na2vs0mg"},{"bike_id":"3ed9f53d-392f-4944-988b-3bf8bf221b89","system_id":"levelo_inurba_marseille","lat":43.29012,"lon":5.38143,"is_reserved":false,"is_disabled":false,"rental_uris":{"android":"levelo://app?vid=3ed9f53d-392f-4944-988b-3bf8bf221b89","ios":"levelo://app?vid=3ed9f53d-392f-4944-988b-3bf8bf221b89"},"vehicle_type_id":"4","last_reported":1731010157,"current_range_meters":38800,"station_id":"ce4bh4p2rcd13ifvqe1g","pricing_plan_id":"cebpf4jnsgd1na2vs0mg"},{"bike_id":"ad7dd926-67aa-4c5f-abd1-35020f337e23","system_id":"levelo_inurba_marseille","lat":43.29258,"lon":5.40903,"is_reserved":false,"is_disabled":false,"rental_uris":{"android":"levelo://app?vid=ad7dd926-67aa-4c5f-abd1-35020f337e23","ios":"levelo://app?vid=ad7dd926-67aa-4c5f-abd1-35020f337e23"},"vehicle_type_id":"4","last_reported":1731010157,"current_range_meters":30400,"station_id":"ce4bh192rcd13ifvqdc0","pricing_plan_id":"cebpf4jnsgd1na2vs0mg"},{"bike_id":"08c65689-0b50-456b-b2ea-0f941bbcd073","system_id":"levelo_inurba_marseille","lat":43.2318,"lon":5.39988,"is_reserved":false,"is_disabled":false,"rental_uris":{"android":"levelo://app?vid=08c65689-0b50-456b-b2ea-0f941bbcd073","ios":"levelo://app?vid=08c65689-0b50-456b-b2ea-0f941bbcd073"},"vehicle_type_id":"4","last_reported":1731010157,"current_range_meters":32400,"station_id":"ce4bhn12rcd13ifvqgqg","pricing_plan_id":"cebpf4jnsgd1na2vs0mg"},{"bike_id":"5b3b4202-5abc-4b67-9cd0-f08d9124df40","system_id":"levelo_inurba_marseille","lat":43.337444,"lon":5.374475,"is_reserved":false,"is_disabled":false,"rental_uris":{"android":"levelo://app?vid=5b3b4202-5abc-4b67-9cd0-f08d9124df40","ios":"levelo://app?vid=5b3b4202-5abc-4b67-9cd0-f08d9124df40"},"vehicle_type_id":"4","last_reported":1731010157,"current_range_meters":37600,"station_id":"","pricing_plan_id":"cebpf4jnsgd1na2vs0mg"},{"bike_id":"54b7f1f6-7341-4bb2-bbd6-8766f023bcaf","system_id":"levelo_inurba_marseille","lat":43.30319,"lon":5.40438,"is_reserved":false,"is_disabled":false,"rental_uris":{"android":"levelo://app?vid=54b7f1f6-7341-4bb2-bbd6-8766f023bcaf","ios":"levelo://app?vid=54b7f1f6-7341-4bb2-bbd6-8766f023bcaf"},"vehicle_type_id":"4","last_reported":1731010157,"current_range_meters":19600,"station_id":"ce4bh012rcd13ifvqd10","pricing_plan_id":"cebpf4jnsgd1na2vs0mg"},{"bike_id":"53c2d71b-a41e-4e06-bcc8-cc5ff84cece4","system_id":"levelo_inurba_marseille","lat":43.33027,"lon":5.39033,"is_reserved":false,"is_disabled":false,"rental_uris":{"android":"levelo://app?vid=53c2d71b-a41e-4e06-bcc8-cc5ff84cece4","ios":"levelo://app?vid=53c2d71b-a41e-4e06-bcc8-cc5ff84cece4"},"vehicle_type_id":"4","last_reported":1731010157,"current_range_meters":28400,"station_id":"ce4bhr92rcd13ifvqhrg","pricing_plan_id":"cebpf4jnsgd1na2vs0mg"},{"bike_id":"936c6e50-b695-46ec-8ada-6b044b4388ff","system_id":"levelo_inurba_marseille","lat":43.30323,"lon":5.40435,"is_reserved":false,"is_disabled":false,"rental_uris":{"android":"levelo://app?vid=936c6e50-b695-46ec-8ada-6b044b4388ff","ios":"levelo://app?vid=936c6e50-b695-46ec-8ada-6b044b4388ff"},"vehicle_type_id":"4","last_reported":1731010157,"current_range_meters":38800,"station_id":"ce4bh012rcd13ifvqd10","pricing_plan_id":"cebpf4jnsgd1na2vs0mg"},{"bike_id":"c56b1c3d-ee25-4fcd-9b6a-207f62621d4f","system_id":"levelo_inurba_marseille","lat":43.30885,"lon":5.39635,"is_reserved":false,"is_disabled":false,"rental_uris":{"android":"levelo://app?vid=c56b1c3d-ee25-4fcd-9b6a-207f62621d4f","ios":"levelo://app?vid=c56b1c3d-ee25-4fcd-9b6a-207f62621d4f"},"vehicle_type_id":"4","last_reported":1731010157,"current_range_meters":3200,"station_id":"ce4bh012rcd13ifvqcv0","pricing_plan_id":"cebpf4jnsgd1na2vs0mg"},{"bike_id":"f3588e1e-fbb3-40a6-b38a-0dc3fe7727f7","system_id":"levelo_inurba_marseille","lat":43.31167,"lon":5.38709,"is_reserved":false,"is_disabled":false,"rental_uris":{"android":"levelo://app?vid=f3588e1e-fbb3-40a6-b38a-0dc3fe7727f7","ios":"levelo://app?vid=f3588e1e-fbb3-40a6-b38a-0dc3fe7727f7"},"vehicle_type_id":"4","last_reported":1731010157,"current_range_meters":38400,"station_id":"ce4bgv12rcd13ifvqcp0","pricing_plan_id":"cebpf4jnsgd1na2vs0mg"},{"bike_id":"ed7e367d-c5af-41cd-95a8-a414ea0e86a6","system_id":"levelo_inurba_marseille","lat":43.27378,"lon":5.36243,"is_reserved":false,"is_disabled":false,"rental_uris":{"android":"levelo://app?vid=ed7e367d-c5af-41cd-95a8-a414ea0e86a6","ios":"levelo://app?vid=ed7e367d-c5af-41cd-95a8-a414ea0e86a6"},"vehicle_type_id":"4","last_reported":1731010157,"current_range_meters":23200,"station_id":"ce4bhbh2rcd13ifvqeo0","pricing_plan_id":"cebpf4jnsgd1na2vs0mg"},