{"last_updated":1708412847,"ttl":30,"version":"2.2","data":{"bikes":[{"bike_id":"0f2b0147-244f-4a5f-93f9-578af6973884","system_id":"levelo_inurba_marseille","lat":43.31341,"lon":5.367098,"is_reserved":false,"is_disabled":false,"rental_uris":{"android":"levelo://app?vid=0f2b0147-244f-4a5f-93f9-578af6973884","ios":"levelo://app?vid=0f2b0147-244f-4a5f-93f9-578af6973884"},"vehicle_type_id":"4","last_reported":1708412847,"current_range_meters":18800,"station_id":"ce4bgr92rcd13ifvqc6g","pricing_plan_id":"cebpf4jnsgd1na2vs0mg"},{"bike_id":"b8230944-637f-47cf-a2aa-930eef146513","system_id":"levelo_inurba_marseille","lat":43.31341,"lon":5.367098,"is_reserved":false,"is_disabled":false,"rental_uris":{"android":"levelo://app?vid=b8230944-637f-47cf-a2aa-930eef146513","ios":"levelo://app?vid=b8230944-637f-47cf-a2aa-930eef146513"},"vehicle_type_id":"4","last_reported":1708412847,"current_range_meters":16400,"station_id":"ce4bgr92rcd13ifvqc6g","pricing_plan_id":"cebpf4jnsgd1na2vs0mg"},{"bike_id":"e36fd1cd-cf3f-4434-80c9-d9abac4046ac","system_id":"levelo_inurba_marseille","lat":43.31341,"lon":5.367098,"is_reserved":false,"is_disabled":false,"rental_uris":{"android":"levelo://app?vid=e36fd1cd-cf3f-4434-80c9-d9abac4046ac","ios":"levelo://app?vid=e36fd1cd-cf3f-4434-80c9-d9abac4046ac"},"vehicle_type_id":"4","last_reported":1708412847,"current_range_meters":31600,"station_id":"ce4bgr92rcd13ifvqc6g","pricing_plan_id":"cebpf4jnsgd1na2vs0mg"},{"bike_id":"3d113432-8540-4597-8d41-3014385c0235","system_id":"levelo_inurba_marseille","lat":43.31341,"lon":5.367098,"is_reserved":false,"is_disabled":false,"rental_uris":{"android":"levelo://app?vid=3d113432-8540-4597-8d41-3014385c0235","ios":"levelo://app?vid=3d113432-8540-4597-8d41-3014385c0235"},"vehicle_type_id":"4","last_reported":1708412847,"current_range_meters":27600,"station_id":"ce4bgr92rcd13ifvqc6g","pricing_plan_id":"cebpf4jnsgd1na2vs0mg"},{"bike_id":"401cd04e-abd0-4966-868d-6434f3617de7","system_id":"levelo_inurba_marseille","lat":43.313391,"lon":5.36706,"is_reserved":false,"is_disabled":false,"rental_uris":{"android":"levelo://app?vid=401cd04e-abd0-4966-868d-6434f3617de7","ios":"levelo://app?vid=401cd04e-abd0-4966-868d-6434f3617de7"},"vehicle_type_id":"4","last_reported":1708412847,"current_range_meters":26400,"station_id":"ce4bgr92rcd13ifvqc6g","pricing_plan_id":"cebpf4jnsgd1na2vs0mg"},{"bike_id":"de6e6f6a-1f92-4f02-969c-8ba1e02fb18a","system_id":"levelo_inurba_marseille","lat":43.313391,"lon":5.36706,"is_reserved":false,"is_disabled":false,"rental_uris":{"android":"levelo://app?vid=de6e6f6a-1f92-4f02-969c-8ba1e02fb18a","ios":"levelo://app?vid=de6e6f6a-1f92-4f02-969c-8ba1e02fb18a"},"vehicle_type_id":"4","last_reported":1708412847,"current_range_meters":7200,"station_id":"ce4bgr92rcd13ifvqc6g","pricing_plan_id":"cebpf4jnsgd1na2vs0mg"},{"bike_id":"8ea4c9e5-7768-45b2-9603-3f9663d1b7e9","system_id":"levelo_inurba_marseille","lat":43.313391,"lon":5.36706,"is_reserved":false,"is_disabled":false,"rental_uris":{"android":"levelo://app?vid=8ea4c9e5-7768-45b2-9603-3f9663d1b7e9","ios":"levelo://app?vid=8ea4c9e5-7768-45b2-9603-3f9663d1b7e9"},"vehicle_type_id":"4","last_reported":1708412847,"current_range_meters":26800,"station_id":"ce4bgr92rcd13ifvqc6g","pricing_plan_id":"cebpf4jnsgd1na2vs0mg"},{"bike_id":"3908864c-72e2-4676-8c9a-563abdbf7623","system_id":"levelo_inurba_marseille","lat":43.313391,"lon":5.36706,"is_reserved":false,"is_disabled":false,"rental_uris":{"android":"levelo://app?vid=3908864c-72e2-4676-8c9a-563abdbf7623","ios":"levelo://app?vid=3908864c-72e2-4676-8c9a-563abdbf7623"},"vehicle_type_id":"4","last_reported":1708412847,"current_range_meters":27600,"station_id":"ce4bgr92rcd13ifvqc6g","pricing_plan_id":"cebpf4jnsgd1na2vs0mg"},{"bike_id":"92a2e0cf-8fe7-46c1-b929-92e227d73e81","system_id":"levelo_inurba_marseille","lat":43.312239,"lon":5.368562,"is_reserved":false,"is_disabled":false,"rental_uris":{"android":"levelo://app?vid=92a2e0cf-8fe7-46c1-b929-92e227d73e81","ios":"levelo://app?vid=92a2e0cf-8fe7-46c1-b929-92e227d73e81"},"vehicle_type_id":"4","last_reported":1708412847,"current_range_meters":11200,"station_id":"ce4bgl92rcd13ifvqbq0","pricing_plan_id":"cebpf4jnsgd1na2vs0mg"},{"bike_id":"dd579f94-1c7d-4a43-987b-d3afe4216fe0","system_id":"levelo_inurba_marseille","lat":43.312285,"lon":5.368695,"is_reserved":false,"is_disabled":false,"rental_uris":{"android":"levelo://app?vid=dd579f94-1c7d-4a43-987b-d3afe4216fe0","ios":"levelo://app?vid=dd579f94-1c7d-4a43-987b-d3afe4216fe0"},"vehicle_type_id":"4","last_reported":1708412847,"current_range_meters":5600,"station_id":"ce4bgl92rcd13ifvqbq0","pricing_plan_id":"cebpf4jnsgd1na2vs0mg"},{"bike_id":"afd3b4b4-5aad-492b-b829-e46df0ba5e80","system_id":"levelo_inurba_marseille","lat":43.312239,"lon":5.368562,"is_reserved":false,"is_disabled":false,"rental_uris":{"android":"levelo://app?vid=afd3b4b4-5aad-492b-b829-e46df0ba5e80","ios":"levelo://app?vid=afd3b4b4-5aad-492b-b829-e46df0ba5e80"},"vehicle_type_id":"4","last_reported":1708412847,"current_range_meters":0,"station_id":"ce4bgl92rcd13ifvqbq0","pricing_plan_id":"cebpf4jnsgd1na2vs0mg"},{"bike_id":"aa86d8f6-899f-451d-822e-a269e64199e9","system_id":"levelo_inurba_marseille","lat":43.309076,"lon":5.368465,"is_reserved":false,"is_disabled":false,"rental_uris":{"android":"levelo://app?vid=aa86d8f6-899f-451d-822e-a269e64199e9","ios":"levelo://app?vid=aa86d8f6-899f-451d-822e-a269e64199e9"},"vehicle_type_id":"4","last_reported":1708412847,"current_range_meters":28400,"station_id":"ce4bgn92rcd13ifvqbvg","pricing_plan_id":"cebpf4jnsgd1na2vs0mg"},{"bike_id":"7fe45a98-4b89-4763-bc50-b74867998861","system_id":"levelo_inurba_marseille","lat":43.309076,"lon":5.368465,"is_reserved":false,"is_disabled":false,"rental_uris":{"android":"levelo://app?vid=7fe45a98-4b89-4763-bc50-b74867998861","ios":"levelo://app?vid=7fe45a98-4b89-4763-bc50-b74867998861"},"vehicle_type_id":"4","last_reported":1708412847,"current_range_meters":20000,"station_id":"ce4bgn92rcd13ifvqbvg","pricing_plan_id":"cebpf4jnsgd1na2vs0mg"},{"bike_id":"92e7b8a0-a102-4741-adc3-f0ce6aa6d24c","system_id":"levelo_inurba_marseille","lat":43.309076,"lon":5.368465,"is_reserved":false,"is_disabled":false,"rental_uris":{"android":"levelo://app?vid=92e7b8a0-a102-4741-adc3-f0ce6aa6d24c","ios":"levelo://app?vid=92e7b8a0-a102-4741-adc3-f0ce6aa6d24c"},"vehicle_type_id":"4","last_reported":1708412847,"current_range_meters":13600,"station_id":"ce4bgn92rcd13ifvqbvg","pricing_plan_id":"cebpf4jnsgd1na2vs0mg"},{"bike_id":"2b9c75b3-3a84-4924-a09b-4cfbb7766589","system_id":"levelo_inurba_marseille","lat":43.309076,"lon":5.368465,"is_reserved":false,"is_disabled":false,"rental_uris":{"android":"levelo://app?vid=2b9c75b3-3a84-4924-a09b-4cfbb7766589","ios":"levelo://app?vid=2b9c75b3-3a84-4924-a09b-4cfbb7766589"},"vehicle_type_id":"4","last_reported":1708412847,"current_range_meters":25200,"station_id":"ce4bgn92rcd13ifvqbvg","pricing_plan_id":"cebpf4jnsgd1na2vs0mg"},{"bike_id":"fe01e54c-955e-4a2e-be89-53eaf7a1d7c5","system_id":"levelo_inurba_marseille","lat":43.309076,"lon":5.368465,"is_reserved":false,"is_disabled":false,"rental_uris":{"android":"levelo://app?vid=fe01e54c-955e-4a2e-be89-53eaf7a1d7c5","ios":"levelo://app?vid=fe01e54c-955e-4a2e-be89-53eaf7a1d7c5"},"vehicle_type_id":"4","last_reported":1708412847,"current_range_meters":24400,"station_id":"ce4bgn92rcd13ifvqbvg","pricing_plan_id":"cebpf4jnsgd1na2vs0mg"},{"bike_id":"afcc6ec3-2c87-496c-8425-2f0e25969ffc","system_id":"levelo_inurba_marseille","lat":43.314811,"lon":5.373103,"is_reserved":false,"is_disabled":false,"rental_uris":{"android":"levelo://app?vid=afcc6ec3-2c87-496c-8425-2f0e25969ffc","ios":"levelo://app?vid=afcc6ec3-2c87-496c-8425-2f0e25969ffc"},"vehicle_type_id":"4","last_reported":1708412847,"current_range_meters":23200,"station_id":"ce4bgt12rcd13ifvqcd0","pricing_plan_id":"cebpf4jnsgd1na2vs0mg"},{"bike_id":"77a6bfce-d5af-4448-be44-6a3fe72b94f5","system_id":"levelo_inurba_marseille","lat":43.31489,"lon":5.37303,"is_reserved":false,"is_disabled":false,"rental_uris":{"android":"levelo://app?vid=77a6bfce-d5af-4448-be44-6a3fe72b94f5","ios":"levelo://app?vid=77a6bfce-d5af-4448-be44-6a3fe72b94f5"},"vehicle_type_id":"4","last_reported":1708412847,"current_range_meters":30000,"station_id":"ce4bgt12rcd13ifvqcd0","pricing_plan_id":"cebpf4jnsgd1na2vs0mg"},{"bike_id":"bd58d97e-60bf-45a8-98e5-da27769e8020","system_id":"levelo_inurba_marseille","lat":43.314888,"lon":5.373065,"is_reserved":false,"is_disabled":false,"rental_uris":{"android":"levelo://app?vid=bd58d97e-60bf-45a8-98e5-da27769e8020","ios":"levelo://app?vid=bd58d97e-60bf-45a8-98e5-da27769e8020"},"vehicle_type_id":"4","last_reported":1708412847,"current_range_meters":23600,"station_id":"ce4bgt12rcd13ifvqcd0","pricing_plan_id":"cebpf4jnsgd1na2vs0mg"},{"bike_id":"a085094d-2ae3-4bba-adc6-d867bd3cf651","system_id":"levelo_inurba_marseille","lat":43.309039,"lon":5.371797,"is_reserved":false,"is_disabled":false,"rental_uris":{"android":"levelo://app?vid=a085094d-2ae3-4bba-adc6-d867bd3cf651","ios":"levelo://app?vid=a085094d-2ae3-4bba-adc6-d867bd3cf651"},"vehicle_type_id":"4","last_reported":1708412847,"current_range_meters":23200,"station_id":"ce4bguh2rcd13ifvqckg","pricing_plan_id":"cebpf4jnsgd1na2vs0mg"},{"bike_id":"3c40cb7e-cdb3-4173-afbc-30cbe6387844","system_id":"levelo_inurba_marseille","lat":43.309039,"lon":5.371797,"is_reserved":false,"is_disabled":false,"rental_uris":{"android":"levelo://app?vid=3c40cb7e-cdb3-4173-afbc-30cbe6387844","ios":"levelo://app?vid=3c40cb7e-cdb3-4173-afbc-30cbe6387844"},"vehicle_type_id":"4","last_reported":1708412847,"current_range_meters":30000,"station_id":"ce4bguh2rcd13ifvqckg","pricing_plan_id":"cebpf4jnsgd1na2vs0mg"},{"bike_id":"baa11324-bb88-4e8b-bc21-2fb556176053","system_id":"levelo_inurba_marseille","lat":43.309034,"lon":5.371783,"is_reserved":false,"is_disabled":false,"rental_uris":{"android":"levelo://app?vid=baa11324-bb88-4e8b-bc21-2fb556176053","ios":"levelo://app?vid=baa11324-bb88-4e8b-bc21-2fb556176053"},"vehicle_type_id":"4","last_reported":1708412847,"current_range_meters":10000,"station_id":"ce4bguh2rcd13ifvqckg","pricing_plan_id":"cebpf4jnsgd1na2vs0mg"},{"bike_id":"87138890-6208-4a01-8946-6d363571f9b5","system_id":"levelo_inurba_marseille","lat":43.305368,"lon":5.367343,"is_reserved":false,"is_disabled":false,"rental_uris":{"android":"levelo://app?vid=87138890-6208-4a01-8946-6d363571f9b5","ios":"levelo://app?vid=87138890-6208-4a01-8946-6d363571f9b5"},"vehicle_type_id":"4","last_reported":1708412847,"current_range_meters":10400,"station_id":"ce4bgrp2rcd13ifvqc9g","pricing_plan_id":"cebpf4jnsgd1na2vs0mg"},{"bike_id":"b77e2653-f49e-4c83-bdb0-73d07262a983","system_id":"levelo_inurba_marseille","lat":43.305368,"lon":5.367343,"is_reserved":false,"is_disabled":false,"rental_uris":{"android":"levelo://app?vid=b77e2653-f49e-4c83-bdb0-73d07262a983","ios":"levelo://app?vid=b77e2653-f49e-4c83-bdb0-73d07262a983"},"vehicle_type_id":"4","last_reported":1708412847,"current_range_meters":3200,"station_id":"ce4bgrp2rcd13ifvqc9g","pricing_plan_id":"cebpf4jnsgd1na2vs0mg"},{"bike_id":"c76207b6-2356-4aee-b839-35a6204002ef","system_id":"levelo_inurba_marseille","lat":43.305714,"lon":5.365633,"is_reserved":false,"is_disabled":false,"rental_uris":{"android":"levelo://app?vid=c76207b6-2356-4aee-b839-35a6204002ef","ios":"levelo://app?vid=c76207b6-2356-4aee-b839-35a6204002ef"},"vehicle_type_id":"4","last_reported":1708412847,"current_range_meters":17600,"station_id":"ce4bgs12rcd13ifvqcag","pricing_plan_id":"cebpf4jnsgd1na2vs0mg"},{"bike_id":"d6ccb790-7005-46de-9f93-56bef3dccac5","system_id":"levelo_inurba_marseille","lat":43.305368,"lon":5.367343,"is_reserved":false,"is_disabled":false,"rental_uris":{"android":"levelo://app?vid=d6ccb790-7005-46de-9f93-56bef3dccac5","ios":"levelo://app?vid=d6ccb790-7005-46de-9f93-56bef3dccac5"},"vehicle_type_id":"4","last_reported":1708412847,"current_range_meters":12800,"station_id":"ce4bgrp2rcd13ifvqc9g","pricing_plan_id":"cebpf4jnsgd1na2vs0mg"},{"bike_id":"2421ceff-feff-44b4-8970-2fe70530f557","system_id":"levelo_inurba_marseille","lat":43.305368,"lon":5.367343,"is_reserved":false,"is_disabled":false,"rental_uris":{"android":"levelo://app?vid=2421ceff-feff-44b4-8970-2fe70530f557","ios":"levelo://app?vid=2421ceff-feff-44b4-8970-2fe70530f557"},"vehicle_type_id":"4","last_reported":1708412847,"current_range_meters":23600,"station_id":"ce4bgrp2rcd13ifvqc9g","pricing_plan_id":"cebpf4jnsgd1na2vs0mg"},{"bike_id":"0f546a6d-736a-471d-80e4-023060196988","system_id":"levelo_inurba_marseille","lat":43.305368,"lon":5.367343,"is_reserved":false,"is_disabled":false,"rental_uris":{"android":"levelo://app?vid=0f546a6d-736a-471d-80e4-023060196988","ios":"levelo://app?vid=0f546a6d-736a-471d-80e4-023060196988"},"vehicle_type_id":"4","last_reported":1708412847,"current_range_meters":24400,"station_id":"ce4bgrp2rcd13ifvqc9g","pricing_plan_id":"cebpf4jnsgd1na2vs0mg"},{"bike_id":"ad9bf782-ea19-4929-80f7-0f4a922862d5","system_id":"levelo_inurba_marseille","lat":43.305706,"lon":5.365654,"is_reserved":false,"is_disabled":false,"rental_uris":{"android":"levelo://app?vid=ad9bf782-ea19-4929-80f7-0f4a922862d5","ios":"levelo://app?vid=ad9bf782-ea19-4929-80f7-0f4a922862d5"},"vehicle_type_id":"4","last_reported":1708412847,"current_range_meters":28400,"station_id":"ce4bgs12rcd13ifvqcag","pricing_plan_id":"cebpf4jnsgd1na2vs0mg"},{"bike_id":"675c80a3-b9fc-468c-b20f-35ec00122ca7","system_id":"levelo_inurba_marseille","lat":43.305989,"lon":5.37225,"is_reserved":false,"is_disabled":false,"rental_uris":{"android":"levelo://app?vid=675c80a3-b9fc-468c-b20f-35ec00122ca7","ios":"levelo://app?vid=675c80a3-b9fc-468c-b20f-35ec00122ca7"},"vehicle_type_id":"4","last_reported":1708412847,"current_range_meters":19200,"station_id":"ce4bgqh2rcd13ifvqc4g","pricing_plan_id":"cebpf4jnsgd1na2vs0mg"},{"bike_id":"407fc9a6-4776-4e53-9383-f15323f2ee7b","system_id":"levelo_inurba_marseille","lat":43.305714,"lon":5.365633,"is_reserved":false,"is_disabled":false,"rental_uris":{"android":"levelo://app?vid=407fc9a6-4776-4e53-9383-f15323f2ee7b","ios":"levelo://app?vid=407fc9a6-4776-4e53-9383-f15323f2ee7b"},"vehicle_type_id":"4","last_reported":1708412847,"current_range_meters":11600,"station_id":"ce4bgs12rcd13ifvqcag","pricing_plan_id":"cebpf4jnsgd1na2vs0mg"},{"bike_id":"4b344f12-0f9f-4752-950b-c81b8eeff9c4","system_id":"levelo_inurba_marseille","lat":43.307945,"lon":5.376487,"is_reserved":false,"is_disabled":false,"rental_uris":{"android":"levelo://app?vid=4b344f12-0f9f-4752-950b-c81b8eeff9c4","ios":"levelo://app?vid=4b344f12-0f9f-4752-950b-c81b8eeff9c4"},"vehicle_type_id":"4","last_reported":1708412847,"current_range_meters":29600,"station_id":"ce4bgv92rcd13ifvqcq0","pricing_plan_id":"cebpf4jnsgd1na2vs0mg"},{"bike_id":"9a0627e1-71b4-4c63-a7fd-578d5568d406","system_id":"levelo_inurba_marseille","lat":43.317075,"lon":5.377367,"is_reserved":false,"is_disabled":false,"rental_uris":{"android":"levelo://app?vid=9a0627e1-71b4-4c63-a7fd-578d5568d406","ios":"levelo://app?vid=9a0627e1-71b4-4c63-a7fd-578d5568d406"},"vehicle_type_id":"4","last_reported":1708412847,"current_range_meters":8000,"station_id":"ce4bgth2rcd13ifvqch0","pricing_plan_id":"cebpf4jnsgd1na2vs0mg"},{"bike_id":"e93332c8-71cb-4a70-a2cb-8dae89f30527","system_id":"levelo_inurba_marseille","lat":43.317075,"lon":5.377367,"is_reserved":false,"is_disabled":false,"rental_uris":{"android":"levelo://app?vid=e93332c8-71cb-4a70-a2cb-8dae89f30527","ios":"levelo://app?vid=e93332c8-71cb-4a70-a2cb-8dae89f30527"},"vehicle_type_id":"4","last_reported":1708412847,"current_range_meters":20800,"station_id":"ce4bgth2rcd13ifvqch0","pricing_plan_id":"cebpf4jnsgd1na2vs0mg"},{"bike_id":"0cf678d3-b7ee-41ea-bb68-21853415930e","system_id":"levelo_inurba_marseille","lat":43.303046,"lon":5.368981,"is_reserved":false,"is_disabled":false,"rental_uris":{"android":"levelo://app?vid=0cf678d3-b7ee-41ea-bb68-21853415930e","ios":"levelo://app?vid=0cf678d3-b7ee-41ea-bb68-21853415930e"},"vehicle_type_id":"4","last_reported":1708412847,"current_range_meters":30800,"station_id":"ce4bgqh2rcd13ifvqc5g","pricing_plan_id":"cebpf4jnsgd1na2vs0mg"},{"bike_id":"7a44c2fc-b4ab-4e5e-8997-85ecc76342aa","system_id":"levelo_inurba_marseille","lat":43.303046,"lon":5.368981,"is_reserved":false,"is_disabled":false,"rental_uris":{"android":"levelo://app?vid=7a44c2fc-b4ab-4e5e-8997-85ecc76342aa","ios":"levelo://app?vid=7a44c2fc-b4ab-4e5e-8997-85ecc76342aa"},"vehicle_type_id":"4","last_reported":1708412847,"current_range_meters":30800,"station_id":"ce4bgqh2rcd13ifvqc5g","pricing_plan_id":"cebpf4jnsgd1na2vs0mg"},{"bike_id":"ba7abea4-7e24-46bb-9b73-93d8ca3e3719","system_id":"levelo_inurba_marseille","lat":43.315293,"lon":5.380349,"is_reserved":false,"is_disabled":false,"rental_uris":{"android":"levelo://app?vid=ba7abea4-7e24-46bb-9b73-93d8ca3e3719","ios":"levelo://app?vid=ba7abea4-7e24-46bb-9b73-93d8ca3e3719"},"vehicle_type_id":"4","last_reported":1708412847,"current_range_meters":30800,"station_id":"ce4bhsp2rcd13ifvqi50","pricing_plan_id":"cebpf4jnsgd1na2vs0mg"},{"bike_id":"dd29dc10-971e-4c95-bc12-a7781abf89fa","system_id":"levelo_inurba_marseille","lat":43.304606,"lon":5.379026,"is_reserved":false,"is_disabled":false,"rental_uris":{"android":"levelo://app?vid=dd29dc10-971e-4c95-bc12-a7781abf89fa","ios":"levelo://app?vid=dd29dc10-971e-4c95-bc12-a7781abf89fa"},"vehicle_type_id":"4","last_reported":1708412847,"current_range_meters":24000,"station_id":"ce4bgup2rcd13ifvqcn0","pricing_plan_id":"cebpf4jnsgd1na2vs0mg"},{"bike_id":"0c934d51-c99c-4bcc-8b3a-59dcb286119f","system_id":"levelo_inurba_marseille","lat":43.304606,"lon":5.379026,"is_reserved":false,"is_disabled":false,"rental_uris":{"android":"levelo://app?vid=0c934d51-c99c-4bcc-8b3a-59dcb286119f","ios":"levelo://app?vid=0c934d51-c99c-4bcc-8b3a-59dcb286119f"},"vehicle_type_id":"4","last_reported":1708412847,"current_range_meters":25200,"station_id":"ce4bgup2rcd13ifvqcn0","pricing_plan_id":"cebpf4jnsgd1na2vs0mg"},{"bike_id":"2d27238c-b82f-4606-962d-742721113225","system_id":"levelo_inurba_marseille","lat":43.304606,"lon":5.379026,"is_reserved":false,"is_disabled":false,"rental_uris":{"android":"levelo://app?vid=2d27238c-b82f-4606-962d-742721113225","ios":"levelo://app?vid=2d27238c-b82f-4606-962d-742721113225"},"vehicle_type_id":"4","last_reported":1708412847,"current_range_meters":28800,"station_id":"ce4bgup2rcd13ifvqcn0","pricing_plan_id":"cebpf4jnsgd1na2vs0mg"},{"bike_id":"e14941d5-751d-424c-bbe3-452b8901729d","system_id":"levelo_inurba_marseille","lat":43.304606,"lon":5.379026,"is_reserved":false,"is_disabled":false,"rental_uris":{"android":"levelo://app?vid=e14941d5-751d-424c-bbe3-452b8901729d","ios":"levelo://app?vid=e14941d5-751d-424c-bbe3-452b8901729d"},"vehicle_type_id":"4","last_reported":1708412847,"current_range_meters":9200,"station_id":"ce4bgup2rcd13ifvqcn0","pricing_plan_id":"cebpf4jnsgd1na2vs0mg"},{"bike_id":"8bfbda1d-1055-46ad-afae-14869b614060","system_id":"levelo_inurba_marseille","lat":43.30479,"lon":5.37912,"is_reserved":false,"is_disabled":false,"rental_uris":{"android":"levelo://app?vid=8bfbda1d-1055-46ad-afae-14869b614060","ios":"levelo://app?vid=8bfbda1d-1055-46ad-afae-14869b614060"},"vehicle_type_id":"4","last_reported":1708412847,"current_range_meters":25600,"station_id":"ce4bgup2rcd13ifvqcn0","pricing_plan_id":"cebpf4jnsgd1na2vs0mg"},{"bike_id":"8d550040-84c1-4e8e-9fbd-8bffe39e349a","system_id":"levelo_inurba_marseille","lat":43.304606,"lon":5.379026,"is_reserved":false,"is_disabled":false,"rental_uris":{"android":"levelo://app?vid=8d550040-84c1-4e8e-9fbd-8bffe39e349a","ios":"levelo://app?vid=8d550040-84c1-4e8e-9fbd-8bffe39e349a"},"vehicle_type_id":"4","last_reported":1708412847,"current_range_meters":22000,"station_id":"ce4bgup2rcd13ifvqcn0","pricing_plan_id":"cebpf4jnsgd1na2vs0mg"},{"bike_id":"f4bf7078-373f-4212-a43f-83d0a55d56ac","system_id":"levelo_inurba_marseille","lat":43.30418,"lon":5.37836,"is_reserved":false,"is_disabled":false,"rental_uris":{"android":"levelo://app?vid=f4bf7078-373f-4212-a43f-83d0a55d56ac","ios":"levelo://app?vid=f4bf7078-373f-4212-a43f-83d0a55d56ac"},"vehicle_type_id":"4","last_reported":1708412847,"current_range_meters":15200,"station_id":"ce4bgup2rcd13ifvqcn0","pricing_plan_id":"cebpf4jnsgd1na2vs0mg"},{"bike_id":"9fc2bee8-9a71-4d1a-b13c-b2f6ee571704","system_id":"levelo_inurba_marseille","lat":43.304606,"lon":5.379026,"is_reserved":false,"is_disabled":false,"rental_uris":{"android":"levelo://app?vid=9fc2bee8-9a71-4d1a-b13c-b2f6ee571704","ios":"levelo://app?vid=9fc2bee8-9a71-4d1a-b13c-b2f6ee571704"},"vehicle_type_id":"4","last_reported":1708412847,"current_range_meters":22800,"station_id":"ce4bgup2rcd13ifvqcn0","pricing_plan_id":"cebpf4jnsgd1na2vs0mg"},{"bike_id":"55727068-9aae-477e-a080-f4690ca5a475","system_id":"levelo_inurba_marseille","lat":43.304606,"lon":5.379026,"is_reserved":false,"is_disabled":false,"rental_uris":{"android":"levelo://app?vid=55727068-9aae-477e-a080-f4690ca5a475","ios":"levelo://app?vid=55727068-9aae-477e-a080-f4690ca5a475"},"vehicle_type_id":"4","last_reported":1708412847,"current_range_meters":9600,"station_id":"ce4bgup2rcd13ifvqcn0","pricing_plan_id":"cebpf4jnsgd1na2vs0mg"},{"bike_id":"4291cd50-6a1a-473b-95eb-36d0775b4b94","system_id":"levelo_inurba_marseille","lat":43.30472,"lon":5.37909,"is_reserved":false,"is_disabled":false,"rental_uris":{"android":"levelo://app?vid=4291cd50-6a1a-473b-95eb-36d0775b4b94","ios":"levelo://app?vid=4291cd50-6a1a-473b-95eb-36d0775b4b94"},"vehicle_type_id":"4","last_reported":1708412847,"current_range_meters":24400,"station_id":"ce4bgup2rcd13ifvqcn0","pricing_plan_id":"cebpf4jnsgd1na2vs0mg"},{"bike_id":"e0c08968-fd9b-4916-95e4-ce61dfea9cce","system_id":"levelo_inurba_marseille","lat":43.304606,"lon":5.379026,"is_reserved":false,"is_disabled":false,"rental_uris":{"android":"levelo://app?vid=e0c08968-fd9b-4916-95e4-ce61dfea9cce","ios":"levelo://app?vid=e0c08968-fd9b-4916-95e4-ce61dfea9cce"},"vehicle_type_id":"4","last_reported":1708412847,"current_range_meters":7200,"station_id":"ce4bgup2rcd13ifvqcn0","pricing_plan_id":"cebpf4jnsgd1na2vs0mg"},{"bike_id":"a53c7028-4a14-4ed0-85d0-23c365829254","system_id":"levelo_inurba_marseille","lat":43.304606,"lon":5.379026,"is_reserved":false,"is_disabled":false,"rental_uris":{"android":"levelo://app?vid=a53c7028-4a14-4ed0-85d0-23c365829254","ios":"levelo://app?vid=a53c7028-4a14-4ed0-85d0-23c365829254"},"vehicle_type_id":"4","last_reported":1708412847,"current_range_meters":6400,"station_id":"ce4bgup2rcd13ifvqcn0","pricing_plan_id":"cebpf4jnsgd1na2vs0mg"},{"bike_id":"cda15912-2df2-49a6-bd3c-e6daabbad799","system_id":"levelo_inurba_marseille","lat":43.304606,"lon":5.379026,"is_reserved":false,"is_disabled":false,"rental_uris":{"android":"levelo://app?vid=cda15912-2df2-49a6-bd3c-e6daabbad799","ios":"levelo://app?vid=cda15912-2df2-49a6-bd3c-e6daabbad799"},"vehicle_type_id":"4","last_reported":1708412847,"current_range_meters":32000,"station_id":"ce4bgup2rcd13ifvqcn0","pricing_plan_id":"cebpf4jnsgd1na2vs0mg"},{"bike_id":"ecadd3d0-ce2a-4a80-b9b4-f4a7c0142925","system_id":"levelo_inurba_marseille","lat":43.304606,"lon":5.379026,"is_reserved":false,"is_disabled":false,"rental_uris":{"android":"levelo://app?vid=ecadd3d0-ce2a-4a80-b9b4-f4a7c0142925","ios":"levelo://app?vid=ecadd3d0-ce2a-4a80-b9b4-f4a7c0142925"},"vehicle_type_id":"4","last_reported":1708412847,"current_range_meters":30000,"station_id":"ce4bgup2rcd13ifvqcn0","pricing_plan_id":"cebpf4jnsgd1na2vs0mg"},{"bike_id":"7f55c5f7-32ff-4ffe-8195-729ce0df63bd","system_id":"levelo_inurba_marseille","lat":43.30466,"lon":5.37905,"is_reserved":false,"is_disabled":false,"rental_uris":{"android":"levelo://app?vid=7f55c5f7-32ff-4ffe-8195-729ce0df63bd","ios":"levelo://app?vid=7f55c5f7-32ff-4ffe-8195-729ce0df63bd"},"vehicle_type_id":"4","last_reported":1708412847,"current_range_meters":9600,"station_id":"ce4bgup2rcd13ifvqcn0","pricing_plan_id":"cebpf4jnsgd1na2vs0mg"},{"bike_id":"e8f31dc1-2999-4c90-a724-42a89a9abba4","system_id":"levelo_inurba_marseille","lat":43.304606,"lon":5.379026,"is_reserved":false,"is_disabled":false,"rental_uris":{"android":"levelo://app?vid=e8f31dc1-2999-4c90-a724-42a89a9abba4","ios":"levelo://app?vid=e8f31dc1-2999-4c90-a724-42a89a9abba4"},"vehicle_type_id":"4","last_reported":1708412847,"current_range_meters":21200,"station_id":"ce4bgup2rcd13ifvqcn0","pricing_plan_id":"cebpf4jnsgd1na2vs0mg"},{"bike_id":"8be5f303-4399-4b20-95be-5a2cf447d74c","system_id":"levelo_inurba_marseille","lat":43.304606,"lon":5.379026,"is_reserved":false,"is_disabled":false,"rental_uris":{"android":"levelo://app?vid=8be5f303-4399-4b20-95be-5a2cf447d74c","ios":"levelo://app?vid=8be5f303-4399-4b20-95be-5a2cf447d74c"},"vehicle_type_id":"4","last_reported":1708412847,"current_range_meters":23200,"station_id":"ce4bgup2rcd13ifvqcn0","pricing_plan_id":"cebpf4jnsgd1na2vs0mg"},{"bike_id":"2d513aad-9bcd-481d-8cd9-53b7db5ed5de","system_id":"levelo_inurba_marseille","lat":43.304606,"lon":5.379026,"is_reserved":false,"is_disabled":false,"rental_uris":{"android":"levelo://app?vid=2d513aad-9bcd-481d-8cd9-53b7db5ed5de","ios":"levelo://app?vid=2d513aad-9bcd-481d-8cd9-53b7db5ed5de"},"vehicle_type_id":"4","last_reported":1708412847,"current_range_meters":11200,"station_id":"ce4bgup2rcd13ifvqcn0","pricing_plan_id":"cebpf4jnsgd1na2vs0mg"},{"bike_id":"ed0a8bdb-4219-4717-8471-576d0e8c3f7b","system_id":"levelo_inurba_marseille","lat":43.304606,"lon":5.379026,"is_reserved":false,"is_disabled":false,"rental_uris":{"android":"levelo://app?vid=ed0a8bdb-4219-4717-8471-576d0e8c3f7b","ios":"levelo://app?vid=ed0a8bdb-4219-4717-8471-576d0e8c3f7b"},"vehicle_type_id":"4","last_reported":1708412847,"current_range_meters":24000,"station_id":"ce4bgup2rcd13ifvqcn0","pricing_plan_id":"cebpf4jnsgd1na2vs0mg"},{"bike_id":"9a983e1c-fa86-49a1-becb-983d3fb7bd4b","system_id":"levelo_inurba_marseille","lat":43.304606,"lon":5.379026,"is_reserved":false,"is_disabled":false,"rental_uris":{"android":"levelo://app?vid=9a983e1c-fa86-49a1-becb-983d3fb7bd4b","ios":"levelo://app?vid=9a983e1c-fa86-49a1-becb-983d3fb7bd4b"},"vehicle_type_id":"4","last_reported":1708412847,"current_range_meters":24800,"station_id":"ce4bgup2rcd13ifvqcn0","pricing_plan_id":"cebpf4jnsgd1na2vs0mg"},{"bike_id":"0b738e99-b6d1-42f2-ab8f-ecbfcc52a742","system_id":"levelo_inurba_marseille","lat":43.3047,"lon":5.37914,"is_reserved":false,"is_disabled":false,"rental_uris":{"android":"levelo://app?vid=0b738e99-b6d1-42f2-ab8f-ecbfcc52a742","ios":"levelo://app?vid=0b738e99-b6d1-42f2-ab8f-ecbfcc52a742"},"vehicle_type_id":"4","last_reported":1708412847,"current_range_meters":12800,"station_id":"ce4bgup2rcd13ifvqcn0","pricing_plan_id":"cebpf4jnsgd1na2vs0mg"},{"bike_id":"1d70671e-df04-4497-be27-3cb4b7cea532","system_id":"levelo_inurba_marseille","lat":43.304606,"lon":5.379026,"is_reserved":false,"is_disabled":false,"rental_uris":{"android":"levelo://app?vid=1d70671e-df04-4497-be27-3cb4b7cea532","ios":"levelo://app?vid=1d70671e-df04-4497-be27-3cb4b7cea532"},"vehicle_type_id":"4","last_reported":1708412847,"current_range_meters":8800,"station_id":"ce4bgup2rcd13ifvqcn0","pricing_plan_id":"cebpf4jnsgd1na2vs0mg"},{"bike_id":"93ed8d4b-7740-472e-8637-33f5f9095b20","system_id":"levelo_inurba_marseille","lat":43.304606,"lon":5.379026,"is_reserved":false,"is_disabled":false,"rental_uris":{"android":"levelo://app?vid=93ed8d4b-7740-472e-8637-33f5f9095b20","ios":"levelo://app?vid=93ed8d4b-7740-472e-8637-33f5f9095b20"},"vehicle_type_id":"4","last_reported":1708412847,"current_range_meters":30000,"station_id":"ce4bgup2rcd13ifvqcn0","pricing_plan_id":"cebpf4jnsgd1na2vs0mg"},{"bike_id":"2a78bcb1-0a47-43a5-94c6-a6d112f2461c","system_id":"levelo_inurba_marseille","lat":43.30466,"lon":5.3791,"is_reserved":false,"is_disabled":false,"rental_uris":{"android":"levelo://app?vid=2a78bcb1-0a47-43a5-94c6-a6d112f2461c","ios":"levelo://app?vid=2a78bcb1-0a47-43a5-94c6-a6d112f2461c"},"vehicle_type_id":"4","last_reported":1708412847,"current_range_meters":24000,"station_id":"ce4bgup2rcd13ifvqcn0","pricing_plan_id":"cebpf4jnsgd1na2vs0mg"},{"bike_id":"86fe0275-45e2-4c3c-bf2a-072865b81b33","system_id":"levelo_inurba_marseille","lat":43.304606,"lon":5.379026,"is_reserved":false,"is_disabled":false,"rental_uris":{"android":"levelo://app?vid=86fe0275-45e2-4c3c-bf2a-072865b81b33","ios":"levelo://app?vid=86fe0275-45e2-4c3c-bf2a-072865b81b33"},"vehicle_type_id":"4","last_reported":1708412847,"current_range_meters":26400,"station_id":"ce4bgup2rcd13ifvqcn0","pricing_plan_id":"cebpf4jnsgd1na2vs0mg"},{"bike_id":"f573daad-fafa-4eeb-ae02-36c51aebadd7","system_id":"levelo_inurba_marseille","lat":43.304606,"lon":5.379026,"is_reserved":false,"is_disabled":false,"rental_uris":{"android":"levelo://app?vid=f573daad-fafa-4eeb-ae02-36c51aebadd7","ios":"levelo://app?vid=f573daad-fafa-4eeb-ae02-36c51aebadd7"},"vehicle_type_id":"4","last_reported":1708412847,"current_range_meters":8000,"station_id":"ce4bgup2rcd13ifvqcn0","pricing_plan_id":"cebpf4jnsgd1na2vs0mg"},{"bike_id":"a3ec08d2-0df0-47ef-8440-b1b6ef54eb4e","system_id":"levelo_inurba_marseille","lat":43.304606,"lon":5.379026,"is_reserved":false,"is_disabled":false,"rental_uris":{"android":"levelo://app?vid=a3ec08d2-0df0-47ef-8440-b1b6ef54eb4e","ios":"levelo://app?vid=a3ec08d2-0df0-47ef-8440-b1b6ef54eb4e"},"vehicle_type_id":"4","last_reported":1708412847,"current_range_meters":20800,"station_id":"ce4bgup2rcd13ifvqcn0","pricing_plan_id":"cebpf4jnsgd1na2vs0mg"},{"bike_id":"b434730b-4569-4c2c-88a8-c4a3e85df0cc","system_id":"levelo_inurba_marseille","lat":43.304606,"lon":5.379026,"is_reserved":false,"is_disabled":false,"rental_uris":{"android":"levelo://app?vid=b434730b-4569-4c2c-88a8-c4a3e85df0cc","ios":"levelo://app?vid=b434730b-4569-4c2c-88a8-c4a3e85df0cc"},"vehicle_type_id":"4","last_reported":1708412847,"current_range_meters":28400,"station_id":"ce4bgup2rcd13ifvqcn0","pricing_plan_id":"cebpf4jnsgd1na2vs0mg"},{"bike_id":"8b947539-fb97-40d0-83b1-658f2d793c8b","system_id":"levelo_inurba_marseille","lat":43.304606,"lon":5.379026,"is_reserved":false,"is_disabled":false,"rental_uris":{"android":"levelo://app?vid=8b947539-fb97-40d0-83b1-658f2d793c8b","ios":"levelo://app?vid=8b947539-fb97-40d0-83b1-658f2d793c8b"},"vehicle_type_id":"4","last_reported":1708412847,"current_range_meters":22000,"station_id":"ce4bgup2rcd13ifvqcn0","pricing_plan_id":"cebpf4jnsgd1na2vs0mg"},{"bike_id":"e2cbe493-7b0e-4dfd-b0b6-b478841d1323","system_id":"levelo_inurba_marseille","lat":43.304606,"lon":5.379026,"is_reserved":false,"is_disabled":false,"rental_uris":{"android":"levelo://app?vid=e2cbe493-7b0e-4dfd-b0b6-b478841d1323","ios":"levelo://app?vid=e2cbe493-7b0e-4dfd-b0b6-b478841d1323"},"vehicle_type_id":"4","last_reported":1708412847,"current_range_meters":28400,"station_id":"ce4bgup2rcd13ifvqcn0","pricing_plan_id":"cebpf4jnsgd1na2vs0mg"},{"bike_id":"0637d01b-b4dd-46eb-806f-ee4396403cbd","system_id":"levelo_inurba_marseille","lat":43.304606,"lon":5.379026,"is_reserved":false,"is_disabled":false,"rental_uris":{"android":"levelo://app?vid=0637d01b-b4dd-46eb-806f-ee4396403cbd","ios":"levelo://app?vid=0637d01b-b4dd-46eb-806f-ee4396403cbd"},"vehicle_type_id":"4","last_reported":1708412847,"current_range_meters":21600,"station_id":"ce4bgup2rcd13ifvqcn0","pricing_plan_id":"cebpf4jnsgd1na2vs0mg"},{"bike_id":"2da3c4c6-024d-4812-9650-a02ba7413858","system_id":"levelo_inurba_marseille","lat":43.30466,"lon":5.37916,"is_reserved":false,"is_disabled":false,"rental_uris":{"android":"levelo://app?vid=2da3c4c6-024d-4812-9650-a02ba7413858","ios":"levelo://app?vid=2da3c4c6-024d-4812-9650-a02ba7413858"},"vehicle_type_id":"4","last_reported":1708412847,"current_range_meters":28400,"station_id":"ce4bgup2rcd13ifvqcn0","pricing_plan_id":"cebpf4jnsgd1na2vs0mg"},{"bike_id":"dfd4f9b7-73b9-47a3-9464-7eb242a981fc","system_id":"levelo_inurba_marseille","lat":43.304606,"lon":5.379026,"is_reserved":false,"is_disabled":false,"rental_uris":{"android":"levelo://app?vid=dfd4f9b7-73b9-47a3-9464-7eb242a981fc","ios":"levelo://app?vid=dfd4f9b7-73b9-47a3-9464-7eb242a981fc"},"vehicle_type_id":"4","last_reported":1708412847,"current_range_meters":11600,"station_id":"ce4bgup2rcd13ifvqcn0","pricing_plan_id":"cebpf4jnsgd1na2vs0mg"},{"bike_id":"3f5a95a1-d15b-49dd-b6f4-3a88962268c4","system_id":"levelo_inurba_marseille","lat":43.324771,"lon":5.36557,"is_reserved":false,"is_disabled":false,"rental_uris":{"android":"levelo://app?vid=3f5a95a1-d15b-49dd-b6f4-3a88962268c4","ios":"levelo://app?vid=3f5a95a1-d15b-49dd-b6f4-3a88962268c4"},"vehicle_type_id":"4","last_reported":1708412847,"current_range_meters":31200,"station_id":"ce4bhs12rcd13ifvqhvg","pricing_plan_id":"cebpf4jnsgd1na2vs0mg"},{"bike_id":"a1411f93-559d-4c55-b53d-718f28f579af","system_id":"levelo_inurba_marseille","lat":43.324771,"lon":5.36557,"is_reserved":false,"is_disabled":false,"rental_uris":{"android":"levelo://app?vid=a1411f93-559d-4c55-b53d-718f28f579af","ios":"levelo://app?vid=a1411f93-559d-4c55-b53d-718f28f579af"},"vehicle_type_id":"4","last_reported":1708412847,"current_range_meters":400,"station_id":"ce4bhs12rcd13ifvqhvg","pricing_plan_id":"cebpf4jnsgd1na2vs0mg"},{"bike_id":"da92f469-3a3c-46b4-b677-51d11f229083","system_id":"levelo_inurba_marseille","lat":43.304606,"lon":5.379026,"is_reserved":false,"is_disabled":false,"rental_uris":{"android":"levelo://app?vid=da92f469-3a3c-46b4-b677-51d11f229083","ios":"levelo://app?vid=da92f469-3a3c-46b4-b677-51d11f229083"},"vehicle_type_id":"4","last_reported":1708412847,"current_range_meters":22400,"station_id":"ce4bgup2rcd13ifvqcn0","pricing_plan_id":"cebpf4jnsgd1na2vs0mg"},{"bike_id":"13ed5772-d318-40c2-a1ab-114038408622","system_id":"levelo_inurba_marseille","lat":43.324771,"lon":5.36557,"is_reserved":false,"is_disabled":false,"rental_uris":{"android":"levelo://app?vid=13ed5772-d318-40c2-a1ab-114038408622","ios":"levelo://app?vid=13ed5772-d318-40c2-a1ab-114038408622"},"vehicle_type_id":"4","last_reported":1708412847,"current_range_meters":28800,"station_id":"ce4bhs12rcd13ifvqhvg","pricing_plan_id":"cebpf4jnsgd1na2vs0mg"},{"bike_id":"1e6c444c-1d7d-4c72-a23b-e42aa29156f7","system_id":"levelo_inurba_marseille","lat":43.30464,"lon":5.37921,"is_reserved":false,"is_disabled":false,"rental_uris":{"android":"levelo://app?vid=1e6c444c-1d7d-4c72-a23b-e42aa29156f7","ios":"levelo://app?vid=1e6c444c-1d7d-4c72-a23b-e42aa29156f7"},"vehicle_type_id":"4","last_reported":1708412847,"current_range_meters":14000,"station_id":"ce4bgup2rcd13ifvqcn0","pricing_plan_id":"cebpf4jnsgd1na2vs0mg"},{"bike_id":"787b97fd-3045-418a-93db-948f0d624107","system_id":"levelo_inurba_marseille","lat":43.324771,"lon":5.36557,"is_reserved":false,"is_disabled":false,"rental_uris":{"android":"levelo://app?vid=787b97fd-3045-418a-93db-948f0d624107","ios":"levelo://app?vid=787b97fd-3045-418a-93db-948f0d624107"},"vehicle_type_id":"4","last_reported":1708412847,"current_range_meters":20000,"station_id":"ce4bhs12rcd13ifvqhvg","pricing_plan_id":"cebpf4jnsgd1na2vs0mg"},{"bike_id":"e5a43df1-97ba-4067-8df7-f3537edbfa4b","system_id":"levelo_inurba_marseille","lat":43.324771,"lon":5.36557,"is_reserved":false,"is_disabled":false,"rental_uris":{"android":"levelo://app?vid=e5a43df1-97ba-4067-8df7-f3537edbfa4b","ios":"levelo://app?vid=e5a43df1-97ba-4067-8df7-f3537edbfa4b"},"vehicle_type_id":"4","last_reported":1708412847,"current_range_meters":30800,"station_id":"ce4bhs12rcd13ifvqhvg","pricing_plan_id":"cebpf4jnsgd1na2vs0mg"},{"bike_id":"5f3727da-be6d-4245-8b7a-5c108328736b","system_id":"levelo_inurba_marseille","lat":43.324771,"lon":5.36557,"is_reserved":false,"is_disabled":false,"rental_uris":{"android":"levelo://app?vid=5f3727da-be6d-4245-8b7a-5c108328736b","ios":"levelo://app?vid=5f3727da-be6d-4245-8b7a-5c108328736b"},"vehicle_type_id":"4","last_reported":1708412847,"current_range_meters":1600,"station_id":"ce4bhs12rcd13ifvqhvg","pricing_plan_id":"cebpf4jnsgd1na2vs0mg"},{"bike_id":"4241c88f-4ed7-4692-b672-5d96e43dcb63","system_id":"levelo_inurba_marseille","lat":43.324771,"lon":5.36557,"is_reserved":false,"is_disabled":false,"rental_uris":{"android":"levelo://app?vid=4241c88f-4ed7-4692-b672-5d96e43dcb63","ios":"levelo://app?vid=4241c88f-4ed7-4692-b672-5d96e43dcb63"},"vehicle_type_id":"4","last_reported":1708412847,"current_range_meters":12800,"station_id":"ce4bhs12rcd13ifvqhvg","pricing_plan_id":"cebpf4jnsgd1na2vs0mg"},{"bike_id":"2c6c36c9-7e02-4a23-ad99-472b535677b4","system_id":"levelo_inurba_marseille","lat":43.324771,"lon":5.36557,"is_reserved":false,"is_disabled":false,"rental_uris":{"android":"levelo://app?vid=2c6c36c9-7e02-4a23-ad99-472b535677b4","ios":"levelo://app?vid=2c6c36c9-7e02-4a23-ad99-472b535677b4"},"vehicle_type_id":"4","last_reported":1708412847,"current_range_meters":6000,"station_id":"ce4bhs12rcd13ifvqhvg","pricing_plan_id":"cebpf4jnsgd1na2vs0mg"},{"bike_id":"cda8eb5b-2134-4fe4-b0ac-1209e0bbc329","system_id":"levelo_inurba_marseille","lat":43.324771,"lon":5.36557,"is_reserved":false,"is_disabled":false,"rental_uris":{"android":"levelo://app?vid=cda8eb5b-2134-4fe4-b0ac-1209e0bbc329","ios":"levelo://app?vid=cda8eb5b-2134-4fe4-b0ac-1209e0bbc329"},"vehicle_type_id":"4","last_reported":1708412847,"current_range_meters":19200,"station_id":"ce4bhs12rcd13ifvqhvg","pricing_plan_id":"cebpf4jnsgd1na2vs0mg"},{"bike_id":"4cd60cd3-101b-4a05-9703-76840434a255","system_id":"levelo_inurba_marseille","lat":43.324771,"lon":5.36557,"is_reserved":false,"is_disabled":false,"rental_uris":{"android":"levelo://app?vid=4cd60cd3-101b-4a05-9703-76840434a255","ios":"levelo://app?vid=4cd60cd3-101b-4a05-9703-76840434a255"},"vehicle_type_id":"4","last_reported":1708412847,"current_range_meters":26400,"station_id":"ce4bhs12rcd13ifvqhvg","pricing_plan_id":"cebpf4jnsgd1na2vs0mg"},{"bike_id":"0c68f0db-4e50-4629-ba3a-39f94737ad6c","system_id":"levelo_inurba_marseille","lat":43.324771,"lon":5.36557,"is_reserved":false,"is_disabled":false,"rental_uris":{"android":"levelo://app?vid=0c68f0db-4e50-4629-ba3a-39f94737ad6c","ios":"levelo://app?vid=0c68f0db-4e50-4629-ba3a-39f94737ad6c"},"vehicle_type_id":"4","last_reported":1708412847,"current_range_meters":28400,"station_id":"ce4bhs12rcd13ifvqhvg","pricing_plan_id":"cebpf4jnsgd1na2vs0mg"},{"bike_id":"caaf26f8-fbed-445b-be7b-3ecf625cc521","system_id":"levelo_inurba_marseille","lat":43.324771,"lon":5.36557,"is_reserved":false,"is_disabled":false,"rental_uris":{"android":"levelo://app?vid=caaf26f8-fbed-445b-be7b-3ecf625cc521","ios":"levelo://app?vid=caaf26f8-fbed-445b-be7b-3ecf625cc521"},"vehicle_type_id":"4","last_reported":1708412847,"current_range_meters":31200,"station_id":"ce4bhs12rcd13ifvqhvg","pricing_plan_id":"cebpf4jnsgd1na2vs0mg"},{"bike_id":"6ae0dc6b-fa28-42a7-8dfc-d8f7c5003e94","system_id":"levelo_inurba_marseille","lat":43.302867,"lon":5.376993,"is_reserved":false,"is_disabled":false,"rental_uris":{"android":"levelo://app?vid=6ae0dc6b-fa28-42a7-8dfc-d8f7c5003e94","ios":"levelo://app?vid=6ae0dc6b-fa28-42a7-8dfc-d8f7c5003e94"},"vehicle_type_id":"4","last_reported":1708412847,"current_range_meters":13200,"station_id":"ce4bguh2rcd13ifvqcj0","pricing_plan_id":"cebpf4jnsgd1na2vs0mg"},{"bike_id":"560b6f24-f3e7-4af3-8d76-60ee43aef603","system_id":"levelo_inurba_marseille","lat":43.302784,"lon":5.377158,"is_reserved":false,"is_disabled":false,"rental_uris":{"android":"levelo://app?vid=560b6f24-f3e7-4af3-8d76-60ee43aef603","ios":"levelo://app?vid=560b6f24-f3e7-4af3-8d76-60ee43aef603"},"vehicle_type_id":"4","last_reported":1708412847,"current_range_meters":5600,"station_id":"ce4bguh2rcd13ifvqcj0","pricing_plan_id":"cebpf4jnsgd1na2vs0mg"},{"bike_id":"802f2650-b989-4954-82fb-91a79bdd2ca2","system_id":"levelo_inurba_marseille","lat":43.30279,"lon":5.37694,"is_reserved":false,"is_disabled":false,"rental_uris":{"android":"levelo://app?vid=802f2650-b989-4954-82fb-91a79bdd2ca2","ios":"levelo://app?vid=802f2650-b989-4954-82fb-91a79bdd2ca2"},"vehicle_type_id":"4","last_reported":1708412847,"current_range_meters":26000,"station_id":"ce4bguh2rcd13ifvqcj0","pricing_plan_id":"cebpf4jnsgd1na2vs0mg"},{"bike_id":"4da289ef-a299-4e3e-9d0d-6f2ec4a8c034","system_id":"levelo_inurba_marseille","lat":43.30277,"lon":5.37694,"is_reserved":false,"is_disabled":false,"rental_uris":{"android":"levelo://app?vid=4da289ef-a299-4e3e-9d0d-6f2ec4a8c034","ios":"levelo://app?vid=4da289ef-a299-4e3e-9d0d-6f2ec4a8c034"},"vehicle_type_id":"4","last_reported":1708412847,"current_range_meters":15200,"station_id":"ce4bguh2rcd13ifvqcj0","pricing_plan_id":"cebpf4jnsgd1na2vs0mg"},{"bike_id":"3704cf4c-8512-4858-bd94-30b96cc8bc29","system_id":"levelo_inurba_marseille","lat":43.301429,"lon":5.37413,"is_reserved":false,"is_disabled":false,"rental_uris":{"android":"levelo://app?vid=3704cf4c-8512-4858-bd94-30b96cc8bc29","ios":"levelo://app?vid=3704cf4c-8512-4858-bd94-30b96cc8bc29"},"vehicle_type_id":"4","last_reported":1708412847,"current_range_meters":26400,"station_id":"ce4bgs92rcd13ifvqcc0","pricing_plan_id":"cebpf4jnsgd1na2vs0mg"},{"bike_id":"10ac69d4-c3b7-4fbf-886a-0323072de053","system_id":"levelo_inurba_marseille","lat":43.301429,"lon":5.37413,"is_reserved":false,"is_disabled":false,"rental_uris":{"android":"levelo://app?vid=10ac69d4-c3b7-4fbf-886a-0323072de053","ios":"levelo://app?vid=10ac69d4-c3b7-4fbf-886a-0323072de053"},"vehicle_type_id":"4","last_reported":1708412847,"current_range_meters":28400,"station_id":"ce4bgs92rcd13ifvqcc0","pricing_plan_id":"cebpf4jnsgd1na2vs0mg"},{"bike_id":"66bbdbdc-5867-4c8b-b947-260ef36e2177","system_id":"levelo_inurba_marseille","lat":43.301429,"lon":5.37413,"is_reserved":false,"is_disabled":false,"rental_uris":{"android":"levelo://app?vid=66bbdbdc-5867-4c8b-b947-260ef36e2177","ios":"levelo://app?vid=66bbdbdc-5867-4c8b-b947-260ef36e2177"},"vehicle_type_id":"4","last_reported":1708412847,"current_range_meters":30000,"station_id":"ce4bgs92rcd13ifvqcc0","pricing_plan_id":"cebpf4jnsgd1na2vs0mg"},{"bike_id":"a356a71d-8723-493e-8dd7-0d2f4f5a935a","system_id":"levelo_inurba_marseille","lat":43.30655,"lon":5.38195,"is_reserved":false,"is_disabled":false,"rental_uris":{"android":"levelo://app?vid=a356a71d-8723-493e-8dd7-0d2f4f5a935a","ios":"levelo://app?vid=a356a71d-8723-493e-8dd7-0d2f4f5a935a"},"vehicle_type_id":"4","last_reported":1708412847,"current_range_meters":2400,"station_id":"","pricing_plan_id":"cebpf4jnsgd1na2vs0mg"},{"bike_id":"5c6e0fb2-f144-490a-9cdd-646f5b3972f4","system_id":"levelo_inurba_marseille","lat":43.313571,"lon":5.384829,"is_reserved":false,"is_disabled":false,"rental_uris":{"android":"levelo://app?vid=5c6e0fb2-f144-490a-9cdd-646f5b3972f4","ios":"levelo://app?vid=5c6e0fb2-f144-490a-9cdd-646f5b3972f4"},"vehicle_type_id":"4","last_reported":1708412847,"current_range_meters":30400,"station_id":"ce4bgt92rcd13ifvqcf0","pricing_plan_id":"cebpf4jnsgd1na2vs0mg"},{"bike_id":"f8387d48-5c37-46a2-9809-5aa56bf91c54","system_id":"levelo_inurba_marseille","lat":43.313571,"lon":5.384829,"is_reserved":false,"is_disabled":false,"rental_uris":{"android":"levelo://app?vid=f8387d48-5c37-46a2-9809-5aa56bf91c54","ios":"levelo://app?vid=f8387d48-5c37-46a2-9809-5aa56bf91c54"},"vehicle_type_id":"4","last_reported":1708412847,"current_range_meters":2400,"station_id":"ce4bgt92rcd13ifvqcf0","pricing_plan_id":"cebpf4jnsgd1na2vs0mg"},{"bike_id":"ab10e15e-1612-41a9-a1f8-1ed40565f54b","system_id":"levelo_inurba_marseille","lat":43.313571,"lon":5.384829,"is_reserved":false,"is_disabled":false,"rental_uris":{"android":"levelo://app?vid=ab10e15e-1612-41a9-a1f8-1ed40565f54b","ios":"levelo://app?vid=ab10e15e-1612-41a9-a1f8-1ed40565f54b"},"vehicle_type_id":"4","last_reported":1708412847,"current_range_meters":30400,"station_id":"ce4bgt92rcd13ifvqcf0","pricing_plan_id":"cebpf4jnsgd1na2vs0mg"},{"bike_id":"0256e02c-9bd1-4bc2-8316-e151c18c4971","system_id":"levelo_inurba_marseille","lat":43.31358,"lon":5.38498,"is_reserved":false,"is_disabled":false,"rental_uris":{"android":"levelo://app?vid=0256e02c-9bd1-4bc2-8316-e151c18c4971","ios":"levelo://app?vid=0256e02c-9bd1-4bc2-8316-e151c18c4971"},"vehicle_type_id":"4","last_reported":1708412847,"current_range_meters":21200,"station_id":"ce4bgt92rcd13ifvqcf0","pricing_plan_id":"cebpf4jnsgd1na2vs0mg"},{"bike_id":"28c65787-0a8c-43e3-bc67-a696bd340cbd","system_id":"levelo_inurba_marseille","lat":43.313527,"lon":5.384986,"is_reserved":false,"is_disabled":false,"rental_uris":{"android":"levelo://app?vid=28c65787-0a8c-43e3-bc67-a696bd340cbd","ios":"levelo://app?vid=28c65787-0a8c-43e3-bc67-a696bd340cbd"},"vehicle_type_id":"4","last_reported":1708412847,"current_range_meters":29600,"station_id":"ce4bgt92rcd13ifvqcf0","pricing_plan_id":"cebpf4jnsgd1na2vs0mg"},{"bike_id":"bb07859f-92b9-47ba-9976-074cac8a8f20","system_id":"levelo_inurba_marseille","lat":43.313675,"lon":5.384985,"is_reserved":false,"is_disabled":false,"rental_uris":{"android":"levelo://app?vid=bb07859f-92b9-47ba-9976-074cac8a8f20","ios":"levelo://app?vid=bb07859f-92b9-47ba-9976-074cac8a8f20"},"vehicle_type_id":"4","last_reported":1708412847,"current_range_meters":29200,"station_id":"ce4bgt92rcd13ifvqcf0","pricing_plan_id":"cebpf4jnsgd1na2vs0mg"},{"bike_id":"cd691f77-d9b0-4b4f-9184-3718de57d41c","system_id":"levelo_inurba_marseille","lat":43.313571,"lon":5.384829,"is_reserved":false,"is_disabled":false,"rental_uris":{"android":"levelo://app?vid=cd691f77-d9b0-4b4f-9184-3718de57d41c","ios":"levelo://app?vid=cd691f77-d9b0-4b4f-9184-3718de57d41c"},"vehicle_type_id":"4","last_reported":1708412847,"current_range_meters":30400,"station_id":"ce4bgt92rcd13ifvqcf0","pricing_plan_id":"cebpf4jnsgd1na2vs0mg"},{"bike_id":"63838351-a6a1-494f-80d2-d6c73201e40e","system_id":"levelo_inurba_marseille","lat":43.31361,"lon":5.38502,"is_reserved":false,"is_disabled":false,"rental_uris":{"android":"levelo://app?vid=63838351-a6a1-494f-80d2-d6c73201e40e","ios":"levelo://app?vid=63838351-a6a1-494f-80d2-d6c73201e40e"},"vehicle_type_id":"4","last_reported":1708412847,"current_range_meters":30000,"station_id":"ce4bgt92rcd13ifvqcf0","pricing_plan_id":"cebpf4jnsgd1na2vs0mg"},{"bike_id":"fb6930b4-ca3f-4177-ab7d-6c24aab3cf8c","system_id":"levelo_inurba_marseille","lat":43.313571,"lon":5.384829,"is_reserved":false,"is_disabled":false,"rental_uris":{"android":"levelo://app?vid=fb6930b4-ca3f-4177-ab7d-6c24aab3cf8c","ios":"levelo://app?vid=fb6930b4-ca3f-4177-ab7d-6c24aab3cf8c"},"vehicle_type_id":"4","last_reported":1708412847,"current_range_meters":30000,"station_id":"ce4bgt92rcd13ifvqcf0","pricing_plan_id":"cebpf4jnsgd1na2vs0mg"},{"bike_id":"6b22cc24-9301-4259-808b-0841246a1426","system_id":"levelo_inurba_marseille","lat":43.299222,"lon":5.365554,"is_reserved":false,"is_disabled":false,"rental_uris":{"android":"levelo://app?vid=6b22cc24-9301-4259-808b-0841246a1426","ios":"levelo://app?vid=6b22cc24-9301-4259-808b-0841246a1426"},"vehicle_type_id":"4","last_reported":1708412847,"current_range_meters":20800,"station_id":"ce4bgm92rcd13ifvqbr0","pricing_plan_id":"cebpf4jnsgd1na2vs0mg"},{"bike_id":"633c11d0-89d9-4474-b29e-a064b87f2276","system_id":"levelo_inurba_marseille","lat":43.311852,"lon":5.385721,"is_reserved":false,"is_disabled":false,"rental_uris":{"android":"levelo://app?vid=633c11d0-89d9-4474-b29e-a064b87f2276","ios":"levelo://app?vid=633c11d0-89d9-4474-b29e-a064b87f2276"},"vehicle_type_id":"4","last_reported":1708412847,"current_range_meters":10800,"station_id":"","pricing_plan_id":"cebpf4jnsgd1na2vs0mg"},{"bike_id":"c1c7374d-5be7-4f69-a6f3-24fac5d9fcc7","system_id":"levelo_inurba_marseille","lat":43.298433,"lon":5.362774,"is_reserved":false,"is_disabled":false,"rental_uris":{"android":"levelo://app?vid=c1c7374d-5be7-4f69-a6f3-24fac5d9fcc7","ios":"levelo://app?vid=c1c7374d-5be7-4f69-a6f3-24fac5d9fcc7"},"vehicle_type_id":"4","last_reported":1708412847,"current_range_meters":31600,"station_id":"ce4bgpp2rcd13ifvqc3g","pricing_plan_id":"cebpf4jnsgd1na2vs0mg"},{"bike_id":"adf795ee-6d87-40c5-9a8a-45d1e25c63f4","system_id":"levelo_inurba_marseille","lat":43.298433,"lon":5.362774,"is_reserved":false,"is_disabled":false,"rental_uris":{"android":"levelo://app?vid=adf795ee-6d87-40c5-9a8a-45d1e25c63f4","ios":"levelo://app?vid=adf795ee-6d87-40c5-9a8a-45d1e25c63f4"},"vehicle_type_id":"4","last_reported":1708412847,"current_range_meters":28800,"station_id":"ce4bgpp2rcd13ifvqc3g","pricing_plan_id":"cebpf4jnsgd1na2vs0mg"},{"bike_id":"f95ee4f3-16e8-4412-b0c2-3bc50d71e05b","system_id":"levelo_inurba_marseille","lat":43.305364,"lon":5.384119,"is_reserved":false,"is_disabled":false,"rental_uris":{"android":"levelo://app?vid=f95ee4f3-16e8-4412-b0c2-3bc50d71e05b","ios":"levelo://app?vid=f95ee4f3-16e8-4412-b0c2-3bc50d71e05b"},"vehicle_type_id":"4","last_reported":1708412847,"current_range_meters":13200,"station_id":"ce4bgg92rcd13ifvqb30","pricing_plan_id":"cebpf4jnsgd1na2vs0mg"},{"bike_id":"23106fdf-bef1-43b8-9049-76b15a3a7b2e","system_id":"levelo_inurba_marseille","lat":43.305364,"lon":5.384119,"is_reserved":false,"is_disabled":false,"rental_uris":{"android":"levelo://app?vid=23106fdf-bef1-43b8-9049-76b15a3a7b2e","ios":"levelo://app?vid=23106fdf-bef1-43b8-9049-76b15a3a7b2e"},"vehicle_type_id":"4","last_reported":1708412847,"current_range_meters":16000,"station_id":"ce4bgg92rcd13ifvqb30","pricing_plan_id":"cebpf4jnsgd1na2vs0mg"},{"bike_id":"3571987e-39cf-4d08-8e97-0689cea1def8","system_id":"levelo_inurba_marseille","lat":43.31171,"lon":5.38706,"is_reserved":false,"is_disabled":false,"rental_uris":{"android":"levelo://app?vid=3571987e-39cf-4d08-8e97-0689cea1def8","ios":"levelo://app?vid=3571987e-39cf-4d08-8e97-0689cea1def8"},"vehicle_type_id":"4","last_reported":1708412847,"current_range_meters":0,"station_id":"ce4bgv12rcd13ifvqcp0","pricing_plan_id":"cebpf4jnsgd1na2vs0mg"},{"bike_id":"93096b1b-47bd-4d10-953b-b5c8441c221c","system_id":"levelo_inurba_marseille","lat":43.299243,"lon":5.374807,"is_reserved":false,"is_disabled":false,"rental_uris":{"android":"levelo://app?vid=93096b1b-47bd-4d10-953b-b5c8441c221c","ios":"levelo://app?vid=93096b1b-47bd-4d10-953b-b5c8441c221c"},"vehicle_type_id":"4","last_reported":1708412847,"current_range_meters":400,"station_id":"ce4bgjh2rcd13ifvqbg0","pricing_plan_id":"cebpf4jnsgd1na2vs0mg"},{"bike_id":"9edfbbac-3647-4389-a484-42c4a248ae6c","system_id":"levelo_inurba_marseille","lat":43.322872,"lon":5.382756,"is_reserved":false,"is_disabled":false,"rental_uris":{"android":"levelo://app?vid=9edfbbac-3647-4389-a484-42c4a248ae6c","ios":"levelo://app?vid=9edfbbac-3647-4389-a484-42c4a248ae6c"},"vehicle_type_id":"4","last_reported":1708412847,"current_range_meters":31600,"station_id":"ce4bhr12rcd13ifvqhqg","pricing_plan_id":"cebpf4jnsgd1na2vs0mg"},{"bike_id":"fce4e9eb-f1db-4840-9573-54454ce3f1d6","system_id":"levelo_inurba_marseille","lat":43.322872,"lon":5.382756,"is_reserved":false,"is_disabled":false,"rental_uris":{"android":"levelo://app?vid=fce4e9eb-f1db-4840-9573-54454ce3f1d6","ios":"levelo://app?vid=fce4e9eb-f1db-4840-9573-54454ce3f1d6"},"vehicle_type_id":"4","last_reported":1708412847,"current_range_meters":23600,"station_id":"ce4bhr12rcd13ifvqhqg","pricing_plan_id":"cebpf4jnsgd1na2vs0mg"},{"bike_id":"91ab4edd-d149-4ede-888b-4d27f7f91f34","system_id":"levelo_inurba_marseille","lat":43.322872,"lon":5.382756,"is_reserved":false,"is_disabled":false,"rental_uris":{"android":"levelo://app?vid=91ab4edd-d149-4ede-888b-4d27f7f91f34","ios":"levelo://app?vid=91ab4edd-d149-4ede-888b-4d27f7f91f34"},"vehicle_type_id":"4","last_reported":1708412847,"current_range_meters":30800,"station_id":"ce4bhr12rcd13ifvqhqg","pricing_plan_id":"cebpf4jnsgd1na2vs0mg"},{"bike_id":"6aef8ca3-c46e-4b3c-b541-70795449560a","system_id":"levelo_inurba_marseille","lat":43.3283,"lon":5.36693,"is_reserved":false,"is_disabled":false,"rental_uris":{"android":"levelo://app?vid=6aef8ca3-c46e-4b3c-b541-70795449560a","ios":"levelo://app?vid=6aef8ca3-c46e-4b3c-b541-70795449560a"},"vehicle_type_id":"4","last_reported":1708412847,"current_range_meters":8000,"station_id":"","pricing_plan_id":"cebpf4jnsgd1na2vs0mg"},{"bike_id":"add7985a-15aa-4ecf-aefb-9183c2c5c61d","system_id":"levelo_inurba_marseille","lat":43.299593,"lon":5.379081,"is_reserved":false,"is_disabled":false,"rental_uris":{"android":"levelo://app?vid=add7985a-15aa-4ecf-aefb-9183c2c5c61d","ios":"levelo://app?vid=add7985a-15aa-4ecf-aefb-9183c2c5c61d"},"vehicle_type_id":"4","last_reported":1708412847,"current_range_meters":9600,"station_id":"","pricing_plan_id":"cebpf4jnsgd1na2vs0mg"},{"bike_id":"f02a0f6f-66a6-462e-9e55-3dfdd8fe01d9","system_id":"levelo_inurba_marseille","lat":43.32913,"lon":5.36703,"is_reserved":false,"is_disabled":false,"rental_uris":{"android":"levelo://app?vid=f02a0f6f-66a6-462e-9e55-3dfdd8fe01d9","ios":"levelo://app?vid=f02a0f6f-66a6-462e-9e55-3dfdd8fe01d9"},"vehicle_type_id":"4","last_reported":1708412847,"current_range_meters":0,"station_id":"","pricing_plan_id":"cebpf4jnsgd1na2vs0mg"},{"bike_id":"7b957247-9272-4568-88b4-8b82bd532804","system_id":"levelo_inurba_marseille","lat":43.31515,"lon":5.38926,"is_reserved":false,"is_disabled":false,"rental_uris":{"android":"levelo://app?vid=7b957247-9272-4568-88b4-8b82bd532804","ios":"levelo://app?vid=7b957247-9272-4568-88b4-8b82bd532804"},"vehicle_type_id":"4","last_reported":1708412847,"current_range_meters":26800,"station_id":"","pricing_plan_id":"cebpf4jnsgd1na2vs0mg"},{"bike_id":"3dfb5fd0-7d35-44e6-8288-48ce916ef44a","system_id":"levelo_inurba_marseille","lat":43.296921,"lon":5.376579,"is_reserved":false,"is_disabled":false,"rental_uris":{"android":"levelo://app?vid=3dfb5fd0-7d35-44e6-8288-48ce916ef44a","ios":"levelo://app?vid=3dfb5fd0-7d35-44e6-8288-48ce916ef44a"},"vehicle_type_id":"4","last_reported":1708412847,"current_range_meters":30800,"station_id":"ce4bgkh2rcd13ifvqbl0","pricing_plan_id":"cebpf4jnsgd1na2vs0mg"},{"bike_id":"2b083372-a9ab-4d65-8647-81e731c9122a","system_id":"levelo_inurba_marseille","lat":43.295748,"lon":5.37522,"is_reserved":false,"is_disabled":false,"rental_uris":{"android":"levelo://app?vid=2b083372-a9ab-4d65-8647-81e731c9122a","ios":"levelo://app?vid=2b083372-a9ab-4d65-8647-81e731c9122a"},"vehicle_type_id":"4","last_reported":1708412847,"current_range_meters":22000,"station_id":"ce4bgh92rcd13ifvqb50","pricing_plan_id":"cebpf4jnsgd1na2vs0mg"},{"bike_id":"f43f6740-d121-4f78-a9e5-36a3939a2c5d","system_id":"levelo_inurba_marseille","lat":43.296921,"lon":5.376579,"is_reserved":false,"is_disabled":false,"rental_uris":{"android":"levelo://app?vid=f43f6740-d121-4f78-a9e5-36a3939a2c5d","ios":"levelo://app?vid=f43f6740-d121-4f78-a9e5-36a3939a2c5d"},"vehicle_type_id":"4","last_reported":1708412847,"current_range_meters":18000,"station_id":"ce4bgkh2rcd13ifvqbl0","pricing_plan_id":"cebpf4jnsgd1na2vs0mg"},{"bike_id":"3f8c9549-0eac-4c22-b938-7cab77db22c7","system_id":"levelo_inurba_marseille","lat":43.299028,"lon":5.381509,"is_reserved":false,"is_disabled":false,"rental_uris":{"android":"levelo://app?vid=3f8c9549-0eac-4c22-b938-7cab77db22c7","ios":"levelo://app?vid=3f8c9549-0eac-4c22-b938-7cab77db22c7"},"vehicle_type_id":"4","last_reported":1708412847,"current_range_meters":6000,"station_id":"ce4bgj12rcd13ifvqbc0","pricing_plan_id":"cebpf4jnsgd1na2vs0mg"},{"bike_id":"05a4d953-f8eb-46cc-b681-499c97bfec3d","system_id":"levelo_inurba_marseille","lat":43.296935,"lon":5.376544,"is_reserved":false,"is_disabled":false,"rental_uris":{"android":"levelo://app?vid=05a4d953-f8eb-46cc-b681-499c97bfec3d","ios":"levelo://app?vid=05a4d953-f8eb-46cc-b681-499c97bfec3d"},"vehicle_type_id":"4","last_reported":1708412847,"current_range_meters":10000,"station_id":"ce4bgkh2rcd13ifvqbl0","pricing_plan_id":"cebpf4jnsgd1na2vs0mg"},{"bike_id":"419ae358-647a-4e5d-91eb-ad7c15339e7e","system_id":"levelo_inurba_marseille","lat":43.299028,"lon":5.381509,"is_reserved":false,"is_disabled":false,"rental_uris":{"android":"levelo://app?vid=419ae358-647a-4e5d-91eb-ad7c15339e7e","ios":"levelo://app?vid=419ae358-647a-4e5d-91eb-ad7c15339e7e"},"vehicle_type_id":"4","last_reported":1708412847,"current_range_meters":400,"station_id":"ce4bgj12rcd13ifvqbc0","pricing_plan_id":"cebpf4jnsgd1na2vs0mg"},{"bike_id":"09dbb9fc-e995-413e-8ab0-efb45ddd754a","system_id":"levelo_inurba_marseille","lat":43.296935,"lon":5.376544,"is_reserved":false,"is_disabled":false,"rental_uris":{"android":"levelo://app?vid=09dbb9fc-e995-413e-8ab0-efb45ddd754a","ios":"levelo://app?vid=09dbb9fc-e995-413e-8ab0-efb45ddd754a"},"vehicle_type_id":"4","last_reported":1708412847,"current_range_meters":30400,"station_id":"ce4bgkh2rcd13ifvqbl0","pricing_plan_id":"cebpf4jnsgd1na2vs0mg"},{"bike_id":"bb2727ef-2cec-4828-aa9b-2c53ad42fb26","system_id":"levelo_inurba_marseille","lat":43.309589,"lon":5.390258,"is_reserved":false,"is_disabled":false,"rental_uris":{"android":"levelo://app?vid=bb2727ef-2cec-4828-aa9b-2c53ad42fb26","ios":"levelo://app?vid=bb2727ef-2cec-4828-aa9b-2c53ad42fb26"},"vehicle_type_id":"4","last_reported":1708412847,"current_range_meters":6400,"station_id":"ce4bgup2rcd13ifvqco0","pricing_plan_id":"cebpf4jnsgd1na2vs0mg"},{"bike_id":"916441bb-cb92-4f37-b8a0-768dbff3ea2e","system_id":"levelo_inurba_marseille","lat":43.30952,"lon":5.39041,"is_reserved":false,"is_disabled":false,"rental_uris":{"android":"levelo://app?vid=916441bb-cb92-4f37-b8a0-768dbff3ea2e","ios":"levelo://app?vid=916441bb-cb92-4f37-b8a0-768dbff3ea2e"},"vehicle_type_id":"4","last_reported":1708412847,"current_range_meters":19600,"station_id":"ce4bgup2rcd13ifvqco0","pricing_plan_id":"cebpf4jnsgd1na2vs0mg"},{"bike_id":"f99fe8d7-49cd-4520-bf26-f71aedf8d020","system_id":"levelo_inurba_marseille","lat":43.30958,"lon":5.39053,"is_reserved":false,"is_disabled":false,"rental_uris":{"android":"levelo://app?vid=f99fe8d7-49cd-4520-bf26-f71aedf8d020","ios":"levelo://app?vid=f99fe8d7-49cd-4520-bf26-f71aedf8d020"},"vehicle_type_id":"4","last_reported":1708412847,"current_range_meters":22400,"station_id":"ce4bgup2rcd13ifvqco0","pricing_plan_id":"cebpf4jnsgd1na2vs0mg"},{"bike_id":"f2666d97-f098-4e8d-948b-6ca5cf2b5347","system_id":"levelo_inurba_marseille","lat":43.31759,"lon":5.39011,"is_reserved":false,"is_disabled":false,"rental_uris":{"android":"levelo://app?vid=f2666d97-f098-4e8d-948b-6ca5cf2b5347","ios":"levelo://app?vid=f2666d97-f098-4e8d-948b-6ca5cf2b5347"},"vehicle_type_id":"4","last_reported":1708412847,"current_range_meters":8400,"station_id":"ce4bhqp2rcd13ifvqhng","pricing_plan_id":"cebpf4jnsgd1na2vs0mg"},{"bike_id":"9006dcf1-17d3-4031-81c2-9e818b61b918","system_id":"levelo_inurba_marseille","lat":43.317557,"lon":5.390173,"is_reserved":false,"is_disabled":false,"rental_uris":{"android":"levelo://app?vid=9006dcf1-17d3-4031-81c2-9e818b61b918","ios":"levelo://app?vid=9006dcf1-17d3-4031-81c2-9e818b61b918"},"vehicle_type_id":"4","last_reported":1708412847,"current_range_meters":31600,"station_id":"ce4bhqp2rcd13ifvqhng","pricing_plan_id":"cebpf4jnsgd1na2vs0mg"},{"bike_id":"01d234d0-e8e0-45f8-b8bb-c81cf3e028da","system_id":"levelo_inurba_marseille","lat":43.317557,"lon":5.390173,"is_reserved":false,"is_disabled":false,"rental_uris":{"android":"levelo://app?vid=01d234d0-e8e0-45f8-b8bb-c81cf3e028da","ios":"levelo://app?vid=01d234d0-e8e0-45f8-b8bb-c81cf3e028da"},"vehicle_type_id":"4","last_reported":1708412847,"current_range_meters":32000,"station_id":"ce4bhqp2rcd13ifvqhng","pricing_plan_id":"cebpf4jnsgd1na2vs0mg"},{"bike_id":"a058b8c9-ce73-4233-9ec0-7d21bd3e485a","system_id":"levelo_inurba_marseille","lat":43.317557,"lon":5.390173,"is_reserved":false,"is_disabled":false,"rental_uris":{"android":"levelo://app?vid=a058b8c9-ce73-4233-9ec0-7d21bd3e485a","ios":"levelo://app?vid=a058b8c9-ce73-4233-9ec0-7d21bd3e485a"},"vehicle_type_id":"4","last_reported":1708412847,"current_range_meters":9600,"station_id":"ce4bhqp2rcd13ifvqhng","pricing_plan_id":"cebpf4jnsgd1na2vs0mg"},{"bike_id":"c8e65314-3a9d-407e-833a-fc821ab5ebfb","system_id":"levelo_inurba_marseille","lat":43.298037,"lon":5.381066,"is_reserved":false,"is_disabled":false,"rental_uris":{"android":"levelo://app?vid=c8e65314-3a9d-407e-833a-fc821ab5ebfb","ios":"levelo://app?vid=c8e65314-3a9d-407e-833a-fc821ab5ebfb"},"vehicle_type_id":"4","last_reported":1708412847,"current_range_meters":22000,"station_id":"ce4bgip2rcd13ifvqbb0","pricing_plan_id":"cebpf4jnsgd1na2vs0mg"},{"bike_id":"e4e52260-13c2-4175-a26c-6611d9fb569a","system_id":"levelo_inurba_marseille","lat":43.29801,"lon":5.38108,"is_reserved":false,"is_disabled":false,"rental_uris":{"android":"levelo://app?vid=e4e52260-13c2-4175-a26c-6611d9fb569a","ios":"levelo://app?vid=e4e52260-13c2-4175-a26c-6611d9fb569a"},"vehicle_type_id":"4","last_reported":1708412847,"current_range_meters":26000,"station_id":"ce4bgip2rcd13ifvqbb0","pricing_plan_id":"cebpf4jnsgd1na2vs0mg"},{"bike_id":"eaf07392-af23-4419-a23f-aa02a789438d","system_id":"levelo_inurba_marseille","lat":43.298037,"lon":5.381066,"is_reserved":false,"is_disabled":false,"rental_uris":{"android":"levelo://app?vid=eaf07392-af23-4419-a23f-aa02a789438d","ios":"levelo://app?vid=eaf07392-af23-4419-a23f-aa02a789438d"},"vehicle_type_id":"4","last_reported":1708412847,"current_range_meters":31600,"station_id":"ce4bgip2rcd13ifvqbb0","pricing_plan_id":"cebpf4jnsgd1na2vs0mg"},{"bike_id":"f461d23a-e57a-47ed-84a0-745d47709c7a","system_id":"levelo_inurba_marseille","lat":43.298037,"lon":5.381066,"is_reserved":false,"is_disabled":false,"rental_uris":{"android":"levelo://app?vid=f461d23a-e57a-47ed-84a0-745d47709c7a","ios":"levelo://app?vid=f461d23a-e57a-47ed-84a0-745d47709c7a"},"vehicle_type_id":"4","last_reported":1708412847,"current_range_meters":5200,"station_id":"ce4bgip2rcd13ifvqbb0","pricing_plan_id":"cebpf4jnsgd1na2vs0mg"},{"bike_id":"32744d68-e364-4864-9f3d-090334239e06","system_id":"levelo_inurba_marseille","lat":43.298037,"lon":5.381066,"is_reserved":false,"is_disabled":false,"rental_uris":{"android":"levelo://app?vid=32744d68-e364-4864-9f3d-090334239e06","ios":"levelo://app?vid=32744d68-e364-4864-9f3d-090334239e06"},"vehicle_type_id":"4","last_reported":1708412847,"current_range_meters":27200,"station_id":"ce4bgip2rcd13ifvqbb0","pricing_plan_id":"cebpf4jnsgd1na2vs0mg"},{"bike_id":"3d80a6b4-456a-4f71-891d-9f1ee12153d5","system_id":"levelo_inurba_marseille","lat":43.30436,"lon":5.38892,"is_reserved":false,"is_disabled":false,"rental_uris":{"android":"levelo://app?vid=3d80a6b4-456a-4f71-891d-9f1ee12153d5","ios":"levelo://app?vid=3d80a6b4-456a-4f71-891d-9f1ee12153d5"},"vehicle_type_id":"4","last_reported":1708412847,"current_range_meters":2800,"station_id":"ce4bgk12rcd13ifvqbi0","pricing_plan_id":"cebpf4jnsgd1na2vs0mg"},{"bike_id":"3cf09c7a-18ac-448d-8d1e-1fe9cdc16907","system_id":"levelo_inurba_marseille","lat":43.304278,"lon":5.388868,"is_reserved":false,"is_disabled":false,"rental_uris":{"android":"levelo://app?vid=3cf09c7a-18ac-448d-8d1e-1fe9cdc16907","ios":"levelo://app?vid=3cf09c7a-18ac-448d-8d1e-1fe9cdc16907"},"vehicle_type_id":"4","last_reported":1708412847,"current_range_meters":25200,"station_id":"ce4bgk12rcd13ifvqbi0","pricing_plan_id":"cebpf4jnsgd1na2vs0mg"},{"bike_id":"2853562d-e1f1-43b3-bf19-9d91f5955458","system_id":"levelo_inurba_marseille","lat":43.298037,"lon":5.381066,"is_reserved":false,"is_disabled":false,"rental_uris":{"android":"levelo://app?vid=2853562d-e1f1-43b3-bf19-9d91f5955458","ios":"levelo://app?vid=2853562d-e1f1-43b3-bf19-9d91f5955458"},"vehicle_type_id":"4","last_reported":1708412847,"current_range_meters":27200,"station_id":"ce4bgip2rcd13ifvqbb0","pricing_plan_id":"cebpf4jnsgd1na2vs0mg"},{"bike_id":"5894c291-3af2-4b35-8b9a-44d6c19caca2","system_id":"levelo_inurba_marseille","lat":43.295748,"lon":5.37522,"is_reserved":false,"is_disabled":false,"rental_uris":{"android":"levelo://app?vid=5894c291-3af2-4b35-8b9a-44d6c19caca2","ios":"levelo://app?vid=5894c291-3af2-4b35-8b9a-44d6c19caca2"},"vehicle_type_id":"4","last_reported":1708412847,"current_range_meters":10800,"station_id":"ce4bgh92rcd13ifvqb50","pricing_plan_id":"cebpf4jnsgd1na2vs0mg"},{"bike_id":"ba31742b-7bd8-4181-8cce-214f4dcb4d0b","system_id":"levelo_inurba_marseille","lat":43.295279,"lon":5.375048,"is_reserved":false,"is_disabled":false,"rental_uris":{"android":"levelo://app?vid=ba31742b-7bd8-4181-8cce-214f4dcb4d0b","ios":"levelo://app?vid=ba31742b-7bd8-4181-8cce-214f4dcb4d0b"},"vehicle_type_id":"4","last_reported":1708412847,"current_range_meters":1600,"station_id":"ce4bgkp2rcd13ifvqbmg","pricing_plan_id":"cebpf4jnsgd1na2vs0mg"},{"bike_id":"de2b5cce-5fc5-4869-8a85-7f31b3bcdf26","system_id":"levelo_inurba_marseille","lat":43.295279,"lon":5.375048,"is_reserved":false,"is_disabled":false,"rental_uris":{"android":"levelo://app?vid=de2b5cce-5fc5-4869-8a85-7f31b3bcdf26","ios":"levelo://app?vid=de2b5cce-5fc5-4869-8a85-7f31b3bcdf26"},"vehicle_type_id":"4","last_reported":1708412847,"current_range_meters":30400,"station_id":"ce4bgkp2rcd13ifvqbmg","pricing_plan_id":"cebpf4jnsgd1na2vs0mg"},{"bike_id":"5c81e227-b1d2-4a2f-b24b-52e45b7679c2","system_id":"levelo_inurba_marseille","lat":43.29524,"lon":5.3751,"is_reserved":false,"is_disabled":false,"rental_uris":{"android":"levelo://app?vid=5c81e227-b1d2-4a2f-b24b-52e45b7679c2","ios":"levelo://app?vid=5c81e227-b1d2-4a2f-b24b-52e45b7679c2"},"vehicle_type_id":"4","last_reported":1708412847,"current_range_meters":18000,"station_id":"ce4bgkp2rcd13ifvqbmg","pricing_plan_id":"cebpf4jnsgd1na2vs0mg"},{"bike_id":"cc6b8de1-c182-41d7-86e5-d71a7e8eb65a","system_id":"levelo_inurba_marseille","lat":43.299724,"lon":5.384848,"is_reserved":false,"is_disabled":false,"rental_uris":{"android":"levelo://app?vid=cc6b8de1-c182-41d7-86e5-d71a7e8eb65a","ios":"levelo://app?vid=cc6b8de1-c182-41d7-86e5-d71a7e8eb65a"},"vehicle_type_id":"4","last_reported":1708412847,"current_range_meters":8000,"station_id":"ce4bgj92rcd13ifvqbd0","pricing_plan_id":"cebpf4jnsgd1na2vs0mg"},{"bike_id":"c9fa3586-8267-45ec-89a4-7814fdccb94a","system_id":"levelo_inurba_marseille","lat":43.32367,"lon":5.388836,"is_reserved":false,"is_disabled":false,"rental_uris":{"android":"levelo://app?vid=c9fa3586-8267-45ec-89a4-7814fdccb94a","ios":"levelo://app?vid=c9fa3586-8267-45ec-89a4-7814fdccb94a"},"vehicle_type_id":"4","last_reported":1708412847,"current_range_meters":7600,"station_id":"ce4bhqp2rcd13ifvqhog","pricing_plan_id":"cebpf4jnsgd1na2vs0mg"},{"bike_id":"af64252b-2fdf-4a94-a513-5802174d6e25","system_id":"levelo_inurba_marseille","lat":43.29602,"lon":5.381084,"is_reserved":false,"is_disabled":false,"rental_uris":{"android":"levelo://app?vid=af64252b-2fdf-4a94-a513-5802174d6e25","ios":"levelo://app?vid=af64252b-2fdf-4a94-a513-5802174d6e25"},"vehicle_type_id":"4","last_reported":1708412847,"current_range_meters":19200,"station_id":"ce4bgl12rcd13ifvqbo0","pricing_plan_id":"cebpf4jnsgd1na2vs0mg"},{"bike_id":"a54ec464-d864-43a4-992c-a2bfcb88ee13","system_id":"levelo_inurba_marseille","lat":43.29602,"lon":5.381084,"is_reserved":false,"is_disabled":false,"rental_uris":{"android":"levelo://app?vid=a54ec464-d864-43a4-992c-a2bfcb88ee13","ios":"levelo://app?vid=a54ec464-d864-43a4-992c-a2bfcb88ee13"},"vehicle_type_id":"4","last_reported":1708412847,"current_range_meters":10400,"station_id":"ce4bgl12rcd13ifvqbo0","pricing_plan_id":"cebpf4jnsgd1na2vs0mg"},{"bike_id":"d5cde385-2c5c-40e1-8f88-23737a05cf64","system_id":"levelo_inurba_marseille","lat":43.29601,"lon":5.381084,"is_reserved":false,"is_disabled":false,"rental_uris":{"android":"levelo://app?vid=d5cde385-2c5c-40e1-8f88-23737a05cf64","ios":"levelo://app?vid=d5cde385-2c5c-40e1-8f88-23737a05cf64"},"vehicle_type_id":"4","last_reported":1708412847,"current_range_meters":27600,"station_id":"ce4bgl12rcd13ifvqbo0","pricing_plan_id":"cebpf4jnsgd1na2vs0mg"},{"bike_id":"42175bf9-ec2e-4e82-9a68-bee8236e09ba","system_id":"levelo_inurba_marseille","lat":43.29602,"lon":5.381084,"is_reserved":false,"is_disabled":false,"rental_uris":{"android":"levelo://app?vid=42175bf9-ec2e-4e82-9a68-bee8236e09ba","ios":"levelo://app?vid=42175bf9-ec2e-4e82-9a68-bee8236e09ba"},"vehicle_type_id":"4","last_reported":1708412847,"current_range_meters":28800,"station_id":"ce4bgl12rcd13ifvqbo0","pricing_plan_id":"cebpf4jnsgd1na2vs0mg"},{"bike_id":"09b03f2d-78d7-4f33-8301-a5ad67725848","system_id":"levelo_inurba_marseille","lat":43.29601,"lon":5.381084,"is_reserved":false,"is_disabled":false,"rental_uris":{"android":"levelo://app?vid=09b03f2d-78d7-4f33-8301-a5ad67725848","ios":"levelo://app?vid=09b03f2d-78d7-4f33-8301-a5ad67725848"},"vehicle_type_id":"4","last_reported":1708412847,"current_range_meters":22800,"station_id":"ce4bgl12rcd13ifvqbo0","pricing_plan_id":"cebpf4jnsgd1na2vs0mg"},{"bike_id":"01444465-2c10-418d-ad9a-b69e7d41baaa","system_id":"levelo_inurba_marseille","lat":43.29602,"lon":5.381084,"is_reserved":false,"is_disabled":false,"rental_uris":{"android":"levelo://app?vid=01444465-2c10-418d-ad9a-b69e7d41baaa","ios":"levelo://app?vid=01444465-2c10-418d-ad9a-b69e7d41baaa"},"vehicle_type_id":"4","last_reported":1708412847,"current_range_meters":23600,"station_id":"ce4bgl12rcd13ifvqbo0","pricing_plan_id":"cebpf4jnsgd1na2vs0mg"},{"bike_id":"ba074e47-8e23-42c3-8fb8-3a85326e0449","system_id":"levelo_inurba_marseille","lat":43.303002,"lon":5.392142,"is_reserved":false,"is_disabled":false,"rental_uris":{"android":"levelo://app?vid=ba074e47-8e23-42c3-8fb8-3a85326e0449","ios":"levelo://app?vid=ba074e47-8e23-42c3-8fb8-3a85326e0449"},"vehicle_type_id":"4","last_reported":1708412847,"current_range_meters":3200,"station_id":"ce4bgkh2rcd13ifvqbk0","pricing_plan_id":"cebpf4jnsgd1na2vs0mg"},{"bike_id":"f35321d8-c360-42f6-8547-301f1c67f03f","system_id":"levelo_inurba_marseille","lat":43.305994,"lon":5.393687,"is_reserved":false,"is_disabled":false,"rental_uris":{"android":"levelo://app?vid=f35321d8-c360-42f6-8547-301f1c67f03f","ios":"levelo://app?vid=f35321d8-c360-42f6-8547-301f1c67f03f"},"vehicle_type_id":"4","last_reported":1708412847,"current_range_meters":25600,"station_id":"ce4bh0p2rcd13ifvqd80","pricing_plan_id":"cebpf4jnsgd1na2vs0mg"},{"bike_id":"acf064fe-ab17-43ec-8953-8b845bdefc41","system_id":"levelo_inurba_marseille","lat":43.305994,"lon":5.393687,"is_reserved":false,"is_disabled":false,"rental_uris":{"android":"levelo://app?vid=acf064fe-ab17-43ec-8953-8b845bdefc41","ios":"levelo://app?vid=acf064fe-ab17-43ec-8953-8b845bdefc41"},"vehicle_type_id":"4","last_reported":1708412847,"current_range_meters":31200,"station_id":"ce4bh0p2rcd13ifvqd80","pricing_plan_id":"cebpf4jnsgd1na2vs0mg"},{"bike_id":"5c456692-6c04-4f39-aba9-3cebb404cbc8","system_id":"levelo_inurba_marseille","lat":43.305994,"lon":5.393687,"is_reserved":false,"is_disabled":false,"rental_uris":{"android":"levelo://app?vid=5c456692-6c04-4f39-aba9-3cebb404cbc8","ios":"levelo://app?vid=5c456692-6c04-4f39-aba9-3cebb404cbc8"},"vehicle_type_id":"4","last_reported":1708412847,"current_range_meters":28000,"station_id":"ce4bh0p2rcd13ifvqd80","pricing_plan_id":"cebpf4jnsgd1na2vs0mg"},{"bike_id":"b20880c6-cdbb-47da-b1e4-3ee37cbcb6e9","system_id":"levelo_inurba_marseille","lat":43.30587,"lon":5.39352,"is_reserved":false,"is_disabled":false,"rental_uris":{"android":"levelo://app?vid=b20880c6-cdbb-47da-b1e4-3ee37cbcb6e9","ios":"levelo://app?vid=b20880c6-cdbb-47da-b1e4-3ee37cbcb6e9"},"vehicle_type_id":"4","last_reported":1708412847,"current_range_meters":26400,"station_id":"ce4bh0p2rcd13ifvqd80","pricing_plan_id":"cebpf4jnsgd1na2vs0mg"},{"bike_id":"c098c655-8b90-42a9-87a3-a4b4701af7ff","system_id":"levelo_inurba_marseille","lat":43.305994,"lon":5.393687,"is_reserved":false,"is_disabled":false,"rental_uris":{"android":"levelo://app?vid=c098c655-8b90-42a9-87a3-a4b4701af7ff","ios":"levelo://app?vid=c098c655-8b90-42a9-87a3-a4b4701af7ff"},"vehicle_type_id":"4","last_reported":1708412847,"current_range_meters":26800,"station_id":"ce4bh0p2rcd13ifvqd80","pricing_plan_id":"cebpf4jnsgd1na2vs0mg"},{"bike_id":"d8044e8b-95f1-4e5d-95dc-7a354ab7bf52","system_id":"levelo_inurba_marseille","lat":43.305994,"lon":5.393687,"is_reserved":false,"is_disabled":false,"rental_uris":{"android":"levelo://app?vid=d8044e8b-95f1-4e5d-95dc-7a354ab7bf52","ios":"levelo://app?vid=d8044e8b-95f1-4e5d-95dc-7a354ab7bf52"},"vehicle_type_id":"4","last_reported":1708412847,"current_range_meters":26000,"station_id":"ce4bh0p2rcd13ifvqd80","pricing_plan_id":"cebpf4jnsgd1na2vs0mg"},{"bike_id":"d88f851a-97b8-40dc-84ab-eec718b1c6d5","system_id":"levelo_inurba_marseille","lat":43.305994,"lon":5.393687,"is_reserved":false,"is_disabled":false,"rental_uris":{"android":"levelo://app?vid=d88f851a-97b8-40dc-84ab-eec718b1c6d5","ios":"levelo://app?vid=d88f851a-97b8-40dc-84ab-eec718b1c6d5"},"vehicle_type_id":"4","last_reported":1708412847,"current_range_meters":15200,"station_id":"ce4bh0p2rcd13ifvqd80","pricing_plan_id":"cebpf4jnsgd1na2vs0mg"},{"bike_id":"7efbed5a-4e06-4403-a491-1851f066fa7c","system_id":"levelo_inurba_marseille","lat":43.305994,"lon":5.393687,"is_reserved":false,"is_disabled":false,"rental_uris":{"android":"levelo://app?vid=7efbed5a-4e06-4403-a491-1851f066fa7c","ios":"levelo://app?vid=7efbed5a-4e06-4403-a491-1851f066fa7c"},"vehicle_type_id":"4","last_reported":1708412847,"current_range_meters":29200,"station_id":"ce4bh0p2rcd13ifvqd80","pricing_plan_id":"cebpf4jnsgd1na2vs0mg"},{"bike_id":"52582f15-3447-4ad9-9d3b-a4919e75909c","system_id":"levelo_inurba_marseille","lat":43.30587,"lon":5.39354,"is_reserved":false,"is_disabled":false,"rental_uris":{"android":"levelo://app?vid=52582f15-3447-4ad9-9d3b-a4919e75909c","ios":"levelo://app?vid=52582f15-3447-4ad9-9d3b-a4919e75909c"},"vehicle_type_id":"4","last_reported":1708412847,"current_range_meters":29600,"station_id":"ce4bh0p2rcd13ifvqd80","pricing_plan_id":"cebpf4jnsgd1na2vs0mg"},{"bike_id":"1ba792f3-fe44-4500-bf69-f40719ab31ea","system_id":"levelo_inurba_marseille","lat":43.30597,"lon":5.39361,"is_reserved":false,"is_disabled":false,"rental_uris":{"android":"levelo://app?vid=1ba792f3-fe44-4500-bf69-f40719ab31ea","ios":"levelo://app?vid=1ba792f3-fe44-4500-bf69-f40719ab31ea"},"vehicle_type_id":"4","last_reported":1708412847,"current_range_meters":26800,"station_id":"ce4bh0p2rcd13ifvqd80","pricing_plan_id":"cebpf4jnsgd1na2vs0mg"},{"bike_id":"0d32aad5-b25e-4d20-87b4-5a4fd1952b01","system_id":"levelo_inurba_marseille","lat":43.305994,"lon":5.393687,"is_reserved":false,"is_disabled":false,"rental_uris":{"android":"levelo://app?vid=0d32aad5-b25e-4d20-87b4-5a4fd1952b01","ios":"levelo://app?vid=0d32aad5-b25e-4d20-87b4-5a4fd1952b01"},"vehicle_type_id":"4","last_reported":1708412847,"current_range_meters":21200,"station_id":"ce4bh0p2rcd13ifvqd80","pricing_plan_id":"cebpf4jnsgd1na2vs0mg"},{"bike_id":"2c899753-18f1-4861-a24b-80ac897bfe5c","system_id":"levelo_inurba_marseille","lat":43.30601,"lon":5.39364,"is_reserved":false,"is_disabled":false,"rental_uris":{"android":"levelo://app?vid=2c899753-18f1-4861-a24b-80ac897bfe5c","ios":"levelo://app?vid=2c899753-18f1-4861-a24b-80ac897bfe5c"},"vehicle_type_id":"4","last_reported":1708412847,"current_range_meters":27600,"station_id":"ce4bh0p2rcd13ifvqd80","pricing_plan_id":"cebpf4jnsgd1na2vs0mg"},{"bike_id":"fa6f79b9-ee04-4228-80ce-d744fffbaaf9","system_id":"levelo_inurba_marseille","lat":43.305994,"lon":5.393687,"is_reserved":false,"is_disabled":false,"rental_uris":{"android":"levelo://app?vid=fa6f79b9-ee04-4228-80ce-d744fffbaaf9","ios":"levelo://app?vid=fa6f79b9-ee04-4228-80ce-d744fffbaaf9"},"vehicle_type_id":"4","last_reported":1708412847,"current_range_meters":24400,"station_id":"ce4bh0p2rcd13ifvqd80","pricing_plan_id":"cebpf4jnsgd1na2vs0mg"},{"bike_id":"5a446820-48cd-4395-8625-b036c544119b","system_id":"levelo_inurba_marseille","lat":43.305994,"lon":5.393687,"is_reserved":false,"is_disabled":false,"rental_uris":{"android":"levelo://app?vid=5a446820-48cd-4395-8625-b036c544119b","ios":"levelo://app?vid=5a446820-48cd-4395-8625-b036c544119b"},"vehicle_type_id":"4","last_reported":1708412847,"current_range_meters":20000,"station_id":"ce4bh0p2rcd13ifvqd80","pricing_plan_id":"cebpf4jnsgd1na2vs0mg"},{"bike_id":"2e0da544-28e7-4c93-b1ff-3ea5032fd014","system_id":"levelo_inurba_marseille","lat":43.305994,"lon":5.393687,"is_reserved":false,"is_disabled":false,"rental_uris":{"android":"levelo://app?vid=2e0da544-28e7-4c93-b1ff-3ea5032fd014","ios":"levelo://app?vid=2e0da544-28e7-4c93-b1ff-3ea5032fd014"},"vehicle_type_id":"4","last_reported":1708412847,"current_range_meters":30800,"station_id":"ce4bh0p2rcd13ifvqd80","pricing_plan_id":"cebpf4jnsgd1na2vs0mg"},{"bike_id":"295e04cb-fcab-4b93-9f02-8548e9f2199b","system_id":"levelo_inurba_marseille","lat":43.30589,"lon":5.3936,"is_reserved":false,"is_disabled":false,"rental_uris":{"android":"levelo://app?vid=295e04cb-fcab-4b93-9f02-8548e9f2199b","ios":"levelo://app?vid=295e04cb-fcab-4b93-9f02-8548e9f2199b"},"vehicle_type_id":"4","last_reported":1708412847,"current_range_meters":12000,"station_id":"ce4bh0p2rcd13ifvqd80","pricing_plan_id":"cebpf4jnsgd1na2vs0mg"},{"bike_id":"c928f60e-4fb4-4c24-94d0-4360a21e59f4","system_id":"levelo_inurba_marseille","lat":43.305994,"lon":5.393687,"is_reserved":false,"is_disabled":false,"rental_uris":{"android":"levelo://app?vid=c928f60e-4fb4-4c24-94d0-4360a21e59f4","ios":"levelo://app?vid=c928f60e-4fb4-4c24-94d0-4360a21e59f4"},"vehicle_type_id":"4","last_reported":1708412847,"current_range_meters":26800,"station_id":"ce4bh0p2rcd13ifvqd80","pricing_plan_id":"cebpf4jnsgd1na2vs0mg"},{"bike_id":"9710eacd-9a50-4859-b3eb-9585c5d0704a","system_id":"levelo_inurba_marseille","lat":43.30599,"lon":5.39365,"is_reserved":false,"is_disabled":false,"rental_uris":{"android":"levelo://app?vid=9710eacd-9a50-4859-b3eb-9585c5d0704a","ios":"levelo://app?vid=9710eacd-9a50-4859-b3eb-9585c5d0704a"},"vehicle_type_id":"4","last_reported":1708412847,"current_range_meters":4800,"station_id":"ce4bh0p2rcd13ifvqd80","pricing_plan_id":"cebpf4jnsgd1na2vs0mg"},{"bike_id":"cbd07e45-38b2-47ea-a6c4-6752db245b80","system_id":"levelo_inurba_marseille","lat":43.305994,"lon":5.393687,"is_reserved":false,"is_disabled":false,"rental_uris":{"android":"levelo://app?vid=cbd07e45-38b2-47ea-a6c4-6752db245b80","ios":"levelo://app?vid=cbd07e45-38b2-47ea-a6c4-6752db245b80"},"vehicle_type_id":"4","last_reported":1708412847,"current_range_meters":4800,"station_id":"ce4bh0p2rcd13ifvqd80","pricing_plan_id":"cebpf4jnsgd1na2vs0mg"},{"bike_id":"728e40fa-5c01-487b-9559-d272243200cf","system_id":"levelo_inurba_marseille","lat":43.30597,"lon":5.39367,"is_reserved":false,"is_disabled":false,"rental_uris":{"android":"levelo://app?vid=728e40fa-5c01-487b-9559-d272243200cf","ios":"levelo://app?vid=728e40fa-5c01-487b-9559-d272243200cf"},"vehicle_type_id":"4","last_reported":1708412847,"current_range_meters":6000,"station_id":"ce4bh0p2rcd13ifvqd80","pricing_plan_id":"cebpf4jnsgd1na2vs0mg"},{"bike_id":"400a4e68-e8b4-4af0-a593-fb82f262c34d","system_id":"levelo_inurba_marseille","lat":43.305994,"lon":5.393687,"is_reserved":false,"is_disabled":false,"rental_uris":{"android":"levelo://app?vid=400a4e68-e8b4-4af0-a593-fb82f262c34d","ios":"levelo://app?vid=400a4e68-e8b4-4af0-a593-fb82f262c34d"},"vehicle_type_id":"4","last_reported":1708412847,"current_range_meters":18800,"station_id":"ce4bh0p2rcd13ifvqd80","pricing_plan_id":"cebpf4jnsgd1na2vs0mg"},{"bike_id":"0856a44e-89d9-40c5-b689-4840410ca347","system_id":"levelo_inurba_marseille","lat":43.302992,"lon":5.392136,"is_reserved":false,"is_disabled":false,"rental_uris":{"android":"levelo://app?vid=0856a44e-89d9-40c5-b689-4840410ca347","ios":"levelo://app?vid=0856a44e-89d9-40c5-b689-4840410ca347"},"vehicle_type_id":"4","last_reported":1708412847,"current_range_meters":2800,"station_id":"ce4bgkh2rcd13ifvqbk0","pricing_plan_id":"cebpf4jnsgd1na2vs0mg"},{"bike_id":"eddefd14-1f37-4a88-99c4-e830924f9a83","system_id":"levelo_inurba_marseille","lat":43.305994,"lon":5.393687,"is_reserved":false,"is_disabled":false,"rental_uris":{"android":"levelo://app?vid=eddefd14-1f37-4a88-99c4-e830924f9a83","ios":"levelo://app?vid=eddefd14-1f37-4a88-99c4-e830924f9a83"},"vehicle_type_id":"4","last_reported":1708412847,"current_range_meters":21600,"station_id":"ce4bh0p2rcd13ifvqd80","pricing_plan_id":"cebpf4jnsgd1na2vs0mg"},{"bike_id":"9268dc31-c037-4533-9358-2edb58c65d0f","system_id":"levelo_inurba_marseille","lat":43.306145,"lon":5.394134,"is_reserved":false,"is_disabled":false,"rental_uris":{"android":"levelo://app?vid=9268dc31-c037-4533-9358-2edb58c65d0f","ios":"levelo://app?vid=9268dc31-c037-4533-9358-2edb58c65d0f"},"vehicle_type_id":"4","last_reported":1708412847,"current_range_meters":30400,"station_id":"ce4bh0p2rcd13ifvqd80","pricing_plan_id":"cebpf4jnsgd1na2vs0mg"},{"bike_id":"38e678fc-a604-4448-95f0-758be9a976a8","system_id":"levelo_inurba_marseille","lat":43.292311,"lon":5.360731,"is_reserved":false,"is_disabled":false,"rental_uris":{"android":"levelo://app?vid=38e678fc-a604-4448-95f0-758be9a976a8","ios":"levelo://app?vid=38e678fc-a604-4448-95f0-758be9a976a8"},"vehicle_type_id":"4","last_reported":1708412847,"current_range_meters":8800,"station_id":"ce4bhbh2rcd13ifvqeqg","pricing_plan_id":"cebpf4jnsgd1na2vs0mg"},{"bike_id":"d6c3809c-1e8d-4616-a250-d7bb200b8a70","system_id":"levelo_inurba_marseille","lat":43.292311,"lon":5.360731,"is_reserved":false,"is_disabled":false,"rental_uris":{"android":"levelo://app?vid=d6c3809c-1e8d-4616-a250-d7bb200b8a70","ios":"levelo://app?vid=d6c3809c-1e8d-4616-a250-d7bb200b8a70"},"vehicle_type_id":"4","last_reported":1708412847,"current_range_meters":24400,"station_id":"ce4bhbh2rcd13ifvqeqg","pricing_plan_id":"cebpf4jnsgd1na2vs0mg"},{"bike_id":"5daa5c1d-9385-484d-a521-2b4a15bfdd1c","system_id":"levelo_inurba_marseille","lat":43.292311,"lon":5.360731,"is_reserved":false,"is_disabled":false,"rental_uris":{"android":"levelo://app?vid=5daa5c1d-9385-484d-a521-2b4a15bfdd1c","ios":"levelo://app?vid=5daa5c1d-9385-484d-a521-2b4a15bfdd1c"},"vehicle_type_id":"4","last_reported":1708412847,"current_range_meters":9200,"station_id":"ce4bhbh2rcd13ifvqeqg","pricing_plan_id":"cebpf4jnsgd1na2vs0mg"},{"bike_id":"73009c61-112b-484c-9179-3c70d56d1eb5","system_id":"levelo_inurba_marseille","lat":43.292311,"lon":5.360731,"is_reserved":false,"is_disabled":false,"rental_uris":{"android":"levelo://app?vid=73009c61-112b-484c-9179-3c70d56d1eb5","ios":"levelo://app?vid=73009c61-112b-484c-9179-3c70d56d1eb5"},"vehicle_type_id":"4","last_reported":1708412847,"current_range_meters":18800,"station_id":"ce4bhbh2rcd13ifvqeqg","pricing_plan_id":"cebpf4jnsgd1na2vs0mg"},{"bike_id":"f9d18a34-de10-46c7-8864-b6235bb7d3b7","system_id":"levelo_inurba_marseille","lat":43.292273,"lon":5.360481,"is_reserved":false,"is_disabled":false,"rental_uris":{"android":"levelo://app?vid=f9d18a34-de10-46c7-8864-b6235bb7d3b7","ios":"levelo://app?vid=f9d18a34-de10-46c7-8864-b6235bb7d3b7"},"vehicle_type_id":"4","last_reported":1708412847,"current_range_meters":19200,"station_id":"ce4bhbh2rcd13ifvqeqg","pricing_plan_id":"cebpf4jnsgd1na2vs0mg"},{"bike_id":"8e85443f-0ff0-4015-ae49-d413041c0343","system_id":"levelo_inurba_marseille","lat":43.292311,"lon":5.360731,"is_reserved":false,"is_disabled":false,"rental_uris":{"android":"levelo://app?vid=8e85443f-0ff0-4015-ae49-d413041c0343","ios":"levelo://app?vid=8e85443f-0ff0-4015-ae49-d413041c0343"},"vehicle_type_id":"4","last_reported":1708412847,"current_range_meters":21200,"station_id":"ce4bhbh2rcd13ifvqeqg","pricing_plan_id":"cebpf4jnsgd1na2vs0mg"},{"bike_id":"957c9593-4e58-44c9-b48e-7eb4d50ae96e","system_id":"levelo_inurba_marseille","lat":43.292311,"lon":5.360731,"is_reserved":false,"is_disabled":false,"rental_uris":{"android":"levelo://app?vid=957c9593-4e58-44c9-b48e-7eb4d50ae96e","ios":"levelo://app?vid=957c9593-4e58-44c9-b48e-7eb4d50ae96e"},"vehicle_type_id":"4","last_reported":1708412847,"current_range_meters":22800,"station_id":"ce4bhbh2rcd13ifvqeqg","pricing_plan_id":"cebpf4jnsgd1na2vs0mg"},{"bike_id":"f7a81959-4415-435d-a520-d41cd22ed438","system_id":"levelo_inurba_marseille","lat":43.292311,"lon":5.360731,"is_reserved":false,"is_disabled":false,"rental_uris":{"android":"levelo://app?vid=f7a81959-4415-435d-a520-d41cd22ed438","ios":"levelo://app?vid=f7a81959-4415-435d-a520-d41cd22ed438"},"vehicle_type_id":"4","last_reported":1708412847,"current_range_meters":19600,"station_id":"ce4bhbh2rcd13ifvqeqg","pricing_plan_id":"cebpf4jnsgd1na2vs0mg"},{"bike_id":"a00003a7-2781-49be-afbf-c71bb3c9e01a","system_id":"levelo_inurba_marseille","lat":43.292311,"lon":5.360731,"is_reserved":false,"is_disabled":false,"rental_uris":{"android":"levelo://app?vid=a00003a7-2781-49be-afbf-c71bb3c9e01a","ios":"levelo://app?vid=a00003a7-2781-49be-afbf-c71bb3c9e01a"},"vehicle_type_id":"4","last_reported":1708412847,"current_range_meters":25200,"station_id":"ce4bhbh2rcd13ifvqeqg","pricing_plan_id":"cebpf4jnsgd1na2vs0mg"},{"bike_id":"8ac9a789-ac66-4bfc-937c-cf8bf287d8d7","system_id":"levelo_inurba_marseille","lat":43.292311,"lon":5.360731,"is_reserved":false,"is_disabled":false,"rental_uris":{"android":"levelo://app?vid=8ac9a789-ac66-4bfc-937c-cf8bf287d8d7","ios":"levelo://app?vid=8ac9a789-ac66-4bfc-937c-cf8bf287d8d7"},"vehicle_type_id":"4","last_reported":1708412847,"current_range_meters":22400,"station_id":"ce4bhbh2rcd13ifvqeqg","pricing_plan_id":"cebpf4jnsgd1na2vs0mg"},{"bike_id":"4b27d897-22ea-4e3c-b737-f75584568374","system_id":"levelo_inurba_marseille","lat":43.292311,"lon":5.360731,"is_reserved":false,"is_disabled":false,"rental_uris":{"android":"levelo://app?vid=4b27d897-22ea-4e3c-b737-f75584568374","ios":"levelo://app?vid=4b27d897-22ea-4e3c-b737-f75584568374"},"vehicle_type_id":"4","last_reported":1708412847,"current_range_meters":32000,"station_id":"ce4bhbh2rcd13ifvqeqg","pricing_plan_id":"cebpf4jnsgd1na2vs0mg"},{"bike_id":"7f4d1554-7035-4dbb-a3b5-6508097fdee8","system_id":"levelo_inurba_marseille","lat":43.29219,"lon":5.36072,"is_reserved":false,"is_disabled":false,"rental_uris":{"android":"levelo://app?vid=7f4d1554-7035-4dbb-a3b5-6508097fdee8","ios":"levelo://app?vid=7f4d1554-7035-4dbb-a3b5-6508097fdee8"},"vehicle_type_id":"4","last_reported":1708412847,"current_range_meters":8000,"station_id":"ce4bhbh2rcd13ifvqeqg","pricing_plan_id":"cebpf4jnsgd1na2vs0mg"},{"bike_id":"558f03bf-6ad7-469f-87aa-f5526af51b8e","system_id":"levelo_inurba_marseille","lat":43.292311,"lon":5.360731,"is_reserved":false,"is_disabled":false,"rental_uris":{"android":"levelo://app?vid=558f03bf-6ad7-469f-87aa-f5526af51b8e","ios":"levelo://app?vid=558f03bf-6ad7-469f-87aa-f5526af51b8e"},"vehicle_type_id":"4","last_reported":1708412847,"current_range_meters":2800,"station_id":"ce4bhbh2rcd13ifvqeqg","pricing_plan_id":"cebpf4jnsgd1na2vs0mg"},{"bike_id":"d32053c2-016f-4013-bb17-9a396e2a21a4","system_id":"levelo_inurba_marseille","lat":43.29219,"lon":5.36037,"is_reserved":false,"is_disabled":false,"rental_uris":{"android":"levelo://app?vid=d32053c2-016f-4013-bb17-9a396e2a21a4","ios":"levelo://app?vid=d32053c2-016f-4013-bb17-9a396e2a21a4"},"vehicle_type_id":"4","last_reported":1708412847,"current_range_meters":27200,"station_id":"ce4bhbh2rcd13ifvqeqg","pricing_plan_id":"cebpf4jnsgd1na2vs0mg"},{"bike_id":"988800f4-9468-452a-97a5-baafeedf6ba5","system_id":"levelo_inurba_marseille","lat":43.292311,"lon":5.360731,"is_reserved":false,"is_disabled":false,"rental_uris":{"android":"levelo://app?vid=988800f4-9468-452a-97a5-baafeedf6ba5","ios":"levelo://app?vid=988800f4-9468-452a-97a5-baafeedf6ba5"},"vehicle_type_id":"4","last_reported":1708412847,"current_range_meters":8800,"station_id":"ce4bhbh2rcd13ifvqeqg","pricing_plan_id":"cebpf4jnsgd1na2vs0mg"},{"bike_id":"9d0e2900-ebe6-4cd6-bbea-66e9a86adecf","system_id":"levelo_inurba_marseille","lat":43.30888,"lon":5.3963,"is_reserved":false,"is_disabled":false,"rental_uris":{"android":"levelo://app?vid=9d0e2900-ebe6-4cd6-bbea-66e9a86adecf","ios":"levelo://app?vid=9d0e2900-ebe6-4cd6-bbea-66e9a86adecf"},"vehicle_type_id":"4","last_reported":1708412847,"current_range_meters":27200,"station_id":"ce4bh012rcd13ifvqcv0","pricing_plan_id":"cebpf4jnsgd1na2vs0mg"},{"bike_id":"4802ada0-0665-4a98-92ad-22de5ae85841","system_id":"levelo_inurba_marseille","lat":43.309038,"lon":5.396546,"is_reserved":false,"is_disabled":false,"rental_uris":{"android":"levelo://app?vid=4802ada0-0665-4a98-92ad-22de5ae85841","ios":"levelo://app?vid=4802ada0-0665-4a98-92ad-22de5ae85841"},"vehicle_type_id":"4","last_reported":1708412847,"current_range_meters":9600,"station_id":"ce4bh012rcd13ifvqcv0","pricing_plan_id":"cebpf4jnsgd1na2vs0mg"},{"bike_id":"4760f9b1-198f-4f50-ad70-2cad0de1d54a","system_id":"levelo_inurba_marseille","lat":43.309038,"lon":5.396546,"is_reserved":false,"is_disabled":false,"rental_uris":{"android":"levelo://app?vid=4760f9b1-198f-4f50-ad70-2cad0de1d54a","ios":"levelo://app?vid=4760f9b1-198f-4f50-ad70-2cad0de1d54a"},"vehicle_type_id":"4","last_reported":1708412847,"current_range_meters":25200,"station_id":"ce4bh012rcd13ifvqcv0","pricing_plan_id":"cebpf4jnsgd1na2vs0mg"},{"bike_id":"f56ab3ba-0120-4e74-8550-905d7dc0e3d1","system_id":"levelo_inurba_marseille","lat":43.309038,"lon":5.396546,"is_reserved":false,"is_disabled":false,"rental_uris":{"android":"levelo://app?vid=f56ab3ba-0120-4e74-8550-905d7dc0e3d1","ios":"levelo://app?vid=f56ab3ba-0120-4e74-8550-905d7dc0e3d1"},"vehicle_type_id":"4","last_reported":1708412847,"current_range_meters":31600,"station_id":"ce4bh012rcd13ifvqcv0","pricing_plan_id":"cebpf4jnsgd1na2vs0mg"},{"bike_id":"f358e2ea-dee0-4a2f-9bd1-b1829e892f50","system_id":"levelo_inurba_marseille","lat":43.309038,"lon":5.396546,"is_reserved":false,"is_disabled":false,"rental_uris":{"android":"levelo://app?vid=f358e2ea-dee0-4a2f-9bd1-b1829e892f50","ios":"levelo://app?vid=f358e2ea-dee0-4a2f-9bd1-b1829e892f50"},"vehicle_type_id":"4","last_reported":1708412847,"current_range_meters":20400,"station_id":"ce4bh012rcd13ifvqcv0","pricing_plan_id":"cebpf4jnsgd1na2vs0mg"},{"bike_id":"496762b4-ed93-457c-9ad5-0d07e9426156","system_id":"levelo_inurba_marseille","lat":43.291994,"lon":5.357886,"is_reserved":false,"is_disabled":false,"rental_uris":{"android":"levelo://app?vid=496762b4-ed93-457c-9ad5-0d07e9426156","ios":"levelo://app?vid=496762b4-ed93-457c-9ad5-0d07e9426156"},"vehicle_type_id":"4","last_reported":1708412847,"current_range_meters":22000,"station_id":"ce4bhb12rcd13ifvqel0","pricing_plan_id":"cebpf4jnsgd1na2vs0mg"},{"bike_id":"aa267cf0-a8e2-4082-ba2e-7ea6faa77ed2","system_id":"levelo_inurba_marseille","lat":43.30887,"lon":5.39647,"is_reserved":false,"is_disabled":false,"rental_uris":{"android":"levelo://app?vid=aa267cf0-a8e2-4082-ba2e-7ea6faa77ed2","ios":"levelo://app?vid=aa267cf0-a8e2-4082-ba2e-7ea6faa77ed2"},"vehicle_type_id":"4","last_reported":1708412847,"current_range_meters":11600,"station_id":"ce4bh012rcd13ifvqcv0","pricing_plan_id":"cebpf4jnsgd1na2vs0mg"},{"bike_id":"be3f3b11-318d-46c5-b6f1-5b916e1ac2da","system_id":"levelo_inurba_marseille","lat":43.29529,"lon":5.385581,"is_reserved":false,"is_disabled":false,"rental_uris":{"android":"levelo://app?vid=be3f3b11-318d-46c5-b6f1-5b916e1ac2da","ios":"levelo://app?vid=be3f3b11-318d-46c5-b6f1-5b916e1ac2da"},"vehicle_type_id":"4","last_reported":1708412847,"current_range_meters":31200,"station_id":"ce4bgih2rcd13ifvqba0","pricing_plan_id":"cebpf4jnsgd1na2vs0mg"},{"bike_id":"9b682245-e239-44a4-b1fe-13d370fb9494","system_id":"levelo_inurba_marseille","lat":43.29535,"lon":5.38538,"is_reserved":false,"is_disabled":false,"rental_uris":{"android":"levelo://app?vid=9b682245-e239-44a4-b1fe-13d370fb9494","ios":"levelo://app?vid=9b682245-e239-44a4-b1fe-13d370fb9494"},"vehicle_type_id":"4","last_reported":1708412847,"current_range_meters":29600,"station_id":"ce4bgih2rcd13ifvqba0","pricing_plan_id":"cebpf4jnsgd1na2vs0mg"},{"bike_id":"0bc716d9-7d41-4e3d-b4b9-3b3137385d2b","system_id":"levelo_inurba_marseille","lat":43.29529,"lon":5.385581,"is_reserved":false,"is_disabled":false,"rental_uris":{"android":"levelo://app?vid=0bc716d9-7d41-4e3d-b4b9-3b3137385d2b","ios":"levelo://app?vid=0bc716d9-7d41-4e3d-b4b9-3b3137385d2b"},"vehicle_type_id":"4","last_reported":1708412847,"current_range_meters":27200,"station_id":"ce4bgih2rcd13ifvqba0","pricing_plan_id":"cebpf4jnsgd1na2vs0mg"},{"bike_id":"3d03c3fc-bbbe-4f4f-845e-c21932c1a48c","system_id":"levelo_inurba_marseille","lat":43.29074,"lon":5.36604,"is_reserved":false,"is_disabled":false,"rental_uris":{"android":"levelo://app?vid=3d03c3fc-bbbe-4f4f-845e-c21932c1a48c","ios":"levelo://app?vid=3d03c3fc-bbbe-4f4f-845e-c21932c1a48c"},"vehicle_type_id":"4","last_reported":1708412847,"current_range_meters":14400,"station_id":"","pricing_plan_id":"cebpf4jnsgd1na2vs0mg"},{"bike_id":"1b6e7715-eba0-464a-9938-c0dc6b33c8ca","system_id":"levelo_inurba_marseille","lat":43.29529,"lon":5.385581,"is_reserved":false,"is_disabled":false,"rental_uris":{"android":"levelo://app?vid=1b6e7715-eba0-464a-9938-c0dc6b33c8ca","ios":"levelo://app?vid=1b6e7715-eba0-464a-9938-c0dc6b33c8ca"},"vehicle_type_id":"4","last_reported":1708412847,"current_range_meters":31200,"station_id":"ce4bgih2rcd13ifvqba0","pricing_plan_id":"cebpf4jnsgd1na2vs0mg"},{"bike_id":"881e3503-53a5-44df-af2b-6219b4982e49","system_id":"levelo_inurba_marseille","lat":43.29529,"lon":5.385581,"is_reserved":false,"is_disabled":false,"rental_uris":{"android":"levelo://app?vid=881e3503-53a5-44df-af2b-6219b4982e49","ios":"levelo://app?vid=881e3503-53a5-44df-af2b-6219b4982e49"},"vehicle_type_id":"4","last_reported":1708412847,"current_range_meters":20800,"station_id":"ce4bgih2rcd13ifvqba0","pricing_plan_id":"cebpf4jnsgd1na2vs0mg"},{"bike_id":"7e12d734-ce3c-41bf-b615-e945adfc3a6e","system_id":"levelo_inurba_marseille","lat":43.29529,"lon":5.385581,"is_reserved":false,"is_disabled":false,"rental_uris":{"android":"levelo://app?vid=7e12d734-ce3c-41bf-b615-e945adfc3a6e","ios":"levelo://app?vid=7e12d734-ce3c-41bf-b615-e945adfc3a6e"},"vehicle_type_id":"4","last_reported":1708412847,"current_range_meters":26000,"station_id":"ce4bgih2rcd13ifvqba0","pricing_plan_id":"cebpf4jnsgd1na2vs0mg"},{"bike_id":"8115cb97-44d7-4500-b17f-3e610805fb05","system_id":"levelo_inurba_marseille","lat":43.29529,"lon":5.385581,"is_reserved":false,"is_disabled":false,"rental_uris":{"android":"levelo://app?vid=8115cb97-44d7-4500-b17f-3e610805fb05","ios":"levelo://app?vid=8115cb97-44d7-4500-b17f-3e610805fb05"},"vehicle_type_id":"4","last_reported":1708412847,"current_range_meters":4400,"station_id":"ce4bgih2rcd13ifvqba0","pricing_plan_id":"cebpf4jnsgd1na2vs0mg"},{"bike_id":"86e87101-cef0-4c60-badc-ec1f5f5f9645","system_id":"levelo_inurba_marseille","lat":43.30224,"lon":5.39476,"is_reserved":false,"is_disabled":false,"rental_uris":{"android":"levelo://app?vid=86e87101-cef0-4c60-badc-ec1f5f5f9645","ios":"levelo://app?vid=86e87101-cef0-4c60-badc-ec1f5f5f9645"},"vehicle_type_id":"4","last_reported":1708412847,"current_range_meters":28400,"station_id":"ce4bh0p2rcd13ifvqd70","pricing_plan_id":"cebpf4jnsgd1na2vs0mg"},{"bike_id":"dc108514-126b-4ad1-9981-51a86893e687","system_id":"levelo_inurba_marseille","lat":43.30197,"lon":5.39458,"is_reserved":false,"is_disabled":false,"rental_uris":{"android":"levelo://app?vid=dc108514-126b-4ad1-9981-51a86893e687","ios":"levelo://app?vid=dc108514-126b-4ad1-9981-51a86893e687"},"vehicle_type_id":"4","last_reported":1708412847,"current_range_meters":14000,"station_id":"ce4bh0p2rcd13ifvqd70","pricing_plan_id":"cebpf4jnsgd1na2vs0mg"},{"bike_id":"f81090db-caf1-430f-b6e8-21bef116c472","system_id":"levelo_inurba_marseille","lat":43.302008,"lon":5.394694,"is_reserved":false,"is_disabled":false,"rental_uris":{"android":"levelo://app?vid=f81090db-caf1-430f-b6e8-21bef116c472","ios":"levelo://app?vid=f81090db-caf1-430f-b6e8-21bef116c472"},"vehicle_type_id":"4","last_reported":1708412847,"current_range_meters":28400,"station_id":"ce4bh0p2rcd13ifvqd70","pricing_plan_id":"cebpf4jnsgd1na2vs0mg"},{"bike_id":"c662e9d1-5a66-4b42-822d-fcc8221d0a4e","system_id":"levelo_inurba_marseille","lat":43.290631,"lon":5.359244,"is_reserved":false,"is_disabled":false,"rental_uris":{"android":"levelo://app?vid=c662e9d1-5a66-4b42-822d-fcc8221d0a4e","ios":"levelo://app?vid=c662e9d1-5a66-4b42-822d-fcc8221d0a4e"},"vehicle_type_id":"4","last_reported":1708412847,"current_range_meters":29600,"station_id":"ce4bha92rcd13ifvqeg0","pricing_plan_id":"cebpf4jnsgd1na2vs0mg"},{"bike_id":"f3621e31-2802-4d00-9575-e569e4cadbd9","system_id":"levelo_inurba_marseille","lat":43.290624,"lon":5.359245,"is_reserved":false,"is_disabled":false,"rental_uris":{"android":"levelo://app?vid=f3621e31-2802-4d00-9575-e569e4cadbd9","ios":"levelo://app?vid=f3621e31-2802-4d00-9575-e569e4cadbd9"},"vehicle_type_id":"4","last_reported":1708412847,"current_range_meters":28400,"station_id":"ce4bha92rcd13ifvqeg0","pricing_plan_id":"cebpf4jnsgd1na2vs0mg"},{"bike_id":"52392112-b398-44d2-822f-96a82b200c3b","system_id":"levelo_inurba_marseille","lat":43.289184,"lon":5.366408,"is_reserved":false,"is_disabled":false,"rental_uris":{"android":"levelo://app?vid=52392112-b398-44d2-822f-96a82b200c3b","ios":"levelo://app?vid=52392112-b398-44d2-822f-96a82b200c3b"},"vehicle_type_id":"4","last_reported":1708412847,"current_range_meters":14400,"station_id":"ce4bhap2rcd13ifvqek0","pricing_plan_id":"cebpf4jnsgd1na2vs0mg"},{"bike_id":"bcc0d134-058e-4c0a-a6b9-1bb3e5547fc2","system_id":"levelo_inurba_marseille","lat":43.295279,"lon":5.375048,"is_reserved":false,"is_disabled":false,"rental_uris":{"android":"levelo://app?vid=bcc0d134-058e-4c0a-a6b9-1bb3e5547fc2","ios":"levelo://app?vid=bcc0d134-058e-4c0a-a6b9-1bb3e5547fc2"},"vehicle_type_id":"4","last_reported":1708412847,"current_range_meters":16400,"station_id":"ce4bgkp2rcd13ifvqbmg","pricing_plan_id":"cebpf4jnsgd1na2vs0mg"},{"bike_id":"45688b8f-f852-4a26-a613-4432798e894c","system_id":"levelo_inurba_marseille","lat":43.289184,"lon":5.366408,"is_reserved":false,"is_disabled":false,"rental_uris":{"android":"levelo://app?vid=45688b8f-f852-4a26-a613-4432798e894c","ios":"levelo://app?vid=45688b8f-f852-4a26-a613-4432798e894c"},"vehicle_type_id":"4","last_reported":1708412847,"current_range_meters":25200,"station_id":"ce4bhap2rcd13ifvqek0","pricing_plan_id":"cebpf4jnsgd1na2vs0mg"},{"bike_id":"1389f4e9-a15b-4d05-9a8e-31f66bf4abf5","system_id":"levelo_inurba_marseille","lat":43.289468,"lon":5.363719,"is_reserved":false,"is_disabled":false,"rental_uris":{"android":"levelo://app?vid=1389f4e9-a15b-4d05-9a8e-31f66bf4abf5","ios":"levelo://app?vid=1389f4e9-a15b-4d05-9a8e-31f66bf4abf5"},"vehicle_type_id":"4","last_reported":1708412847,"current_range_meters":6000,"station_id":"ce4bhc92rcd13ifvqetg","pricing_plan_id":"cebpf4jnsgd1na2vs0mg"},{"bike_id":"16c1629d-7acf-4672-aea5-1e57caa6db2d","system_id":"levelo_inurba_marseille","lat":43.289468,"lon":5.363719,"is_reserved":false,"is_disabled":false,"rental_uris":{"android":"levelo://app?vid=16c1629d-7acf-4672-aea5-1e57caa6db2d","ios":"levelo://app?vid=16c1629d-7acf-4672-aea5-1e57caa6db2d"},"vehicle_type_id":"4","last_reported":1708412847,"current_range_meters":3200,"station_id":"ce4bhc92rcd13ifvqetg","pricing_plan_id":"cebpf4jnsgd1na2vs0mg"},{"bike_id":"7be16c38-c126-4ef6-bb63-caf198488d69","system_id":"levelo_inurba_marseille","lat":43.289184,"lon":5.366408,"is_reserved":false,"is_disabled":false,"rental_uris":{"android":"levelo://app?vid=7be16c38-c126-4ef6-bb63-caf198488d69","ios":"levelo://app?vid=7be16c38-c126-4ef6-bb63-caf198488d69"},"vehicle_type_id":"4","last_reported":1708412847,"current_range_meters":23200,"station_id":"ce4bhap2rcd13ifvqek0","pricing_plan_id":"cebpf4jnsgd1na2vs0mg"},{"bike_id":"ba2ad5c0-8994-43c1-817c-9699909bb27a","system_id":"levelo_inurba_marseille","lat":43.289184,"lon":5.366408,"is_reserved":false,"is_disabled":false,"rental_uris":{"android":"levelo://app?vid=ba2ad5c0-8994-43c1-817c-9699909bb27a","ios":"levelo://app?vid=ba2ad5c0-8994-43c1-817c-9699909bb27a"},"vehicle_type_id":"4","last_reported":1708412847,"current_range_meters":31600,"station_id":"ce4bhap2rcd13ifvqek0","pricing_plan_id":"cebpf4jnsgd1na2vs0mg"},{"bike_id":"60b129c4-6c39-4d43-a085-fbabdff1ae5b","system_id":"levelo_inurba_marseille","lat":43.289184,"lon":5.366408,"is_reserved":false,"is_disabled":false,"rental_uris":{"android":"levelo://app?vid=60b129c4-6c39-4d43-a085-fbabdff1ae5b","ios":"levelo://app?vid=60b129c4-6c39-4d43-a085-fbabdff1ae5b"},"vehicle_type_id":"4","last_reported":1708412847,"current_range_meters":20400,"station_id":"ce4bhap2rcd13ifvqek0","pricing_plan_id":"cebpf4jnsgd1na2vs0mg"},