{"last_updated":1699095888,"ttl":30,"version":"2.2","data":{"bikes":[{"bike_id":"434e8ace-0c6d-4329-bd56-8cd99dd08ffe","system_id":"levelo_inurba_marseille","lat":43.312239,"lon":5.368562,"is_reserved":false,"is_disabled":false,"rental_uris":{"android":"levelo://app?vid=434e8ace-0c6d-4329-bd56-8cd99dd08ffe","ios":"levelo://app?vid=434e8ace-0c6d-4329-bd56-8cd99dd08ffe"},"vehicle_type_id":"4","last_reported":1699095888,"current_range_meters":28000,"station_id":"ce4bgl92rcd13ifvqbq0","pricing_plan_id":"free"},{"bike_id":"882c5c42-3af6-4347-bca3-d14d8aaefbb9","system_id":"levelo_inurba_marseille","lat":43.31525,"lon":5.37316,"is_reserved":false,"is_disabled":false,"rental_uris":{"android":"levelo://app?vid=882c5c42-3af6-4347-bca3-d14d8aaefbb9","ios":"levelo://app?vid=882c5c42-3af6-4347-bca3-d14d8aaefbb9"},"vehicle_type_id":"4","last_reported":1699095888,"current_range_meters":16800,"station_id":"ce4bgt12rcd13ifvqcd0","pricing_plan_id":"free"},{"bike_id":"82a25eed-a4c4-4bc2-b75e-7bd1bd664e2a","system_id":"levelo_inurba_marseille","lat":43.309039,"lon":5.371797,"is_reserved":false,"is_disabled":false,"rental_uris":{"android":"levelo://app?vid=82a25eed-a4c4-4bc2-b75e-7bd1bd664e2a","ios":"levelo://app?vid=82a25eed-a4c4-4bc2-b75e-7bd1bd664e2a"},"vehicle_type_id":"4","last_reported":1699095888,"current_range_meters":25600,"station_id":"ce4bguh2rcd13ifvqckg","pricing_plan_id":"free"},{"bike_id":"9fbf07fa-0ea4-43d6-8ed6-82424e129746","system_id":"levelo_inurba_marseille","lat":43.319,"lon":5.36721,"is_reserved":false,"is_disabled":false,"rental_uris":{"android":"levelo://app?vid=9fbf07fa-0ea4-43d6-8ed6-82424e129746","ios":"levelo://app?vid=9fbf07fa-0ea4-43d6-8ed6-82424e129746"},"vehicle_type_id":"4","last_reported":1699095888,"current_range_meters":6800,"station_id":"","pricing_plan_id":"free"},{"bike_id":"7f6d1821-d960-4aa5-81c2-8064a10d310c","system_id":"levelo_inurba_marseille","lat":43.31885,"lon":5.370823,"is_reserved":false,"is_disabled":false,"rental_uris":{"android":"levelo://app?vid=7f6d1821-d960-4aa5-81c2-8064a10d310c","ios":"levelo://app?vid=7f6d1821-d960-4aa5-81c2-8064a10d310c"},"vehicle_type_id":"4","last_reported":1699095888,"current_range_meters":10000,"station_id":"","pricing_plan_id":"free"},{"bike_id":"b61b1e4e-c017-4ec5-bfd9-2f608c8b7aa0","system_id":"levelo_inurba_marseille","lat":43.30537,"lon":5.367345,"is_reserved":false,"is_disabled":false,"rental_uris":{"android":"levelo://app?vid=b61b1e4e-c017-4ec5-bfd9-2f608c8b7aa0","ios":"levelo://app?vid=b61b1e4e-c017-4ec5-bfd9-2f608c8b7aa0"},"vehicle_type_id":"4","last_reported":1699095888,"current_range_meters":5600,"station_id":"ce4bgrp2rcd13ifvqc9g","pricing_plan_id":"free"},{"bike_id":"770aa8b0-74e4-477c-8cc4-fd5d552902a6","system_id":"levelo_inurba_marseille","lat":43.316691,"lon":5.375367,"is_reserved":false,"is_disabled":false,"rental_uris":{"android":"levelo://app?vid=770aa8b0-74e4-477c-8cc4-fd5d552902a6","ios":"levelo://app?vid=770aa8b0-74e4-477c-8cc4-fd5d552902a6"},"vehicle_type_id":"4","last_reported":1699095888,"current_range_meters":7200,"station_id":"","pricing_plan_id":"free"},{"bike_id":"f252b071-dddd-4e5f-ad07-506846af6d1a","system_id":"levelo_inurba_marseille","lat":43.30552,"lon":5.36527,"is_reserved":false,"is_disabled":false,"rental_uris":{"android":"levelo://app?vid=f252b071-dddd-4e5f-ad07-506846af6d1a","ios":"levelo://app?vid=f252b071-dddd-4e5f-ad07-506846af6d1a"},"vehicle_type_id":"4","last_reported":1699095888,"current_range_meters":5200,"station_id":"ce4bgs12rcd13ifvqcag","pricing_plan_id":"free"},{"bike_id":"b4df4f88-2e77-4eab-80f3-b91bbdbee82d","system_id":"levelo_inurba_marseille","lat":43.3055,"lon":5.36531,"is_reserved":false,"is_disabled":false,"rental_uris":{"android":"levelo://app?vid=b4df4f88-2e77-4eab-80f3-b91bbdbee82d","ios":"levelo://app?vid=b4df4f88-2e77-4eab-80f3-b91bbdbee82d"},"vehicle_type_id":"4","last_reported":1699095888,"current_range_meters":21600,"station_id":"ce4bgs12rcd13ifvqcag","pricing_plan_id":"free"},{"bike_id":"fdb4e454-08af-459f-826d-1bb173be8427","system_id":"levelo_inurba_marseille","lat":43.305714,"lon":5.365633,"is_reserved":false,"is_disabled":false,"rental_uris":{"android":"levelo://app?vid=fdb4e454-08af-459f-826d-1bb173be8427","ios":"levelo://app?vid=fdb4e454-08af-459f-826d-1bb173be8427"},"vehicle_type_id":"4","last_reported":1699095888,"current_range_meters":31200,"station_id":"ce4bgs12rcd13ifvqcag","pricing_plan_id":"free"},{"bike_id":"ee7d5df2-0823-4574-b12c-0268c62738c8","system_id":"levelo_inurba_marseille","lat":43.305714,"lon":5.365633,"is_reserved":false,"is_disabled":false,"rental_uris":{"android":"levelo://app?vid=ee7d5df2-0823-4574-b12c-0268c62738c8","ios":"levelo://app?vid=ee7d5df2-0823-4574-b12c-0268c62738c8"},"vehicle_type_id":"4","last_reported":1699095888,"current_range_meters":16800,"station_id":"ce4bgs12rcd13ifvqcag","pricing_plan_id":"free"},{"bike_id":"7237ee62-9d5e-489c-a503-9a8980f0fa66","system_id":"levelo_inurba_marseille","lat":43.30538,"lon":5.36537,"is_reserved":false,"is_disabled":false,"rental_uris":{"android":"levelo://app?vid=7237ee62-9d5e-489c-a503-9a8980f0fa66","ios":"levelo://app?vid=7237ee62-9d5e-489c-a503-9a8980f0fa66"},"vehicle_type_id":"4","last_reported":1699095888,"current_range_meters":23200,"station_id":"ce4bgs12rcd13ifvqcag","pricing_plan_id":"free"},{"bike_id":"f1052e14-5b25-4839-8dbf-1243def9e272","system_id":"levelo_inurba_marseille","lat":43.30537,"lon":5.36536,"is_reserved":false,"is_disabled":false,"rental_uris":{"android":"levelo://app?vid=f1052e14-5b25-4839-8dbf-1243def9e272","ios":"levelo://app?vid=f1052e14-5b25-4839-8dbf-1243def9e272"},"vehicle_type_id":"4","last_reported":1699095888,"current_range_meters":21600,"station_id":"ce4bgs12rcd13ifvqcag","pricing_plan_id":"free"},{"bike_id":"dcca4415-d21a-422f-849b-a6a73d4f1e02","system_id":"levelo_inurba_marseille","lat":43.30536,"lon":5.36537,"is_reserved":false,"is_disabled":false,"rental_uris":{"android":"levelo://app?vid=dcca4415-d21a-422f-849b-a6a73d4f1e02","ios":"levelo://app?vid=dcca4415-d21a-422f-849b-a6a73d4f1e02"},"vehicle_type_id":"4","last_reported":1699095888,"current_range_meters":14800,"station_id":"ce4bgs12rcd13ifvqcag","pricing_plan_id":"free"},{"bike_id":"abf21feb-6c54-4329-b4a4-0a61bf6be1f7","system_id":"levelo_inurba_marseille","lat":43.30533,"lon":5.36534,"is_reserved":false,"is_disabled":false,"rental_uris":{"android":"levelo://app?vid=abf21feb-6c54-4329-b4a4-0a61bf6be1f7","ios":"levelo://app?vid=abf21feb-6c54-4329-b4a4-0a61bf6be1f7"},"vehicle_type_id":"4","last_reported":1699095888,"current_range_meters":13600,"station_id":"ce4bgs12rcd13ifvqcag","pricing_plan_id":"free"},{"bike_id":"7723b0bf-22e6-4054-84aa-69e2aaf62aff","system_id":"levelo_inurba_marseille","lat":43.3053,"lon":5.36533,"is_reserved":false,"is_disabled":false,"rental_uris":{"android":"levelo://app?vid=7723b0bf-22e6-4054-84aa-69e2aaf62aff","ios":"levelo://app?vid=7723b0bf-22e6-4054-84aa-69e2aaf62aff"},"vehicle_type_id":"4","last_reported":1699095888,"current_range_meters":28000,"station_id":"ce4bgs12rcd13ifvqcag","pricing_plan_id":"free"},{"bike_id":"17555d98-a39b-49c6-9824-43b833db2c3f","system_id":"levelo_inurba_marseille","lat":43.30529,"lon":5.36539,"is_reserved":false,"is_disabled":false,"rental_uris":{"android":"levelo://app?vid=17555d98-a39b-49c6-9824-43b833db2c3f","ios":"levelo://app?vid=17555d98-a39b-49c6-9824-43b833db2c3f"},"vehicle_type_id":"4","last_reported":1699095888,"current_range_meters":10800,"station_id":"ce4bgs12rcd13ifvqcag","pricing_plan_id":"free"},{"bike_id":"5eb39e12-5620-45f4-8375-3768454d029b","system_id":"levelo_inurba_marseille","lat":43.305989,"lon":5.37225,"is_reserved":false,"is_disabled":false,"rental_uris":{"android":"levelo://app?vid=5eb39e12-5620-45f4-8375-3768454d029b","ios":"levelo://app?vid=5eb39e12-5620-45f4-8375-3768454d029b"},"vehicle_type_id":"4","last_reported":1699095888,"current_range_meters":29600,"station_id":"ce4bgqh2rcd13ifvqc4g","pricing_plan_id":"free"},{"bike_id":"1b8e40d6-0c44-4134-94fc-7b25932d5186","system_id":"levelo_inurba_marseille","lat":43.305989,"lon":5.37225,"is_reserved":false,"is_disabled":false,"rental_uris":{"android":"levelo://app?vid=1b8e40d6-0c44-4134-94fc-7b25932d5186","ios":"levelo://app?vid=1b8e40d6-0c44-4134-94fc-7b25932d5186"},"vehicle_type_id":"4","last_reported":1699095888,"current_range_meters":27600,"station_id":"ce4bgqh2rcd13ifvqc4g","pricing_plan_id":"free"},{"bike_id":"7654d496-15f6-460d-8aaa-7eaa097202e7","system_id":"levelo_inurba_marseille","lat":43.31022,"lon":5.37697,"is_reserved":false,"is_disabled":false,"rental_uris":{"android":"levelo://app?vid=7654d496-15f6-460d-8aaa-7eaa097202e7","ios":"levelo://app?vid=7654d496-15f6-460d-8aaa-7eaa097202e7"},"vehicle_type_id":"4","last_reported":1699095888,"current_range_meters":21600,"station_id":"","pricing_plan_id":"free"},{"bike_id":"3a890222-0c0e-494c-922f-60444b7a7ea5","system_id":"levelo_inurba_marseille","lat":43.305989,"lon":5.37225,"is_reserved":false,"is_disabled":false,"rental_uris":{"android":"levelo://app?vid=3a890222-0c0e-494c-922f-60444b7a7ea5","ios":"levelo://app?vid=3a890222-0c0e-494c-922f-60444b7a7ea5"},"vehicle_type_id":"4","last_reported":1699095888,"current_range_meters":30000,"station_id":"ce4bgqh2rcd13ifvqc4g","pricing_plan_id":"free"},{"bike_id":"44c02a63-33c7-4611-b2ab-5d6c091fbb2b","system_id":"levelo_inurba_marseille","lat":43.305989,"lon":5.37225,"is_reserved":false,"is_disabled":false,"rental_uris":{"android":"levelo://app?vid=44c02a63-33c7-4611-b2ab-5d6c091fbb2b","ios":"levelo://app?vid=44c02a63-33c7-4611-b2ab-5d6c091fbb2b"},"vehicle_type_id":"4","last_reported":1699095888,"current_range_meters":22800,"station_id":"ce4bgqh2rcd13ifvqc4g","pricing_plan_id":"free"},{"bike_id":"6ad94e05-81db-409b-a031-0611c4f73cc5","system_id":"levelo_inurba_marseille","lat":43.311131,"lon":5.377651,"is_reserved":false,"is_disabled":false,"rental_uris":{"android":"levelo://app?vid=6ad94e05-81db-409b-a031-0611c4f73cc5","ios":"levelo://app?vid=6ad94e05-81db-409b-a031-0611c4f73cc5"},"vehicle_type_id":"4","last_reported":1699095888,"current_range_meters":31200,"station_id":"ce4bgt92rcd13ifvqcg0","pricing_plan_id":"free"},{"bike_id":"3dc7b6ab-8dc2-4939-9c57-dd5493dc0179","system_id":"levelo_inurba_marseille","lat":43.31122,"lon":5.3776,"is_reserved":false,"is_disabled":false,"rental_uris":{"android":"levelo://app?vid=3dc7b6ab-8dc2-4939-9c57-dd5493dc0179","ios":"levelo://app?vid=3dc7b6ab-8dc2-4939-9c57-dd5493dc0179"},"vehicle_type_id":"4","last_reported":1699095888,"current_range_meters":31200,"station_id":"ce4bgt92rcd13ifvqcg0","pricing_plan_id":"free"},{"bike_id":"a15bc208-6aca-41b5-ac44-3b8191938e83","system_id":"levelo_inurba_marseille","lat":43.317075,"lon":5.377367,"is_reserved":false,"is_disabled":false,"rental_uris":{"android":"levelo://app?vid=a15bc208-6aca-41b5-ac44-3b8191938e83","ios":"levelo://app?vid=a15bc208-6aca-41b5-ac44-3b8191938e83"},"vehicle_type_id":"4","last_reported":1699095888,"current_range_meters":30000,"station_id":"ce4bgth2rcd13ifvqch0","pricing_plan_id":"free"},{"bike_id":"309292bd-c7d5-46ae-b34f-1e3c37b8b228","system_id":"levelo_inurba_marseille","lat":43.317075,"lon":5.377367,"is_reserved":false,"is_disabled":false,"rental_uris":{"android":"levelo://app?vid=309292bd-c7d5-46ae-b34f-1e3c37b8b228","ios":"levelo://app?vid=309292bd-c7d5-46ae-b34f-1e3c37b8b228"},"vehicle_type_id":"4","last_reported":1699095888,"current_range_meters":25200,"station_id":"ce4bgth2rcd13ifvqch0","pricing_plan_id":"free"},{"bike_id":"0fb00552-09e0-4d18-8ca0-c572eb163650","system_id":"levelo_inurba_marseille","lat":43.303046,"lon":5.368981,"is_reserved":false,"is_disabled":false,"rental_uris":{"android":"levelo://app?vid=0fb00552-09e0-4d18-8ca0-c572eb163650","ios":"levelo://app?vid=0fb00552-09e0-4d18-8ca0-c572eb163650"},"vehicle_type_id":"4","last_reported":1699095888,"current_range_meters":24800,"station_id":"ce4bgqh2rcd13ifvqc5g","pricing_plan_id":"free"},{"bike_id":"36b08833-ac2a-4a2a-ac9a-8fb1a9186612","system_id":"levelo_inurba_marseille","lat":43.303046,"lon":5.368981,"is_reserved":false,"is_disabled":false,"rental_uris":{"android":"levelo://app?vid=36b08833-ac2a-4a2a-ac9a-8fb1a9186612","ios":"levelo://app?vid=36b08833-ac2a-4a2a-ac9a-8fb1a9186612"},"vehicle_type_id":"4","last_reported":1699095888,"current_range_meters":24000,"station_id":"ce4bgqh2rcd13ifvqc5g","pricing_plan_id":"free"},{"bike_id":"248a549d-598d-425c-8078-296bb67aafc6","system_id":"levelo_inurba_marseille","lat":43.30315,"lon":5.3691,"is_reserved":false,"is_disabled":false,"rental_uris":{"android":"levelo://app?vid=248a549d-598d-425c-8078-296bb67aafc6","ios":"levelo://app?vid=248a549d-598d-425c-8078-296bb67aafc6"},"vehicle_type_id":"4","last_reported":1699095888,"current_range_meters":30000,"station_id":"ce4bgqh2rcd13ifvqc5g","pricing_plan_id":"free"},{"bike_id":"d2571822-61b0-40b8-918e-6c554e6f7501","system_id":"levelo_inurba_marseille","lat":43.308012,"lon":5.381511,"is_reserved":false,"is_disabled":false,"rental_uris":{"android":"levelo://app?vid=d2571822-61b0-40b8-918e-6c554e6f7501","ios":"levelo://app?vid=d2571822-61b0-40b8-918e-6c554e6f7501"},"vehicle_type_id":"4","last_reported":1699095888,"current_range_meters":15600,"station_id":"ce4bgt12rcd13ifvqce0","pricing_plan_id":"free"},{"bike_id":"bb8bacc7-96e2-4222-8bbf-88f35abe576b","system_id":"levelo_inurba_marseille","lat":43.32321,"lon":5.37455,"is_reserved":false,"is_disabled":false,"rental_uris":{"android":"levelo://app?vid=bb8bacc7-96e2-4222-8bbf-88f35abe576b","ios":"levelo://app?vid=bb8bacc7-96e2-4222-8bbf-88f35abe576b"},"vehicle_type_id":"4","last_reported":1699095888,"current_range_meters":3200,"station_id":"","pricing_plan_id":"free"},{"bike_id":"2a5b7ebe-1730-4ee0-b290-af9b0feffebc","system_id":"levelo_inurba_marseille","lat":43.304606,"lon":5.379026,"is_reserved":false,"is_disabled":false,"rental_uris":{"android":"levelo://app?vid=2a5b7ebe-1730-4ee0-b290-af9b0feffebc","ios":"levelo://app?vid=2a5b7ebe-1730-4ee0-b290-af9b0feffebc"},"vehicle_type_id":"4","last_reported":1699095888,"current_range_meters":29600,"station_id":"ce4bgup2rcd13ifvqcn0","pricing_plan_id":"free"},{"bike_id":"4417582d-c2ca-40fe-a249-37e4da6d0b93","system_id":"levelo_inurba_marseille","lat":43.304606,"lon":5.379026,"is_reserved":false,"is_disabled":false,"rental_uris":{"android":"levelo://app?vid=4417582d-c2ca-40fe-a249-37e4da6d0b93","ios":"levelo://app?vid=4417582d-c2ca-40fe-a249-37e4da6d0b93"},"vehicle_type_id":"4","last_reported":1699095888,"current_range_meters":28400,"station_id":"ce4bgup2rcd13ifvqcn0","pricing_plan_id":"free"},{"bike_id":"9b973302-164e-4baa-8381-7d2c492eb324","system_id":"levelo_inurba_marseille","lat":43.304606,"lon":5.379026,"is_reserved":false,"is_disabled":false,"rental_uris":{"android":"levelo://app?vid=9b973302-164e-4baa-8381-7d2c492eb324","ios":"levelo://app?vid=9b973302-164e-4baa-8381-7d2c492eb324"},"vehicle_type_id":"4","last_reported":1699095888,"current_range_meters":30000,"station_id":"ce4bgup2rcd13ifvqcn0","pricing_plan_id":"free"},{"bike_id":"484f415a-35cf-4fbb-ae48-c06eba6f3525","system_id":"levelo_inurba_marseille","lat":43.304606,"lon":5.379026,"is_reserved":false,"is_disabled":false,"rental_uris":{"android":"levelo://app?vid=484f415a-35cf-4fbb-ae48-c06eba6f3525","ios":"levelo://app?vid=484f415a-35cf-4fbb-ae48-c06eba6f3525"},"vehicle_type_id":"4","last_reported":1699095888,"current_range_meters":31600,"station_id":"ce4bgup2rcd13ifvqcn0","pricing_plan_id":"free"},{"bike_id":"f77e627f-b81a-47fd-bcec-dbe29bbbf3aa","system_id":"levelo_inurba_marseille","lat":43.30458,"lon":5.37901,"is_reserved":false,"is_disabled":false,"rental_uris":{"android":"levelo://app?vid=f77e627f-b81a-47fd-bcec-dbe29bbbf3aa","ios":"levelo://app?vid=f77e627f-b81a-47fd-bcec-dbe29bbbf3aa"},"vehicle_type_id":"4","last_reported":1699095888,"current_range_meters":21600,"station_id":"ce4bgup2rcd13ifvqcn0","pricing_plan_id":"free"},{"bike_id":"c14ab7ab-c544-4de9-903b-51562dade6f0","system_id":"levelo_inurba_marseille","lat":43.304606,"lon":5.379026,"is_reserved":false,"is_disabled":false,"rental_uris":{"android":"levelo://app?vid=c14ab7ab-c544-4de9-903b-51562dade6f0","ios":"levelo://app?vid=c14ab7ab-c544-4de9-903b-51562dade6f0"},"vehicle_type_id":"4","last_reported":1699095888,"current_range_meters":32000,"station_id":"ce4bgup2rcd13ifvqcn0","pricing_plan_id":"free"},{"bike_id":"e8584f7f-3a22-4191-9ecd-5314ed574e4e","system_id":"levelo_inurba_marseille","lat":43.303586,"lon":5.377754,"is_reserved":false,"is_disabled":false,"rental_uris":{"android":"levelo://app?vid=e8584f7f-3a22-4191-9ecd-5314ed574e4e","ios":"levelo://app?vid=e8584f7f-3a22-4191-9ecd-5314ed574e4e"},"vehicle_type_id":"4","last_reported":1699095888,"current_range_meters":19600,"station_id":"","pricing_plan_id":"free"},{"bike_id":"a416c87f-efc9-411b-be48-7f434a04f7b9","system_id":"levelo_inurba_marseille","lat":43.304606,"lon":5.379026,"is_reserved":false,"is_disabled":false,"rental_uris":{"android":"levelo://app?vid=a416c87f-efc9-411b-be48-7f434a04f7b9","ios":"levelo://app?vid=a416c87f-efc9-411b-be48-7f434a04f7b9"},"vehicle_type_id":"4","last_reported":1699095888,"current_range_meters":12000,"station_id":"ce4bgup2rcd13ifvqcn0","pricing_plan_id":"free"},{"bike_id":"c37a60ff-8992-4e74-8e8e-b094339c7ef0","system_id":"levelo_inurba_marseille","lat":43.32489,"lon":5.36562,"is_reserved":false,"is_disabled":false,"rental_uris":{"android":"levelo://app?vid=c37a60ff-8992-4e74-8e8e-b094339c7ef0","ios":"levelo://app?vid=c37a60ff-8992-4e74-8e8e-b094339c7ef0"},"vehicle_type_id":"4","last_reported":1699095888,"current_range_meters":19200,"station_id":"ce4bhs12rcd13ifvqhvg","pricing_plan_id":"free"},{"bike_id":"95247232-f17f-4d83-8fb4-d23909f9060f","system_id":"levelo_inurba_marseille","lat":43.3249,"lon":5.36563,"is_reserved":false,"is_disabled":false,"rental_uris":{"android":"levelo://app?vid=95247232-f17f-4d83-8fb4-d23909f9060f","ios":"levelo://app?vid=95247232-f17f-4d83-8fb4-d23909f9060f"},"vehicle_type_id":"4","last_reported":1699095888,"current_range_meters":22800,"station_id":"ce4bhs12rcd13ifvqhvg","pricing_plan_id":"free"},{"bike_id":"3c5389a3-2050-4d1a-8b29-2cf60c8aa179","system_id":"levelo_inurba_marseille","lat":43.302784,"lon":5.377158,"is_reserved":false,"is_disabled":false,"rental_uris":{"android":"levelo://app?vid=3c5389a3-2050-4d1a-8b29-2cf60c8aa179","ios":"levelo://app?vid=3c5389a3-2050-4d1a-8b29-2cf60c8aa179"},"vehicle_type_id":"4","last_reported":1699095888,"current_range_meters":29200,"station_id":"ce4bguh2rcd13ifvqcj0","pricing_plan_id":"free"},{"bike_id":"52338be5-afc6-4a0a-bd9c-1093bde5e89c","system_id":"levelo_inurba_marseille","lat":43.302784,"lon":5.377158,"is_reserved":false,"is_disabled":false,"rental_uris":{"android":"levelo://app?vid=52338be5-afc6-4a0a-bd9c-1093bde5e89c","ios":"levelo://app?vid=52338be5-afc6-4a0a-bd9c-1093bde5e89c"},"vehicle_type_id":"4","last_reported":1699095888,"current_range_meters":11600,"station_id":"ce4bguh2rcd13ifvqcj0","pricing_plan_id":"free"},{"bike_id":"b3b86531-47a7-40e1-a5b2-c3d6184ddb90","system_id":"levelo_inurba_marseille","lat":43.302784,"lon":5.377158,"is_reserved":false,"is_disabled":false,"rental_uris":{"android":"levelo://app?vid=b3b86531-47a7-40e1-a5b2-c3d6184ddb90","ios":"levelo://app?vid=b3b86531-47a7-40e1-a5b2-c3d6184ddb90"},"vehicle_type_id":"4","last_reported":1699095888,"current_range_meters":19200,"station_id":"ce4bguh2rcd13ifvqcj0","pricing_plan_id":"free"},{"bike_id":"e1f7ed43-e13e-48ec-9b20-b936528506a0","system_id":"levelo_inurba_marseille","lat":43.301429,"lon":5.37413,"is_reserved":false,"is_disabled":false,"rental_uris":{"android":"levelo://app?vid=e1f7ed43-e13e-48ec-9b20-b936528506a0","ios":"levelo://app?vid=e1f7ed43-e13e-48ec-9b20-b936528506a0"},"vehicle_type_id":"4","last_reported":1699095888,"current_range_meters":31200,"station_id":"ce4bgs92rcd13ifvqcc0","pricing_plan_id":"free"},{"bike_id":"35f92502-7ca8-432d-b135-0f7c92eb19a0","system_id":"levelo_inurba_marseille","lat":43.30142,"lon":5.37426,"is_reserved":false,"is_disabled":false,"rental_uris":{"android":"levelo://app?vid=35f92502-7ca8-432d-b135-0f7c92eb19a0","ios":"levelo://app?vid=35f92502-7ca8-432d-b135-0f7c92eb19a0"},"vehicle_type_id":"4","last_reported":1699095888,"current_range_meters":17200,"station_id":"ce4bgs92rcd13ifvqcc0","pricing_plan_id":"free"},{"bike_id":"9f0f0b2d-855f-48d1-8aed-2fd07751956d","system_id":"levelo_inurba_marseille","lat":43.302784,"lon":5.377158,"is_reserved":false,"is_disabled":false,"rental_uris":{"android":"levelo://app?vid=9f0f0b2d-855f-48d1-8aed-2fd07751956d","ios":"levelo://app?vid=9f0f0b2d-855f-48d1-8aed-2fd07751956d"},"vehicle_type_id":"4","last_reported":1699095888,"current_range_meters":31600,"station_id":"ce4bguh2rcd13ifvqcj0","pricing_plan_id":"free"},{"bike_id":"cde09343-cb34-42b4-bd82-ba3dc99ca7a9","system_id":"levelo_inurba_marseille","lat":43.31541,"lon":5.38404,"is_reserved":false,"is_disabled":false,"rental_uris":{"android":"levelo://app?vid=cde09343-cb34-42b4-bd82-ba3dc99ca7a9","ios":"levelo://app?vid=cde09343-cb34-42b4-bd82-ba3dc99ca7a9"},"vehicle_type_id":"4","last_reported":1699095888,"current_range_meters":12800,"station_id":"ce4bhqp2rcd13ifvqhng","pricing_plan_id":"free"},{"bike_id":"2eabb3c8-32f6-41cc-a52e-f5abc7f57009","system_id":"levelo_inurba_marseille","lat":43.31998,"lon":5.3815,"is_reserved":false,"is_disabled":false,"rental_uris":{"android":"levelo://app?vid=2eabb3c8-32f6-41cc-a52e-f5abc7f57009","ios":"levelo://app?vid=2eabb3c8-32f6-41cc-a52e-f5abc7f57009"},"vehicle_type_id":"4","last_reported":1699095888,"current_range_meters":19200,"station_id":"ce4bhr12rcd13ifvqhpg","pricing_plan_id":"free"},{"bike_id":"3f2c2093-4a23-4121-b50d-71f37016ef76","system_id":"levelo_inurba_marseille","lat":43.314811,"lon":5.373103,"is_reserved":false,"is_disabled":false,"rental_uris":{"android":"levelo://app?vid=3f2c2093-4a23-4121-b50d-71f37016ef76","ios":"levelo://app?vid=3f2c2093-4a23-4121-b50d-71f37016ef76"},"vehicle_type_id":"4","last_reported":1699095888,"current_range_meters":22800,"station_id":"ce4bgt12rcd13ifvqcd0","pricing_plan_id":"free"},{"bike_id":"d5a39cb9-9e88-4931-877d-f71a7a363883","system_id":"levelo_inurba_marseille","lat":43.31365,"lon":5.38496,"is_reserved":false,"is_disabled":false,"rental_uris":{"android":"levelo://app?vid=d5a39cb9-9e88-4931-877d-f71a7a363883","ios":"levelo://app?vid=d5a39cb9-9e88-4931-877d-f71a7a363883"},"vehicle_type_id":"4","last_reported":1699095888,"current_range_meters":400,"station_id":"ce4bgt92rcd13ifvqcf0","pricing_plan_id":"free"},{"bike_id":"0df71868-e3e4-4f5c-a862-231c4b4c8667","system_id":"levelo_inurba_marseille","lat":43.29985,"lon":5.37178,"is_reserved":false,"is_disabled":false,"rental_uris":{"android":"levelo://app?vid=0df71868-e3e4-4f5c-a862-231c4b4c8667","ios":"levelo://app?vid=0df71868-e3e4-4f5c-a862-231c4b4c8667"},"vehicle_type_id":"4","last_reported":1699095888,"current_range_meters":11200,"station_id":"ce4bgr92rcd13ifvqc7g","pricing_plan_id":"free"},{"bike_id":"466e9cff-4937-4b6c-b2fc-7157aaaede6c","system_id":"levelo_inurba_marseille","lat":43.299852,"lon":5.371833,"is_reserved":false,"is_disabled":false,"rental_uris":{"android":"levelo://app?vid=466e9cff-4937-4b6c-b2fc-7157aaaede6c","ios":"levelo://app?vid=466e9cff-4937-4b6c-b2fc-7157aaaede6c"},"vehicle_type_id":"4","last_reported":1699095888,"current_range_meters":16400,"station_id":"ce4bgh92rcd13ifvqb50","pricing_plan_id":"free"},{"bike_id":"907482bd-ff7e-4a3c-85a4-404aa118ab26","system_id":"levelo_inurba_marseille","lat":43.299724,"lon":5.371829,"is_reserved":false,"is_disabled":false,"rental_uris":{"android":"levelo://app?vid=907482bd-ff7e-4a3c-85a4-404aa118ab26","ios":"levelo://app?vid=907482bd-ff7e-4a3c-85a4-404aa118ab26"},"vehicle_type_id":"4","last_reported":1699095888,"current_range_meters":28000,"station_id":"ce4bgr92rcd13ifvqc7g","pricing_plan_id":"free"},{"bike_id":"13798473-9b1e-4c74-b8a6-2d19bc5c2515","system_id":"levelo_inurba_marseille","lat":43.299222,"lon":5.365554,"is_reserved":false,"is_disabled":false,"rental_uris":{"android":"levelo://app?vid=13798473-9b1e-4c74-b8a6-2d19bc5c2515","ios":"levelo://app?vid=13798473-9b1e-4c74-b8a6-2d19bc5c2515"},"vehicle_type_id":"4","last_reported":1699095888,"current_range_meters":20400,"station_id":"ce4bgm92rcd13ifvqbr0","pricing_plan_id":"free"},{"bike_id":"3fa8d174-7f1c-4c1b-8399-85ab580d72cf","system_id":"levelo_inurba_marseille","lat":43.299724,"lon":5.371829,"is_reserved":false,"is_disabled":false,"rental_uris":{"android":"levelo://app?vid=3fa8d174-7f1c-4c1b-8399-85ab580d72cf","ios":"levelo://app?vid=3fa8d174-7f1c-4c1b-8399-85ab580d72cf"},"vehicle_type_id":"4","last_reported":1699095888,"current_range_meters":24400,"station_id":"ce4bgr92rcd13ifvqc7g","pricing_plan_id":"free"},{"bike_id":"0e58520f-29fe-4427-b52c-4109c8134296","system_id":"levelo_inurba_marseille","lat":43.299724,"lon":5.371829,"is_reserved":false,"is_disabled":false,"rental_uris":{"android":"levelo://app?vid=0e58520f-29fe-4427-b52c-4109c8134296","ios":"levelo://app?vid=0e58520f-29fe-4427-b52c-4109c8134296"},"vehicle_type_id":"4","last_reported":1699095888,"current_range_meters":6800,"station_id":"ce4bgr92rcd13ifvqc7g","pricing_plan_id":"free"},{"bike_id":"91e3bdfd-117a-4cf2-bbe7-46f5642c2133","system_id":"levelo_inurba_marseille","lat":43.299724,"lon":5.371829,"is_reserved":false,"is_disabled":false,"rental_uris":{"android":"levelo://app?vid=91e3bdfd-117a-4cf2-bbe7-46f5642c2133","ios":"levelo://app?vid=91e3bdfd-117a-4cf2-bbe7-46f5642c2133"},"vehicle_type_id":"4","last_reported":1699095888,"current_range_meters":22000,"station_id":"ce4bgr92rcd13ifvqc7g","pricing_plan_id":"free"},{"bike_id":"8a57593b-6d9b-4361-9553-e56debd4c60e","system_id":"levelo_inurba_marseille","lat":43.299724,"lon":5.371829,"is_reserved":false,"is_disabled":false,"rental_uris":{"android":"levelo://app?vid=8a57593b-6d9b-4361-9553-e56debd4c60e","ios":"levelo://app?vid=8a57593b-6d9b-4361-9553-e56debd4c60e"},"vehicle_type_id":"4","last_reported":1699095888,"current_range_meters":29600,"station_id":"ce4bgr92rcd13ifvqc7g","pricing_plan_id":"free"},{"bike_id":"1c2c73ff-4601-4f33-b97f-da95bc589609","system_id":"levelo_inurba_marseille","lat":43.32183,"lon":5.38237,"is_reserved":false,"is_disabled":false,"rental_uris":{"android":"levelo://app?vid=1c2c73ff-4601-4f33-b97f-da95bc589609","ios":"levelo://app?vid=1c2c73ff-4601-4f33-b97f-da95bc589609"},"vehicle_type_id":"4","last_reported":1699095888,"current_range_meters":18000,"station_id":"","pricing_plan_id":"free"},{"bike_id":"cffe800b-8e46-4367-92e9-d9a0f2cba0f2","system_id":"levelo_inurba_marseille","lat":43.299626,"lon":5.375372,"is_reserved":false,"is_disabled":false,"rental_uris":{"android":"levelo://app?vid=cffe800b-8e46-4367-92e9-d9a0f2cba0f2","ios":"levelo://app?vid=cffe800b-8e46-4367-92e9-d9a0f2cba0f2"},"vehicle_type_id":"4","last_reported":1699095888,"current_range_meters":26800,"station_id":"ce4bgjh2rcd13ifvqbg0","pricing_plan_id":"free"},{"bike_id":"c1d68d86-a3a8-45fb-a3d4-8cccf38a71d6","system_id":"levelo_inurba_marseille","lat":43.298433,"lon":5.362774,"is_reserved":false,"is_disabled":false,"rental_uris":{"android":"levelo://app?vid=c1d68d86-a3a8-45fb-a3d4-8cccf38a71d6","ios":"levelo://app?vid=c1d68d86-a3a8-45fb-a3d4-8cccf38a71d6"},"vehicle_type_id":"4","last_reported":1699095888,"current_range_meters":24800,"station_id":"ce4bgpp2rcd13ifvqc3g","pricing_plan_id":"free"},{"bike_id":"11cf951a-aac9-4ec1-a90b-0164a8d41c2f","system_id":"levelo_inurba_marseille","lat":43.305364,"lon":5.384119,"is_reserved":false,"is_disabled":false,"rental_uris":{"android":"levelo://app?vid=11cf951a-aac9-4ec1-a90b-0164a8d41c2f","ios":"levelo://app?vid=11cf951a-aac9-4ec1-a90b-0164a8d41c2f"},"vehicle_type_id":"4","last_reported":1699095888,"current_range_meters":31600,"station_id":"ce4bgg92rcd13ifvqb30","pricing_plan_id":"free"},{"bike_id":"111bcc56-b5fc-4bb8-a584-73b52d824b51","system_id":"levelo_inurba_marseille","lat":43.298433,"lon":5.362774,"is_reserved":false,"is_disabled":false,"rental_uris":{"android":"levelo://app?vid=111bcc56-b5fc-4bb8-a584-73b52d824b51","ios":"levelo://app?vid=111bcc56-b5fc-4bb8-a584-73b52d824b51"},"vehicle_type_id":"4","last_reported":1699095888,"current_range_meters":19600,"station_id":"ce4bgpp2rcd13ifvqc3g","pricing_plan_id":"free"},{"bike_id":"abd67fb4-bf98-4384-b12b-48e9ead60053","system_id":"levelo_inurba_marseille","lat":43.298433,"lon":5.362774,"is_reserved":false,"is_disabled":false,"rental_uris":{"android":"levelo://app?vid=abd67fb4-bf98-4384-b12b-48e9ead60053","ios":"levelo://app?vid=abd67fb4-bf98-4384-b12b-48e9ead60053"},"vehicle_type_id":"4","last_reported":1699095888,"current_range_meters":22800,"station_id":"ce4bgpp2rcd13ifvqc3g","pricing_plan_id":"free"},{"bike_id":"70faa0fe-505c-4964-beba-50234bf1926b","system_id":"levelo_inurba_marseille","lat":43.298433,"lon":5.362774,"is_reserved":false,"is_disabled":false,"rental_uris":{"android":"levelo://app?vid=70faa0fe-505c-4964-beba-50234bf1926b","ios":"levelo://app?vid=70faa0fe-505c-4964-beba-50234bf1926b"},"vehicle_type_id":"4","last_reported":1699095888,"current_range_meters":31200,"station_id":"ce4bgpp2rcd13ifvqc3g","pricing_plan_id":"free"},{"bike_id":"49f95e7b-2ccf-42c5-b078-d3e8a672eb87","system_id":"levelo_inurba_marseille","lat":43.298433,"lon":5.362774,"is_reserved":false,"is_disabled":false,"rental_uris":{"android":"levelo://app?vid=49f95e7b-2ccf-42c5-b078-d3e8a672eb87","ios":"levelo://app?vid=49f95e7b-2ccf-42c5-b078-d3e8a672eb87"},"vehicle_type_id":"4","last_reported":1699095888,"current_range_meters":21600,"station_id":"ce4bgpp2rcd13ifvqc3g","pricing_plan_id":"free"},{"bike_id":"04ae54d5-ef7e-4c55-ac13-22578d29c2d7","system_id":"levelo_inurba_marseille","lat":43.305364,"lon":5.384119,"is_reserved":false,"is_disabled":false,"rental_uris":{"android":"levelo://app?vid=04ae54d5-ef7e-4c55-ac13-22578d29c2d7","ios":"levelo://app?vid=04ae54d5-ef7e-4c55-ac13-22578d29c2d7"},"vehicle_type_id":"4","last_reported":1699095888,"current_range_meters":30400,"station_id":"ce4bgg92rcd13ifvqb30","pricing_plan_id":"free"},{"bike_id":"e6009ca9-2d97-4247-82b7-3b2fad73d90c","system_id":"levelo_inurba_marseille","lat":43.298433,"lon":5.362774,"is_reserved":false,"is_disabled":false,"rental_uris":{"android":"levelo://app?vid=e6009ca9-2d97-4247-82b7-3b2fad73d90c","ios":"levelo://app?vid=e6009ca9-2d97-4247-82b7-3b2fad73d90c"},"vehicle_type_id":"4","last_reported":1699095888,"current_range_meters":29200,"station_id":"ce4bgpp2rcd13ifvqc3g","pricing_plan_id":"free"},{"bike_id":"4fc6eca6-4bdb-427b-a48a-621c6a90b0e0","system_id":"levelo_inurba_marseille","lat":43.298433,"lon":5.362774,"is_reserved":false,"is_disabled":false,"rental_uris":{"android":"levelo://app?vid=4fc6eca6-4bdb-427b-a48a-621c6a90b0e0","ios":"levelo://app?vid=4fc6eca6-4bdb-427b-a48a-621c6a90b0e0"},"vehicle_type_id":"4","last_reported":1699095888,"current_range_meters":16000,"station_id":"ce4bgpp2rcd13ifvqc3g","pricing_plan_id":"free"},{"bike_id":"1da880c7-b22f-4144-8bd6-cb28d4e389ec","system_id":"levelo_inurba_marseille","lat":43.298433,"lon":5.362774,"is_reserved":false,"is_disabled":false,"rental_uris":{"android":"levelo://app?vid=1da880c7-b22f-4144-8bd6-cb28d4e389ec","ios":"levelo://app?vid=1da880c7-b22f-4144-8bd6-cb28d4e389ec"},"vehicle_type_id":"4","last_reported":1699095888,"current_range_meters":31600,"station_id":"ce4bgpp2rcd13ifvqc3g","pricing_plan_id":"free"},{"bike_id":"4c7795a0-f9f7-4225-9a20-51799f1153ae","system_id":"levelo_inurba_marseille","lat":43.305364,"lon":5.384119,"is_reserved":false,"is_disabled":false,"rental_uris":{"android":"levelo://app?vid=4c7795a0-f9f7-4225-9a20-51799f1153ae","ios":"levelo://app?vid=4c7795a0-f9f7-4225-9a20-51799f1153ae"},"vehicle_type_id":"4","last_reported":1699095888,"current_range_meters":16800,"station_id":"ce4bgg92rcd13ifvqb30","pricing_plan_id":"free"},{"bike_id":"c6122393-97c1-4d7e-bcd9-71e2875759ce","system_id":"levelo_inurba_marseille","lat":43.298433,"lon":5.362774,"is_reserved":false,"is_disabled":false,"rental_uris":{"android":"levelo://app?vid=c6122393-97c1-4d7e-bcd9-71e2875759ce","ios":"levelo://app?vid=c6122393-97c1-4d7e-bcd9-71e2875759ce"},"vehicle_type_id":"4","last_reported":1699095888,"current_range_meters":12400,"station_id":"ce4bgpp2rcd13ifvqc3g","pricing_plan_id":"free"},{"bike_id":"24aeca89-b400-4b13-834a-b19d8500038d","system_id":"levelo_inurba_marseille","lat":43.298433,"lon":5.362774,"is_reserved":false,"is_disabled":false,"rental_uris":{"android":"levelo://app?vid=24aeca89-b400-4b13-834a-b19d8500038d","ios":"levelo://app?vid=24aeca89-b400-4b13-834a-b19d8500038d"},"vehicle_type_id":"4","last_reported":1699095888,"current_range_meters":20400,"station_id":"ce4bgpp2rcd13ifvqc3g","pricing_plan_id":"free"},{"bike_id":"43c406e6-e75a-4ec3-b8f0-4aa23d504a33","system_id":"levelo_inurba_marseille","lat":43.30328,"lon":5.3825,"is_reserved":false,"is_disabled":false,"rental_uris":{"android":"levelo://app?vid=43c406e6-e75a-4ec3-b8f0-4aa23d504a33","ios":"levelo://app?vid=43c406e6-e75a-4ec3-b8f0-4aa23d504a33"},"vehicle_type_id":"4","last_reported":1699095888,"current_range_meters":29600,"station_id":"","pricing_plan_id":"free"},{"bike_id":"eadb5cc6-a362-455d-a7a2-f02ecb8f2e3c","system_id":"levelo_inurba_marseille","lat":43.297794,"lon":5.370888,"is_reserved":false,"is_disabled":false,"rental_uris":{"android":"levelo://app?vid=eadb5cc6-a362-455d-a7a2-f02ecb8f2e3c","ios":"levelo://app?vid=eadb5cc6-a362-455d-a7a2-f02ecb8f2e3c"},"vehicle_type_id":"4","last_reported":1699095888,"current_range_meters":21200,"station_id":"ce4bgop2rcd13ifvqc1g","pricing_plan_id":"free"},{"bike_id":"2890ccf2-3841-41f3-9ac6-493ca0d72df1","system_id":"levelo_inurba_marseille","lat":43.297774,"lon":5.370875,"is_reserved":false,"is_disabled":false,"rental_uris":{"android":"levelo://app?vid=2890ccf2-3841-41f3-9ac6-493ca0d72df1","ios":"levelo://app?vid=2890ccf2-3841-41f3-9ac6-493ca0d72df1"},"vehicle_type_id":"4","last_reported":1699095888,"current_range_meters":31200,"station_id":"ce4bgop2rcd13ifvqc1g","pricing_plan_id":"free"},{"bike_id":"f0fc3206-c284-4a81-98a9-86fe56f8ca77","system_id":"levelo_inurba_marseille","lat":43.297794,"lon":5.370888,"is_reserved":false,"is_disabled":false,"rental_uris":{"android":"levelo://app?vid=f0fc3206-c284-4a81-98a9-86fe56f8ca77","ios":"levelo://app?vid=f0fc3206-c284-4a81-98a9-86fe56f8ca77"},"vehicle_type_id":"4","last_reported":1699095888,"current_range_meters":19200,"station_id":"ce4bgop2rcd13ifvqc1g","pricing_plan_id":"free"},{"bike_id":"7cfe6f56-2bc3-46fe-ab24-3640ba957c6a","system_id":"levelo_inurba_marseille","lat":43.297774,"lon":5.370875,"is_reserved":false,"is_disabled":false,"rental_uris":{"android":"levelo://app?vid=7cfe6f56-2bc3-46fe-ab24-3640ba957c6a","ios":"levelo://app?vid=7cfe6f56-2bc3-46fe-ab24-3640ba957c6a"},"vehicle_type_id":"4","last_reported":1699095888,"current_range_meters":24000,"station_id":"ce4bgop2rcd13ifvqc1g","pricing_plan_id":"free"},{"bike_id":"717c57c4-65ab-4a6f-b741-3477e54a94b7","system_id":"levelo_inurba_marseille","lat":43.297794,"lon":5.370888,"is_reserved":false,"is_disabled":false,"rental_uris":{"android":"levelo://app?vid=717c57c4-65ab-4a6f-b741-3477e54a94b7","ios":"levelo://app?vid=717c57c4-65ab-4a6f-b741-3477e54a94b7"},"vehicle_type_id":"4","last_reported":1699095888,"current_range_meters":25600,"station_id":"ce4bgop2rcd13ifvqc1g","pricing_plan_id":"free"},{"bike_id":"ee04e5cc-451d-44b6-bca0-cfc749a45964","system_id":"levelo_inurba_marseille","lat":43.322872,"lon":5.382756,"is_reserved":false,"is_disabled":false,"rental_uris":{"android":"levelo://app?vid=ee04e5cc-451d-44b6-bca0-cfc749a45964","ios":"levelo://app?vid=ee04e5cc-451d-44b6-bca0-cfc749a45964"},"vehicle_type_id":"4","last_reported":1699095888,"current_range_meters":28000,"station_id":"ce4bhr12rcd13ifvqhqg","pricing_plan_id":"free"},{"bike_id":"b697629d-425e-4f98-b283-fdda312f1cec","system_id":"levelo_inurba_marseille","lat":43.322872,"lon":5.382756,"is_reserved":false,"is_disabled":false,"rental_uris":{"android":"levelo://app?vid=b697629d-425e-4f98-b283-fdda312f1cec","ios":"levelo://app?vid=b697629d-425e-4f98-b283-fdda312f1cec"},"vehicle_type_id":"4","last_reported":1699095888,"current_range_meters":28400,"station_id":"ce4bhr12rcd13ifvqhqg","pricing_plan_id":"free"},{"bike_id":"c9428514-9197-4976-812b-d61139ef9187","system_id":"levelo_inurba_marseille","lat":43.318846,"lon":5.386473,"is_reserved":false,"is_disabled":false,"rental_uris":{"android":"levelo://app?vid=c9428514-9197-4976-812b-d61139ef9187","ios":"levelo://app?vid=c9428514-9197-4976-812b-d61139ef9187"},"vehicle_type_id":"4","last_reported":1699095888,"current_range_meters":9600,"station_id":"","pricing_plan_id":"free"},{"bike_id":"f143fa19-cac6-49b9-bb5d-017a1e83707a","system_id":"levelo_inurba_marseille","lat":43.32824,"lon":5.36693,"is_reserved":false,"is_disabled":false,"rental_uris":{"android":"levelo://app?vid=f143fa19-cac6-49b9-bb5d-017a1e83707a","ios":"levelo://app?vid=f143fa19-cac6-49b9-bb5d-017a1e83707a"},"vehicle_type_id":"4","last_reported":1699095888,"current_range_meters":17200,"station_id":"ce4bhs92rcd13ifvqi0g","pricing_plan_id":"free"},{"bike_id":"5c14b4e6-da06-4ab2-b6ba-b1edddc68652","system_id":"levelo_inurba_marseille","lat":43.32827,"lon":5.36686,"is_reserved":false,"is_disabled":false,"rental_uris":{"android":"levelo://app?vid=5c14b4e6-da06-4ab2-b6ba-b1edddc68652","ios":"levelo://app?vid=5c14b4e6-da06-4ab2-b6ba-b1edddc68652"},"vehicle_type_id":"4","last_reported":1699095888,"current_range_meters":5200,"station_id":"ce4bhs92rcd13ifvqi0g","pricing_plan_id":"free"},{"bike_id":"21426a0d-604c-4933-9dde-aad2feebdc38","system_id":"levelo_inurba_marseille","lat":43.32828,"lon":5.36689,"is_reserved":false,"is_disabled":false,"rental_uris":{"android":"levelo://app?vid=21426a0d-604c-4933-9dde-aad2feebdc38","ios":"levelo://app?vid=21426a0d-604c-4933-9dde-aad2feebdc38"},"vehicle_type_id":"4","last_reported":1699095888,"current_range_meters":1200,"station_id":"ce4bhs92rcd13ifvqi0g","pricing_plan_id":"free"},{"bike_id":"8ddce3be-8c56-444b-96e9-566f4ce84b5b","system_id":"levelo_inurba_marseille","lat":43.32829,"lon":5.36691,"is_reserved":false,"is_disabled":false,"rental_uris":{"android":"levelo://app?vid=8ddce3be-8c56-444b-96e9-566f4ce84b5b","ios":"levelo://app?vid=8ddce3be-8c56-444b-96e9-566f4ce84b5b"},"vehicle_type_id":"4","last_reported":1699095888,"current_range_meters":0,"station_id":"ce4bhs92rcd13ifvqi0g","pricing_plan_id":"free"},{"bike_id":"f53f541f-7eea-4f04-9b6f-009d5c35ca5e","system_id":"levelo_inurba_marseille","lat":43.328371,"lon":5.366909,"is_reserved":false,"is_disabled":false,"rental_uris":{"android":"levelo://app?vid=f53f541f-7eea-4f04-9b6f-009d5c35ca5e","ios":"levelo://app?vid=f53f541f-7eea-4f04-9b6f-009d5c35ca5e"},"vehicle_type_id":"4","last_reported":1699095888,"current_range_meters":7600,"station_id":"ce4bhs92rcd13ifvqi0g","pricing_plan_id":"free"},{"bike_id":"260c645f-b280-4251-8fb9-e89c0f995509","system_id":"levelo_inurba_marseille","lat":43.3283,"lon":5.3669,"is_reserved":false,"is_disabled":false,"rental_uris":{"android":"levelo://app?vid=260c645f-b280-4251-8fb9-e89c0f995509","ios":"levelo://app?vid=260c645f-b280-4251-8fb9-e89c0f995509"},"vehicle_type_id":"4","last_reported":1699095888,"current_range_meters":11200,"station_id":"ce4bhs92rcd13ifvqi0g","pricing_plan_id":"free"},{"bike_id":"d2255325-c858-4507-8c11-bdd56a1224e0","system_id":"levelo_inurba_marseille","lat":43.3283,"lon":5.36689,"is_reserved":false,"is_disabled":false,"rental_uris":{"android":"levelo://app?vid=d2255325-c858-4507-8c11-bdd56a1224e0","ios":"levelo://app?vid=d2255325-c858-4507-8c11-bdd56a1224e0"},"vehicle_type_id":"4","last_reported":1699095888,"current_range_meters":4000,"station_id":"ce4bhs92rcd13ifvqi0g","pricing_plan_id":"free"},{"bike_id":"cfba6876-7d13-4127-9fa5-b0d2ec8c021a","system_id":"levelo_inurba_marseille","lat":43.32831,"lon":5.36685,"is_reserved":false,"is_disabled":false,"rental_uris":{"android":"levelo://app?vid=cfba6876-7d13-4127-9fa5-b0d2ec8c021a","ios":"levelo://app?vid=cfba6876-7d13-4127-9fa5-b0d2ec8c021a"},"vehicle_type_id":"4","last_reported":1699095888,"current_range_meters":13200,"station_id":"ce4bhs92rcd13ifvqi0g","pricing_plan_id":"free"},{"bike_id":"c16fef1c-85de-4d42-9082-67c0175f441b","system_id":"levelo_inurba_marseille","lat":43.297163,"lon":5.365866,"is_reserved":false,"is_disabled":false,"rental_uris":{"android":"levelo://app?vid=c16fef1c-85de-4d42-9082-67c0175f441b","ios":"levelo://app?vid=c16fef1c-85de-4d42-9082-67c0175f441b"},"vehicle_type_id":"4","last_reported":1699095888,"current_range_meters":26400,"station_id":"ce4bgn12rcd13ifvqbt0","pricing_plan_id":"free"},{"bike_id":"e42efff5-7a1a-4e23-98d1-40ef286deba7","system_id":"levelo_inurba_marseille","lat":43.297163,"lon":5.365866,"is_reserved":false,"is_disabled":false,"rental_uris":{"android":"levelo://app?vid=e42efff5-7a1a-4e23-98d1-40ef286deba7","ios":"levelo://app?vid=e42efff5-7a1a-4e23-98d1-40ef286deba7"},"vehicle_type_id":"4","last_reported":1699095888,"current_range_meters":16000,"station_id":"ce4bgn12rcd13ifvqbt0","pricing_plan_id":"free"},{"bike_id":"67bb7dbe-50ea-4249-bc98-d0ad4814b4a6","system_id":"levelo_inurba_marseille","lat":43.321453,"lon":5.385595,"is_reserved":false,"is_disabled":false,"rental_uris":{"android":"levelo://app?vid=67bb7dbe-50ea-4249-bc98-d0ad4814b4a6","ios":"levelo://app?vid=67bb7dbe-50ea-4249-bc98-d0ad4814b4a6"},"vehicle_type_id":"4","last_reported":1699095888,"current_range_meters":19200,"station_id":"","pricing_plan_id":"free"},{"bike_id":"ac64cfce-5505-455a-9537-62af5dd3a90a","system_id":"levelo_inurba_marseille","lat":43.32355,"lon":5.38416,"is_reserved":false,"is_disabled":false,"rental_uris":{"android":"levelo://app?vid=ac64cfce-5505-455a-9537-62af5dd3a90a","ios":"levelo://app?vid=ac64cfce-5505-455a-9537-62af5dd3a90a"},"vehicle_type_id":"4","last_reported":1699095888,"current_range_meters":20800,"station_id":"","pricing_plan_id":"free"},{"bike_id":"8ac57052-c71d-4509-ae4a-bb792e04cbf8","system_id":"levelo_inurba_marseille","lat":43.2968,"lon":5.37291,"is_reserved":false,"is_disabled":false,"rental_uris":{"android":"levelo://app?vid=8ac57052-c71d-4509-ae4a-bb792e04cbf8","ios":"levelo://app?vid=8ac57052-c71d-4509-ae4a-bb792e04cbf8"},"vehicle_type_id":"4","last_reported":1699095888,"current_range_meters":22800,"station_id":"ce4bgk12rcd13ifvqbj0","pricing_plan_id":"free"},{"bike_id":"5a3e4389-a6dc-483b-abd6-709292f6e071","system_id":"levelo_inurba_marseille","lat":43.29595,"lon":5.36699,"is_reserved":false,"is_disabled":false,"rental_uris":{"android":"levelo://app?vid=5a3e4389-a6dc-483b-abd6-709292f6e071","ios":"levelo://app?vid=5a3e4389-a6dc-483b-abd6-709292f6e071"},"vehicle_type_id":"4","last_reported":1699095888,"current_range_meters":15600,"station_id":"ce4bgph2rcd13ifvqc2g","pricing_plan_id":"free"},{"bike_id":"1eaebebe-41cb-4472-be1d-a3b873eece35","system_id":"levelo_inurba_marseille","lat":43.29573,"lon":5.367355,"is_reserved":false,"is_disabled":false,"rental_uris":{"android":"levelo://app?vid=1eaebebe-41cb-4472-be1d-a3b873eece35","ios":"levelo://app?vid=1eaebebe-41cb-4472-be1d-a3b873eece35"},"vehicle_type_id":"4","last_reported":1699095888,"current_range_meters":15200,"station_id":"ce4bgph2rcd13ifvqc2g","pricing_plan_id":"free"},{"bike_id":"cf3ba4c2-207d-4733-a7c1-946dca6e908e","system_id":"levelo_inurba_marseille","lat":43.296131,"lon":5.370791,"is_reserved":false,"is_disabled":false,"rental_uris":{"android":"levelo://app?vid=cf3ba4c2-207d-4733-a7c1-946dca6e908e","ios":"levelo://app?vid=cf3ba4c2-207d-4733-a7c1-946dca6e908e"},"vehicle_type_id":"4","last_reported":1699095888,"current_range_meters":22000,"station_id":"ce4bgnh2rcd13ifvqc0g","pricing_plan_id":"free"},{"bike_id":"dd512a8d-d790-4dd0-83f2-a1e03261126c","system_id":"levelo_inurba_marseille","lat":43.296131,"lon":5.370791,"is_reserved":false,"is_disabled":false,"rental_uris":{"android":"levelo://app?vid=dd512a8d-d790-4dd0-83f2-a1e03261126c","ios":"levelo://app?vid=dd512a8d-d790-4dd0-83f2-a1e03261126c"},"vehicle_type_id":"4","last_reported":1699095888,"current_range_meters":30400,"station_id":"ce4bgnh2rcd13ifvqc0g","pricing_plan_id":"free"},{"bike_id":"2df52054-3b03-447f-b0ce-b1cc05405d80","system_id":"levelo_inurba_marseille","lat":43.296131,"lon":5.370791,"is_reserved":false,"is_disabled":false,"rental_uris":{"android":"levelo://app?vid=2df52054-3b03-447f-b0ce-b1cc05405d80","ios":"levelo://app?vid=2df52054-3b03-447f-b0ce-b1cc05405d80"},"vehicle_type_id":"4","last_reported":1699095888,"current_range_meters":12800,"station_id":"ce4bgnh2rcd13ifvqc0g","pricing_plan_id":"free"},{"bike_id":"52f63877-faa6-4f5d-9f7b-28c987b7b6d7","system_id":"levelo_inurba_marseille","lat":43.29573,"lon":5.367355,"is_reserved":false,"is_disabled":false,"rental_uris":{"android":"levelo://app?vid=52f63877-faa6-4f5d-9f7b-28c987b7b6d7","ios":"levelo://app?vid=52f63877-faa6-4f5d-9f7b-28c987b7b6d7"},"vehicle_type_id":"4","last_reported":1699095888,"current_range_meters":31600,"station_id":"ce4bgph2rcd13ifvqc2g","pricing_plan_id":"free"},{"bike_id":"25f25d8d-4779-4e74-9ce9-a2ea2fbb32fc","system_id":"levelo_inurba_marseille","lat":43.296131,"lon":5.370791,"is_reserved":false,"is_disabled":false,"rental_uris":{"android":"levelo://app?vid=25f25d8d-4779-4e74-9ce9-a2ea2fbb32fc","ios":"levelo://app?vid=25f25d8d-4779-4e74-9ce9-a2ea2fbb32fc"},"vehicle_type_id":"4","last_reported":1699095888,"current_range_meters":13600,"station_id":"ce4bgnh2rcd13ifvqc0g","pricing_plan_id":"free"},{"bike_id":"c2237100-21cc-4f0e-ab60-ac4ca6dcb8af","system_id":"levelo_inurba_marseille","lat":43.29573,"lon":5.367355,"is_reserved":false,"is_disabled":false,"rental_uris":{"android":"levelo://app?vid=c2237100-21cc-4f0e-ab60-ac4ca6dcb8af","ios":"levelo://app?vid=c2237100-21cc-4f0e-ab60-ac4ca6dcb8af"},"vehicle_type_id":"4","last_reported":1699095888,"current_range_meters":29600,"station_id":"ce4bgph2rcd13ifvqc2g","pricing_plan_id":"free"},{"bike_id":"2b5e5e4a-cce6-483f-b6e7-3ca90937c35f","system_id":"levelo_inurba_marseille","lat":43.296129,"lon":5.370777,"is_reserved":false,"is_disabled":false,"rental_uris":{"android":"levelo://app?vid=2b5e5e4a-cce6-483f-b6e7-3ca90937c35f","ios":"levelo://app?vid=2b5e5e4a-cce6-483f-b6e7-3ca90937c35f"},"vehicle_type_id":"4","last_reported":1699095888,"current_range_meters":31200,"station_id":"ce4bgnh2rcd13ifvqc0g","pricing_plan_id":"free"},{"bike_id":"6a545dbd-8af1-4bd4-bcf8-9cbce39f4d3c","system_id":"levelo_inurba_marseille","lat":43.296129,"lon":5.370777,"is_reserved":false,"is_disabled":false,"rental_uris":{"android":"levelo://app?vid=6a545dbd-8af1-4bd4-bcf8-9cbce39f4d3c","ios":"levelo://app?vid=6a545dbd-8af1-4bd4-bcf8-9cbce39f4d3c"},"vehicle_type_id":"4","last_reported":1699095888,"current_range_meters":30800,"station_id":"ce4bgnh2rcd13ifvqc0g","pricing_plan_id":"free"},{"bike_id":"cf2060ed-324c-46f6-bfc0-f6dd7ccff49f","system_id":"levelo_inurba_marseille","lat":43.296921,"lon":5.376579,"is_reserved":false,"is_disabled":false,"rental_uris":{"android":"levelo://app?vid=cf2060ed-324c-46f6-bfc0-f6dd7ccff49f","ios":"levelo://app?vid=cf2060ed-324c-46f6-bfc0-f6dd7ccff49f"},"vehicle_type_id":"4","last_reported":1699095888,"current_range_meters":31200,"station_id":"ce4bgkh2rcd13ifvqbl0","pricing_plan_id":"free"},{"bike_id":"11e235e8-5666-4c44-a75b-d867a89e9123","system_id":"levelo_inurba_marseille","lat":43.29725,"lon":5.37686,"is_reserved":false,"is_disabled":false,"rental_uris":{"android":"levelo://app?vid=11e235e8-5666-4c44-a75b-d867a89e9123","ios":"levelo://app?vid=11e235e8-5666-4c44-a75b-d867a89e9123"},"vehicle_type_id":"4","last_reported":1699095888,"current_range_meters":31200,"station_id":"ce4bgkh2rcd13ifvqbl0","pricing_plan_id":"free"},{"bike_id":"61cf8df7-773a-4342-9472-15f9fd5ef87f","system_id":"levelo_inurba_marseille","lat":43.29727,"lon":5.37692,"is_reserved":false,"is_disabled":false,"rental_uris":{"android":"levelo://app?vid=61cf8df7-773a-4342-9472-15f9fd5ef87f","ios":"levelo://app?vid=61cf8df7-773a-4342-9472-15f9fd5ef87f"},"vehicle_type_id":"4","last_reported":1699095888,"current_range_meters":29600,"station_id":"ce4bgkh2rcd13ifvqbl0","pricing_plan_id":"free"},{"bike_id":"212028a8-cad7-4e65-9114-319ee84dab9e","system_id":"levelo_inurba_marseille","lat":43.296921,"lon":5.376579,"is_reserved":false,"is_disabled":false,"rental_uris":{"android":"levelo://app?vid=212028a8-cad7-4e65-9114-319ee84dab9e","ios":"levelo://app?vid=212028a8-cad7-4e65-9114-319ee84dab9e"},"vehicle_type_id":"4","last_reported":1699095888,"current_range_meters":30000,"station_id":"ce4bgkh2rcd13ifvqbl0","pricing_plan_id":"free"},{"bike_id":"29ceb8b9-8bff-43b3-a6a6-be2dfcf5e7ec","system_id":"levelo_inurba_marseille","lat":43.29719,"lon":5.37691,"is_reserved":false,"is_disabled":false,"rental_uris":{"android":"levelo://app?vid=29ceb8b9-8bff-43b3-a6a6-be2dfcf5e7ec","ios":"levelo://app?vid=29ceb8b9-8bff-43b3-a6a6-be2dfcf5e7ec"},"vehicle_type_id":"4","last_reported":1699095888,"current_range_meters":23200,"station_id":"ce4bgkh2rcd13ifvqbl0","pricing_plan_id":"free"},{"bike_id":"1ad66ffa-91c6-4950-84a5-e3010291212d","system_id":"levelo_inurba_marseille","lat":43.29715,"lon":5.37686,"is_reserved":false,"is_disabled":false,"rental_uris":{"android":"levelo://app?vid=1ad66ffa-91c6-4950-84a5-e3010291212d","ios":"levelo://app?vid=1ad66ffa-91c6-4950-84a5-e3010291212d"},"vehicle_type_id":"4","last_reported":1699095888,"current_range_meters":26800,"station_id":"ce4bgkh2rcd13ifvqbl0","pricing_plan_id":"free"},{"bike_id":"f85a6667-bc26-4a3d-8c2f-6803b87c6f87","system_id":"levelo_inurba_marseille","lat":43.29718,"lon":5.37695,"is_reserved":false,"is_disabled":false,"rental_uris":{"android":"levelo://app?vid=f85a6667-bc26-4a3d-8c2f-6803b87c6f87","ios":"levelo://app?vid=f85a6667-bc26-4a3d-8c2f-6803b87c6f87"},"vehicle_type_id":"4","last_reported":1699095888,"current_range_meters":2800,"station_id":"ce4bgkh2rcd13ifvqbl0","pricing_plan_id":"free"},{"bike_id":"344993e5-90a1-4385-a588-9208c787023c","system_id":"levelo_inurba_marseille","lat":43.299028,"lon":5.381509,"is_reserved":false,"is_disabled":false,"rental_uris":{"android":"levelo://app?vid=344993e5-90a1-4385-a588-9208c787023c","ios":"levelo://app?vid=344993e5-90a1-4385-a588-9208c787023c"},"vehicle_type_id":"4","last_reported":1699095888,"current_range_meters":25600,"station_id":"ce4bgj12rcd13ifvqbc0","pricing_plan_id":"free"},{"bike_id":"d0c34c74-b1c3-49e7-9e0b-3b5d520ee506","system_id":"levelo_inurba_marseille","lat":43.29707,"lon":5.37693,"is_reserved":false,"is_disabled":false,"rental_uris":{"android":"levelo://app?vid=d0c34c74-b1c3-49e7-9e0b-3b5d520ee506","ios":"levelo://app?vid=d0c34c74-b1c3-49e7-9e0b-3b5d520ee506"},"vehicle_type_id":"4","last_reported":1699095888,"current_range_meters":22000,"station_id":"ce4bgkh2rcd13ifvqbl0","pricing_plan_id":"free"},{"bike_id":"a66b1e12-10a9-4467-9210-1bb10a16b57f","system_id":"levelo_inurba_marseille","lat":43.309589,"lon":5.390258,"is_reserved":false,"is_disabled":false,"rental_uris":{"android":"levelo://app?vid=a66b1e12-10a9-4467-9210-1bb10a16b57f","ios":"levelo://app?vid=a66b1e12-10a9-4467-9210-1bb10a16b57f"},"vehicle_type_id":"4","last_reported":1699095888,"current_range_meters":23600,"station_id":"ce4bgup2rcd13ifvqco0","pricing_plan_id":"free"},{"bike_id":"549077a0-761c-4c9a-8ca8-ece096372dfe","system_id":"levelo_inurba_marseille","lat":43.29686,"lon":5.37679,"is_reserved":false,"is_disabled":false,"rental_uris":{"android":"levelo://app?vid=549077a0-761c-4c9a-8ca8-ece096372dfe","ios":"levelo://app?vid=549077a0-761c-4c9a-8ca8-ece096372dfe"},"vehicle_type_id":"4","last_reported":1699095888,"current_range_meters":18000,"station_id":"ce4bgkh2rcd13ifvqbl0","pricing_plan_id":"free"},{"bike_id":"0e3f1af6-b748-4eb6-9673-b2f73a826ea1","system_id":"levelo_inurba_marseille","lat":43.298037,"lon":5.381066,"is_reserved":false,"is_disabled":false,"rental_uris":{"android":"levelo://app?vid=0e3f1af6-b748-4eb6-9673-b2f73a826ea1","ios":"levelo://app?vid=0e3f1af6-b748-4eb6-9673-b2f73a826ea1"},"vehicle_type_id":"4","last_reported":1699095888,"current_range_meters":28000,"station_id":"ce4bgip2rcd13ifvqbb0","pricing_plan_id":"free"},{"bike_id":"4c809b51-0eb2-4f9d-8035-8af520087893","system_id":"levelo_inurba_marseille","lat":43.298037,"lon":5.381066,"is_reserved":false,"is_disabled":false,"rental_uris":{"android":"levelo://app?vid=4c809b51-0eb2-4f9d-8035-8af520087893","ios":"levelo://app?vid=4c809b51-0eb2-4f9d-8035-8af520087893"},"vehicle_type_id":"4","last_reported":1699095888,"current_range_meters":28000,"station_id":"ce4bgip2rcd13ifvqbb0","pricing_plan_id":"free"},{"bike_id":"db2a0890-8219-40ab-9d01-1e3aa5b69369","system_id":"levelo_inurba_marseille","lat":43.295748,"lon":5.37522,"is_reserved":false,"is_disabled":false,"rental_uris":{"android":"levelo://app?vid=db2a0890-8219-40ab-9d01-1e3aa5b69369","ios":"levelo://app?vid=db2a0890-8219-40ab-9d01-1e3aa5b69369"},"vehicle_type_id":"4","last_reported":1699095888,"current_range_meters":28800,"station_id":"ce4bgh92rcd13ifvqb50","pricing_plan_id":"free"},{"bike_id":"c2e3a195-4f82-48b9-b72b-bba7f7369d6c","system_id":"levelo_inurba_marseille","lat":43.298037,"lon":5.381066,"is_reserved":false,"is_disabled":false,"rental_uris":{"android":"levelo://app?vid=c2e3a195-4f82-48b9-b72b-bba7f7369d6c","ios":"levelo://app?vid=c2e3a195-4f82-48b9-b72b-bba7f7369d6c"},"vehicle_type_id":"4","last_reported":1699095888,"current_range_meters":14400,"station_id":"ce4bgip2rcd13ifvqbb0","pricing_plan_id":"free"},{"bike_id":"98bfe4a1-ad24-4174-960a-ffadc8d8b2be","system_id":"levelo_inurba_marseille","lat":43.298037,"lon":5.381066,"is_reserved":false,"is_disabled":false,"rental_uris":{"android":"levelo://app?vid=98bfe4a1-ad24-4174-960a-ffadc8d8b2be","ios":"levelo://app?vid=98bfe4a1-ad24-4174-960a-ffadc8d8b2be"},"vehicle_type_id":"4","last_reported":1699095888,"current_range_meters":28000,"station_id":"ce4bgip2rcd13ifvqbb0","pricing_plan_id":"free"},{"bike_id":"ebd9f008-a8d1-47ad-be18-1aa7e48fe196","system_id":"levelo_inurba_marseille","lat":43.295748,"lon":5.37522,"is_reserved":false,"is_disabled":false,"rental_uris":{"android":"levelo://app?vid=ebd9f008-a8d1-47ad-be18-1aa7e48fe196","ios":"levelo://app?vid=ebd9f008-a8d1-47ad-be18-1aa7e48fe196"},"vehicle_type_id":"4","last_reported":1699095888,"current_range_meters":19600,"station_id":"ce4bgh92rcd13ifvqb50","pricing_plan_id":"free"},{"bike_id":"1ea5af82-72db-4a40-bff6-6a27bb67f8ef","system_id":"levelo_inurba_marseille","lat":43.295748,"lon":5.37522,"is_reserved":false,"is_disabled":false,"rental_uris":{"android":"levelo://app?vid=1ea5af82-72db-4a40-bff6-6a27bb67f8ef","ios":"levelo://app?vid=1ea5af82-72db-4a40-bff6-6a27bb67f8ef"},"vehicle_type_id":"4","last_reported":1699095888,"current_range_meters":30400,"station_id":"ce4bgh92rcd13ifvqb50","pricing_plan_id":"free"},{"bike_id":"11ff5361-708d-4878-a540-5acfc7b0a043","system_id":"levelo_inurba_marseille","lat":43.298037,"lon":5.381066,"is_reserved":false,"is_disabled":false,"rental_uris":{"android":"levelo://app?vid=11ff5361-708d-4878-a540-5acfc7b0a043","ios":"levelo://app?vid=11ff5361-708d-4878-a540-5acfc7b0a043"},"vehicle_type_id":"4","last_reported":1699095888,"current_range_meters":27200,"station_id":"ce4bgip2rcd13ifvqbb0","pricing_plan_id":"free"},{"bike_id":"f65dd85d-b7f0-4322-b069-06c56bbbc480","system_id":"levelo_inurba_marseille","lat":43.295748,"lon":5.37522,"is_reserved":false,"is_disabled":false,"rental_uris":{"android":"levelo://app?vid=f65dd85d-b7f0-4322-b069-06c56bbbc480","ios":"levelo://app?vid=f65dd85d-b7f0-4322-b069-06c56bbbc480"},"vehicle_type_id":"4","last_reported":1699095888,"current_range_meters":20800,"station_id":"ce4bgh92rcd13ifvqb50","pricing_plan_id":"free"},{"bike_id":"9bdb1c7e-872b-42bf-bf98-a00cbc69a768","system_id":"levelo_inurba_marseille","lat":43.295748,"lon":5.37522,"is_reserved":false,"is_disabled":false,"rental_uris":{"android":"levelo://app?vid=9bdb1c7e-872b-42bf-bf98-a00cbc69a768","ios":"levelo://app?vid=9bdb1c7e-872b-42bf-bf98-a00cbc69a768"},"vehicle_type_id":"4","last_reported":1699095888,"current_range_meters":7200,"station_id":"ce4bgh92rcd13ifvqb50","pricing_plan_id":"free"},{"bike_id":"16849427-4dc6-4609-9fa3-b81ef7962b28","system_id":"levelo_inurba_marseille","lat":43.296263,"lon":5.377094,"is_reserved":false,"is_disabled":false,"rental_uris":{"android":"levelo://app?vid=16849427-4dc6-4609-9fa3-b81ef7962b28","ios":"levelo://app?vid=16849427-4dc6-4609-9fa3-b81ef7962b28"},"vehicle_type_id":"4","last_reported":1699095888,"current_range_meters":11600,"station_id":"ce4bgi92rcd13ifvqb90","pricing_plan_id":"free"},{"bike_id":"af93a65c-2cfd-47e0-add7-742bd2657142","system_id":"levelo_inurba_marseille","lat":43.295748,"lon":5.37522,"is_reserved":false,"is_disabled":false,"rental_uris":{"android":"levelo://app?vid=af93a65c-2cfd-47e0-add7-742bd2657142","ios":"levelo://app?vid=af93a65c-2cfd-47e0-add7-742bd2657142"},"vehicle_type_id":"4","last_reported":1699095888,"current_range_meters":0,"station_id":"ce4bgh92rcd13ifvqb50","pricing_plan_id":"free"},{"bike_id":"ab6c1870-545a-4ea5-8da6-8e703dca1917","system_id":"levelo_inurba_marseille","lat":43.295748,"lon":5.37522,"is_reserved":false,"is_disabled":false,"rental_uris":{"android":"levelo://app?vid=ab6c1870-545a-4ea5-8da6-8e703dca1917","ios":"levelo://app?vid=ab6c1870-545a-4ea5-8da6-8e703dca1917"},"vehicle_type_id":"4","last_reported":1699095888,"current_range_meters":21200,"station_id":"ce4bgh92rcd13ifvqb50","pricing_plan_id":"free"},{"bike_id":"a61076b8-0706-499e-bcc3-8cba6eb4262a","system_id":"levelo_inurba_marseille","lat":43.299707,"lon":5.384859,"is_reserved":false,"is_disabled":false,"rental_uris":{"android":"levelo://app?vid=a61076b8-0706-499e-bcc3-8cba6eb4262a","ios":"levelo://app?vid=a61076b8-0706-499e-bcc3-8cba6eb4262a"},"vehicle_type_id":"4","last_reported":1699095888,"current_range_meters":32000,"station_id":"ce4bgj92rcd13ifvqbd0","pricing_plan_id":"free"},{"bike_id":"120bd7eb-eb6b-4ba0-bd90-176159fabd05","system_id":"levelo_inurba_marseille","lat":43.299707,"lon":5.384859,"is_reserved":false,"is_disabled":false,"rental_uris":{"android":"levelo://app?vid=120bd7eb-eb6b-4ba0-bd90-176159fabd05","ios":"levelo://app?vid=120bd7eb-eb6b-4ba0-bd90-176159fabd05"},"vehicle_type_id":"4","last_reported":1699095888,"current_range_meters":16800,"station_id":"ce4bgj92rcd13ifvqbd0","pricing_plan_id":"free"},{"bike_id":"4685e7ed-fbff-445e-86f2-0823f0bdff2e","system_id":"levelo_inurba_marseille","lat":43.299717,"lon":5.384845,"is_reserved":false,"is_disabled":false,"rental_uris":{"android":"levelo://app?vid=4685e7ed-fbff-445e-86f2-0823f0bdff2e","ios":"levelo://app?vid=4685e7ed-fbff-445e-86f2-0823f0bdff2e"},"vehicle_type_id":"4","last_reported":1699095888,"current_range_meters":14000,"station_id":"ce4bgj92rcd13ifvqbd0","pricing_plan_id":"free"},{"bike_id":"e196c006-cdfa-4faa-a3a6-5072ca5aa4c7","system_id":"levelo_inurba_marseille","lat":43.29974,"lon":5.38498,"is_reserved":false,"is_disabled":false,"rental_uris":{"android":"levelo://app?vid=e196c006-cdfa-4faa-a3a6-5072ca5aa4c7","ios":"levelo://app?vid=e196c006-cdfa-4faa-a3a6-5072ca5aa4c7"},"vehicle_type_id":"4","last_reported":1699095888,"current_range_meters":8000,"station_id":"ce4bgj92rcd13ifvqbd0","pricing_plan_id":"free"},{"bike_id":"9249a7b0-c97e-456f-845e-8edd88d48098","system_id":"levelo_inurba_marseille","lat":43.299724,"lon":5.384848,"is_reserved":false,"is_disabled":false,"rental_uris":{"android":"levelo://app?vid=9249a7b0-c97e-456f-845e-8edd88d48098","ios":"levelo://app?vid=9249a7b0-c97e-456f-845e-8edd88d48098"},"vehicle_type_id":"4","last_reported":1699095888,"current_range_meters":31200,"station_id":"ce4bgj92rcd13ifvqbd0","pricing_plan_id":"free"},{"bike_id":"1f580447-7b2c-4630-9a51-33e28281b372","system_id":"levelo_inurba_marseille","lat":43.329065,"lon":5.379814,"is_reserved":false,"is_disabled":false,"rental_uris":{"android":"levelo://app?vid=1f580447-7b2c-4630-9a51-33e28281b372","ios":"levelo://app?vid=1f580447-7b2c-4630-9a51-33e28281b372"},"vehicle_type_id":"4","last_reported":1699095888,"current_range_meters":16400,"station_id":"","pricing_plan_id":"free"},{"bike_id":"ecf94d7b-2238-4a61-8042-e3febbffae63","system_id":"levelo_inurba_marseille","lat":43.299323,"lon":5.385518,"is_reserved":false,"is_disabled":false,"rental_uris":{"android":"levelo://app?vid=ecf94d7b-2238-4a61-8042-e3febbffae63","ios":"levelo://app?vid=ecf94d7b-2238-4a61-8042-e3febbffae63"},"vehicle_type_id":"4","last_reported":1699095888,"current_range_meters":28400,"station_id":"","pricing_plan_id":"free"},{"bike_id":"eab5d605-eaca-4660-a5fd-3fd2b2fdfd03","system_id":"levelo_inurba_marseille","lat":43.29476,"lon":5.37582,"is_reserved":false,"is_disabled":false,"rental_uris":{"android":"levelo://app?vid=eab5d605-eaca-4660-a5fd-3fd2b2fdfd03","ios":"levelo://app?vid=eab5d605-eaca-4660-a5fd-3fd2b2fdfd03"},"vehicle_type_id":"4","last_reported":1699095888,"current_range_meters":0,"station_id":"","pricing_plan_id":"free"},{"bike_id":"40a1ec77-ae36-4bf2-a77e-781fcd5fa853","system_id":"levelo_inurba_marseille","lat":43.306938,"lon":5.392166,"is_reserved":false,"is_disabled":false,"rental_uris":{"android":"levelo://app?vid=40a1ec77-ae36-4bf2-a77e-781fcd5fa853","ios":"levelo://app?vid=40a1ec77-ae36-4bf2-a77e-781fcd5fa853"},"vehicle_type_id":"4","last_reported":1699095888,"current_range_meters":19600,"station_id":"","pricing_plan_id":"free"},{"bike_id":"e58c1b81-10cc-475e-87ca-74595a6fdad4","system_id":"levelo_inurba_marseille","lat":43.32373,"lon":5.38875,"is_reserved":false,"is_disabled":false,"rental_uris":{"android":"levelo://app?vid=e58c1b81-10cc-475e-87ca-74595a6fdad4","ios":"levelo://app?vid=e58c1b81-10cc-475e-87ca-74595a6fdad4"},"vehicle_type_id":"4","last_reported":1699095888,"current_range_meters":24000,"station_id":"ce4bhqp2rcd13ifvqhog","pricing_plan_id":"free"},{"bike_id":"765ebce4-d186-446e-bff4-593ff012456f","system_id":"levelo_inurba_marseille","lat":43.29601,"lon":5.381084,"is_reserved":false,"is_disabled":false,"rental_uris":{"android":"levelo://app?vid=765ebce4-d186-446e-bff4-593ff012456f","ios":"levelo://app?vid=765ebce4-d186-446e-bff4-593ff012456f"},"vehicle_type_id":"4","last_reported":1699095888,"current_range_meters":28000,"station_id":"ce4bgl12rcd13ifvqbo0","pricing_plan_id":"free"},{"bike_id":"547a7cfc-5b52-446d-9105-ee3d3597290f","system_id":"levelo_inurba_marseille","lat":43.33055,"lon":5.37881,"is_reserved":false,"is_disabled":false,"rental_uris":{"android":"levelo://app?vid=547a7cfc-5b52-446d-9105-ee3d3597290f","ios":"levelo://app?vid=547a7cfc-5b52-446d-9105-ee3d3597290f"},"vehicle_type_id":"4","last_reported":1699095888,"current_range_meters":23600,"station_id":"","pricing_plan_id":"free"},{"bike_id":"b758fee0-ffb3-43f5-a53c-ecd83e2461f7","system_id":"levelo_inurba_marseille","lat":43.293259,"lon":5.371586,"is_reserved":false,"is_disabled":false,"rental_uris":{"android":"levelo://app?vid=b758fee0-ffb3-43f5-a53c-ecd83e2461f7","ios":"levelo://app?vid=b758fee0-ffb3-43f5-a53c-ecd83e2461f7"},"vehicle_type_id":"4","last_reported":1699095888,"current_range_meters":26800,"station_id":"ce4bgh92rcd13ifvqb40","pricing_plan_id":"free"},{"bike_id":"95b38f76-361d-45af-93a5-4380100f8206","system_id":"levelo_inurba_marseille","lat":43.305994,"lon":5.393687,"is_reserved":false,"is_disabled":false,"rental_uris":{"android":"levelo://app?vid=95b38f76-361d-45af-93a5-4380100f8206","ios":"levelo://app?vid=95b38f76-361d-45af-93a5-4380100f8206"},"vehicle_type_id":"4","last_reported":1699095888,"current_range_meters":30800,"station_id":"ce4bh0p2rcd13ifvqd80","pricing_plan_id":"free"},{"bike_id":"79fb19b2-1dc6-4f3e-9963-8711bc0d7623","system_id":"levelo_inurba_marseille","lat":43.293009,"lon":5.374584,"is_reserved":false,"is_disabled":false,"rental_uris":{"android":"levelo://app?vid=79fb19b2-1dc6-4f3e-9963-8711bc0d7623","ios":"levelo://app?vid=79fb19b2-1dc6-4f3e-9963-8711bc0d7623"},"vehicle_type_id":"4","last_reported":1699095888,"current_range_meters":23200,"station_id":"ce4bgi12rcd13ifvqb70","pricing_plan_id":"free"},{"bike_id":"87a5deab-ed9a-4296-baa8-657c6c19f6bf","system_id":"levelo_inurba_marseille","lat":43.293009,"lon":5.374584,"is_reserved":false,"is_disabled":false,"rental_uris":{"android":"levelo://app?vid=87a5deab-ed9a-4296-baa8-657c6c19f6bf","ios":"levelo://app?vid=87a5deab-ed9a-4296-baa8-657c6c19f6bf"},"vehicle_type_id":"4","last_reported":1699095888,"current_range_meters":31200,"station_id":"ce4bgi12rcd13ifvqb70","pricing_plan_id":"free"},{"bike_id":"3aecbb27-8004-4f04-8710-996387899ab6","system_id":"levelo_inurba_marseille","lat":43.303002,"lon":5.392142,"is_reserved":false,"is_disabled":false,"rental_uris":{"android":"levelo://app?vid=3aecbb27-8004-4f04-8710-996387899ab6","ios":"levelo://app?vid=3aecbb27-8004-4f04-8710-996387899ab6"},"vehicle_type_id":"4","last_reported":1699095888,"current_range_meters":26000,"station_id":"ce4bgkh2rcd13ifvqbk0","pricing_plan_id":"free"},{"bike_id":"09ed82a3-1b58-47e1-8e1f-6d2906c81d24","system_id":"levelo_inurba_marseille","lat":43.292311,"lon":5.360731,"is_reserved":false,"is_disabled":false,"rental_uris":{"android":"levelo://app?vid=09ed82a3-1b58-47e1-8e1f-6d2906c81d24","ios":"levelo://app?vid=09ed82a3-1b58-47e1-8e1f-6d2906c81d24"},"vehicle_type_id":"4","last_reported":1699095888,"current_range_meters":30000,"station_id":"ce4bhbh2rcd13ifvqeqg","pricing_plan_id":"free"},{"bike_id":"1959bf17-3257-4feb-acb4-b0da80535bf3","system_id":"levelo_inurba_marseille","lat":43.29529,"lon":5.385581,"is_reserved":false,"is_disabled":false,"rental_uris":{"android":"levelo://app?vid=1959bf17-3257-4feb-acb4-b0da80535bf3","ios":"levelo://app?vid=1959bf17-3257-4feb-acb4-b0da80535bf3"},"vehicle_type_id":"4","last_reported":1699095888,"current_range_meters":17600,"station_id":"ce4bgih2rcd13ifvqba0","pricing_plan_id":"free"},{"bike_id":"cc4fee46-43c3-4894-a2f1-97358f06be9b","system_id":"levelo_inurba_marseille","lat":43.292311,"lon":5.360731,"is_reserved":false,"is_disabled":false,"rental_uris":{"android":"levelo://app?vid=cc4fee46-43c3-4894-a2f1-97358f06be9b","ios":"levelo://app?vid=cc4fee46-43c3-4894-a2f1-97358f06be9b"},"vehicle_type_id":"4","last_reported":1699095888,"current_range_meters":26000,"station_id":"ce4bhbh2rcd13ifvqeqg","pricing_plan_id":"free"},{"bike_id":"a8757d0d-0bd0-4a75-97ee-7c7f30976688","system_id":"levelo_inurba_marseille","lat":43.292311,"lon":5.360731,"is_reserved":false,"is_disabled":false,"rental_uris":{"android":"levelo://app?vid=a8757d0d-0bd0-4a75-97ee-7c7f30976688","ios":"levelo://app?vid=a8757d0d-0bd0-4a75-97ee-7c7f30976688"},"vehicle_type_id":"4","last_reported":1699095888,"current_range_meters":20000,"station_id":"ce4bhbh2rcd13ifvqeqg","pricing_plan_id":"free"},{"bike_id":"1575422b-f99f-4525-ab00-681f712b3765","system_id":"levelo_inurba_marseille","lat":43.3331,"lon":5.35949,"is_reserved":false,"is_disabled":false,"rental_uris":{"android":"levelo://app?vid=1575422b-f99f-4525-ab00-681f712b3765","ios":"levelo://app?vid=1575422b-f99f-4525-ab00-681f712b3765"},"vehicle_type_id":"4","last_reported":1699095888,"current_range_meters":13600,"station_id":"","pricing_plan_id":"free"},{"bike_id":"ecd5fcfb-e675-41c4-803e-df009ca85e60","system_id":"levelo_inurba_marseille","lat":43.3099,"lon":5.39562,"is_reserved":false,"is_disabled":false,"rental_uris":{"android":"levelo://app?vid=ecd5fcfb-e675-41c4-803e-df009ca85e60","ios":"levelo://app?vid=ecd5fcfb-e675-41c4-803e-df009ca85e60"},"vehicle_type_id":"4","last_reported":1699095888,"current_range_meters":14000,"station_id":"","pricing_plan_id":"free"},{"bike_id":"b90156cb-7a66-425b-abf0-e0a6c243c2ff","system_id":"levelo_inurba_marseille","lat":43.298764,"lon":5.388973,"is_reserved":false,"is_disabled":false,"rental_uris":{"android":"levelo://app?vid=b90156cb-7a66-425b-abf0-e0a6c243c2ff","ios":"levelo://app?vid=b90156cb-7a66-425b-abf0-e0a6c243c2ff"},"vehicle_type_id":"4","last_reported":1699095888,"current_range_meters":26000,"station_id":"ce4bh392rcd13ifvqdl0","pricing_plan_id":"free"},{"bike_id":"6608c0f0-53a3-48c1-afb8-707826a873b2","system_id":"levelo_inurba_marseille","lat":43.29261,"lon":5.37617,"is_reserved":false,"is_disabled":false,"rental_uris":{"android":"levelo://app?vid=6608c0f0-53a3-48c1-afb8-707826a873b2","ios":"levelo://app?vid=6608c0f0-53a3-48c1-afb8-707826a873b2"},"vehicle_type_id":"4","last_reported":1699095888,"current_range_meters":13600,"station_id":"ce4bgi12rcd13ifvqb80","pricing_plan_id":"free"},{"bike_id":"df45b8ac-c207-47c3-861c-e27b030f77a8","system_id":"levelo_inurba_marseille","lat":43.29267,"lon":5.37643,"is_reserved":false,"is_disabled":false,"rental_uris":{"android":"levelo://app?vid=df45b8ac-c207-47c3-861c-e27b030f77a8","ios":"levelo://app?vid=df45b8ac-c207-47c3-861c-e27b030f77a8"},"vehicle_type_id":"4","last_reported":1699095888,"current_range_meters":28800,"station_id":"ce4bgi12rcd13ifvqb80","pricing_plan_id":"free"},{"bike_id":"4636e518-88bf-47e8-922d-17901ed48765","system_id":"levelo_inurba_marseille","lat":43.298764,"lon":5.388973,"is_reserved":false,"is_disabled":false,"rental_uris":{"android":"levelo://app?vid=4636e518-88bf-47e8-922d-17901ed48765","ios":"levelo://app?vid=4636e518-88bf-47e8-922d-17901ed48765"},"vehicle_type_id":"4","last_reported":1699095888,"current_range_meters":20800,"station_id":"ce4bh392rcd13ifvqdl0","pricing_plan_id":"free"},{"bike_id":"ab37003f-9faa-4ebc-884e-107b8d0ae4eb","system_id":"levelo_inurba_marseille","lat":43.29256,"lon":5.37611,"is_reserved":false,"is_disabled":false,"rental_uris":{"android":"levelo://app?vid=ab37003f-9faa-4ebc-884e-107b8d0ae4eb","ios":"levelo://app?vid=ab37003f-9faa-4ebc-884e-107b8d0ae4eb"},"vehicle_type_id":"4","last_reported":1699095888,"current_range_meters":25600,"station_id":"ce4bgi12rcd13ifvqb80","pricing_plan_id":"free"},{"bike_id":"1b031e90-0fa8-45b0-9773-66f2fd4081e9","system_id":"levelo_inurba_marseille","lat":43.29257,"lon":5.37616,"is_reserved":false,"is_disabled":false,"rental_uris":{"android":"levelo://app?vid=1b031e90-0fa8-45b0-9773-66f2fd4081e9","ios":"levelo://app?vid=1b031e90-0fa8-45b0-9773-66f2fd4081e9"},"vehicle_type_id":"4","last_reported":1699095888,"current_range_meters":26800,"station_id":"ce4bgi12rcd13ifvqb80","pricing_plan_id":"free"},{"bike_id":"0e8233d2-0d57-470f-8c07-e9f753046a4f","system_id":"levelo_inurba_marseille","lat":43.33217,"lon":5.3788,"is_reserved":false,"is_disabled":false,"rental_uris":{"android":"levelo://app?vid=0e8233d2-0d57-470f-8c07-e9f753046a4f","ios":"levelo://app?vid=0e8233d2-0d57-470f-8c07-e9f753046a4f"},"vehicle_type_id":"4","last_reported":1699095888,"current_range_meters":13200,"station_id":"","pricing_plan_id":"free"},{"bike_id":"cd40c9b7-221b-4636-b38a-7c7eacf9f8d8","system_id":"levelo_inurba_marseille","lat":43.29255,"lon":5.37618,"is_reserved":false,"is_disabled":false,"rental_uris":{"android":"levelo://app?vid=cd40c9b7-221b-4636-b38a-7c7eacf9f8d8","ios":"levelo://app?vid=cd40c9b7-221b-4636-b38a-7c7eacf9f8d8"},"vehicle_type_id":"4","last_reported":1699095888,"current_range_meters":27600,"station_id":"ce4bgi12rcd13ifvqb80","pricing_plan_id":"free"},{"bike_id":"021778ef-75a6-429d-82de-369f8368729c","system_id":"levelo_inurba_marseille","lat":43.29254,"lon":5.37614,"is_reserved":false,"is_disabled":false,"rental_uris":{"android":"levelo://app?vid=021778ef-75a6-429d-82de-369f8368729c","ios":"levelo://app?vid=021778ef-75a6-429d-82de-369f8368729c"},"vehicle_type_id":"4","last_reported":1699095888,"current_range_meters":26000,"station_id":"ce4bgi12rcd13ifvqb80","pricing_plan_id":"free"},{"bike_id":"d797f1e6-f3ca-4ad7-8b56-5ed6191da53c","system_id":"levelo_inurba_marseille","lat":43.29253,"lon":5.37621,"is_reserved":false,"is_disabled":false,"rental_uris":{"android":"levelo://app?vid=d797f1e6-f3ca-4ad7-8b56-5ed6191da53c","ios":"levelo://app?vid=d797f1e6-f3ca-4ad7-8b56-5ed6191da53c"},"vehicle_type_id":"4","last_reported":1699095888,"current_range_meters":31200,"station_id":"ce4bgi12rcd13ifvqb80","pricing_plan_id":"free"},{"bike_id":"27d36bd2-82aa-46cd-a9a9-91ad8e19db43","system_id":"levelo_inurba_marseille","lat":43.291671,"lon":5.371575,"is_reserved":false,"is_disabled":false,"rental_uris":{"android":"levelo://app?vid=27d36bd2-82aa-46cd-a9a9-91ad8e19db43","ios":"levelo://app?vid=27d36bd2-82aa-46cd-a9a9-91ad8e19db43"},"vehicle_type_id":"4","last_reported":1699095888,"current_range_meters":30800,"station_id":"ce4bha92rcd13ifvqeh0","pricing_plan_id":"free"},{"bike_id":"c3c75399-2f55-4be7-b7c0-6cd14fdbc165","system_id":"levelo_inurba_marseille","lat":43.291675,"lon":5.371583,"is_reserved":false,"is_disabled":false,"rental_uris":{"android":"levelo://app?vid=c3c75399-2f55-4be7-b7c0-6cd14fdbc165","ios":"levelo://app?vid=c3c75399-2f55-4be7-b7c0-6cd14fdbc165"},"vehicle_type_id":"4","last_reported":1699095888,"current_range_meters":6800,"station_id":"ce4bha92rcd13ifvqeh0","pricing_plan_id":"free"},{"bike_id":"7851af3c-7072-4e38-bd64-283ec50bc99e","system_id":"levelo_inurba_marseille","lat":43.291671,"lon":5.371575,"is_reserved":false,"is_disabled":false,"rental_uris":{"android":"levelo://app?vid=7851af3c-7072-4e38-bd64-283ec50bc99e","ios":"levelo://app?vid=7851af3c-7072-4e38-bd64-283ec50bc99e"},"vehicle_type_id":"4","last_reported":1699095888,"current_range_meters":21200,"station_id":"ce4bha92rcd13ifvqeh0","pricing_plan_id":"free"},{"bike_id":"f43cbaa2-e5b6-4b78-bbe0-ba2bc5089a2e","system_id":"levelo_inurba_marseille","lat":43.291675,"lon":5.371583,"is_reserved":false,"is_disabled":false,"rental_uris":{"android":"levelo://app?vid=f43cbaa2-e5b6-4b78-bbe0-ba2bc5089a2e","ios":"levelo://app?vid=f43cbaa2-e5b6-4b78-bbe0-ba2bc5089a2e"},"vehicle_type_id":"4","last_reported":1699095888,"current_range_meters":9600,"station_id":"ce4bha92rcd13ifvqeh0","pricing_plan_id":"free"},{"bike_id":"69ad3757-46d8-4405-83b3-ca3b80299eb6","system_id":"levelo_inurba_marseille","lat":43.291675,"lon":5.371583,"is_reserved":false,"is_disabled":false,"rental_uris":{"android":"levelo://app?vid=69ad3757-46d8-4405-83b3-ca3b80299eb6","ios":"levelo://app?vid=69ad3757-46d8-4405-83b3-ca3b80299eb6"},"vehicle_type_id":"4","last_reported":1699095888,"current_range_meters":31600,"station_id":"ce4bha92rcd13ifvqeh0","pricing_plan_id":"free"},{"bike_id":"38f8658f-c74c-466c-b02b-02fa2e0083eb","system_id":"levelo_inurba_marseille","lat":43.291675,"lon":5.371583,"is_reserved":false,"is_disabled":false,"rental_uris":{"android":"levelo://app?vid=38f8658f-c74c-466c-b02b-02fa2e0083eb","ios":"levelo://app?vid=38f8658f-c74c-466c-b02b-02fa2e0083eb"},"vehicle_type_id":"4","last_reported":1699095888,"current_range_meters":24800,"station_id":"ce4bha92rcd13ifvqeh0","pricing_plan_id":"free"},{"bike_id":"5a4147e9-e73a-448d-8e66-801277b3124f","system_id":"levelo_inurba_marseille","lat":43.291675,"lon":5.371583,"is_reserved":false,"is_disabled":false,"rental_uris":{"android":"levelo://app?vid=5a4147e9-e73a-448d-8e66-801277b3124f","ios":"levelo://app?vid=5a4147e9-e73a-448d-8e66-801277b3124f"},"vehicle_type_id":"4","last_reported":1699095888,"current_range_meters":26000,"station_id":"ce4bha92rcd13ifvqeh0","pricing_plan_id":"free"},{"bike_id":"35b23bb4-792d-4844-898c-743ee0fc7eda","system_id":"levelo_inurba_marseille","lat":43.29199,"lon":5.35801,"is_reserved":false,"is_disabled":false,"rental_uris":{"android":"levelo://app?vid=35b23bb4-792d-4844-898c-743ee0fc7eda","ios":"levelo://app?vid=35b23bb4-792d-4844-898c-743ee0fc7eda"},"vehicle_type_id":"4","last_reported":1699095888,"current_range_meters":18400,"station_id":"ce4bhb12rcd13ifvqel0","pricing_plan_id":"free"},{"bike_id":"1194d604-0c2d-4b2c-b023-e047e7086421","system_id":"levelo_inurba_marseille","lat":43.29198,"lon":5.35796,"is_reserved":false,"is_disabled":false,"rental_uris":{"android":"levelo://app?vid=1194d604-0c2d-4b2c-b023-e047e7086421","ios":"levelo://app?vid=1194d604-0c2d-4b2c-b023-e047e7086421"},"vehicle_type_id":"4","last_reported":1699095888,"current_range_meters":22400,"station_id":"ce4bhb12rcd13ifvqel0","pricing_plan_id":"free"},{"bike_id":"e3c8a911-ed4e-4fef-baad-162d62b45506","system_id":"levelo_inurba_marseille","lat":43.31325,"lon":5.39688,"is_reserved":false,"is_disabled":false,"rental_uris":{"android":"levelo://app?vid=e3c8a911-ed4e-4fef-baad-162d62b45506","ios":"levelo://app?vid=e3c8a911-ed4e-4fef-baad-162d62b45506"},"vehicle_type_id":"4","last_reported":1699095888,"current_range_meters":26400,"station_id":"ce4bgvp2rcd13ifvqcu0","pricing_plan_id":"free"},{"bike_id":"b3dbc79f-db20-4e33-920e-920f55d690f0","system_id":"levelo_inurba_marseille","lat":43.31329,"lon":5.39692,"is_reserved":false,"is_disabled":false,"rental_uris":{"android":"levelo://app?vid=b3dbc79f-db20-4e33-920e-920f55d690f0","ios":"levelo://app?vid=b3dbc79f-db20-4e33-920e-920f55d690f0"},"vehicle_type_id":"4","last_reported":1699095888,"current_range_meters":17200,"station_id":"ce4bgvp2rcd13ifvqcu0","pricing_plan_id":"free"},{"bike_id":"f0b38b89-45de-4502-8d29-a11f0e8c86d1","system_id":"levelo_inurba_marseille","lat":43.313291,"lon":5.396838,"is_reserved":false,"is_disabled":false,"rental_uris":{"android":"levelo://app?vid=f0b38b89-45de-4502-8d29-a11f0e8c86d1","ios":"levelo://app?vid=f0b38b89-45de-4502-8d29-a11f0e8c86d1"},"vehicle_type_id":"4","last_reported":1699095888,"current_range_meters":13200,"station_id":"ce4bgvp2rcd13ifvqcu0","pricing_plan_id":"free"},{"bike_id":"c61e9814-ddeb-4d02-b877-44315dd5fa14","system_id":"levelo_inurba_marseille","lat":43.29585,"lon":5.38596,"is_reserved":false,"is_disabled":false,"rental_uris":{"android":"levelo://app?vid=c61e9814-ddeb-4d02-b877-44315dd5fa14","ios":"levelo://app?vid=c61e9814-ddeb-4d02-b877-44315dd5fa14"},"vehicle_type_id":"4","last_reported":1699095888,"current_range_meters":23600,"station_id":"","pricing_plan_id":"free"},{"bike_id":"7548165c-e471-4c9b-a8ea-9f21ce150871","system_id":"levelo_inurba_marseille","lat":43.313291,"lon":5.396838,"is_reserved":false,"is_disabled":false,"rental_uris":{"android":"levelo://app?vid=7548165c-e471-4c9b-a8ea-9f21ce150871","ios":"levelo://app?vid=7548165c-e471-4c9b-a8ea-9f21ce150871"},"vehicle_type_id":"4","last_reported":1699095888,"current_range_meters":28400,"station_id":"ce4bgvp2rcd13ifvqcu0","pricing_plan_id":"free"},{"bike_id":"e2c1729b-3e19-40d7-8c1f-6a29e0cc010a","system_id":"levelo_inurba_marseille","lat":43.313275,"lon":5.396957,"is_reserved":false,"is_disabled":false,"rental_uris":{"android":"levelo://app?vid=e2c1729b-3e19-40d7-8c1f-6a29e0cc010a","ios":"levelo://app?vid=e2c1729b-3e19-40d7-8c1f-6a29e0cc010a"},"vehicle_type_id":"4","last_reported":1699095888,"current_range_meters":26400,"station_id":"ce4bgvp2rcd13ifvqcu0","pricing_plan_id":"free"},{"bike_id":"2cd0bbff-24ff-4b04-9366-9188c7c66908","system_id":"levelo_inurba_marseille","lat":43.313291,"lon":5.396838,"is_reserved":false,"is_disabled":false,"rental_uris":{"android":"levelo://app?vid=2cd0bbff-24ff-4b04-9366-9188c7c66908","ios":"levelo://app?vid=2cd0bbff-24ff-4b04-9366-9188c7c66908"},"vehicle_type_id":"4","last_reported":1699095888,"current_range_meters":28000,"station_id":"ce4bgvp2rcd13ifvqcu0","pricing_plan_id":"free"},{"bike_id":"9912db54-f509-48b7-9311-19b727d98114","system_id":"levelo_inurba_marseille","lat":43.313266,"lon":5.396968,"is_reserved":false,"is_disabled":false,"rental_uris":{"android":"levelo://app?vid=9912db54-f509-48b7-9311-19b727d98114","ios":"levelo://app?vid=9912db54-f509-48b7-9311-19b727d98114"},"vehicle_type_id":"4","last_reported":1699095888,"current_range_meters":22000,"station_id":"","pricing_plan_id":"free"},{"bike_id":"9c46eea8-b97e-48a2-8d00-5231a17ecbae","system_id":"levelo_inurba_marseille","lat":43.29529,"lon":5.385581,"is_reserved":false,"is_disabled":false,"rental_uris":{"android":"levelo://app?vid=9c46eea8-b97e-48a2-8d00-5231a17ecbae","ios":"levelo://app?vid=9c46eea8-b97e-48a2-8d00-5231a17ecbae"},"vehicle_type_id":"4","last_reported":1699095888,"current_range_meters":24000,"station_id":"ce4bgih2rcd13ifvqba0","pricing_plan_id":"free"},{"bike_id":"d3be0c74-b7ce-4846-beee-db9ce6b6121d","system_id":"levelo_inurba_marseille","lat":43.29529,"lon":5.385581,"is_reserved":false,"is_disabled":false,"rental_uris":{"android":"levelo://app?vid=d3be0c74-b7ce-4846-beee-db9ce6b6121d","ios":"levelo://app?vid=d3be0c74-b7ce-4846-beee-db9ce6b6121d"},"vehicle_type_id":"4","last_reported":1699095888,"current_range_meters":21200,"station_id":"ce4bgih2rcd13ifvqba0","pricing_plan_id":"free"},{"bike_id":"c86ac506-ef21-44d3-bff1-93a425b86706","system_id":"levelo_inurba_marseille","lat":43.29529,"lon":5.385581,"is_reserved":false,"is_disabled":false,"rental_uris":{"android":"levelo://app?vid=c86ac506-ef21-44d3-bff1-93a425b86706","ios":"levelo://app?vid=c86ac506-ef21-44d3-bff1-93a425b86706"},"vehicle_type_id":"4","last_reported":1699095888,"current_range_meters":18000,"station_id":"ce4bgih2rcd13ifvqba0","pricing_plan_id":"free"},{"bike_id":"f243bb0c-6174-4606-954a-7a93897bd97e","system_id":"levelo_inurba_marseille","lat":43.29529,"lon":5.385581,"is_reserved":false,"is_disabled":false,"rental_uris":{"android":"levelo://app?vid=f243bb0c-6174-4606-954a-7a93897bd97e","ios":"levelo://app?vid=f243bb0c-6174-4606-954a-7a93897bd97e"},"vehicle_type_id":"4","last_reported":1699095888,"current_range_meters":24400,"station_id":"ce4bgih2rcd13ifvqba0","pricing_plan_id":"free"},{"bike_id":"935b40b1-61e3-46a7-b29e-a2f96cd3c383","system_id":"levelo_inurba_marseille","lat":43.290779,"lon":5.371482,"is_reserved":false,"is_disabled":false,"rental_uris":{"android":"levelo://app?vid=935b40b1-61e3-46a7-b29e-a2f96cd3c383","ios":"levelo://app?vid=935b40b1-61e3-46a7-b29e-a2f96cd3c383"},"vehicle_type_id":"4","last_reported":1699095888,"current_range_meters":27600,"station_id":"ce4bh5p2rcd13ifvqe4g","pricing_plan_id":"free"},{"bike_id":"b242866d-7914-4b7b-acb2-93f070b34273","system_id":"levelo_inurba_marseille","lat":43.290779,"lon":5.371482,"is_reserved":false,"is_disabled":false,"rental_uris":{"android":"levelo://app?vid=b242866d-7914-4b7b-acb2-93f070b34273","ios":"levelo://app?vid=b242866d-7914-4b7b-acb2-93f070b34273"},"vehicle_type_id":"4","last_reported":1699095888,"current_range_meters":31200,"station_id":"ce4bh5p2rcd13ifvqe4g","pricing_plan_id":"free"},{"bike_id":"e7857a70-084e-49fc-b6d0-1d652deb338d","system_id":"levelo_inurba_marseille","lat":43.290779,"lon":5.371482,"is_reserved":false,"is_disabled":false,"rental_uris":{"android":"levelo://app?vid=e7857a70-084e-49fc-b6d0-1d652deb338d","ios":"levelo://app?vid=e7857a70-084e-49fc-b6d0-1d652deb338d"},"vehicle_type_id":"4","last_reported":1699095888,"current_range_meters":24000,"station_id":"ce4bh5p2rcd13ifvqe4g","pricing_plan_id":"free"},{"bike_id":"7d5365ea-c07f-4c67-a76f-c038504f2e9d","system_id":"levelo_inurba_marseille","lat":43.290779,"lon":5.371482,"is_reserved":false,"is_disabled":false,"rental_uris":{"android":"levelo://app?vid=7d5365ea-c07f-4c67-a76f-c038504f2e9d","ios":"levelo://app?vid=7d5365ea-c07f-4c67-a76f-c038504f2e9d"},"vehicle_type_id":"4","last_reported":1699095888,"current_range_meters":26800,"station_id":"ce4bh5p2rcd13ifvqe4g","pricing_plan_id":"free"},{"bike_id":"38ffbe7f-ff17-4724-b237-f1d445b0029c","system_id":"levelo_inurba_marseille","lat":43.302008,"lon":5.394694,"is_reserved":false,"is_disabled":false,"rental_uris":{"android":"levelo://app?vid=38ffbe7f-ff17-4724-b237-f1d445b0029c","ios":"levelo://app?vid=38ffbe7f-ff17-4724-b237-f1d445b0029c"},"vehicle_type_id":"4","last_reported":1699095888,"current_range_meters":16800,"station_id":"ce4bh0p2rcd13ifvqd70","pricing_plan_id":"free"},{"bike_id":"ee3f4ad1-33f8-4d95-a8ef-87b446d31a5d","system_id":"levelo_inurba_marseille","lat":43.29043,"lon":5.35919,"is_reserved":false,"is_disabled":false,"rental_uris":{"android":"levelo://app?vid=ee3f4ad1-33f8-4d95-a8ef-87b446d31a5d","ios":"levelo://app?vid=ee3f4ad1-33f8-4d95-a8ef-87b446d31a5d"},"vehicle_type_id":"4","last_reported":1699095888,"current_range_meters":24800,"station_id":"ce4bha92rcd13ifvqeg0","pricing_plan_id":"free"},{"bike_id":"988d4820-c5bd-4b14-8333-61b3b7b1d04a","system_id":"levelo_inurba_marseille","lat":43.29041,"lon":5.35921,"is_reserved":false,"is_disabled":false,"rental_uris":{"android":"levelo://app?vid=988d4820-c5bd-4b14-8333-61b3b7b1d04a","ios":"levelo://app?vid=988d4820-c5bd-4b14-8333-61b3b7b1d04a"},"vehicle_type_id":"4","last_reported":1699095888,"current_range_meters":30400,"station_id":"ce4bha92rcd13ifvqeg0","pricing_plan_id":"free"},{"bike_id":"32a5903f-983f-4439-9002-fa022088fd0d","system_id":"levelo_inurba_marseille","lat":43.29042,"lon":5.35915,"is_reserved":false,"is_disabled":false,"rental_uris":{"android":"levelo://app?vid=32a5903f-983f-4439-9002-fa022088fd0d","ios":"levelo://app?vid=32a5903f-983f-4439-9002-fa022088fd0d"},"vehicle_type_id":"4","last_reported":1699095888,"current_range_meters":31200,"station_id":"ce4bha92rcd13ifvqeg0","pricing_plan_id":"free"},{"bike_id":"9b7b67de-a46e-4fd0-8d26-898cd32017fc","system_id":"levelo_inurba_marseille","lat":43.29039,"lon":5.35924,"is_reserved":false,"is_disabled":false,"rental_uris":{"android":"levelo://app?vid=9b7b67de-a46e-4fd0-8d26-898cd32017fc","ios":"levelo://app?vid=9b7b67de-a46e-4fd0-8d26-898cd32017fc"},"vehicle_type_id":"4","last_reported":1699095888,"current_range_meters":30800,"station_id":"ce4bha92rcd13ifvqeg0","pricing_plan_id":"free"},{"bike_id":"a4911d8d-0c74-4af8-852a-2f4eac372219","system_id":"levelo_inurba_marseille","lat":43.29036,"lon":5.35918,"is_reserved":false,"is_disabled":false,"rental_uris":{"android":"levelo://app?vid=a4911d8d-0c74-4af8-852a-2f4eac372219","ios":"levelo://app?vid=a4911d8d-0c74-4af8-852a-2f4eac372219"},"vehicle_type_id":"4","last_reported":1699095888,"current_range_meters":22800,"station_id":"ce4bha92rcd13ifvqeg0","pricing_plan_id":"free"},{"bike_id":"477bb0eb-9a89-419d-a646-adf62bda40a4","system_id":"levelo_inurba_marseille","lat":43.289184,"lon":5.366408,"is_reserved":false,"is_disabled":false,"rental_uris":{"android":"levelo://app?vid=477bb0eb-9a89-419d-a646-adf62bda40a4","ios":"levelo://app?vid=477bb0eb-9a89-419d-a646-adf62bda40a4"},"vehicle_type_id":"4","last_reported":1699095888,"current_range_meters":29600,"station_id":"ce4bhap2rcd13ifvqek0","pricing_plan_id":"free"},{"bike_id":"2c601531-6f8e-4850-be3d-b2f363d0c458","system_id":"levelo_inurba_marseille","lat":43.294162,"lon":5.386292,"is_reserved":false,"is_disabled":false,"rental_uris":{"android":"levelo://app?vid=2c601531-6f8e-4850-be3d-b2f363d0c458","ios":"levelo://app?vid=2c601531-6f8e-4850-be3d-b2f363d0c458"},"vehicle_type_id":"4","last_reported":1699095888,"current_range_meters":24000,"station_id":"ce4bh2h2rcd13ifvqdh0","pricing_plan_id":"free"},{"bike_id":"e9e2406c-90de-45a5-bd35-cdde935e38de","system_id":"levelo_inurba_marseille","lat":43.29415,"lon":5.38625,"is_reserved":false,"is_disabled":false,"rental_uris":{"android":"levelo://app?vid=e9e2406c-90de-45a5-bd35-cdde935e38de","ios":"levelo://app?vid=e9e2406c-90de-45a5-bd35-cdde935e38de"},"vehicle_type_id":"4","last_reported":1699095888,"current_range_meters":26800,"station_id":"ce4bh2h2rcd13ifvqdh0","pricing_plan_id":"free"},{"bike_id":"55e24c8b-f392-49e9-9613-6caaeeec08c5","system_id":"levelo_inurba_marseille","lat":43.29417,"lon":5.38631,"is_reserved":false,"is_disabled":false,"rental_uris":{"android":"levelo://app?vid=55e24c8b-f392-49e9-9613-6caaeeec08c5","ios":"levelo://app?vid=55e24c8b-f392-49e9-9613-6caaeeec08c5"},"vehicle_type_id":"4","last_reported":1699095888,"current_range_meters":14400,"station_id":"ce4bh2h2rcd13ifvqdh0","pricing_plan_id":"free"},{"bike_id":"3cbe531a-9008-40e6-b262-f2cb04ca8120","system_id":"levelo_inurba_marseille","lat":43.294162,"lon":5.386292,"is_reserved":false,"is_disabled":false,"rental_uris":{"android":"levelo://app?vid=3cbe531a-9008-40e6-b262-f2cb04ca8120","ios":"levelo://app?vid=3cbe531a-9008-40e6-b262-f2cb04ca8120"},"vehicle_type_id":"4","last_reported":1699095888,"current_range_meters":2800,"station_id":"ce4bh2h2rcd13ifvqdh0","pricing_plan_id":"free"},{"bike_id":"1c9fb4bb-bb3c-4408-b59b-540d103819af","system_id":"levelo_inurba_marseille","lat":43.294162,"lon":5.386292,"is_reserved":false,"is_disabled":false,"rental_uris":{"android":"levelo://app?vid=1c9fb4bb-bb3c-4408-b59b-540d103819af","ios":"levelo://app?vid=1c9fb4bb-bb3c-4408-b59b-540d103819af"},"vehicle_type_id":"4","last_reported":1699095888,"current_range_meters":26800,"station_id":"ce4bh2h2rcd13ifvqdh0","pricing_plan_id":"free"},{"bike_id":"0678e112-71c6-4434-8cbe-e61197191c7f","system_id":"levelo_inurba_marseille","lat":43.289415,"lon":5.366437,"is_reserved":false,"is_disabled":false,"rental_uris":{"android":"levelo://app?vid=0678e112-71c6-4434-8cbe-e61197191c7f","ios":"levelo://app?vid=0678e112-71c6-4434-8cbe-e61197191c7f"},"vehicle_type_id":"4","last_reported":1699095888,"current_range_meters":6800,"station_id":"","pricing_plan_id":"free"},{"bike_id":"f3260e12-143c-43fa-ab73-708bb4f74d6f","system_id":"levelo_inurba_marseille","lat":43.289468,"lon":5.363719,"is_reserved":false,"is_disabled":false,"rental_uris":{"android":"levelo://app?vid=f3260e12-143c-43fa-ab73-708bb4f74d6f","ios":"levelo://app?vid=f3260e12-143c-43fa-ab73-708bb4f74d6f"},"vehicle_type_id":"4","last_reported":1699095888,"current_range_meters":27200,"station_id":"ce4bhc92rcd13ifvqetg","pricing_plan_id":"free"},{"bike_id":"e60af3fd-0a0e-449b-bb6b-fa8702a6b4d6","system_id":"levelo_inurba_marseille","lat":43.304274,"lon":5.397513,"is_reserved":false,"is_disabled":false,"rental_uris":{"android":"levelo://app?vid=e60af3fd-0a0e-449b-bb6b-fa8702a6b4d6","ios":"levelo://app?vid=e60af3fd-0a0e-449b-bb6b-fa8702a6b4d6"},"vehicle_type_id":"4","last_reported":1699095888,"current_range_meters":25600,"station_id":"ce4bh092rcd13ifvqd20","pricing_plan_id":"free"},{"bike_id":"f4eeca4a-fc26-434f-98f6-c06533ff395a","system_id":"levelo_inurba_marseille","lat":43.292642,"lon":5.384254,"is_reserved":false,"is_disabled":false,"rental_uris":{"android":"levelo://app?vid=f4eeca4a-fc26-434f-98f6-c06533ff395a","ios":"levelo://app?vid=f4eeca4a-fc26-434f-98f6-c06533ff395a"},"vehicle_type_id":"4","last_reported":1699095888,"current_range_meters":0,"station_id":"ce4bh692rcd13ifvqea0","pricing_plan_id":"free"},{"bike_id":"f24cf45c-0f5a-4a98-b0b9-b3518de3bf39","system_id":"levelo_inurba_marseille","lat":43.292644,"lon":5.384257,"is_reserved":false,"is_disabled":false,"rental_uris":{"android":"levelo://app?vid=f24cf45c-0f5a-4a98-b0b9-b3518de3bf39","ios":"levelo://app?vid=f24cf45c-0f5a-4a98-b0b9-b3518de3bf39"},"vehicle_type_id":"4","last_reported":1699095888,"current_range_meters":31200,"station_id":"ce4bh692rcd13ifvqea0","pricing_plan_id":"free"},{"bike_id":"deb9c163-e4a8-46f1-878b-0baf1259b171","system_id":"levelo_inurba_marseille","lat":43.292642,"lon":5.384254,"is_reserved":false,"is_disabled":false,"rental_uris":{"android":"levelo://app?vid=deb9c163-e4a8-46f1-878b-0baf1259b171","ios":"levelo://app?vid=deb9c163-e4a8-46f1-878b-0baf1259b171"},"vehicle_type_id":"4","last_reported":1699095888,"current_range_meters":31600,"station_id":"ce4bh692rcd13ifvqea0","pricing_plan_id":"free"},{"bike_id":"7b70c88c-e16e-44dd-8254-9ae6cc1ecf43","system_id":"levelo_inurba_marseille","lat":43.292644,"lon":5.384257,"is_reserved":false,"is_disabled":false,"rental_uris":{"android":"levelo://app?vid=7b70c88c-e16e-44dd-8254-9ae6cc1ecf43","ios":"levelo://app?vid=7b70c88c-e16e-44dd-8254-9ae6cc1ecf43"},"vehicle_type_id":"4","last_reported":1699095888,"current_range_meters":28400,"station_id":"ce4bh692rcd13ifvqea0","pricing_plan_id":"free"},{"bike_id":"9ca908c3-201f-4c3e-9dcc-e18657ec600a","system_id":"levelo_inurba_marseille","lat":43.290104,"lon":5.356111,"is_reserved":false,"is_disabled":false,"rental_uris":{"android":"levelo://app?vid=9ca908c3-201f-4c3e-9dcc-e18657ec600a","ios":"levelo://app?vid=9ca908c3-201f-4c3e-9dcc-e18657ec600a"},"vehicle_type_id":"4","last_reported":1699095888,"current_range_meters":30800,"station_id":"ce4bhb92rcd13ifvqen0","pricing_plan_id":"free"},{"bike_id":"89f28dd2-bd67-452a-b37a-1e04867e95c6","system_id":"levelo_inurba_marseille","lat":43.290104,"lon":5.356111,"is_reserved":false,"is_disabled":false,"rental_uris":{"android":"levelo://app?vid=89f28dd2-bd67-452a-b37a-1e04867e95c6","ios":"levelo://app?vid=89f28dd2-bd67-452a-b37a-1e04867e95c6"},"vehicle_type_id":"4","last_reported":1699095888,"current_range_meters":32000,"station_id":"ce4bhb92rcd13ifvqen0","pricing_plan_id":"free"},{"bike_id":"69775d2e-4c41-4b7d-bd8b-2cc692967c87","system_id":"levelo_inurba_marseille","lat":43.29011,"lon":5.3561,"is_reserved":false,"is_disabled":false,"rental_uris":{"android":"levelo://app?vid=69775d2e-4c41-4b7d-bd8b-2cc692967c87","ios":"levelo://app?vid=69775d2e-4c41-4b7d-bd8b-2cc692967c87"},"vehicle_type_id":"4","last_reported":1699095888,"current_range_meters":26000,"station_id":"ce4bhb92rcd13ifvqen0","pricing_plan_id":"free"},{"bike_id":"7545a2f1-559c-40c2-908d-99ad6ef39151","system_id":"levelo_inurba_marseille","lat":43.330442,"lon":5.389148,"is_reserved":false,"is_disabled":false,"rental_uris":{"android":"levelo://app?vid=7545a2f1-559c-40c2-908d-99ad6ef39151","ios":"levelo://app?vid=7545a2f1-559c-40c2-908d-99ad6ef39151"},"vehicle_type_id":"4","last_reported":1699095888,"current_range_meters":16400,"station_id":"ce4bhr92rcd13ifvqhrg","pricing_plan_id":"free"},{"bike_id":"3936e530-1ed8-452c-ac77-c925a4df9170","system_id":"levelo_inurba_marseille","lat":43.290104,"lon":5.356111,"is_reserved":false,"is_disabled":false,"rental_uris":{"android":"levelo://app?vid=3936e530-1ed8-452c-ac77-c925a4df9170","ios":"levelo://app?vid=3936e530-1ed8-452c-ac77-c925a4df9170"},"vehicle_type_id":"4","last_reported":1699095888,"current_range_meters":30800,"station_id":"ce4bhb92rcd13ifvqen0","pricing_plan_id":"free"},{"bike_id":"117aff34-4a0f-4db6-a0df-2309d2049231","system_id":"levelo_inurba_marseille","lat":43.29006,"lon":5.3561,"is_reserved":false,"is_disabled":false,"rental_uris":{"android":"levelo://app?vid=117aff34-4a0f-4db6-a0df-2309d2049231","ios":"levelo://app?vid=117aff34-4a0f-4db6-a0df-2309d2049231"},"vehicle_type_id":"4","last_reported":1699095888,"current_range_meters":21200,"station_id":"ce4bhb92rcd13ifvqen0","pricing_plan_id":"free"},{"bike_id":"2428d57d-ed96-4ff8-a6df-e3403f92abd0","system_id":"levelo_inurba_marseille","lat":43.29005,"lon":5.35613,"is_reserved":false,"is_disabled":false,"rental_uris":{"android":"levelo://app?vid=2428d57d-ed96-4ff8-a6df-e3403f92abd0","ios":"levelo://app?vid=2428d57d-ed96-4ff8-a6df-e3403f92abd0"},"vehicle_type_id":"4","last_reported":1699095888,"current_range_meters":28800,"station_id":"ce4bhb92rcd13ifvqen0","pricing_plan_id":"free"},{"bike_id":"11607ce5-b935-4cf0-960e-74d177a5702b","system_id":"levelo_inurba_marseille","lat":43.290104,"lon":5.356111,"is_reserved":false,"is_disabled":false,"rental_uris":{"android":"levelo://app?vid=11607ce5-b935-4cf0-960e-74d177a5702b","ios":"levelo://app?vid=11607ce5-b935-4cf0-960e-74d177a5702b"},"vehicle_type_id":"4","last_reported":1699095888,"current_range_meters":28800,"station_id":"ce4bhb92rcd13ifvqen0","pricing_plan_id":"free"},{"bike_id":"59baf8ed-5e28-42be-be45-014a63a5ce3a","system_id":"levelo_inurba_marseille","lat":43.29005,"lon":5.35608,"is_reserved":false,"is_disabled":false,"rental_uris":{"android":"levelo://app?vid=59baf8ed-5e28-42be-be45-014a63a5ce3a","ios":"levelo://app?vid=59baf8ed-5e28-42be-be45-014a63a5ce3a"},"vehicle_type_id":"4","last_reported":1699095888,"current_range_meters":30400,"station_id":"ce4bhb92rcd13ifvqen0","pricing_plan_id":"free"},{"bike_id":"b4d3ab21-cdbb-4cc2-b74a-16ebc82967fe","system_id":"levelo_inurba_marseille","lat":43.290995,"lon":5.381361,"is_reserved":false,"is_disabled":false,"rental_uris":{"android":"levelo://app?vid=b4d3ab21-cdbb-4cc2-b74a-16ebc82967fe","ios":"levelo://app?vid=b4d3ab21-cdbb-4cc2-b74a-16ebc82967fe"},"vehicle_type_id":"4","last_reported":1699095888,"current_range_meters":21600,"station_id":"ce4bh512rcd13ifvqe2g","pricing_plan_id":"free"},{"bike_id":"1d4fd3f6-a6af-4822-b3e8-f009679e6aa8","system_id":"levelo_inurba_marseille","lat":43.290995,"lon":5.381361,"is_reserved":false,"is_disabled":false,"rental_uris":{"android":"levelo://app?vid=1d4fd3f6-a6af-4822-b3e8-f009679e6aa8","ios":"levelo://app?vid=1d4fd3f6-a6af-4822-b3e8-f009679e6aa8"},"vehicle_type_id":"4","last_reported":1699095888,"current_range_meters":16400,"station_id":"ce4bh512rcd13ifvqe2g","pricing_plan_id":"free"},{"bike_id":"566ab171-fa0b-49b2-8889-e33108f910ba","system_id":"levelo_inurba_marseille","lat":43.290995,"lon":5.381361,"is_reserved":false,"is_disabled":false,"rental_uris":{"android":"levelo://app?vid=566ab171-fa0b-49b2-8889-e33108f910ba","ios":"levelo://app?vid=566ab171-fa0b-49b2-8889-e33108f910ba"},"vehicle_type_id":"4","last_reported":1699095888,"current_range_meters":24400,"station_id":"ce4bh512rcd13ifvqe2g","pricing_plan_id":"free"},{"bike_id":"0a212808-9186-49f0-93d9-1da464efb6b1","system_id":"levelo_inurba_marseille","lat":43.289743,"lon":5.378304,"is_reserved":false,"is_disabled":false,"rental_uris":{"android":"levelo://app?vid=0a212808-9186-49f0-93d9-1da464efb6b1","ios":"levelo://app?vid=0a212808-9186-49f0-93d9-1da464efb6b1"},"vehicle_type_id":"4","last_reported":1699095888,"current_range_meters":14800,"station_id":"ce4bh9p2rcd13ifvqed0","pricing_plan_id":"free"},{"bike_id":"e0d713cd-ec81-44ec-8ba4-571dd76a2b05","system_id":"levelo_inurba_marseille","lat":43.295169,"lon":5.390426,"is_reserved":false,"is_disabled":false,"rental_uris":{"android":"levelo://app?vid=e0d713cd-ec81-44ec-8ba4-571dd76a2b05","ios":"levelo://app?vid=e0d713cd-ec81-44ec-8ba4-571dd76a2b05"},"vehicle_type_id":"4","last_reported":1699095888,"current_range_meters":1600,"station_id":"ce4bh3p2rcd13ifvqdp0","pricing_plan_id":"free"},{"bike_id":"eaf75c9a-b21c-483d-816d-adc3fd73abca","system_id":"levelo_inurba_marseille","lat":43.289743,"lon":5.378304,"is_reserved":false,"is_disabled":false,"rental_uris":{"android":"levelo://app?vid=eaf75c9a-b21c-483d-816d-adc3fd73abca","ios":"levelo://app?vid=eaf75c9a-b21c-483d-816d-adc3fd73abca"},"vehicle_type_id":"4","last_reported":1699095888,"current_range_meters":16400,"station_id":"ce4bh9p2rcd13ifvqed0","pricing_plan_id":"free"},{"bike_id":"2ed919a9-1af3-4359-ba69-872807bf1335","system_id":"levelo_inurba_marseille","lat":43.289741,"lon":5.378306,"is_reserved":false,"is_disabled":false,"rental_uris":{"android":"levelo://app?vid=2ed919a9-1af3-4359-ba69-872807bf1335","ios":"levelo://app?vid=2ed919a9-1af3-4359-ba69-872807bf1335"},"vehicle_type_id":"4","last_reported":1699095888,"current_range_meters":24800,"station_id":"ce4bh9p2rcd13ifvqed0","pricing_plan_id":"free"},{"bike_id":"82ab9ca6-948a-4876-a9bf-3f54c81a765f","system_id":"levelo_inurba_marseille","lat":43.289741,"lon":5.378306,"is_reserved":false,"is_disabled":false,"rental_uris":{"android":"levelo://app?vid=82ab9ca6-948a-4876-a9bf-3f54c81a765f","ios":"levelo://app?vid=82ab9ca6-948a-4876-a9bf-3f54c81a765f"},"vehicle_type_id":"4","last_reported":1699095888,"current_range_meters":29200,"station_id":"ce4bh9p2rcd13ifvqed0","pricing_plan_id":"free"},{"bike_id":"fbf23ba7-ad5e-414e-a05a-47d411908d69","system_id":"levelo_inurba_marseille","lat":43.290094,"lon":5.381264,"is_reserved":false,"is_disabled":false,"rental_uris":{"android":"levelo://app?vid=fbf23ba7-ad5e-414e-a05a-47d411908d69","ios":"levelo://app?vid=fbf23ba7-ad5e-414e-a05a-47d411908d69"},"vehicle_type_id":"4","last_reported":1699095888,"current_range_meters":21600,"station_id":"ce4bh4p2rcd13ifvqe1g","pricing_plan_id":"free"},{"bike_id":"d85e6f49-b8d2-43c3-afd4-5075bcf15ed1","system_id":"levelo_inurba_marseille","lat":43.28856,"lon":5.358371,"is_reserved":false,"is_disabled":false,"rental_uris":{"android":"levelo://app?vid=d85e6f49-b8d2-43c3-afd4-5075bcf15ed1","ios":"levelo://app?vid=d85e6f49-b8d2-43c3-afd4-5075bcf15ed1"},"vehicle_type_id":"4","last_reported":1699095888,"current_range_meters":17200,"station_id":"ce4bhb12rcd13ifvqem0","pricing_plan_id":"free"},{"bike_id":"dce7aa51-c1bf-4f88-9b48-f16085afbfb3","system_id":"levelo_inurba_marseille","lat":43.290094,"lon":5.381264,"is_reserved":false,"is_disabled":false,"rental_uris":{"android":"levelo://app?vid=dce7aa51-c1bf-4f88-9b48-f16085afbfb3","ios":"levelo://app?vid=dce7aa51-c1bf-4f88-9b48-f16085afbfb3"},"vehicle_type_id":"4","last_reported":1699095888,"current_range_meters":17600,"station_id":"ce4bh4p2rcd13ifvqe1g","pricing_plan_id":"free"},