{"last_updated":1739693457,"ttl":60,"version":"2.2","data":{"bikes":[{"bike_id":"bd6a1e19-6806-44e1-a810-de054147bcfe","system_id":"levelo_inurba_marseille","lat":43.31521,"lon":5.38028,"is_reserved":false,"is_disabled":false,"rental_uris":{"android":"levelo://app?vid=bd6a1e19-6806-44e1-a810-de054147bcfe","ios":"levelo://app?vid=bd6a1e19-6806-44e1-a810-de054147bcfe"},"vehicle_type_id":"4","last_reported":1739693457,"current_range_meters":36800,"station_id":"ce4bhsp2rcd13ifvqi50","pricing_plan_id":"cebpf4jnsgd1na2vs0mg"},{"bike_id":"b1589c62-efb6-4964-ade1-e2ad8e9b6ead","system_id":"levelo_inurba_marseille","lat":43.231517,"lon":5.437059,"is_reserved":false,"is_disabled":false,"rental_uris":{"android":"levelo://app?vid=b1589c62-efb6-4964-ade1-e2ad8e9b6ead","ios":"levelo://app?vid=b1589c62-efb6-4964-ade1-e2ad8e9b6ead"},"vehicle_type_id":"4","last_reported":1739693457,"current_range_meters":38000,"station_id":"ce4bhmp2rcd13ifvqgog","pricing_plan_id":"cebpf4jnsgd1na2vs0mg"},{"bike_id":"5a7b9fda-fcf7-4f0d-b371-842def3cdff7","system_id":"levelo_inurba_marseille","lat":43.29285,"lon":5.40173,"is_reserved":false,"is_disabled":true,"rental_uris":{"android":"levelo://app?vid=5a7b9fda-fcf7-4f0d-b371-842def3cdff7","ios":"levelo://app?vid=5a7b9fda-fcf7-4f0d-b371-842def3cdff7"},"vehicle_type_id":"4","last_reported":1739693457,"current_range_meters":34800,"station_id":"","pricing_plan_id":"cebpf4jnsgd1na2vs0mg"},{"bike_id":"314ecb77-8b90-4fdb-aaf3-bbba8b437b8a","system_id":"levelo_inurba_marseille","lat":43.29076,"lon":5.38042,"is_reserved":false,"is_disabled":false,"rental_uris":{"android":"levelo://app?vid=314ecb77-8b90-4fdb-aaf3-bbba8b437b8a","ios":"levelo://app?vid=314ecb77-8b90-4fdb-aaf3-bbba8b437b8a"},"vehicle_type_id":"4","last_reported":1739693457,"current_range_meters":4800,"station_id":"","pricing_plan_id":"cebpf4jnsgd1na2vs0mg"},{"bike_id":"12c3694c-32df-46ed-95f2-cdd3b6575844","system_id":"levelo_inurba_marseille","lat":43.27195,"lon":5.40999,"is_reserved":false,"is_disabled":false,"rental_uris":{"android":"levelo://app?vid=12c3694c-32df-46ed-95f2-cdd3b6575844","ios":"levelo://app?vid=12c3694c-32df-46ed-95f2-cdd3b6575844"},"vehicle_type_id":"4","last_reported":1739693457,"current_range_meters":22800,"station_id":"ce4bhl12rcd13ifvqgf0","pricing_plan_id":"cebpf4jnsgd1na2vs0mg"},{"bike_id":"48a00b36-c772-4089-a1d7-3835b3c473bc","system_id":"levelo_inurba_marseille","lat":43.29709,"lon":5.36629,"is_reserved":false,"is_disabled":false,"rental_uris":{"android":"levelo://app?vid=48a00b36-c772-4089-a1d7-3835b3c473bc","ios":"levelo://app?vid=48a00b36-c772-4089-a1d7-3835b3c473bc"},"vehicle_type_id":"4","last_reported":1739693457,"current_range_meters":38000,"station_id":"ce4bgn12rcd13ifvqbt0","pricing_plan_id":"cebpf4jnsgd1na2vs0mg"},{"bike_id":"4f45f8e9-0c7b-4084-8dd3-4de8e3df7577","system_id":"levelo_inurba_marseille","lat":43.2512,"lon":5.40365,"is_reserved":false,"is_disabled":false,"rental_uris":{"android":"levelo://app?vid=4f45f8e9-0c7b-4084-8dd3-4de8e3df7577","ios":"levelo://app?vid=4f45f8e9-0c7b-4084-8dd3-4de8e3df7577"},"vehicle_type_id":"4","last_reported":1739693457,"current_range_meters":38800,"station_id":"ce4bhlh2rcd13ifvqgig","pricing_plan_id":"cebpf4jnsgd1na2vs0mg"},{"bike_id":"0ae73e20-3ba2-4a20-bef5-04dff4cd870f","system_id":"levelo_inurba_marseille","lat":43.29876,"lon":5.38934,"is_reserved":false,"is_disabled":false,"rental_uris":{"android":"levelo://app?vid=0ae73e20-3ba2-4a20-bef5-04dff4cd870f","ios":"levelo://app?vid=0ae73e20-3ba2-4a20-bef5-04dff4cd870f"},"vehicle_type_id":"4","last_reported":1739693457,"current_range_meters":9600,"station_id":"ce4bh392rcd13ifvqdl0","pricing_plan_id":"cebpf4jnsgd1na2vs0mg"},{"bike_id":"7c247a35-884c-42c8-b096-04ee8cdacc84","system_id":"levelo_inurba_marseille","lat":43.29875,"lon":5.38918,"is_reserved":false,"is_disabled":false,"rental_uris":{"android":"levelo://app?vid=7c247a35-884c-42c8-b096-04ee8cdacc84","ios":"levelo://app?vid=7c247a35-884c-42c8-b096-04ee8cdacc84"},"vehicle_type_id":"4","last_reported":1739693457,"current_range_meters":38800,"station_id":"ce4bh392rcd13ifvqdl0","pricing_plan_id":"cebpf4jnsgd1na2vs0mg"},{"bike_id":"56851809-1ddb-4244-9921-277fa67ca171","system_id":"levelo_inurba_marseille","lat":43.28823,"lon":5.35863,"is_reserved":false,"is_disabled":false,"rental_uris":{"android":"levelo://app?vid=56851809-1ddb-4244-9921-277fa67ca171","ios":"levelo://app?vid=56851809-1ddb-4244-9921-277fa67ca171"},"vehicle_type_id":"4","last_reported":1739693457,"current_range_meters":8000,"station_id":"ce4bhb12rcd13ifvqem0","pricing_plan_id":"cebpf4jnsgd1na2vs0mg"},{"bike_id":"ff426081-3726-4b6c-aa9f-0d0db0cbc7e6","system_id":"levelo_inurba_marseille","lat":43.28029,"lon":5.36955,"is_reserved":false,"is_disabled":false,"rental_uris":{"android":"levelo://app?vid=ff426081-3726-4b6c-aa9f-0d0db0cbc7e6","ios":"levelo://app?vid=ff426081-3726-4b6c-aa9f-0d0db0cbc7e6"},"vehicle_type_id":"4","last_reported":1739693457,"current_range_meters":38800,"station_id":"ce4bha12rcd13ifvqef0","pricing_plan_id":"cebpf4jnsgd1na2vs0mg"},{"bike_id":"58558eec-a927-4202-aa3d-c8ad7d804276","system_id":"levelo_inurba_marseille","lat":43.33022,"lon":5.390399,"is_reserved":false,"is_disabled":false,"rental_uris":{"android":"levelo://app?vid=58558eec-a927-4202-aa3d-c8ad7d804276","ios":"levelo://app?vid=58558eec-a927-4202-aa3d-c8ad7d804276"},"vehicle_type_id":"4","last_reported":1739693457,"current_range_meters":38800,"station_id":"ce4bhr92rcd13ifvqhrg","pricing_plan_id":"cebpf4jnsgd1na2vs0mg"},{"bike_id":"b2b69db9-a41c-4d37-b7e5-2536d9067581","system_id":"levelo_inurba_marseille","lat":43.278898,"lon":5.38006,"is_reserved":false,"is_disabled":false,"rental_uris":{"android":"levelo://app?vid=b2b69db9-a41c-4d37-b7e5-2536d9067581","ios":"levelo://app?vid=b2b69db9-a41c-4d37-b7e5-2536d9067581"},"vehicle_type_id":"4","last_reported":1739693457,"current_range_meters":25200,"station_id":"ce4bhf92rcd13ifvqf50","pricing_plan_id":"cebpf4jnsgd1na2vs0mg"},{"bike_id":"8c76a68a-1681-44e1-9c07-f9fb5ba2aeb9","system_id":"levelo_inurba_marseille","lat":43.25567,"lon":5.39791,"is_reserved":false,"is_disabled":false,"rental_uris":{"android":"levelo://app?vid=8c76a68a-1681-44e1-9c07-f9fb5ba2aeb9","ios":"levelo://app?vid=8c76a68a-1681-44e1-9c07-f9fb5ba2aeb9"},"vehicle_type_id":"4","last_reported":1739693457,"current_range_meters":30400,"station_id":"","pricing_plan_id":"cebpf4jnsgd1na2vs0mg"},{"bike_id":"5d583a39-7c00-40c3-8b46-b565e7717844","system_id":"levelo_inurba_marseille","lat":43.29526,"lon":5.39033,"is_reserved":false,"is_disabled":false,"rental_uris":{"android":"levelo://app?vid=5d583a39-7c00-40c3-8b46-b565e7717844","ios":"levelo://app?vid=5d583a39-7c00-40c3-8b46-b565e7717844"},"vehicle_type_id":"4","last_reported":1739693457,"current_range_meters":38800,"station_id":"ce4bh3p2rcd13ifvqdp0","pricing_plan_id":"cebpf4jnsgd1na2vs0mg"},{"bike_id":"f5f8dc66-64c5-4881-82b1-6414e53b43d4","system_id":"levelo_inurba_marseille","lat":43.286212,"lon":5.351029,"is_reserved":false,"is_disabled":false,"rental_uris":{"android":"levelo://app?vid=f5f8dc66-64c5-4881-82b1-6414e53b43d4","ios":"levelo://app?vid=f5f8dc66-64c5-4881-82b1-6414e53b43d4"},"vehicle_type_id":"4","last_reported":1739693457,"current_range_meters":7200,"station_id":"ce4bhch2rcd13ifvqeug","pricing_plan_id":"cebpf4jnsgd1na2vs0mg"},{"bike_id":"c7322498-81a4-46c8-b4c9-ec796bfac1e6","system_id":"levelo_inurba_marseille","lat":43.24167,"lon":5.36403,"is_reserved":false,"is_disabled":false,"rental_uris":{"android":"levelo://app?vid=c7322498-81a4-46c8-b4c9-ec796bfac1e6","ios":"levelo://app?vid=c7322498-81a4-46c8-b4c9-ec796bfac1e6"},"vehicle_type_id":"4","last_reported":1739693457,"current_range_meters":36800,"station_id":"cpo36qri1sfpv3e86is0","pricing_plan_id":"cebpf4jnsgd1na2vs0mg"},{"bike_id":"90f3e139-bace-4d38-b0a9-483c2a21ef01","system_id":"levelo_inurba_marseille","lat":43.279375,"lon":5.410422,"is_reserved":false,"is_disabled":false,"rental_uris":{"android":"levelo://app?vid=90f3e139-bace-4d38-b0a9-483c2a21ef01","ios":"levelo://app?vid=90f3e139-bace-4d38-b0a9-483c2a21ef01"},"vehicle_type_id":"4","last_reported":1739693457,"current_range_meters":7200,"station_id":"ce4bhnp2rcd13ifvqh0g","pricing_plan_id":"cebpf4jnsgd1na2vs0mg"},{"bike_id":"b0608a51-76d4-48cf-ad4a-891a136def1c","system_id":"levelo_inurba_marseille","lat":43.29227,"lon":5.36083,"is_reserved":false,"is_disabled":false,"rental_uris":{"android":"levelo://app?vid=b0608a51-76d4-48cf-ad4a-891a136def1c","ios":"levelo://app?vid=b0608a51-76d4-48cf-ad4a-891a136def1c"},"vehicle_type_id":"4","last_reported":1739693457,"current_range_meters":18800,"station_id":"ce4bhbh2rcd13ifvqeqg","pricing_plan_id":"cebpf4jnsgd1na2vs0mg"},{"bike_id":"8f28beee-2a0c-4896-878b-48a55ccfc291","system_id":"levelo_inurba_marseille","lat":43.28715,"lon":5.37947,"is_reserved":false,"is_disabled":false,"rental_uris":{"android":"levelo://app?vid=8f28beee-2a0c-4896-878b-48a55ccfc291","ios":"levelo://app?vid=8f28beee-2a0c-4896-878b-48a55ccfc291"},"vehicle_type_id":"4","last_reported":1739693457,"current_range_meters":38800,"station_id":"ce4bh9p2rcd13ifvqec0","pricing_plan_id":"cebpf4jnsgd1na2vs0mg"},{"bike_id":"12b446d5-f76b-4158-af75-29a23d10c68e","system_id":"levelo_inurba_marseille","lat":43.30596,"lon":5.40136,"is_reserved":false,"is_disabled":false,"rental_uris":{"android":"levelo://app?vid=12b446d5-f76b-4158-af75-29a23d10c68e","ios":"levelo://app?vid=12b446d5-f76b-4158-af75-29a23d10c68e"},"vehicle_type_id":"4","last_reported":1739693457,"current_range_meters":26800,"station_id":"","pricing_plan_id":"cebpf4jnsgd1na2vs0mg"},{"bike_id":"b34c6303-752a-46a1-93ad-ddbc991e20b6","system_id":"levelo_inurba_marseille","lat":43.23072,"lon":5.3549,"is_reserved":false,"is_disabled":false,"rental_uris":{"android":"levelo://app?vid=b34c6303-752a-46a1-93ad-ddbc991e20b6","ios":"levelo://app?vid=b34c6303-752a-46a1-93ad-ddbc991e20b6"},"vehicle_type_id":"4","last_reported":1739693457,"current_range_meters":35200,"station_id":"cpo3342slgdg3j2ifvpg","pricing_plan_id":"cebpf4jnsgd1na2vs0mg"},{"bike_id":"f7abcf74-16eb-4369-b6b8-ac0e795f9129","system_id":"levelo_inurba_marseille","lat":43.28136,"lon":5.42654,"is_reserved":false,"is_disabled":false,"rental_uris":{"android":"levelo://app?vid=f7abcf74-16eb-4369-b6b8-ac0e795f9129","ios":"levelo://app?vid=f7abcf74-16eb-4369-b6b8-ac0e795f9129"},"vehicle_type_id":"4","last_reported":1739693457,"current_range_meters":28800,"station_id":"ce4bhnh2rcd13ifvqgug","pricing_plan_id":"cebpf4jnsgd1na2vs0mg"},{"bike_id":"58f90898-7499-443b-a458-e2c59058430b","system_id":"levelo_inurba_marseille","lat":43.24063,"lon":5.37757,"is_reserved":false,"is_disabled":false,"rental_uris":{"android":"levelo://app?vid=58f90898-7499-443b-a458-e2c59058430b","ios":"levelo://app?vid=58f90898-7499-443b-a458-e2c59058430b"},"vehicle_type_id":"4","last_reported":1739693457,"current_range_meters":38800,"station_id":"ce4bhnp2rcd13ifvqgvg","pricing_plan_id":"cebpf4jnsgd1na2vs0mg"},{"bike_id":"bed4de35-ef09-4f9f-a13d-845fdf520d58","system_id":"levelo_inurba_marseille","lat":43.27482,"lon":5.41514,"is_reserved":false,"is_disabled":false,"rental_uris":{"android":"levelo://app?vid=bed4de35-ef09-4f9f-a13d-845fdf520d58","ios":"levelo://app?vid=bed4de35-ef09-4f9f-a13d-845fdf520d58"},"vehicle_type_id":"4","last_reported":1739693457,"current_range_meters":8400,"station_id":"","pricing_plan_id":"cebpf4jnsgd1na2vs0mg"},{"bike_id":"2821d2ff-3fc8-480e-81a3-1928b04e4a1d","system_id":"levelo_inurba_marseille","lat":43.31275,"lon":5.39716,"is_reserved":false,"is_disabled":false,"rental_uris":{"android":"levelo://app?vid=2821d2ff-3fc8-480e-81a3-1928b04e4a1d","ios":"levelo://app?vid=2821d2ff-3fc8-480e-81a3-1928b04e4a1d"},"vehicle_type_id":"4","last_reported":1739693457,"current_range_meters":7200,"station_id":"","pricing_plan_id":"cebpf4jnsgd1na2vs0mg"},{"bike_id":"ed72e317-b0f2-47df-a27f-f0a79f848886","system_id":"levelo_inurba_marseille","lat":43.2789,"lon":5.37998,"is_reserved":false,"is_disabled":false,"rental_uris":{"android":"levelo://app?vid=ed72e317-b0f2-47df-a27f-f0a79f848886","ios":"levelo://app?vid=ed72e317-b0f2-47df-a27f-f0a79f848886"},"vehicle_type_id":"4","last_reported":1739693457,"current_range_meters":38800,"station_id":"ce4bhf92rcd13ifvqf50","pricing_plan_id":"cebpf4jnsgd1na2vs0mg"},{"bike_id":"733b5e87-b364-4f07-9fd3-5df8261cb7c5","system_id":"levelo_inurba_marseille","lat":43.288552,"lon":5.393141,"is_reserved":false,"is_disabled":false,"rental_uris":{"android":"levelo://app?vid=733b5e87-b364-4f07-9fd3-5df8261cb7c5","ios":"levelo://app?vid=733b5e87-b364-4f07-9fd3-5df8261cb7c5"},"vehicle_type_id":"4","last_reported":1739693457,"current_range_meters":20800,"station_id":"ce4bh2p2rcd13ifvqdi0","pricing_plan_id":"cebpf4jnsgd1na2vs0mg"},{"bike_id":"4596b24e-dd41-4060-813c-4788cbea1bcb","system_id":"levelo_inurba_marseille","lat":43.297084,"lon":5.376976,"is_reserved":false,"is_disabled":false,"rental_uris":{"android":"levelo://app?vid=4596b24e-dd41-4060-813c-4788cbea1bcb","ios":"levelo://app?vid=4596b24e-dd41-4060-813c-4788cbea1bcb"},"vehicle_type_id":"4","last_reported":1739693457,"current_range_meters":30800,"station_id":"ce4bgkh2rcd13ifvqbl0","pricing_plan_id":"cebpf4jnsgd1na2vs0mg"},{"bike_id":"bcaf8af6-c642-49c0-a3a2-1964c4eaa3d3","system_id":"levelo_inurba_marseille","lat":43.251144,"lon":5.403192,"is_reserved":false,"is_disabled":false,"rental_uris":{"android":"levelo://app?vid=bcaf8af6-c642-49c0-a3a2-1964c4eaa3d3","ios":"levelo://app?vid=bcaf8af6-c642-49c0-a3a2-1964c4eaa3d3"},"vehicle_type_id":"4","last_reported":1739693457,"current_range_meters":10000,"station_id":"ce4bhlh2rcd13ifvqgig","pricing_plan_id":"cebpf4jnsgd1na2vs0mg"},{"bike_id":"51675de5-e2ea-4055-9c2a-3ccd84896301","system_id":"levelo_inurba_marseille","lat":43.30214,"lon":5.39486,"is_reserved":false,"is_disabled":false,"rental_uris":{"android":"levelo://app?vid=51675de5-e2ea-4055-9c2a-3ccd84896301","ios":"levelo://app?vid=51675de5-e2ea-4055-9c2a-3ccd84896301"},"vehicle_type_id":"4","last_reported":1739693457,"current_range_meters":29600,"station_id":"ce4bh0p2rcd13ifvqd70","pricing_plan_id":"cebpf4jnsgd1na2vs0mg"},{"bike_id":"940ffad1-8d03-466c-a361-1bdb8859eb0e","system_id":"levelo_inurba_marseille","lat":43.28623,"lon":5.35114,"is_reserved":false,"is_disabled":true,"rental_uris":{"android":"levelo://app?vid=940ffad1-8d03-466c-a361-1bdb8859eb0e","ios":"levelo://app?vid=940ffad1-8d03-466c-a361-1bdb8859eb0e"},"vehicle_type_id":"4","last_reported":1739693457,"current_range_meters":0,"station_id":"ce4bhch2rcd13ifvqeug","pricing_plan_id":"cebpf4jnsgd1na2vs0mg"},{"bike_id":"71ee7552-6225-4f21-8301-72c964ebec2d","system_id":"levelo_inurba_marseille","lat":43.2667,"lon":5.38251,"is_reserved":false,"is_disabled":true,"rental_uris":{"android":"levelo://app?vid=71ee7552-6225-4f21-8301-72c964ebec2d","ios":"levelo://app?vid=71ee7552-6225-4f21-8301-72c964ebec2d"},"vehicle_type_id":"4","last_reported":1739693457,"current_range_meters":4800,"station_id":"ce4bhg92rcd13ifvqf90","pricing_plan_id":"cebpf4jnsgd1na2vs0mg"},{"bike_id":"7dbd5b9a-43cb-483c-a00a-ce13856c7714","system_id":"levelo_inurba_marseille","lat":43.29454,"lon":5.39765,"is_reserved":false,"is_disabled":false,"rental_uris":{"android":"levelo://app?vid=7dbd5b9a-43cb-483c-a00a-ce13856c7714","ios":"levelo://app?vid=7dbd5b9a-43cb-483c-a00a-ce13856c7714"},"vehicle_type_id":"4","last_reported":1739693457,"current_range_meters":39200,"station_id":"ce4bh3h2rcd13ifvqdo0","pricing_plan_id":"cebpf4jnsgd1na2vs0mg"},{"bike_id":"86a75285-7243-40ee-925b-d20bf72a6a49","system_id":"levelo_inurba_marseille","lat":43.29827,"lon":5.36271,"is_reserved":false,"is_disabled":false,"rental_uris":{"android":"levelo://app?vid=86a75285-7243-40ee-925b-d20bf72a6a49","ios":"levelo://app?vid=86a75285-7243-40ee-925b-d20bf72a6a49"},"vehicle_type_id":"4","last_reported":1739693457,"current_range_meters":37600,"station_id":"ce4bgpp2rcd13ifvqc3g","pricing_plan_id":"cebpf4jnsgd1na2vs0mg"},{"bike_id":"1f0657bb-7196-41de-84fc-c834bbf90b28","system_id":"levelo_inurba_marseille","lat":43.28083,"lon":5.39623,"is_reserved":false,"is_disabled":true,"rental_uris":{"android":"levelo://app?vid=1f0657bb-7196-41de-84fc-c834bbf90b28","ios":"levelo://app?vid=1f0657bb-7196-41de-84fc-c834bbf90b28"},"vehicle_type_id":"4","last_reported":1739693457,"current_range_meters":38800,"station_id":"ce4bho12rcd13ifvqh2g","pricing_plan_id":"cebpf4jnsgd1na2vs0mg"},{"bike_id":"4085957e-a34f-48ec-8023-d0e7a9e56b71","system_id":"levelo_inurba_marseille","lat":43.23056,"lon":5.35494,"is_reserved":false,"is_disabled":false,"rental_uris":{"android":"levelo://app?vid=4085957e-a34f-48ec-8023-d0e7a9e56b71","ios":"levelo://app?vid=4085957e-a34f-48ec-8023-d0e7a9e56b71"},"vehicle_type_id":"4","last_reported":1739693457,"current_range_meters":37600,"station_id":"cpo3342slgdg3j2ifvpg","pricing_plan_id":"cebpf4jnsgd1na2vs0mg"},{"bike_id":"f2109cf1-8d49-4b78-bee1-4b30300bad2d","system_id":"levelo_inurba_marseille","lat":43.30185,"lon":5.36627,"is_reserved":false,"is_disabled":false,"rental_uris":{"android":"levelo://app?vid=f2109cf1-8d49-4b78-bee1-4b30300bad2d","ios":"levelo://app?vid=f2109cf1-8d49-4b78-bee1-4b30300bad2d"},"vehicle_type_id":"4","last_reported":1739693457,"current_range_meters":38800,"station_id":"ce4bgrh2rcd13ifvqc8g","pricing_plan_id":"cebpf4jnsgd1na2vs0mg"},{"bike_id":"7aa83162-9c5d-4ed6-8f35-2d6bbe2f04c1","system_id":"levelo_inurba_marseille","lat":43.2971,"lon":5.37709,"is_reserved":false,"is_disabled":false,"rental_uris":{"android":"levelo://app?vid=7aa83162-9c5d-4ed6-8f35-2d6bbe2f04c1","ios":"levelo://app?vid=7aa83162-9c5d-4ed6-8f35-2d6bbe2f04c1"},"vehicle_type_id":"4","last_reported":1739693457,"current_range_meters":32400,"station_id":"ce4bgkh2rcd13ifvqbl0","pricing_plan_id":"cebpf4jnsgd1na2vs0mg"},{"bike_id":"8172451f-620b-4bb8-91b1-1e4678991019","system_id":"levelo_inurba_marseille","lat":43.281559,"lon":5.426473,"is_reserved":false,"is_disabled":false,"rental_uris":{"android":"levelo://app?vid=8172451f-620b-4bb8-91b1-1e4678991019","ios":"levelo://app?vid=8172451f-620b-4bb8-91b1-1e4678991019"},"vehicle_type_id":"4","last_reported":1739693457,"current_range_meters":37600,"station_id":"ce4bhnh2rcd13ifvqgug","pricing_plan_id":"cebpf4jnsgd1na2vs0mg"},{"bike_id":"d6fdeac0-7252-460c-9b91-9ee63ef09f4e","system_id":"levelo_inurba_marseille","lat":43.292805,"lon":5.401243,"is_reserved":false,"is_disabled":false,"rental_uris":{"android":"levelo://app?vid=d6fdeac0-7252-460c-9b91-9ee63ef09f4e","ios":"levelo://app?vid=d6fdeac0-7252-460c-9b91-9ee63ef09f4e"},"vehicle_type_id":"4","last_reported":1739693457,"current_range_meters":16000,"station_id":"ce4bh312rcd13ifvqdk0","pricing_plan_id":"cebpf4jnsgd1na2vs0mg"},{"bike_id":"1bb282de-7a9b-4949-a763-e4305f74cf66","system_id":"levelo_inurba_marseille","lat":43.2323,"lon":5.38758,"is_reserved":false,"is_disabled":false,"rental_uris":{"android":"levelo://app?vid=1bb282de-7a9b-4949-a763-e4305f74cf66","ios":"levelo://app?vid=1bb282de-7a9b-4949-a763-e4305f74cf66"},"vehicle_type_id":"4","last_reported":1739693457,"current_range_meters":21600,"station_id":"","pricing_plan_id":"cebpf4jnsgd1na2vs0mg"},{"bike_id":"b4501870-b8ed-41e7-9c02-cfe959070884","system_id":"levelo_inurba_marseille","lat":43.24064,"lon":5.37751,"is_reserved":false,"is_disabled":false,"rental_uris":{"android":"levelo://app?vid=b4501870-b8ed-41e7-9c02-cfe959070884","ios":"levelo://app?vid=b4501870-b8ed-41e7-9c02-cfe959070884"},"vehicle_type_id":"4","last_reported":1739693457,"current_range_meters":28800,"station_id":"ce4bhnp2rcd13ifvqgvg","pricing_plan_id":"cebpf4jnsgd1na2vs0mg"},{"bike_id":"39715b54-d64d-41e3-8875-a9955c264132","system_id":"levelo_inurba_marseille","lat":43.26926,"lon":5.38916,"is_reserved":false,"is_disabled":false,"rental_uris":{"android":"levelo://app?vid=39715b54-d64d-41e3-8875-a9955c264132","ios":"levelo://app?vid=39715b54-d64d-41e3-8875-a9955c264132"},"vehicle_type_id":"4","last_reported":1739693457,"current_range_meters":37600,"station_id":"ce4bhhh2rcd13ifvqfl0","pricing_plan_id":"cebpf4jnsgd1na2vs0mg"},{"bike_id":"e60ad64c-d354-4cc9-b4c4-430dc10bce79","system_id":"levelo_inurba_marseille","lat":43.28473,"lon":5.35881,"is_reserved":false,"is_disabled":false,"rental_uris":{"android":"levelo://app?vid=e60ad64c-d354-4cc9-b4c4-430dc10bce79","ios":"levelo://app?vid=e60ad64c-d354-4cc9-b4c4-430dc10bce79"},"vehicle_type_id":"4","last_reported":1739693457,"current_range_meters":4800,"station_id":"ce4bhah2rcd13ifvqei0","pricing_plan_id":"cebpf4jnsgd1na2vs0mg"},{"bike_id":"f92e748a-9f9b-4e54-8084-07e33515f3d5","system_id":"levelo_inurba_marseille","lat":43.27071,"lon":5.39347,"is_reserved":false,"is_disabled":true,"rental_uris":{"android":"levelo://app?vid=f92e748a-9f9b-4e54-8084-07e33515f3d5","ios":"levelo://app?vid=f92e748a-9f9b-4e54-8084-07e33515f3d5"},"vehicle_type_id":"4","last_reported":1739693457,"current_range_meters":0,"station_id":"","pricing_plan_id":"cebpf4jnsgd1na2vs0mg"},{"bike_id":"f8805acd-ccdb-4a5b-be8b-9c3ee1640062","system_id":"levelo_inurba_marseille","lat":43.28844,"lon":5.39293,"is_reserved":false,"is_disabled":false,"rental_uris":{"android":"levelo://app?vid=f8805acd-ccdb-4a5b-be8b-9c3ee1640062","ios":"levelo://app?vid=f8805acd-ccdb-4a5b-be8b-9c3ee1640062"},"vehicle_type_id":"4","last_reported":1739693457,"current_range_meters":3600,"station_id":"ce4bh2p2rcd13ifvqdi0","pricing_plan_id":"cebpf4jnsgd1na2vs0mg"},{"bike_id":"e492ba64-a3b7-45b9-9d45-7f381365f77e","system_id":"levelo_inurba_marseille","lat":43.28266,"lon":5.35072,"is_reserved":false,"is_disabled":false,"rental_uris":{"android":"levelo://app?vid=e492ba64-a3b7-45b9-9d45-7f381365f77e","ios":"levelo://app?vid=e492ba64-a3b7-45b9-9d45-7f381365f77e"},"vehicle_type_id":"4","last_reported":1739693457,"current_range_meters":36400,"station_id":"ce4bhbp2rcd13ifvqerg","pricing_plan_id":"cebpf4jnsgd1na2vs0mg"},{"bike_id":"a41bc1c5-d238-43e3-abb3-4fcf0a480bdc","system_id":"levelo_inurba_marseille","lat":43.28918,"lon":5.36396,"is_reserved":false,"is_disabled":false,"rental_uris":{"android":"levelo://app?vid=a41bc1c5-d238-43e3-abb3-4fcf0a480bdc","ios":"levelo://app?vid=a41bc1c5-d238-43e3-abb3-4fcf0a480bdc"},"vehicle_type_id":"4","last_reported":1739693457,"current_range_meters":28400,"station_id":"ce4bhc92rcd13ifvqetg","pricing_plan_id":"cebpf4jnsgd1na2vs0mg"},{"bike_id":"99c4c5b0-43b8-4473-9c97-42d51a31c13a","system_id":"levelo_inurba_marseille","lat":43.30931,"lon":5.40179,"is_reserved":false,"is_disabled":false,"rental_uris":{"android":"levelo://app?vid=99c4c5b0-43b8-4473-9c97-42d51a31c13a","ios":"levelo://app?vid=99c4c5b0-43b8-4473-9c97-42d51a31c13a"},"vehicle_type_id":"4","last_reported":1739693457,"current_range_meters":28800,"station_id":"ce4bgvp2rcd13ifvqct0","pricing_plan_id":"cebpf4jnsgd1na2vs0mg"},{"bike_id":"bbf61ba2-9a30-4f5a-adfe-4249783a75be","system_id":"levelo_inurba_marseille","lat":43.27995,"lon":5.41648,"is_reserved":false,"is_disabled":false,"rental_uris":{"android":"levelo://app?vid=bbf61ba2-9a30-4f5a-adfe-4249783a75be","ios":"levelo://app?vid=bbf61ba2-9a30-4f5a-adfe-4249783a75be"},"vehicle_type_id":"4","last_reported":1739693457,"current_range_meters":25600,"station_id":"ce4bho12rcd13ifvqh1g","pricing_plan_id":"cebpf4jnsgd1na2vs0mg"},{"bike_id":"542db65b-4c63-46f9-87df-aed33986fb69","system_id":"levelo_inurba_marseille","lat":43.30645,"lon":5.40119,"is_reserved":false,"is_disabled":false,"rental_uris":{"android":"levelo://app?vid=542db65b-4c63-46f9-87df-aed33986fb69","ios":"levelo://app?vid=542db65b-4c63-46f9-87df-aed33986fb69"},"vehicle_type_id":"4","last_reported":1739693457,"current_range_meters":6400,"station_id":"ce4bh112rcd13ifvqda0","pricing_plan_id":"cebpf4jnsgd1na2vs0mg"},{"bike_id":"4dd9a4e0-c137-4560-8761-8f56d3f447a7","system_id":"levelo_inurba_marseille","lat":43.308819,"lon":5.396326,"is_reserved":false,"is_disabled":false,"rental_uris":{"android":"levelo://app?vid=4dd9a4e0-c137-4560-8761-8f56d3f447a7","ios":"levelo://app?vid=4dd9a4e0-c137-4560-8761-8f56d3f447a7"},"vehicle_type_id":"4","last_reported":1739693457,"current_range_meters":20400,"station_id":"ce4bh012rcd13ifvqcv0","pricing_plan_id":"cebpf4jnsgd1na2vs0mg"},{"bike_id":"9cf8e6d9-67b8-441b-8ab4-08ef8560d2b0","system_id":"levelo_inurba_marseille","lat":43.33514,"lon":5.35585,"is_reserved":false,"is_disabled":true,"rental_uris":{"android":"levelo://app?vid=9cf8e6d9-67b8-441b-8ab4-08ef8560d2b0","ios":"levelo://app?vid=9cf8e6d9-67b8-441b-8ab4-08ef8560d2b0"},"vehicle_type_id":"4","last_reported":1739693457,"current_range_meters":0,"station_id":"","pricing_plan_id":"cebpf4jnsgd1na2vs0mg"},{"bike_id":"edf3c825-afeb-495d-879c-98eb7e2cc1b3","system_id":"levelo_inurba_marseille","lat":43.2863,"lon":5.36369,"is_reserved":false,"is_disabled":false,"rental_uris":{"android":"levelo://app?vid=edf3c825-afeb-495d-879c-98eb7e2cc1b3","ios":"levelo://app?vid=edf3c825-afeb-495d-879c-98eb7e2cc1b3"},"vehicle_type_id":"4","last_reported":1739693457,"current_range_meters":38400,"station_id":"ce4bhah2rcd13ifvqej0","pricing_plan_id":"cebpf4jnsgd1na2vs0mg"},{"bike_id":"0c02c842-4f61-4404-a07d-57e5e1b07bc3","system_id":"levelo_inurba_marseille","lat":43.25948,"lon":5.41407,"is_reserved":false,"is_disabled":false,"rental_uris":{"android":"levelo://app?vid=0c02c842-4f61-4404-a07d-57e5e1b07bc3","ios":"levelo://app?vid=0c02c842-4f61-4404-a07d-57e5e1b07bc3"},"vehicle_type_id":"4","last_reported":1739693457,"current_range_meters":24000,"station_id":"","pricing_plan_id":"cebpf4jnsgd1na2vs0mg"},{"bike_id":"4227845b-6aba-4220-8f81-4ad22996427e","system_id":"levelo_inurba_marseille","lat":43.27986,"lon":5.4167,"is_reserved":false,"is_disabled":false,"rental_uris":{"android":"levelo://app?vid=4227845b-6aba-4220-8f81-4ad22996427e","ios":"levelo://app?vid=4227845b-6aba-4220-8f81-4ad22996427e"},"vehicle_type_id":"4","last_reported":1739693457,"current_range_meters":23200,"station_id":"ce4bho12rcd13ifvqh1g","pricing_plan_id":"cebpf4jnsgd1na2vs0mg"},{"bike_id":"e5c24b65-f0fa-4002-a427-8976c2dddfc4","system_id":"levelo_inurba_marseille","lat":43.31318,"lon":5.3971,"is_reserved":false,"is_disabled":true,"rental_uris":{"android":"levelo://app?vid=e5c24b65-f0fa-4002-a427-8976c2dddfc4","ios":"levelo://app?vid=e5c24b65-f0fa-4002-a427-8976c2dddfc4"},"vehicle_type_id":"4","last_reported":1739693457,"current_range_meters":0,"station_id":"ce4bgvp2rcd13ifvqcu0","pricing_plan_id":"cebpf4jnsgd1na2vs0mg"},{"bike_id":"843c1cdc-a175-42b5-be19-e1b9d6757ae2","system_id":"levelo_inurba_marseille","lat":43.24638,"lon":5.3891,"is_reserved":false,"is_disabled":false,"rental_uris":{"android":"levelo://app?vid=843c1cdc-a175-42b5-be19-e1b9d6757ae2","ios":"levelo://app?vid=843c1cdc-a175-42b5-be19-e1b9d6757ae2"},"vehicle_type_id":"4","last_reported":1739693457,"current_range_meters":38400,"station_id":"ce4bhg12rcd13ifvqf60","pricing_plan_id":"cebpf4jnsgd1na2vs0mg"},{"bike_id":"a47a49ff-3d8c-459e-91ff-bddc8c1b5078","system_id":"levelo_inurba_marseille","lat":43.29565,"lon":5.39976,"is_reserved":false,"is_disabled":false,"rental_uris":{"android":"levelo://app?vid=a47a49ff-3d8c-459e-91ff-bddc8c1b5078","ios":"levelo://app?vid=a47a49ff-3d8c-459e-91ff-bddc8c1b5078"},"vehicle_type_id":"4","last_reported":1739693457,"current_range_meters":38000,"station_id":"ce4bh312rcd13ifvqdj0","pricing_plan_id":"cebpf4jnsgd1na2vs0mg"},{"bike_id":"f2cf9381-727b-4085-9440-9f3c94f60922","system_id":"levelo_inurba_marseille","lat":43.24546,"lon":5.395287,"is_reserved":false,"is_disabled":false,"rental_uris":{"android":"levelo://app?vid=f2cf9381-727b-4085-9440-9f3c94f60922","ios":"levelo://app?vid=f2cf9381-727b-4085-9440-9f3c94f60922"},"vehicle_type_id":"4","last_reported":1739693457,"current_range_meters":30800,"station_id":"ce4bhlp2rcd13ifvqgjg","pricing_plan_id":"cebpf4jnsgd1na2vs0mg"},{"bike_id":"46252e49-398c-407a-8202-f65c1512c035","system_id":"levelo_inurba_marseille","lat":43.2841,"lon":5.375162,"is_reserved":false,"is_disabled":false,"rental_uris":{"android":"levelo://app?vid=46252e49-398c-407a-8202-f65c1512c035","ios":"levelo://app?vid=46252e49-398c-407a-8202-f65c1512c035"},"vehicle_type_id":"4","last_reported":1739693457,"current_range_meters":38800,"station_id":"ce4bh412rcd13ifvqds0","pricing_plan_id":"cebpf4jnsgd1na2vs0mg"},{"bike_id":"540bf5a8-5786-4431-b160-b1b1e0ba365f","system_id":"levelo_inurba_marseille","lat":43.29938,"lon":5.40183,"is_reserved":false,"is_disabled":false,"rental_uris":{"android":"levelo://app?vid=540bf5a8-5786-4431-b160-b1b1e0ba365f","ios":"levelo://app?vid=540bf5a8-5786-4431-b160-b1b1e0ba365f"},"vehicle_type_id":"4","last_reported":1739693457,"current_range_meters":36800,"station_id":"","pricing_plan_id":"cebpf4jnsgd1na2vs0mg"},{"bike_id":"98cda1ee-64ab-4524-be3c-951477745525","system_id":"levelo_inurba_marseille","lat":43.288437,"lon":5.393111,"is_reserved":false,"is_disabled":false,"rental_uris":{"android":"levelo://app?vid=98cda1ee-64ab-4524-be3c-951477745525","ios":"levelo://app?vid=98cda1ee-64ab-4524-be3c-951477745525"},"vehicle_type_id":"4","last_reported":1739693457,"current_range_meters":23200,"station_id":"ce4bh2p2rcd13ifvqdi0","pricing_plan_id":"cebpf4jnsgd1na2vs0mg"},{"bike_id":"51ab7186-5043-4bed-baca-73708608a302","system_id":"levelo_inurba_marseille","lat":43.29584,"lon":5.37026,"is_reserved":false,"is_disabled":true,"rental_uris":{"android":"levelo://app?vid=51ab7186-5043-4bed-baca-73708608a302","ios":"levelo://app?vid=51ab7186-5043-4bed-baca-73708608a302"},"vehicle_type_id":"4","last_reported":1739693457,"current_range_meters":0,"station_id":"","pricing_plan_id":"cebpf4jnsgd1na2vs0mg"},{"bike_id":"68eb1e28-9829-469e-a5a1-0a5d1b2aad2b","system_id":"levelo_inurba_marseille","lat":43.24386,"lon":5.37054,"is_reserved":false,"is_disabled":false,"rental_uris":{"android":"levelo://app?vid=68eb1e28-9829-469e-a5a1-0a5d1b2aad2b","ios":"levelo://app?vid=68eb1e28-9829-469e-a5a1-0a5d1b2aad2b"},"vehicle_type_id":"4","last_reported":1739693457,"current_range_meters":24000,"station_id":"ce4bhhh2rcd13ifvqfk0","pricing_plan_id":"cebpf4jnsgd1na2vs0mg"},{"bike_id":"9fdb08b8-1ceb-474a-abf2-04c699884b4a","system_id":"levelo_inurba_marseille","lat":43.23188,"lon":5.35565,"is_reserved":false,"is_disabled":false,"rental_uris":{"android":"levelo://app?vid=9fdb08b8-1ceb-474a-abf2-04c699884b4a","ios":"levelo://app?vid=9fdb08b8-1ceb-474a-abf2-04c699884b4a"},"vehicle_type_id":"4","last_reported":1739693457,"current_range_meters":37600,"station_id":"ce4bhu92rcd13ifvqi70","pricing_plan_id":"cebpf4jnsgd1na2vs0mg"},{"bike_id":"485502f3-3b80-4687-aac8-10dc57118684","system_id":"levelo_inurba_marseille","lat":43.262219,"lon":5.404611,"is_reserved":false,"is_disabled":false,"rental_uris":{"android":"levelo://app?vid=485502f3-3b80-4687-aac8-10dc57118684","ios":"levelo://app?vid=485502f3-3b80-4687-aac8-10dc57118684"},"vehicle_type_id":"4","last_reported":1739693457,"current_range_meters":10000,"station_id":"ce4bhmh2rcd13ifvqgmg","pricing_plan_id":"cebpf4jnsgd1na2vs0mg"},{"bike_id":"e16b3a6b-3656-461f-bbf9-195601822b7e","system_id":"levelo_inurba_marseille","lat":43.30949,"lon":5.39056,"is_reserved":false,"is_disabled":false,"rental_uris":{"android":"levelo://app?vid=e16b3a6b-3656-461f-bbf9-195601822b7e","ios":"levelo://app?vid=e16b3a6b-3656-461f-bbf9-195601822b7e"},"vehicle_type_id":"4","last_reported":1739693457,"current_range_meters":38800,"station_id":"ce4bgup2rcd13ifvqco0","pricing_plan_id":"cebpf4jnsgd1na2vs0mg"},{"bike_id":"747738f1-db73-4ea5-8dc8-39e0154843fb","system_id":"levelo_inurba_marseille","lat":43.30929,"lon":5.40179,"is_reserved":false,"is_disabled":false,"rental_uris":{"android":"levelo://app?vid=747738f1-db73-4ea5-8dc8-39e0154843fb","ios":"levelo://app?vid=747738f1-db73-4ea5-8dc8-39e0154843fb"},"vehicle_type_id":"4","last_reported":1739693457,"current_range_meters":30000,"station_id":"ce4bgvp2rcd13ifvqct0","pricing_plan_id":"cebpf4jnsgd1na2vs0mg"},{"bike_id":"2d744cd1-8083-459a-b942-57bd28387959","system_id":"levelo_inurba_marseille","lat":43.25562,"lon":5.38256,"is_reserved":false,"is_disabled":false,"rental_uris":{"android":"levelo://app?vid=2d744cd1-8083-459a-b942-57bd28387959","ios":"levelo://app?vid=2d744cd1-8083-459a-b942-57bd28387959"},"vehicle_type_id":"4","last_reported":1739693457,"current_range_meters":22000,"station_id":"ce4bhih2rcd13ifvqfs0","pricing_plan_id":"cebpf4jnsgd1na2vs0mg"},{"bike_id":"c40e2cb9-b89c-4dbd-956b-535ef79f1d37","system_id":"levelo_inurba_marseille","lat":43.24811,"lon":5.37465,"is_reserved":false,"is_disabled":false,"rental_uris":{"android":"levelo://app?vid=c40e2cb9-b89c-4dbd-956b-535ef79f1d37","ios":"levelo://app?vid=c40e2cb9-b89c-4dbd-956b-535ef79f1d37"},"vehicle_type_id":"4","last_reported":1739693457,"current_range_meters":20000,"station_id":"ce4bhgh2rcd13ifvqfb0","pricing_plan_id":"cebpf4jnsgd1na2vs0mg"},{"bike_id":"621aa48b-6d99-46c4-b886-2c6eb903854e","system_id":"levelo_inurba_marseille","lat":43.29267,"lon":5.36856,"is_reserved":false,"is_disabled":true,"rental_uris":{"android":"levelo://app?vid=621aa48b-6d99-46c4-b886-2c6eb903854e","ios":"levelo://app?vid=621aa48b-6d99-46c4-b886-2c6eb903854e"},"vehicle_type_id":"4","last_reported":1739693457,"current_range_meters":28800,"station_id":"ce4bhbp2rcd13ifvqesg","pricing_plan_id":"cebpf4jnsgd1na2vs0mg"},{"bike_id":"460e673d-f39f-4b14-a48a-f584a9ac2195","system_id":"levelo_inurba_marseille","lat":43.257195,"lon":5.411208,"is_reserved":false,"is_disabled":false,"rental_uris":{"android":"levelo://app?vid=460e673d-f39f-4b14-a48a-f584a9ac2195","ios":"levelo://app?vid=460e673d-f39f-4b14-a48a-f584a9ac2195"},"vehicle_type_id":"4","last_reported":1739693457,"current_range_meters":36400,"station_id":"ce4bhkp2rcd13ifvqgd0","pricing_plan_id":"cebpf4jnsgd1na2vs0mg"},{"bike_id":"52f0172c-5485-4234-ab72-828fe4e1e6ea","system_id":"levelo_inurba_marseille","lat":43.32654,"lon":5.41007,"is_reserved":false,"is_disabled":false,"rental_uris":{"android":"levelo://app?vid=52f0172c-5485-4234-ab72-828fe4e1e6ea","ios":"levelo://app?vid=52f0172c-5485-4234-ab72-828fe4e1e6ea"},"vehicle_type_id":"4","last_reported":1739693457,"current_range_meters":38000,"station_id":"ce4bhpp2rcd13ifvqhgg","pricing_plan_id":"cebpf4jnsgd1na2vs0mg"},{"bike_id":"8ea8a511-fb9d-427a-9d43-0669507fa2be","system_id":"levelo_inurba_marseille","lat":43.32479,"lon":5.36568,"is_reserved":false,"is_disabled":false,"rental_uris":{"android":"levelo://app?vid=8ea8a511-fb9d-427a-9d43-0669507fa2be","ios":"levelo://app?vid=8ea8a511-fb9d-427a-9d43-0669507fa2be"},"vehicle_type_id":"4","last_reported":1739693457,"current_range_meters":39200,"station_id":"ce4bhs12rcd13ifvqhvg","pricing_plan_id":"cebpf4jnsgd1na2vs0mg"},{"bike_id":"4afd05b5-41e1-4012-b907-304d88773920","system_id":"levelo_inurba_marseille","lat":43.239642,"lon":5.366371,"is_reserved":false,"is_disabled":false,"rental_uris":{"android":"levelo://app?vid=4afd05b5-41e1-4012-b907-304d88773920","ios":"levelo://app?vid=4afd05b5-41e1-4012-b907-304d88773920"},"vehicle_type_id":"4","last_reported":1739693457,"current_range_meters":36800,"station_id":"ce4bhi12rcd13ifvqfp0","pricing_plan_id":"cebpf4jnsgd1na2vs0mg"},{"bike_id":"1d2ff744-1c27-4c3c-8edc-e33765db134a","system_id":"levelo_inurba_marseille","lat":43.30882,"lon":5.37195,"is_reserved":false,"is_disabled":false,"rental_uris":{"android":"levelo://app?vid=1d2ff744-1c27-4c3c-8edc-e33765db134a","ios":"levelo://app?vid=1d2ff744-1c27-4c3c-8edc-e33765db134a"},"vehicle_type_id":"4","last_reported":1739693457,"current_range_meters":25200,"station_id":"ce4bguh2rcd13ifvqckg","pricing_plan_id":"cebpf4jnsgd1na2vs0mg"},{"bike_id":"af02ac68-734a-4337-a76f-2d6f15936fdf","system_id":"levelo_inurba_marseille","lat":43.28145,"lon":5.42643,"is_reserved":false,"is_disabled":false,"rental_uris":{"android":"levelo://app?vid=af02ac68-734a-4337-a76f-2d6f15936fdf","ios":"levelo://app?vid=af02ac68-734a-4337-a76f-2d6f15936fdf"},"vehicle_type_id":"4","last_reported":1739693457,"current_range_meters":37600,"station_id":"ce4bhnh2rcd13ifvqgug","pricing_plan_id":"cebpf4jnsgd1na2vs0mg"},{"bike_id":"3d3a1b8e-9ac6-4dbd-9886-9c9cf6ac4982","system_id":"levelo_inurba_marseille","lat":43.31328,"lon":5.39711,"is_reserved":false,"is_disabled":false,"rental_uris":{"android":"levelo://app?vid=3d3a1b8e-9ac6-4dbd-9886-9c9cf6ac4982","ios":"levelo://app?vid=3d3a1b8e-9ac6-4dbd-9886-9c9cf6ac4982"},"vehicle_type_id":"4","last_reported":1739693457,"current_range_meters":38400,"station_id":"ce4bgvp2rcd13ifvqcu0","pricing_plan_id":"cebpf4jnsgd1na2vs0mg"},{"bike_id":"cd28221a-744e-4072-a6e1-a21f15b888d1","system_id":"levelo_inurba_marseille","lat":43.25497,"lon":5.37655,"is_reserved":false,"is_disabled":false,"rental_uris":{"android":"levelo://app?vid=cd28221a-744e-4072-a6e1-a21f15b888d1","ios":"levelo://app?vid=cd28221a-744e-4072-a6e1-a21f15b888d1"},"vehicle_type_id":"4","last_reported":1739693457,"current_range_meters":30800,"station_id":"ce4bhh12rcd13ifvqff0","pricing_plan_id":"cebpf4jnsgd1na2vs0mg"},{"bike_id":"2229140b-0040-47ab-b57a-ad864d16aba9","system_id":"levelo_inurba_marseille","lat":43.28691,"lon":5.4,"is_reserved":false,"is_disabled":false,"rental_uris":{"android":"levelo://app?vid=2229140b-0040-47ab-b57a-ad864d16aba9","ios":"levelo://app?vid=2229140b-0040-47ab-b57a-ad864d16aba9"},"vehicle_type_id":"4","last_reported":1739693457,"current_range_meters":36800,"station_id":"ce4bho92rcd13ifvqh3g","pricing_plan_id":"cebpf4jnsgd1na2vs0mg"},{"bike_id":"d8a96f65-874d-4ded-804a-18e2f0656d8a","system_id":"levelo_inurba_marseille","lat":43.28623,"lon":5.35117,"is_reserved":false,"is_disabled":false,"rental_uris":{"android":"levelo://app?vid=d8a96f65-874d-4ded-804a-18e2f0656d8a","ios":"levelo://app?vid=d8a96f65-874d-4ded-804a-18e2f0656d8a"},"vehicle_type_id":"4","last_reported":1739693457,"current_range_meters":34800,"station_id":"ce4bhch2rcd13ifvqeug","pricing_plan_id":"cebpf4jnsgd1na2vs0mg"},{"bike_id":"3ce3dae2-ed5f-43cb-bad9-b317ce2471d9","system_id":"levelo_inurba_marseille","lat":43.24819,"lon":5.37454,"is_reserved":false,"is_disabled":false,"rental_uris":{"android":"levelo://app?vid=3ce3dae2-ed5f-43cb-bad9-b317ce2471d9","ios":"levelo://app?vid=3ce3dae2-ed5f-43cb-bad9-b317ce2471d9"},"vehicle_type_id":"4","last_reported":1739693457,"current_range_meters":38000,"station_id":"ce4bhgh2rcd13ifvqfb0","pricing_plan_id":"cebpf4jnsgd1na2vs0mg"},{"bike_id":"b9e97b6e-67ae-41fc-bb3a-88f0580c2a2a","system_id":"levelo_inurba_marseille","lat":43.29273,"lon":5.36852,"is_reserved":false,"is_disabled":false,"rental_uris":{"android":"levelo://app?vid=b9e97b6e-67ae-41fc-bb3a-88f0580c2a2a","ios":"levelo://app?vid=b9e97b6e-67ae-41fc-bb3a-88f0580c2a2a"},"vehicle_type_id":"4","last_reported":1739693457,"current_range_meters":33200,"station_id":"ce4bhbp2rcd13ifvqesg","pricing_plan_id":"cebpf4jnsgd1na2vs0mg"},{"bike_id":"397f7144-3e20-4f61-9149-2720265fc375","system_id":"levelo_inurba_marseille","lat":43.24054,"lon":5.37765,"is_reserved":false,"is_disabled":false,"rental_uris":{"android":"levelo://app?vid=397f7144-3e20-4f61-9149-2720265fc375","ios":"levelo://app?vid=397f7144-3e20-4f61-9149-2720265fc375"},"vehicle_type_id":"4","last_reported":1739693457,"current_range_meters":36000,"station_id":"ce4bhnp2rcd13ifvqgvg","pricing_plan_id":"cebpf4jnsgd1na2vs0mg"},{"bike_id":"2f686241-ccea-4d99-a1d4-35e50e57fcbc","system_id":"levelo_inurba_marseille","lat":43.30148,"lon":5.3809,"is_reserved":false,"is_disabled":false,"rental_uris":{"android":"levelo://app?vid=2f686241-ccea-4d99-a1d4-35e50e57fcbc","ios":"levelo://app?vid=2f686241-ccea-4d99-a1d4-35e50e57fcbc"},"vehicle_type_id":"4","last_reported":1739693457,"current_range_meters":27600,"station_id":"ce4bgjp2rcd13ifvqbh0","pricing_plan_id":"cebpf4jnsgd1na2vs0mg"},{"bike_id":"d22c0354-a53f-4a52-be5a-3deea4eca1e3","system_id":"levelo_inurba_marseille","lat":43.31239,"lon":5.36848,"is_reserved":false,"is_disabled":false,"rental_uris":{"android":"levelo://app?vid=d22c0354-a53f-4a52-be5a-3deea4eca1e3","ios":"levelo://app?vid=d22c0354-a53f-4a52-be5a-3deea4eca1e3"},"vehicle_type_id":"4","last_reported":1739693457,"current_range_meters":38800,"station_id":"ce4bgl92rcd13ifvqbq0","pricing_plan_id":"cebpf4jnsgd1na2vs0mg"},{"bike_id":"561c6c76-a6da-48c4-9ca0-fc5f4ea5945b","system_id":"levelo_inurba_marseille","lat":43.29757,"lon":5.38121,"is_reserved":false,"is_disabled":true,"rental_uris":{"android":"levelo://app?vid=561c6c76-a6da-48c4-9ca0-fc5f4ea5945b","ios":"levelo://app?vid=561c6c76-a6da-48c4-9ca0-fc5f4ea5945b"},"vehicle_type_id":"4","last_reported":1739693457,"current_range_meters":0,"station_id":"","pricing_plan_id":"cebpf4jnsgd1na2vs0mg"},{"bike_id":"391408fa-4661-4fa3-8f76-e7bcc0045315","system_id":"levelo_inurba_marseille","lat":43.28142,"lon":5.42649,"is_reserved":false,"is_disabled":false,"rental_uris":{"android":"levelo://app?vid=391408fa-4661-4fa3-8f76-e7bcc0045315","ios":"levelo://app?vid=391408fa-4661-4fa3-8f76-e7bcc0045315"},"vehicle_type_id":"4","last_reported":1739693457,"current_range_meters":38400,"station_id":"ce4bhnh2rcd13ifvqgug","pricing_plan_id":"cebpf4jnsgd1na2vs0mg"},{"bike_id":"fca13a97-260e-4b7d-93d2-a525c063c174","system_id":"levelo_inurba_marseille","lat":43.284378,"lon":5.391856,"is_reserved":false,"is_disabled":false,"rental_uris":{"android":"levelo://app?vid=fca13a97-260e-4b7d-93d2-a525c063c174","ios":"levelo://app?vid=fca13a97-260e-4b7d-93d2-a525c063c174"},"vehicle_type_id":"4","last_reported":1739693457,"current_range_meters":20400,"station_id":"ce4bhoh2rcd13ifvqh5g","pricing_plan_id":"cebpf4jnsgd1na2vs0mg"},{"bike_id":"9d7c84b1-5e85-40b5-9214-0ea5f354ecac","system_id":"levelo_inurba_marseille","lat":43.28581,"lon":5.38497,"is_reserved":false,"is_disabled":false,"rental_uris":{"android":"levelo://app?vid=9d7c84b1-5e85-40b5-9214-0ea5f354ecac","ios":"levelo://app?vid=9d7c84b1-5e85-40b5-9214-0ea5f354ecac"},"vehicle_type_id":"4","last_reported":1739693457,"current_range_meters":10800,"station_id":"","pricing_plan_id":"cebpf4jnsgd1na2vs0mg"},{"bike_id":"022c45bb-24ec-40e4-96c1-c93674470ea9","system_id":"levelo_inurba_marseille","lat":43.30933,"lon":5.40163,"is_reserved":false,"is_disabled":false,"rental_uris":{"android":"levelo://app?vid=022c45bb-24ec-40e4-96c1-c93674470ea9","ios":"levelo://app?vid=022c45bb-24ec-40e4-96c1-c93674470ea9"},"vehicle_type_id":"4","last_reported":1739693457,"current_range_meters":30000,"station_id":"ce4bgvp2rcd13ifvqct0","pricing_plan_id":"cebpf4jnsgd1na2vs0mg"},{"bike_id":"d505ae6b-8401-49d2-a7e3-85c98bc77f1c","system_id":"levelo_inurba_marseille","lat":43.32365,"lon":5.40616,"is_reserved":false,"is_disabled":false,"rental_uris":{"android":"levelo://app?vid=d505ae6b-8401-49d2-a7e3-85c98bc77f1c","ios":"levelo://app?vid=d505ae6b-8401-49d2-a7e3-85c98bc77f1c"},"vehicle_type_id":"4","last_reported":1739693457,"current_range_meters":20000,"station_id":"ce4bhq92rcd13ifvqhjg","pricing_plan_id":"cebpf4jnsgd1na2vs0mg"},{"bike_id":"d4d36247-2aab-4add-8265-c91892033971","system_id":"levelo_inurba_marseille","lat":43.278,"lon":5.40719,"is_reserved":false,"is_disabled":false,"rental_uris":{"android":"levelo://app?vid=d4d36247-2aab-4add-8265-c91892033971","ios":"levelo://app?vid=d4d36247-2aab-4add-8265-c91892033971"},"vehicle_type_id":"4","last_reported":1739693457,"current_range_meters":18800,"station_id":"ce4bhnh2rcd13ifvqgtg","pricing_plan_id":"cebpf4jnsgd1na2vs0mg"},{"bike_id":"6408b994-ae56-4e32-95b9-cb0502299b0f","system_id":"levelo_inurba_marseille","lat":43.29559,"lon":5.4228,"is_reserved":false,"is_disabled":false,"rental_uris":{"android":"levelo://app?vid=6408b994-ae56-4e32-95b9-cb0502299b0f","ios":"levelo://app?vid=6408b994-ae56-4e32-95b9-cb0502299b0f"},"vehicle_type_id":"4","last_reported":1739693457,"current_range_meters":38400,"station_id":"ce4bhph2rcd13ifvqhdg","pricing_plan_id":"cebpf4jnsgd1na2vs0mg"},{"bike_id":"1196a9d6-675a-4454-8f43-1f67f9fb2664","system_id":"levelo_inurba_marseille","lat":43.27566,"lon":5.38427,"is_reserved":false,"is_disabled":false,"rental_uris":{"android":"levelo://app?vid=1196a9d6-675a-4454-8f43-1f67f9fb2664","ios":"levelo://app?vid=1196a9d6-675a-4454-8f43-1f67f9fb2664"},"vehicle_type_id":"4","last_reported":1739693457,"current_range_meters":39200,"station_id":"ce4bhh92rcd13ifvqfi0","pricing_plan_id":"cebpf4jnsgd1na2vs0mg"},{"bike_id":"982c499f-f482-40de-b19f-0c738b7d10ae","system_id":"levelo_inurba_marseille","lat":43.24822,"lon":5.3746,"is_reserved":false,"is_disabled":false,"rental_uris":{"android":"levelo://app?vid=982c499f-f482-40de-b19f-0c738b7d10ae","ios":"levelo://app?vid=982c499f-f482-40de-b19f-0c738b7d10ae"},"vehicle_type_id":"4","last_reported":1739693457,"current_range_meters":38800,"station_id":"ce4bhgh2rcd13ifvqfb0","pricing_plan_id":"cebpf4jnsgd1na2vs0mg"},{"bike_id":"98f62326-8a26-4889-8233-3fa661e57e03","system_id":"levelo_inurba_marseille","lat":43.251031,"lon":5.403194,"is_reserved":false,"is_disabled":false,"rental_uris":{"android":"levelo://app?vid=98f62326-8a26-4889-8233-3fa661e57e03","ios":"levelo://app?vid=98f62326-8a26-4889-8233-3fa661e57e03"},"vehicle_type_id":"4","last_reported":1739693457,"current_range_meters":8400,"station_id":"ce4bhlh2rcd13ifvqgig","pricing_plan_id":"cebpf4jnsgd1na2vs0mg"},{"bike_id":"0960fa71-3388-4560-baa3-f62bc6c4afcf","system_id":"levelo_inurba_marseille","lat":43.25866,"lon":5.39904,"is_reserved":false,"is_disabled":false,"rental_uris":{"android":"levelo://app?vid=0960fa71-3388-4560-baa3-f62bc6c4afcf","ios":"levelo://app?vid=0960fa71-3388-4560-baa3-f62bc6c4afcf"},"vehicle_type_id":"4","last_reported":1739693457,"current_range_meters":32400,"station_id":"ce4bhl92rcd13ifvqghg","pricing_plan_id":"cebpf4jnsgd1na2vs0mg"},{"bike_id":"3946f5ca-2186-4840-91ed-23e88124eb2d","system_id":"levelo_inurba_marseille","lat":43.29369,"lon":5.37833,"is_reserved":false,"is_disabled":false,"rental_uris":{"android":"levelo://app?vid=3946f5ca-2186-4840-91ed-23e88124eb2d","ios":"levelo://app?vid=3946f5ca-2186-4840-91ed-23e88124eb2d"},"vehicle_type_id":"4","last_reported":1739693457,"current_range_meters":27600,"station_id":"ce4bgjh2rcd13ifvqbf0","pricing_plan_id":"cebpf4jnsgd1na2vs0mg"},{"bike_id":"672b461d-a30e-43b2-a386-19cfee653252","system_id":"levelo_inurba_marseille","lat":43.30213,"lon":5.39463,"is_reserved":false,"is_disabled":false,"rental_uris":{"android":"levelo://app?vid=672b461d-a30e-43b2-a386-19cfee653252","ios":"levelo://app?vid=672b461d-a30e-43b2-a386-19cfee653252"},"vehicle_type_id":"4","last_reported":1739693457,"current_range_meters":21600,"station_id":"ce4bh0p2rcd13ifvqd70","pricing_plan_id":"cebpf4jnsgd1na2vs0mg"},{"bike_id":"265ccf22-a162-4f39-8e8c-a647f59c9078","system_id":"levelo_inurba_marseille","lat":43.24659,"lon":5.38172,"is_reserved":false,"is_disabled":false,"rental_uris":{"android":"levelo://app?vid=265ccf22-a162-4f39-8e8c-a647f59c9078","ios":"levelo://app?vid=265ccf22-a162-4f39-8e8c-a647f59c9078"},"vehicle_type_id":"4","last_reported":1739693457,"current_range_meters":27600,"station_id":"ce4bhih2rcd13ifvqfr0","pricing_plan_id":"cebpf4jnsgd1na2vs0mg"},{"bike_id":"4e1f36bf-920b-407f-bd8e-e12200457304","system_id":"levelo_inurba_marseille","lat":43.27816,"lon":5.40716,"is_reserved":false,"is_disabled":false,"rental_uris":{"android":"levelo://app?vid=4e1f36bf-920b-407f-bd8e-e12200457304","ios":"levelo://app?vid=4e1f36bf-920b-407f-bd8e-e12200457304"},"vehicle_type_id":"4","last_reported":1739693457,"current_range_meters":38800,"station_id":"ce4bhnh2rcd13ifvqgtg","pricing_plan_id":"cebpf4jnsgd1na2vs0mg"},{"bike_id":"7df33989-9cd1-4583-a90f-25c190f648b5","system_id":"levelo_inurba_marseille","lat":43.29382,"lon":5.3862,"is_reserved":false,"is_disabled":false,"rental_uris":{"android":"levelo://app?vid=7df33989-9cd1-4583-a90f-25c190f648b5","ios":"levelo://app?vid=7df33989-9cd1-4583-a90f-25c190f648b5"},"vehicle_type_id":"4","last_reported":1739693457,"current_range_meters":30400,"station_id":"ce4bh2h2rcd13ifvqdh0","pricing_plan_id":"cebpf4jnsgd1na2vs0mg"},{"bike_id":"cc85b5db-b7bb-415b-a4fe-6b7e1c8bef4f","system_id":"levelo_inurba_marseille","lat":43.28023,"lon":5.36948,"is_reserved":false,"is_disabled":false,"rental_uris":{"android":"levelo://app?vid=cc85b5db-b7bb-415b-a4fe-6b7e1c8bef4f","ios":"levelo://app?vid=cc85b5db-b7bb-415b-a4fe-6b7e1c8bef4f"},"vehicle_type_id":"4","last_reported":1739693457,"current_range_meters":39200,"station_id":"ce4bha12rcd13ifvqef0","pricing_plan_id":"cebpf4jnsgd1na2vs0mg"},{"bike_id":"20dca62c-279f-4d77-befc-f9aa410b4d31","system_id":"levelo_inurba_marseille","lat":43.24663,"lon":5.38202,"is_reserved":false,"is_disabled":false,"rental_uris":{"android":"levelo://app?vid=20dca62c-279f-4d77-befc-f9aa410b4d31","ios":"levelo://app?vid=20dca62c-279f-4d77-befc-f9aa410b4d31"},"vehicle_type_id":"4","last_reported":1739693457,"current_range_meters":38800,"station_id":"ce4bhih2rcd13ifvqfr0","pricing_plan_id":"cebpf4jnsgd1na2vs0mg"},{"bike_id":"b93a0029-9d42-4a9c-abf3-95b0ec6f2a33","system_id":"levelo_inurba_marseille","lat":43.26943,"lon":5.40256,"is_reserved":false,"is_disabled":false,"rental_uris":{"android":"levelo://app?vid=b93a0029-9d42-4a9c-abf3-95b0ec6f2a33","ios":"levelo://app?vid=b93a0029-9d42-4a9c-abf3-95b0ec6f2a33"},"vehicle_type_id":"4","last_reported":1739693457,"current_range_meters":37600,"station_id":"cjm6bp8fraef2m0cb0m0","pricing_plan_id":"cebpf4jnsgd1na2vs0mg"},{"bike_id":"c7181c01-5767-4206-a2d3-43368915c75f","system_id":"levelo_inurba_marseille","lat":43.297933,"lon":5.393431,"is_reserved":false,"is_disabled":false,"rental_uris":{"android":"levelo://app?vid=c7181c01-5767-4206-a2d3-43368915c75f","ios":"levelo://app?vid=c7181c01-5767-4206-a2d3-43368915c75f"},"vehicle_type_id":"4","last_reported":1739693457,"current_range_meters":38000,"station_id":"chh1huq6cuj3fo74tm60","pricing_plan_id":"cebpf4jnsgd1na2vs0mg"},{"bike_id":"fbb2bba8-54ec-4be3-8af5-67a9482d1afd","system_id":"levelo_inurba_marseille","lat":43.28567,"lon":5.39519,"is_reserved":false,"is_disabled":false,"rental_uris":{"android":"levelo://app?vid=fbb2bba8-54ec-4be3-8af5-67a9482d1afd","ios":"levelo://app?vid=fbb2bba8-54ec-4be3-8af5-67a9482d1afd"},"vehicle_type_id":"4","last_reported":1739693457,"current_range_meters":36000,"station_id":"ce4bh292rcd13ifvqdg0","pricing_plan_id":"cebpf4jnsgd1na2vs0mg"},{"bike_id":"4f94d3ea-2fa8-406d-ac76-1cdda1cdfddb","system_id":"levelo_inurba_marseille","lat":43.32498,"lon":5.36564,"is_reserved":false,"is_disabled":false,"rental_uris":{"android":"levelo://app?vid=4f94d3ea-2fa8-406d-ac76-1cdda1cdfddb","ios":"levelo://app?vid=4f94d3ea-2fa8-406d-ac76-1cdda1cdfddb"},"vehicle_type_id":"4","last_reported":1739693457,"current_range_meters":32000,"station_id":"ce4bhs12rcd13ifvqhvg","pricing_plan_id":"cebpf4jnsgd1na2vs0mg"},{"bike_id":"72526c7a-bad2-48be-9eb5-30027376ec95","system_id":"levelo_inurba_marseille","lat":43.23183,"lon":5.3557,"is_reserved":false,"is_disabled":false,"rental_uris":{"android":"levelo://app?vid=72526c7a-bad2-48be-9eb5-30027376ec95","ios":"levelo://app?vid=72526c7a-bad2-48be-9eb5-30027376ec95"},"vehicle_type_id":"4","last_reported":1739693457,"current_range_meters":38000,"station_id":"ce4bhu92rcd13ifvqi70","pricing_plan_id":"cebpf4jnsgd1na2vs0mg"},{"bike_id":"556c1d6d-667a-404b-9e60-1953c9298af3","system_id":"levelo_inurba_marseille","lat":43.28613,"lon":5.35121,"is_reserved":false,"is_disabled":false,"rental_uris":{"android":"levelo://app?vid=556c1d6d-667a-404b-9e60-1953c9298af3","ios":"levelo://app?vid=556c1d6d-667a-404b-9e60-1953c9298af3"},"vehicle_type_id":"4","last_reported":1739693457,"current_range_meters":8000,"station_id":"ce4bhch2rcd13ifvqeug","pricing_plan_id":"cebpf4jnsgd1na2vs0mg"},{"bike_id":"208f6fa9-d018-4d26-9e12-c220cc22c78a","system_id":"levelo_inurba_marseille","lat":43.29786,"lon":5.39352,"is_reserved":false,"is_disabled":false,"rental_uris":{"android":"levelo://app?vid=208f6fa9-d018-4d26-9e12-c220cc22c78a","ios":"levelo://app?vid=208f6fa9-d018-4d26-9e12-c220cc22c78a"},"vehicle_type_id":"4","last_reported":1739693457,"current_range_meters":38000,"station_id":"chh1huq6cuj3fo74tm60","pricing_plan_id":"cebpf4jnsgd1na2vs0mg"},{"bike_id":"917b1dc0-adb2-4903-84ef-22990e0daa55","system_id":"levelo_inurba_marseille","lat":43.30418,"lon":5.41295,"is_reserved":false,"is_disabled":false,"rental_uris":{"android":"levelo://app?vid=917b1dc0-adb2-4903-84ef-22990e0daa55","ios":"levelo://app?vid=917b1dc0-adb2-4903-84ef-22990e0daa55"},"vehicle_type_id":"4","last_reported":1739693457,"current_range_meters":34000,"station_id":"ce4bhop2rcd13ifvqh8g","pricing_plan_id":"cebpf4jnsgd1na2vs0mg"},{"bike_id":"d40731c3-185c-4afc-b30b-3965bcf00f5f","system_id":"levelo_inurba_marseille","lat":43.31477,"lon":5.37316,"is_reserved":false,"is_disabled":false,"rental_uris":{"android":"levelo://app?vid=d40731c3-185c-4afc-b30b-3965bcf00f5f","ios":"levelo://app?vid=d40731c3-185c-4afc-b30b-3965bcf00f5f"},"vehicle_type_id":"4","last_reported":1739693457,"current_range_meters":35600,"station_id":"ce4bgt12rcd13ifvqcd0","pricing_plan_id":"cebpf4jnsgd1na2vs0mg"},{"bike_id":"03eba1d0-92c1-4e6e-a4d0-7c546f2439c0","system_id":"levelo_inurba_marseille","lat":43.337444,"lon":5.374475,"is_reserved":false,"is_disabled":true,"rental_uris":{"android":"levelo://app?vid=03eba1d0-92c1-4e6e-a4d0-7c546f2439c0","ios":"levelo://app?vid=03eba1d0-92c1-4e6e-a4d0-7c546f2439c0"},"vehicle_type_id":"4","last_reported":1739693457,"current_range_meters":0,"station_id":"","pricing_plan_id":"cebpf4jnsgd1na2vs0mg"},{"bike_id":"2b51a041-a600-4f69-92f9-b5941fc7c79e","system_id":"levelo_inurba_marseille","lat":43.284424,"lon":5.391827,"is_reserved":false,"is_disabled":true,"rental_uris":{"android":"levelo://app?vid=2b51a041-a600-4f69-92f9-b5941fc7c79e","ios":"levelo://app?vid=2b51a041-a600-4f69-92f9-b5941fc7c79e"},"vehicle_type_id":"4","last_reported":1739693457,"current_range_meters":28800,"station_id":"ce4bhoh2rcd13ifvqh5g","pricing_plan_id":"cebpf4jnsgd1na2vs0mg"},{"bike_id":"653b3681-8d49-4063-97bd-177fe11162f9","system_id":"levelo_inurba_marseille","lat":43.25481,"lon":5.37663,"is_reserved":false,"is_disabled":true,"rental_uris":{"android":"levelo://app?vid=653b3681-8d49-4063-97bd-177fe11162f9","ios":"levelo://app?vid=653b3681-8d49-4063-97bd-177fe11162f9"},"vehicle_type_id":"4","last_reported":1739693457,"current_range_meters":33600,"station_id":"ce4bhh12rcd13ifvqff0","pricing_plan_id":"cebpf4jnsgd1na2vs0mg"},{"bike_id":"01d63376-9c77-45ad-85cc-66ef373398fe","system_id":"levelo_inurba_marseille","lat":43.32482,"lon":5.36587,"is_reserved":false,"is_disabled":false,"rental_uris":{"android":"levelo://app?vid=01d63376-9c77-45ad-85cc-66ef373398fe","ios":"levelo://app?vid=01d63376-9c77-45ad-85cc-66ef373398fe"},"vehicle_type_id":"4","last_reported":1739693457,"current_range_meters":38000,"station_id":"ce4bhs12rcd13ifvqhvg","pricing_plan_id":"cebpf4jnsgd1na2vs0mg"},{"bike_id":"561fd983-a1c7-43b8-8f57-a73d312cb67a","system_id":"levelo_inurba_marseille","lat":43.32054,"lon":5.41569,"is_reserved":false,"is_disabled":false,"rental_uris":{"android":"levelo://app?vid=561fd983-a1c7-43b8-8f57-a73d312cb67a","ios":"levelo://app?vid=561fd983-a1c7-43b8-8f57-a73d312cb67a"},"vehicle_type_id":"4","last_reported":1739693457,"current_range_meters":38000,"station_id":"ce4bhq92rcd13ifvqhkg","pricing_plan_id":"cebpf4jnsgd1na2vs0mg"},{"bike_id":"3341758d-d181-4d02-b02c-6161e8816e88","system_id":"levelo_inurba_marseille","lat":43.318979,"lon":5.407398,"is_reserved":false,"is_disabled":false,"rental_uris":{"android":"levelo://app?vid=3341758d-d181-4d02-b02c-6161e8816e88","ios":"levelo://app?vid=3341758d-d181-4d02-b02c-6161e8816e88"},"vehicle_type_id":"4","last_reported":1739693457,"current_range_meters":18000,"station_id":"ce4bhq12rcd13ifvqhig","pricing_plan_id":"cebpf4jnsgd1na2vs0mg"},{"bike_id":"dbf220bb-131a-4509-b32e-690ce6030049","system_id":"levelo_inurba_marseille","lat":43.323993,"lon":5.406634,"is_reserved":false,"is_disabled":false,"rental_uris":{"android":"levelo://app?vid=dbf220bb-131a-4509-b32e-690ce6030049","ios":"levelo://app?vid=dbf220bb-131a-4509-b32e-690ce6030049"},"vehicle_type_id":"4","last_reported":1739693457,"current_range_meters":26800,"station_id":"","pricing_plan_id":"cebpf4jnsgd1na2vs0mg"},{"bike_id":"d7bb91c7-1e6c-4011-85a2-08678dbfba66","system_id":"levelo_inurba_marseille","lat":43.243896,"lon":5.370771,"is_reserved":false,"is_disabled":false,"rental_uris":{"android":"levelo://app?vid=d7bb91c7-1e6c-4011-85a2-08678dbfba66","ios":"levelo://app?vid=d7bb91c7-1e6c-4011-85a2-08678dbfba66"},"vehicle_type_id":"4","last_reported":1739693457,"current_range_meters":38800,"station_id":"ce4bhhh2rcd13ifvqfk0","pricing_plan_id":"cebpf4jnsgd1na2vs0mg"},{"bike_id":"e076a757-de65-497e-b004-8a6913560a59","system_id":"levelo_inurba_marseille","lat":43.31496,"lon":5.37304,"is_reserved":false,"is_disabled":false,"rental_uris":{"android":"levelo://app?vid=e076a757-de65-497e-b004-8a6913560a59","ios":"levelo://app?vid=e076a757-de65-497e-b004-8a6913560a59"},"vehicle_type_id":"4","last_reported":1739693457,"current_range_meters":34000,"station_id":"ce4bgt12rcd13ifvqcd0","pricing_plan_id":"cebpf4jnsgd1na2vs0mg"},{"bike_id":"1163f4f7-255b-46d1-8012-6cca3151d589","system_id":"levelo_inurba_marseille","lat":43.30782,"lon":5.38189,"is_reserved":false,"is_disabled":false,"rental_uris":{"android":"levelo://app?vid=1163f4f7-255b-46d1-8012-6cca3151d589","ios":"levelo://app?vid=1163f4f7-255b-46d1-8012-6cca3151d589"},"vehicle_type_id":"4","last_reported":1739693457,"current_range_meters":25200,"station_id":"ce4bgt12rcd13ifvqce0","pricing_plan_id":"cebpf4jnsgd1na2vs0mg"},{"bike_id":"1f52f3b3-3e4c-4076-9fe5-f4b3bb4b252a","system_id":"levelo_inurba_marseille","lat":43.27524,"lon":5.43514,"is_reserved":false,"is_disabled":true,"rental_uris":{"android":"levelo://app?vid=1f52f3b3-3e4c-4076-9fe5-f4b3bb4b252a","ios":"levelo://app?vid=1f52f3b3-3e4c-4076-9fe5-f4b3bb4b252a"},"vehicle_type_id":"4","last_reported":1739693457,"current_range_meters":0,"station_id":"","pricing_plan_id":"cebpf4jnsgd1na2vs0mg"},{"bike_id":"36e9626a-f0c0-42ed-9b51-b652c3621f49","system_id":"levelo_inurba_marseille","lat":43.2418,"lon":5.39748,"is_reserved":false,"is_disabled":false,"rental_uris":{"android":"levelo://app?vid=36e9626a-f0c0-42ed-9b51-b652c3621f49","ios":"levelo://app?vid=36e9626a-f0c0-42ed-9b51-b652c3621f49"},"vehicle_type_id":"4","last_reported":1739693457,"current_range_meters":18800,"station_id":"ce4bhn12rcd13ifvqgpg","pricing_plan_id":"cebpf4jnsgd1na2vs0mg"},{"bike_id":"7810399a-aba8-4931-8563-2a4f4266c078","system_id":"levelo_inurba_marseille","lat":43.25096,"lon":5.40332,"is_reserved":false,"is_disabled":false,"rental_uris":{"android":"levelo://app?vid=7810399a-aba8-4931-8563-2a4f4266c078","ios":"levelo://app?vid=7810399a-aba8-4931-8563-2a4f4266c078"},"vehicle_type_id":"4","last_reported":1739693457,"current_range_meters":9600,"station_id":"ce4bhlh2rcd13ifvqgig","pricing_plan_id":"cebpf4jnsgd1na2vs0mg"},{"bike_id":"c02630e4-0321-47b6-ac2b-aeaf7b2a8056","system_id":"levelo_inurba_marseille","lat":43.29889,"lon":5.39744,"is_reserved":false,"is_disabled":false,"rental_uris":{"android":"levelo://app?vid=c02630e4-0321-47b6-ac2b-aeaf7b2a8056","ios":"levelo://app?vid=c02630e4-0321-47b6-ac2b-aeaf7b2a8056"},"vehicle_type_id":"4","last_reported":1739693457,"current_range_meters":8000,"station_id":"ce4bh0h2rcd13ifvqd50","pricing_plan_id":"cebpf4jnsgd1na2vs0mg"},{"bike_id":"bd1fbd17-5ecd-4c2a-9290-d1ffd1a70214","system_id":"levelo_inurba_marseille","lat":43.29547,"lon":5.42281,"is_reserved":false,"is_disabled":false,"rental_uris":{"android":"levelo://app?vid=bd1fbd17-5ecd-4c2a-9290-d1ffd1a70214","ios":"levelo://app?vid=bd1fbd17-5ecd-4c2a-9290-d1ffd1a70214"},"vehicle_type_id":"4","last_reported":1739693457,"current_range_meters":28800,"station_id":"ce4bhph2rcd13ifvqhdg","pricing_plan_id":"cebpf4jnsgd1na2vs0mg"},{"bike_id":"6127f497-466e-4a0c-8551-3df79a118870","system_id":"levelo_inurba_marseille","lat":43.30796,"lon":5.38171,"is_reserved":false,"is_disabled":false,"rental_uris":{"android":"levelo://app?vid=6127f497-466e-4a0c-8551-3df79a118870","ios":"levelo://app?vid=6127f497-466e-4a0c-8551-3df79a118870"},"vehicle_type_id":"4","last_reported":1739693457,"current_range_meters":38800,"station_id":"ce4bgt12rcd13ifvqce0","pricing_plan_id":"cebpf4jnsgd1na2vs0mg"},{"bike_id":"25515edf-cc9e-4e85-becb-3fd8e850755e","system_id":"levelo_inurba_marseille","lat":43.28153,"lon":5.42656,"is_reserved":false,"is_disabled":false,"rental_uris":{"android":"levelo://app?vid=25515edf-cc9e-4e85-becb-3fd8e850755e","ios":"levelo://app?vid=25515edf-cc9e-4e85-becb-3fd8e850755e"},"vehicle_type_id":"4","last_reported":1739693457,"current_range_meters":7200,"station_id":"ce4bhnh2rcd13ifvqgug","pricing_plan_id":"cebpf4jnsgd1na2vs0mg"},{"bike_id":"b9ff6eec-0a38-4789-a15e-f3855db0e022","system_id":"levelo_inurba_marseille","lat":43.25117,"lon":5.40337,"is_reserved":false,"is_disabled":false,"rental_uris":{"android":"levelo://app?vid=b9ff6eec-0a38-4789-a15e-f3855db0e022","ios":"levelo://app?vid=b9ff6eec-0a38-4789-a15e-f3855db0e022"},"vehicle_type_id":"4","last_reported":1739693457,"current_range_meters":10800,"station_id":"ce4bhlh2rcd13ifvqgig","pricing_plan_id":"cebpf4jnsgd1na2vs0mg"},{"bike_id":"4f34ac20-13f8-4bff-8fa6-5425328bb98e","system_id":"levelo_inurba_marseille","lat":43.30247,"lon":5.40072,"is_reserved":false,"is_disabled":true,"rental_uris":{"android":"levelo://app?vid=4f34ac20-13f8-4bff-8fa6-5425328bb98e","ios":"levelo://app?vid=4f34ac20-13f8-4bff-8fa6-5425328bb98e"},"vehicle_type_id":"4","last_reported":1739693457,"current_range_meters":25200,"station_id":"ce4bgvh2rcd13ifvqcs0","pricing_plan_id":"cebpf4jnsgd1na2vs0mg"},{"bike_id":"6ebbedc7-a203-43c1-be28-2b5d0c0af955","system_id":"levelo_inurba_marseille","lat":43.27944,"lon":5.40998,"is_reserved":false,"is_disabled":false,"rental_uris":{"android":"levelo://app?vid=6ebbedc7-a203-43c1-be28-2b5d0c0af955","ios":"levelo://app?vid=6ebbedc7-a203-43c1-be28-2b5d0c0af955"},"vehicle_type_id":"4","last_reported":1739693457,"current_range_meters":18000,"station_id":"ce4bhnp2rcd13ifvqh0g","pricing_plan_id":"cebpf4jnsgd1na2vs0mg"},{"bike_id":"a4a8363a-26c6-4744-a8d2-774dbfb44b99","system_id":"levelo_inurba_marseille","lat":43.2762,"lon":5.36108,"is_reserved":false,"is_disabled":false,"rental_uris":{"android":"levelo://app?vid=a4a8363a-26c6-4744-a8d2-774dbfb44b99","ios":"levelo://app?vid=a4a8363a-26c6-4744-a8d2-774dbfb44b99"},"vehicle_type_id":"4","last_reported":1739693457,"current_range_meters":38400,"station_id":"ce4bgj92rcd13ifvqbe0","pricing_plan_id":"cebpf4jnsgd1na2vs0mg"},{"bike_id":"68e091eb-0298-4cb5-b5eb-8dfc36218da6","system_id":"levelo_inurba_marseille","lat":43.23197,"lon":5.3999,"is_reserved":false,"is_disabled":false,"rental_uris":{"android":"levelo://app?vid=68e091eb-0298-4cb5-b5eb-8dfc36218da6","ios":"levelo://app?vid=68e091eb-0298-4cb5-b5eb-8dfc36218da6"},"vehicle_type_id":"4","last_reported":1739693457,"current_range_meters":38000,"station_id":"ce4bhn12rcd13ifvqgqg","pricing_plan_id":"cebpf4jnsgd1na2vs0mg"},{"bike_id":"d63b7867-53a4-4bca-be72-b856d1cbea50","system_id":"levelo_inurba_marseille","lat":43.23953,"lon":5.36658,"is_reserved":false,"is_disabled":false,"rental_uris":{"android":"levelo://app?vid=d63b7867-53a4-4bca-be72-b856d1cbea50","ios":"levelo://app?vid=d63b7867-53a4-4bca-be72-b856d1cbea50"},"vehicle_type_id":"4","last_reported":1739693457,"current_range_meters":21600,"station_id":"ce4bhi12rcd13ifvqfp0","pricing_plan_id":"cebpf4jnsgd1na2vs0mg"},{"bike_id":"67b9e083-4966-492b-9ec6-8c76d84bc7cc","system_id":"levelo_inurba_marseille","lat":43.29907,"lon":5.39747,"is_reserved":false,"is_disabled":false,"rental_uris":{"android":"levelo://app?vid=67b9e083-4966-492b-9ec6-8c76d84bc7cc","ios":"levelo://app?vid=67b9e083-4966-492b-9ec6-8c76d84bc7cc"},"vehicle_type_id":"4","last_reported":1739693457,"current_range_meters":16400,"station_id":"ce4bh0h2rcd13ifvqd50","pricing_plan_id":"cebpf4jnsgd1na2vs0mg"},{"bike_id":"c47616ba-4408-41b4-bfef-d41e880abc31","system_id":"levelo_inurba_marseille","lat":43.23193,"lon":5.39984,"is_reserved":false,"is_disabled":false,"rental_uris":{"android":"levelo://app?vid=c47616ba-4408-41b4-bfef-d41e880abc31","ios":"levelo://app?vid=c47616ba-4408-41b4-bfef-d41e880abc31"},"vehicle_type_id":"4","last_reported":1739693457,"current_range_meters":15200,"station_id":"ce4bhn12rcd13ifvqgqg","pricing_plan_id":"cebpf4jnsgd1na2vs0mg"},{"bike_id":"55201e7b-c86e-4903-ba7d-a7f135f32788","system_id":"levelo_inurba_marseille","lat":43.31531,"lon":5.38053,"is_reserved":false,"is_disabled":false,"rental_uris":{"android":"levelo://app?vid=55201e7b-c86e-4903-ba7d-a7f135f32788","ios":"levelo://app?vid=55201e7b-c86e-4903-ba7d-a7f135f32788"},"vehicle_type_id":"4","last_reported":1739693457,"current_range_meters":39200,"station_id":"ce4bhsp2rcd13ifvqi50","pricing_plan_id":"cebpf4jnsgd1na2vs0mg"},{"bike_id":"c0ffed66-b002-47be-a929-8693b2c46244","system_id":"levelo_inurba_marseille","lat":43.29369,"lon":5.37838,"is_reserved":false,"is_disabled":false,"rental_uris":{"android":"levelo://app?vid=c0ffed66-b002-47be-a929-8693b2c46244","ios":"levelo://app?vid=c0ffed66-b002-47be-a929-8693b2c46244"},"vehicle_type_id":"4","last_reported":1739693457,"current_range_meters":35200,"station_id":"ce4bgjh2rcd13ifvqbf0","pricing_plan_id":"cebpf4jnsgd1na2vs0mg"},{"bike_id":"1a70beae-318b-417c-9b69-06b61a7df44a","system_id":"levelo_inurba_marseille","lat":43.298735,"lon":5.397184,"is_reserved":false,"is_disabled":false,"rental_uris":{"android":"levelo://app?vid=1a70beae-318b-417c-9b69-06b61a7df44a","ios":"levelo://app?vid=1a70beae-318b-417c-9b69-06b61a7df44a"},"vehicle_type_id":"4","last_reported":1739693457,"current_range_meters":25200,"station_id":"ce4bh0h2rcd13ifvqd50","pricing_plan_id":"cebpf4jnsgd1na2vs0mg"},{"bike_id":"02db7a28-fc2d-4a4a-92a0-cec040e64718","system_id":"levelo_inurba_marseille","lat":43.239588,"lon":5.366358,"is_reserved":false,"is_disabled":false,"rental_uris":{"android":"levelo://app?vid=02db7a28-fc2d-4a4a-92a0-cec040e64718","ios":"levelo://app?vid=02db7a28-fc2d-4a4a-92a0-cec040e64718"},"vehicle_type_id":"4","last_reported":1739693457,"current_range_meters":6000,"station_id":"ce4bhi12rcd13ifvqfp0","pricing_plan_id":"cebpf4jnsgd1na2vs0mg"},{"bike_id":"84718404-9f2e-42cc-aceb-1455c391af4a","system_id":"levelo_inurba_marseille","lat":43.28398,"lon":5.37535,"is_reserved":false,"is_disabled":false,"rental_uris":{"android":"levelo://app?vid=84718404-9f2e-42cc-aceb-1455c391af4a","ios":"levelo://app?vid=84718404-9f2e-42cc-aceb-1455c391af4a"},"vehicle_type_id":"4","last_reported":1739693457,"current_range_meters":19200,"station_id":"ce4bh412rcd13ifvqds0","pricing_plan_id":"cebpf4jnsgd1na2vs0mg"},{"bike_id":"6f820518-8b07-484a-8c43-5d5451e338e7","system_id":"levelo_inurba_marseille","lat":43.231995,"lon":5.355585,"is_reserved":false,"is_disabled":false,"rental_uris":{"android":"levelo://app?vid=6f820518-8b07-484a-8c43-5d5451e338e7","ios":"levelo://app?vid=6f820518-8b07-484a-8c43-5d5451e338e7"},"vehicle_type_id":"4","last_reported":1739693457,"current_range_meters":30000,"station_id":"ce4bhu92rcd13ifvqi70","pricing_plan_id":"cebpf4jnsgd1na2vs0mg"},{"bike_id":"4c7d286d-96cb-43d1-939d-54711f1ac4aa","system_id":"levelo_inurba_marseille","lat":43.30593,"lon":5.37244,"is_reserved":false,"is_disabled":false,"rental_uris":{"android":"levelo://app?vid=4c7d286d-96cb-43d1-939d-54711f1ac4aa","ios":"levelo://app?vid=4c7d286d-96cb-43d1-939d-54711f1ac4aa"},"vehicle_type_id":"4","last_reported":1739693457,"current_range_meters":6400,"station_id":"ce4bgqh2rcd13ifvqc4g","pricing_plan_id":"cebpf4jnsgd1na2vs0mg"},{"bike_id":"03b8695d-0cd1-4305-a60f-c7a61d44cd1b","system_id":"levelo_inurba_marseille","lat":43.29506,"lon":5.37481,"is_reserved":false,"is_disabled":false,"rental_uris":{"android":"levelo://app?vid=03b8695d-0cd1-4305-a60f-c7a61d44cd1b","ios":"levelo://app?vid=03b8695d-0cd1-4305-a60f-c7a61d44cd1b"},"vehicle_type_id":"4","last_reported":1739693457,"current_range_meters":24800,"station_id":"ce4bgkp2rcd13ifvqbmg","pricing_plan_id":"cebpf4jnsgd1na2vs0mg"},{"bike_id":"a3b76a23-e719-4cac-9132-63d31b15a8de","system_id":"levelo_inurba_marseille","lat":43.241598,"lon":5.36398,"is_reserved":false,"is_disabled":false,"rental_uris":{"android":"levelo://app?vid=a3b76a23-e719-4cac-9132-63d31b15a8de","ios":"levelo://app?vid=a3b76a23-e719-4cac-9132-63d31b15a8de"},"vehicle_type_id":"4","last_reported":1739693457,"current_range_meters":26000,"station_id":"cpo36qri1sfpv3e86is0","pricing_plan_id":"cebpf4jnsgd1na2vs0mg"},{"bike_id":"9769b69e-538d-40a3-8256-515928e1b590","system_id":"levelo_inurba_marseille","lat":43.30882,"lon":5.37212,"is_reserved":false,"is_disabled":false,"rental_uris":{"android":"levelo://app?vid=9769b69e-538d-40a3-8256-515928e1b590","ios":"levelo://app?vid=9769b69e-538d-40a3-8256-515928e1b590"},"vehicle_type_id":"4","last_reported":1739693457,"current_range_meters":6800,"station_id":"ce4bguh2rcd13ifvqckg","pricing_plan_id":"cebpf4jnsgd1na2vs0mg"},{"bike_id":"f05aea06-f017-4be8-9885-e073d2fd0925","system_id":"levelo_inurba_marseille","lat":43.23953,"lon":5.3664,"is_reserved":false,"is_disabled":false,"rental_uris":{"android":"levelo://app?vid=f05aea06-f017-4be8-9885-e073d2fd0925","ios":"levelo://app?vid=f05aea06-f017-4be8-9885-e073d2fd0925"},"vehicle_type_id":"4","last_reported":1739693457,"current_range_meters":9600,"station_id":"ce4bhi12rcd13ifvqfp0","pricing_plan_id":"cebpf4jnsgd1na2vs0mg"},{"bike_id":"fe0f12a8-8d62-4d79-b629-bda6901e6297","system_id":"levelo_inurba_marseille","lat":43.269401,"lon":5.402706,"is_reserved":false,"is_disabled":true,"rental_uris":{"android":"levelo://app?vid=fe0f12a8-8d62-4d79-b629-bda6901e6297","ios":"levelo://app?vid=fe0f12a8-8d62-4d79-b629-bda6901e6297"},"vehicle_type_id":"4","last_reported":1739693457,"current_range_meters":28400,"station_id":"cjm6bp8fraef2m0cb0m0","pricing_plan_id":"cebpf4jnsgd1na2vs0mg"},{"bike_id":"7dae3a69-67eb-430d-9d61-6bea76b2a848","system_id":"levelo_inurba_marseille","lat":43.28066,"lon":5.39615,"is_reserved":false,"is_disabled":false,"rental_uris":{"android":"levelo://app?vid=7dae3a69-67eb-430d-9d61-6bea76b2a848","ios":"levelo://app?vid=7dae3a69-67eb-430d-9d61-6bea76b2a848"},"vehicle_type_id":"4","last_reported":1739693457,"current_range_meters":15200,"station_id":"ce4bho12rcd13ifvqh2g","pricing_plan_id":"cebpf4jnsgd1na2vs0mg"},{"bike_id":"9f17ecbf-4d38-44f0-b012-f073da0b0f39","system_id":"levelo_inurba_marseille","lat":43.2927,"lon":5.36844,"is_reserved":false,"is_disabled":false,"rental_uris":{"android":"levelo://app?vid=9f17ecbf-4d38-44f0-b012-f073da0b0f39","ios":"levelo://app?vid=9f17ecbf-4d38-44f0-b012-f073da0b0f39"},"vehicle_type_id":"4","last_reported":1739693457,"current_range_meters":8800,"station_id":"ce4bhbp2rcd13ifvqesg","pricing_plan_id":"cebpf4jnsgd1na2vs0mg"},{"bike_id":"466babc0-124c-418f-8013-0bdd9593df0f","system_id":"levelo_inurba_marseille","lat":43.24376,"lon":5.37067,"is_reserved":false,"is_disabled":false,"rental_uris":{"android":"levelo://app?vid=466babc0-124c-418f-8013-0bdd9593df0f","ios":"levelo://app?vid=466babc0-124c-418f-8013-0bdd9593df0f"},"vehicle_type_id":"4","last_reported":1739693457,"current_range_meters":38800,"station_id":"ce4bhhh2rcd13ifvqfk0","pricing_plan_id":"cebpf4jnsgd1na2vs0mg"},{"bike_id":"cfbe67cf-6420-4945-9471-2d464aa6fcd4","system_id":"levelo_inurba_marseille","lat":43.2782,"lon":5.39209,"is_reserved":false,"is_disabled":true,"rental_uris":{"android":"levelo://app?vid=cfbe67cf-6420-4945-9471-2d464aa6fcd4","ios":"levelo://app?vid=cfbe67cf-6420-4945-9471-2d464aa6fcd4"},"vehicle_type_id":"4","last_reported":1739693457,"current_range_meters":6400,"station_id":"ce4bhjp2rcd13ifvqga0","pricing_plan_id":"cebpf4jnsgd1na2vs0mg"},{"bike_id":"168c41a1-aa17-40ae-aac7-dd02a7e23b9b","system_id":"levelo_inurba_marseille","lat":43.25122,"lon":5.40321,"is_reserved":false,"is_disabled":false,"rental_uris":{"android":"levelo://app?vid=168c41a1-aa17-40ae-aac7-dd02a7e23b9b","ios":"levelo://app?vid=168c41a1-aa17-40ae-aac7-dd02a7e23b9b"},"vehicle_type_id":"4","last_reported":1739693457,"current_range_meters":4000,"station_id":"ce4bhlh2rcd13ifvqgig","pricing_plan_id":"cebpf4jnsgd1na2vs0mg"},{"bike_id":"dc5294ff-c647-4cc8-9ff2-9cfe7a38b888","system_id":"levelo_inurba_marseille","lat":43.30589,"lon":5.37234,"is_reserved":false,"is_disabled":false,"rental_uris":{"android":"levelo://app?vid=dc5294ff-c647-4cc8-9ff2-9cfe7a38b888","ios":"levelo://app?vid=dc5294ff-c647-4cc8-9ff2-9cfe7a38b888"},"vehicle_type_id":"4","last_reported":1739693457,"current_range_meters":38800,"station_id":"ce4bgqh2rcd13ifvqc4g","pricing_plan_id":"cebpf4jnsgd1na2vs0mg"},{"bike_id":"2d1a0294-4315-4a6d-9042-006493c526cd","system_id":"levelo_inurba_marseille","lat":43.2956,"lon":5.40626,"is_reserved":false,"is_disabled":false,"rental_uris":{"android":"levelo://app?vid=2d1a0294-4315-4a6d-9042-006493c526cd","ios":"levelo://app?vid=2d1a0294-4315-4a6d-9042-006493c526cd"},"vehicle_type_id":"4","last_reported":1739693457,"current_range_meters":4000,"station_id":"","pricing_plan_id":"cebpf4jnsgd1na2vs0mg"},{"bike_id":"18decbeb-4062-42a7-b490-79abb09eacf9","system_id":"levelo_inurba_marseille","lat":43.26054,"lon":5.39395,"is_reserved":false,"is_disabled":false,"rental_uris":{"android":"levelo://app?vid=18decbeb-4062-42a7-b490-79abb09eacf9","ios":"levelo://app?vid=18decbeb-4062-42a7-b490-79abb09eacf9"},"vehicle_type_id":"4","last_reported":1739693457,"current_range_meters":33600,"station_id":"ce4bhh92rcd13ifvqfj0","pricing_plan_id":"cebpf4jnsgd1na2vs0mg"},{"bike_id":"1c5f2528-be3d-4d3f-a22c-a2658d4a3bca","system_id":"levelo_inurba_marseille","lat":43.25,"lon":5.38923,"is_reserved":false,"is_disabled":false,"rental_uris":{"android":"levelo://app?vid=1c5f2528-be3d-4d3f-a22c-a2658d4a3bca","ios":"levelo://app?vid=1c5f2528-be3d-4d3f-a22c-a2658d4a3bca"},"vehicle_type_id":"4","last_reported":1739693457,"current_range_meters":27200,"station_id":"ce4bhgp2rcd13ifvqfd0","pricing_plan_id":"cebpf4jnsgd1na2vs0mg"},{"bike_id":"95a0c179-9678-4626-bcf6-57c11dc20a09","system_id":"levelo_inurba_marseille","lat":43.25111,"lon":5.40333,"is_reserved":false,"is_disabled":false,"rental_uris":{"android":"levelo://app?vid=95a0c179-9678-4626-bcf6-57c11dc20a09","ios":"levelo://app?vid=95a0c179-9678-4626-bcf6-57c11dc20a09"},"vehicle_type_id":"4","last_reported":1739693457,"current_range_meters":38800,"station_id":"ce4bhlh2rcd13ifvqgig","pricing_plan_id":"cebpf4jnsgd1na2vs0mg"},{"bike_id":"fd3c4de7-c544-4bdf-b31e-d362276f517f","system_id":"levelo_inurba_marseille","lat":43.28735,"lon":5.36081,"is_reserved":false,"is_disabled":false,"rental_uris":{"android":"levelo://app?vid=fd3c4de7-c544-4bdf-b31e-d362276f517f","ios":"levelo://app?vid=fd3c4de7-c544-4bdf-b31e-d362276f517f"},"vehicle_type_id":"4","last_reported":1739693457,"current_range_meters":30400,"station_id":"cki0cbj6b192h4jlfktg","pricing_plan_id":"cebpf4jnsgd1na2vs0mg"},{"bike_id":"9f912eed-51aa-49cb-84a4-977637263173","system_id":"levelo_inurba_marseille","lat":43.29899,"lon":5.38042,"is_reserved":false,"is_disabled":false,"rental_uris":{"android":"levelo://app?vid=9f912eed-51aa-49cb-84a4-977637263173","ios":"levelo://app?vid=9f912eed-51aa-49cb-84a4-977637263173"},"vehicle_type_id":"4","last_reported":1739693457,"current_range_meters":23200,"station_id":"","pricing_plan_id":"cebpf4jnsgd1na2vs0mg"},{"bike_id":"f76de03d-d754-4d8b-97a4-7811084bfc95","system_id":"levelo_inurba_marseille","lat":43.264988,"lon":5.395626,"is_reserved":false,"is_disabled":false,"rental_uris":{"android":"levelo://app?vid=f76de03d-d754-4d8b-97a4-7811084bfc95","ios":"levelo://app?vid=f76de03d-d754-4d8b-97a4-7811084bfc95"},"vehicle_type_id":"4","last_reported":1739693457,"current_range_meters":37600,"station_id":"ce4bhi12rcd13ifvqfq0","pricing_plan_id":"cebpf4jnsgd1na2vs0mg"},{"bike_id":"940a080b-9e2f-48f3-b61f-6d1cecdfaad8","system_id":"levelo_inurba_marseille","lat":43.2972,"lon":5.3771,"is_reserved":false,"is_disabled":false,"rental_uris":{"android":"levelo://app?vid=940a080b-9e2f-48f3-b61f-6d1cecdfaad8","ios":"levelo://app?vid=940a080b-9e2f-48f3-b61f-6d1cecdfaad8"},"vehicle_type_id":"4","last_reported":1739693457,"current_range_meters":37600,"station_id":"ce4bgkh2rcd13ifvqbl0","pricing_plan_id":"cebpf4jnsgd1na2vs0mg"},{"bike_id":"e9e4e10c-18cc-446a-9084-4db10dfe007c","system_id":"levelo_inurba_marseille","lat":43.28096,"lon":5.37857,"is_reserved":false,"is_disabled":false,"rental_uris":{"android":"levelo://app?vid=e9e4e10c-18cc-446a-9084-4db10dfe007c","ios":"levelo://app?vid=e9e4e10c-18cc-446a-9084-4db10dfe007c"},"vehicle_type_id":"4","last_reported":1739693457,"current_range_meters":25200,"station_id":"ce4bha12rcd13ifvqee0","pricing_plan_id":"cebpf4jnsgd1na2vs0mg"},{"bike_id":"2387448a-ad1e-4d92-8739-0eed7ccd6f1a","system_id":"levelo_inurba_marseille","lat":43.32646,"lon":5.40997,"is_reserved":false,"is_disabled":false,"rental_uris":{"android":"levelo://app?vid=2387448a-ad1e-4d92-8739-0eed7ccd6f1a","ios":"levelo://app?vid=2387448a-ad1e-4d92-8739-0eed7ccd6f1a"},"vehicle_type_id":"4","last_reported":1739693457,"current_range_meters":37600,"station_id":"ce4bhpp2rcd13ifvqhgg","pricing_plan_id":"cebpf4jnsgd1na2vs0mg"},{"bike_id":"f1db9771-94dd-4030-914e-070bbe85d4cc","system_id":"levelo_inurba_marseille","lat":43.32296,"lon":5.38257,"is_reserved":false,"is_disabled":false,"rental_uris":{"android":"levelo://app?vid=f1db9771-94dd-4030-914e-070bbe85d4cc","ios":"levelo://app?vid=f1db9771-94dd-4030-914e-070bbe85d4cc"},"vehicle_type_id":"4","last_reported":1739693457,"current_range_meters":38000,"station_id":"ce4bhr12rcd13ifvqhqg","pricing_plan_id":"cebpf4jnsgd1na2vs0mg"},{"bike_id":"8621d022-da1c-42eb-90b3-f13a75064284","system_id":"levelo_inurba_marseille","lat":43.29848,"lon":5.36285,"is_reserved":false,"is_disabled":false,"rental_uris":{"android":"levelo://app?vid=8621d022-da1c-42eb-90b3-f13a75064284","ios":"levelo://app?vid=8621d022-da1c-42eb-90b3-f13a75064284"},"vehicle_type_id":"4","last_reported":1739693457,"current_range_meters":6400,"station_id":"ce4bgpp2rcd13ifvqc3g","pricing_plan_id":"cebpf4jnsgd1na2vs0mg"},{"bike_id":"56a0c045-2888-4b4e-9ed6-3ea77c30289d","system_id":"levelo_inurba_marseille","lat":43.2902,"lon":5.38647,"is_reserved":false,"is_disabled":false,"rental_uris":{"android":"levelo://app?vid=56a0c045-2888-4b4e-9ed6-3ea77c30289d","ios":"levelo://app?vid=56a0c045-2888-4b4e-9ed6-3ea77c30289d"},"vehicle_type_id":"4","last_reported":1739693457,"current_range_meters":36400,"station_id":"ce4bh4p2rcd13ifvqe0g","pricing_plan_id":"cebpf4jnsgd1na2vs0mg"},{"bike_id":"420f85fb-df53-484b-b0f5-ee8897a490a2","system_id":"levelo_inurba_marseille","lat":43.28459,"lon":5.35892,"is_reserved":false,"is_disabled":false,"rental_uris":{"android":"levelo://app?vid=420f85fb-df53-484b-b0f5-ee8897a490a2","ios":"levelo://app?vid=420f85fb-df53-484b-b0f5-ee8897a490a2"},"vehicle_type_id":"4","last_reported":1739693457,"current_range_meters":38800,"station_id":"ce4bhah2rcd13ifvqei0","pricing_plan_id":"cebpf4jnsgd1na2vs0mg"},{"bike_id":"53b5f8d9-591b-4722-8b93-d03568f78034","system_id":"levelo_inurba_marseille","lat":43.284574,"lon":5.358894,"is_reserved":false,"is_disabled":false,"rental_uris":{"android":"levelo://app?vid=53b5f8d9-591b-4722-8b93-d03568f78034","ios":"levelo://app?vid=53b5f8d9-591b-4722-8b93-d03568f78034"},"vehicle_type_id":"4","last_reported":1739693457,"current_range_meters":20800,"station_id":"ce4bhah2rcd13ifvqei0","pricing_plan_id":"cebpf4jnsgd1na2vs0mg"},{"bike_id":"d511c3fa-d5f4-4a0f-91ee-268d02b5310f","system_id":"levelo_inurba_marseille","lat":43.286169,"lon":5.350996,"is_reserved":false,"is_disabled":true,"rental_uris":{"android":"levelo://app?vid=d511c3fa-d5f4-4a0f-91ee-268d02b5310f","ios":"levelo://app?vid=d511c3fa-d5f4-4a0f-91ee-268d02b5310f"},"vehicle_type_id":"4","last_reported":1739693457,"current_range_meters":16800,"station_id":"","pricing_plan_id":"cebpf4jnsgd1na2vs0mg"},{"bike_id":"91320497-88d1-4168-9ea3-b3d9c218b8bd","system_id":"levelo_inurba_marseille","lat":43.29654,"lon":5.37289,"is_reserved":false,"is_disabled":false,"rental_uris":{"android":"levelo://app?vid=91320497-88d1-4168-9ea3-b3d9c218b8bd","ios":"levelo://app?vid=91320497-88d1-4168-9ea3-b3d9c218b8bd"},"vehicle_type_id":"4","last_reported":1739693457,"current_range_meters":36800,"station_id":"ce4bgk12rcd13ifvqbj0","pricing_plan_id":"cebpf4jnsgd1na2vs0mg"},{"bike_id":"ce839b1e-20f4-4e44-b0c5-1c528235bce0","system_id":"levelo_inurba_marseille","lat":43.2847,"lon":5.35894,"is_reserved":false,"is_disabled":false,"rental_uris":{"android":"levelo://app?vid=ce839b1e-20f4-4e44-b0c5-1c528235bce0","ios":"levelo://app?vid=ce839b1e-20f4-4e44-b0c5-1c528235bce0"},"vehicle_type_id":"4","last_reported":1739693457,"current_range_meters":38800,"station_id":"ce4bhah2rcd13ifvqei0","pricing_plan_id":"cebpf4jnsgd1na2vs0mg"},{"bike_id":"f00620ae-2110-4dbd-a2e7-cd7bf13fe429","system_id":"levelo_inurba_marseille","lat":43.231904,"lon":5.399956,"is_reserved":false,"is_disabled":true,"rental_uris":{"android":"levelo://app?vid=f00620ae-2110-4dbd-a2e7-cd7bf13fe429","ios":"levelo://app?vid=f00620ae-2110-4dbd-a2e7-cd7bf13fe429"},"vehicle_type_id":"4","last_reported":1739693457,"current_range_meters":37600,"station_id":"ce4bhn12rcd13ifvqgqg","pricing_plan_id":"cebpf4jnsgd1na2vs0mg"},{"bike_id":"ab4c4cd5-ed4c-4a24-adbc-1e77e06a1fbe","system_id":"levelo_inurba_marseille","lat":43.295591,"lon":5.422814,"is_reserved":false,"is_disabled":false,"rental_uris":{"android":"levelo://app?vid=ab4c4cd5-ed4c-4a24-adbc-1e77e06a1fbe","ios":"levelo://app?vid=ab4c4cd5-ed4c-4a24-adbc-1e77e06a1fbe"},"vehicle_type_id":"4","last_reported":1739693457,"current_range_meters":28000,"station_id":"ce4bhph2rcd13ifvqhdg","pricing_plan_id":"cebpf4jnsgd1na2vs0mg"},{"bike_id":"44fb5291-fc4e-4904-a870-fe6008ca4617","system_id":"levelo_inurba_marseille","lat":43.31121,"lon":5.37785,"is_reserved":false,"is_disabled":false,"rental_uris":{"android":"levelo://app?vid=44fb5291-fc4e-4904-a870-fe6008ca4617","ios":"levelo://app?vid=44fb5291-fc4e-4904-a870-fe6008ca4617"},"vehicle_type_id":"4","last_reported":1739693457,"current_range_meters":7200,"station_id":"ce4bgt92rcd13ifvqcg0","pricing_plan_id":"cebpf4jnsgd1na2vs0mg"},{"bike_id":"59b279cd-9bb0-4e91-a9ed-cd7da0f24062","system_id":"levelo_inurba_marseille","lat":43.3046,"lon":5.369135,"is_reserved":false,"is_disabled":false,"rental_uris":{"android":"levelo://app?vid=59b279cd-9bb0-4e91-a9ed-cd7da0f24062","ios":"levelo://app?vid=59b279cd-9bb0-4e91-a9ed-cd7da0f24062"},"vehicle_type_id":"4","last_reported":1739693457,"current_range_meters":16000,"station_id":"","pricing_plan_id":"cebpf4jnsgd1na2vs0mg"},{"bike_id":"ddf1d674-41d6-443f-b0f1-1da7df267862","system_id":"levelo_inurba_marseille","lat":43.230514,"lon":5.354965,"is_reserved":false,"is_disabled":false,"rental_uris":{"android":"levelo://app?vid=ddf1d674-41d6-443f-b0f1-1da7df267862","ios":"levelo://app?vid=ddf1d674-41d6-443f-b0f1-1da7df267862"},"vehicle_type_id":"4","last_reported":1739693457,"current_range_meters":16800,"station_id":"cpo3342slgdg3j2ifvpg","pricing_plan_id":"cebpf4jnsgd1na2vs0mg"},{"bike_id":"94729826-cfa5-4ed9-8abd-5e8e49cce84e","system_id":"levelo_inurba_marseille","lat":43.29086,"lon":5.4329,"is_reserved":false,"is_disabled":true,"rental_uris":{"android":"levelo://app?vid=94729826-cfa5-4ed9-8abd-5e8e49cce84e","ios":"levelo://app?vid=94729826-cfa5-4ed9-8abd-5e8e49cce84e"},"vehicle_type_id":"4","last_reported":1739693457,"current_range_meters":1600,"station_id":"","pricing_plan_id":"cebpf4jnsgd1na2vs0mg"},{"bike_id":"59897d86-c0b3-4acb-bf89-133a9364e1f4","system_id":"levelo_inurba_marseille","lat":43.230543,"lon":5.35491,"is_reserved":false,"is_disabled":true,"rental_uris":{"android":"levelo://app?vid=59897d86-c0b3-4acb-bf89-133a9364e1f4","ios":"levelo://app?vid=59897d86-c0b3-4acb-bf89-133a9364e1f4"},"vehicle_type_id":"4","last_reported":1739693457,"current_range_meters":37600,"station_id":"cpo3342slgdg3j2ifvpg","pricing_plan_id":"cebpf4jnsgd1na2vs0mg"},{"bike_id":"f32e9eb2-7345-4559-849a-c4227ef41442","system_id":"levelo_inurba_marseille","lat":43.30876,"lon":5.37208,"is_reserved":false,"is_disabled":false,"rental_uris":{"android":"levelo://app?vid=f32e9eb2-7345-4559-849a-c4227ef41442","ios":"levelo://app?vid=f32e9eb2-7345-4559-849a-c4227ef41442"},"vehicle_type_id":"4","last_reported":1739693457,"current_range_meters":30800,"station_id":"ce4bguh2rcd13ifvqckg","pricing_plan_id":"cebpf4jnsgd1na2vs0mg"},{"bike_id":"799cb367-f74c-4b90-ab8e-e13e0e89b122","system_id":"levelo_inurba_marseille","lat":43.295675,"lon":5.39973,"is_reserved":false,"is_disabled":false,"rental_uris":{"android":"levelo://app?vid=799cb367-f74c-4b90-ab8e-e13e0e89b122","ios":"levelo://app?vid=799cb367-f74c-4b90-ab8e-e13e0e89b122"},"vehicle_type_id":"4","last_reported":1739693457,"current_range_meters":38000,"station_id":"ce4bh312rcd13ifvqdj0","pricing_plan_id":"cebpf4jnsgd1na2vs0mg"},{"bike_id":"3657cb3a-8308-44c8-971b-092680d319de","system_id":"levelo_inurba_marseille","lat":43.23186,"lon":5.35567,"is_reserved":false,"is_disabled":false,"rental_uris":{"android":"levelo://app?vid=3657cb3a-8308-44c8-971b-092680d319de","ios":"levelo://app?vid=3657cb3a-8308-44c8-971b-092680d319de"},"vehicle_type_id":"4","last_reported":1739693457,"current_range_meters":10000,"station_id":"ce4bhu92rcd13ifvqi70","pricing_plan_id":"cebpf4jnsgd1na2vs0mg"},{"bike_id":"7b9840b7-f4aa-42a5-8fe4-6cb9bbe9f065","system_id":"levelo_inurba_marseille","lat":43.29874,"lon":5.39762,"is_reserved":false,"is_disabled":false,"rental_uris":{"android":"levelo://app?vid=7b9840b7-f4aa-42a5-8fe4-6cb9bbe9f065","ios":"levelo://app?vid=7b9840b7-f4aa-42a5-8fe4-6cb9bbe9f065"},"vehicle_type_id":"4","last_reported":1739693457,"current_range_meters":38400,"station_id":"ce4bh0h2rcd13ifvqd50","pricing_plan_id":"cebpf4jnsgd1na2vs0mg"},{"bike_id":"f635a801-2671-4306-9268-68edf1b8a251","system_id":"levelo_inurba_marseille","lat":43.29881,"lon":5.39737,"is_reserved":false,"is_disabled":false,"rental_uris":{"android":"levelo://app?vid=f635a801-2671-4306-9268-68edf1b8a251","ios":"levelo://app?vid=f635a801-2671-4306-9268-68edf1b8a251"},"vehicle_type_id":"4","last_reported":1739693457,"current_range_meters":34000,"station_id":"ce4bh0h2rcd13ifvqd50","pricing_plan_id":"cebpf4jnsgd1na2vs0mg"},{"bike_id":"fddf9633-377f-489e-9c7d-38f1665ca695","system_id":"levelo_inurba_marseille","lat":43.29598,"lon":5.38076,"is_reserved":false,"is_disabled":true,"rental_uris":{"android":"levelo://app?vid=fddf9633-377f-489e-9c7d-38f1665ca695","ios":"levelo://app?vid=fddf9633-377f-489e-9c7d-38f1665ca695"},"vehicle_type_id":"4","last_reported":1739693457,"current_range_meters":22800,"station_id":"ce4bgl12rcd13ifvqbo0","pricing_plan_id":"cebpf4jnsgd1na2vs0mg"},{"bike_id":"40c4421e-be80-49b9-9035-ec8bd05923a2","system_id":"levelo_inurba_marseille","lat":43.288509,"lon":5.393219,"is_reserved":false,"is_disabled":true,"rental_uris":{"android":"levelo://app?vid=40c4421e-be80-49b9-9035-ec8bd05923a2","ios":"levelo://app?vid=40c4421e-be80-49b9-9035-ec8bd05923a2"},"vehicle_type_id":"4","last_reported":1739693457,"current_range_meters":19600,"station_id":"ce4bh2p2rcd13ifvqdi0","pricing_plan_id":"cebpf4jnsgd1na2vs0mg"},{"bike_id":"4bc50c17-9aeb-4487-a054-afb81c6c63dc","system_id":"levelo_inurba_marseille","lat":43.27598,"lon":5.36124,"is_reserved":false,"is_disabled":true,"rental_uris":{"android":"levelo://app?vid=4bc50c17-9aeb-4487-a054-afb81c6c63dc","ios":"levelo://app?vid=4bc50c17-9aeb-4487-a054-afb81c6c63dc"},"vehicle_type_id":"4","last_reported":1739693457,"current_range_meters":28800,"station_id":"ce4bgj92rcd13ifvqbe0","pricing_plan_id":"cebpf4jnsgd1na2vs0mg"},{"bike_id":"45a95720-e142-48f6-8e4e-58bb7608d438","system_id":"levelo_inurba_marseille","lat":43.28938,"lon":5.36649,"is_reserved":false,"is_disabled":false,"rental_uris":{"android":"levelo://app?vid=45a95720-e142-48f6-8e4e-58bb7608d438","ios":"levelo://app?vid=45a95720-e142-48f6-8e4e-58bb7608d438"},"vehicle_type_id":"4","last_reported":1739693457,"current_range_meters":36800,"station_id":"ce4bhap2rcd13ifvqek0","pricing_plan_id":"cebpf4jnsgd1na2vs0mg"},{"bike_id":"2c8b8a41-5401-4b3a-be72-574e3bbf0407","system_id":"levelo_inurba_marseille","lat":43.306292,"lon":5.365927,"is_reserved":false,"is_disabled":false,"rental_uris":{"android":"levelo://app?vid=2c8b8a41-5401-4b3a-be72-574e3bbf0407","ios":"levelo://app?vid=2c8b8a41-5401-4b3a-be72-574e3bbf0407"},"vehicle_type_id":"4","last_reported":1739693457,"current_range_meters":6400,"station_id":"","pricing_plan_id":"cebpf4jnsgd1na2vs0mg"},{"bike_id":"0f37e119-70d5-41eb-90ed-58aca4fe1023","system_id":"levelo_inurba_marseille","lat":43.305901,"lon":5.393528,"is_reserved":false,"is_disabled":false,"rental_uris":{"android":"levelo://app?vid=0f37e119-70d5-41eb-90ed-58aca4fe1023","ios":"levelo://app?vid=0f37e119-70d5-41eb-90ed-58aca4fe1023"},"vehicle_type_id":"4","last_reported":1739693457,"current_range_meters":36800,"station_id":"ce4bh0p2rcd13ifvqd80","pricing_plan_id":"cebpf4jnsgd1na2vs0mg"},{"bike_id":"6c4e18f7-9485-4121-8099-cbc5b94b4114","system_id":"levelo_inurba_marseille","lat":43.27563,"lon":5.38442,"is_reserved":false,"is_disabled":false,"rental_uris":{"android":"levelo://app?vid=6c4e18f7-9485-4121-8099-cbc5b94b4114","ios":"levelo://app?vid=6c4e18f7-9485-4121-8099-cbc5b94b4114"},"vehicle_type_id":"4","last_reported":1739693457,"current_range_meters":35600,"station_id":"ce4bhh92rcd13ifvqfi0","pricing_plan_id":"cebpf4jnsgd1na2vs0mg"},{"bike_id":"76e9689a-c738-4ae0-88ce-a636639e49f8","system_id":"levelo_inurba_marseille","lat":43.25577,"lon":5.38252,"is_reserved":false,"is_disabled":false,"rental_uris":{"android":"levelo://app?vid=76e9689a-c738-4ae0-88ce-a636639e49f8","ios":"levelo://app?vid=76e9689a-c738-4ae0-88ce-a636639e49f8"},"vehicle_type_id":"4","last_reported":1739693457,"current_range_meters":38800,"station_id":"ce4bhih2rcd13ifvqfs0","pricing_plan_id":"cebpf4jnsgd1na2vs0mg"},{"bike_id":"3625836a-8a03-4572-80d5-fadff11603e7","system_id":"levelo_inurba_marseille","lat":43.28034,"lon":5.36941,"is_reserved":false,"is_disabled":false,"rental_uris":{"android":"levelo://app?vid=3625836a-8a03-4572-80d5-fadff11603e7","ios":"levelo://app?vid=3625836a-8a03-4572-80d5-fadff11603e7"},"vehicle_type_id":"4","last_reported":1739693457,"current_range_meters":39200,"station_id":"ce4bha12rcd13ifvqef0","pricing_plan_id":"cebpf4jnsgd1na2vs0mg"},{"bike_id":"43dc5574-eed0-4b1d-9289-f32002400d84","system_id":"levelo_inurba_marseille","lat":43.24169,"lon":5.36413,"is_reserved":false,"is_disabled":false,"rental_uris":{"android":"levelo://app?vid=43dc5574-eed0-4b1d-9289-f32002400d84","ios":"levelo://app?vid=43dc5574-eed0-4b1d-9289-f32002400d84"},"vehicle_type_id":"4","last_reported":1739693457,"current_range_meters":8400,"station_id":"cpo36qri1sfpv3e86is0","pricing_plan_id":"cebpf4jnsgd1na2vs0mg"},{"bike_id":"b7675672-ea91-4212-a3c2-1e75ea117425","system_id":"levelo_inurba_marseille","lat":43.2816,"lon":5.42646,"is_reserved":false,"is_disabled":true,"rental_uris":{"android":"levelo://app?vid=b7675672-ea91-4212-a3c2-1e75ea117425","ios":"levelo://app?vid=b7675672-ea91-4212-a3c2-1e75ea117425"},"vehicle_type_id":"4","last_reported":1739693457,"current_range_meters":0,"station_id":"ce4bhnh2rcd13ifvqgug","pricing_plan_id":"cebpf4jnsgd1na2vs0mg"},{"bike_id":"c8459953-b1c3-48f2-a21c-ee768afcb163","system_id":"levelo_inurba_marseille","lat":43.29796,"lon":5.38143,"is_reserved":false,"is_disabled":false,"rental_uris":{"android":"levelo://app?vid=c8459953-b1c3-48f2-a21c-ee768afcb163","ios":"levelo://app?vid=c8459953-b1c3-48f2-a21c-ee768afcb163"},"vehicle_type_id":"4","last_reported":1739693457,"current_range_meters":38400,"station_id":"ce4bgip2rcd13ifvqbb0","pricing_plan_id":"cebpf4jnsgd1na2vs0mg"},{"bike_id":"91e27922-e676-45ea-94da-baf83d9c520d","system_id":"levelo_inurba_marseille","lat":43.28031,"lon":5.36959,"is_reserved":false,"is_disabled":true,"rental_uris":{"android":"levelo://app?vid=91e27922-e676-45ea-94da-baf83d9c520d","ios":"levelo://app?vid=91e27922-e676-45ea-94da-baf83d9c520d"},"vehicle_type_id":"4","last_reported":1739693457,"current_range_meters":35200,"station_id":"ce4bha12rcd13ifvqef0","pricing_plan_id":"cebpf4jnsgd1na2vs0mg"},{"bike_id":"7014a119-8e27-4243-b4d7-84049cd6576f","system_id":"levelo_inurba_marseille","lat":43.30591,"lon":5.39339,"is_reserved":false,"is_disabled":false,"rental_uris":{"android":"levelo://app?vid=7014a119-8e27-4243-b4d7-84049cd6576f","ios":"levelo://app?vid=7014a119-8e27-4243-b4d7-84049cd6576f"},"vehicle_type_id":"4","last_reported":1739693457,"current_range_meters":35200,"station_id":"ce4bh0p2rcd13ifvqd80","pricing_plan_id":"cebpf4jnsgd1na2vs0mg"},{"bike_id":"3267b8a7-1e4e-443c-a66a-46725243df34","system_id":"levelo_inurba_marseille","lat":43.302311,"lon":5.3969,"is_reserved":false,"is_disabled":false,"rental_uris":{"android":"levelo://app?vid=3267b8a7-1e4e-443c-a66a-46725243df34","ios":"levelo://app?vid=3267b8a7-1e4e-443c-a66a-46725243df34"},"vehicle_type_id":"4","last_reported":1739693457,"current_range_meters":36800,"station_id":"","pricing_plan_id":"cebpf4jnsgd1na2vs0mg"},{"bike_id":"39f0fa43-2961-47d0-8e28-d6ced3bcb1a4","system_id":"levelo_inurba_marseille","lat":43.268,"lon":5.4027,"is_reserved":false,"is_disabled":true,"rental_uris":{"android":"levelo://app?vid=39f0fa43-2961-47d0-8e28-d6ced3bcb1a4","ios":"levelo://app?vid=39f0fa43-2961-47d0-8e28-d6ced3bcb1a4"},"vehicle_type_id":"4","last_reported":1739693457,"current_range_meters":30400,"station_id":"ce501612rcd8frsf0b60","pricing_plan_id":"cebpf4jnsgd1na2vs0mg"},{"bike_id":"4e814ba9-7f7f-413c-81c5-6cae18c64ff7","system_id":"levelo_inurba_marseille","lat":43.313266,"lon":5.397068,"is_reserved":false,"is_disabled":false,"rental_uris":{"android":"levelo://app?vid=4e814ba9-7f7f-413c-81c5-6cae18c64ff7","ios":"levelo://app?vid=4e814ba9-7f7f-413c-81c5-6cae18c64ff7"},"vehicle_type_id":"4","last_reported":1739693457,"current_range_meters":34000,"station_id":"ce4bgvp2rcd13ifvqcu0","pricing_plan_id":"cebpf4jnsgd1na2vs0mg"},{"bike_id":"9bcc3779-160f-4f11-a908-15bc41b1ac43","system_id":"levelo_inurba_marseille","lat":43.27993,"lon":5.40023,"is_reserved":false,"is_disabled":true,"rental_uris":{"android":"levelo://app?vid=9bcc3779-160f-4f11-a908-15bc41b1ac43","ios":"levelo://app?vid=9bcc3779-160f-4f11-a908-15bc41b1ac43"},"vehicle_type_id":"4","last_reported":1739693457,"current_range_meters":4000,"station_id":"ce4bho92rcd13ifvqh4g","pricing_plan_id":"cebpf4jnsgd1na2vs0mg"},{"bike_id":"3c64c24f-16f7-46ec-b068-15fe4ebda356","system_id":"levelo_inurba_marseille","lat":43.29493,"lon":5.36395,"is_reserved":false,"is_disabled":true,"rental_uris":{"android":"levelo://app?vid=3c64c24f-16f7-46ec-b068-15fe4ebda356","ios":"levelo://app?vid=3c64c24f-16f7-46ec-b068-15fe4ebda356"},"vehicle_type_id":"4","last_reported":1739693457,"current_range_meters":18000,"station_id":"","pricing_plan_id":"cebpf4jnsgd1na2vs0mg"},{"bike_id":"07103950-cfc8-4b51-a67a-cac3df3ef5e7","system_id":"levelo_inurba_marseille","lat":43.24068,"lon":5.37771,"is_reserved":false,"is_disabled":false,"rental_uris":{"android":"levelo://app?vid=07103950-cfc8-4b51-a67a-cac3df3ef5e7","ios":"levelo://app?vid=07103950-cfc8-4b51-a67a-cac3df3ef5e7"},"vehicle_type_id":"4","last_reported":1739693457,"current_range_meters":38800,"station_id":"ce4bhnp2rcd13ifvqgvg","pricing_plan_id":"cebpf4jnsgd1na2vs0mg"},{"bike_id":"ddade70e-450b-459c-901d-c8d7b6e39c7e","system_id":"levelo_inurba_marseille","lat":43.25715,"lon":5.41139,"is_reserved":false,"is_disabled":false,"rental_uris":{"android":"levelo://app?vid=ddade70e-450b-459c-901d-c8d7b6e39c7e","ios":"levelo://app?vid=ddade70e-450b-459c-901d-c8d7b6e39c7e"},"vehicle_type_id":"4","last_reported":1739693457,"current_range_meters":28800,"station_id":"ce4bhkp2rcd13ifvqgd0","pricing_plan_id":"cebpf4jnsgd1na2vs0mg"},{"bike_id":"c9f5446a-9650-4bf9-9f6c-ae38910b957a","system_id":"levelo_inurba_marseille","lat":43.301431,"lon":5.374129,"is_reserved":false,"is_disabled":false,"rental_uris":{"android":"levelo://app?vid=c9f5446a-9650-4bf9-9f6c-ae38910b957a","ios":"levelo://app?vid=c9f5446a-9650-4bf9-9f6c-ae38910b957a"},"vehicle_type_id":"4","last_reported":1739693457,"current_range_meters":38000,"station_id":"ce4bgs92rcd13ifvqcc0","pricing_plan_id":"cebpf4jnsgd1na2vs0mg"},{"bike_id":"cfe30082-ce4b-47a8-9136-bff6c426673d","system_id":"levelo_inurba_marseille","lat":43.30307,"lon":5.36913,"is_reserved":false,"is_disabled":false,"rental_uris":{"android":"levelo://app?vid=cfe30082-ce4b-47a8-9136-bff6c426673d","ios":"levelo://app?vid=cfe30082-ce4b-47a8-9136-bff6c426673d"},"vehicle_type_id":"4","last_reported":1739693457,"current_range_meters":30000,"station_id":"ce4bgqh2rcd13ifvqc5g","pricing_plan_id":"cebpf4jnsgd1na2vs0mg"},{"bike_id":"b84a2f3d-50f9-4b7c-8e61-95279ba45649","system_id":"levelo_inurba_marseille","lat":43.26941,"lon":5.40253,"is_reserved":false,"is_disabled":false,"rental_uris":{"android":"levelo://app?vid=b84a2f3d-50f9-4b7c-8e61-95279ba45649","ios":"levelo://app?vid=b84a2f3d-50f9-4b7c-8e61-95279ba45649"},"vehicle_type_id":"4","last_reported":1739693457,"current_range_meters":37600,"station_id":"cjm6bp8fraef2m0cb0m0","pricing_plan_id":"cebpf4jnsgd1na2vs0mg"},{"bike_id":"cb78dcef-e2c4-4b84-9065-5924714f334b","system_id":"levelo_inurba_marseille","lat":43.25924,"lon":5.40906,"is_reserved":false,"is_disabled":false,"rental_uris":{"android":"levelo://app?vid=cb78dcef-e2c4-4b84-9065-5924714f334b","ios":"levelo://app?vid=cb78dcef-e2c4-4b84-9065-5924714f334b"},"vehicle_type_id":"4","last_reported":1739693457,"current_range_meters":33200,"station_id":"ce4bhm92rcd13ifvqglg","pricing_plan_id":"cebpf4jnsgd1na2vs0mg"},{"bike_id":"39ee4101-ed11-46d5-b8b8-48ae3dde17e4","system_id":"levelo_inurba_marseille","lat":43.308845,"lon":5.396373,"is_reserved":false,"is_disabled":true,"rental_uris":{"android":"levelo://app?vid=39ee4101-ed11-46d5-b8b8-48ae3dde17e4","ios":"levelo://app?vid=39ee4101-ed11-46d5-b8b8-48ae3dde17e4"},"vehicle_type_id":"4","last_reported":1739693457,"current_range_meters":0,"station_id":"ce4bh012rcd13ifvqcv0","pricing_plan_id":"cebpf4jnsgd1na2vs0mg"},{"bike_id":"a84d6bd5-1959-4d5e-88b3-58013a825c9f","system_id":"levelo_inurba_marseille","lat":43.28934,"lon":5.364,"is_reserved":false,"is_disabled":false,"rental_uris":{"android":"levelo://app?vid=a84d6bd5-1959-4d5e-88b3-58013a825c9f","ios":"levelo://app?vid=a84d6bd5-1959-4d5e-88b3-58013a825c9f"},"vehicle_type_id":"4","last_reported":1739693457,"current_range_meters":38800,"station_id":"ce4bhc92rcd13ifvqetg","pricing_plan_id":"cebpf4jnsgd1na2vs0mg"},{"bike_id":"89fb2ac7-e960-422a-bba7-8e61efcb53cc","system_id":"levelo_inurba_marseille","lat":43.29029,"lon":5.39953,"is_reserved":false,"is_disabled":false,"rental_uris":{"android":"levelo://app?vid=89fb2ac7-e960-422a-bba7-8e61efcb53cc","ios":"levelo://app?vid=89fb2ac7-e960-422a-bba7-8e61efcb53cc"},"vehicle_type_id":"4","last_reported":1739693457,"current_range_meters":38800,"station_id":"ce4bh392rcd13ifvqdm0","pricing_plan_id":"cebpf4jnsgd1na2vs0mg"},{"bike_id":"2dea0667-1db6-4775-857f-894e60e0a4c7","system_id":"levelo_inurba_marseille","lat":43.30405,"lon":5.397591,"is_reserved":false,"is_disabled":true,"rental_uris":{"android":"levelo://app?vid=2dea0667-1db6-4775-857f-894e60e0a4c7","ios":"levelo://app?vid=2dea0667-1db6-4775-857f-894e60e0a4c7"},"vehicle_type_id":"4","last_reported":1739693457,"current_range_meters":28400,"station_id":"ce4bh092rcd13ifvqd20","pricing_plan_id":"cebpf4jnsgd1na2vs0mg"},{"bike_id":"cdcd3e76-f822-40eb-8194-9e91a5c3ddca","system_id":"levelo_inurba_marseille","lat":43.30646,"lon":5.40082,"is_reserved":false,"is_disabled":false,"rental_uris":{"android":"levelo://app?vid=cdcd3e76-f822-40eb-8194-9e91a5c3ddca","ios":"levelo://app?vid=cdcd3e76-f822-40eb-8194-9e91a5c3ddca"},"vehicle_type_id":"4","last_reported":1739693457,"current_range_meters":31200,"station_id":"ce4bh112rcd13ifvqda0","pricing_plan_id":"cebpf4jnsgd1na2vs0mg"},{"bike_id":"8f81746e-629f-452d-8f35-b87a4c7cf21f","system_id":"levelo_inurba_marseille","lat":43.29898,"lon":5.43652,"is_reserved":false,"is_disabled":false,"rental_uris":{"android":"levelo://app?vid=8f81746e-629f-452d-8f35-b87a4c7cf21f","ios":"levelo://app?vid=8f81746e-629f-452d-8f35-b87a4c7cf21f"},