{"last_updated":1745637891,"ttl":60,"version":"2.2","data":{"bikes":[{"bike_id":"f524dc7d-f322-4ab6-9c88-aaac7cde0b49","system_id":"levelo_inurba_marseille","lat":43.28387,"lon":5.3866,"is_reserved":false,"is_disabled":false,"rental_uris":{"android":"levelo://app?vid=f524dc7d-f322-4ab6-9c88-aaac7cde0b49","ios":"levelo://app?vid=f524dc7d-f322-4ab6-9c88-aaac7cde0b49"},"vehicle_type_id":"4","last_reported":1745637892,"current_range_meters":2800,"station_id":"ce4bh492rcd13ifvqdvg","pricing_plan_id":"cebpf4jnsgd1na2vs0mg"},{"bike_id":"4048cd80-fd11-4a5d-b8a3-dd5f1ee7bfed","system_id":"levelo_inurba_marseille","lat":43.29256,"lon":5.37624,"is_reserved":false,"is_disabled":false,"rental_uris":{"android":"levelo://app?vid=4048cd80-fd11-4a5d-b8a3-dd5f1ee7bfed","ios":"levelo://app?vid=4048cd80-fd11-4a5d-b8a3-dd5f1ee7bfed"},"vehicle_type_id":"4","last_reported":1745637892,"current_range_meters":3200,"station_id":"ce4bgi12rcd13ifvqb80","pricing_plan_id":"cebpf4jnsgd1na2vs0mg"},{"bike_id":"d9dfdbb7-3b56-4404-977a-51c336ac30b5","system_id":"levelo_inurba_marseille","lat":43.211874,"lon":5.350776,"is_reserved":false,"is_disabled":false,"rental_uris":{"android":"levelo://app?vid=d9dfdbb7-3b56-4404-977a-51c336ac30b5","ios":"levelo://app?vid=d9dfdbb7-3b56-4404-977a-51c336ac30b5"},"vehicle_type_id":"4","last_reported":1745637892,"current_range_meters":3600,"station_id":"st_cvj6sg6p6f1abm77japg","pricing_plan_id":"cebpf4jnsgd1na2vs0mg"},{"bike_id":"9cbca805-6d2f-49a5-b845-b197d9ca7170","system_id":"levelo_inurba_marseille","lat":43.25085,"lon":5.39533,"is_reserved":false,"is_disabled":false,"rental_uris":{"android":"levelo://app?vid=9cbca805-6d2f-49a5-b845-b197d9ca7170","ios":"levelo://app?vid=9cbca805-6d2f-49a5-b845-b197d9ca7170"},"vehicle_type_id":"4","last_reported":1745637892,"current_range_meters":3600,"station_id":"ce4bhm12rcd13ifvqgkg","pricing_plan_id":"cebpf4jnsgd1na2vs0mg"},{"bike_id":"8aff0d73-1664-47c7-8bf8-658126236a83","system_id":"levelo_inurba_marseille","lat":43.31272,"lon":5.40174,"is_reserved":false,"is_disabled":false,"rental_uris":{"android":"levelo://app?vid=8aff0d73-1664-47c7-8bf8-658126236a83","ios":"levelo://app?vid=8aff0d73-1664-47c7-8bf8-658126236a83"},"vehicle_type_id":"4","last_reported":1745637892,"current_range_meters":3600,"station_id":"ce4bh092rcd13ifvqd30","pricing_plan_id":"cebpf4jnsgd1na2vs0mg"},{"bike_id":"e725be89-03eb-4efa-abd9-401ea99c5e6d","system_id":"levelo_inurba_marseille","lat":43.30905,"lon":5.37874,"is_reserved":false,"is_disabled":false,"rental_uris":{"android":"levelo://app?vid=e725be89-03eb-4efa-abd9-401ea99c5e6d","ios":"levelo://app?vid=e725be89-03eb-4efa-abd9-401ea99c5e6d"},"vehicle_type_id":"4","last_reported":1745637892,"current_range_meters":3600,"station_id":"","pricing_plan_id":"cebpf4jnsgd1na2vs0mg"},{"bike_id":"4c01d444-b716-4ab0-b018-ed04d14884f0","system_id":"levelo_inurba_marseille","lat":43.2844,"lon":5.39198,"is_reserved":false,"is_disabled":false,"rental_uris":{"android":"levelo://app?vid=4c01d444-b716-4ab0-b018-ed04d14884f0","ios":"levelo://app?vid=4c01d444-b716-4ab0-b018-ed04d14884f0"},"vehicle_type_id":"4","last_reported":1745637892,"current_range_meters":3600,"station_id":"ce4bhoh2rcd13ifvqh5g","pricing_plan_id":"cebpf4jnsgd1na2vs0mg"},{"bike_id":"f425d9cb-80e9-4b0a-9761-f26fba5018c2","system_id":"levelo_inurba_marseille","lat":43.287238,"lon":5.399961,"is_reserved":false,"is_disabled":true,"rental_uris":{"android":"levelo://app?vid=f425d9cb-80e9-4b0a-9761-f26fba5018c2","ios":"levelo://app?vid=f425d9cb-80e9-4b0a-9761-f26fba5018c2"},"vehicle_type_id":"4","last_reported":1745637892,"current_range_meters":3600,"station_id":"ce4bho92rcd13ifvqh3g","pricing_plan_id":"cebpf4jnsgd1na2vs0mg"},{"bike_id":"306a58c0-053c-4a47-8c40-1c362463c26f","system_id":"levelo_inurba_marseille","lat":43.30972,"lon":5.37173,"is_reserved":false,"is_disabled":false,"rental_uris":{"android":"levelo://app?vid=306a58c0-053c-4a47-8c40-1c362463c26f","ios":"levelo://app?vid=306a58c0-053c-4a47-8c40-1c362463c26f"},"vehicle_type_id":"4","last_reported":1745637892,"current_range_meters":4000,"station_id":"","pricing_plan_id":"cebpf4jnsgd1na2vs0mg"},{"bike_id":"52cb41a7-5096-4f42-a09a-abce4785d5e2","system_id":"levelo_inurba_marseille","lat":43.27067,"lon":5.42257,"is_reserved":false,"is_disabled":true,"rental_uris":{"android":"levelo://app?vid=52cb41a7-5096-4f42-a09a-abce4785d5e2","ios":"levelo://app?vid=52cb41a7-5096-4f42-a09a-abce4785d5e2"},"vehicle_type_id":"4","last_reported":1745637892,"current_range_meters":4000,"station_id":"ce4bhk92rcd13ifvqgb0","pricing_plan_id":"cebpf4jnsgd1na2vs0mg"},{"bike_id":"46374c49-3adc-4c5a-8966-e00f056c0d57","system_id":"levelo_inurba_marseille","lat":43.27846,"lon":5.35442,"is_reserved":false,"is_disabled":false,"rental_uris":{"android":"levelo://app?vid=46374c49-3adc-4c5a-8966-e00f056c0d57","ios":"levelo://app?vid=46374c49-3adc-4c5a-8966-e00f056c0d57"},"vehicle_type_id":"4","last_reported":1745637892,"current_range_meters":4400,"station_id":"","pricing_plan_id":"cebpf4jnsgd1na2vs0mg"},{"bike_id":"c1867ca0-c51f-42b3-9d89-09768167f5b7","system_id":"levelo_inurba_marseille","lat":43.2511,"lon":5.4033,"is_reserved":false,"is_disabled":false,"rental_uris":{"android":"levelo://app?vid=c1867ca0-c51f-42b3-9d89-09768167f5b7","ios":"levelo://app?vid=c1867ca0-c51f-42b3-9d89-09768167f5b7"},"vehicle_type_id":"4","last_reported":1745637892,"current_range_meters":4800,"station_id":"ce4bhlh2rcd13ifvqgig","pricing_plan_id":"cebpf4jnsgd1na2vs0mg"},{"bike_id":"261ed139-77cc-4e31-8526-09806692c5d3","system_id":"levelo_inurba_marseille","lat":43.314904,"lon":5.37301,"is_reserved":false,"is_disabled":false,"rental_uris":{"android":"levelo://app?vid=261ed139-77cc-4e31-8526-09806692c5d3","ios":"levelo://app?vid=261ed139-77cc-4e31-8526-09806692c5d3"},"vehicle_type_id":"4","last_reported":1745637892,"current_range_meters":4800,"station_id":"ce4bgt12rcd13ifvqcd0","pricing_plan_id":"cebpf4jnsgd1na2vs0mg"},{"bike_id":"ecdd0875-7d56-4cd2-a14a-671f78e26c97","system_id":"levelo_inurba_marseille","lat":43.230565,"lon":5.354904,"is_reserved":false,"is_disabled":false,"rental_uris":{"android":"levelo://app?vid=ecdd0875-7d56-4cd2-a14a-671f78e26c97","ios":"levelo://app?vid=ecdd0875-7d56-4cd2-a14a-671f78e26c97"},"vehicle_type_id":"4","last_reported":1745637892,"current_range_meters":5600,"station_id":"cpo3342slgdg3j2ifvpg","pricing_plan_id":"cebpf4jnsgd1na2vs0mg"},{"bike_id":"5f240488-f079-48bb-b3e5-991e17088017","system_id":"levelo_inurba_marseille","lat":43.32283,"lon":5.38291,"is_reserved":false,"is_disabled":false,"rental_uris":{"android":"levelo://app?vid=5f240488-f079-48bb-b3e5-991e17088017","ios":"levelo://app?vid=5f240488-f079-48bb-b3e5-991e17088017"},"vehicle_type_id":"4","last_reported":1745637892,"current_range_meters":5600,"station_id":"ce4bhr12rcd13ifvqhqg","pricing_plan_id":"cebpf4jnsgd1na2vs0mg"},{"bike_id":"3767ba54-0ee2-464a-8805-d28bad95405b","system_id":"levelo_inurba_marseille","lat":43.25923,"lon":5.37585,"is_reserved":false,"is_disabled":false,"rental_uris":{"android":"levelo://app?vid=3767ba54-0ee2-464a-8805-d28bad95405b","ios":"levelo://app?vid=3767ba54-0ee2-464a-8805-d28bad95405b"},"vehicle_type_id":"4","last_reported":1745637892,"current_range_meters":5600,"station_id":"","pricing_plan_id":"cebpf4jnsgd1na2vs0mg"},{"bike_id":"4bf0cade-afa0-4731-b40e-ef3f8f4a4fe5","system_id":"levelo_inurba_marseille","lat":43.30106,"lon":5.39065,"is_reserved":false,"is_disabled":true,"rental_uris":{"android":"levelo://app?vid=4bf0cade-afa0-4731-b40e-ef3f8f4a4fe5","ios":"levelo://app?vid=4bf0cade-afa0-4731-b40e-ef3f8f4a4fe5"},"vehicle_type_id":"4","last_reported":1745637892,"current_range_meters":6000,"station_id":"ce4bh192rcd13ifvqdb0","pricing_plan_id":"cebpf4jnsgd1na2vs0mg"},{"bike_id":"21be78b8-099e-43dd-902f-492f38ea3391","system_id":"levelo_inurba_marseille","lat":43.30419,"lon":5.37936,"is_reserved":false,"is_disabled":false,"rental_uris":{"android":"levelo://app?vid=21be78b8-099e-43dd-902f-492f38ea3391","ios":"levelo://app?vid=21be78b8-099e-43dd-902f-492f38ea3391"},"vehicle_type_id":"4","last_reported":1745637892,"current_range_meters":6000,"station_id":"ce4bgup2rcd13ifvqcn0","pricing_plan_id":"cebpf4jnsgd1na2vs0mg"},{"bike_id":"1079c254-2598-4178-bcad-9f660c87e9b1","system_id":"levelo_inurba_marseille","lat":43.31269,"lon":5.40171,"is_reserved":false,"is_disabled":false,"rental_uris":{"android":"levelo://app?vid=1079c254-2598-4178-bcad-9f660c87e9b1","ios":"levelo://app?vid=1079c254-2598-4178-bcad-9f660c87e9b1"},"vehicle_type_id":"4","last_reported":1745637892,"current_range_meters":6000,"station_id":"ce4bh092rcd13ifvqd30","pricing_plan_id":"cebpf4jnsgd1na2vs0mg"},{"bike_id":"ab49b0ae-90ee-4214-bbd8-e0867a6763e8","system_id":"levelo_inurba_marseille","lat":43.31255,"lon":5.37167,"is_reserved":false,"is_disabled":true,"rental_uris":{"android":"levelo://app?vid=ab49b0ae-90ee-4214-bbd8-e0867a6763e8","ios":"levelo://app?vid=ab49b0ae-90ee-4214-bbd8-e0867a6763e8"},"vehicle_type_id":"4","last_reported":1745637892,"current_range_meters":6000,"station_id":"","pricing_plan_id":"cebpf4jnsgd1na2vs0mg"},{"bike_id":"3a7c3039-9e02-4f57-9397-2f7728fbef41","system_id":"levelo_inurba_marseille","lat":43.276428,"lon":5.408548,"is_reserved":false,"is_disabled":false,"rental_uris":{"android":"levelo://app?vid=3a7c3039-9e02-4f57-9397-2f7728fbef41","ios":"levelo://app?vid=3a7c3039-9e02-4f57-9397-2f7728fbef41"},"vehicle_type_id":"4","last_reported":1745637892,"current_range_meters":6000,"station_id":"ce4bhnh2rcd13ifvqgtg","pricing_plan_id":"cebpf4jnsgd1na2vs0mg"},{"bike_id":"e615b763-b9b6-4cb5-a1c0-003a03d00de1","system_id":"levelo_inurba_marseille","lat":43.29753,"lon":5.40971,"is_reserved":false,"is_disabled":false,"rental_uris":{"android":"levelo://app?vid=e615b763-b9b6-4cb5-a1c0-003a03d00de1","ios":"levelo://app?vid=e615b763-b9b6-4cb5-a1c0-003a03d00de1"},"vehicle_type_id":"4","last_reported":1745637892,"current_range_meters":6000,"station_id":"","pricing_plan_id":"cebpf4jnsgd1na2vs0mg"},{"bike_id":"6fd16804-64a9-4229-b572-74cb7886cde6","system_id":"levelo_inurba_marseille","lat":43.30137,"lon":5.39886,"is_reserved":false,"is_disabled":false,"rental_uris":{"android":"levelo://app?vid=6fd16804-64a9-4229-b572-74cb7886cde6","ios":"levelo://app?vid=6fd16804-64a9-4229-b572-74cb7886cde6"},"vehicle_type_id":"4","last_reported":1745637892,"current_range_meters":6400,"station_id":"ce4bh0h2rcd13ifvqd40","pricing_plan_id":"cebpf4jnsgd1na2vs0mg"},{"bike_id":"a931cbc6-1580-4637-901b-dbf32054624e","system_id":"levelo_inurba_marseille","lat":43.3079,"lon":5.37645,"is_reserved":false,"is_disabled":false,"rental_uris":{"android":"levelo://app?vid=a931cbc6-1580-4637-901b-dbf32054624e","ios":"levelo://app?vid=a931cbc6-1580-4637-901b-dbf32054624e"},"vehicle_type_id":"4","last_reported":1745637892,"current_range_meters":6400,"station_id":"ce4bgv92rcd13ifvqcq0","pricing_plan_id":"cebpf4jnsgd1na2vs0mg"},{"bike_id":"c1ccd199-3bfe-4293-a4cb-6829c97c125f","system_id":"levelo_inurba_marseille","lat":43.32415,"lon":5.39097,"is_reserved":false,"is_disabled":true,"rental_uris":{"android":"levelo://app?vid=c1ccd199-3bfe-4293-a4cb-6829c97c125f","ios":"levelo://app?vid=c1ccd199-3bfe-4293-a4cb-6829c97c125f"},"vehicle_type_id":"4","last_reported":1745637892,"current_range_meters":6400,"station_id":"","pricing_plan_id":"cebpf4jnsgd1na2vs0mg"},{"bike_id":"f1a9f5db-d774-4f36-a0be-69b289d14fd1","system_id":"levelo_inurba_marseille","lat":43.21194,"lon":5.35097,"is_reserved":false,"is_disabled":false,"rental_uris":{"android":"levelo://app?vid=f1a9f5db-d774-4f36-a0be-69b289d14fd1","ios":"levelo://app?vid=f1a9f5db-d774-4f36-a0be-69b289d14fd1"},"vehicle_type_id":"4","last_reported":1745637892,"current_range_meters":6400,"station_id":"st_cvj6sg6p6f1abm77japg","pricing_plan_id":"cebpf4jnsgd1na2vs0mg"},{"bike_id":"a4f241e0-aaac-4872-a16e-4e04a72ff58c","system_id":"levelo_inurba_marseille","lat":43.23964,"lon":5.36635,"is_reserved":false,"is_disabled":false,"rental_uris":{"android":"levelo://app?vid=a4f241e0-aaac-4872-a16e-4e04a72ff58c","ios":"levelo://app?vid=a4f241e0-aaac-4872-a16e-4e04a72ff58c"},"vehicle_type_id":"4","last_reported":1745637892,"current_range_meters":6400,"station_id":"ce4bhi12rcd13ifvqfp0","pricing_plan_id":"cebpf4jnsgd1na2vs0mg"},{"bike_id":"be33e066-23f3-4143-8e1c-3a816f88226b","system_id":"levelo_inurba_marseille","lat":43.302876,"lon":5.399436,"is_reserved":false,"is_disabled":false,"rental_uris":{"android":"levelo://app?vid=be33e066-23f3-4143-8e1c-3a816f88226b","ios":"levelo://app?vid=be33e066-23f3-4143-8e1c-3a816f88226b"},"vehicle_type_id":"4","last_reported":1745637892,"current_range_meters":6400,"station_id":"","pricing_plan_id":"cebpf4jnsgd1na2vs0mg"},{"bike_id":"3021320f-2b33-47b5-898c-0f81b476ebae","system_id":"levelo_inurba_marseille","lat":43.303357,"lon":5.4044,"is_reserved":false,"is_disabled":false,"rental_uris":{"android":"levelo://app?vid=3021320f-2b33-47b5-898c-0f81b476ebae","ios":"levelo://app?vid=3021320f-2b33-47b5-898c-0f81b476ebae"},"vehicle_type_id":"4","last_reported":1745637892,"current_range_meters":6400,"station_id":"ce4bh012rcd13ifvqd10","pricing_plan_id":"cebpf4jnsgd1na2vs0mg"},{"bike_id":"d39e40ae-54e2-4e15-a675-2f5caa803c89","system_id":"levelo_inurba_marseille","lat":43.28253,"lon":5.35086,"is_reserved":false,"is_disabled":false,"rental_uris":{"android":"levelo://app?vid=d39e40ae-54e2-4e15-a675-2f5caa803c89","ios":"levelo://app?vid=d39e40ae-54e2-4e15-a675-2f5caa803c89"},"vehicle_type_id":"4","last_reported":1745637892,"current_range_meters":6400,"station_id":"ce4bhbp2rcd13ifvqerg","pricing_plan_id":"cebpf4jnsgd1na2vs0mg"},{"bike_id":"9896ad9c-4ced-4d17-8f43-56cf674ad5d2","system_id":"levelo_inurba_marseille","lat":43.27873,"lon":5.3872,"is_reserved":false,"is_disabled":false,"rental_uris":{"android":"levelo://app?vid=9896ad9c-4ced-4d17-8f43-56cf674ad5d2","ios":"levelo://app?vid=9896ad9c-4ced-4d17-8f43-56cf674ad5d2"},"vehicle_type_id":"4","last_reported":1745637892,"current_range_meters":6800,"station_id":"ce4bhg12rcd13ifvqf80","pricing_plan_id":"cebpf4jnsgd1na2vs0mg"},{"bike_id":"474aaf0c-f9fa-4636-8e33-aa7d8955a270","system_id":"levelo_inurba_marseille","lat":43.25108,"lon":5.40357,"is_reserved":false,"is_disabled":false,"rental_uris":{"android":"levelo://app?vid=474aaf0c-f9fa-4636-8e33-aa7d8955a270","ios":"levelo://app?vid=474aaf0c-f9fa-4636-8e33-aa7d8955a270"},"vehicle_type_id":"4","last_reported":1745637892,"current_range_meters":6800,"station_id":"ce4bhlh2rcd13ifvqgig","pricing_plan_id":"cebpf4jnsgd1na2vs0mg"},{"bike_id":"e9ab448f-ff65-4aac-a5a6-febcb20f7369","system_id":"levelo_inurba_marseille","lat":43.27064,"lon":5.42295,"is_reserved":false,"is_disabled":false,"rental_uris":{"android":"levelo://app?vid=e9ab448f-ff65-4aac-a5a6-febcb20f7369","ios":"levelo://app?vid=e9ab448f-ff65-4aac-a5a6-febcb20f7369"},"vehicle_type_id":"4","last_reported":1745637892,"current_range_meters":6800,"station_id":"ce4bhk92rcd13ifvqgb0","pricing_plan_id":"cebpf4jnsgd1na2vs0mg"},{"bike_id":"1746265e-27ad-4913-8a06-b6dc5372d844","system_id":"levelo_inurba_marseille","lat":43.260051,"lon":5.374988,"is_reserved":false,"is_disabled":false,"rental_uris":{"android":"levelo://app?vid=1746265e-27ad-4913-8a06-b6dc5372d844","ios":"levelo://app?vid=1746265e-27ad-4913-8a06-b6dc5372d844"},"vehicle_type_id":"4","last_reported":1745637892,"current_range_meters":7200,"station_id":"ce4bhgh2rcd13ifvqfa0","pricing_plan_id":"cebpf4jnsgd1na2vs0mg"},{"bike_id":"c3455346-5452-4fae-bb0c-d295a6c40285","system_id":"levelo_inurba_marseille","lat":43.265624,"lon":5.390249,"is_reserved":false,"is_disabled":false,"rental_uris":{"android":"levelo://app?vid=c3455346-5452-4fae-bb0c-d295a6c40285","ios":"levelo://app?vid=c3455346-5452-4fae-bb0c-d295a6c40285"},"vehicle_type_id":"4","last_reported":1745637892,"current_range_meters":7200,"station_id":"ce4bhe12rcd13ifvqf30","pricing_plan_id":"cebpf4jnsgd1na2vs0mg"},{"bike_id":"185ea38f-9f5e-4f80-9a28-ea11ae3260c6","system_id":"levelo_inurba_marseille","lat":43.306367,"lon":5.400749,"is_reserved":false,"is_disabled":false,"rental_uris":{"android":"levelo://app?vid=185ea38f-9f5e-4f80-9a28-ea11ae3260c6","ios":"levelo://app?vid=185ea38f-9f5e-4f80-9a28-ea11ae3260c6"},"vehicle_type_id":"4","last_reported":1745637892,"current_range_meters":7200,"station_id":"ce4bh112rcd13ifvqda0","pricing_plan_id":"cebpf4jnsgd1na2vs0mg"},{"bike_id":"e34f328c-a9b2-4484-b302-58552f89a3c4","system_id":"levelo_inurba_marseille","lat":43.31483,"lon":5.37303,"is_reserved":false,"is_disabled":false,"rental_uris":{"android":"levelo://app?vid=e34f328c-a9b2-4484-b302-58552f89a3c4","ios":"levelo://app?vid=e34f328c-a9b2-4484-b302-58552f89a3c4"},"vehicle_type_id":"4","last_reported":1745637892,"current_range_meters":7200,"station_id":"ce4bgt12rcd13ifvqcd0","pricing_plan_id":"cebpf4jnsgd1na2vs0mg"},{"bike_id":"3801de3f-1722-4ac3-951d-b4b27bd0395c","system_id":"levelo_inurba_marseille","lat":43.340382,"lon":5.374979,"is_reserved":false,"is_disabled":false,"rental_uris":{"android":"levelo://app?vid=3801de3f-1722-4ac3-951d-b4b27bd0395c","ios":"levelo://app?vid=3801de3f-1722-4ac3-951d-b4b27bd0395c"},"vehicle_type_id":"4","last_reported":1745637892,"current_range_meters":7200,"station_id":"","pricing_plan_id":"cebpf4jnsgd1na2vs0mg"},{"bike_id":"2ca87a11-564f-4d02-9bbe-38f647a02125","system_id":"levelo_inurba_marseille","lat":43.3133,"lon":5.39701,"is_reserved":false,"is_disabled":true,"rental_uris":{"android":"levelo://app?vid=2ca87a11-564f-4d02-9bbe-38f647a02125","ios":"levelo://app?vid=2ca87a11-564f-4d02-9bbe-38f647a02125"},"vehicle_type_id":"4","last_reported":1745637892,"current_range_meters":7200,"station_id":"ce4bgvp2rcd13ifvqcu0","pricing_plan_id":"cebpf4jnsgd1na2vs0mg"},{"bike_id":"a3b200f4-5746-46ec-a71b-7de246dcb8a2","system_id":"levelo_inurba_marseille","lat":43.31166,"lon":5.38646,"is_reserved":false,"is_disabled":false,"rental_uris":{"android":"levelo://app?vid=a3b200f4-5746-46ec-a71b-7de246dcb8a2","ios":"levelo://app?vid=a3b200f4-5746-46ec-a71b-7de246dcb8a2"},"vehicle_type_id":"4","last_reported":1745637892,"current_range_meters":7200,"station_id":"","pricing_plan_id":"cebpf4jnsgd1na2vs0mg"},{"bike_id":"a00b4d75-fa25-46e7-a621-8739f4f8bd79","system_id":"levelo_inurba_marseille","lat":43.284153,"lon":5.375805,"is_reserved":false,"is_disabled":false,"rental_uris":{"android":"levelo://app?vid=a00b4d75-fa25-46e7-a621-8739f4f8bd79","ios":"levelo://app?vid=a00b4d75-fa25-46e7-a621-8739f4f8bd79"},"vehicle_type_id":"4","last_reported":1745637892,"current_range_meters":7200,"station_id":"","pricing_plan_id":"cebpf4jnsgd1na2vs0mg"},{"bike_id":"55117e96-7992-4339-8dc3-13afa0744bac","system_id":"levelo_inurba_marseille","lat":43.28579,"lon":5.394893,"is_reserved":false,"is_disabled":false,"rental_uris":{"android":"levelo://app?vid=55117e96-7992-4339-8dc3-13afa0744bac","ios":"levelo://app?vid=55117e96-7992-4339-8dc3-13afa0744bac"},"vehicle_type_id":"4","last_reported":1745637892,"current_range_meters":8000,"station_id":"ce4bh292rcd13ifvqdg0","pricing_plan_id":"cebpf4jnsgd1na2vs0mg"},{"bike_id":"5331df3e-477f-4c99-8e8b-ec43d72ee232","system_id":"levelo_inurba_marseille","lat":43.24163,"lon":5.39717,"is_reserved":false,"is_disabled":false,"rental_uris":{"android":"levelo://app?vid=5331df3e-477f-4c99-8e8b-ec43d72ee232","ios":"levelo://app?vid=5331df3e-477f-4c99-8e8b-ec43d72ee232"},"vehicle_type_id":"4","last_reported":1745637892,"current_range_meters":8000,"station_id":"ce4bhn12rcd13ifvqgpg","pricing_plan_id":"cebpf4jnsgd1na2vs0mg"},{"bike_id":"cc49d7df-7ac8-4737-8445-c197f979bd4d","system_id":"levelo_inurba_marseille","lat":43.28818,"lon":5.35866,"is_reserved":false,"is_disabled":true,"rental_uris":{"android":"levelo://app?vid=cc49d7df-7ac8-4737-8445-c197f979bd4d","ios":"levelo://app?vid=cc49d7df-7ac8-4737-8445-c197f979bd4d"},"vehicle_type_id":"4","last_reported":1745637892,"current_range_meters":8000,"station_id":"ce4bhb12rcd13ifvqem0","pricing_plan_id":"cebpf4jnsgd1na2vs0mg"},{"bike_id":"228b6590-42c7-46eb-ab0f-678013f0a9d1","system_id":"levelo_inurba_marseille","lat":43.24789,"lon":5.37462,"is_reserved":false,"is_disabled":true,"rental_uris":{"android":"levelo://app?vid=228b6590-42c7-46eb-ab0f-678013f0a9d1","ios":"levelo://app?vid=228b6590-42c7-46eb-ab0f-678013f0a9d1"},"vehicle_type_id":"4","last_reported":1745637892,"current_range_meters":8000,"station_id":"ce4bhgh2rcd13ifvqfb0","pricing_plan_id":"cebpf4jnsgd1na2vs0mg"},{"bike_id":"f53ca2be-5e14-4232-a442-dc2e98de0bb7","system_id":"levelo_inurba_marseille","lat":43.27316,"lon":5.39111,"is_reserved":false,"is_disabled":true,"rental_uris":{"android":"levelo://app?vid=f53ca2be-5e14-4232-a442-dc2e98de0bb7","ios":"levelo://app?vid=f53ca2be-5e14-4232-a442-dc2e98de0bb7"},"vehicle_type_id":"4","last_reported":1745637892,"current_range_meters":8000,"station_id":"ce4bhgp2rcd13ifvqfe0","pricing_plan_id":"cebpf4jnsgd1na2vs0mg"},{"bike_id":"3b154790-3924-40d2-8858-c506203b6522","system_id":"levelo_inurba_marseille","lat":43.3111,"lon":5.37781,"is_reserved":false,"is_disabled":false,"rental_uris":{"android":"levelo://app?vid=3b154790-3924-40d2-8858-c506203b6522","ios":"levelo://app?vid=3b154790-3924-40d2-8858-c506203b6522"},"vehicle_type_id":"4","last_reported":1745637892,"current_range_meters":8000,"station_id":"ce4bgt92rcd13ifvqcg0","pricing_plan_id":"cebpf4jnsgd1na2vs0mg"},{"bike_id":"ed8bad2d-2af8-44bd-9174-61e9a5e74187","system_id":"levelo_inurba_marseille","lat":43.30647,"lon":5.4009,"is_reserved":false,"is_disabled":false,"rental_uris":{"android":"levelo://app?vid=ed8bad2d-2af8-44bd-9174-61e9a5e74187","ios":"levelo://app?vid=ed8bad2d-2af8-44bd-9174-61e9a5e74187"},"vehicle_type_id":"4","last_reported":1745637892,"current_range_meters":8400,"station_id":"ce4bh112rcd13ifvqda0","pricing_plan_id":"cebpf4jnsgd1na2vs0mg"},{"bike_id":"a5826db2-d709-4fbc-b54d-38f43824cce2","system_id":"levelo_inurba_marseille","lat":43.28029,"lon":5.35645,"is_reserved":false,"is_disabled":false,"rental_uris":{"android":"levelo://app?vid=a5826db2-d709-4fbc-b54d-38f43824cce2","ios":"levelo://app?vid=a5826db2-d709-4fbc-b54d-38f43824cce2"},"vehicle_type_id":"4","last_reported":1745637892,"current_range_meters":8400,"station_id":"","pricing_plan_id":"cebpf4jnsgd1na2vs0mg"},{"bike_id":"8d80dd9a-3fd3-4aa7-9f09-73e99be26d1b","system_id":"levelo_inurba_marseille","lat":43.30777,"lon":5.37649,"is_reserved":false,"is_disabled":false,"rental_uris":{"android":"levelo://app?vid=8d80dd9a-3fd3-4aa7-9f09-73e99be26d1b","ios":"levelo://app?vid=8d80dd9a-3fd3-4aa7-9f09-73e99be26d1b"},"vehicle_type_id":"4","last_reported":1745637892,"current_range_meters":8400,"station_id":"ce4bgv92rcd13ifvqcq0","pricing_plan_id":"cebpf4jnsgd1na2vs0mg"},{"bike_id":"2c2e5bcc-b9ff-41a6-be9a-7733528f3bfa","system_id":"levelo_inurba_marseille","lat":43.27492,"lon":5.42459,"is_reserved":false,"is_disabled":false,"rental_uris":{"android":"levelo://app?vid=2c2e5bcc-b9ff-41a6-be9a-7733528f3bfa","ios":"levelo://app?vid=2c2e5bcc-b9ff-41a6-be9a-7733528f3bfa"},"vehicle_type_id":"4","last_reported":1745637892,"current_range_meters":8400,"station_id":"ce4bhn92rcd13ifvqgrg","pricing_plan_id":"cebpf4jnsgd1na2vs0mg"},{"bike_id":"18ae1d78-8d9e-4697-bc48-a39d36035c1d","system_id":"levelo_inurba_marseille","lat":43.239644,"lon":5.366287,"is_reserved":false,"is_disabled":false,"rental_uris":{"android":"levelo://app?vid=18ae1d78-8d9e-4697-bc48-a39d36035c1d","ios":"levelo://app?vid=18ae1d78-8d9e-4697-bc48-a39d36035c1d"},"vehicle_type_id":"4","last_reported":1745637892,"current_range_meters":8400,"station_id":"ce4bhi12rcd13ifvqfp0","pricing_plan_id":"cebpf4jnsgd1na2vs0mg"},{"bike_id":"80ca7186-6be3-49d7-98b9-518be2f29b22","system_id":"levelo_inurba_marseille","lat":43.336068,"lon":5.410238,"is_reserved":false,"is_disabled":false,"rental_uris":{"android":"levelo://app?vid=80ca7186-6be3-49d7-98b9-518be2f29b22","ios":"levelo://app?vid=80ca7186-6be3-49d7-98b9-518be2f29b22"},"vehicle_type_id":"4","last_reported":1745637892,"current_range_meters":8400,"station_id":"ce4bhqh2rcd13ifvqhmg","pricing_plan_id":"cebpf4jnsgd1na2vs0mg"},{"bike_id":"af9f4d61-e477-4a90-b51d-7c801b7d74e8","system_id":"levelo_inurba_marseille","lat":43.28565,"lon":5.39529,"is_reserved":false,"is_disabled":false,"rental_uris":{"android":"levelo://app?vid=af9f4d61-e477-4a90-b51d-7c801b7d74e8","ios":"levelo://app?vid=af9f4d61-e477-4a90-b51d-7c801b7d74e8"},"vehicle_type_id":"4","last_reported":1745637892,"current_range_meters":8800,"station_id":"ce4bh292rcd13ifvqdg0","pricing_plan_id":"cebpf4jnsgd1na2vs0mg"},{"bike_id":"7410bca4-dc06-4c61-a6c1-1417f60c6640","system_id":"levelo_inurba_marseille","lat":43.31474,"lon":5.37298,"is_reserved":false,"is_disabled":false,"rental_uris":{"android":"levelo://app?vid=7410bca4-dc06-4c61-a6c1-1417f60c6640","ios":"levelo://app?vid=7410bca4-dc06-4c61-a6c1-1417f60c6640"},"vehicle_type_id":"4","last_reported":1745637892,"current_range_meters":8800,"station_id":"ce4bgt12rcd13ifvqcd0","pricing_plan_id":"cebpf4jnsgd1na2vs0mg"},{"bike_id":"3c6918da-f5b4-47ed-af1b-5f4122b9d878","system_id":"levelo_inurba_marseille","lat":43.260531,"lon":5.394023,"is_reserved":false,"is_disabled":false,"rental_uris":{"android":"levelo://app?vid=3c6918da-f5b4-47ed-af1b-5f4122b9d878","ios":"levelo://app?vid=3c6918da-f5b4-47ed-af1b-5f4122b9d878"},"vehicle_type_id":"4","last_reported":1745637892,"current_range_meters":8800,"station_id":"ce4bhh92rcd13ifvqfj0","pricing_plan_id":"cebpf4jnsgd1na2vs0mg"},{"bike_id":"ca7b7d84-2631-4232-bbf1-fa44212248d9","system_id":"levelo_inurba_marseille","lat":43.30937,"lon":5.40153,"is_reserved":false,"is_disabled":false,"rental_uris":{"android":"levelo://app?vid=ca7b7d84-2631-4232-bbf1-fa44212248d9","ios":"levelo://app?vid=ca7b7d84-2631-4232-bbf1-fa44212248d9"},"vehicle_type_id":"4","last_reported":1745637892,"current_range_meters":8800,"station_id":"ce4bgvp2rcd13ifvqct0","pricing_plan_id":"cebpf4jnsgd1na2vs0mg"},{"bike_id":"5c8dde23-03af-4ec7-8c64-b6a7b95cfa5a","system_id":"levelo_inurba_marseille","lat":43.3372,"lon":5.39189,"is_reserved":false,"is_disabled":false,"rental_uris":{"android":"levelo://app?vid=5c8dde23-03af-4ec7-8c64-b6a7b95cfa5a","ios":"levelo://app?vid=5c8dde23-03af-4ec7-8c64-b6a7b95cfa5a"},"vehicle_type_id":"4","last_reported":1745637892,"current_range_meters":8800,"station_id":"ce4bhr92rcd13ifvqhsg","pricing_plan_id":"cebpf4jnsgd1na2vs0mg"},{"bike_id":"f997f3a2-6ef7-4d7a-931e-8083cf2fa70c","system_id":"levelo_inurba_marseille","lat":43.26803,"lon":5.40261,"is_reserved":false,"is_disabled":false,"rental_uris":{"android":"levelo://app?vid=f997f3a2-6ef7-4d7a-931e-8083cf2fa70c","ios":"levelo://app?vid=f997f3a2-6ef7-4d7a-931e-8083cf2fa70c"},"vehicle_type_id":"4","last_reported":1745637892,"current_range_meters":8800,"station_id":"ce501612rcd8frsf0b60","pricing_plan_id":"cebpf4jnsgd1na2vs0mg"},{"bike_id":"85d4dcad-e601-4542-8c61-4b58cdf033c2","system_id":"levelo_inurba_marseille","lat":43.25478,"lon":5.37672,"is_reserved":false,"is_disabled":true,"rental_uris":{"android":"levelo://app?vid=85d4dcad-e601-4542-8c61-4b58cdf033c2","ios":"levelo://app?vid=85d4dcad-e601-4542-8c61-4b58cdf033c2"},"vehicle_type_id":"4","last_reported":1745637892,"current_range_meters":8800,"station_id":"ce4bhh12rcd13ifvqff0","pricing_plan_id":"cebpf4jnsgd1na2vs0mg"},{"bike_id":"569796d3-2b39-4144-b7df-5b4cab5ca99b","system_id":"levelo_inurba_marseille","lat":43.31318,"lon":5.39712,"is_reserved":false,"is_disabled":false,"rental_uris":{"android":"levelo://app?vid=569796d3-2b39-4144-b7df-5b4cab5ca99b","ios":"levelo://app?vid=569796d3-2b39-4144-b7df-5b4cab5ca99b"},"vehicle_type_id":"4","last_reported":1745637892,"current_range_meters":8800,"station_id":"ce4bgvp2rcd13ifvqcu0","pricing_plan_id":"cebpf4jnsgd1na2vs0mg"},{"bike_id":"e55b7fd1-db0d-4417-a85a-eee1595f4095","system_id":"levelo_inurba_marseille","lat":43.27924,"lon":5.41056,"is_reserved":false,"is_disabled":false,"rental_uris":{"android":"levelo://app?vid=e55b7fd1-db0d-4417-a85a-eee1595f4095","ios":"levelo://app?vid=e55b7fd1-db0d-4417-a85a-eee1595f4095"},"vehicle_type_id":"4","last_reported":1745637892,"current_range_meters":8800,"station_id":"ce4bhnp2rcd13ifvqh0g","pricing_plan_id":"cebpf4jnsgd1na2vs0mg"},{"bike_id":"422b5989-c8b6-43aa-b2b9-3bfeb2e1ddc0","system_id":"levelo_inurba_marseille","lat":43.24722,"lon":5.41181,"is_reserved":false,"is_disabled":false,"rental_uris":{"android":"levelo://app?vid=422b5989-c8b6-43aa-b2b9-3bfeb2e1ddc0","ios":"levelo://app?vid=422b5989-c8b6-43aa-b2b9-3bfeb2e1ddc0"},"vehicle_type_id":"4","last_reported":1745637892,"current_range_meters":9200,"station_id":"","pricing_plan_id":"cebpf4jnsgd1na2vs0mg"},{"bike_id":"fb7d9e1d-687a-422f-b9e9-063a9e7b9975","system_id":"levelo_inurba_marseille","lat":43.231993,"lon":5.355473,"is_reserved":false,"is_disabled":false,"rental_uris":{"android":"levelo://app?vid=fb7d9e1d-687a-422f-b9e9-063a9e7b9975","ios":"levelo://app?vid=fb7d9e1d-687a-422f-b9e9-063a9e7b9975"},"vehicle_type_id":"4","last_reported":1745637892,"current_range_meters":8800,"station_id":"ce4bhu92rcd13ifvqi70","pricing_plan_id":"cebpf4jnsgd1na2vs0mg"},{"bike_id":"78c7f484-570c-4dec-877d-06e748e2a726","system_id":"levelo_inurba_marseille","lat":43.29786,"lon":5.38123,"is_reserved":false,"is_disabled":true,"rental_uris":{"android":"levelo://app?vid=78c7f484-570c-4dec-877d-06e748e2a726","ios":"levelo://app?vid=78c7f484-570c-4dec-877d-06e748e2a726"},"vehicle_type_id":"4","last_reported":1745637892,"current_range_meters":9200,"station_id":"ce4bgip2rcd13ifvqbb0","pricing_plan_id":"cebpf4jnsgd1na2vs0mg"},{"bike_id":"fa72b649-3018-4187-96fe-d31c0b11e0f8","system_id":"levelo_inurba_marseille","lat":43.297074,"lon":5.370914,"is_reserved":false,"is_disabled":false,"rental_uris":{"android":"levelo://app?vid=fa72b649-3018-4187-96fe-d31c0b11e0f8","ios":"levelo://app?vid=fa72b649-3018-4187-96fe-d31c0b11e0f8"},"vehicle_type_id":"4","last_reported":1745637892,"current_range_meters":9200,"station_id":"","pricing_plan_id":"cebpf4jnsgd1na2vs0mg"},{"bike_id":"f50ff1c4-68f4-418b-a166-e1ba5b322376","system_id":"levelo_inurba_marseille","lat":43.30924,"lon":5.40166,"is_reserved":false,"is_disabled":true,"rental_uris":{"android":"levelo://app?vid=f50ff1c4-68f4-418b-a166-e1ba5b322376","ios":"levelo://app?vid=f50ff1c4-68f4-418b-a166-e1ba5b322376"},"vehicle_type_id":"4","last_reported":1745637892,"current_range_meters":9200,"station_id":"ce4bgvp2rcd13ifvqct0","pricing_plan_id":"cebpf4jnsgd1na2vs0mg"},{"bike_id":"edbc9bff-8242-42ee-887f-3b5d28f3a582","system_id":"levelo_inurba_marseille","lat":43.29375,"lon":5.37859,"is_reserved":false,"is_disabled":true,"rental_uris":{"android":"levelo://app?vid=edbc9bff-8242-42ee-887f-3b5d28f3a582","ios":"levelo://app?vid=edbc9bff-8242-42ee-887f-3b5d28f3a582"},"vehicle_type_id":"4","last_reported":1745637892,"current_range_meters":9200,"station_id":"ce4bgjh2rcd13ifvqbf0","pricing_plan_id":"cebpf4jnsgd1na2vs0mg"},{"bike_id":"dc01f0b5-b1ff-492a-9187-c2aa24895f43","system_id":"levelo_inurba_marseille","lat":43.23181,"lon":5.39989,"is_reserved":false,"is_disabled":false,"rental_uris":{"android":"levelo://app?vid=dc01f0b5-b1ff-492a-9187-c2aa24895f43","ios":"levelo://app?vid=dc01f0b5-b1ff-492a-9187-c2aa24895f43"},"vehicle_type_id":"4","last_reported":1745637892,"current_range_meters":9200,"station_id":"ce4bhn12rcd13ifvqgqg","pricing_plan_id":"cebpf4jnsgd1na2vs0mg"},{"bike_id":"eb9d51f2-7234-4cf3-bbcd-0391235b739b","system_id":"levelo_inurba_marseille","lat":43.30889,"lon":5.39657,"is_reserved":false,"is_disabled":false,"rental_uris":{"android":"levelo://app?vid=eb9d51f2-7234-4cf3-bbcd-0391235b739b","ios":"levelo://app?vid=eb9d51f2-7234-4cf3-bbcd-0391235b739b"},"vehicle_type_id":"4","last_reported":1745637892,"current_range_meters":9600,"station_id":"ce4bh012rcd13ifvqcv0","pricing_plan_id":"cebpf4jnsgd1na2vs0mg"},{"bike_id":"16d6482a-eff2-41b1-a83c-bc881756a6e2","system_id":"levelo_inurba_marseille","lat":43.30792,"lon":5.38175,"is_reserved":false,"is_disabled":false,"rental_uris":{"android":"levelo://app?vid=16d6482a-eff2-41b1-a83c-bc881756a6e2","ios":"levelo://app?vid=16d6482a-eff2-41b1-a83c-bc881756a6e2"},"vehicle_type_id":"4","last_reported":1745637892,"current_range_meters":9600,"station_id":"ce4bgt12rcd13ifvqce0","pricing_plan_id":"cebpf4jnsgd1na2vs0mg"},{"bike_id":"9f5578ed-5577-43eb-b8df-e2b6a45d6d89","system_id":"levelo_inurba_marseille","lat":43.286,"lon":5.37071,"is_reserved":false,"is_disabled":false,"rental_uris":{"android":"levelo://app?vid=9f5578ed-5577-43eb-b8df-e2b6a45d6d89","ios":"levelo://app?vid=9f5578ed-5577-43eb-b8df-e2b6a45d6d89"},"vehicle_type_id":"4","last_reported":1745637892,"current_range_meters":9600,"station_id":"ce4bht12rcd13ifvqi60","pricing_plan_id":"cebpf4jnsgd1na2vs0mg"},{"bike_id":"3060a98f-4723-4c0c-a5f3-8d302c950512","system_id":"levelo_inurba_marseille","lat":43.28565,"lon":5.39518,"is_reserved":false,"is_disabled":false,"rental_uris":{"android":"levelo://app?vid=3060a98f-4723-4c0c-a5f3-8d302c950512","ios":"levelo://app?vid=3060a98f-4723-4c0c-a5f3-8d302c950512"},"vehicle_type_id":"4","last_reported":1745637892,"current_range_meters":9600,"station_id":"ce4bh292rcd13ifvqdg0","pricing_plan_id":"cebpf4jnsgd1na2vs0mg"},{"bike_id":"eba80cac-49a3-43c0-b27f-65d7a86f1a53","system_id":"levelo_inurba_marseille","lat":43.31118,"lon":5.37769,"is_reserved":false,"is_disabled":false,"rental_uris":{"android":"levelo://app?vid=eba80cac-49a3-43c0-b27f-65d7a86f1a53","ios":"levelo://app?vid=eba80cac-49a3-43c0-b27f-65d7a86f1a53"},"vehicle_type_id":"4","last_reported":1745637892,"current_range_meters":9600,"station_id":"ce4bgt92rcd13ifvqcg0","pricing_plan_id":"cebpf4jnsgd1na2vs0mg"},{"bike_id":"51376682-930e-45ed-90e0-b53d931ddc33","system_id":"levelo_inurba_marseille","lat":43.27487,"lon":5.42469,"is_reserved":false,"is_disabled":false,"rental_uris":{"android":"levelo://app?vid=51376682-930e-45ed-90e0-b53d931ddc33","ios":"levelo://app?vid=51376682-930e-45ed-90e0-b53d931ddc33"},"vehicle_type_id":"4","last_reported":1745637892,"current_range_meters":9600,"station_id":"ce4bhn92rcd13ifvqgrg","pricing_plan_id":"cebpf4jnsgd1na2vs0mg"},{"bike_id":"c3377b8f-007f-40f4-941a-437fea66d7c3","system_id":"levelo_inurba_marseille","lat":43.27146,"lon":5.41007,"is_reserved":false,"is_disabled":false,"rental_uris":{"android":"levelo://app?vid=c3377b8f-007f-40f4-941a-437fea66d7c3","ios":"levelo://app?vid=c3377b8f-007f-40f4-941a-437fea66d7c3"},"vehicle_type_id":"4","last_reported":1745637892,"current_range_meters":9600,"station_id":"ce4bhl12rcd13ifvqgf0","pricing_plan_id":"cebpf4jnsgd1na2vs0mg"},{"bike_id":"32a6065e-013e-4aa2-807a-8927ace60dfe","system_id":"levelo_inurba_marseille","lat":43.29571,"lon":5.37518,"is_reserved":false,"is_disabled":false,"rental_uris":{"android":"levelo://app?vid=32a6065e-013e-4aa2-807a-8927ace60dfe","ios":"levelo://app?vid=32a6065e-013e-4aa2-807a-8927ace60dfe"},"vehicle_type_id":"4","last_reported":1745637892,"current_range_meters":9600,"station_id":"ce4bgh92rcd13ifvqb50","pricing_plan_id":"cebpf4jnsgd1na2vs0mg"},{"bike_id":"860ecedf-9e5e-49e6-a334-de39c73317e7","system_id":"levelo_inurba_marseille","lat":43.27911,"lon":5.39596,"is_reserved":false,"is_disabled":false,"rental_uris":{"android":"levelo://app?vid=860ecedf-9e5e-49e6-a334-de39c73317e7","ios":"levelo://app?vid=860ecedf-9e5e-49e6-a334-de39c73317e7"},"vehicle_type_id":"4","last_reported":1745637892,"current_range_meters":9600,"station_id":"ce4bhf92rcd13ifvqf40","pricing_plan_id":"cebpf4jnsgd1na2vs0mg"},{"bike_id":"3c976c1b-644c-4432-ad5a-b823ebcbcc9c","system_id":"levelo_inurba_marseille","lat":43.301398,"lon":5.374232,"is_reserved":false,"is_disabled":true,"rental_uris":{"android":"levelo://app?vid=3c976c1b-644c-4432-ad5a-b823ebcbcc9c","ios":"levelo://app?vid=3c976c1b-644c-4432-ad5a-b823ebcbcc9c"},"vehicle_type_id":"4","last_reported":1745637892,"current_range_meters":9600,"station_id":"ce4bgs92rcd13ifvqcc0","pricing_plan_id":"cebpf4jnsgd1na2vs0mg"},{"bike_id":"b0ee9a1d-7b8a-4efb-bf61-ca32e693e2f5","system_id":"levelo_inurba_marseille","lat":43.275005,"lon":5.424465,"is_reserved":false,"is_disabled":false,"rental_uris":{"android":"levelo://app?vid=b0ee9a1d-7b8a-4efb-bf61-ca32e693e2f5","ios":"levelo://app?vid=b0ee9a1d-7b8a-4efb-bf61-ca32e693e2f5"},"vehicle_type_id":"4","last_reported":1745637892,"current_range_meters":9600,"station_id":"ce4bhn92rcd13ifvqgrg","pricing_plan_id":"cebpf4jnsgd1na2vs0mg"},{"bike_id":"ea9a1225-0675-4e25-bc5c-6a3f85357c8d","system_id":"levelo_inurba_marseille","lat":43.28928,"lon":5.36412,"is_reserved":false,"is_disabled":true,"rental_uris":{"android":"levelo://app?vid=ea9a1225-0675-4e25-bc5c-6a3f85357c8d","ios":"levelo://app?vid=ea9a1225-0675-4e25-bc5c-6a3f85357c8d"},"vehicle_type_id":"4","last_reported":1745637892,"current_range_meters":10000,"station_id":"ce4bhc92rcd13ifvqetg","pricing_plan_id":"cebpf4jnsgd1na2vs0mg"},{"bike_id":"1f4be83d-23f2-4aa7-b158-9b5e1240a216","system_id":"levelo_inurba_marseille","lat":43.25815,"lon":5.39417,"is_reserved":false,"is_disabled":false,"rental_uris":{"android":"levelo://app?vid=1f4be83d-23f2-4aa7-b158-9b5e1240a216","ios":"levelo://app?vid=1f4be83d-23f2-4aa7-b158-9b5e1240a216"},"vehicle_type_id":"4","last_reported":1745637892,"current_range_meters":10000,"station_id":"ce4bhip2rcd13ifvqft0","pricing_plan_id":"cebpf4jnsgd1na2vs0mg"},{"bike_id":"4c11ff0f-a579-4f78-9960-a443174b0bdd","system_id":"levelo_inurba_marseille","lat":43.211906,"lon":5.350731,"is_reserved":false,"is_disabled":false,"rental_uris":{"android":"levelo://app?vid=4c11ff0f-a579-4f78-9960-a443174b0bdd","ios":"levelo://app?vid=4c11ff0f-a579-4f78-9960-a443174b0bdd"},"vehicle_type_id":"4","last_reported":1745637892,"current_range_meters":10000,"station_id":"st_cvj6sg6p6f1abm77japg","pricing_plan_id":"cebpf4jnsgd1na2vs0mg"},{"bike_id":"8ee8ddcf-b329-40ae-aad8-a703f60c6f36","system_id":"levelo_inurba_marseille","lat":43.2735,"lon":5.36234,"is_reserved":false,"is_disabled":false,"rental_uris":{"android":"levelo://app?vid=8ee8ddcf-b329-40ae-aad8-a703f60c6f36","ios":"levelo://app?vid=8ee8ddcf-b329-40ae-aad8-a703f60c6f36"},"vehicle_type_id":"4","last_reported":1745637892,"current_range_meters":10000,"station_id":"ce4bhbh2rcd13ifvqeo0","pricing_plan_id":"cebpf4jnsgd1na2vs0mg"},{"bike_id":"f0360f45-6be9-4488-84ea-84d3cda26aaf","system_id":"levelo_inurba_marseille","lat":43.32997,"lon":5.4387,"is_reserved":false,"is_disabled":false,"rental_uris":{"android":"levelo://app?vid=f0360f45-6be9-4488-84ea-84d3cda26aaf","ios":"levelo://app?vid=f0360f45-6be9-4488-84ea-84d3cda26aaf"},"vehicle_type_id":"4","last_reported":1745637892,"current_range_meters":10000,"station_id":"","pricing_plan_id":"cebpf4jnsgd1na2vs0mg"},{"bike_id":"37f49765-3f36-4a47-aa70-b3e71040e079","system_id":"levelo_inurba_marseille","lat":43.292761,"lon":5.401283,"is_reserved":false,"is_disabled":false,"rental_uris":{"android":"levelo://app?vid=37f49765-3f36-4a47-aa70-b3e71040e079","ios":"levelo://app?vid=37f49765-3f36-4a47-aa70-b3e71040e079"},"vehicle_type_id":"4","last_reported":1745637892,"current_range_meters":10000,"station_id":"ce4bh312rcd13ifvqdk0","pricing_plan_id":"cebpf4jnsgd1na2vs0mg"},{"bike_id":"7d8d69b2-0147-4031-958f-236ac2917414","system_id":"levelo_inurba_marseille","lat":43.29288,"lon":5.36815,"is_reserved":false,"is_disabled":true,"rental_uris":{"android":"levelo://app?vid=7d8d69b2-0147-4031-958f-236ac2917414","ios":"levelo://app?vid=7d8d69b2-0147-4031-958f-236ac2917414"},"vehicle_type_id":"4","last_reported":1745637892,"current_range_meters":10800,"station_id":"ce4bhbp2rcd13ifvqesg","pricing_plan_id":"cebpf4jnsgd1na2vs0mg"},{"bike_id":"e2dcabcf-64d8-4394-bb9a-ff877bee611a","system_id":"levelo_inurba_marseille","lat":43.32046,"lon":5.4154,"is_reserved":false,"is_disabled":false,"rental_uris":{"android":"levelo://app?vid=e2dcabcf-64d8-4394-bb9a-ff877bee611a","ios":"levelo://app?vid=e2dcabcf-64d8-4394-bb9a-ff877bee611a"},"vehicle_type_id":"4","last_reported":1745637892,"current_range_meters":10800,"station_id":"ce4bhq92rcd13ifvqhkg","pricing_plan_id":"cebpf4jnsgd1na2vs0mg"},{"bike_id":"890d8b58-5f95-47c5-8125-c5ad39b55532","system_id":"levelo_inurba_marseille","lat":43.3127,"lon":5.40166,"is_reserved":false,"is_disabled":false,"rental_uris":{"android":"levelo://app?vid=890d8b58-5f95-47c5-8125-c5ad39b55532","ios":"levelo://app?vid=890d8b58-5f95-47c5-8125-c5ad39b55532"},"vehicle_type_id":"4","last_reported":1745637892,"current_range_meters":10800,"station_id":"ce4bh092rcd13ifvqd30","pricing_plan_id":"cebpf4jnsgd1na2vs0mg"},{"bike_id":"e870bb3b-eab4-4e05-ab68-f870370cfa6e","system_id":"levelo_inurba_marseille","lat":43.27035,"lon":5.42263,"is_reserved":false,"is_disabled":false,"rental_uris":{"android":"levelo://app?vid=e870bb3b-eab4-4e05-ab68-f870370cfa6e","ios":"levelo://app?vid=e870bb3b-eab4-4e05-ab68-f870370cfa6e"},"vehicle_type_id":"4","last_reported":1745637892,"current_range_meters":10800,"station_id":"ce4bhk92rcd13ifvqgb0","pricing_plan_id":"cebpf4jnsgd1na2vs0mg"},{"bike_id":"c39614a5-07de-4530-aba8-6df7a38d52ce","system_id":"levelo_inurba_marseille","lat":43.31283,"lon":5.40164,"is_reserved":false,"is_disabled":false,"rental_uris":{"android":"levelo://app?vid=c39614a5-07de-4530-aba8-6df7a38d52ce","ios":"levelo://app?vid=c39614a5-07de-4530-aba8-6df7a38d52ce"},"vehicle_type_id":"4","last_reported":1745637892,"current_range_meters":10800,"station_id":"ce4bh092rcd13ifvqd30","pricing_plan_id":"cebpf4jnsgd1na2vs0mg"},{"bike_id":"43a1db44-05c6-4ff6-a57e-837dddbfb0d2","system_id":"levelo_inurba_marseille","lat":43.27425,"lon":5.3942,"is_reserved":false,"is_disabled":false,"rental_uris":{"android":"levelo://app?vid=43a1db44-05c6-4ff6-a57e-837dddbfb0d2","ios":"levelo://app?vid=43a1db44-05c6-4ff6-a57e-837dddbfb0d2"},"vehicle_type_id":"4","last_reported":1745637892,"current_range_meters":10800,"station_id":"ce4bhdp2rcd13ifvqf20","pricing_plan_id":"cebpf4jnsgd1na2vs0mg"},{"bike_id":"0bfff189-ec6a-4439-b345-e9dd168ab867","system_id":"levelo_inurba_marseille","lat":43.33725,"lon":5.39193,"is_reserved":false,"is_disabled":false,"rental_uris":{"android":"levelo://app?vid=0bfff189-ec6a-4439-b345-e9dd168ab867","ios":"levelo://app?vid=0bfff189-ec6a-4439-b345-e9dd168ab867"},"vehicle_type_id":"4","last_reported":1745637892,"current_range_meters":10800,"station_id":"ce4bhr92rcd13ifvqhsg","pricing_plan_id":"cebpf4jnsgd1na2vs0mg"},{"bike_id":"b92d1d11-4e25-4e72-a14c-3101ccbf7b8a","system_id":"levelo_inurba_marseille","lat":43.27622,"lon":5.36116,"is_reserved":false,"is_disabled":false,"rental_uris":{"android":"levelo://app?vid=b92d1d11-4e25-4e72-a14c-3101ccbf7b8a","ios":"levelo://app?vid=b92d1d11-4e25-4e72-a14c-3101ccbf7b8a"},"vehicle_type_id":"4","last_reported":1745637892,"current_range_meters":11200,"station_id":"ce4bgj92rcd13ifvqbe0","pricing_plan_id":"cebpf4jnsgd1na2vs0mg"},{"bike_id":"f77a929f-13ce-4ad3-b37b-030e100178ba","system_id":"levelo_inurba_marseille","lat":43.259374,"lon":5.408998,"is_reserved":false,"is_disabled":false,"rental_uris":{"android":"levelo://app?vid=f77a929f-13ce-4ad3-b37b-030e100178ba","ios":"levelo://app?vid=f77a929f-13ce-4ad3-b37b-030e100178ba"},"vehicle_type_id":"4","last_reported":1745637892,"current_range_meters":11200,"station_id":"ce4bhm92rcd13ifvqglg","pricing_plan_id":"cebpf4jnsgd1na2vs0mg"},{"bike_id":"1ef2b4d7-eaa0-461a-8e88-8af01397cd81","system_id":"levelo_inurba_marseille","lat":43.27913,"lon":5.39592,"is_reserved":false,"is_disabled":false,"rental_uris":{"android":"levelo://app?vid=1ef2b4d7-eaa0-461a-8e88-8af01397cd81","ios":"levelo://app?vid=1ef2b4d7-eaa0-461a-8e88-8af01397cd81"},"vehicle_type_id":"4","last_reported":1745637892,"current_range_meters":11200,"station_id":"ce4bhf92rcd13ifvqf40","pricing_plan_id":"cebpf4jnsgd1na2vs0mg"},{"bike_id":"969ba5a2-659d-459e-9a5a-1347065d5102","system_id":"levelo_inurba_marseille","lat":43.25123,"lon":5.40308,"is_reserved":false,"is_disabled":false,"rental_uris":{"android":"levelo://app?vid=969ba5a2-659d-459e-9a5a-1347065d5102","ios":"levelo://app?vid=969ba5a2-659d-459e-9a5a-1347065d5102"},"vehicle_type_id":"4","last_reported":1745637892,"current_range_meters":11200,"station_id":"ce4bhlh2rcd13ifvqgig","pricing_plan_id":"cebpf4jnsgd1na2vs0mg"},{"bike_id":"c65adb3e-50be-42af-92da-68dd7e4eacc9","system_id":"levelo_inurba_marseille","lat":43.301562,"lon":5.38102,"is_reserved":false,"is_disabled":true,"rental_uris":{"android":"levelo://app?vid=c65adb3e-50be-42af-92da-68dd7e4eacc9","ios":"levelo://app?vid=c65adb3e-50be-42af-92da-68dd7e4eacc9"},"vehicle_type_id":"4","last_reported":1745637892,"current_range_meters":11200,"station_id":"ce4bgjp2rcd13ifvqbh0","pricing_plan_id":"cebpf4jnsgd1na2vs0mg"},{"bike_id":"d3d07e76-01d8-4ac2-aace-549c20fdd335","system_id":"levelo_inurba_marseille","lat":43.26567,"lon":5.38981,"is_reserved":false,"is_disabled":false,"rental_uris":{"android":"levelo://app?vid=d3d07e76-01d8-4ac2-aace-549c20fdd335","ios":"levelo://app?vid=d3d07e76-01d8-4ac2-aace-549c20fdd335"},"vehicle_type_id":"4","last_reported":1745637892,"current_range_meters":11200,"station_id":"ce4bhe12rcd13ifvqf30","pricing_plan_id":"cebpf4jnsgd1na2vs0mg"},{"bike_id":"cf00bd08-72bf-4a8f-8ab2-247c2a4e4ffd","system_id":"levelo_inurba_marseille","lat":43.31328,"lon":5.39706,"is_reserved":false,"is_disabled":false,"rental_uris":{"android":"levelo://app?vid=cf00bd08-72bf-4a8f-8ab2-247c2a4e4ffd","ios":"levelo://app?vid=cf00bd08-72bf-4a8f-8ab2-247c2a4e4ffd"},"vehicle_type_id":"4","last_reported":1745637892,"current_range_meters":11200,"station_id":"ce4bgvp2rcd13ifvqcu0","pricing_plan_id":"cebpf4jnsgd1na2vs0mg"},{"bike_id":"fe80108d-e190-41be-86b8-a19c8cf74730","system_id":"levelo_inurba_marseille","lat":43.287037,"lon":5.373943,"is_reserved":false,"is_disabled":false,"rental_uris":{"android":"levelo://app?vid=fe80108d-e190-41be-86b8-a19c8cf74730","ios":"levelo://app?vid=fe80108d-e190-41be-86b8-a19c8cf74730"},"vehicle_type_id":"4","last_reported":1745637892,"current_range_meters":11600,"station_id":"ce4bh3p2rcd13ifvqdq0","pricing_plan_id":"cebpf4jnsgd1na2vs0mg"},{"bike_id":"4406da3b-d473-4d63-87bf-fa2b430a3908","system_id":"levelo_inurba_marseille","lat":43.28576,"lon":5.39432,"is_reserved":false,"is_disabled":false,"rental_uris":{"android":"levelo://app?vid=4406da3b-d473-4d63-87bf-fa2b430a3908","ios":"levelo://app?vid=4406da3b-d473-4d63-87bf-fa2b430a3908"},"vehicle_type_id":"4","last_reported":1745637892,"current_range_meters":11600,"station_id":"ce4bh292rcd13ifvqdg0","pricing_plan_id":"cebpf4jnsgd1na2vs0mg"},{"bike_id":"dc83063b-0acf-498d-bec5-7bae3f5ed87a","system_id":"levelo_inurba_marseille","lat":43.292809,"lon":5.4012,"is_reserved":false,"is_disabled":false,"rental_uris":{"android":"levelo://app?vid=dc83063b-0acf-498d-bec5-7bae3f5ed87a","ios":"levelo://app?vid=dc83063b-0acf-498d-bec5-7bae3f5ed87a"},"vehicle_type_id":"4","last_reported":1745637892,"current_range_meters":11600,"station_id":"ce4bh312rcd13ifvqdk0","pricing_plan_id":"cebpf4jnsgd1na2vs0mg"},{"bike_id":"d29d99d2-8c34-447d-9ac5-9ffd1b17febf","system_id":"levelo_inurba_marseille","lat":43.23184,"lon":5.39995,"is_reserved":false,"is_disabled":false,"rental_uris":{"android":"levelo://app?vid=d29d99d2-8c34-447d-9ac5-9ffd1b17febf","ios":"levelo://app?vid=d29d99d2-8c34-447d-9ac5-9ffd1b17febf"},"vehicle_type_id":"4","last_reported":1745637892,"current_range_meters":11600,"station_id":"ce4bhn12rcd13ifvqgqg","pricing_plan_id":"cebpf4jnsgd1na2vs0mg"},{"bike_id":"6263f44e-be3d-43c2-8af5-78216310caee","system_id":"levelo_inurba_marseille","lat":43.289188,"lon":5.383885,"is_reserved":false,"is_disabled":true,"rental_uris":{"android":"levelo://app?vid=6263f44e-be3d-43c2-8af5-78216310caee","ios":"levelo://app?vid=6263f44e-be3d-43c2-8af5-78216310caee"},"vehicle_type_id":"4","last_reported":1745637892,"current_range_meters":11600,"station_id":"ce4bh612rcd13ifvqe6g","pricing_plan_id":"cebpf4jnsgd1na2vs0mg"},{"bike_id":"3849ce44-ca4c-4d47-ba03-5e75f2ea456e","system_id":"levelo_inurba_marseille","lat":43.30426,"lon":5.38897,"is_reserved":false,"is_disabled":false,"rental_uris":{"android":"levelo://app?vid=3849ce44-ca4c-4d47-ba03-5e75f2ea456e","ios":"levelo://app?vid=3849ce44-ca4c-4d47-ba03-5e75f2ea456e"},"vehicle_type_id":"4","last_reported":1745637892,"current_range_meters":11600,"station_id":"ce4bgk12rcd13ifvqbi0","pricing_plan_id":"cebpf4jnsgd1na2vs0mg"},{"bike_id":"f173bdc3-6bbf-4e9a-b18f-6134c30f147a","system_id":"levelo_inurba_marseille","lat":43.30404,"lon":5.41305,"is_reserved":false,"is_disabled":false,"rental_uris":{"android":"levelo://app?vid=f173bdc3-6bbf-4e9a-b18f-6134c30f147a","ios":"levelo://app?vid=f173bdc3-6bbf-4e9a-b18f-6134c30f147a"},"vehicle_type_id":"4","last_reported":1745637892,"current_range_meters":12000,"station_id":"ce4bhop2rcd13ifvqh8g","pricing_plan_id":"cebpf4jnsgd1na2vs0mg"},{"bike_id":"04dabfd5-0bdb-409c-ba0c-fe9ea23093bc","system_id":"levelo_inurba_marseille","lat":43.29036,"lon":5.39955,"is_reserved":false,"is_disabled":false,"rental_uris":{"android":"levelo://app?vid=04dabfd5-0bdb-409c-ba0c-fe9ea23093bc","ios":"levelo://app?vid=04dabfd5-0bdb-409c-ba0c-fe9ea23093bc"},"vehicle_type_id":"4","last_reported":1745637892,"current_range_meters":12000,"station_id":"ce4bh392rcd13ifvqdm0","pricing_plan_id":"cebpf4jnsgd1na2vs0mg"},{"bike_id":"7243d45a-8238-4e33-9407-d957777f2967","system_id":"levelo_inurba_marseille","lat":43.28612,"lon":5.35109,"is_reserved":false,"is_disabled":false,"rental_uris":{"android":"levelo://app?vid=7243d45a-8238-4e33-9407-d957777f2967","ios":"levelo://app?vid=7243d45a-8238-4e33-9407-d957777f2967"},"vehicle_type_id":"4","last_reported":1745637892,"current_range_meters":12000,"station_id":"ce4bhch2rcd13ifvqeug","pricing_plan_id":"cebpf4jnsgd1na2vs0mg"},{"bike_id":"676c19d2-12dd-4101-9d18-9f1ee320a5aa","system_id":"levelo_inurba_marseille","lat":43.309306,"lon":5.401395,"is_reserved":false,"is_disabled":false,"rental_uris":{"android":"levelo://app?vid=676c19d2-12dd-4101-9d18-9f1ee320a5aa","ios":"levelo://app?vid=676c19d2-12dd-4101-9d18-9f1ee320a5aa"},"vehicle_type_id":"4","last_reported":1745637892,"current_range_meters":12000,"station_id":"ce4bgvp2rcd13ifvqct0","pricing_plan_id":"cebpf4jnsgd1na2vs0mg"},{"bike_id":"3f9c3cd7-5c19-493a-8404-1db86da8fcc7","system_id":"levelo_inurba_marseille","lat":43.33606,"lon":5.41026,"is_reserved":false,"is_disabled":false,"rental_uris":{"android":"levelo://app?vid=3f9c3cd7-5c19-493a-8404-1db86da8fcc7","ios":"levelo://app?vid=3f9c3cd7-5c19-493a-8404-1db86da8fcc7"},"vehicle_type_id":"4","last_reported":1745637892,"current_range_meters":12400,"station_id":"ce4bhqh2rcd13ifvqhmg","pricing_plan_id":"cebpf4jnsgd1na2vs0mg"},{"bike_id":"568053e1-9183-4cee-acca-959027493876","system_id":"levelo_inurba_marseille","lat":43.309088,"lon":5.368513,"is_reserved":false,"is_disabled":true,"rental_uris":{"android":"levelo://app?vid=568053e1-9183-4cee-acca-959027493876","ios":"levelo://app?vid=568053e1-9183-4cee-acca-959027493876"},"vehicle_type_id":"4","last_reported":1745637892,"current_range_meters":12400,"station_id":"ce4bgn92rcd13ifvqbvg","pricing_plan_id":"cebpf4jnsgd1na2vs0mg"},{"bike_id":"16857710-0d57-4de0-b267-f33ac66c1f00","system_id":"levelo_inurba_marseille","lat":43.28927,"lon":5.39664,"is_reserved":false,"is_disabled":false,"rental_uris":{"android":"levelo://app?vid=16857710-0d57-4de0-b267-f33ac66c1f00","ios":"levelo://app?vid=16857710-0d57-4de0-b267-f33ac66c1f00"},"vehicle_type_id":"4","last_reported":1745637892,"current_range_meters":12400,"station_id":"ce4bh3h2rcd13ifvqdn0","pricing_plan_id":"cebpf4jnsgd1na2vs0mg"},{"bike_id":"00059ac2-0b0b-4ff8-a17e-4bf2dbea714a","system_id":"levelo_inurba_marseille","lat":43.26173,"lon":5.40415,"is_reserved":false,"is_disabled":false,"rental_uris":{"android":"levelo://app?vid=00059ac2-0b0b-4ff8-a17e-4bf2dbea714a","ios":"levelo://app?vid=00059ac2-0b0b-4ff8-a17e-4bf2dbea714a"},"vehicle_type_id":"4","last_reported":1745637892,"current_range_meters":12800,"station_id":"ce4bhmh2rcd13ifvqgmg","pricing_plan_id":"cebpf4jnsgd1na2vs0mg"},{"bike_id":"af6af1ea-83a0-4448-a6b9-d143557f7290","system_id":"levelo_inurba_marseille","lat":43.27067,"lon":5.40215,"is_reserved":false,"is_disabled":false,"rental_uris":{"android":"levelo://app?vid=af6af1ea-83a0-4448-a6b9-d143557f7290","ios":"levelo://app?vid=af6af1ea-83a0-4448-a6b9-d143557f7290"},"vehicle_type_id":"4","last_reported":1745637892,"current_range_meters":12800,"station_id":"ce4bhk92rcd13ifvqgc0","pricing_plan_id":"cebpf4jnsgd1na2vs0mg"},{"bike_id":"b337b47e-e0c0-40c3-878a-37e58bb44305","system_id":"levelo_inurba_marseille","lat":43.31171,"lon":5.40802,"is_reserved":false,"is_disabled":false,"rental_uris":{"android":"levelo://app?vid=b337b47e-e0c0-40c3-878a-37e58bb44305","ios":"levelo://app?vid=b337b47e-e0c0-40c3-878a-37e58bb44305"},"vehicle_type_id":"4","last_reported":1745637892,"current_range_meters":12800,"station_id":"","pricing_plan_id":"cebpf4jnsgd1na2vs0mg"},{"bike_id":"21437a5a-65f0-4308-a086-6a61c1a2bd7e","system_id":"levelo_inurba_marseille","lat":43.308935,"lon":5.371855,"is_reserved":false,"is_disabled":false,"rental_uris":{"android":"levelo://app?vid=21437a5a-65f0-4308-a086-6a61c1a2bd7e","ios":"levelo://app?vid=21437a5a-65f0-4308-a086-6a61c1a2bd7e"},"vehicle_type_id":"4","last_reported":1745637892,"current_range_meters":12800,"station_id":"ce4bguh2rcd13ifvqckg","pricing_plan_id":"cebpf4jnsgd1na2vs0mg"},{"bike_id":"b4fbbd83-1dbc-4edd-b531-ebdb78c6626d","system_id":"levelo_inurba_marseille","lat":43.32664,"lon":5.40987,"is_reserved":false,"is_disabled":false,"rental_uris":{"android":"levelo://app?vid=b4fbbd83-1dbc-4edd-b531-ebdb78c6626d","ios":"levelo://app?vid=b4fbbd83-1dbc-4edd-b531-ebdb78c6626d"},"vehicle_type_id":"4","last_reported":1745637892,"current_range_meters":12800,"station_id":"ce4bhpp2rcd13ifvqhgg","pricing_plan_id":"cebpf4jnsgd1na2vs0mg"},{"bike_id":"b6c6d9f7-b123-42c6-8ea7-68299b7c9958","system_id":"levelo_inurba_marseille","lat":43.324,"lon":5.39156,"is_reserved":false,"is_disabled":true,"rental_uris":{"android":"levelo://app?vid=b6c6d9f7-b123-42c6-8ea7-68299b7c9958","ios":"levelo://app?vid=b6c6d9f7-b123-42c6-8ea7-68299b7c9958"},"vehicle_type_id":"4","last_reported":1745637892,"current_range_meters":12800,"station_id":"","pricing_plan_id":"cebpf4jnsgd1na2vs0mg"},{"bike_id":"49a5be0b-2b23-4d57-a2bd-3a5d802fab0b","system_id":"levelo_inurba_marseille","lat":43.28995,"lon":5.35615,"is_reserved":false,"is_disabled":true,"rental_uris":{"android":"levelo://app?vid=49a5be0b-2b23-4d57-a2bd-3a5d802fab0b","ios":"levelo://app?vid=49a5be0b-2b23-4d57-a2bd-3a5d802fab0b"},"vehicle_type_id":"4","last_reported":1745637892,"current_range_meters":12800,"station_id":"ce4bhb92rcd13ifvqen0","pricing_plan_id":"cebpf4jnsgd1na2vs0mg"},{"bike_id":"7d0ba233-86ba-44c3-9826-d15ee909987f","system_id":"levelo_inurba_marseille","lat":43.25086,"lon":5.40322,"is_reserved":false,"is_disabled":false,"rental_uris":{"android":"levelo://app?vid=7d0ba233-86ba-44c3-9826-d15ee909987f","ios":"levelo://app?vid=7d0ba233-86ba-44c3-9826-d15ee909987f"},"vehicle_type_id":"4","last_reported":1745637892,"current_range_meters":12800,"station_id":"ce4bhlh2rcd13ifvqgig","pricing_plan_id":"cebpf4jnsgd1na2vs0mg"},{"bike_id":"880b8e43-29db-40db-be6a-773bd218bade","system_id":"levelo_inurba_marseille","lat":43.30648,"lon":5.40069,"is_reserved":false,"is_disabled":false,"rental_uris":{"android":"levelo://app?vid=880b8e43-29db-40db-be6a-773bd218bade","ios":"levelo://app?vid=880b8e43-29db-40db-be6a-773bd218bade"},"vehicle_type_id":"4","last_reported":1745637892,"current_range_meters":13600,"station_id":"ce4bh112rcd13ifvqda0","pricing_plan_id":"cebpf4jnsgd1na2vs0mg"},{"bike_id":"262de007-d0f9-4b5c-9db4-1c829c9329a9","system_id":"levelo_inurba_marseille","lat":43.279424,"lon":5.410419,"is_reserved":false,"is_disabled":false,"rental_uris":{"android":"levelo://app?vid=262de007-d0f9-4b5c-9db4-1c829c9329a9","ios":"levelo://app?vid=262de007-d0f9-4b5c-9db4-1c829c9329a9"},"vehicle_type_id":"4","last_reported":1745637892,"current_range_meters":13600,"station_id":"ce4bhnp2rcd13ifvqh0g","pricing_plan_id":"cebpf4jnsgd1na2vs0mg"},{"bike_id":"9938022e-8478-489a-a878-ea3fb6a686ae","system_id":"levelo_inurba_marseille","lat":43.32367,"lon":5.38909,"is_reserved":false,"is_disabled":false,"rental_uris":{"android":"levelo://app?vid=9938022e-8478-489a-a878-ea3fb6a686ae","ios":"levelo://app?vid=9938022e-8478-489a-a878-ea3fb6a686ae"},"vehicle_type_id":"4","last_reported":1745637892,"current_range_meters":13600,"station_id":"ce4bhqp2rcd13ifvqhog","pricing_plan_id":"cebpf4jnsgd1na2vs0mg"},{"bike_id":"987d7900-bb2a-45cb-bed7-6d69f6fd4fa3","system_id":"levelo_inurba_marseille","lat":43.2849,"lon":5.384569,"is_reserved":false,"is_disabled":false,"rental_uris":{"android":"levelo://app?vid=987d7900-bb2a-45cb-bed7-6d69f6fd4fa3","ios":"levelo://app?vid=987d7900-bb2a-45cb-bed7-6d69f6fd4fa3"},"vehicle_type_id":"4","last_reported":1745637892,"current_range_meters":13600,"station_id":"ce4bh512rcd13ifvqe3g","pricing_plan_id":"cebpf4jnsgd1na2vs0mg"},{"bike_id":"d08334af-0288-4980-ba3f-5e13619388fa","system_id":"levelo_inurba_marseille","lat":43.30404,"lon":5.41295,"is_reserved":false,"is_disabled":false,"rental_uris":{"android":"levelo://app?vid=d08334af-0288-4980-ba3f-5e13619388fa","ios":"levelo://app?vid=d08334af-0288-4980-ba3f-5e13619388fa"},"vehicle_type_id":"4","last_reported":1745637892,"current_range_meters":14000,"station_id":"ce4bhop2rcd13ifvqh8g","pricing_plan_id":"cebpf4jnsgd1na2vs0mg"},{"bike_id":"fdbe3e4c-6069-4e16-9ae7-cb790fcbdb9e","system_id":"levelo_inurba_marseille","lat":43.24661,"lon":5.38149,"is_reserved":false,"is_disabled":false,"rental_uris":{"android":"levelo://app?vid=fdbe3e4c-6069-4e16-9ae7-cb790fcbdb9e","ios":"levelo://app?vid=fdbe3e4c-6069-4e16-9ae7-cb790fcbdb9e"},"vehicle_type_id":"4","last_reported":1745637892,"current_range_meters":14400,"station_id":"ce4bhih2rcd13ifvqfr0","pricing_plan_id":"cebpf4jnsgd1na2vs0mg"},{"bike_id":"ab157b9a-f413-4283-9896-461bb1b27942","system_id":"levelo_inurba_marseille","lat":43.33032,"lon":5.39049,"is_reserved":false,"is_disabled":false,"rental_uris":{"android":"levelo://app?vid=ab157b9a-f413-4283-9896-461bb1b27942","ios":"levelo://app?vid=ab157b9a-f413-4283-9896-461bb1b27942"},"vehicle_type_id":"4","last_reported":1745637892,"current_range_meters":14400,"station_id":"ce4bhr92rcd13ifvqhrg","pricing_plan_id":"cebpf4jnsgd1na2vs0mg"},{"bike_id":"5ba7132e-2b5b-463a-a4d7-a59a70c356e1","system_id":"levelo_inurba_marseille","lat":43.33073,"lon":5.40849,"is_reserved":false,"is_disabled":false,"rental_uris":{"android":"levelo://app?vid=5ba7132e-2b5b-463a-a4d7-a59a70c356e1","ios":"levelo://app?vid=5ba7132e-2b5b-463a-a4d7-a59a70c356e1"},"vehicle_type_id":"4","last_reported":1745637892,"current_range_meters":14400,"station_id":"","pricing_plan_id":"cebpf4jnsgd1na2vs0mg"},{"bike_id":"e2a41a14-b118-4dd4-aa7f-abc51fc58dd2","system_id":"levelo_inurba_marseille","lat":43.323631,"lon":5.388868,"is_reserved":false,"is_disabled":false,"rental_uris":{"android":"levelo://app?vid=e2a41a14-b118-4dd4-aa7f-abc51fc58dd2","ios":"levelo://app?vid=e2a41a14-b118-4dd4-aa7f-abc51fc58dd2"},"vehicle_type_id":"4","last_reported":1745637892,"current_range_meters":14400,"station_id":"ce4bhqp2rcd13ifvqhog","pricing_plan_id":"cebpf4jnsgd1na2vs0mg"},{"bike_id":"97fbe862-3dc4-4ded-9569-7540ceeeffb5","system_id":"levelo_inurba_marseille","lat":43.33595,"lon":5.40978,"is_reserved":false,"is_disabled":false,"rental_uris":{"android":"levelo://app?vid=97fbe862-3dc4-4ded-9569-7540ceeeffb5","ios":"levelo://app?vid=97fbe862-3dc4-4ded-9569-7540ceeeffb5"},"vehicle_type_id":"4","last_reported":1745637892,"current_range_meters":14400,"station_id":"ce4bhqh2rcd13ifvqhmg","pricing_plan_id":"cebpf4jnsgd1na2vs0mg"},{"bike_id":"8f5c8879-8704-464b-b08a-aa8851e6ad23","system_id":"levelo_inurba_marseille","lat":43.32372,"lon":5.388832,"is_reserved":false,"is_disabled":false,"rental_uris":{"android":"levelo://app?vid=8f5c8879-8704-464b-b08a-aa8851e6ad23","ios":"levelo://app?vid=8f5c8879-8704-464b-b08a-aa8851e6ad23"},"vehicle_type_id":"4","last_reported":1745637892,"current_range_meters":14800,"station_id":"ce4bhqp2rcd13ifvqhog","pricing_plan_id":"cebpf4jnsgd1na2vs0mg"},{"bike_id":"540e73f3-f5fe-4af6-8cf8-7c93cbc816e3","system_id":"levelo_inurba_marseille","lat":43.30065,"lon":5.39075,"is_reserved":false,"is_disabled":true,"rental_uris":{"android":"levelo://app?vid=540e73f3-f5fe-4af6-8cf8-7c93cbc816e3","ios":"levelo://app?vid=540e73f3-f5fe-4af6-8cf8-7c93cbc816e3"},"vehicle_type_id":"4","last_reported":1745637892,"current_range_meters":14800,"station_id":"ce4bh192rcd13ifvqdb0","pricing_plan_id":"cebpf4jnsgd1na2vs0mg"},{"bike_id":"5beaa40a-f95a-4af3-94f6-72b61e748f45","system_id":"levelo_inurba_marseille","lat":43.28417,"lon":5.37517,"is_reserved":false,"is_disabled":false,"rental_uris":{"android":"levelo://app?vid=5beaa40a-f95a-4af3-94f6-72b61e748f45","ios":"levelo://app?vid=5beaa40a-f95a-4af3-94f6-72b61e748f45"},"vehicle_type_id":"4","last_reported":1745637892,"current_range_meters":14800,"station_id":"ce4bh412rcd13ifvqds0","pricing_plan_id":"cebpf4jnsgd1na2vs0mg"},{"bike_id":"51a4b1f4-4cfb-4b9e-b7e6-50254ee4c796","system_id":"levelo_inurba_marseille","lat":43.28603,"lon":5.37068,"is_reserved":false,"is_disabled":true,"rental_uris":{"android":"levelo://app?vid=51a4b1f4-4cfb-4b9e-b7e6-50254ee4c796","ios":"levelo://app?vid=51a4b1f4-4cfb-4b9e-b7e6-50254ee4c796"},"vehicle_type_id":"4","last_reported":1745637892,"current_range_meters":14800,"station_id":"ce4bht12rcd13ifvqi60","pricing_plan_id":"cebpf4jnsgd1na2vs0mg"},{"bike_id":"64a678ee-a1b2-4c71-ba4b-4e50e8fc3e66","system_id":"levelo_inurba_marseille","lat":43.26499,"lon":5.39531,"is_reserved":false,"is_disabled":false,"rental_uris":{"android":"levelo://app?vid=64a678ee-a1b2-4c71-ba4b-4e50e8fc3e66","ios":"levelo://app?vid=64a678ee-a1b2-4c71-ba4b-4e50e8fc3e66"},"vehicle_type_id":"4","last_reported":1745637892,"current_range_meters":15200,"station_id":"ce4bhi12rcd13ifvqfq0","pricing_plan_id":"cebpf4jnsgd1na2vs0mg"},{"bike_id":"31de0553-c9b8-4cd4-844d-7d7b36fa3ecd","system_id":"levelo_inurba_marseille","lat":43.281594,"lon":5.426458,"is_reserved":false,"is_disabled":false,"rental_uris":{"android":"levelo://app?vid=31de0553-c9b8-4cd4-844d-7d7b36fa3ecd","ios":"levelo://app?vid=31de0553-c9b8-4cd4-844d-7d7b36fa3ecd"},"vehicle_type_id":"4","last_reported":1745637892,"current_range_meters":15200,"station_id":"ce4bhnh2rcd13ifvqgug","pricing_plan_id":"cebpf4jnsgd1na2vs0mg"},{"bike_id":"fe2049cb-9356-4b81-af41-aad0fb7a05d9","system_id":"levelo_inurba_marseille","lat":43.24086,"lon":5.37759,"is_reserved":false,"is_disabled":false,"rental_uris":{"android":"levelo://app?vid=fe2049cb-9356-4b81-af41-aad0fb7a05d9","ios":"levelo://app?vid=fe2049cb-9356-4b81-af41-aad0fb7a05d9"},"vehicle_type_id":"4","last_reported":1745637892,"current_range_meters":15200,"station_id":"ce4bhnp2rcd13ifvqgvg","pricing_plan_id":"cebpf4jnsgd1na2vs0mg"},{"bike_id":"e1601d93-c865-4f1c-8f98-cf711521042c","system_id":"levelo_inurba_marseille","lat":43.31706,"lon":5.37756,"is_reserved":false,"is_disabled":false,"rental_uris":{"android":"levelo://app?vid=e1601d93-c865-4f1c-8f98-cf711521042c","ios":"levelo://app?vid=e1601d93-c865-4f1c-8f98-cf711521042c"},"vehicle_type_id":"4","last_reported":1745637892,"current_range_meters":14800,"station_id":"ce4bgth2rcd13ifvqch0","pricing_plan_id":"cebpf4jnsgd1na2vs0mg"},{"bike_id":"96733886-38eb-4a8b-9470-0c4bf645e97a","system_id":"levelo_inurba_marseille","lat":43.27939,"lon":5.41048,"is_reserved":false,"is_disabled":false,"rental_uris":{"android":"levelo://app?vid=96733886-38eb-4a8b-9470-0c4bf645e97a","ios":"levelo://app?vid=96733886-38eb-4a8b-9470-0c4bf645e97a"},"vehicle_type_id":"4","last_reported":1745637892,"current_range_meters":16000,"station_id":"ce4bhnp2rcd13ifvqh0g","pricing_plan_id":"cebpf4jnsgd1na2vs0mg"},{"bike_id":"0ec508c1-e9ac-4b5b-b8d1-19675c98bb05","system_id":"levelo_inurba_marseille","lat":43.330288,"lon":5.390477,"is_reserved":false,"is_disabled":false,"rental_uris":{"android":"levelo://app?vid=0ec508c1-e9ac-4b5b-b8d1-19675c98bb05","ios":"levelo://app?vid=0ec508c1-e9ac-4b5b-b8d1-19675c98bb05"},"vehicle_type_id":"4","last_reported":1745637892,"current_range_meters":16000,"station_id":"ce4bhr92rcd13ifvqhrg","pricing_plan_id":"cebpf4jnsgd1na2vs0mg"},{"bike_id":"3390b5bf-aae0-42c0-8b96-3b4cdfeab343","system_id":"levelo_inurba_marseille","lat":43.23169,"lon":5.39972,"is_reserved":false,"is_disabled":false,"rental_uris":{"android":"levelo://app?vid=3390b5bf-aae0-42c0-8b96-3b4cdfeab343","ios":"levelo://app?vid=3390b5bf-aae0-42c0-8b96-3b4cdfeab343"},"vehicle_type_id":"4","last_reported":1745637892,"current_range_meters":16000,"station_id":"ce4bhn12rcd13ifvqgqg","pricing_plan_id":"cebpf4jnsgd1na2vs0mg"},{"bike_id":"84fbb3b0-32a6-4d2e-ae64-a58ff68e7b32","system_id":"levelo_inurba_marseille","lat":43.22928,"lon":5.35405,"is_reserved":false,"is_disabled":false,"rental_uris":{"android":"levelo://app?vid=84fbb3b0-32a6-4d2e-ae64-a58ff68e7b32","ios":"levelo://app?vid=84fbb3b0-32a6-4d2e-ae64-a58ff68e7b32"},"vehicle_type_id":"4","last_reported":1745637892,"current_range_meters":16000,"station_id":"cpo3532slgdg3j2ikp40","pricing_plan_id":"cebpf4jnsgd1na2vs0mg"},{"bike_id":"fae415bd-210f-42ca-b903-13f2833e2c02","system_id":"levelo_inurba_marseille","lat":43.30789,"lon":5.376422,"is_reserved":false,"is_disabled":false,"rental_uris":{"android":"levelo://app?vid=fae415bd-210f-42ca-b903-13f2833e2c02","ios":"levelo://app?vid=fae415bd-210f-42ca-b903-13f2833e2c02"},"vehicle_type_id":"4","last_reported":1745637892,"current_range_meters":16000,"station_id":"ce4bgv92rcd13ifvqcq0","pricing_plan_id":"cebpf4jnsgd1na2vs0mg"},{"bike_id":"dbebca8a-053a-407c-9e87-ed214e66581b","system_id":"levelo_inurba_marseille","lat":43.32361,"lon":5.38885,"is_reserved":false,"is_disabled":false,"rental_uris":{"android":"levelo://app?vid=dbebca8a-053a-407c-9e87-ed214e66581b","ios":"levelo://app?vid=dbebca8a-053a-407c-9e87-ed214e66581b"},"vehicle_type_id":"4","last_reported":1745637892,"current_range_meters":16000,"station_id":"ce4bhqp2rcd13ifvqhog","pricing_plan_id":"cebpf4jnsgd1na2vs0mg"},{"bike_id":"3c3a5666-1757-47f8-ac90-722696e2aeb8","system_id":"levelo_inurba_marseille","lat":43.28617,"lon":5.35095,"is_reserved":false,"is_disabled":false,"rental_uris":{"android":"levelo://app?vid=3c3a5666-1757-47f8-ac90-722696e2aeb8","ios":"levelo://app?vid=3c3a5666-1757-47f8-ac90-722696e2aeb8"},"vehicle_type_id":"4","last_reported":1745637892,"current_range_meters":16000,"station_id":"ce4bhch2rcd13ifvqeug","pricing_plan_id":"cebpf4jnsgd1na2vs0mg"},{"bike_id":"e3cdf67a-5fc2-4703-9c39-57d29454c8ba","system_id":"levelo_inurba_marseille","lat":43.340425,"lon":5.386994,"is_reserved":false,"is_disabled":false,"rental_uris":{"android":"levelo://app?vid=e3cdf67a-5fc2-4703-9c39-57d29454c8ba","ios":"levelo://app?vid=e3cdf67a-5fc2-4703-9c39-57d29454c8ba"},"vehicle_type_id":"4","last_reported":1745637892,"current_range_meters":16400,"station_id":"","pricing_plan_id":"cebpf4jnsgd1na2vs0mg"},{"bike_id":"4046a82f-66e8-4b55-bd0a-356edea772d8","system_id":"levelo_inurba_marseille","lat":43.3077,"lon":5.37408,"is_reserved":false,"is_disabled":false,"rental_uris":{"android":"levelo://app?vid=4046a82f-66e8-4b55-bd0a-356edea772d8","ios":"levelo://app?vid=4046a82f-66e8-4b55-bd0a-356edea772d8"},"vehicle_type_id":"4","last_reported":1745637892,"current_range_meters":16400,"station_id":"","pricing_plan_id":"cebpf4jnsgd1na2vs0mg"},{"bike_id":"e64a8179-20ec-40a0-b26f-d42c5370f5e5","system_id":"levelo_inurba_marseille","lat":43.30595,"lon":5.39357,"is_reserved":false,"is_disabled":false,"rental_uris":{"android":"levelo://app?vid=e64a8179-20ec-40a0-b26f-d42c5370f5e5","ios":"levelo://app?vid=e64a8179-20ec-40a0-b26f-d42c5370f5e5"},"vehicle_type_id":"4","last_reported":1745637892,"current_range_meters":16400,"station_id":"ce4bh0p2rcd13ifvqd80","pricing_plan_id":"cebpf4jnsgd1na2vs0mg"},{"bike_id":"d28bf9af-5868-40cf-bc78-dd7cb5c022b5","system_id":"levelo_inurba_marseille","lat":43.29964,"lon":5.38509,"is_reserved":false,"is_disabled":true,"rental_uris":{"android":"levelo://app?vid=d28bf9af-5868-40cf-bc78-dd7cb5c022b5","ios":"levelo://app?vid=d28bf9af-5868-40cf-bc78-dd7cb5c022b5"},"vehicle_type_id":"4","last_reported":1745637892,"current_range_meters":16400,"station_id":"ce4bgj92rcd13ifvqbd0","pricing_plan_id":"cebpf4jnsgd1na2vs0mg"},{"bike_id":"def74e89-babc-4048-adcb-7b2d20699087","system_id":"levelo_inurba_marseille","lat":43.29892,"lon":5.43664,"is_reserved":false,"is_disabled":false,"rental_uris":{"android":"levelo://app?vid=def74e89-babc-4048-adcb-7b2d20699087","ios":"levelo://app?vid=def74e89-babc-4048-adcb-7b2d20699087"},"vehicle_type_id":"4","last_reported":1745637892,"current_range_meters":16400,"station_id":"ce4bhpp2rcd13ifvqhfg","pricing_plan_id":"cebpf4jnsgd1na2vs0mg"},{"bike_id":"c06fdd9a-4182-46e7-ab89-462edfb86425","system_id":"levelo_inurba_marseille","lat":43.317054,"lon":5.404604,"is_reserved":false,"is_disabled":false,"rental_uris":{"android":"levelo://app?vid=c06fdd9a-4182-46e7-ab89-462edfb86425","ios":"levelo://app?vid=c06fdd9a-4182-46e7-ab89-462edfb86425"},"vehicle_type_id":"4","last_reported":1745637892,"current_range_meters":16400,"station_id":"ce4bh012rcd13ifvqd00","pricing_plan_id":"cebpf4jnsgd1na2vs0mg"},{"bike_id":"ca376395-5bab-49ac-a88b-03ed7986b1fc","system_id":"levelo_inurba_marseille","lat":43.259299,"lon":5.409079,"is_reserved":false,"is_disabled":false,"rental_uris":{"android":"levelo://app?vid=ca376395-5bab-49ac-a88b-03ed7986b1fc","ios":"levelo://app?vid=ca376395-5bab-49ac-a88b-03ed7986b1fc"},"vehicle_type_id":"4","last_reported":1745637892,"current_range_meters":16400,"station_id":"ce4bhm92rcd13ifvqglg","pricing_plan_id":"cebpf4jnsgd1na2vs0mg"},{"bike_id":"a5fa1024-04db-4ebb-8b64-305dff021d96","system_id":"levelo_inurba_marseille","lat":43.25085,"lon":5.395,"is_reserved":false,"is_disabled":false,"rental_uris":{"android":"levelo://app?vid=a5fa1024-04db-4ebb-8b64-305dff021d96","ios":"levelo://app?vid=a5fa1024-04db-4ebb-8b64-305dff021d96"},"vehicle_type_id":"4","last_reported":1745637892,"current_range_meters":16400,"station_id":"ce4bhm12rcd13ifvqgkg","pricing_plan_id":"cebpf4jnsgd1na2vs0mg"},{"bike_id":"e1ee8ace-9fc3-4392-8a03-2286d227c6a9","system_id":"levelo_inurba_marseille","lat":43.30653,"lon":5.40087,"is_reserved":false,"is_disabled":false,"rental_uris":{"android":"levelo://app?vid=e1ee8ace-9fc3-4392-8a03-2286d227c6a9","ios":"levelo://app?vid=e1ee8ace-9fc3-4392-8a03-2286d227c6a9"},"vehicle_type_id":"4","last_reported":1745637892,"current_range_meters":16800,"station_id":"ce4bh112rcd13ifvqda0","pricing_plan_id":"cebpf4jnsgd1na2vs0mg"},{"bike_id":"76d051a0-70d0-4b83-a696-0389d8a23079","system_id":"levelo_inurba_marseille","lat":43.25713,"lon":5.41101,"is_reserved":false,"is_disabled":false,"rental_uris":{"android":"levelo://app?vid=76d051a0-70d0-4b83-a696-0389d8a23079","ios":"levelo://app?vid=76d051a0-70d0-4b83-a696-0389d8a23079"},"vehicle_type_id":"4","last_reported":1745637892,"current_range_meters":16800,"station_id":"ce4bhkp2rcd13ifvqgd0","pricing_plan_id":"cebpf4jnsgd1na2vs0mg"},{"bike_id":"a18b32af-837e-4f1b-a9b1-f47fdb463774","system_id":"levelo_inurba_marseille","lat":43.336024,"lon":5.409942,"is_reserved":false,"is_disabled":false,"rental_uris":{"android":"levelo://app?vid=a18b32af-837e-4f1b-a9b1-f47fdb463774","ios":"levelo://app?vid=a18b32af-837e-4f1b-a9b1-f47fdb463774"},"vehicle_type_id":"4","last_reported":1745637892,"current_range_meters":16800,"station_id":"ce4bhqh2rcd13ifvqhmg","pricing_plan_id":"cebpf4jnsgd1na2vs0mg"},{"bike_id":"aac80c5a-a5cf-4bfd-8104-2ee2df6da29e","system_id":"levelo_inurba_marseille","lat":43.33602,"lon":5.43645,"is_reserved":false,"is_disabled":false,"rental_uris":{"android":"levelo://app?vid=aac80c5a-a5cf-4bfd-8104-2ee2df6da29e","ios":"levelo://app?vid=aac80c5a-a5cf-4bfd-8104-2ee2df6da29e"},"vehicle_type_id":"4","last_reported":1745637892,"current_range_meters":16800,"station_id":"","pricing_plan_id":"cebpf4jnsgd1na2vs0mg"},{"bike_id":"0c1fab08-28d7-45bc-be10-25a888b84335","system_id":"levelo_inurba_marseille","lat":43.319944,"lon":5.381676,"is_reserved":false,"is_disabled":false,"rental_uris":{"android":"levelo://app?vid=0c1fab08-28d7-45bc-be10-25a888b84335","ios":"levelo://app?vid=0c1fab08-28d7-45bc-be10-25a888b84335"},"vehicle_type_id":"4","last_reported":1745637892,"current_range_meters":16800,"station_id":"ce4bhr12rcd13ifvqhpg","pricing_plan_id":"cebpf4jnsgd1na2vs0mg"},{"bike_id":"8681189a-c5a2-4458-b6c1-95a6506a132e","system_id":"levelo_inurba_marseille","lat":43.2794,"lon":5.4106,"is_reserved":false,"is_disabled":false,"rental_uris":{"android":"levelo://app?vid=8681189a-c5a2-4458-b6c1-95a6506a132e","ios":"levelo://app?vid=8681189a-c5a2-4458-b6c1-95a6506a132e"},"vehicle_type_id":"4","last_reported":1745637892,"current_range_meters":16800,"station_id":"ce4bhnp2rcd13ifvqh0g","pricing_plan_id":"cebpf4jnsgd1na2vs0mg"},{"bike_id":"3e1ad8a3-a958-4d00-9a56-262625ea8d0f","system_id":"levelo_inurba_marseille","lat":43.28029,"lon":5.36946,"is_reserved":false,"is_disabled":false,"rental_uris":{"android":"levelo://app?vid=3e1ad8a3-a958-4d00-9a56-262625ea8d0f","ios":"levelo://app?vid=3e1ad8a3-a958-4d00-9a56-262625ea8d0f"},"vehicle_type_id":"4","last_reported":1745637892,"current_range_meters":16800,"station_id":"ce4bha12rcd13ifvqef0","pricing_plan_id":"cebpf4jnsgd1na2vs0mg"},{"bike_id":"13d452e5-1cae-4c4a-9e20-732e3eed22e9","system_id":"levelo_inurba_marseille","lat":43.23578,"lon":5.40353,"is_reserved":false,"is_disabled":false,"rental_uris":{"android":"levelo://app?vid=13d452e5-1cae-4c4a-9e20-732e3eed22e9","ios":"levelo://app?vid=13d452e5-1cae-4c4a-9e20-732e3eed22e9"},"vehicle_type_id":"4","last_reported":1745637892,"current_range_meters":16800,"station_id":"","pricing_plan_id":"cebpf4jnsgd1na2vs0mg"},{"bike_id":"82019770-91f2-4d08-ae4c-2495321b6d64","system_id":"levelo_inurba_marseille","lat":43.25111,"lon":5.40339,"is_reserved":false,"is_disabled":false,"rental_uris":{"android":"levelo://app?vid=82019770-91f2-4d08-ae4c-2495321b6d64","ios":"levelo://app?vid=82019770-91f2-4d08-ae4c-2495321b6d64"},"vehicle_type_id":"4","last_reported":1745637892,"current_range_meters":16800,"station_id":"ce4bhlh2rcd13ifvqgig","pricing_plan_id":"cebpf4jnsgd1na2vs0mg"},{"bike_id":"dddc405f-b2d2-447f-8255-f175193c2de5","system_id":"levelo_inurba_marseille","lat":43.32084,"lon":5.36796,"is_reserved":false,"is_disabled":false,"rental_uris":{"android":"levelo://app?vid=dddc405f-b2d2-447f-8255-f175193c2de5","ios":"levelo://app?vid=dddc405f-b2d2-447f-8255-f175193c2de5"},"vehicle_type_id":"4","last_reported":1745637892,"current_range_meters":16800,"station_id":"ce4bhrh2rcd13ifvqhug","pricing_plan_id":"cebpf4jnsgd1na2vs0mg"},{"bike_id":"5fdc0623-6c76-4064-a69a-27e877e94ecd","system_id":"levelo_inurba_marseille","lat":43.30764,"lon":5.37672,"is_reserved":false,"is_disabled":true,"rental_uris":{"android":"levelo://app?vid=5fdc0623-6c76-4064-a69a-27e877e94ecd","ios":"levelo://app?vid=5fdc0623-6c76-4064-a69a-27e877e94ecd"},"vehicle_type_id":"4","last_reported":1745637892,"current_range_meters":16800,"station_id":"","pricing_plan_id":"cebpf4jnsgd1na2vs0mg"},{"bike_id":"7dd260a0-acb7-4e68-ac47-8bfb485254c2","system_id":"levelo_inurba_marseille","lat":43.3066,"lon":5.40133,"is_reserved":false,"is_disabled":false,"rental_uris":{"android":"levelo://app?vid=7dd260a0-acb7-4e68-ac47-8bfb485254c2","ios":"levelo://app?vid=7dd260a0-acb7-4e68-ac47-8bfb485254c2"},"vehicle_type_id":"4","last_reported":1745637892,"current_range_meters":16800,"station_id":"ce4bh112rcd13ifvqda0","pricing_plan_id":"cebpf4jnsgd1na2vs0mg"},{"bike_id":"234d2e1a-3d02-4a42-9b28-0a40823ee761","system_id":"levelo_inurba_marseille","lat":43.251122,"lon":5.403207,"is_reserved":false,"is_disabled":false,"rental_uris":{"android":"levelo://app?vid=234d2e1a-3d02-4a42-9b28-0a40823ee761","ios":"levelo://app?vid=234d2e1a-3d02-4a42-9b28-0a40823ee761"},"vehicle_type_id":"4","last_reported":1745637892,"current_range_meters":17200,"station_id":"ce4bhlh2rcd13ifvqgig","pricing_plan_id":"cebpf4jnsgd1na2vs0mg"},{"bike_id":"005bb18b-bbe4-4955-9608-908f15fe9124","system_id":"levelo_inurba_marseille","lat":43.30927,"lon":5.40202,"is_reserved":false,"is_disabled":false,"rental_uris":{"android":"levelo://app?vid=005bb18b-bbe4-4955-9608-908f15fe9124","ios":"levelo://app?vid=005bb18b-bbe4-4955-9608-908f15fe9124"},"vehicle_type_id":"4","last_reported":1745637892,"current_range_meters":17200,"station_id":"ce4bgvp2rcd13ifvqct0","pricing_plan_id":"cebpf4jnsgd1na2vs0mg"},{"bike_id":"d92d7a3c-2a9d-4c48-be79-af5ead20c6f7","system_id":"levelo_inurba_marseille","lat":43.3018,"lon":5.36601,"is_reserved":false,"is_disabled":false,"rental_uris":{"android":"levelo://app?vid=d92d7a3c-2a9d-4c48-be79-af5ead20c6f7","ios":"levelo://app?vid=d92d7a3c-2a9d-4c48-be79-af5ead20c6f7"},"vehicle_type_id":"4","last_reported":1745637892,"current_range_meters":17200,"station_id":"ce4bgrh2rcd13ifvqc8g","pricing_plan_id":"cebpf4jnsgd1na2vs0mg"},{"bike_id":"817017a8-06d7-4168-a9c7-63b6ced6925a","system_id":"levelo_inurba_marseille","lat":43.31465,"lon":5.37301,"is_reserved":false,"is_disabled":false,"rental_uris":{"android":"levelo://app?vid=817017a8-06d7-4168-a9c7-63b6ced6925a","ios":"levelo://app?vid=817017a8-06d7-4168-a9c7-63b6ced6925a"},"vehicle_type_id":"4","last_reported":1745637892,"current_range_meters":17200,"station_id":"ce4bgt12rcd13ifvqcd0","pricing_plan_id":"cebpf4jnsgd1na2vs0mg"},{"bike_id":"cafd22c7-7677-4d40-a503-8cc2a23a898b","system_id":"levelo_inurba_marseille","lat":43.24685,"lon":5.38168,"is_reserved":false,"is_disabled":false,"rental_uris":{"android":"levelo://app?vid=cafd22c7-7677-4d40-a503-8cc2a23a898b","ios":"levelo://app?vid=cafd22c7-7677-4d40-a503-8cc2a23a898b"},"vehicle_type_id":"4","last_reported":1745637892,"current_range_meters":17200,"station_id":"ce4bhih2rcd13ifvqfr0","pricing_plan_id":"cebpf4jnsgd1na2vs0mg"},{"bike_id":"bc2652db-32ee-450e-8cc0-005a02c1f054","system_id":"levelo_inurba_marseille","lat":43.21181,"lon":5.35089,"is_reserved":false,"is_disabled":false,"rental_uris":{"android":"levelo://app?vid=bc2652db-32ee-450e-8cc0-005a02c1f054","ios":"levelo://app?vid=bc2652db-32ee-450e-8cc0-005a02c1f054"},"vehicle_type_id":"4","last_reported":1745637892,"current_range_meters":17200,"station_id":"st_cvj6sg6p6f1abm77japg","pricing_plan_id":"cebpf4jnsgd1na2vs0mg"},{"bike_id":"b3281256-316b-4bed-b05e-e33a4451db6e","system_id":"levelo_inurba_marseille","lat":43.30877,"lon":5.39636,"is_reserved":false,"is_disabled":false,"rental_uris":{"android":"levelo://app?vid=b3281256-316b-4bed-b05e-e33a4451db6e","ios":"levelo://app?vid=b3281256-316b-4bed-b05e-e33a4451db6e"},"vehicle_type_id":"4","last_reported":1745637892,"current_range_meters":17200,"station_id":"ce4bh012rcd13ifvqcv0","pricing_plan_id":"cebpf4jnsgd1na2vs0mg"},{"bike_id":"4741e6af-20c0-42f4-b950-4d85a1b8cba0","system_id":"levelo_inurba_marseille","lat":43.30833,"lon":5.379092,"is_reserved":false,"is_disabled":false,"rental_uris":{"android":"levelo://app?vid=4741e6af-20c0-42f4-b950-4d85a1b8cba0","ios":"levelo://app?vid=4741e6af-20c0-42f4-b950-4d85a1b8cba0"},"vehicle_type_id":"4","last_reported":1745637892,"current_range_meters":17200,"station_id":"","pricing_plan_id":"cebpf4jnsgd1na2vs0mg"},{"bike_id":"2e239c1f-dbc8-4c8f-bad4-86f9adfa8381","system_id":"levelo_inurba_marseille","lat":43.303336,"lon":5.404438,"is_reserved":false,"is_disabled":false,"rental_uris":{"android":"levelo://app?vid=2e239c1f-dbc8-4c8f-bad4-86f9adfa8381","ios":"levelo://app?vid=2e239c1f-dbc8-4c8f-bad4-86f9adfa8381"},"vehicle_type_id":"4","last_reported":1745637892,"current_range_meters":17600,"station_id":"ce4bh012rcd13ifvqd10","pricing_plan_id":"cebpf4jnsgd1na2vs0mg"},{"bike_id":"7bc8a15c-acc5-4582-bf63-4d643c6de9c9","system_id":"levelo_inurba_marseille","lat":43.32653,"lon":5.40984,"is_reserved":false,"is_disabled":false,"rental_uris":{"android":"levelo://app?vid=7bc8a15c-acc5-4582-bf63-4d643c6de9c9","ios":"levelo://app?vid=7bc8a15c-acc5-4582-bf63-4d643c6de9c9"},"vehicle_type_id":"4","last_reported":1745637892,"current_range_meters":17600,"station_id":"ce4bhpp2rcd13ifvqhgg","pricing_plan_id":"cebpf4jnsgd1na2vs0mg"},{"bike_id":"5cb5fa24-52ea-420d-ba8f-f3e9de6bfd03","system_id":"levelo_inurba_marseille","lat":43.26695,"lon":5.382687,"is_reserved":false,"is_disabled":false,"rental_uris":{"android":"levelo://app?vid=5cb5fa24-52ea-420d-ba8f-f3e9de6bfd03","ios":"levelo://app?vid=5cb5fa24-52ea-420d-ba8f-f3e9de6bfd03"},"vehicle_type_id":"4","last_reported":1745637892,"current_range_meters":17600,"station_id":"ce4bhg92rcd13ifvqf90","pricing_plan_id":"cebpf4jnsgd1na2vs0mg"},{"bike_id":"b1c9db00-e3b6-4644-a6ed-281db3cb6a30","system_id":"levelo_inurba_marseille","lat":43.30207,"lon":5.437825,"is_reserved":false,"is_disabled":false,"rental_uris":{"android":"levelo://app?vid=b1c9db00-e3b6-4644-a6ed-281db3cb6a30","ios":"levelo://app?vid=b1c9db00-e3b6-4644-a6ed-281db3cb6a30"},"vehicle_type_id":"4","last_reported":1745637892,"current_range_meters":17600,"station_id":"","pricing_plan_id":"cebpf4jnsgd1na2vs0mg"},{"bike_id":"29f9e921-698d-4054-bde4-c87fb4a9fbbf","system_id":"levelo_inurba_marseille","lat":43.30873,"lon":5.39645,"is_reserved":false,"is_disabled":false,"rental_uris":{"android":"levelo://app?vid=29f9e921-698d-4054-bde4-c87fb4a9fbbf","ios":"levelo://app?vid=29f9e921-698d-4054-bde4-c87fb4a9fbbf"},"vehicle_type_id":"4","last_reported":1745637892,"current_range_meters":17600,"station_id":"ce4bh012rcd13ifvqcv0","pricing_plan_id":"cebpf4jnsgd1na2vs0mg"},{"bike_id":"f9772437-3874-4ef5-aa4e-b859bbd427b3","system_id":"levelo_inurba_marseille","lat":43.290462,"lon":5.379445,"is_reserved":false,"is_disabled":false,"rental_uris":{"android":"levelo://app?vid=f9772437-3874-4ef5-aa4e-b859bbd427b3","ios":"levelo://app?vid=f9772437-3874-4ef5-aa4e-b859bbd427b3"},"vehicle_type_id":"4","last_reported":1745637892,"current_range_meters":17600,"station_id":"ce4bha92rcd13ifvqeg0","pricing_plan_id":"cebpf4jnsgd1na2vs0mg"},{"bike_id":"55e463c2-e9b2-4adf-8e24-41c0314c1879","system_id":"levelo_inurba_marseille","lat":43.24077,"lon":5.377613,"is_reserved":false,"is_disabled":false,"rental_uris":{"android":"levelo://app?vid=55e463c2-e9b2-4adf-8e24-41c0314c1879","ios":"levelo://app?vid=55e463c2-e9b2-4adf-8e24-41c0314c1879"},"vehicle_type_id":"4","last_reported":1745637892,"current_range_meters":18000,"station_id":"ce4bhnp2rcd13ifvqgvg","pricing_plan_id":"cebpf4jnsgd1na2vs0mg"},{"bike_id":"d28f3dec-e5aa-4108-804a-055deac2719f","system_id":"levelo_inurba_marseille","lat":43.30316,"lon":5.40438,"is_reserved":false,"is_disabled":false,"rental_uris":{"android":"levelo://app?vid=d28f3dec-e5aa-4108-804a-055deac2719f","ios":"levelo://app?vid=d28f3dec-e5aa-4108-804a-055deac2719f"},"vehicle_type_id":"4","last_reported":1745637892,"current_range_meters":18000,"station_id":"ce4bh012rcd13ifvqd10","pricing_plan_id":"cebpf4jnsgd1na2vs0mg"},{"bike_id":"b63b8150-9e3c-4501-805d-b0a0f71251f1","system_id":"levelo_inurba_marseille","lat":43.33591,"lon":5.41025,"is_reserved":false,"is_disabled":false,"rental_uris":{"android":"levelo://app?vid=b63b8150-9e3c-4501-805d-b0a0f71251f1","ios":"levelo://app?vid=b63b8150-9e3c-4501-805d-b0a0f71251f1"},"vehicle_type_id":"4","last_reported":1745637892,"current_range_meters":18000,"station_id":"ce4bhqh2rcd13ifvqhmg","pricing_plan_id":"cebpf4jnsgd1na2vs0mg"},{"bike_id":"1504a7b4-3c2b-41cd-85cd-57aa88641e7e","system_id":"levelo_inurba_marseille","lat":43.296969,"lon":5.366071,"is_reserved":false,"is_disabled":true,"rental_uris":{"android":"levelo://app?vid=1504a7b4-3c2b-41cd-85cd-57aa88641e7e","ios":"levelo://app?vid=1504a7b4-3c2b-41cd-85cd-57aa88641e7e"},"vehicle_type_id":"4","last_reported":1745637892,"current_range_meters":18000,"station_id":"ce4bgn12rcd13ifvqbt0","pricing_plan_id":"cebpf4jnsgd1na2vs0mg"},{"bike_id":"3d8c5914-383a-4509-8539-1561f0bf8036","system_id":"levelo_inurba_marseille","lat":43.29034,"lon":5.39957,"is_reserved":false,"is_disabled":true,"rental_uris":{"android":"levelo://app?vid=3d8c5914-383a-4509-8539-1561f0bf8036","ios":"levelo://app?vid=3d8c5914-383a-4509-8539-1561f0bf8036"},"vehicle_type_id":"4","last_reported":1745637892,"current_range_meters":18000,"station_id":"ce4bh392rcd13ifvqdm0","pricing_plan_id":"cebpf4jnsgd1na2vs0mg"},{"bike_id":"f415d2f2-0682-467a-80ca-9aa7e2bfd0fa","system_id":"levelo_inurba_marseille","lat":43.29194,"lon":5.3579,"is_reserved":false,"is_disabled":true,"rental_uris":{"android":"levelo://app?vid=f415d2f2-0682-467a-80ca-9aa7e2bfd0fa","ios":"levelo://app?vid=f415d2f2-0682-467a-80ca-9aa7e2bfd0fa"},"vehicle_type_id":"4","last_reported":1745637892,"current_range_meters":18000,"station_id":"ce4bhb12rcd13ifvqel0","pricing_plan_id":"cebpf4jnsgd1na2vs0mg"},{"bike_id":"b3ca2ec4-f7d7-46e0-840a-8a43b484ddd3","system_id":"levelo_inurba_marseille","lat":43.30427,"lon":5.39752,"is_reserved":false,"is_disabled":false,"rental_uris":{"android":"levelo://app?vid=b3ca2ec4-f7d7-46e0-840a-8a43b484ddd3","ios":"levelo://app?vid=b3ca2ec4-f7d7-46e0-840a-8a43b484ddd3"},"vehicle_type_id":"4","last_reported":1745637892,"current_range_meters":18000,"station_id":"ce4bh092rcd13ifvqd20","pricing_plan_id":"cebpf4jnsgd1na2vs0mg"},{"bike_id":"faa8334f-d698-4b2b-8f65-d27f28dd59cc","system_id":"levelo_inurba_marseille","lat":43.33695,"lon":5.39186,"is_reserved":false,"is_disabled":false,"rental_uris":{"android":"levelo://app?vid=faa8334f-d698-4b2b-8f65-d27f28dd59cc","ios":"levelo://app?vid=faa8334f-d698-4b2b-8f65-d27f28dd59cc"},"vehicle_type_id":"4","last_reported":1745637892,"current_range_meters":18000,"station_id":"ce4bhr92rcd13ifvqhsg","pricing_plan_id":"cebpf4jnsgd1na2vs0mg"},{"bike_id":"95f09d82-77cb-4638-80aa-d277595bd174","system_id":"levelo_inurba_marseille","lat":43.29248,"lon":5.40913,"is_reserved":false,"is_disabled":false,"rental_uris":{"android":"levelo://app?vid=95f09d82-77cb-4638-80aa-d277595bd174","ios":"levelo://app?vid=95f09d82-77cb-4638-80aa-d277595bd174"},"vehicle_type_id":"4","last_reported":1745637892,"current_range_meters":18800,"station_id":"ce4bh192rcd13ifvqdc0","pricing_plan_id":"cebpf4jnsgd1na2vs0mg"},{"bike_id":"436fb7fb-1d2f-495e-a297-1479f0aa23e8","system_id":"levelo_inurba_marseille","lat":43.32996,"lon":5.39075,"is_reserved":false,"is_disabled":false,"rental_uris":{"android":"levelo://app?vid=436fb7fb-1d2f-495e-a297-1479f0aa23e8","ios":"levelo://app?vid=436fb7fb-1d2f-495e-a297-1479f0aa23e8"},"vehicle_type_id":"4","last_reported":1745637892,"current_range_meters":18800,"station_id":"ce4bhr92rcd13ifvqhrg","pricing_plan_id":"cebpf4jnsgd1na2vs0mg"},{"bike_id":"3cc68647-b5c1-4b95-8e96-0cc2b3dc0c57","system_id":"levelo_inurba_marseille","lat":43.30362,"lon":5.42505,"is_reserved":false,"is_disabled":false,"rental_uris":{"android":"levelo://app?vid=3cc68647-b5c1-4b95-8e96-0cc2b3dc0c57","ios":"levelo://app?vid=3cc68647-b5c1-4b95-8e96-0cc2b3dc0c57"},"vehicle_type_id":"4","last_reported":1745637892,"current_range_meters":18800,"station_id":"ce4bhoh2rcd13ifvqh6g","pricing_plan_id":"cebpf4jnsgd1na2vs0mg"},{"bike_id":"3c8dc355-6f2d-43ac-a424-3315ca690958","system_id":"levelo_inurba_marseille","lat":43.312786,"lon":5.401638,"is_reserved":false,"is_disabled":false,"rental_uris":{"android":"levelo://app?vid=3c8dc355-6f2d-43ac-a424-3315ca690958","ios":"levelo://app?vid=3c8dc355-6f2d-43ac-a424-3315ca690958"},"vehicle_type_id":"4","last_reported":1745637892,"current_range_meters":18800,"station_id":"ce4bh092rcd13ifvqd30","pricing_plan_id":"cebpf4jnsgd1na2vs0mg"},{"bike_id":"cf38f4d4-af02-4094-a3c8-697a59ea556d","system_id":"levelo_inurba_marseille","lat":43.23181,"lon":5.40015,"is_reserved":false,"is_disabled":false,"rental_uris":{"android":"levelo://app?vid=cf38f4d4-af02-4094-a3c8-697a59ea556d","ios":"levelo://app?vid=cf38f4d4-af02-4094-a3c8-697a59ea556d"},"vehicle_type_id":"4","last_reported":1745637892,"current_range_meters":18800,"station_id":"ce4bhn12rcd13ifvqgqg","pricing_plan_id":"cebpf4jnsgd1na2vs0mg"},{"bike_id":"f8d14d70-41d8-4d2b-b3d4-9e51b705442c","system_id":"levelo_inurba_marseille","lat":43.246758,"lon":5.381517,"is_reserved":false,"is_disabled":false,"rental_uris":{"android":"levelo://app?vid=f8d14d70-41d8-4d2b-b3d4-9e51b705442c","ios":"levelo://app?vid=f8d14d70-41d8-4d2b-b3d4-9e51b705442c"},"vehicle_type_id":"4","last_reported":1745637892,"current_range_meters":18800,"station_id":"ce4bhih2rcd13ifvqfr0","pricing_plan_id":"cebpf4jnsgd1na2vs0mg"},{"bike_id":"9bdd64d1-5f1a-4d26-aa17-ce638f082d0b","system_id":"levelo_inurba_marseille","lat":43.30136,"lon":5.39874,"is_reserved":false,"is_disabled":false,"rental_uris":{"android":"levelo://app?vid=9bdd64d1-5f1a-4d26-aa17-ce638f082d0b","ios":"levelo://app?vid=9bdd64d1-5f1a-4d26-aa17-ce638f082d0b"},"vehicle_type_id":"4","last_reported":1745637892,"current_range_meters":18800,"station_id":"ce4bh0h2rcd13ifvqd40","pricing_plan_id":"cebpf4jnsgd1na2vs0mg"},{"bike_id":"9b34557f-da6e-4d65-b605-f460ac4b4f8d","system_id":"levelo_inurba_marseille","lat":43.27911,"lon":5.39584,"is_reserved":false,"is_disabled":false,"rental_uris":{"android":"levelo://app?vid=9b34557f-da6e-4d65-b605-f460ac4b4f8d","ios":"levelo://app?vid=9b34557f-da6e-4d65-b605-f460ac4b4f8d"},"vehicle_type_id":"4","last_reported":1745637892,"current_range_meters":18800,"station_id":"ce4bhf92rcd13ifvqf40","pricing_plan_id":"cebpf4jnsgd1na2vs0mg"},{"bike_id":"20ea6a76-0cae-4365-a9ed-ae76ff53ff94","system_id":"levelo_inurba_marseille","lat":43.29731,"lon":5.37016,"is_reserved":false,"is_disabled":false,"rental_uris":{"android":"levelo://app?vid=20ea6a76-0cae-4365-a9ed-ae76ff53ff94","ios":"levelo://app?vid=20ea6a76-0cae-4365-a9ed-ae76ff53ff94"},"vehicle_type_id":"4","last_reported":1745637892,"current_range_meters":18800,"station_id":"","pricing_plan_id":"cebpf4jnsgd1na2vs0mg"},{"bike_id":"b2178132-9584-493f-8ef8-d3dc384e9c80","system_id":"levelo_inurba_marseille","lat":43.31124,"lon":5.37752,"is_reserved":false,"is_disabled":false,"rental_uris":{"android":"levelo://app?vid=b2178132-9584-493f-8ef8-d3dc384e9c80","ios":"levelo://app?vid=b2178132-9584-493f-8ef8-d3dc384e9c80"},"vehicle_type_id":"4","last_reported":1745637892,"current_range_meters":19200,"station_id":"ce4bgt92rcd13ifvqcg0","pricing_plan_id":"cebpf4jnsgd1na2vs0mg"},{"bike_id":"e10849ab-f14c-42eb-bf35-8ad4ea47ec28","system_id":"levelo_inurba_marseille","lat":43.303131,"lon":5.404409,"is_reserved":false,"is_disabled":true,"rental_uris":{"android":"levelo://app?vid=e10849ab-f14c-42eb-bf35-8ad4ea47ec28","ios":"levelo://app?vid=e10849ab-f14c-42eb-bf35-8ad4ea47ec28"},"vehicle_type_id":"4","last_reported":1745637892,"current_range_meters":19200,"station_id":"ce4bh012rcd13ifvqd10","pricing_plan_id":"cebpf4jnsgd1na2vs0mg"},{"bike_id":"29dedb36-9636-470f-a342-2cd304fb7aaf","system_id":"levelo_inurba_marseille","lat":43.308857,"lon":5.396375,"is_reserved":false,"is_disabled":false,"rental_uris":{"android":"levelo://app?vid=29dedb36-9636-470f-a342-2cd304fb7aaf","ios":"levelo://app?vid=29dedb36-9636-470f-a342-2cd304fb7aaf"},"vehicle_type_id":"4","last_reported":1745637892,"current_range_meters":19200,"station_id":"ce4bh012rcd13ifvqcv0","pricing_plan_id":"cebpf4jnsgd1na2vs0mg"},{"bike_id":"274a2fbf-6a1d-4f06-9d19-6f1639e602bc","system_id":"levelo_inurba_marseille","lat":43.3108,"lon":5.38343,"is_reserved":false,"is_disabled":true,"rental_uris":{"android":"levelo://app?vid=274a2fbf-6a1d-4f06-9d19-6f1639e602bc","ios":"levelo://app?vid=274a2fbf-6a1d-4f06-9d19-6f1639e602bc"},"vehicle_type_id":"4","last_reported":1745637892,"current_range_meters":19200,"station_id":"ce4bgv92rcd13ifvqcr0","pricing_plan_id":"cebpf4jnsgd1na2vs0mg"},{"bike_id":"c1adce4f-57b3-47a9-b72f-b985d62f1ea5","system_id":"levelo_inurba_marseille","lat":43.28699,"lon":5.37401,"is_reserved":false,"is_disabled":false,"rental_uris":{"android":"levelo://app?vid=c1adce4f-57b3-47a9-b72f-b985d62f1ea5","ios":"levelo://app?vid=c1adce4f-57b3-47a9-b72f-b985d62f1ea5"},"vehicle_type_id":"4","last_reported":1745637892,"current_range_meters":19200,"station_id":"ce4bh3p2rcd13ifvqdq0","pricing_plan_id":"cebpf4jnsgd1na2vs0mg"},{"bike_id":"d42192cb-f15d-4f98-a687-65617362d316","system_id":"levelo_inurba_marseille","lat":43.3093,"lon":5.4018,"is_reserved":false,"is_disabled":false,"rental_uris":{"android":"levelo://app?vid=d42192cb-f15d-4f98-a687-65617362d316","ios":"levelo://app?vid=d42192cb-f15d-4f98-a687-65617362d316"},"vehicle_type_id":"4","last_reported":1745637892,"current_range_meters":19600,"station_id":"ce4bgvp2rcd13ifvqct0","pricing_plan_id":"cebpf4jnsgd1na2vs0mg"},{"bike_id":"1e0ac60b-e244-4f1a-948d-7791c5fa98da","system_id":"levelo_inurba_marseille","lat":43.211916,"lon":5.350751,"is_reserved":false,"is_disabled":false,"rental_uris":{"android":"levelo://app?vid=1e0ac60b-e244-4f1a-948d-7791c5fa98da","ios":"levelo://app?vid=1e0ac60b-e244-4f1a-948d-7791c5fa98da"},"vehicle_type_id":"4","last_reported":1745637892,"current_range_meters":19600,"station_id":"st_cvj6sg6p6f1abm77japg","pricing_plan_id":"cebpf4jnsgd1na2vs0mg"},{"bike_id":"b64aa273-5cc3-449e-ba92-14833edf0136","system_id":"levelo_inurba_marseille","lat":43.30886,"lon":5.39628,"is_reserved":false,"is_disabled":true,"rental_uris":{"android":"levelo://app?vid=b64aa273-5cc3-449e-ba92-14833edf0136","ios":"levelo://app?vid=b64aa273-5cc3-449e-ba92-14833edf0136"},"vehicle_type_id":"4","last_reported":1745637892,"current_range_meters":19600,"station_id":"ce4bh012rcd13ifvqcv0","pricing_plan_id":"cebpf4jnsgd1na2vs0mg"},{"bike_id":"1b7b5e62-58a8-47a6-bb98-b376f1982d14","system_id":"levelo_inurba_marseille","lat":43.31495,"lon":5.37329,"is_reserved":false,"is_disabled":false,"rental_uris":{"android":"levelo://app?vid=1b7b5e62-58a8-47a6-bb98-b376f1982d14","ios":"levelo://app?vid=1b7b5e62-58a8-47a6-bb98-b376f1982d14"},"vehicle_type_id":"4","last_reported":1745637892,"current_range_meters":19600,"station_id":"ce4bgt12rcd13ifvqcd0","pricing_plan_id":"cebpf4jnsgd1na2vs0mg"},{"bike_id":"a417a637-a6f1-479e-abac-72f0b6707842","system_id":"levelo_inurba_marseille","lat":43.27895,"lon":5.396,"is_reserved":false,"is_disabled":false,"rental_uris":{"android":"levelo://app?vid=a417a637-a6f1-479e-abac-72f0b6707842","ios":"levelo://app?vid=a417a637-a6f1-479e-abac-72f0b6707842"},"vehicle_type_id":"4","last_reported":1745637892,"current_range_meters":19600,"station_id":"ce4bhf92rcd13ifvqf40","pricing_plan_id":"cebpf4jnsgd1na2vs0mg"},{"bike_id":"bbfe0edf-ce4b-44cf-a4ff-01fdd38fc0ab","system_id":"levelo_inurba_marseille","lat":43.279313,"lon":5.395735,"is_reserved":false,"is_disabled":false,"rental_uris":{"android":"levelo://app?vid=bbfe0edf-ce4b-44cf-a4ff-01fdd38fc0ab","ios":"levelo://app?vid=bbfe0edf-ce4b-44cf-a4ff-01fdd38fc0ab"},"vehicle_type_id":"4","last_reported":1745637892,"current_range_meters":19600,"station_id":"ce4bhf92rcd13ifvqf40","pricing_plan_id":"cebpf4jnsgd1na2vs0mg"},{"bike_id":"0c845b91-7725-40a0-8059-eadb0d51cc36","system_id":"levelo_inurba_marseille","lat":43.27213,"lon":5.39185,"is_reserved":false,"is_disabled":false,"rental_uris":{"android":"levelo://app?vid=0c845b91-7725-40a0-8059-eadb0d51cc36","ios":"levelo://app?vid=0c845b91-7725-40a0-8059-eadb0d51cc36"},"vehicle_type_id":"4","last_reported":1745637892,"current_range_meters":19200,"station_id":"ce4bhhp2rcd13ifvqfm0","pricing_plan_id":"cebpf4jnsgd1na2vs0mg"},{"bike_id":"933e1eb2-0819-4cea-b5b0-00ea65c4538c","system_id":"levelo_inurba_marseille","lat":43.279156,"lon":5.395796,"is_reserved":false,"is_disabled":false,"rental_uris":{"android":"levelo://app?vid=933e1eb2-0819-4cea-b5b0-00ea65c4538c","ios":"levelo://app?vid=933e1eb2-0819-4cea-b5b0-00ea65c4538c"},"vehicle_type_id":"4","last_reported":1745637892,"current_range_meters":19600,"station_id":"ce4bhf92rcd13ifvqf40","pricing_plan_id":"cebpf4jnsgd1na2vs0mg"},{"bike_id":"f422f055-f7c6-4cd0-a8ef-b0211ad574d9","system_id":"levelo_inurba_marseille","lat":43.29018,"lon":5.3865,"is_reserved":false,"is_disabled":true,"rental_uris":{"android":"levelo://app?vid=f422f055-f7c6-4cd0-a8ef-b0211ad574d9","ios":"levelo://app?vid=f422f055-f7c6-4cd0-a8ef-b0211ad574d9"},"vehicle_type_id":"4","last_reported":1745637892,"current_range_meters":19600,"station_id":"ce4bh4p2rcd13ifvqe0g","pricing_plan_id":"cebpf4jnsgd1na2vs0mg"},{"bike_id":"a5503a6e-d507-4f52-b892-2dcf00324761","system_id":"levelo_inurba_marseille","lat":43.31327,"lon":5.39714,"is_reserved":false,"is_disabled":false,"rental_uris":{"android":"levelo://app?vid=a5503a6e-d507-4f52-b892-2dcf00324761","ios":"levelo://app?vid=a5503a6e-d507-4f52-b892-2dcf00324761"},"vehicle_type_id":"4","last_reported":1745637892,"current_range_meters":20000,"station_id":"ce4bgvp2rcd13ifvqcu0","pricing_plan_id":"cebpf4jnsgd1na2vs0mg"},{"bike_id":"41528498-d76f-4998-934c-429ad804d4cc","system_id":"levelo_inurba_marseille","lat":43.29012,"lon":5.38134,"is_reserved":false,"is_disabled":true,"rental_uris":{"android":"levelo://app?vid=41528498-d76f-4998-934c-429ad804d4cc","ios":"levelo://app?vid=41528498-d76f-4998-934c-429ad804d4cc"},"vehicle_type_id":"4","last_reported":1745637892,"current_range_meters":20000,"station_id":"ce4bh4p2rcd13ifvqe1g","pricing_plan_id":"cebpf4jnsgd1na2vs0mg"},{"bike_id":"89cefce9-2eaa-4453-a2c6-6162d3d72ed0","system_id":"levelo_inurba_marseille","lat":43.30313,"lon":5.40444,"is_reserved":false,"is_disabled":false,"rental_uris":{"android":"levelo://app?vid=89cefce9-2eaa-4453-a2c6-6162d3d72ed0","ios":"levelo://app?vid=89cefce9-2eaa-4453-a2c6-6162d3d72ed0"},"vehicle_type_id":"4","last_reported":1745637892,"current_range_meters":20000,"station_id":"ce4bh012rcd13ifvqd10","pricing_plan_id":"cebpf4jnsgd1na2vs0mg"},{"bike_id":"1d4c6c74-80e4-48bf-8fe7-cebf6a9f738d","system_id":"levelo_inurba_marseille","lat":43.31328,"lon":5.39708,"is_reserved":false,"is_disabled":false,"rental_uris":{"android":"levelo://app?vid=1d4c6c74-80e4-48bf-8fe7-cebf6a9f738d","ios":"levelo://app?vid=1d4c6c74-80e4-48bf-8fe7-cebf6a9f738d"},"vehicle_type_id":"4","last_reported":1745637892,"current_range_meters":20000,"station_id":"ce4bgvp2rcd13ifvqcu0","pricing_plan_id":"cebpf4jnsgd1na2vs0mg"},{"bike_id":"6b6b84b3-e3fb-4e8a-832e-41ecf6ccd7ea","system_id":"levelo_inurba_marseille","lat":43.330187,"lon":5.390332,"is_reserved":false,"is_disabled":false,"rental_uris":{"android":"levelo://app?vid=6b6b84b3-e3fb-4e8a-832e-41ecf6ccd7ea","ios":"levelo://app?vid=6b6b84b3-e3fb-4e8a-832e-41ecf6ccd7ea"},"vehicle_type_id":"4","last_reported":1745637892,"current_range_meters":20000,"station_id":"","pricing_plan_id":"cebpf4jnsgd1na2vs0mg"},{"bike_id":"eb625666-5c60-4bbe-b169-816729415174","system_id":"levelo_inurba_marseille","lat":43.313519,"lon":5.367104,"is_reserved":false,"is_disabled":false,"rental_uris":{"android":"levelo://app?vid=eb625666-5c60-4bbe-b169-816729415174","ios":"levelo://app?vid=eb625666-5c60-4bbe-b169-816729415174"},"vehicle_type_id":"4","last_reported":1745637892,"current_range_meters":20000,"station_id":"ce4bgr92rcd13ifvqc6g","pricing_plan_id":"cebpf4jnsgd1na2vs0mg"},{"bike_id":"9fdb2c97-b8ee-4021-9db9-16498043e130","system_id":"levelo_inurba_marseille","lat":43.27823,"lon":5.39221,"is_reserved":false,"is_disabled":false,"rental_uris":{"android":"levelo://app?vid=9fdb2c97-b8ee-4021-9db9-16498043e130","ios":"levelo://app?vid=9fdb2c97-b8ee-4021-9db9-16498043e130"},"vehicle_type_id":"4","last_reported":1745637892,"current_range_meters":20000,"station_id":"ce4bhjp2rcd13ifvqga0","pricing_plan_id":"cebpf4jnsgd1na2vs0mg"},{"bike_id":"746bae85-4858-430c-a66c-3e9dae83241e","system_id":"levelo_inurba_marseille","lat":43.30932,"lon":5.40167,"is_reserved":false,"is_disabled":false,"rental_uris":{"android":"levelo://app?vid=746bae85-4858-430c-a66c-3e9dae83241e","ios":"levelo://app?vid=746bae85-4858-430c-a66c-3e9dae83241e"},"vehicle_type_id":"4","last_reported":1745637892,"current_range_meters":20000,"station_id":"ce4bgvp2rcd13ifvqct0","pricing_plan_id":"cebpf4jnsgd1na2vs0mg"},{"bike_id":"d631cdce-3900-4de8-9570-921ea5c61b8c","system_id":"levelo_inurba_marseille","lat":43.30881,"lon":5.39611,"is_reserved":false,"is_disabled":false,"rental_uris":{"android":"levelo://app?vid=d631cdce-3900-4de8-9570-921ea5c61b8c","ios":"levelo://app?vid=d631cdce-3900-4de8-9570-921ea5c61b8c"},