{"last_updated":1750936173,"ttl":60,"version":"2.2","data":{"bikes":[{"bike_id":"3da29fb8-fc97-44c6-b9ac-31dd456b2fd4","system_id":"levelo_inurba_marseille","lat":43.33771,"lon":5.37424,"is_reserved":false,"is_disabled":true,"rental_uris":{"android":"levelo://app?vid=3da29fb8-fc97-44c6-b9ac-31dd456b2fd4","ios":"levelo://app?vid=3da29fb8-fc97-44c6-b9ac-31dd456b2fd4"},"vehicle_type_id":"4","last_reported":1750936173,"current_range_meters":0,"station_id":"","pricing_plan_id":"cebpf4jnsgd1na2vs0mg"},{"bike_id":"01861ad8-a8d7-4be6-816e-651927c87584","system_id":"levelo_inurba_marseille","lat":43.33751,"lon":5.37456,"is_reserved":false,"is_disabled":true,"rental_uris":{"android":"levelo://app?vid=01861ad8-a8d7-4be6-816e-651927c87584","ios":"levelo://app?vid=01861ad8-a8d7-4be6-816e-651927c87584"},"vehicle_type_id":"4","last_reported":1750936173,"current_range_meters":0,"station_id":"","pricing_plan_id":"cebpf4jnsgd1na2vs0mg"},{"bike_id":"62a493c7-4534-4419-ad43-0582de34a72a","system_id":"levelo_inurba_marseille","lat":43.21366,"lon":5.355183,"is_reserved":false,"is_disabled":true,"rental_uris":{"android":"levelo://app?vid=62a493c7-4534-4419-ad43-0582de34a72a","ios":"levelo://app?vid=62a493c7-4534-4419-ad43-0582de34a72a"},"vehicle_type_id":"4","last_reported":1750936173,"current_range_meters":0,"station_id":"","pricing_plan_id":"cebpf4jnsgd1na2vs0mg"},{"bike_id":"85c58f10-925d-4344-b389-09267487a6fc","system_id":"levelo_inurba_marseille","lat":43.211153,"lon":5.419185,"is_reserved":false,"is_disabled":true,"rental_uris":{"android":"levelo://app?vid=85c58f10-925d-4344-b389-09267487a6fc","ios":"levelo://app?vid=85c58f10-925d-4344-b389-09267487a6fc"},"vehicle_type_id":"4","last_reported":1750936173,"current_range_meters":0,"station_id":"","pricing_plan_id":"cebpf4jnsgd1na2vs0mg"},{"bike_id":"a147e67d-e0b1-425e-bbda-ae9524df353e","system_id":"levelo_inurba_marseille","lat":43.337541,"lon":5.374577,"is_reserved":false,"is_disabled":true,"rental_uris":{"android":"levelo://app?vid=a147e67d-e0b1-425e-bbda-ae9524df353e","ios":"levelo://app?vid=a147e67d-e0b1-425e-bbda-ae9524df353e"},"vehicle_type_id":"4","last_reported":1750936173,"current_range_meters":0,"station_id":"","pricing_plan_id":"cebpf4jnsgd1na2vs0mg"},{"bike_id":"a7883090-0e10-4075-944b-a3cca54bc544","system_id":"levelo_inurba_marseille","lat":43.22503,"lon":5.3479,"is_reserved":false,"is_disabled":true,"rental_uris":{"android":"levelo://app?vid=a7883090-0e10-4075-944b-a3cca54bc544","ios":"levelo://app?vid=a7883090-0e10-4075-944b-a3cca54bc544"},"vehicle_type_id":"4","last_reported":1750936173,"current_range_meters":0,"station_id":"","pricing_plan_id":"cebpf4jnsgd1na2vs0mg"},{"bike_id":"4d064f95-6dcb-4234-9e98-7c70fbb74351","system_id":"levelo_inurba_marseille","lat":43.337444,"lon":5.374475,"is_reserved":false,"is_disabled":true,"rental_uris":{"android":"levelo://app?vid=4d064f95-6dcb-4234-9e98-7c70fbb74351","ios":"levelo://app?vid=4d064f95-6dcb-4234-9e98-7c70fbb74351"},"vehicle_type_id":"4","last_reported":1750936173,"current_range_meters":0,"station_id":"","pricing_plan_id":"cebpf4jnsgd1na2vs0mg"},{"bike_id":"a4a6ce4b-ac60-468a-b67c-ec3af0ddf9f3","system_id":"levelo_inurba_marseille","lat":43.33756,"lon":5.37441,"is_reserved":false,"is_disabled":true,"rental_uris":{"android":"levelo://app?vid=a4a6ce4b-ac60-468a-b67c-ec3af0ddf9f3","ios":"levelo://app?vid=a4a6ce4b-ac60-468a-b67c-ec3af0ddf9f3"},"vehicle_type_id":"4","last_reported":1750936173,"current_range_meters":0,"station_id":"","pricing_plan_id":"cebpf4jnsgd1na2vs0mg"},{"bike_id":"06b961c7-f3ce-4c1c-a618-db74d23ebaea","system_id":"levelo_inurba_marseille","lat":43.28886,"lon":5.37862,"is_reserved":false,"is_disabled":true,"rental_uris":{"android":"levelo://app?vid=06b961c7-f3ce-4c1c-a618-db74d23ebaea","ios":"levelo://app?vid=06b961c7-f3ce-4c1c-a618-db74d23ebaea"},"vehicle_type_id":"4","last_reported":1750936173,"current_range_meters":0,"station_id":"","pricing_plan_id":"cebpf4jnsgd1na2vs0mg"},{"bike_id":"d6609b4f-333b-43c1-9ebe-8726f5e76e88","system_id":"levelo_inurba_marseille","lat":43.337444,"lon":5.374475,"is_reserved":false,"is_disabled":true,"rental_uris":{"android":"levelo://app?vid=d6609b4f-333b-43c1-9ebe-8726f5e76e88","ios":"levelo://app?vid=d6609b4f-333b-43c1-9ebe-8726f5e76e88"},"vehicle_type_id":"4","last_reported":1750936173,"current_range_meters":0,"station_id":"","pricing_plan_id":"cebpf4jnsgd1na2vs0mg"},{"bike_id":"14903f35-1eaf-4a5d-86c3-23007b361999","system_id":"levelo_inurba_marseille","lat":43.27064,"lon":5.42274,"is_reserved":false,"is_disabled":true,"rental_uris":{"android":"levelo://app?vid=14903f35-1eaf-4a5d-86c3-23007b361999","ios":"levelo://app?vid=14903f35-1eaf-4a5d-86c3-23007b361999"},"vehicle_type_id":"4","last_reported":1750936173,"current_range_meters":0,"station_id":"","pricing_plan_id":"cebpf4jnsgd1na2vs0mg"},{"bike_id":"3583f331-6c0b-49be-9913-9dde300034d9","system_id":"levelo_inurba_marseille","lat":43.2463,"lon":5.40203,"is_reserved":false,"is_disabled":true,"rental_uris":{"android":"levelo://app?vid=3583f331-6c0b-49be-9913-9dde300034d9","ios":"levelo://app?vid=3583f331-6c0b-49be-9913-9dde300034d9"},"vehicle_type_id":"4","last_reported":1750936173,"current_range_meters":0,"station_id":"","pricing_plan_id":"cebpf4jnsgd1na2vs0mg"},{"bike_id":"b17b6606-336a-4606-9b65-af139c49de26","system_id":"levelo_inurba_marseille","lat":43.25661,"lon":5.42719,"is_reserved":false,"is_disabled":true,"rental_uris":{"android":"levelo://app?vid=b17b6606-336a-4606-9b65-af139c49de26","ios":"levelo://app?vid=b17b6606-336a-4606-9b65-af139c49de26"},"vehicle_type_id":"4","last_reported":1750936173,"current_range_meters":0,"station_id":"","pricing_plan_id":"cebpf4jnsgd1na2vs0mg"},{"bike_id":"79bf4da0-05ec-4b61-b034-b3a8b163f2e8","system_id":"levelo_inurba_marseille","lat":43.30939,"lon":5.40819,"is_reserved":false,"is_disabled":true,"rental_uris":{"android":"levelo://app?vid=79bf4da0-05ec-4b61-b034-b3a8b163f2e8","ios":"levelo://app?vid=79bf4da0-05ec-4b61-b034-b3a8b163f2e8"},"vehicle_type_id":"4","last_reported":1750936173,"current_range_meters":0,"station_id":"","pricing_plan_id":"cebpf4jnsgd1na2vs0mg"},{"bike_id":"9d3724b1-0dc8-4689-9d6a-55005a9503cb","system_id":"levelo_inurba_marseille","lat":43.28643,"lon":5.42825,"is_reserved":false,"is_disabled":true,"rental_uris":{"android":"levelo://app?vid=9d3724b1-0dc8-4689-9d6a-55005a9503cb","ios":"levelo://app?vid=9d3724b1-0dc8-4689-9d6a-55005a9503cb"},"vehicle_type_id":"4","last_reported":1750936173,"current_range_meters":0,"station_id":"","pricing_plan_id":"cebpf4jnsgd1na2vs0mg"},{"bike_id":"cb08d642-523c-4b28-a6aa-a0acda25e8de","system_id":"levelo_inurba_marseille","lat":43.29514,"lon":5.37498,"is_reserved":false,"is_disabled":true,"rental_uris":{"android":"levelo://app?vid=cb08d642-523c-4b28-a6aa-a0acda25e8de","ios":"levelo://app?vid=cb08d642-523c-4b28-a6aa-a0acda25e8de"},"vehicle_type_id":"4","last_reported":1750936173,"current_range_meters":0,"station_id":"ce4bgkp2rcd13ifvqbmg","pricing_plan_id":"cebpf4jnsgd1na2vs0mg"},{"bike_id":"4eddc2d7-69fb-45d9-b0be-00e6dc641370","system_id":"levelo_inurba_marseille","lat":43.24807,"lon":5.37465,"is_reserved":false,"is_disabled":true,"rental_uris":{"android":"levelo://app?vid=4eddc2d7-69fb-45d9-b0be-00e6dc641370","ios":"levelo://app?vid=4eddc2d7-69fb-45d9-b0be-00e6dc641370"},"vehicle_type_id":"4","last_reported":1750936173,"current_range_meters":0,"station_id":"ce4bhgh2rcd13ifvqfb0","pricing_plan_id":"cebpf4jnsgd1na2vs0mg"},{"bike_id":"c920caf1-0521-47f2-bdfa-c21a92337ccc","system_id":"levelo_inurba_marseille","lat":43.27946,"lon":5.41045,"is_reserved":false,"is_disabled":true,"rental_uris":{"android":"levelo://app?vid=c920caf1-0521-47f2-bdfa-c21a92337ccc","ios":"levelo://app?vid=c920caf1-0521-47f2-bdfa-c21a92337ccc"},"vehicle_type_id":"4","last_reported":1750936173,"current_range_meters":0,"station_id":"ce4bhnp2rcd13ifvqh0g","pricing_plan_id":"cebpf4jnsgd1na2vs0mg"},{"bike_id":"3f96b52d-e9fe-41f5-89e8-f487e766a984","system_id":"levelo_inurba_marseille","lat":43.31727,"lon":5.42408,"is_reserved":false,"is_disabled":true,"rental_uris":{"android":"levelo://app?vid=3f96b52d-e9fe-41f5-89e8-f487e766a984","ios":"levelo://app?vid=3f96b52d-e9fe-41f5-89e8-f487e766a984"},"vehicle_type_id":"4","last_reported":1750936173,"current_range_meters":0,"station_id":"ce4bhp92rcd13ifvqhbg","pricing_plan_id":"cebpf4jnsgd1na2vs0mg"},{"bike_id":"0443358b-784c-4ba8-a7eb-348bf79c2387","system_id":"levelo_inurba_marseille","lat":43.23196,"lon":5.3555,"is_reserved":false,"is_disabled":true,"rental_uris":{"android":"levelo://app?vid=0443358b-784c-4ba8-a7eb-348bf79c2387","ios":"levelo://app?vid=0443358b-784c-4ba8-a7eb-348bf79c2387"},"vehicle_type_id":"4","last_reported":1750936173,"current_range_meters":0,"station_id":"ce4bhu92rcd13ifvqi70","pricing_plan_id":"cebpf4jnsgd1na2vs0mg"},{"bike_id":"5bf47b9f-1d17-418c-8c7a-7093cb7e5b18","system_id":"levelo_inurba_marseille","lat":43.23192,"lon":5.35552,"is_reserved":false,"is_disabled":true,"rental_uris":{"android":"levelo://app?vid=5bf47b9f-1d17-418c-8c7a-7093cb7e5b18","ios":"levelo://app?vid=5bf47b9f-1d17-418c-8c7a-7093cb7e5b18"},"vehicle_type_id":"4","last_reported":1750936173,"current_range_meters":0,"station_id":"ce4bhu92rcd13ifvqi70","pricing_plan_id":"cebpf4jnsgd1na2vs0mg"},{"bike_id":"c83adf78-14ca-4a80-b94a-16ed5ff617f2","system_id":"levelo_inurba_marseille","lat":43.22489,"lon":5.34827,"is_reserved":false,"is_disabled":true,"rental_uris":{"android":"levelo://app?vid=c83adf78-14ca-4a80-b94a-16ed5ff617f2","ios":"levelo://app?vid=c83adf78-14ca-4a80-b94a-16ed5ff617f2"},"vehicle_type_id":"4","last_reported":1750936173,"current_range_meters":0,"station_id":"st_cvj5dfep6f1abm77gieg","pricing_plan_id":"cebpf4jnsgd1na2vs0mg"},{"bike_id":"6bc90a85-4c2e-44b5-8e96-668c5179ca0c","system_id":"levelo_inurba_marseille","lat":43.29533,"lon":5.39401,"is_reserved":false,"is_disabled":true,"rental_uris":{"android":"levelo://app?vid=6bc90a85-4c2e-44b5-8e96-668c5179ca0c","ios":"levelo://app?vid=6bc90a85-4c2e-44b5-8e96-668c5179ca0c"},"vehicle_type_id":"4","last_reported":1750936173,"current_range_meters":400,"station_id":"ce4bh292rcd13ifvqdf0","pricing_plan_id":"cebpf4jnsgd1na2vs0mg"},{"bike_id":"0a068c09-9857-4125-8dfc-0cd75fc22651","system_id":"levelo_inurba_marseille","lat":43.28379,"lon":5.3864,"is_reserved":false,"is_disabled":true,"rental_uris":{"android":"levelo://app?vid=0a068c09-9857-4125-8dfc-0cd75fc22651","ios":"levelo://app?vid=0a068c09-9857-4125-8dfc-0cd75fc22651"},"vehicle_type_id":"4","last_reported":1750936173,"current_range_meters":400,"station_id":"ce4bh492rcd13ifvqdvg","pricing_plan_id":"cebpf4jnsgd1na2vs0mg"},{"bike_id":"be6544fb-6c1c-4292-b44a-7843b5c7fb9c","system_id":"levelo_inurba_marseille","lat":43.31647,"lon":5.41345,"is_reserved":false,"is_disabled":true,"rental_uris":{"android":"levelo://app?vid=be6544fb-6c1c-4292-b44a-7843b5c7fb9c","ios":"levelo://app?vid=be6544fb-6c1c-4292-b44a-7843b5c7fb9c"},"vehicle_type_id":"4","last_reported":1750936173,"current_range_meters":800,"station_id":"","pricing_plan_id":"cebpf4jnsgd1na2vs0mg"},{"bike_id":"664f4ff0-e9ef-41ec-8fb8-0a581ccb514c","system_id":"levelo_inurba_marseille","lat":43.30892,"lon":5.37202,"is_reserved":false,"is_disabled":true,"rental_uris":{"android":"levelo://app?vid=664f4ff0-e9ef-41ec-8fb8-0a581ccb514c","ios":"levelo://app?vid=664f4ff0-e9ef-41ec-8fb8-0a581ccb514c"},"vehicle_type_id":"4","last_reported":1750936173,"current_range_meters":800,"station_id":"ce4bguh2rcd13ifvqckg","pricing_plan_id":"cebpf4jnsgd1na2vs0mg"},{"bike_id":"c6153a94-1a15-4dcd-b48c-59ea306f3a24","system_id":"levelo_inurba_marseille","lat":43.23152,"lon":5.43716,"is_reserved":false,"is_disabled":true,"rental_uris":{"android":"levelo://app?vid=c6153a94-1a15-4dcd-b48c-59ea306f3a24","ios":"levelo://app?vid=c6153a94-1a15-4dcd-b48c-59ea306f3a24"},"vehicle_type_id":"4","last_reported":1750936173,"current_range_meters":800,"station_id":"ce4bhmp2rcd13ifvqgog","pricing_plan_id":"cebpf4jnsgd1na2vs0mg"},{"bike_id":"581af24d-57f0-4510-a188-d64b595d4133","system_id":"levelo_inurba_marseille","lat":43.23947,"lon":5.37619,"is_reserved":false,"is_disabled":true,"rental_uris":{"android":"levelo://app?vid=581af24d-57f0-4510-a188-d64b595d4133","ios":"levelo://app?vid=581af24d-57f0-4510-a188-d64b595d4133"},"vehicle_type_id":"4","last_reported":1750936173,"current_range_meters":1200,"station_id":"","pricing_plan_id":"cebpf4jnsgd1na2vs0mg"},{"bike_id":"0348a08f-291d-4d2d-a3be-c9422cd65618","system_id":"levelo_inurba_marseille","lat":43.29707,"lon":5.37696,"is_reserved":false,"is_disabled":false,"rental_uris":{"android":"levelo://app?vid=0348a08f-291d-4d2d-a3be-c9422cd65618","ios":"levelo://app?vid=0348a08f-291d-4d2d-a3be-c9422cd65618"},"vehicle_type_id":"4","last_reported":1750936173,"current_range_meters":1200,"station_id":"ce4bgkh2rcd13ifvqbl0","pricing_plan_id":"cebpf4jnsgd1na2vs0mg"},{"bike_id":"a94096d3-f1c0-4e06-b7be-871a20bf9bbc","system_id":"levelo_inurba_marseille","lat":43.29189,"lon":5.3581,"is_reserved":false,"is_disabled":false,"rental_uris":{"android":"levelo://app?vid=a94096d3-f1c0-4e06-b7be-871a20bf9bbc","ios":"levelo://app?vid=a94096d3-f1c0-4e06-b7be-871a20bf9bbc"},"vehicle_type_id":"4","last_reported":1750936173,"current_range_meters":1200,"station_id":"ce4bhb12rcd13ifvqel0","pricing_plan_id":"cebpf4jnsgd1na2vs0mg"},{"bike_id":"17b5e177-1f54-4fb9-9f21-a60fccdf4a69","system_id":"levelo_inurba_marseille","lat":43.27968,"lon":5.38732,"is_reserved":false,"is_disabled":true,"rental_uris":{"android":"levelo://app?vid=17b5e177-1f54-4fb9-9f21-a60fccdf4a69","ios":"levelo://app?vid=17b5e177-1f54-4fb9-9f21-a60fccdf4a69"},"vehicle_type_id":"4","last_reported":1750936173,"current_range_meters":1200,"station_id":"ce4bhg12rcd13ifvqf80","pricing_plan_id":"cebpf4jnsgd1na2vs0mg"},{"bike_id":"fb68846c-8243-476b-9d22-4d685f42aab9","system_id":"levelo_inurba_marseille","lat":43.26953,"lon":5.38627,"is_reserved":false,"is_disabled":true,"rental_uris":{"android":"levelo://app?vid=fb68846c-8243-476b-9d22-4d685f42aab9","ios":"levelo://app?vid=fb68846c-8243-476b-9d22-4d685f42aab9"},"vehicle_type_id":"4","last_reported":1750936173,"current_range_meters":1200,"station_id":"ce4bhh92rcd13ifvqfh0","pricing_plan_id":"cebpf4jnsgd1na2vs0mg"},{"bike_id":"9beee95f-65dc-4ed7-9495-cf42930cd5cc","system_id":"levelo_inurba_marseille","lat":43.2439,"lon":5.37059,"is_reserved":false,"is_disabled":true,"rental_uris":{"android":"levelo://app?vid=9beee95f-65dc-4ed7-9495-cf42930cd5cc","ios":"levelo://app?vid=9beee95f-65dc-4ed7-9495-cf42930cd5cc"},"vehicle_type_id":"4","last_reported":1750936173,"current_range_meters":1200,"station_id":"ce4bhhh2rcd13ifvqfk0","pricing_plan_id":"cebpf4jnsgd1na2vs0mg"},{"bike_id":"63a24d5e-ac4c-4d13-976e-82697a5077cc","system_id":"levelo_inurba_marseille","lat":43.299004,"lon":5.43663,"is_reserved":false,"is_disabled":true,"rental_uris":{"android":"levelo://app?vid=63a24d5e-ac4c-4d13-976e-82697a5077cc","ios":"levelo://app?vid=63a24d5e-ac4c-4d13-976e-82697a5077cc"},"vehicle_type_id":"4","last_reported":1750936173,"current_range_meters":1200,"station_id":"ce4bhpp2rcd13ifvqhfg","pricing_plan_id":"cebpf4jnsgd1na2vs0mg"},{"bike_id":"a1341e8f-0f12-4f90-8566-8a3a90cda470","system_id":"levelo_inurba_marseille","lat":43.29616,"lon":5.3772,"is_reserved":false,"is_disabled":true,"rental_uris":{"android":"levelo://app?vid=a1341e8f-0f12-4f90-8566-8a3a90cda470","ios":"levelo://app?vid=a1341e8f-0f12-4f90-8566-8a3a90cda470"},"vehicle_type_id":"4","last_reported":1750936173,"current_range_meters":1600,"station_id":"ce4bgi92rcd13ifvqb90","pricing_plan_id":"cebpf4jnsgd1na2vs0mg"},{"bike_id":"bb85da35-92be-4e03-aa34-20455828a992","system_id":"levelo_inurba_marseille","lat":43.30297,"lon":5.39221,"is_reserved":false,"is_disabled":true,"rental_uris":{"android":"levelo://app?vid=bb85da35-92be-4e03-aa34-20455828a992","ios":"levelo://app?vid=bb85da35-92be-4e03-aa34-20455828a992"},"vehicle_type_id":"4","last_reported":1750936173,"current_range_meters":2000,"station_id":"ce4bgkh2rcd13ifvqbk0","pricing_plan_id":"cebpf4jnsgd1na2vs0mg"},{"bike_id":"22a541bc-a754-4e48-8f38-29c0c7d9dc57","system_id":"levelo_inurba_marseille","lat":43.27946,"lon":5.41041,"is_reserved":false,"is_disabled":true,"rental_uris":{"android":"levelo://app?vid=22a541bc-a754-4e48-8f38-29c0c7d9dc57","ios":"levelo://app?vid=22a541bc-a754-4e48-8f38-29c0c7d9dc57"},"vehicle_type_id":"4","last_reported":1750936173,"current_range_meters":2000,"station_id":"ce4bhnp2rcd13ifvqh0g","pricing_plan_id":"cebpf4jnsgd1na2vs0mg"},{"bike_id":"f8715c6a-faa5-49e3-9105-2db28a6db323","system_id":"levelo_inurba_marseille","lat":43.30199,"lon":5.39792,"is_reserved":false,"is_disabled":false,"rental_uris":{"android":"levelo://app?vid=f8715c6a-faa5-49e3-9105-2db28a6db323","ios":"levelo://app?vid=f8715c6a-faa5-49e3-9105-2db28a6db323"},"vehicle_type_id":"4","last_reported":1750936173,"current_range_meters":2800,"station_id":"","pricing_plan_id":"cebpf4jnsgd1na2vs0mg"},{"bike_id":"cf8de356-4cf9-4528-8232-a46cfa3714b5","system_id":"levelo_inurba_marseille","lat":43.29264,"lon":5.37622,"is_reserved":false,"is_disabled":false,"rental_uris":{"android":"levelo://app?vid=cf8de356-4cf9-4528-8232-a46cfa3714b5","ios":"levelo://app?vid=cf8de356-4cf9-4528-8232-a46cfa3714b5"},"vehicle_type_id":"4","last_reported":1750936173,"current_range_meters":2800,"station_id":"ce4bgi12rcd13ifvqb80","pricing_plan_id":"cebpf4jnsgd1na2vs0mg"},{"bike_id":"db8a642e-bbde-4690-a127-6813f0fad63b","system_id":"levelo_inurba_marseille","lat":43.29263,"lon":5.38438,"is_reserved":false,"is_disabled":false,"rental_uris":{"android":"levelo://app?vid=db8a642e-bbde-4690-a127-6813f0fad63b","ios":"levelo://app?vid=db8a642e-bbde-4690-a127-6813f0fad63b"},"vehicle_type_id":"4","last_reported":1750936173,"current_range_meters":2800,"station_id":"ce4bh692rcd13ifvqea0","pricing_plan_id":"cebpf4jnsgd1na2vs0mg"},{"bike_id":"c2523dfe-3172-4440-9f2f-e0ed8df9362c","system_id":"levelo_inurba_marseille","lat":43.284018,"lon":5.349745,"is_reserved":false,"is_disabled":false,"rental_uris":{"android":"levelo://app?vid=c2523dfe-3172-4440-9f2f-e0ed8df9362c","ios":"levelo://app?vid=c2523dfe-3172-4440-9f2f-e0ed8df9362c"},"vehicle_type_id":"4","last_reported":1750936173,"current_range_meters":2800,"station_id":"ce4bhb12rcd13ifvqel0","pricing_plan_id":"cebpf4jnsgd1na2vs0mg"},{"bike_id":"7db500fd-8bbd-4a18-8887-7e56457cebf4","system_id":"levelo_inurba_marseille","lat":43.27377,"lon":5.36246,"is_reserved":false,"is_disabled":false,"rental_uris":{"android":"levelo://app?vid=7db500fd-8bbd-4a18-8887-7e56457cebf4","ios":"levelo://app?vid=7db500fd-8bbd-4a18-8887-7e56457cebf4"},"vehicle_type_id":"4","last_reported":1750936173,"current_range_meters":2800,"station_id":"ce4bhbh2rcd13ifvqeo0","pricing_plan_id":"cebpf4jnsgd1na2vs0mg"},{"bike_id":"9e5e5fd1-b9fe-4193-a0f6-33673dfab5ce","system_id":"levelo_inurba_marseille","lat":43.22933,"lon":5.35375,"is_reserved":false,"is_disabled":false,"rental_uris":{"android":"levelo://app?vid=9e5e5fd1-b9fe-4193-a0f6-33673dfab5ce","ios":"levelo://app?vid=9e5e5fd1-b9fe-4193-a0f6-33673dfab5ce"},"vehicle_type_id":"4","last_reported":1750936173,"current_range_meters":2800,"station_id":"cpo3532slgdg3j2ikp40","pricing_plan_id":"cebpf4jnsgd1na2vs0mg"},{"bike_id":"8ff71ba5-3310-48f4-ab0f-b21d9a93a961","system_id":"levelo_inurba_marseille","lat":43.295809,"lon":5.399718,"is_reserved":false,"is_disabled":false,"rental_uris":{"android":"levelo://app?vid=8ff71ba5-3310-48f4-ab0f-b21d9a93a961","ios":"levelo://app?vid=8ff71ba5-3310-48f4-ab0f-b21d9a93a961"},"vehicle_type_id":"4","last_reported":1750936173,"current_range_meters":3200,"station_id":"ce4bh312rcd13ifvqdj0","pricing_plan_id":"cebpf4jnsgd1na2vs0mg"},{"bike_id":"130d33a0-045a-47a7-b2bd-00f8b3a6a644","system_id":"levelo_inurba_marseille","lat":43.29282,"lon":5.38444,"is_reserved":false,"is_disabled":false,"rental_uris":{"android":"levelo://app?vid=130d33a0-045a-47a7-b2bd-00f8b3a6a644","ios":"levelo://app?vid=130d33a0-045a-47a7-b2bd-00f8b3a6a644"},"vehicle_type_id":"4","last_reported":1750936173,"current_range_meters":3200,"station_id":"ce4bh692rcd13ifvqea0","pricing_plan_id":"cebpf4jnsgd1na2vs0mg"},{"bike_id":"9bcaf2c4-201d-42f2-a681-8147c0540392","system_id":"levelo_inurba_marseille","lat":43.281532,"lon":5.426622,"is_reserved":false,"is_disabled":false,"rental_uris":{"android":"levelo://app?vid=9bcaf2c4-201d-42f2-a681-8147c0540392","ios":"levelo://app?vid=9bcaf2c4-201d-42f2-a681-8147c0540392"},"vehicle_type_id":"4","last_reported":1750936173,"current_range_meters":3600,"station_id":"ce4bhnh2rcd13ifvqgug","pricing_plan_id":"cebpf4jnsgd1na2vs0mg"},{"bike_id":"0a441ef0-60d8-49b9-94c2-372fd08fa9c4","system_id":"levelo_inurba_marseille","lat":43.29099,"lon":5.3816,"is_reserved":false,"is_disabled":false,"rental_uris":{"android":"levelo://app?vid=0a441ef0-60d8-49b9-94c2-372fd08fa9c4","ios":"levelo://app?vid=0a441ef0-60d8-49b9-94c2-372fd08fa9c4"},"vehicle_type_id":"4","last_reported":1750936173,"current_range_meters":4000,"station_id":"ce4bh512rcd13ifvqe2g","pricing_plan_id":"cebpf4jnsgd1na2vs0mg"},{"bike_id":"299c7144-e3b7-4d13-a3bd-98f3f244e3e8","system_id":"levelo_inurba_marseille","lat":43.28004,"lon":5.4001,"is_reserved":false,"is_disabled":false,"rental_uris":{"android":"levelo://app?vid=299c7144-e3b7-4d13-a3bd-98f3f244e3e8","ios":"levelo://app?vid=299c7144-e3b7-4d13-a3bd-98f3f244e3e8"},"vehicle_type_id":"4","last_reported":1750936173,"current_range_meters":4000,"station_id":"ce4bho92rcd13ifvqh4g","pricing_plan_id":"cebpf4jnsgd1na2vs0mg"},{"bike_id":"a3d0361a-3828-474d-99c9-540f57e909aa","system_id":"levelo_inurba_marseille","lat":43.31179,"lon":5.38713,"is_reserved":false,"is_disabled":false,"rental_uris":{"android":"levelo://app?vid=a3d0361a-3828-474d-99c9-540f57e909aa","ios":"levelo://app?vid=a3d0361a-3828-474d-99c9-540f57e909aa"},"vehicle_type_id":"4","last_reported":1750936173,"current_range_meters":4400,"station_id":"ce4bgv12rcd13ifvqcp0","pricing_plan_id":"cebpf4jnsgd1na2vs0mg"},{"bike_id":"9a1bee5b-43d9-4bc1-aadc-5c8e142942b2","system_id":"levelo_inurba_marseille","lat":43.31752,"lon":5.39014,"is_reserved":false,"is_disabled":false,"rental_uris":{"android":"levelo://app?vid=9a1bee5b-43d9-4bc1-aadc-5c8e142942b2","ios":"levelo://app?vid=9a1bee5b-43d9-4bc1-aadc-5c8e142942b2"},"vehicle_type_id":"4","last_reported":1750936173,"current_range_meters":4400,"station_id":"ce4bhqp2rcd13ifvqhng","pricing_plan_id":"cebpf4jnsgd1na2vs0mg"},{"bike_id":"90f751c6-59a6-46f8-b0ed-f0c4edc8a869","system_id":"levelo_inurba_marseille","lat":43.26555,"lon":5.37286,"is_reserved":false,"is_disabled":false,"rental_uris":{"android":"levelo://app?vid=90f751c6-59a6-46f8-b0ed-f0c4edc8a869","ios":"levelo://app?vid=90f751c6-59a6-46f8-b0ed-f0c4edc8a869"},"vehicle_type_id":"4","last_reported":1750936173,"current_range_meters":5600,"station_id":"ce4bhg12rcd13ifvqf70","pricing_plan_id":"cebpf4jnsgd1na2vs0mg"},{"bike_id":"0ef0883b-27de-478e-bacc-b518925e92e0","system_id":"levelo_inurba_marseille","lat":43.26207,"lon":5.3744,"is_reserved":false,"is_disabled":false,"rental_uris":{"android":"levelo://app?vid=0ef0883b-27de-478e-bacc-b518925e92e0","ios":"levelo://app?vid=0ef0883b-27de-478e-bacc-b518925e92e0"},"vehicle_type_id":"4","last_reported":1750936173,"current_range_meters":5600,"station_id":"ce4bhgp2rcd13ifvqfc0","pricing_plan_id":"cebpf4jnsgd1na2vs0mg"},{"bike_id":"1c6702be-eaf2-4631-ab14-af2fec645c05","system_id":"levelo_inurba_marseille","lat":43.29784,"lon":5.37095,"is_reserved":false,"is_disabled":false,"rental_uris":{"android":"levelo://app?vid=1c6702be-eaf2-4631-ab14-af2fec645c05","ios":"levelo://app?vid=1c6702be-eaf2-4631-ab14-af2fec645c05"},"vehicle_type_id":"4","last_reported":1750936173,"current_range_meters":6000,"station_id":"ce4bgop2rcd13ifvqc1g","pricing_plan_id":"cebpf4jnsgd1na2vs0mg"},{"bike_id":"3b94dc4b-159d-47bd-b6e1-955833b6dfb4","system_id":"levelo_inurba_marseille","lat":43.306,"lon":5.37233,"is_reserved":false,"is_disabled":false,"rental_uris":{"android":"levelo://app?vid=3b94dc4b-159d-47bd-b6e1-955833b6dfb4","ios":"levelo://app?vid=3b94dc4b-159d-47bd-b6e1-955833b6dfb4"},"vehicle_type_id":"4","last_reported":1750936173,"current_range_meters":6000,"station_id":"ce4bgqh2rcd13ifvqc4g","pricing_plan_id":"cebpf4jnsgd1na2vs0mg"},{"bike_id":"455cd017-a26b-436f-a089-0fd4679a2f1c","system_id":"levelo_inurba_marseille","lat":43.26558,"lon":5.37281,"is_reserved":false,"is_disabled":false,"rental_uris":{"android":"levelo://app?vid=455cd017-a26b-436f-a089-0fd4679a2f1c","ios":"levelo://app?vid=455cd017-a26b-436f-a089-0fd4679a2f1c"},"vehicle_type_id":"4","last_reported":1750936173,"current_range_meters":6000,"station_id":"ce4bhg12rcd13ifvqf70","pricing_plan_id":"cebpf4jnsgd1na2vs0mg"},{"bike_id":"d70fba59-b5a7-4d77-8764-b0361c0bc73e","system_id":"levelo_inurba_marseille","lat":43.26215,"lon":5.37439,"is_reserved":false,"is_disabled":false,"rental_uris":{"android":"levelo://app?vid=d70fba59-b5a7-4d77-8764-b0361c0bc73e","ios":"levelo://app?vid=d70fba59-b5a7-4d77-8764-b0361c0bc73e"},"vehicle_type_id":"4","last_reported":1750936173,"current_range_meters":6000,"station_id":"ce4bhgp2rcd13ifvqfc0","pricing_plan_id":"cebpf4jnsgd1na2vs0mg"},{"bike_id":"dbfb2b4d-f467-42b8-bdec-0c1e515fa89f","system_id":"levelo_inurba_marseille","lat":43.29888,"lon":5.43667,"is_reserved":false,"is_disabled":false,"rental_uris":{"android":"levelo://app?vid=dbfb2b4d-f467-42b8-bdec-0c1e515fa89f","ios":"levelo://app?vid=dbfb2b4d-f467-42b8-bdec-0c1e515fa89f"},"vehicle_type_id":"4","last_reported":1750936173,"current_range_meters":6000,"station_id":"ce4bhpp2rcd13ifvqhfg","pricing_plan_id":"cebpf4jnsgd1na2vs0mg"},{"bike_id":"67a5051a-b32e-408a-8389-c22b54eb81f6","system_id":"levelo_inurba_marseille","lat":43.33017,"lon":5.45626,"is_reserved":false,"is_disabled":false,"rental_uris":{"android":"levelo://app?vid=67a5051a-b32e-408a-8389-c22b54eb81f6","ios":"levelo://app?vid=67a5051a-b32e-408a-8389-c22b54eb81f6"},"vehicle_type_id":"4","last_reported":1750936173,"current_range_meters":6400,"station_id":"","pricing_plan_id":"cebpf4jnsgd1na2vs0mg"},{"bike_id":"efeb3c70-3319-46e5-a8c1-e29db37d8a29","system_id":"levelo_inurba_marseille","lat":43.316103,"lon":5.366819,"is_reserved":false,"is_disabled":false,"rental_uris":{"android":"levelo://app?vid=efeb3c70-3319-46e5-a8c1-e29db37d8a29","ios":"levelo://app?vid=efeb3c70-3319-46e5-a8c1-e29db37d8a29"},"vehicle_type_id":"4","last_reported":1750936173,"current_range_meters":6400,"station_id":"","pricing_plan_id":"cebpf4jnsgd1na2vs0mg"},{"bike_id":"7b9243c8-c651-4937-afd4-5c29f64998cd","system_id":"levelo_inurba_marseille","lat":43.31381,"lon":5.36742,"is_reserved":false,"is_disabled":false,"rental_uris":{"android":"levelo://app?vid=7b9243c8-c651-4937-afd4-5c29f64998cd","ios":"levelo://app?vid=7b9243c8-c651-4937-afd4-5c29f64998cd"},"vehicle_type_id":"4","last_reported":1750936173,"current_range_meters":6400,"station_id":"","pricing_plan_id":"cebpf4jnsgd1na2vs0mg"},{"bike_id":"3b4d5dbe-3216-47a9-8385-0fa7f227ceb2","system_id":"levelo_inurba_marseille","lat":43.3024,"lon":5.40071,"is_reserved":false,"is_disabled":false,"rental_uris":{"android":"levelo://app?vid=3b4d5dbe-3216-47a9-8385-0fa7f227ceb2","ios":"levelo://app?vid=3b4d5dbe-3216-47a9-8385-0fa7f227ceb2"},"vehicle_type_id":"4","last_reported":1750936173,"current_range_meters":6400,"station_id":"ce4bgvh2rcd13ifvqcs0","pricing_plan_id":"cebpf4jnsgd1na2vs0mg"},{"bike_id":"9a60b797-e620-44bd-aade-099315e85db9","system_id":"levelo_inurba_marseille","lat":43.29615,"lon":5.37728,"is_reserved":false,"is_disabled":false,"rental_uris":{"android":"levelo://app?vid=9a60b797-e620-44bd-aade-099315e85db9","ios":"levelo://app?vid=9a60b797-e620-44bd-aade-099315e85db9"},"vehicle_type_id":"4","last_reported":1750936173,"current_range_meters":6800,"station_id":"ce4bgi92rcd13ifvqb90","pricing_plan_id":"cebpf4jnsgd1na2vs0mg"},{"bike_id":"187d00fd-ce1d-4e54-9bef-0957b9f663b9","system_id":"levelo_inurba_marseille","lat":43.29257,"lon":5.38435,"is_reserved":false,"is_disabled":false,"rental_uris":{"android":"levelo://app?vid=187d00fd-ce1d-4e54-9bef-0957b9f663b9","ios":"levelo://app?vid=187d00fd-ce1d-4e54-9bef-0957b9f663b9"},"vehicle_type_id":"4","last_reported":1750936173,"current_range_meters":6800,"station_id":"ce4bh692rcd13ifvqea0","pricing_plan_id":"cebpf4jnsgd1na2vs0mg"},{"bike_id":"95eb1813-9ace-40e0-a501-d66dfc79c93f","system_id":"levelo_inurba_marseille","lat":43.28862,"lon":5.35846,"is_reserved":false,"is_disabled":false,"rental_uris":{"android":"levelo://app?vid=95eb1813-9ace-40e0-a501-d66dfc79c93f","ios":"levelo://app?vid=95eb1813-9ace-40e0-a501-d66dfc79c93f"},"vehicle_type_id":"4","last_reported":1750936173,"current_range_meters":6800,"station_id":"ce4bhb12rcd13ifvqem0","pricing_plan_id":"cebpf4jnsgd1na2vs0mg"},{"bike_id":"50ec88a1-88b0-4a99-ba20-517aff4c6529","system_id":"levelo_inurba_marseille","lat":43.32468,"lon":5.36538,"is_reserved":false,"is_disabled":false,"rental_uris":{"android":"levelo://app?vid=50ec88a1-88b0-4a99-ba20-517aff4c6529","ios":"levelo://app?vid=50ec88a1-88b0-4a99-ba20-517aff4c6529"},"vehicle_type_id":"4","last_reported":1750936173,"current_range_meters":6800,"station_id":"ce4bhs12rcd13ifvqhvg","pricing_plan_id":"cebpf4jnsgd1na2vs0mg"},{"bike_id":"de76381d-ea97-4c2f-a31b-fae63769c987","system_id":"levelo_inurba_marseille","lat":43.23056,"lon":5.3549,"is_reserved":false,"is_disabled":false,"rental_uris":{"android":"levelo://app?vid=de76381d-ea97-4c2f-a31b-fae63769c987","ios":"levelo://app?vid=de76381d-ea97-4c2f-a31b-fae63769c987"},"vehicle_type_id":"4","last_reported":1750936173,"current_range_meters":6800,"station_id":"cpo3342slgdg3j2ifvpg","pricing_plan_id":"cebpf4jnsgd1na2vs0mg"},{"bike_id":"755adf1b-13d8-4854-9aed-67ca32d87ff5","system_id":"levelo_inurba_marseille","lat":43.30422,"lon":5.38869,"is_reserved":false,"is_disabled":false,"rental_uris":{"android":"levelo://app?vid=755adf1b-13d8-4854-9aed-67ca32d87ff5","ios":"levelo://app?vid=755adf1b-13d8-4854-9aed-67ca32d87ff5"},"vehicle_type_id":"4","last_reported":1750936173,"current_range_meters":7200,"station_id":"ce4bgk12rcd13ifvqbi0","pricing_plan_id":"cebpf4jnsgd1na2vs0mg"},{"bike_id":"16ca1feb-6142-4275-a16e-7e1ce1a0115b","system_id":"levelo_inurba_marseille","lat":43.2957,"lon":5.39981,"is_reserved":false,"is_disabled":false,"rental_uris":{"android":"levelo://app?vid=16ca1feb-6142-4275-a16e-7e1ce1a0115b","ios":"levelo://app?vid=16ca1feb-6142-4275-a16e-7e1ce1a0115b"},"vehicle_type_id":"4","last_reported":1750936173,"current_range_meters":8000,"station_id":"ce4bh312rcd13ifvqdj0","pricing_plan_id":"cebpf4jnsgd1na2vs0mg"},{"bike_id":"640266d5-2bc3-47a3-a0f3-6eb08564a71e","system_id":"levelo_inurba_marseille","lat":43.28344,"lon":5.38099,"is_reserved":false,"is_disabled":false,"rental_uris":{"android":"levelo://app?vid=640266d5-2bc3-47a3-a0f3-6eb08564a71e","ios":"levelo://app?vid=640266d5-2bc3-47a3-a0f3-6eb08564a71e"},"vehicle_type_id":"4","last_reported":1750936173,"current_range_meters":8000,"station_id":"ce4bh412rcd13ifvqdr0","pricing_plan_id":"cebpf4jnsgd1na2vs0mg"},{"bike_id":"f261fcc9-0fde-4ecc-95cf-6a3369f3b3c3","system_id":"levelo_inurba_marseille","lat":43.28424,"lon":5.37504,"is_reserved":false,"is_disabled":false,"rental_uris":{"android":"levelo://app?vid=f261fcc9-0fde-4ecc-95cf-6a3369f3b3c3","ios":"levelo://app?vid=f261fcc9-0fde-4ecc-95cf-6a3369f3b3c3"},"vehicle_type_id":"4","last_reported":1750936173,"current_range_meters":8000,"station_id":"ce4bh412rcd13ifvqds0","pricing_plan_id":"cebpf4jnsgd1na2vs0mg"},{"bike_id":"ee43b475-5da6-4ddb-8fd7-3086094b10b4","system_id":"levelo_inurba_marseille","lat":43.31077,"lon":5.42421,"is_reserved":false,"is_disabled":false,"rental_uris":{"android":"levelo://app?vid=ee43b475-5da6-4ddb-8fd7-3086094b10b4","ios":"levelo://app?vid=ee43b475-5da6-4ddb-8fd7-3086094b10b4"},"vehicle_type_id":"4","last_reported":1750936173,"current_range_meters":8000,"station_id":"ce4bhp92rcd13ifvqhag","pricing_plan_id":"cebpf4jnsgd1na2vs0mg"},{"bike_id":"35b14479-4a4d-4383-83de-c7fea66894b3","system_id":"levelo_inurba_marseille","lat":43.299051,"lon":5.43665,"is_reserved":false,"is_disabled":false,"rental_uris":{"android":"levelo://app?vid=35b14479-4a4d-4383-83de-c7fea66894b3","ios":"levelo://app?vid=35b14479-4a4d-4383-83de-c7fea66894b3"},"vehicle_type_id":"4","last_reported":1750936173,"current_range_meters":8000,"station_id":"ce4bhpp2rcd13ifvqhfg","pricing_plan_id":"cebpf4jnsgd1na2vs0mg"},{"bike_id":"3f41f9b1-a2c2-4229-bed9-8733abd9ffe6","system_id":"levelo_inurba_marseille","lat":43.33035,"lon":5.39072,"is_reserved":false,"is_disabled":false,"rental_uris":{"android":"levelo://app?vid=3f41f9b1-a2c2-4229-bed9-8733abd9ffe6","ios":"levelo://app?vid=3f41f9b1-a2c2-4229-bed9-8733abd9ffe6"},"vehicle_type_id":"4","last_reported":1750936173,"current_range_meters":8000,"station_id":"ce4bhr92rcd13ifvqhrg","pricing_plan_id":"cebpf4jnsgd1na2vs0mg"},{"bike_id":"26a14eba-87a9-47b8-9607-30bd0042d428","system_id":"levelo_inurba_marseille","lat":43.3149,"lon":5.39404,"is_reserved":false,"is_disabled":false,"rental_uris":{"android":"levelo://app?vid=26a14eba-87a9-47b8-9607-30bd0042d428","ios":"levelo://app?vid=26a14eba-87a9-47b8-9607-30bd0042d428"},"vehicle_type_id":"4","last_reported":1750936173,"current_range_meters":8400,"station_id":"","pricing_plan_id":"cebpf4jnsgd1na2vs0mg"},{"bike_id":"af112b62-19de-41d4-b8d7-e14d0172315d","system_id":"levelo_inurba_marseille","lat":43.327043,"lon":5.392155,"is_reserved":false,"is_disabled":false,"rental_uris":{"android":"levelo://app?vid=af112b62-19de-41d4-b8d7-e14d0172315d","ios":"levelo://app?vid=af112b62-19de-41d4-b8d7-e14d0172315d"},"vehicle_type_id":"4","last_reported":1750936173,"current_range_meters":8400,"station_id":"","pricing_plan_id":"cebpf4jnsgd1na2vs0mg"},{"bike_id":"89177f0d-35a8-4bb1-8f5a-69da6b018322","system_id":"levelo_inurba_marseille","lat":43.30516,"lon":5.36684,"is_reserved":false,"is_disabled":false,"rental_uris":{"android":"levelo://app?vid=89177f0d-35a8-4bb1-8f5a-69da6b018322","ios":"levelo://app?vid=89177f0d-35a8-4bb1-8f5a-69da6b018322"},"vehicle_type_id":"4","last_reported":1750936173,"current_range_meters":8400,"station_id":"ce4bgrp2rcd13ifvqc9g","pricing_plan_id":"cebpf4jnsgd1na2vs0mg"},{"bike_id":"4124c10f-b5c1-4100-9e8c-f258d82c306e","system_id":"levelo_inurba_marseille","lat":43.31681,"lon":5.40484,"is_reserved":false,"is_disabled":false,"rental_uris":{"android":"levelo://app?vid=4124c10f-b5c1-4100-9e8c-f258d82c306e","ios":"levelo://app?vid=4124c10f-b5c1-4100-9e8c-f258d82c306e"},"vehicle_type_id":"4","last_reported":1750936173,"current_range_meters":8400,"station_id":"ce4bh012rcd13ifvqd00","pricing_plan_id":"cebpf4jnsgd1na2vs0mg"},{"bike_id":"90e5dfb7-85b1-4b9e-8c02-5866efb31370","system_id":"levelo_inurba_marseille","lat":43.289406,"lon":5.363902,"is_reserved":false,"is_disabled":false,"rental_uris":{"android":"levelo://app?vid=90e5dfb7-85b1-4b9e-8c02-5866efb31370","ios":"levelo://app?vid=90e5dfb7-85b1-4b9e-8c02-5866efb31370"},"vehicle_type_id":"4","last_reported":1750936173,"current_range_meters":8400,"station_id":"ce4bhap2rcd13ifvqek0","pricing_plan_id":"cebpf4jnsgd1na2vs0mg"},{"bike_id":"1865cef2-a675-42e2-bf0c-ecf628ea8695","system_id":"levelo_inurba_marseille","lat":43.26574,"lon":5.39029,"is_reserved":false,"is_disabled":false,"rental_uris":{"android":"levelo://app?vid=1865cef2-a675-42e2-bf0c-ecf628ea8695","ios":"levelo://app?vid=1865cef2-a675-42e2-bf0c-ecf628ea8695"},"vehicle_type_id":"4","last_reported":1750936173,"current_range_meters":8400,"station_id":"ce4bhe12rcd13ifvqf30","pricing_plan_id":"cebpf4jnsgd1na2vs0mg"},{"bike_id":"378bbf4c-2194-4640-b4ea-ec92f36b5b09","system_id":"levelo_inurba_marseille","lat":43.26199,"lon":5.3793,"is_reserved":false,"is_disabled":false,"rental_uris":{"android":"levelo://app?vid=378bbf4c-2194-4640-b4ea-ec92f36b5b09","ios":"levelo://app?vid=378bbf4c-2194-4640-b4ea-ec92f36b5b09"},"vehicle_type_id":"4","last_reported":1750936173,"current_range_meters":8400,"station_id":"ce4bhjp2rcd13ifvqg90","pricing_plan_id":"cebpf4jnsgd1na2vs0mg"},{"bike_id":"9f7c1a2d-1b96-45e3-b3f2-981ffe23e9a2","system_id":"levelo_inurba_marseille","lat":43.25723,"lon":5.41112,"is_reserved":false,"is_disabled":false,"rental_uris":{"android":"levelo://app?vid=9f7c1a2d-1b96-45e3-b3f2-981ffe23e9a2","ios":"levelo://app?vid=9f7c1a2d-1b96-45e3-b3f2-981ffe23e9a2"},"vehicle_type_id":"4","last_reported":1750936173,"current_range_meters":8400,"station_id":"ce4bhkp2rcd13ifvqgd0","pricing_plan_id":"cebpf4jnsgd1na2vs0mg"},{"bike_id":"85aebb63-1277-49af-91e5-22f2d655e266","system_id":"levelo_inurba_marseille","lat":43.298994,"lon":5.43669,"is_reserved":false,"is_disabled":false,"rental_uris":{"android":"levelo://app?vid=85aebb63-1277-49af-91e5-22f2d655e266","ios":"levelo://app?vid=85aebb63-1277-49af-91e5-22f2d655e266"},"vehicle_type_id":"4","last_reported":1750936173,"current_range_meters":8400,"station_id":"ce4bhpp2rcd13ifvqhfg","pricing_plan_id":"cebpf4jnsgd1na2vs0mg"},{"bike_id":"5eee8925-0941-460b-a942-18fcb70bac7c","system_id":"levelo_inurba_marseille","lat":43.27247,"lon":5.40051,"is_reserved":false,"is_disabled":false,"rental_uris":{"android":"levelo://app?vid=5eee8925-0941-460b-a942-18fcb70bac7c","ios":"levelo://app?vid=5eee8925-0941-460b-a942-18fcb70bac7c"},"vehicle_type_id":"4","last_reported":1750936173,"current_range_meters":9200,"station_id":"","pricing_plan_id":"cebpf4jnsgd1na2vs0mg"},{"bike_id":"ae5a0e79-b6a0-45bd-a39f-939b1c5142e8","system_id":"levelo_inurba_marseille","lat":43.299121,"lon":5.381544,"is_reserved":false,"is_disabled":false,"rental_uris":{"android":"levelo://app?vid=ae5a0e79-b6a0-45bd-a39f-939b1c5142e8","ios":"levelo://app?vid=ae5a0e79-b6a0-45bd-a39f-939b1c5142e8"},"vehicle_type_id":"4","last_reported":1750936173,"current_range_meters":9200,"station_id":"ce4bgj12rcd13ifvqbc0","pricing_plan_id":"cebpf4jnsgd1na2vs0mg"},{"bike_id":"3f81bfcf-1ac6-4f39-84e3-47e732e4c099","system_id":"levelo_inurba_marseille","lat":43.28467,"lon":5.38424,"is_reserved":false,"is_disabled":false,"rental_uris":{"android":"levelo://app?vid=3f81bfcf-1ac6-4f39-84e3-47e732e4c099","ios":"levelo://app?vid=3f81bfcf-1ac6-4f39-84e3-47e732e4c099"},"vehicle_type_id":"4","last_reported":1750936173,"current_range_meters":9200,"station_id":"ce4bh512rcd13ifvqe3g","pricing_plan_id":"cebpf4jnsgd1na2vs0mg"},{"bike_id":"52d39036-1902-46a8-82e9-b05fa3dae97d","system_id":"levelo_inurba_marseille","lat":43.28025,"lon":5.369063,"is_reserved":false,"is_disabled":false,"rental_uris":{"android":"levelo://app?vid=52d39036-1902-46a8-82e9-b05fa3dae97d","ios":"levelo://app?vid=52d39036-1902-46a8-82e9-b05fa3dae97d"},"vehicle_type_id":"4","last_reported":1750936173,"current_range_meters":9200,"station_id":"ce4bha12rcd13ifvqef0","pricing_plan_id":"cebpf4jnsgd1na2vs0mg"},{"bike_id":"ab6bd442-7df4-49f9-a454-4d6965b66e3d","system_id":"levelo_inurba_marseille","lat":43.27373,"lon":5.36264,"is_reserved":false,"is_disabled":false,"rental_uris":{"android":"levelo://app?vid=ab6bd442-7df4-49f9-a454-4d6965b66e3d","ios":"levelo://app?vid=ab6bd442-7df4-49f9-a454-4d6965b66e3d"},"vehicle_type_id":"4","last_reported":1750936173,"current_range_meters":9200,"station_id":"ce4bhbh2rcd13ifvqeo0","pricing_plan_id":"cebpf4jnsgd1na2vs0mg"},{"bike_id":"441e2f39-7054-4744-894b-72ac8474531d","system_id":"levelo_inurba_marseille","lat":43.21214,"lon":5.35089,"is_reserved":false,"is_disabled":false,"rental_uris":{"android":"levelo://app?vid=441e2f39-7054-4744-894b-72ac8474531d","ios":"levelo://app?vid=441e2f39-7054-4744-894b-72ac8474531d"},"vehicle_type_id":"4","last_reported":1750936173,"current_range_meters":9200,"station_id":"st_cvj6sg6p6f1abm77japg","pricing_plan_id":"cebpf4jnsgd1na2vs0mg"},{"bike_id":"e84dcfd4-ee6e-4947-8a5f-3619bd87ff32","system_id":"levelo_inurba_marseille","lat":43.3052,"lon":5.36518,"is_reserved":false,"is_disabled":false,"rental_uris":{"android":"levelo://app?vid=e84dcfd4-ee6e-4947-8a5f-3619bd87ff32","ios":"levelo://app?vid=e84dcfd4-ee6e-4947-8a5f-3619bd87ff32"},"vehicle_type_id":"4","last_reported":1750936173,"current_range_meters":9600,"station_id":"ce4bgs12rcd13ifvqcag","pricing_plan_id":"cebpf4jnsgd1na2vs0mg"},{"bike_id":"530313bf-3df9-44db-bdb2-51d9016785ed","system_id":"levelo_inurba_marseille","lat":43.27173,"lon":5.41004,"is_reserved":false,"is_disabled":false,"rental_uris":{"android":"levelo://app?vid=530313bf-3df9-44db-bdb2-51d9016785ed","ios":"levelo://app?vid=530313bf-3df9-44db-bdb2-51d9016785ed"},"vehicle_type_id":"4","last_reported":1750936173,"current_range_meters":9600,"station_id":"ce4bhl12rcd13ifvqgf0","pricing_plan_id":"cebpf4jnsgd1na2vs0mg"},{"bike_id":"e2f5b300-4a63-4778-aada-c29a8a0ea1e8","system_id":"levelo_inurba_marseille","lat":43.32789,"lon":5.39199,"is_reserved":false,"is_disabled":false,"rental_uris":{"android":"levelo://app?vid=e2f5b300-4a63-4778-aada-c29a8a0ea1e8","ios":"levelo://app?vid=e2f5b300-4a63-4778-aada-c29a8a0ea1e8"},"vehicle_type_id":"4","last_reported":1750936173,"current_range_meters":10000,"station_id":"","pricing_plan_id":"cebpf4jnsgd1na2vs0mg"},{"bike_id":"bb4289ce-4e54-43a6-ae23-c2e2b73c6103","system_id":"levelo_inurba_marseille","lat":43.29862,"lon":5.36289,"is_reserved":false,"is_disabled":false,"rental_uris":{"android":"levelo://app?vid=bb4289ce-4e54-43a6-ae23-c2e2b73c6103","ios":"levelo://app?vid=bb4289ce-4e54-43a6-ae23-c2e2b73c6103"},"vehicle_type_id":"4","last_reported":1750936173,"current_range_meters":10000,"station_id":"ce4bgpp2rcd13ifvqc3g","pricing_plan_id":"cebpf4jnsgd1na2vs0mg"},{"bike_id":"4d6658f4-b84c-4066-af22-3348974d22c3","system_id":"levelo_inurba_marseille","lat":43.311162,"lon":5.377457,"is_reserved":false,"is_disabled":false,"rental_uris":{"android":"levelo://app?vid=4d6658f4-b84c-4066-af22-3348974d22c3","ios":"levelo://app?vid=4d6658f4-b84c-4066-af22-3348974d22c3"},"vehicle_type_id":"4","last_reported":1750936173,"current_range_meters":10000,"station_id":"ce4bgt92rcd13ifvqcg0","pricing_plan_id":"cebpf4jnsgd1na2vs0mg"},{"bike_id":"b6faafa5-7b92-4d18-9097-43eb660d6fc5","system_id":"levelo_inurba_marseille","lat":43.27063,"lon":5.40255,"is_reserved":false,"is_disabled":false,"rental_uris":{"android":"levelo://app?vid=b6faafa5-7b92-4d18-9097-43eb660d6fc5","ios":"levelo://app?vid=b6faafa5-7b92-4d18-9097-43eb660d6fc5"},"vehicle_type_id":"4","last_reported":1750936173,"current_range_meters":10000,"station_id":"ce4bhk92rcd13ifvqgc0","pricing_plan_id":"cebpf4jnsgd1na2vs0mg"},{"bike_id":"8461db41-339d-4b59-9552-14dae137dfb2","system_id":"levelo_inurba_marseille","lat":43.28157,"lon":5.42635,"is_reserved":false,"is_disabled":false,"rental_uris":{"android":"levelo://app?vid=8461db41-339d-4b59-9552-14dae137dfb2","ios":"levelo://app?vid=8461db41-339d-4b59-9552-14dae137dfb2"},"vehicle_type_id":"4","last_reported":1750936173,"current_range_meters":10000,"station_id":"ce4bhnh2rcd13ifvqgug","pricing_plan_id":"cebpf4jnsgd1na2vs0mg"},{"bike_id":"5ce5e0e2-9387-4332-a66d-d86ee4ac1e87","system_id":"levelo_inurba_marseille","lat":43.22931,"lon":5.3538,"is_reserved":false,"is_disabled":false,"rental_uris":{"android":"levelo://app?vid=5ce5e0e2-9387-4332-a66d-d86ee4ac1e87","ios":"levelo://app?vid=5ce5e0e2-9387-4332-a66d-d86ee4ac1e87"},"vehicle_type_id":"4","last_reported":1750936173,"current_range_meters":10000,"station_id":"cpo3532slgdg3j2ikp40","pricing_plan_id":"cebpf4jnsgd1na2vs0mg"},{"bike_id":"535f9163-17b5-4712-b6b9-756960684778","system_id":"levelo_inurba_marseille","lat":43.33069,"lon":5.40811,"is_reserved":false,"is_disabled":false,"rental_uris":{"android":"levelo://app?vid=535f9163-17b5-4712-b6b9-756960684778","ios":"levelo://app?vid=535f9163-17b5-4712-b6b9-756960684778"},"vehicle_type_id":"4","last_reported":1750936173,"current_range_meters":10800,"station_id":"","pricing_plan_id":"cebpf4jnsgd1na2vs0mg"},{"bike_id":"c2f2b7f5-d8f9-4241-8a0e-96290ffa6698","system_id":"levelo_inurba_marseille","lat":43.30896,"lon":5.37215,"is_reserved":false,"is_disabled":false,"rental_uris":{"android":"levelo://app?vid=c2f2b7f5-d8f9-4241-8a0e-96290ffa6698","ios":"levelo://app?vid=c2f2b7f5-d8f9-4241-8a0e-96290ffa6698"},"vehicle_type_id":"4","last_reported":1750936173,"current_range_meters":10800,"station_id":"ce4bguh2rcd13ifvqckg","pricing_plan_id":"cebpf4jnsgd1na2vs0mg"},{"bike_id":"2be4c142-b4b9-4021-90a8-8ccbf2e8e114","system_id":"levelo_inurba_marseille","lat":43.284854,"lon":5.384101,"is_reserved":false,"is_disabled":false,"rental_uris":{"android":"levelo://app?vid=2be4c142-b4b9-4021-90a8-8ccbf2e8e114","ios":"levelo://app?vid=2be4c142-b4b9-4021-90a8-8ccbf2e8e114"},"vehicle_type_id":"4","last_reported":1750936173,"current_range_meters":10800,"station_id":"ce4bh512rcd13ifvqe3g","pricing_plan_id":"cebpf4jnsgd1na2vs0mg"},{"bike_id":"88b7499b-198c-44c9-9024-6b560e30ffec","system_id":"levelo_inurba_marseille","lat":43.286652,"lon":5.363379,"is_reserved":false,"is_disabled":false,"rental_uris":{"android":"levelo://app?vid=88b7499b-198c-44c9-9024-6b560e30ffec","ios":"levelo://app?vid=88b7499b-198c-44c9-9024-6b560e30ffec"},"vehicle_type_id":"4","last_reported":1750936173,"current_range_meters":10800,"station_id":"ce4bhah2rcd13ifvqej0","pricing_plan_id":"cebpf4jnsgd1na2vs0mg"},{"bike_id":"fe2adac6-0d6f-4ba9-81aa-22000c5adcc2","system_id":"levelo_inurba_marseille","lat":43.29197,"lon":5.35798,"is_reserved":false,"is_disabled":false,"rental_uris":{"android":"levelo://app?vid=fe2adac6-0d6f-4ba9-81aa-22000c5adcc2","ios":"levelo://app?vid=fe2adac6-0d6f-4ba9-81aa-22000c5adcc2"},"vehicle_type_id":"4","last_reported":1750936173,"current_range_meters":10800,"station_id":"ce4bhb12rcd13ifvqel0","pricing_plan_id":"cebpf4jnsgd1na2vs0mg"},{"bike_id":"2321dbae-7434-4a9a-b111-39e77a6c6fc3","system_id":"levelo_inurba_marseille","lat":43.32044,"lon":5.41545,"is_reserved":false,"is_disabled":false,"rental_uris":{"android":"levelo://app?vid=2321dbae-7434-4a9a-b111-39e77a6c6fc3","ios":"levelo://app?vid=2321dbae-7434-4a9a-b111-39e77a6c6fc3"},"vehicle_type_id":"4","last_reported":1750936173,"current_range_meters":10800,"station_id":"ce4bhq92rcd13ifvqhkg","pricing_plan_id":"cebpf4jnsgd1na2vs0mg"},{"bike_id":"7ace27f0-410a-47e9-8803-4f4b9ee31b1d","system_id":"levelo_inurba_marseille","lat":43.33582,"lon":5.41083,"is_reserved":false,"is_disabled":false,"rental_uris":{"android":"levelo://app?vid=7ace27f0-410a-47e9-8803-4f4b9ee31b1d","ios":"levelo://app?vid=7ace27f0-410a-47e9-8803-4f4b9ee31b1d"},"vehicle_type_id":"4","last_reported":1750936173,"current_range_meters":11200,"station_id":"","pricing_plan_id":"cebpf4jnsgd1na2vs0mg"},{"bike_id":"347bd77c-407a-4169-b3b2-fa77f9be4559","system_id":"levelo_inurba_marseille","lat":43.309067,"lon":5.36891,"is_reserved":false,"is_disabled":false,"rental_uris":{"android":"levelo://app?vid=347bd77c-407a-4169-b3b2-fa77f9be4559","ios":"levelo://app?vid=347bd77c-407a-4169-b3b2-fa77f9be4559"},"vehicle_type_id":"4","last_reported":1750936173,"current_range_meters":11200,"station_id":"ce4bgn92rcd13ifvqbvg","pricing_plan_id":"cebpf4jnsgd1na2vs0mg"},{"bike_id":"a258b32b-147b-4d25-9188-4f6de201ff54","system_id":"levelo_inurba_marseille","lat":43.30907,"lon":5.36936,"is_reserved":false,"is_disabled":false,"rental_uris":{"android":"levelo://app?vid=a258b32b-147b-4d25-9188-4f6de201ff54","ios":"levelo://app?vid=a258b32b-147b-4d25-9188-4f6de201ff54"},"vehicle_type_id":"4","last_reported":1750936173,"current_range_meters":11200,"station_id":"ce4bgn92rcd13ifvqbvg","pricing_plan_id":"cebpf4jnsgd1na2vs0mg"},{"bike_id":"2fee59ce-c727-4166-8688-e7f3bf559a0d","system_id":"levelo_inurba_marseille","lat":43.2708,"lon":5.42279,"is_reserved":false,"is_disabled":false,"rental_uris":{"android":"levelo://app?vid=2fee59ce-c727-4166-8688-e7f3bf559a0d","ios":"levelo://app?vid=2fee59ce-c727-4166-8688-e7f3bf559a0d"},"vehicle_type_id":"4","last_reported":1750936173,"current_range_meters":11200,"station_id":"ce4bhk92rcd13ifvqgb0","pricing_plan_id":"cebpf4jnsgd1na2vs0mg"},{"bike_id":"28259b2d-0325-4daa-ab79-f0bba84c837c","system_id":"levelo_inurba_marseille","lat":43.27179,"lon":5.40999,"is_reserved":false,"is_disabled":false,"rental_uris":{"android":"levelo://app?vid=28259b2d-0325-4daa-ab79-f0bba84c837c","ios":"levelo://app?vid=28259b2d-0325-4daa-ab79-f0bba84c837c"},"vehicle_type_id":"4","last_reported":1750936173,"current_range_meters":11200,"station_id":"ce4bhl12rcd13ifvqgf0","pricing_plan_id":"cebpf4jnsgd1na2vs0mg"},{"bike_id":"90382e7d-e554-4955-b926-5c2bc0107989","system_id":"levelo_inurba_marseille","lat":43.23152,"lon":5.43736,"is_reserved":false,"is_disabled":false,"rental_uris":{"android":"levelo://app?vid=90382e7d-e554-4955-b926-5c2bc0107989","ios":"levelo://app?vid=90382e7d-e554-4955-b926-5c2bc0107989"},"vehicle_type_id":"4","last_reported":1750936173,"current_range_meters":11200,"station_id":"ce4bhmp2rcd13ifvqgog","pricing_plan_id":"cebpf4jnsgd1na2vs0mg"},{"bike_id":"7e31d3d8-634d-4148-91b9-c985475605f1","system_id":"levelo_inurba_marseille","lat":43.31395,"lon":5.366816,"is_reserved":false,"is_disabled":false,"rental_uris":{"android":"levelo://app?vid=7e31d3d8-634d-4148-91b9-c985475605f1","ios":"levelo://app?vid=7e31d3d8-634d-4148-91b9-c985475605f1"},"vehicle_type_id":"4","last_reported":1750936173,"current_range_meters":11600,"station_id":"","pricing_plan_id":"cebpf4jnsgd1na2vs0mg"},{"bike_id":"f36533f9-44c9-4f5d-a54e-e19616a29ca4","system_id":"levelo_inurba_marseille","lat":43.28644,"lon":5.38667,"is_reserved":false,"is_disabled":false,"rental_uris":{"android":"levelo://app?vid=f36533f9-44c9-4f5d-a54e-e19616a29ca4","ios":"levelo://app?vid=f36533f9-44c9-4f5d-a54e-e19616a29ca4"},"vehicle_type_id":"4","last_reported":1750936173,"current_range_meters":11600,"station_id":"ce4bh492rcd13ifvqdug","pricing_plan_id":"cebpf4jnsgd1na2vs0mg"},{"bike_id":"23cb27e8-5ce2-449d-8c2b-11c453b3f45b","system_id":"levelo_inurba_marseille","lat":43.28112,"lon":5.37838,"is_reserved":false,"is_disabled":false,"rental_uris":{"android":"levelo://app?vid=23cb27e8-5ce2-449d-8c2b-11c453b3f45b","ios":"levelo://app?vid=23cb27e8-5ce2-449d-8c2b-11c453b3f45b"},"vehicle_type_id":"4","last_reported":1750936173,"current_range_meters":11600,"station_id":"ce4bha12rcd13ifvqee0","pricing_plan_id":"cebpf4jnsgd1na2vs0mg"},{"bike_id":"8e1ed533-15e1-4c40-bebe-f577c69daa80","system_id":"levelo_inurba_marseille","lat":43.23153,"lon":5.43711,"is_reserved":false,"is_disabled":false,"rental_uris":{"android":"levelo://app?vid=8e1ed533-15e1-4c40-bebe-f577c69daa80","ios":"levelo://app?vid=8e1ed533-15e1-4c40-bebe-f577c69daa80"},"vehicle_type_id":"4","last_reported":1750936173,"current_range_meters":11600,"station_id":"ce4bhmp2rcd13ifvqgog","pricing_plan_id":"cebpf4jnsgd1na2vs0mg"},{"bike_id":"1c04c8f2-65b5-4e43-830b-5b38714243f6","system_id":"levelo_inurba_marseille","lat":43.336109,"lon":5.410238,"is_reserved":false,"is_disabled":false,"rental_uris":{"android":"levelo://app?vid=1c04c8f2-65b5-4e43-830b-5b38714243f6","ios":"levelo://app?vid=1c04c8f2-65b5-4e43-830b-5b38714243f6"},"vehicle_type_id":"4","last_reported":1750936173,"current_range_meters":11600,"station_id":"ce4bhqh2rcd13ifvqhmg","pricing_plan_id":"cebpf4jnsgd1na2vs0mg"},{"bike_id":"a9d25cad-d480-4c75-aec5-3969f1a4e6c7","system_id":"levelo_inurba_marseille","lat":43.32888,"lon":5.3901,"is_reserved":false,"is_disabled":false,"rental_uris":{"android":"levelo://app?vid=a9d25cad-d480-4c75-aec5-3969f1a4e6c7","ios":"levelo://app?vid=a9d25cad-d480-4c75-aec5-3969f1a4e6c7"},"vehicle_type_id":"4","last_reported":1750936173,"current_range_meters":12000,"station_id":"","pricing_plan_id":"cebpf4jnsgd1na2vs0mg"},{"bike_id":"add6291a-dee0-4030-8588-25617391e274","system_id":"levelo_inurba_marseille","lat":43.33601,"lon":5.41023,"is_reserved":false,"is_disabled":false,"rental_uris":{"android":"levelo://app?vid=add6291a-dee0-4030-8588-25617391e274","ios":"levelo://app?vid=add6291a-dee0-4030-8588-25617391e274"},"vehicle_type_id":"4","last_reported":1750936173,"current_range_meters":12000,"station_id":"ce4bhqh2rcd13ifvqhmg","pricing_plan_id":"cebpf4jnsgd1na2vs0mg"},{"bike_id":"f47876d7-9c85-474e-92c5-7a242e08b67c","system_id":"levelo_inurba_marseille","lat":43.30556,"lon":5.3759,"is_reserved":false,"is_disabled":false,"rental_uris":{"android":"levelo://app?vid=f47876d7-9c85-474e-92c5-7a242e08b67c","ios":"levelo://app?vid=f47876d7-9c85-474e-92c5-7a242e08b67c"},"vehicle_type_id":"4","last_reported":1750936173,"current_range_meters":12400,"station_id":"","pricing_plan_id":"cebpf4jnsgd1na2vs0mg"},{"bike_id":"7f1f19aa-c26d-4378-b540-e1abf6859c2f","system_id":"levelo_inurba_marseille","lat":43.29701,"lon":5.36608,"is_reserved":false,"is_disabled":false,"rental_uris":{"android":"levelo://app?vid=7f1f19aa-c26d-4378-b540-e1abf6859c2f","ios":"levelo://app?vid=7f1f19aa-c26d-4378-b540-e1abf6859c2f"},"vehicle_type_id":"4","last_reported":1750936173,"current_range_meters":12400,"station_id":"ce4bgn12rcd13ifvqbt0","pricing_plan_id":"cebpf4jnsgd1na2vs0mg"},{"bike_id":"e84de95a-f583-4156-9930-14f69f108f4c","system_id":"levelo_inurba_marseille","lat":43.271899,"lon":5.409896,"is_reserved":false,"is_disabled":false,"rental_uris":{"android":"levelo://app?vid=e84de95a-f583-4156-9930-14f69f108f4c","ios":"levelo://app?vid=e84de95a-f583-4156-9930-14f69f108f4c"},"vehicle_type_id":"4","last_reported":1750936173,"current_range_meters":12400,"station_id":"ce4bhl12rcd13ifvqgf0","pricing_plan_id":"cebpf4jnsgd1na2vs0mg"},{"bike_id":"fe1e536f-d26d-4693-b98d-b56ff09e03eb","system_id":"levelo_inurba_marseille","lat":43.32354,"lon":5.36751,"is_reserved":false,"is_disabled":false,"rental_uris":{"android":"levelo://app?vid=fe1e536f-d26d-4693-b98d-b56ff09e03eb","ios":"levelo://app?vid=fe1e536f-d26d-4693-b98d-b56ff09e03eb"},"vehicle_type_id":"4","last_reported":1750936173,"current_range_meters":12400,"station_id":"ce4bhsh2rcd13ifvqi2g","pricing_plan_id":"cebpf4jnsgd1na2vs0mg"},{"bike_id":"bc4e2b53-9c5f-4ce4-b852-abd3f3a04b26","system_id":"levelo_inurba_marseille","lat":43.26809,"lon":5.40269,"is_reserved":false,"is_disabled":false,"rental_uris":{"android":"levelo://app?vid=bc4e2b53-9c5f-4ce4-b852-abd3f3a04b26","ios":"levelo://app?vid=bc4e2b53-9c5f-4ce4-b852-abd3f3a04b26"},"vehicle_type_id":"4","last_reported":1750936173,"current_range_meters":12400,"station_id":"ce501612rcd8frsf0b60","pricing_plan_id":"cebpf4jnsgd1na2vs0mg"},{"bike_id":"a9b6c532-9383-4cf0-b871-0e3f2af47aba","system_id":"levelo_inurba_marseille","lat":43.257211,"lon":5.411091,"is_reserved":false,"is_disabled":false,"rental_uris":{"android":"levelo://app?vid=a9b6c532-9383-4cf0-b871-0e3f2af47aba","ios":"levelo://app?vid=a9b6c532-9383-4cf0-b871-0e3f2af47aba"},"vehicle_type_id":"4","last_reported":1750936173,"current_range_meters":12800,"station_id":"","pricing_plan_id":"cebpf4jnsgd1na2vs0mg"},{"bike_id":"4c20235b-4de5-4f63-805e-db881320d8c0","system_id":"levelo_inurba_marseille","lat":43.29612,"lon":5.37731,"is_reserved":false,"is_disabled":false,"rental_uris":{"android":"levelo://app?vid=4c20235b-4de5-4f63-805e-db881320d8c0","ios":"levelo://app?vid=4c20235b-4de5-4f63-805e-db881320d8c0"},"vehicle_type_id":"4","last_reported":1750936173,"current_range_meters":12800,"station_id":"ce4bgi92rcd13ifvqb90","pricing_plan_id":"cebpf4jnsgd1na2vs0mg"},{"bike_id":"319b0010-66fc-46d6-8861-13ba052f0285","system_id":"levelo_inurba_marseille","lat":43.30557,"lon":5.3656,"is_reserved":false,"is_disabled":false,"rental_uris":{"android":"levelo://app?vid=319b0010-66fc-46d6-8861-13ba052f0285","ios":"levelo://app?vid=319b0010-66fc-46d6-8861-13ba052f0285"},"vehicle_type_id":"4","last_reported":1750936173,"current_range_meters":12800,"station_id":"ce4bgs12rcd13ifvqcag","pricing_plan_id":"cebpf4jnsgd1na2vs0mg"},{"bike_id":"0c0cc751-724d-44ca-9fd6-57bec99ed1ae","system_id":"levelo_inurba_marseille","lat":43.290247,"lon":5.381253,"is_reserved":false,"is_disabled":false,"rental_uris":{"android":"levelo://app?vid=0c0cc751-724d-44ca-9fd6-57bec99ed1ae","ios":"levelo://app?vid=0c0cc751-724d-44ca-9fd6-57bec99ed1ae"},"vehicle_type_id":"4","last_reported":1750936173,"current_range_meters":12800,"station_id":"ce4bh4p2rcd13ifvqe1g","pricing_plan_id":"cebpf4jnsgd1na2vs0mg"},{"bike_id":"722bb769-75bf-4224-a503-2c9f7ebe192c","system_id":"levelo_inurba_marseille","lat":43.21752,"lon":5.34608,"is_reserved":false,"is_disabled":false,"rental_uris":{"android":"levelo://app?vid=722bb769-75bf-4224-a503-2c9f7ebe192c","ios":"levelo://app?vid=722bb769-75bf-4224-a503-2c9f7ebe192c"},"vehicle_type_id":"4","last_reported":1750936173,"current_range_meters":12800,"station_id":"st_cvj6r9ubvosntc0bgbag","pricing_plan_id":"cebpf4jnsgd1na2vs0mg"},{"bike_id":"15b2721a-3664-49e1-9877-261c08daeef5","system_id":"levelo_inurba_marseille","lat":43.21194,"lon":5.35064,"is_reserved":false,"is_disabled":false,"rental_uris":{"android":"levelo://app?vid=15b2721a-3664-49e1-9877-261c08daeef5","ios":"levelo://app?vid=15b2721a-3664-49e1-9877-261c08daeef5"},"vehicle_type_id":"4","last_reported":1750936173,"current_range_meters":12800,"station_id":"st_cvj6sg6p6f1abm77japg","pricing_plan_id":"cebpf4jnsgd1na2vs0mg"},{"bike_id":"de0f7c2b-5974-4035-a240-8ed367c0e3f3","system_id":"levelo_inurba_marseille","lat":43.31972,"lon":5.37669,"is_reserved":false,"is_disabled":false,"rental_uris":{"android":"levelo://app?vid=de0f7c2b-5974-4035-a240-8ed367c0e3f3","ios":"levelo://app?vid=de0f7c2b-5974-4035-a240-8ed367c0e3f3"},"vehicle_type_id":"4","last_reported":1750936173,"current_range_meters":13600,"station_id":"","pricing_plan_id":"cebpf4jnsgd1na2vs0mg"},{"bike_id":"0d0fe932-4558-48c6-b3a0-3ceb16d7e8cc","system_id":"levelo_inurba_marseille","lat":43.29527,"lon":5.37494,"is_reserved":false,"is_disabled":false,"rental_uris":{"android":"levelo://app?vid=0d0fe932-4558-48c6-b3a0-3ceb16d7e8cc","ios":"levelo://app?vid=0d0fe932-4558-48c6-b3a0-3ceb16d7e8cc"},"vehicle_type_id":"4","last_reported":1750936173,"current_range_meters":13600,"station_id":"ce4bgkp2rcd13ifvqbmg","pricing_plan_id":"cebpf4jnsgd1na2vs0mg"},{"bike_id":"af1e1e19-9fa2-4333-b456-3e87119beef4","system_id":"levelo_inurba_marseille","lat":43.29602,"lon":5.38081,"is_reserved":false,"is_disabled":false,"rental_uris":{"android":"levelo://app?vid=af1e1e19-9fa2-4333-b456-3e87119beef4","ios":"levelo://app?vid=af1e1e19-9fa2-4333-b456-3e87119beef4"},"vehicle_type_id":"4","last_reported":1750936173,"current_range_meters":13600,"station_id":"ce4bgl12rcd13ifvqbo0","pricing_plan_id":"cebpf4jnsgd1na2vs0mg"},{"bike_id":"4cfa74fc-8a40-4c92-899a-212b2ca35447","system_id":"levelo_inurba_marseille","lat":43.31345,"lon":5.3672,"is_reserved":false,"is_disabled":false,"rental_uris":{"android":"levelo://app?vid=4cfa74fc-8a40-4c92-899a-212b2ca35447","ios":"levelo://app?vid=4cfa74fc-8a40-4c92-899a-212b2ca35447"},"vehicle_type_id":"4","last_reported":1750936173,"current_range_meters":13600,"station_id":"ce4bgr92rcd13ifvqc6g","pricing_plan_id":"cebpf4jnsgd1na2vs0mg"},{"bike_id":"65bcbc32-d8de-465d-80ed-49e78a8559df","system_id":"levelo_inurba_marseille","lat":43.30981,"lon":5.39063,"is_reserved":false,"is_disabled":false,"rental_uris":{"android":"levelo://app?vid=65bcbc32-d8de-465d-80ed-49e78a8559df","ios":"levelo://app?vid=65bcbc32-d8de-465d-80ed-49e78a8559df"},"vehicle_type_id":"4","last_reported":1750936173,"current_range_meters":13600,"station_id":"ce4bgup2rcd13ifvqco0","pricing_plan_id":"cebpf4jnsgd1na2vs0mg"},{"bike_id":"ac906853-f1e4-4f7f-8a49-e78f8c617eea","system_id":"levelo_inurba_marseille","lat":43.28983,"lon":5.37838,"is_reserved":false,"is_disabled":false,"rental_uris":{"android":"levelo://app?vid=ac906853-f1e4-4f7f-8a49-e78f8c617eea","ios":"levelo://app?vid=ac906853-f1e4-4f7f-8a49-e78f8c617eea"},"vehicle_type_id":"4","last_reported":1750936173,"current_range_meters":13600,"station_id":"ce4bh9p2rcd13ifvqed0","pricing_plan_id":"cebpf4jnsgd1na2vs0mg"},{"bike_id":"7f212f1e-9b22-4ad3-88bb-18d999719345","system_id":"levelo_inurba_marseille","lat":43.2119,"lon":5.35081,"is_reserved":false,"is_disabled":false,"rental_uris":{"android":"levelo://app?vid=7f212f1e-9b22-4ad3-88bb-18d999719345","ios":"levelo://app?vid=7f212f1e-9b22-4ad3-88bb-18d999719345"},"vehicle_type_id":"4","last_reported":1750936173,"current_range_meters":13600,"station_id":"st_cvj6sg6p6f1abm77japg","pricing_plan_id":"cebpf4jnsgd1na2vs0mg"},{"bike_id":"ee964103-622e-4b84-ac77-e08dd8b6ec85","system_id":"levelo_inurba_marseille","lat":43.30637,"lon":5.40094,"is_reserved":false,"is_disabled":false,"rental_uris":{"android":"levelo://app?vid=ee964103-622e-4b84-ac77-e08dd8b6ec85","ios":"levelo://app?vid=ee964103-622e-4b84-ac77-e08dd8b6ec85"},"vehicle_type_id":"4","last_reported":1750936173,"current_range_meters":14000,"station_id":"ce4bh112rcd13ifvqda0","pricing_plan_id":"cebpf4jnsgd1na2vs0mg"},{"bike_id":"5d97ba86-e06d-4a4a-8b00-a18d8279549a","system_id":"levelo_inurba_marseille","lat":43.284219,"lon":5.349786,"is_reserved":false,"is_disabled":false,"rental_uris":{"android":"levelo://app?vid=5d97ba86-e06d-4a4a-8b00-a18d8279549a","ios":"levelo://app?vid=5d97ba86-e06d-4a4a-8b00-a18d8279549a"},"vehicle_type_id":"4","last_reported":1750936173,"current_range_meters":14000,"station_id":"ce4bhbh2rcd13ifvqepg","pricing_plan_id":"cebpf4jnsgd1na2vs0mg"},{"bike_id":"70a87e8b-7ad1-4bdf-b181-5e2fc38709cd","system_id":"levelo_inurba_marseille","lat":43.29897,"lon":5.43668,"is_reserved":false,"is_disabled":false,"rental_uris":{"android":"levelo://app?vid=70a87e8b-7ad1-4bdf-b181-5e2fc38709cd","ios":"levelo://app?vid=70a87e8b-7ad1-4bdf-b181-5e2fc38709cd"},"vehicle_type_id":"4","last_reported":1750936173,"current_range_meters":14000,"station_id":"ce4bhpp2rcd13ifvqhfg","pricing_plan_id":"cebpf4jnsgd1na2vs0mg"},{"bike_id":"ee26e564-93e6-4bc1-9449-798531d0965f","system_id":"levelo_inurba_marseille","lat":43.3248,"lon":5.3657,"is_reserved":false,"is_disabled":false,"rental_uris":{"android":"levelo://app?vid=ee26e564-93e6-4bc1-9449-798531d0965f","ios":"levelo://app?vid=ee26e564-93e6-4bc1-9449-798531d0965f"},"vehicle_type_id":"4","last_reported":1750936173,"current_range_meters":14000,"station_id":"ce4bhs12rcd13ifvqhvg","pricing_plan_id":"cebpf4jnsgd1na2vs0mg"},{"bike_id":"1cb9a4a5-4f06-4d39-bb54-3f76b9405734","system_id":"levelo_inurba_marseille","lat":43.29636,"lon":5.40615,"is_reserved":false,"is_disabled":false,"rental_uris":{"android":"levelo://app?vid=1cb9a4a5-4f06-4d39-bb54-3f76b9405734","ios":"levelo://app?vid=1cb9a4a5-4f06-4d39-bb54-3f76b9405734"},"vehicle_type_id":"4","last_reported":1750936173,"current_range_meters":14400,"station_id":"ce4bh0h2rcd13ifvqd60","pricing_plan_id":"cebpf4jnsgd1na2vs0mg"},{"bike_id":"796b069c-797e-4187-8d83-8c25537b6fca","system_id":"levelo_inurba_marseille","lat":43.2842,"lon":5.37503,"is_reserved":false,"is_disabled":false,"rental_uris":{"android":"levelo://app?vid=796b069c-797e-4187-8d83-8c25537b6fca","ios":"levelo://app?vid=796b069c-797e-4187-8d83-8c25537b6fca"},"vehicle_type_id":"4","last_reported":1750936173,"current_range_meters":14400,"station_id":"ce4bh412rcd13ifvqds0","pricing_plan_id":"cebpf4jnsgd1na2vs0mg"},{"bike_id":"32f5f54c-fcaa-4596-a5d9-6eabd3383c2e","system_id":"levelo_inurba_marseille","lat":43.29256,"lon":5.38454,"is_reserved":false,"is_disabled":false,"rental_uris":{"android":"levelo://app?vid=32f5f54c-fcaa-4596-a5d9-6eabd3383c2e","ios":"levelo://app?vid=32f5f54c-fcaa-4596-a5d9-6eabd3383c2e"},"vehicle_type_id":"4","last_reported":1750936173,"current_range_meters":14400,"station_id":"ce4bh692rcd13ifvqea0","pricing_plan_id":"cebpf4jnsgd1na2vs0mg"},{"bike_id":"4b8da722-ee9e-48a4-a5e5-3a8a10364708","system_id":"levelo_inurba_marseille","lat":43.31231,"lon":5.37815,"is_reserved":false,"is_disabled":false,"rental_uris":{"android":"levelo://app?vid=4b8da722-ee9e-48a4-a5e5-3a8a10364708","ios":"levelo://app?vid=4b8da722-ee9e-48a4-a5e5-3a8a10364708"},"vehicle_type_id":"4","last_reported":1750936173,"current_range_meters":14800,"station_id":"","pricing_plan_id":"cebpf4jnsgd1na2vs0mg"},{"bike_id":"e4c85ea1-1e2b-4a67-920c-d94ce4c3a486","system_id":"levelo_inurba_marseille","lat":43.29721,"lon":5.36625,"is_reserved":false,"is_disabled":false,"rental_uris":{"android":"levelo://app?vid=e4c85ea1-1e2b-4a67-920c-d94ce4c3a486","ios":"levelo://app?vid=e4c85ea1-1e2b-4a67-920c-d94ce4c3a486"},"vehicle_type_id":"4","last_reported":1750936173,"current_range_meters":14800,"station_id":"ce4bgn12rcd13ifvqbt0","pricing_plan_id":"cebpf4jnsgd1na2vs0mg"},{"bike_id":"5d4b4bef-1c86-4581-b89b-d3470a44e231","system_id":"levelo_inurba_marseille","lat":43.2985,"lon":5.36279,"is_reserved":false,"is_disabled":false,"rental_uris":{"android":"levelo://app?vid=5d4b4bef-1c86-4581-b89b-d3470a44e231","ios":"levelo://app?vid=5d4b4bef-1c86-4581-b89b-d3470a44e231"},"vehicle_type_id":"4","last_reported":1750936173,"current_range_meters":14800,"station_id":"ce4bgpp2rcd13ifvqc3g","pricing_plan_id":"cebpf4jnsgd1na2vs0mg"},{"bike_id":"7107131e-7c98-4036-af64-3ae1900c66d3","system_id":"levelo_inurba_marseille","lat":43.27354,"lon":5.36226,"is_reserved":false,"is_disabled":false,"rental_uris":{"android":"levelo://app?vid=7107131e-7c98-4036-af64-3ae1900c66d3","ios":"levelo://app?vid=7107131e-7c98-4036-af64-3ae1900c66d3"},"vehicle_type_id":"4","last_reported":1750936173,"current_range_meters":14800,"station_id":"ce4bhbh2rcd13ifvqeo0","pricing_plan_id":"cebpf4jnsgd1na2vs0mg"},{"bike_id":"b935579a-e9d3-4ccf-a111-a22b8dbf997d","system_id":"levelo_inurba_marseille","lat":43.21226,"lon":5.35082,"is_reserved":false,"is_disabled":false,"rental_uris":{"android":"levelo://app?vid=b935579a-e9d3-4ccf-a111-a22b8dbf997d","ios":"levelo://app?vid=b935579a-e9d3-4ccf-a111-a22b8dbf997d"},"vehicle_type_id":"4","last_reported":1750936173,"current_range_meters":15200,"station_id":"","pricing_plan_id":"cebpf4jnsgd1na2vs0mg"},{"bike_id":"cce0ea9f-1e2a-4a69-ac7b-9c10ee9fc956","system_id":"levelo_inurba_marseille","lat":43.23151,"lon":5.4371,"is_reserved":false,"is_disabled":false,"rental_uris":{"android":"levelo://app?vid=cce0ea9f-1e2a-4a69-ac7b-9c10ee9fc956","ios":"levelo://app?vid=cce0ea9f-1e2a-4a69-ac7b-9c10ee9fc956"},"vehicle_type_id":"4","last_reported":1750936173,"current_range_meters":15200,"station_id":"ce4bhmp2rcd13ifvqgog","pricing_plan_id":"cebpf4jnsgd1na2vs0mg"},{"bike_id":"6b0e986f-2a52-44b5-8068-303b5440c988","system_id":"levelo_inurba_marseille","lat":43.33038,"lon":5.39066,"is_reserved":false,"is_disabled":false,"rental_uris":{"android":"levelo://app?vid=6b0e986f-2a52-44b5-8068-303b5440c988","ios":"levelo://app?vid=6b0e986f-2a52-44b5-8068-303b5440c988"},"vehicle_type_id":"4","last_reported":1750936173,"current_range_meters":15200,"station_id":"ce4bhr92rcd13ifvqhrg","pricing_plan_id":"cebpf4jnsgd1na2vs0mg"},{"bike_id":"86ebd8a7-7d30-43b6-953e-6107b0f77710","system_id":"levelo_inurba_marseille","lat":43.33413,"lon":5.40084,"is_reserved":false,"is_disabled":false,"rental_uris":{"android":"levelo://app?vid=86ebd8a7-7d30-43b6-953e-6107b0f77710","ios":"levelo://app?vid=86ebd8a7-7d30-43b6-953e-6107b0f77710"},"vehicle_type_id":"4","last_reported":1750936173,"current_range_meters":16000,"station_id":"","pricing_plan_id":"cebpf4jnsgd1na2vs0mg"},{"bike_id":"58fe71ac-e2ea-4466-bb43-ac9c71c6286a","system_id":"levelo_inurba_marseille","lat":43.22713,"lon":5.34834,"is_reserved":false,"is_disabled":false,"rental_uris":{"android":"levelo://app?vid=58fe71ac-e2ea-4466-bb43-ac9c71c6286a","ios":"levelo://app?vid=58fe71ac-e2ea-4466-bb43-ac9c71c6286a"},"vehicle_type_id":"4","last_reported":1750936173,"current_range_meters":16000,"station_id":"","pricing_plan_id":"cebpf4jnsgd1na2vs0mg"},{"bike_id":"5300c1c2-c6c6-4c3e-b026-9769c70a6ca9","system_id":"levelo_inurba_marseille","lat":43.301453,"lon":5.380801,"is_reserved":false,"is_disabled":false,"rental_uris":{"android":"levelo://app?vid=5300c1c2-c6c6-4c3e-b026-9769c70a6ca9","ios":"levelo://app?vid=5300c1c2-c6c6-4c3e-b026-9769c70a6ca9"},"vehicle_type_id":"4","last_reported":1750936173,"current_range_meters":16000,"station_id":"ce4bgjp2rcd13ifvqbh0","pricing_plan_id":"cebpf4jnsgd1na2vs0mg"},{"bike_id":"b1e7fe00-c9df-4481-a2f4-3ac340881bd0","system_id":"levelo_inurba_marseille","lat":43.30783,"lon":5.37646,"is_reserved":false,"is_disabled":false,"rental_uris":{"android":"levelo://app?vid=b1e7fe00-c9df-4481-a2f4-3ac340881bd0","ios":"levelo://app?vid=b1e7fe00-c9df-4481-a2f4-3ac340881bd0"},"vehicle_type_id":"4","last_reported":1750936173,"current_range_meters":16000,"station_id":"ce4bgv92rcd13ifvqcq0","pricing_plan_id":"cebpf4jnsgd1na2vs0mg"},{"bike_id":"e51f629a-c372-4506-805e-7b115f58434b","system_id":"levelo_inurba_marseille","lat":43.24387,"lon":5.37058,"is_reserved":false,"is_disabled":false,"rental_uris":{"android":"levelo://app?vid=e51f629a-c372-4506-805e-7b115f58434b","ios":"levelo://app?vid=e51f629a-c372-4506-805e-7b115f58434b"},"vehicle_type_id":"4","last_reported":1750936173,"current_range_meters":16000,"station_id":"ce4bhhh2rcd13ifvqfk0","pricing_plan_id":"cebpf4jnsgd1na2vs0mg"},{"bike_id":"33ff2acc-5b55-48de-9529-81b3c60dbff0","system_id":"levelo_inurba_marseille","lat":43.30926,"lon":5.37269,"is_reserved":false,"is_disabled":false,"rental_uris":{"android":"levelo://app?vid=33ff2acc-5b55-48de-9529-81b3c60dbff0","ios":"levelo://app?vid=33ff2acc-5b55-48de-9529-81b3c60dbff0"},"vehicle_type_id":"4","last_reported":1750936173,"current_range_meters":16400,"station_id":"","pricing_plan_id":"cebpf4jnsgd1na2vs0mg"},{"bike_id":"6c0113e2-8fa4-4368-8358-e24a1cd143cd","system_id":"levelo_inurba_marseille","lat":43.255783,"lon":5.382147,"is_reserved":false,"is_disabled":false,"rental_uris":{"android":"levelo://app?vid=6c0113e2-8fa4-4368-8358-e24a1cd143cd","ios":"levelo://app?vid=6c0113e2-8fa4-4368-8358-e24a1cd143cd"},"vehicle_type_id":"4","last_reported":1750936173,"current_range_meters":16400,"station_id":"ce4bhih2rcd13ifvqfs0","pricing_plan_id":"cebpf4jnsgd1na2vs0mg"},{"bike_id":"77e7ebdd-08d9-4160-b08f-39ceab9cfee3","system_id":"levelo_inurba_marseille","lat":43.270644,"lon":5.402521,"is_reserved":false,"is_disabled":false,"rental_uris":{"android":"levelo://app?vid=77e7ebdd-08d9-4160-b08f-39ceab9cfee3","ios":"levelo://app?vid=77e7ebdd-08d9-4160-b08f-39ceab9cfee3"},"vehicle_type_id":"4","last_reported":1750936173,"current_range_meters":16400,"station_id":"ce4bhk92rcd13ifvqgc0","pricing_plan_id":"cebpf4jnsgd1na2vs0mg"},{"bike_id":"e83503e2-ca76-45bd-93b3-f08eb02db392","system_id":"levelo_inurba_marseille","lat":43.33025,"lon":5.39037,"is_reserved":false,"is_disabled":false,"rental_uris":{"android":"levelo://app?vid=e83503e2-ca76-45bd-93b3-f08eb02db392","ios":"levelo://app?vid=e83503e2-ca76-45bd-93b3-f08eb02db392"},"vehicle_type_id":"4","last_reported":1750936173,"current_range_meters":16400,"station_id":"ce4bhr92rcd13ifvqhrg","pricing_plan_id":"cebpf4jnsgd1na2vs0mg"},{"bike_id":"84b016e9-d635-46b5-a2d1-485f52f6bded","system_id":"levelo_inurba_marseille","lat":43.29938,"lon":5.3655,"is_reserved":false,"is_disabled":false,"rental_uris":{"android":"levelo://app?vid=84b016e9-d635-46b5-a2d1-485f52f6bded","ios":"levelo://app?vid=84b016e9-d635-46b5-a2d1-485f52f6bded"},"vehicle_type_id":"4","last_reported":1750936173,"current_range_meters":16800,"station_id":"ce4bgm92rcd13ifvqbr0","pricing_plan_id":"cebpf4jnsgd1na2vs0mg"},{"bike_id":"f27740de-6274-47df-ac5e-cb276ef4cc73","system_id":"levelo_inurba_marseille","lat":43.28852,"lon":5.35859,"is_reserved":false,"is_disabled":false,"rental_uris":{"android":"levelo://app?vid=f27740de-6274-47df-ac5e-cb276ef4cc73","ios":"levelo://app?vid=f27740de-6274-47df-ac5e-cb276ef4cc73"},"vehicle_type_id":"4","last_reported":1750936173,"current_range_meters":16800,"station_id":"ce4bhb12rcd13ifvqem0","pricing_plan_id":"cebpf4jnsgd1na2vs0mg"},{"bike_id":"00dd56d8-e1b2-4672-bc22-05410cbb86ff","system_id":"levelo_inurba_marseille","lat":43.282704,"lon":5.350639,"is_reserved":false,"is_disabled":false,"rental_uris":{"android":"levelo://app?vid=00dd56d8-e1b2-4672-bc22-05410cbb86ff","ios":"levelo://app?vid=00dd56d8-e1b2-4672-bc22-05410cbb86ff"},"vehicle_type_id":"4","last_reported":1750936173,"current_range_meters":16800,"station_id":"ce4bhbp2rcd13ifvqerg","pricing_plan_id":"cebpf4jnsgd1na2vs0mg"},{"bike_id":"475cd2f2-82ef-4e5b-aff7-b7015aa0120b","system_id":"levelo_inurba_marseille","lat":43.27498,"lon":5.42453,"is_reserved":false,"is_disabled":false,"rental_uris":{"android":"levelo://app?vid=475cd2f2-82ef-4e5b-aff7-b7015aa0120b","ios":"levelo://app?vid=475cd2f2-82ef-4e5b-aff7-b7015aa0120b"},"vehicle_type_id":"4","last_reported":1750936173,"current_range_meters":16800,"station_id":"ce4bhn92rcd13ifvqgrg","pricing_plan_id":"cebpf4jnsgd1na2vs0mg"},{"bike_id":"0d4bf6e9-df42-44fa-90da-42f015a8ca21","system_id":"levelo_inurba_marseille","lat":43.321113,"lon":5.367783,"is_reserved":false,"is_disabled":false,"rental_uris":{"android":"levelo://app?vid=0d4bf6e9-df42-44fa-90da-42f015a8ca21","ios":"levelo://app?vid=0d4bf6e9-df42-44fa-90da-42f015a8ca21"},"vehicle_type_id":"4","last_reported":1750936173,"current_range_meters":16800,"station_id":"ce4bhrh2rcd13ifvqhug","pricing_plan_id":"cebpf4jnsgd1na2vs0mg"},{"bike_id":"1a500985-c816-4d83-a038-4a629f10a813","system_id":"levelo_inurba_marseille","lat":43.21203,"lon":5.35089,"is_reserved":false,"is_disabled":false,"rental_uris":{"android":"levelo://app?vid=1a500985-c816-4d83-a038-4a629f10a813","ios":"levelo://app?vid=1a500985-c816-4d83-a038-4a629f10a813"},"vehicle_type_id":"4","last_reported":1750936173,"current_range_meters":16800,"station_id":"st_cvj6sg6p6f1abm77japg","pricing_plan_id":"cebpf4jnsgd1na2vs0mg"},{"bike_id":"b0913637-65e5-4f48-924e-35ef873f8c32","system_id":"levelo_inurba_marseille","lat":43.31146,"lon":5.3827,"is_reserved":false,"is_disabled":false,"rental_uris":{"android":"levelo://app?vid=b0913637-65e5-4f48-924e-35ef873f8c32","ios":"levelo://app?vid=b0913637-65e5-4f48-924e-35ef873f8c32"},"vehicle_type_id":"4","last_reported":1750936173,"current_range_meters":17200,"station_id":"","pricing_plan_id":"cebpf4jnsgd1na2vs0mg"},{"bike_id":"45c11448-bf22-499b-bf4d-db2e2efaeb6a","system_id":"levelo_inurba_marseille","lat":43.29582,"lon":5.36741,"is_reserved":false,"is_disabled":false,"rental_uris":{"android":"levelo://app?vid=45c11448-bf22-499b-bf4d-db2e2efaeb6a","ios":"levelo://app?vid=45c11448-bf22-499b-bf4d-db2e2efaeb6a"},"vehicle_type_id":"4","last_reported":1750936173,"current_range_meters":17200,"station_id":"ce4bgph2rcd13ifvqc2g","pricing_plan_id":"cebpf4jnsgd1na2vs0mg"},{"bike_id":"3f669c53-5fc1-4188-a805-77a21deb7165","system_id":"levelo_inurba_marseille","lat":43.292404,"lon":5.360925,"is_reserved":false,"is_disabled":false,"rental_uris":{"android":"levelo://app?vid=3f669c53-5fc1-4188-a805-77a21deb7165","ios":"levelo://app?vid=3f669c53-5fc1-4188-a805-77a21deb7165"},"vehicle_type_id":"4","last_reported":1750936173,"current_range_meters":17200,"station_id":"ce4bhah2rcd13ifvqei0","pricing_plan_id":"cebpf4jnsgd1na2vs0mg"},{"bike_id":"520b2c46-2bf1-4fd2-9fca-b32997429572","system_id":"levelo_inurba_marseille","lat":43.28424,"lon":5.34988,"is_reserved":false,"is_disabled":false,"rental_uris":{"android":"levelo://app?vid=520b2c46-2bf1-4fd2-9fca-b32997429572","ios":"levelo://app?vid=520b2c46-2bf1-4fd2-9fca-b32997429572"},"vehicle_type_id":"4","last_reported":1750936173,"current_range_meters":17200,"station_id":"ce4bhbh2rcd13ifvqepg","pricing_plan_id":"cebpf4jnsgd1na2vs0mg"},{"bike_id":"43e73e6e-7a38-4ddf-9be8-db15b2d59914","system_id":"levelo_inurba_marseille","lat":43.25492,"lon":5.37652,"is_reserved":false,"is_disabled":false,"rental_uris":{"android":"levelo://app?vid=43e73e6e-7a38-4ddf-9be8-db15b2d59914","ios":"levelo://app?vid=43e73e6e-7a38-4ddf-9be8-db15b2d59914"},"vehicle_type_id":"4","last_reported":1750936173,"current_range_meters":17200,"station_id":"ce4bhh12rcd13ifvqff0","pricing_plan_id":"cebpf4jnsgd1na2vs0mg"},{"bike_id":"8ca64623-dcaa-4c4d-b2dd-469679d10386","system_id":"levelo_inurba_marseille","lat":43.23202,"lon":5.35551,"is_reserved":false,"is_disabled":false,"rental_uris":{"android":"levelo://app?vid=8ca64623-dcaa-4c4d-b2dd-469679d10386","ios":"levelo://app?vid=8ca64623-dcaa-4c4d-b2dd-469679d10386"},"vehicle_type_id":"4","last_reported":1750936173,"current_range_meters":17200,"station_id":"ce4bhu92rcd13ifvqi70","pricing_plan_id":"cebpf4jnsgd1na2vs0mg"},{"bike_id":"4106a639-366b-4e16-ab2c-e2241d337d6f","system_id":"levelo_inurba_marseille","lat":43.23195,"lon":5.35551,"is_reserved":false,"is_disabled":false,"rental_uris":{"android":"levelo://app?vid=4106a639-366b-4e16-ab2c-e2241d337d6f","ios":"levelo://app?vid=4106a639-366b-4e16-ab2c-e2241d337d6f"},"vehicle_type_id":"4","last_reported":1750936173,"current_range_meters":17200,"station_id":"ce4bhu92rcd13ifvqi70","pricing_plan_id":"cebpf4jnsgd1na2vs0mg"},{"bike_id":"2071ff3f-536a-4747-9e50-d85d0e60def3","system_id":"levelo_inurba_marseille","lat":43.21179,"lon":5.35096,"is_reserved":false,"is_disabled":false,"rental_uris":{"android":"levelo://app?vid=2071ff3f-536a-4747-9e50-d85d0e60def3","ios":"levelo://app?vid=2071ff3f-536a-4747-9e50-d85d0e60def3"},"vehicle_type_id":"4","last_reported":1750936173,"current_range_meters":17200,"station_id":"st_cvj6sg6p6f1abm77japg","pricing_plan_id":"cebpf4jnsgd1na2vs0mg"},{"bike_id":"348936c8-7c8d-4b8a-988e-b0a979920804","system_id":"levelo_inurba_marseille","lat":43.211947,"lon":5.350723,"is_reserved":false,"is_disabled":false,"rental_uris":{"android":"levelo://app?vid=348936c8-7c8d-4b8a-988e-b0a979920804","ios":"levelo://app?vid=348936c8-7c8d-4b8a-988e-b0a979920804"},"vehicle_type_id":"4","last_reported":1750936173,"current_range_meters":17200,"station_id":"st_cvj6sg6p6f1abm77japg","pricing_plan_id":"cebpf4jnsgd1na2vs0mg"},{"bike_id":"f49855f8-cfe2-44f4-9cb4-0d4d3b791d50","system_id":"levelo_inurba_marseille","lat":43.29207,"lon":5.39328,"is_reserved":false,"is_disabled":false,"rental_uris":{"android":"levelo://app?vid=f49855f8-cfe2-44f4-9cb4-0d4d3b791d50","ios":"levelo://app?vid=f49855f8-cfe2-44f4-9cb4-0d4d3b791d50"},"vehicle_type_id":"4","last_reported":1750936173,"current_range_meters":17600,"station_id":"ce4bh192rcd13ifvqdd0","pricing_plan_id":"cebpf4jnsgd1na2vs0mg"},{"bike_id":"e48db68b-fd0a-46e1-981d-1f4377fdc5c0","system_id":"levelo_inurba_marseille","lat":43.28854,"lon":5.35864,"is_reserved":false,"is_disabled":false,"rental_uris":{"android":"levelo://app?vid=e48db68b-fd0a-46e1-981d-1f4377fdc5c0","ios":"levelo://app?vid=e48db68b-fd0a-46e1-981d-1f4377fdc5c0"},"vehicle_type_id":"4","last_reported":1750936173,"current_range_meters":17600,"station_id":"ce4bhb12rcd13ifvqem0","pricing_plan_id":"cebpf4jnsgd1na2vs0mg"},{"bike_id":"1d55f66e-dd62-48de-89a1-6b40fd865f1e","system_id":"levelo_inurba_marseille","lat":43.26198,"lon":5.37473,"is_reserved":false,"is_disabled":false,"rental_uris":{"android":"levelo://app?vid=1d55f66e-dd62-48de-89a1-6b40fd865f1e","ios":"levelo://app?vid=1d55f66e-dd62-48de-89a1-6b40fd865f1e"},"vehicle_type_id":"4","last_reported":1750936173,"current_range_meters":17600,"station_id":"ce4bhgp2rcd13ifvqfc0","pricing_plan_id":"cebpf4jnsgd1na2vs0mg"},{"bike_id":"2ad8c985-d1ec-4ce0-85b0-a2f74863b534","system_id":"levelo_inurba_marseille","lat":43.262114,"lon":5.37437,"is_reserved":false,"is_disabled":false,"rental_uris":{"android":"levelo://app?vid=2ad8c985-d1ec-4ce0-85b0-a2f74863b534","ios":"levelo://app?vid=2ad8c985-d1ec-4ce0-85b0-a2f74863b534"},"vehicle_type_id":"4","last_reported":1750936173,"current_range_meters":17600,"station_id":"ce4bhgp2rcd13ifvqfc0","pricing_plan_id":"cebpf4jnsgd1na2vs0mg"},{"bike_id":"f1ff4f78-6d1b-435f-8777-a24085f5b111","system_id":"levelo_inurba_marseille","lat":43.23209,"lon":5.35566,"is_reserved":false,"is_disabled":false,"rental_uris":{"android":"levelo://app?vid=f1ff4f78-6d1b-435f-8777-a24085f5b111","ios":"levelo://app?vid=f1ff4f78-6d1b-435f-8777-a24085f5b111"},"vehicle_type_id":"4","last_reported":1750936173,"current_range_meters":17600,"station_id":"ce4bhu92rcd13ifvqi70","pricing_plan_id":"cebpf4jnsgd1na2vs0mg"},{"bike_id":"84135081-afe2-44ed-8008-f4ca0a767bfa","system_id":"levelo_inurba_marseille","lat":43.22934,"lon":5.35375,"is_reserved":false,"is_disabled":false,"rental_uris":{"android":"levelo://app?vid=84135081-afe2-44ed-8008-f4ca0a767bfa","ios":"levelo://app?vid=84135081-afe2-44ed-8008-f4ca0a767bfa"},"vehicle_type_id":"4","last_reported":1750936173,"current_range_meters":17600,"station_id":"cpo3532slgdg3j2ikp40","pricing_plan_id":"cebpf4jnsgd1na2vs0mg"},{"bike_id":"ea387e76-acba-42f5-8f87-fcb58c5f83ad","system_id":"levelo_inurba_marseille","lat":43.232003,"lon":5.355573,"is_reserved":false,"is_disabled":false,"rental_uris":{"android":"levelo://app?vid=ea387e76-acba-42f5-8f87-fcb58c5f83ad","ios":"levelo://app?vid=ea387e76-acba-42f5-8f87-fcb58c5f83ad"},"vehicle_type_id":"4","last_reported":1750936173,"current_range_meters":18000,"station_id":"","pricing_plan_id":"cebpf4jnsgd1na2vs0mg"},{"bike_id":"a670c232-602f-4de4-b4ed-4c22f0a7bbe5","system_id":"levelo_inurba_marseille","lat":43.26201,"lon":5.37463,"is_reserved":false,"is_disabled":false,"rental_uris":{"android":"levelo://app?vid=a670c232-602f-4de4-b4ed-4c22f0a7bbe5","ios":"levelo://app?vid=a670c232-602f-4de4-b4ed-4c22f0a7bbe5"},"vehicle_type_id":"4","last_reported":1750936173,"current_range_meters":18000,"station_id":"ce4bhgp2rcd13ifvqfc0","pricing_plan_id":"cebpf4jnsgd1na2vs0mg"},{"bike_id":"ae8ac663-870d-4967-9040-97a36e0fff52","system_id":"levelo_inurba_marseille","lat":43.31727,"lon":5.40481,"is_reserved":false,"is_disabled":false,"rental_uris":{"android":"levelo://app?vid=ae8ac663-870d-4967-9040-97a36e0fff52","ios":"levelo://app?vid=ae8ac663-870d-4967-9040-97a36e0fff52"},"vehicle_type_id":"4","last_reported":1750936173,"current_range_meters":18800,"station_id":"ce4bh012rcd13ifvqd00","pricing_plan_id":"cebpf4jnsgd1na2vs0mg"},{"bike_id":"187e4282-8e19-4d09-8556-bde546813631","system_id":"levelo_inurba_marseille","lat":43.29025,"lon":5.38143,"is_reserved":false,"is_disabled":false,"rental_uris":{"android":"levelo://app?vid=187e4282-8e19-4d09-8556-bde546813631","ios":"levelo://app?vid=187e4282-8e19-4d09-8556-bde546813631"},"vehicle_type_id":"4","last_reported":1750936173,"current_range_meters":18800,"station_id":"ce4bh4p2rcd13ifvqe1g","pricing_plan_id":"cebpf4jnsgd1na2vs0mg"},{"bike_id":"6f5df6fe-a4a0-40ba-bad4-78f66cedd21c","system_id":"levelo_inurba_marseille","lat":43.28267,"lon":5.35077,"is_reserved":false,"is_disabled":false,"rental_uris":{"android":"levelo://app?vid=6f5df6fe-a4a0-40ba-bad4-78f66cedd21c","ios":"levelo://app?vid=6f5df6fe-a4a0-40ba-bad4-78f66cedd21c"},"vehicle_type_id":"4","last_reported":1750936173,"current_range_meters":18800,"station_id":"ce4bhbp2rcd13ifvqerg","pricing_plan_id":"cebpf4jnsgd1na2vs0mg"},{"bike_id":"212d8ead-b7cb-4d1b-9e9a-b45404edd605","system_id":"levelo_inurba_marseille","lat":43.270563,"lon":5.40253,"is_reserved":false,"is_disabled":false,"rental_uris":{"android":"levelo://app?vid=212d8ead-b7cb-4d1b-9e9a-b45404edd605","ios":"levelo://app?vid=212d8ead-b7cb-4d1b-9e9a-b45404edd605"},"vehicle_type_id":"4","last_reported":1750936173,"current_range_meters":18800,"station_id":"ce4bhk92rcd13ifvqgc0","pricing_plan_id":"cebpf4jnsgd1na2vs0mg"},{"bike_id":"583250a4-e317-4bcf-aca0-d97a0b663a7e","system_id":"levelo_inurba_marseille","lat":43.303812,"lon":5.424864,"is_reserved":false,"is_disabled":false,"rental_uris":{"android":"levelo://app?vid=583250a4-e317-4bcf-aca0-d97a0b663a7e","ios":"levelo://app?vid=583250a4-e317-4bcf-aca0-d97a0b663a7e"},"vehicle_type_id":"4","last_reported":1750936173,"current_range_meters":18800,"station_id":"ce4bhoh2rcd13ifvqh6g","pricing_plan_id":"cebpf4jnsgd1na2vs0mg"},{"bike_id":"c912f712-272f-4ea0-bdd0-b7b33c115a10","system_id":"levelo_inurba_marseille","lat":43.32368,"lon":5.38887,"is_reserved":false,"is_disabled":false,"rental_uris":{"android":"levelo://app?vid=c912f712-272f-4ea0-bdd0-b7b33c115a10","ios":"levelo://app?vid=c912f712-272f-4ea0-bdd0-b7b33c115a10"},"vehicle_type_id":"4","last_reported":1750936173,"current_range_meters":18800,"station_id":"ce4bhqp2rcd13ifvqhog","pricing_plan_id":"cebpf4jnsgd1na2vs0mg"},{"bike_id":"b404c964-6a6e-4825-8807-5670ff3c69a5","system_id":"levelo_inurba_marseille","lat":43.323596,"lon":5.367658,"is_reserved":false,"is_disabled":false,"rental_uris":{"android":"levelo://app?vid=b404c964-6a6e-4825-8807-5670ff3c69a5","ios":"levelo://app?vid=b404c964-6a6e-4825-8807-5670ff3c69a5"},"vehicle_type_id":"4","last_reported":1750936173,"current_range_meters":18800,"station_id":"ce4bhsh2rcd13ifvqi2g","pricing_plan_id":"cebpf4jnsgd1na2vs0mg"},{"bike_id":"ff9d74d4-c1bd-4cf3-b616-a46d717d0ed3","system_id":"levelo_inurba_marseille","lat":43.26946,"lon":5.40296,"is_reserved":false,"is_disabled":false,"rental_uris":{"android":"levelo://app?vid=ff9d74d4-c1bd-4cf3-b616-a46d717d0ed3","ios":"levelo://app?vid=ff9d74d4-c1bd-4cf3-b616-a46d717d0ed3"},"vehicle_type_id":"4","last_reported":1750936173,"current_range_meters":18800,"station_id":"cjm6bp8fraef2m0cb0m0","pricing_plan_id":"cebpf4jnsgd1na2vs0mg"},{"bike_id":"d565ec36-c103-42db-b30a-02c479395322","system_id":"levelo_inurba_marseille","lat":43.295574,"lon":5.425181,"is_reserved":false,"is_disabled":false,"rental_uris":{"android":"levelo://app?vid=d565ec36-c103-42db-b30a-02c479395322","ios":"levelo://app?vid=d565ec36-c103-42db-b30a-02c479395322"},"vehicle_type_id":"4","last_reported":1750936173,"current_range_meters":19200,"station_id":"","pricing_plan_id":"cebpf4jnsgd1na2vs0mg"},{"bike_id":"f865fcec-ace1-4945-bb0b-447e2c4942e9","system_id":"levelo_inurba_marseille","lat":43.29572,"lon":5.37501,"is_reserved":false,"is_disabled":false,"rental_uris":{"android":"levelo://app?vid=f865fcec-ace1-4945-bb0b-447e2c4942e9","ios":"levelo://app?vid=f865fcec-ace1-4945-bb0b-447e2c4942e9"},"vehicle_type_id":"4","last_reported":1750936173,"current_range_meters":19200,"station_id":"ce4bgh92rcd13ifvqb50","pricing_plan_id":"cebpf4jnsgd1na2vs0mg"},{"bike_id":"7a8debe2-3d21-4073-9e3a-2c3eab259e6a","system_id":"levelo_inurba_marseille","lat":43.29521,"lon":5.37504,"is_reserved":false,"is_disabled":false,"rental_uris":{"android":"levelo://app?vid=7a8debe2-3d21-4073-9e3a-2c3eab259e6a","ios":"levelo://app?vid=7a8debe2-3d21-4073-9e3a-2c3eab259e6a"},"vehicle_type_id":"4","last_reported":1750936173,"current_range_meters":19200,"station_id":"ce4bgkp2rcd13ifvqbmg","pricing_plan_id":"cebpf4jnsgd1na2vs0mg"},{"bike_id":"c0aadb83-74c9-4f4c-ac79-809eea83af7c","system_id":"levelo_inurba_marseille","lat":43.273743,"lon":5.362548,"is_reserved":false,"is_disabled":false,"rental_uris":{"android":"levelo://app?vid=c0aadb83-74c9-4f4c-ac79-809eea83af7c","ios":"levelo://app?vid=c0aadb83-74c9-4f4c-ac79-809eea83af7c"},"vehicle_type_id":"4","last_reported":1750936173,"current_range_meters":19200,"station_id":"ce4bhbh2rcd13ifvqeo0","pricing_plan_id":"cebpf4jnsgd1na2vs0mg"},{"bike_id":"8d78bf36-f1c3-41a4-95fd-e6d4a1c1d57c","system_id":"levelo_inurba_marseille","lat":43.28414,"lon":5.34978,"is_reserved":false,"is_disabled":false,"rental_uris":{"android":"levelo://app?vid=8d78bf36-f1c3-41a4-95fd-e6d4a1c1d57c","ios":"levelo://app?vid=8d78bf36-f1c3-41a4-95fd-e6d4a1c1d57c"},"vehicle_type_id":"4","last_reported":1750936173,"current_range_meters":19200,"station_id":"ce4bhbh2rcd13ifvqepg","pricing_plan_id":"cebpf4jnsgd1na2vs0mg"},{"bike_id":"40b19a43-7568-4070-8cfa-6d78b27578ba","system_id":"levelo_inurba_marseille","lat":43.254751,"lon":5.3765,"is_reserved":false,"is_disabled":false,"rental_uris":{"android":"levelo://app?vid=40b19a43-7568-4070-8cfa-6d78b27578ba","ios":"levelo://app?vid=40b19a43-7568-4070-8cfa-6d78b27578ba"},"vehicle_type_id":"4","last_reported":1750936173,"current_range_meters":19200,"station_id":"ce4bhh12rcd13ifvqff0","pricing_plan_id":"cebpf4jnsgd1na2vs0mg"},{"bike_id":"90a212f5-f161-452e-b2e4-434a7de8d8fc","system_id":"levelo_inurba_marseille","lat":43.231466,"lon":5.437103,"is_reserved":false,"is_disabled":false,"rental_uris":{"android":"levelo://app?vid=90a212f5-f161-452e-b2e4-434a7de8d8fc","ios":"levelo://app?vid=90a212f5-f161-452e-b2e4-434a7de8d8fc"},"vehicle_type_id":"4","last_reported":1750936173,"current_range_meters":19200,"station_id":"ce4bhmp2rcd13ifvqgog","pricing_plan_id":"cebpf4jnsgd1na2vs0mg"},{"bike_id":"e449a2c0-ee5d-44c7-a602-628deef64a14","system_id":"levelo_inurba_marseille","lat":43.33737,"lon":5.3918,"is_reserved":false,"is_disabled":false,"rental_uris":{"android":"levelo://app?vid=e449a2c0-ee5d-44c7-a602-628deef64a14","ios":"levelo://app?vid=e449a2c0-ee5d-44c7-a602-628deef64a14"},"vehicle_type_id":"4","last_reported":1750936173,"current_range_meters":19200,"station_id":"ce4bhr92rcd13ifvqhsg","pricing_plan_id":"cebpf4jnsgd1na2vs0mg"},{"bike_id":"5f16334a-3393-41dc-ad34-ab261abba054","system_id":"levelo_inurba_marseille","lat":43.32369,"lon":5.36763,"is_reserved":false,"is_disabled":false,"rental_uris":{"android":"levelo://app?vid=5f16334a-3393-41dc-ad34-ab261abba054","ios":"levelo://app?vid=5f16334a-3393-41dc-ad34-ab261abba054"},"vehicle_type_id":"4","last_reported":1750936173,"current_range_meters":19200,"station_id":"ce4bhsh2rcd13ifvqi2g","pricing_plan_id":"cebpf4jnsgd1na2vs0mg"},{"bike_id":"2cefe4c4-7926-46e5-9eb5-dc374030f814","system_id":"levelo_inurba_marseille","lat":43.21761,"lon":5.34628,"is_reserved":false,"is_disabled":false,"rental_uris":{"android":"levelo://app?vid=2cefe4c4-7926-46e5-9eb5-dc374030f814","ios":"levelo://app?vid=2cefe4c4-7926-46e5-9eb5-dc374030f814"},"vehicle_type_id":"4","last_reported":1750936173,"current_range_meters":19200,"station_id":"st_cvj6r9ubvosntc0bgbag","pricing_plan_id":"cebpf4jnsgd1na2vs0mg"},{"bike_id":"9d043ca6-e9d3-4bf0-a898-473de0644f93","system_id":"levelo_inurba_marseille","lat":43.21195,"lon":5.35078,"is_reserved":false,"is_disabled":false,"rental_uris":{"android":"levelo://app?vid=9d043ca6-e9d3-4bf0-a898-473de0644f93","ios":"levelo://app?vid=9d043ca6-e9d3-4bf0-a898-473de0644f93"},"vehicle_type_id":"4","last_reported":1750936173,"current_range_meters":19200,"station_id":"st_cvj6sg6p6f1abm77japg","pricing_plan_id":"cebpf4jnsgd1na2vs0mg"},{"bike_id":"3d90fe42-a99e-4068-8ca6-2e60d705004e","system_id":"levelo_inurba_marseille","lat":43.30304,"lon":5.37711,"is_reserved":false,"is_disabled":false,"rental_uris":{"android":"levelo://app?vid=3d90fe42-a99e-4068-8ca6-2e60d705004e","ios":"levelo://app?vid=3d90fe42-a99e-4068-8ca6-2e60d705004e"},"vehicle_type_id":"4","last_reported":1750936173,"current_range_meters":19600,"station_id":"ce4bguh2rcd13ifvqcj0","pricing_plan_id":"cebpf4jnsgd1na2vs0mg"},{"bike_id":"a763b752-0353-4b6f-83b8-9996d7a9f445","system_id":"levelo_inurba_marseille","lat":43.28041,"lon":5.36948,"is_reserved":false,"is_disabled":false,"rental_uris":{"android":"levelo://app?vid=a763b752-0353-4b6f-83b8-9996d7a9f445","ios":"levelo://app?vid=a763b752-0353-4b6f-83b8-9996d7a9f445"},"vehicle_type_id":"4","last_reported":1750936173,"current_range_meters":19600,"station_id":"ce4bha12rcd13ifvqef0","pricing_plan_id":"cebpf4jnsgd1na2vs0mg"},{"bike_id":"3bae245c-4680-492e-b92a-5cab641003f8","system_id":"levelo_inurba_marseille","lat":43.23142,"lon":5.43713,"is_reserved":false,"is_disabled":false,"rental_uris":{"android":"levelo://app?vid=3bae245c-4680-492e-b92a-5cab641003f8","ios":"levelo://app?vid=3bae245c-4680-492e-b92a-5cab641003f8"},"vehicle_type_id":"4","last_reported":1750936173,"current_range_meters":19600,"station_id":"ce4bhmp2rcd13ifvqgog","pricing_plan_id":"cebpf4jnsgd1na2vs0mg"},{"bike_id":"838812b8-550d-41a2-9bfb-81599bac30ad","system_id":"levelo_inurba_marseille","lat":43.30529,"lon":5.36543,"is_reserved":false,"is_disabled":false,"rental_uris":{"android":"levelo://app?vid=838812b8-550d-41a2-9bfb-81599bac30ad","ios":"levelo://app?vid=838812b8-550d-41a2-9bfb-81599bac30ad"},"vehicle_type_id":"4","last_reported":1750936173,"current_range_meters":20000,"station_id":"ce4bgs12rcd13ifvqcag","pricing_plan_id":"cebpf4jnsgd1na2vs0mg"},{"bike_id":"ceeae017-4dc0-40ef-8e57-58d78885c3d9","system_id":"levelo_inurba_marseille","lat":43.30772,"lon":5.376524,"is_reserved":false,"is_disabled":false,"rental_uris":{"android":"levelo://app?vid=ceeae017-4dc0-40ef-8e57-58d78885c3d9","ios":"levelo://app?vid=ceeae017-4dc0-40ef-8e57-58d78885c3d9"},"vehicle_type_id":"4","last_reported":1750936173,"current_range_meters":20000,"station_id":"ce4bgv92rcd13ifvqcq0","pricing_plan_id":"cebpf4jnsgd1na2vs0mg"},{"bike_id":"b2723309-81e5-40d1-8c66-e36722ed5c6e","system_id":"levelo_inurba_marseille","lat":43.29204,"lon":5.39317,"is_reserved":false,"is_disabled":false,"rental_uris":{"android":"levelo://app?vid=b2723309-81e5-40d1-8c66-e36722ed5c6e","ios":"levelo://app?vid=b2723309-81e5-40d1-8c66-e36722ed5c6e"},"vehicle_type_id":"4","last_reported":1750936173,"current_range_meters":20000,"station_id":"ce4bh192rcd13ifvqdd0","pricing_plan_id":"cebpf4jnsgd1na2vs0mg"},{"bike_id":"d1da4d79-ae8a-43b9-a056-74a58c5811f7","system_id":"levelo_inurba_marseille","lat":43.262,"lon":5.37463,"is_reserved":false,"is_disabled":false,"rental_uris":{"android":"levelo://app?vid=d1da4d79-ae8a-43b9-a056-74a58c5811f7","ios":"levelo://app?vid=d1da4d79-ae8a-43b9-a056-74a58c5811f7"},"vehicle_type_id":"4","last_reported":1750936173,"current_range_meters":20000,"station_id":"ce4bhgp2rcd13ifvqfc0","pricing_plan_id":"cebpf4jnsgd1na2vs0mg"},{"bike_id":"34fc31a0-8f6a-432e-b956-22cad132f682","system_id":"levelo_inurba_marseille","lat":43.21753,"lon":5.34599,"is_reserved":false,"is_disabled":false,"rental_uris":{"android":"levelo://app?vid=34fc31a0-8f6a-432e-b956-22cad132f682","ios":"levelo://app?vid=34fc31a0-8f6a-432e-b956-22cad132f682"},"vehicle_type_id":"4","last_reported":1750936173,"current_range_meters":20000,"station_id":"st_cvj6r9ubvosntc0bgbag","pricing_plan_id":"cebpf4jnsgd1na2vs0mg"},{"bike_id":"facfcf93-ab85-4d16-b148-8bc9369e6f17","system_id":"levelo_inurba_marseille","lat":43.21197,"lon":5.35095,"is_reserved":false,"is_disabled":false,"rental_uris":{"android":"levelo://app?vid=facfcf93-ab85-4d16-b148-8bc9369e6f17","ios":"levelo://app?vid=facfcf93-ab85-4d16-b148-8bc9369e6f17"},"vehicle_type_id":"4","last_reported":1750936173,"current_range_meters":20000,"station_id":"st_cvj6sg6p6f1abm77japg","pricing_plan_id":"cebpf4jnsgd1na2vs0mg"},{"bike_id":"0450fe87-20c7-42de-97b7-f4526d26c727","system_id":"levelo_inurba_marseille","lat":43.30543,"lon":5.367,"is_reserved":false,"is_disabled":false,"rental_uris":{"android":"levelo://app?vid=0450fe87-20c7-42de-97b7-f4526d26c727","ios":"levelo://app?vid=0450fe87-20c7-42de-97b7-f4526d26c727"},"vehicle_type_id":"4","last_reported":1750936173,"current_range_meters":20400,"station_id":"ce4bgrp2rcd13ifvqc9g","pricing_plan_id":"cebpf4jnsgd1na2vs0mg"},{"bike_id":"47bb31d9-1823-405e-aeaf-2932ad908ed6","system_id":"levelo_inurba_marseille","lat":43.30144,"lon":5.37414,"is_reserved":false,"is_disabled":false,"rental_uris":{"android":"levelo://app?vid=47bb31d9-1823-405e-aeaf-2932ad908ed6","ios":"levelo://app?vid=47bb31d9-1823-405e-aeaf-2932ad908ed6"},"vehicle_type_id":"4","last_reported":1750936173,"current_range_meters":20400,"station_id":"ce4bgs92rcd13ifvqcc0","pricing_plan_id":"cebpf4jnsgd1na2vs0mg"},{"bike_id":"857ac866-47bd-401e-a718-57eab634cfc8","system_id":"levelo_inurba_marseille","lat":43.28358,"lon":5.38104,"is_reserved":false,"is_disabled":false,"rental_uris":{"android":"levelo://app?vid=857ac866-47bd-401e-a718-57eab634cfc8","ios":"levelo://app?vid=857ac866-47bd-401e-a718-57eab634cfc8"},"vehicle_type_id":"4","last_reported":1750936173,"current_range_meters":20400,"station_id":"ce4bh412rcd13ifvqdr0","pricing_plan_id":"cebpf4jnsgd1na2vs0mg"},{"bike_id":"0c8b3497-e3f8-47d5-a623-97ed12ade30d","system_id":"levelo_inurba_marseille","lat":43.284765,"lon":5.384155,"is_reserved":false,"is_disabled":false,"rental_uris":{"android":"levelo://app?vid=0c8b3497-e3f8-47d5-a623-97ed12ade30d","ios":"levelo://app?vid=0c8b3497-e3f8-47d5-a623-97ed12ade30d"},"vehicle_type_id":"4","last_reported":1750936173,"current_range_meters":20400,"station_id":"ce4bh512rcd13ifvqe3g","pricing_plan_id":"cebpf4jnsgd1na2vs0mg"},{"bike_id":"6d437fe2-72e3-47bc-af5b-3a8bfd6b3b7e","system_id":"levelo_inurba_marseille","lat":43.28262,"lon":5.35073,"is_reserved":false,"is_disabled":false,"rental_uris":{"android":"levelo://app?vid=6d437fe2-72e3-47bc-af5b-3a8bfd6b3b7e","ios":"levelo://app?vid=6d437fe2-72e3-47bc-af5b-3a8bfd6b3b7e"},"vehicle_type_id":"4","last_reported":1750936173,"current_range_meters":20400,"station_id":"ce4bhbp2rcd13ifvqerg","pricing_plan_id":"cebpf4jnsgd1na2vs0mg"},{"bike_id":"ab7231b5-6453-4e00-ba83-c2d391a4ba33","system_id":"levelo_inurba_marseille","lat":43.24393,"lon":5.37054,"is_reserved":false,"is_disabled":false,"rental_uris":{"android":"levelo://app?vid=ab7231b5-6453-4e00-ba83-c2d391a4ba33","ios":"levelo://app?vid=ab7231b5-6453-4e00-ba83-c2d391a4ba33"},"vehicle_type_id":"4","last_reported":1750936173,"current_range_meters":20400,"station_id":"ce4bhhh2rcd13ifvqfk0","pricing_plan_id":"cebpf4jnsgd1na2vs0mg"},{"bike_id":"82f1ced2-cc1e-4ad8-bb17-2266baa3067b","system_id":"levelo_inurba_marseille","lat":43.2989,"lon":5.43657,"is_reserved":false,"is_disabled":false,"rental_uris":{"android":"levelo://app?vid=82f1ced2-cc1e-4ad8-bb17-2266baa3067b","ios":"levelo://app?vid=82f1ced2-cc1e-4ad8-bb17-2266baa3067b"},"vehicle_type_id":"4","last_reported":1750936173,"current_range_meters":20400,"station_id":"ce4bhpp2rcd13ifvqhfg","pricing_plan_id":"cebpf4jnsgd1na2vs0mg"},{"bike_id":"f0057ca2-de2d-4464-8902-068dc3677e00","system_id":"levelo_inurba_marseille","lat":43.21194,"lon":5.35068,"is_reserved":false,"is_disabled":false,"rental_uris":{"android":"levelo://app?vid=f0057ca2-de2d-4464-8902-068dc3677e00","ios":"levelo://app?vid=f0057ca2-de2d-4464-8902-068dc3677e00"},"vehicle_type_id":"4","last_reported":1750936173,"current_range_meters":20400,"station_id":"st_cvj6sg6p6f1abm77japg","pricing_plan_id":"cebpf4jnsgd1na2vs0mg"},{"bike_id":"17d7ab6e-b589-4b0d-8d49-f82a773dc15e","system_id":"levelo_inurba_marseille","lat":43.29634,"lon":5.376,"is_reserved":false,"is_disabled":false,"rental_uris":{"android":"levelo://app?vid=17d7ab6e-b589-4b0d-8d49-f82a773dc15e","ios":"levelo://app?vid=17d7ab6e-b589-4b0d-8d49-f82a773dc15e"},"vehicle_type_id":"4","last_reported":1750936173,"current_range_meters":20800,"station_id":"","pricing_plan_id":"cebpf4jnsgd1na2vs0mg"},{"bike_id":"1a66aeea-1122-4c91-8bd9-e90c0f05796f","system_id":"levelo_inurba_marseille","lat":43.29258,"lon":5.37613,"is_reserved":false,"is_disabled":false,"rental_uris":{"android":"levelo://app?vid=1a66aeea-1122-4c91-8bd9-e90c0f05796f","ios":"levelo://app?vid=1a66aeea-1122-4c91-8bd9-e90c0f05796f"},"vehicle_type_id":"4","last_reported":1750936173,"current_range_meters":20800,"station_id":"ce4bgi12rcd13ifvqb80","pricing_plan_id":"cebpf4jnsgd1na2vs0mg"},{"bike_id":"3c91ffc3-01a6-4916-8dd9-0b1ea22569c2","system_id":"levelo_inurba_marseille","lat":43.28667,"lon":5.38675,"is_reserved":false,"is_disabled":false,"rental_uris":{"android":"levelo://app?vid=3c91ffc3-01a6-4916-8dd9-0b1ea22569c2","ios":"levelo://app?vid=3c91ffc3-01a6-4916-8dd9-0b1ea22569c2"},"vehicle_type_id":"4","last_reported":1750936173,"current_range_meters":20800,"station_id":"ce4bh492rcd13ifvqdug","pricing_plan_id":"cebpf4jnsgd1na2vs0mg"},{"bike_id":"6743d5fb-dd8d-4281-8dc2-1f096146aaa1","system_id":"levelo_inurba_marseille","lat":43.28477,"lon":5.38426,"is_reserved":false,"is_disabled":false,"rental_uris":{"android":"levelo://app?vid=6743d5fb-dd8d-4281-8dc2-1f096146aaa1","ios":"levelo://app?vid=6743d5fb-dd8d-4281-8dc2-1f096146aaa1"},"vehicle_type_id":"4","last_reported":1750936173,"current_range_meters":20800,"station_id":"ce4bh512rcd13ifvqe3g","pricing_plan_id":"cebpf4jnsgd1na2vs0mg"},{"bike_id":"a3689206-b074-4f71-a3d3-d1ff102db580","system_id":"levelo_inurba_marseille","lat":43.28487,"lon":5.38563,"is_reserved":false,"is_disabled":false,"rental_uris":{"android":"levelo://app?vid=a3689206-b074-4f71-a3d3-d1ff102db580","ios":"levelo://app?vid=a3689206-b074-4f71-a3d3-d1ff102db580"},"vehicle_type_id":"4","last_reported":1750936173,"current_range_meters":20800,"station_id":"ce4bh8p2rcd13ifvqeb0","pricing_plan_id":"cebpf4jnsgd1na2vs0mg"},{"bike_id":"4baf65c2-f259-4009-9876-82b7c1edb8cb","system_id":"levelo_inurba_marseille","lat":43.28844,"lon":5.35846,"is_reserved":false,"is_disabled":false,"rental_uris":{"android":"levelo://app?vid=4baf65c2-f259-4009-9876-82b7c1edb8cb","ios":"levelo://app?vid=4baf65c2-f259-4009-9876-82b7c1edb8cb"},