{"last_updated":1727518116,"ttl":60,"version":"2.2","data":{"bikes":[{"bike_id":"b83c421a-6817-4d8e-a056-2fef532dbfd3","system_id":"levelo_inurba_marseille","lat":43.307978,"lon":5.43526,"is_reserved":false,"is_disabled":false,"rental_uris":{"android":"levelo://app?vid=b83c421a-6817-4d8e-a056-2fef532dbfd3","ios":"levelo://app?vid=b83c421a-6817-4d8e-a056-2fef532dbfd3"},"vehicle_type_id":"4","last_reported":1727518116,"current_range_meters":38800,"station_id":"ce4bhph2rcd13ifvqheg","pricing_plan_id":"cebpf4jnsgd1na2vs0mg"},{"bike_id":"f2602725-d633-43ab-bd38-fb1227eda7aa","system_id":"levelo_inurba_marseille","lat":43.29842,"lon":5.36263,"is_reserved":false,"is_disabled":false,"rental_uris":{"android":"levelo://app?vid=f2602725-d633-43ab-bd38-fb1227eda7aa","ios":"levelo://app?vid=f2602725-d633-43ab-bd38-fb1227eda7aa"},"vehicle_type_id":"4","last_reported":1727518116,"current_range_meters":39200,"station_id":"ce4bgpp2rcd13ifvqc3g","pricing_plan_id":"cebpf4jnsgd1na2vs0mg"},{"bike_id":"a946c703-49f9-4947-b5d1-06e599595bb8","system_id":"levelo_inurba_marseille","lat":43.31071,"lon":5.3836,"is_reserved":false,"is_disabled":false,"rental_uris":{"android":"levelo://app?vid=a946c703-49f9-4947-b5d1-06e599595bb8","ios":"levelo://app?vid=a946c703-49f9-4947-b5d1-06e599595bb8"},"vehicle_type_id":"4","last_reported":1727518116,"current_range_meters":4400,"station_id":"ce4bgv92rcd13ifvqcr0","pricing_plan_id":"cebpf4jnsgd1na2vs0mg"},{"bike_id":"e7081ef8-8a32-46a8-a293-c48ce527862e","system_id":"levelo_inurba_marseille","lat":43.34488,"lon":5.41631,"is_reserved":false,"is_disabled":false,"rental_uris":{"android":"levelo://app?vid=e7081ef8-8a32-46a8-a293-c48ce527862e","ios":"levelo://app?vid=e7081ef8-8a32-46a8-a293-c48ce527862e"},"vehicle_type_id":"4","last_reported":1727518116,"current_range_meters":6000,"station_id":"","pricing_plan_id":"cebpf4jnsgd1na2vs0mg"},{"bike_id":"f9bdde61-6f4e-4435-aeb6-411dc1af58fe","system_id":"levelo_inurba_marseille","lat":43.31274,"lon":5.40173,"is_reserved":false,"is_disabled":false,"rental_uris":{"android":"levelo://app?vid=f9bdde61-6f4e-4435-aeb6-411dc1af58fe","ios":"levelo://app?vid=f9bdde61-6f4e-4435-aeb6-411dc1af58fe"},"vehicle_type_id":"4","last_reported":1727518116,"current_range_meters":38800,"station_id":"ce4bh092rcd13ifvqd30","pricing_plan_id":"cebpf4jnsgd1na2vs0mg"},{"bike_id":"2114921e-6c6d-40fb-8225-090570d48651","system_id":"levelo_inurba_marseille","lat":43.28149,"lon":5.42628,"is_reserved":false,"is_disabled":false,"rental_uris":{"android":"levelo://app?vid=2114921e-6c6d-40fb-8225-090570d48651","ios":"levelo://app?vid=2114921e-6c6d-40fb-8225-090570d48651"},"vehicle_type_id":"4","last_reported":1727518116,"current_range_meters":36000,"station_id":"ce4bhnh2rcd13ifvqgug","pricing_plan_id":"cebpf4jnsgd1na2vs0mg"},{"bike_id":"c42bda2a-576f-4405-9ceb-4d1e065cf644","system_id":"levelo_inurba_marseille","lat":43.27951,"lon":5.41049,"is_reserved":false,"is_disabled":false,"rental_uris":{"android":"levelo://app?vid=c42bda2a-576f-4405-9ceb-4d1e065cf644","ios":"levelo://app?vid=c42bda2a-576f-4405-9ceb-4d1e065cf644"},"vehicle_type_id":"4","last_reported":1727518116,"current_range_meters":38000,"station_id":"ce4bhnp2rcd13ifvqh0g","pricing_plan_id":"cebpf4jnsgd1na2vs0mg"},{"bike_id":"6badcc96-06b9-490a-b24c-480de9565385","system_id":"levelo_inurba_marseille","lat":43.28974,"lon":5.37826,"is_reserved":false,"is_disabled":false,"rental_uris":{"android":"levelo://app?vid=6badcc96-06b9-490a-b24c-480de9565385","ios":"levelo://app?vid=6badcc96-06b9-490a-b24c-480de9565385"},"vehicle_type_id":"4","last_reported":1727518116,"current_range_meters":38800,"station_id":"ce4bh9p2rcd13ifvqed0","pricing_plan_id":"cebpf4jnsgd1na2vs0mg"},{"bike_id":"3fb73846-5174-4169-906f-b76748d6391e","system_id":"levelo_inurba_marseille","lat":43.26574,"lon":5.39008,"is_reserved":false,"is_disabled":false,"rental_uris":{"android":"levelo://app?vid=3fb73846-5174-4169-906f-b76748d6391e","ios":"levelo://app?vid=3fb73846-5174-4169-906f-b76748d6391e"},"vehicle_type_id":"4","last_reported":1727518116,"current_range_meters":10000,"station_id":"ce4bhe12rcd13ifvqf30","pricing_plan_id":"cebpf4jnsgd1na2vs0mg"},{"bike_id":"569beabd-beb6-4b96-b586-3e2a1a8917ec","system_id":"levelo_inurba_marseille","lat":43.30416,"lon":5.41281,"is_reserved":false,"is_disabled":false,"rental_uris":{"android":"levelo://app?vid=569beabd-beb6-4b96-b586-3e2a1a8917ec","ios":"levelo://app?vid=569beabd-beb6-4b96-b586-3e2a1a8917ec"},"vehicle_type_id":"4","last_reported":1727518116,"current_range_meters":12000,"station_id":"ce4bhop2rcd13ifvqh8g","pricing_plan_id":"cebpf4jnsgd1na2vs0mg"},{"bike_id":"dc2e1b87-b490-4e01-b9a3-b4643555b824","system_id":"levelo_inurba_marseille","lat":43.30322,"lon":5.40435,"is_reserved":false,"is_disabled":false,"rental_uris":{"android":"levelo://app?vid=dc2e1b87-b490-4e01-b9a3-b4643555b824","ios":"levelo://app?vid=dc2e1b87-b490-4e01-b9a3-b4643555b824"},"vehicle_type_id":"4","last_reported":1727518116,"current_range_meters":3600,"station_id":"ce4bh012rcd13ifvqd10","pricing_plan_id":"cebpf4jnsgd1na2vs0mg"},{"bike_id":"02c6d3d8-077a-4c1a-ae87-92ce1ff0942b","system_id":"levelo_inurba_marseille","lat":43.23191,"lon":5.39987,"is_reserved":false,"is_disabled":false,"rental_uris":{"android":"levelo://app?vid=02c6d3d8-077a-4c1a-ae87-92ce1ff0942b","ios":"levelo://app?vid=02c6d3d8-077a-4c1a-ae87-92ce1ff0942b"},"vehicle_type_id":"4","last_reported":1727518116,"current_range_meters":22800,"station_id":"ce4bhn12rcd13ifvqgqg","pricing_plan_id":"cebpf4jnsgd1na2vs0mg"},{"bike_id":"86ab9e15-2330-4229-871b-cd4aa2f273d2","system_id":"levelo_inurba_marseille","lat":43.32817,"lon":5.40526,"is_reserved":false,"is_disabled":false,"rental_uris":{"android":"levelo://app?vid=86ab9e15-2330-4229-871b-cd4aa2f273d2","ios":"levelo://app?vid=86ab9e15-2330-4229-871b-cd4aa2f273d2"},"vehicle_type_id":"4","last_reported":1727518116,"current_range_meters":2800,"station_id":"","pricing_plan_id":"cebpf4jnsgd1na2vs0mg"},{"bike_id":"f2b491e4-9868-4e08-8b7d-d2bab33ba8ab","system_id":"levelo_inurba_marseille","lat":43.279114,"lon":5.417191,"is_reserved":false,"is_disabled":false,"rental_uris":{"android":"levelo://app?vid=f2b491e4-9868-4e08-8b7d-d2bab33ba8ab","ios":"levelo://app?vid=f2b491e4-9868-4e08-8b7d-d2bab33ba8ab"},"vehicle_type_id":"4","last_reported":1727518116,"current_range_meters":24000,"station_id":"ce4bhl12rcd13ifvqgf0","pricing_plan_id":"cebpf4jnsgd1na2vs0mg"},{"bike_id":"fd95b7d0-9465-4ced-a887-157866b5f796","system_id":"levelo_inurba_marseille","lat":43.28068,"lon":5.39652,"is_reserved":false,"is_disabled":false,"rental_uris":{"android":"levelo://app?vid=fd95b7d0-9465-4ced-a887-157866b5f796","ios":"levelo://app?vid=fd95b7d0-9465-4ced-a887-157866b5f796"},"vehicle_type_id":"4","last_reported":1727518116,"current_range_meters":38800,"station_id":"ce4bho12rcd13ifvqh2g","pricing_plan_id":"cebpf4jnsgd1na2vs0mg"},{"bike_id":"9d7d1a1a-b0b0-4ce6-8234-ec6247013cf8","system_id":"levelo_inurba_marseille","lat":43.27314,"lon":5.39079,"is_reserved":false,"is_disabled":false,"rental_uris":{"android":"levelo://app?vid=9d7d1a1a-b0b0-4ce6-8234-ec6247013cf8","ios":"levelo://app?vid=9d7d1a1a-b0b0-4ce6-8234-ec6247013cf8"},"vehicle_type_id":"4","last_reported":1727518116,"current_range_meters":6800,"station_id":"ce4bhgp2rcd13ifvqfe0","pricing_plan_id":"cebpf4jnsgd1na2vs0mg"},{"bike_id":"45fd1ca3-f52d-4cfd-a9c5-31e446d8d268","system_id":"levelo_inurba_marseille","lat":43.29865,"lon":5.39735,"is_reserved":false,"is_disabled":false,"rental_uris":{"android":"levelo://app?vid=45fd1ca3-f52d-4cfd-a9c5-31e446d8d268","ios":"levelo://app?vid=45fd1ca3-f52d-4cfd-a9c5-31e446d8d268"},"vehicle_type_id":"4","last_reported":1727518116,"current_range_meters":7200,"station_id":"ce4bh0h2rcd13ifvqd50","pricing_plan_id":"cebpf4jnsgd1na2vs0mg"},{"bike_id":"b524930a-dfe6-4e1e-b08f-61612fdfe01d","system_id":"levelo_inurba_marseille","lat":43.289948,"lon":5.38363,"is_reserved":false,"is_disabled":false,"rental_uris":{"android":"levelo://app?vid=b524930a-dfe6-4e1e-b08f-61612fdfe01d","ios":"levelo://app?vid=b524930a-dfe6-4e1e-b08f-61612fdfe01d"},"vehicle_type_id":"4","last_reported":1727518116,"current_range_meters":34800,"station_id":"ce4bh612rcd13ifvqe6g","pricing_plan_id":"cebpf4jnsgd1na2vs0mg"},{"bike_id":"c543638b-66db-4ba8-9e27-219e9fef5c8a","system_id":"levelo_inurba_marseille","lat":43.2783,"lon":5.39203,"is_reserved":false,"is_disabled":false,"rental_uris":{"android":"levelo://app?vid=c543638b-66db-4ba8-9e27-219e9fef5c8a","ios":"levelo://app?vid=c543638b-66db-4ba8-9e27-219e9fef5c8a"},"vehicle_type_id":"4","last_reported":1727518116,"current_range_meters":10800,"station_id":"ce4bhjp2rcd13ifvqga0","pricing_plan_id":"cebpf4jnsgd1na2vs0mg"},{"bike_id":"83ab67e9-9683-40ac-9b80-c07390469159","system_id":"levelo_inurba_marseille","lat":43.22928,"lon":5.35373,"is_reserved":false,"is_disabled":false,"rental_uris":{"android":"levelo://app?vid=83ab67e9-9683-40ac-9b80-c07390469159","ios":"levelo://app?vid=83ab67e9-9683-40ac-9b80-c07390469159"},"vehicle_type_id":"4","last_reported":1727518116,"current_range_meters":37600,"station_id":"cpo3532slgdg3j2ikp40","pricing_plan_id":"cebpf4jnsgd1na2vs0mg"},{"bike_id":"1b893d04-61f0-4747-8a4f-ae4e1314d15d","system_id":"levelo_inurba_marseille","lat":43.25088,"lon":5.39524,"is_reserved":false,"is_disabled":false,"rental_uris":{"android":"levelo://app?vid=1b893d04-61f0-4747-8a4f-ae4e1314d15d","ios":"levelo://app?vid=1b893d04-61f0-4747-8a4f-ae4e1314d15d"},"vehicle_type_id":"4","last_reported":1727518116,"current_range_meters":14000,"station_id":"ce4bhm12rcd13ifvqgkg","pricing_plan_id":"cebpf4jnsgd1na2vs0mg"},{"bike_id":"73d4b1b9-8fa7-45c3-b819-17c2aa182b44","system_id":"levelo_inurba_marseille","lat":43.2956,"lon":5.42284,"is_reserved":false,"is_disabled":false,"rental_uris":{"android":"levelo://app?vid=73d4b1b9-8fa7-45c3-b819-17c2aa182b44","ios":"levelo://app?vid=73d4b1b9-8fa7-45c3-b819-17c2aa182b44"},"vehicle_type_id":"4","last_reported":1727518116,"current_range_meters":10800,"station_id":"ce4bhph2rcd13ifvqhdg","pricing_plan_id":"cebpf4jnsgd1na2vs0mg"},{"bike_id":"8524a85f-8427-4a60-91b5-869fad39ff42","system_id":"levelo_inurba_marseille","lat":43.24994,"lon":5.38937,"is_reserved":false,"is_disabled":false,"rental_uris":{"android":"levelo://app?vid=8524a85f-8427-4a60-91b5-869fad39ff42","ios":"levelo://app?vid=8524a85f-8427-4a60-91b5-869fad39ff42"},"vehicle_type_id":"4","last_reported":1727518116,"current_range_meters":38000,"station_id":"ce4bhgp2rcd13ifvqfd0","pricing_plan_id":"cebpf4jnsgd1na2vs0mg"},{"bike_id":"3dcb4d19-9f2a-4c72-b340-cfe0fcbad6e1","system_id":"levelo_inurba_marseille","lat":43.25829,"lon":5.3943,"is_reserved":false,"is_disabled":false,"rental_uris":{"android":"levelo://app?vid=3dcb4d19-9f2a-4c72-b340-cfe0fcbad6e1","ios":"levelo://app?vid=3dcb4d19-9f2a-4c72-b340-cfe0fcbad6e1"},"vehicle_type_id":"4","last_reported":1727518116,"current_range_meters":37600,"station_id":"ce4bhip2rcd13ifvqft0","pricing_plan_id":"cebpf4jnsgd1na2vs0mg"},{"bike_id":"35a39ef3-c7c6-4f26-afe5-00e2a2ae56ce","system_id":"levelo_inurba_marseille","lat":43.29582,"lon":5.36742,"is_reserved":false,"is_disabled":false,"rental_uris":{"android":"levelo://app?vid=35a39ef3-c7c6-4f26-afe5-00e2a2ae56ce","ios":"levelo://app?vid=35a39ef3-c7c6-4f26-afe5-00e2a2ae56ce"},"vehicle_type_id":"4","last_reported":1727518116,"current_range_meters":20400,"station_id":"ce4bgph2rcd13ifvqc2g","pricing_plan_id":"cebpf4jnsgd1na2vs0mg"},{"bike_id":"6fb54eef-1b79-4c8c-956c-b78c5752a631","system_id":"levelo_inurba_marseille","lat":43.25822,"lon":5.39433,"is_reserved":false,"is_disabled":false,"rental_uris":{"android":"levelo://app?vid=6fb54eef-1b79-4c8c-956c-b78c5752a631","ios":"levelo://app?vid=6fb54eef-1b79-4c8c-956c-b78c5752a631"},"vehicle_type_id":"4","last_reported":1727518116,"current_range_meters":7200,"station_id":"ce4bhip2rcd13ifvqft0","pricing_plan_id":"cebpf4jnsgd1na2vs0mg"},{"bike_id":"ef224984-2ab9-4d86-890e-36bee26e486c","system_id":"levelo_inurba_marseille","lat":43.322484,"lon":5.38181,"is_reserved":false,"is_disabled":false,"rental_uris":{"android":"levelo://app?vid=ef224984-2ab9-4d86-890e-36bee26e486c","ios":"levelo://app?vid=ef224984-2ab9-4d86-890e-36bee26e486c"},"vehicle_type_id":"4","last_reported":1727518116,"current_range_meters":37600,"station_id":"","pricing_plan_id":"cebpf4jnsgd1na2vs0mg"},{"bike_id":"cd0ff3e3-3daa-42bc-9697-566bcaf7ff3a","system_id":"levelo_inurba_marseille","lat":43.33019,"lon":5.39035,"is_reserved":false,"is_disabled":false,"rental_uris":{"android":"levelo://app?vid=cd0ff3e3-3daa-42bc-9697-566bcaf7ff3a","ios":"levelo://app?vid=cd0ff3e3-3daa-42bc-9697-566bcaf7ff3a"},"vehicle_type_id":"4","last_reported":1727518116,"current_range_meters":39200,"station_id":"ce4bhr92rcd13ifvqhrg","pricing_plan_id":"cebpf4jnsgd1na2vs0mg"},{"bike_id":"16025923-429d-494d-bd7e-d552f9568daf","system_id":"levelo_inurba_marseille","lat":43.27201,"lon":5.39171,"is_reserved":false,"is_disabled":false,"rental_uris":{"android":"levelo://app?vid=16025923-429d-494d-bd7e-d552f9568daf","ios":"levelo://app?vid=16025923-429d-494d-bd7e-d552f9568daf"},"vehicle_type_id":"4","last_reported":1727518116,"current_range_meters":30800,"station_id":"ce4bhhp2rcd13ifvqfm0","pricing_plan_id":"cebpf4jnsgd1na2vs0mg"},{"bike_id":"7fab7451-a6e0-472b-81ac-3e5565e130d8","system_id":"levelo_inurba_marseille","lat":43.33752,"lon":5.37361,"is_reserved":false,"is_disabled":false,"rental_uris":{"android":"levelo://app?vid=7fab7451-a6e0-472b-81ac-3e5565e130d8","ios":"levelo://app?vid=7fab7451-a6e0-472b-81ac-3e5565e130d8"},"vehicle_type_id":"4","last_reported":1727518116,"current_range_meters":22800,"station_id":"","pricing_plan_id":"cebpf4jnsgd1na2vs0mg"},{"bike_id":"ccb0399a-af8d-4a08-a739-b071793d1a1b","system_id":"levelo_inurba_marseille","lat":43.31712,"lon":5.43704,"is_reserved":false,"is_disabled":false,"rental_uris":{"android":"levelo://app?vid=ccb0399a-af8d-4a08-a739-b071793d1a1b","ios":"levelo://app?vid=ccb0399a-af8d-4a08-a739-b071793d1a1b"},"vehicle_type_id":"4","last_reported":1727518116,"current_range_meters":22000,"station_id":"ce4bhp92rcd13ifvqhcg","pricing_plan_id":"cebpf4jnsgd1na2vs0mg"},{"bike_id":"06e383df-1197-449f-9df1-e723e6e5b745","system_id":"levelo_inurba_marseille","lat":43.23935,"lon":5.38277,"is_reserved":false,"is_disabled":false,"rental_uris":{"android":"levelo://app?vid=06e383df-1197-449f-9df1-e723e6e5b745","ios":"levelo://app?vid=06e383df-1197-449f-9df1-e723e6e5b745"},"vehicle_type_id":"4","last_reported":1727518116,"current_range_meters":8400,"station_id":"","pricing_plan_id":"cebpf4jnsgd1na2vs0mg"},{"bike_id":"e19c2211-331c-42ae-b78a-4ecc2a7133fe","system_id":"levelo_inurba_marseille","lat":43.24668,"lon":5.38157,"is_reserved":false,"is_disabled":false,"rental_uris":{"android":"levelo://app?vid=e19c2211-331c-42ae-b78a-4ecc2a7133fe","ios":"levelo://app?vid=e19c2211-331c-42ae-b78a-4ecc2a7133fe"},"vehicle_type_id":"4","last_reported":1727518116,"current_range_meters":38800,"station_id":"ce4bhih2rcd13ifvqfr0","pricing_plan_id":"cebpf4jnsgd1na2vs0mg"},{"bike_id":"6309b35e-70a6-4cf6-828d-1c3546ae70b2","system_id":"levelo_inurba_marseille","lat":43.29862,"lon":5.39733,"is_reserved":false,"is_disabled":false,"rental_uris":{"android":"levelo://app?vid=6309b35e-70a6-4cf6-828d-1c3546ae70b2","ios":"levelo://app?vid=6309b35e-70a6-4cf6-828d-1c3546ae70b2"},"vehicle_type_id":"4","last_reported":1727518116,"current_range_meters":35200,"station_id":"ce4bh0h2rcd13ifvqd50","pricing_plan_id":"cebpf4jnsgd1na2vs0mg"},{"bike_id":"53d3d543-4809-4f9c-a6c1-ced8bbb46e3b","system_id":"levelo_inurba_marseille","lat":43.24386,"lon":5.3705,"is_reserved":false,"is_disabled":false,"rental_uris":{"android":"levelo://app?vid=53d3d543-4809-4f9c-a6c1-ced8bbb46e3b","ios":"levelo://app?vid=53d3d543-4809-4f9c-a6c1-ced8bbb46e3b"},"vehicle_type_id":"4","last_reported":1727518116,"current_range_meters":39200,"station_id":"ce4bhhh2rcd13ifvqfk0","pricing_plan_id":"cebpf4jnsgd1na2vs0mg"},{"bike_id":"a00340c3-2a87-4b48-a268-ec041e1a44ab","system_id":"levelo_inurba_marseille","lat":43.337444,"lon":5.374475,"is_reserved":false,"is_disabled":false,"rental_uris":{"android":"levelo://app?vid=a00340c3-2a87-4b48-a268-ec041e1a44ab","ios":"levelo://app?vid=a00340c3-2a87-4b48-a268-ec041e1a44ab"},"vehicle_type_id":"4","last_reported":1727518116,"current_range_meters":12400,"station_id":"","pricing_plan_id":"cebpf4jnsgd1na2vs0mg"},{"bike_id":"85bea604-ee1a-4e44-ab64-edd92269dade","system_id":"levelo_inurba_marseille","lat":43.30162,"lon":5.38077,"is_reserved":false,"is_disabled":false,"rental_uris":{"android":"levelo://app?vid=85bea604-ee1a-4e44-ab64-edd92269dade","ios":"levelo://app?vid=85bea604-ee1a-4e44-ab64-edd92269dade"},"vehicle_type_id":"4","last_reported":1727518116,"current_range_meters":28400,"station_id":"ce4bgjp2rcd13ifvqbh0","pricing_plan_id":"cebpf4jnsgd1na2vs0mg"},{"bike_id":"d068d157-381d-413c-84d5-85045142d6df","system_id":"levelo_inurba_marseille","lat":43.24389,"lon":5.37057,"is_reserved":false,"is_disabled":false,"rental_uris":{"android":"levelo://app?vid=d068d157-381d-413c-84d5-85045142d6df","ios":"levelo://app?vid=d068d157-381d-413c-84d5-85045142d6df"},"vehicle_type_id":"4","last_reported":1727518116,"current_range_meters":39200,"station_id":"ce4bhhh2rcd13ifvqfk0","pricing_plan_id":"cebpf4jnsgd1na2vs0mg"},{"bike_id":"88c252b6-34e7-4889-9529-1e33eadcc1d0","system_id":"levelo_inurba_marseille","lat":43.27207,"lon":5.39178,"is_reserved":false,"is_disabled":false,"rental_uris":{"android":"levelo://app?vid=88c252b6-34e7-4889-9529-1e33eadcc1d0","ios":"levelo://app?vid=88c252b6-34e7-4889-9529-1e33eadcc1d0"},"vehicle_type_id":"4","last_reported":1727518116,"current_range_meters":36000,"station_id":"ce4bhhp2rcd13ifvqfm0","pricing_plan_id":"cebpf4jnsgd1na2vs0mg"},{"bike_id":"b87ca44e-7fb4-43a2-a32a-e830aa40ac33","system_id":"levelo_inurba_marseille","lat":43.29729,"lon":5.37692,"is_reserved":false,"is_disabled":false,"rental_uris":{"android":"levelo://app?vid=b87ca44e-7fb4-43a2-a32a-e830aa40ac33","ios":"levelo://app?vid=b87ca44e-7fb4-43a2-a32a-e830aa40ac33"},"vehicle_type_id":"4","last_reported":1727518116,"current_range_meters":18800,"station_id":"ce4bgkh2rcd13ifvqbl0","pricing_plan_id":"cebpf4jnsgd1na2vs0mg"},{"bike_id":"8fe46ecc-1e67-4f19-8b8d-10a6acd8bd0b","system_id":"levelo_inurba_marseille","lat":43.25989,"lon":5.38678,"is_reserved":false,"is_disabled":false,"rental_uris":{"android":"levelo://app?vid=8fe46ecc-1e67-4f19-8b8d-10a6acd8bd0b","ios":"levelo://app?vid=8fe46ecc-1e67-4f19-8b8d-10a6acd8bd0b"},"vehicle_type_id":"4","last_reported":1727518116,"current_range_meters":8800,"station_id":"","pricing_plan_id":"cebpf4jnsgd1na2vs0mg"},{"bike_id":"b1ff43b4-ce52-4ad6-9bb0-90397e2f56fd","system_id":"levelo_inurba_marseille","lat":43.30531,"lon":5.36548,"is_reserved":false,"is_disabled":false,"rental_uris":{"android":"levelo://app?vid=b1ff43b4-ce52-4ad6-9bb0-90397e2f56fd","ios":"levelo://app?vid=b1ff43b4-ce52-4ad6-9bb0-90397e2f56fd"},"vehicle_type_id":"4","last_reported":1727518116,"current_range_meters":7200,"station_id":"ce4bgs12rcd13ifvqcag","pricing_plan_id":"cebpf4jnsgd1na2vs0mg"},{"bike_id":"1fb05e0c-1aa8-4923-bcfc-382e516377f2","system_id":"levelo_inurba_marseille","lat":43.26942,"lon":5.40243,"is_reserved":false,"is_disabled":false,"rental_uris":{"android":"levelo://app?vid=1fb05e0c-1aa8-4923-bcfc-382e516377f2","ios":"levelo://app?vid=1fb05e0c-1aa8-4923-bcfc-382e516377f2"},"vehicle_type_id":"4","last_reported":1727518116,"current_range_meters":8800,"station_id":"cjm6bp8fraef2m0cb0m0","pricing_plan_id":"cebpf4jnsgd1na2vs0mg"},{"bike_id":"9663fbf7-8c9e-4cf3-95bb-748c9957057e","system_id":"levelo_inurba_marseille","lat":43.33765,"lon":5.3745,"is_reserved":false,"is_disabled":false,"rental_uris":{"android":"levelo://app?vid=9663fbf7-8c9e-4cf3-95bb-748c9957057e","ios":"levelo://app?vid=9663fbf7-8c9e-4cf3-95bb-748c9957057e"},"vehicle_type_id":"4","last_reported":1727518116,"current_range_meters":24400,"station_id":"","pricing_plan_id":"cebpf4jnsgd1na2vs0mg"},{"bike_id":"d831b994-aff8-4204-9b5c-2d2a5404eb85","system_id":"levelo_inurba_marseille","lat":43.24545,"lon":5.39521,"is_reserved":false,"is_disabled":false,"rental_uris":{"android":"levelo://app?vid=d831b994-aff8-4204-9b5c-2d2a5404eb85","ios":"levelo://app?vid=d831b994-aff8-4204-9b5c-2d2a5404eb85"},"vehicle_type_id":"4","last_reported":1727518116,"current_range_meters":29600,"station_id":"ce4bhlp2rcd13ifvqgjg","pricing_plan_id":"cebpf4jnsgd1na2vs0mg"},{"bike_id":"9d214859-c279-42fe-99f7-b2f6ade3f107","system_id":"levelo_inurba_marseille","lat":43.30461,"lon":5.37907,"is_reserved":false,"is_disabled":false,"rental_uris":{"android":"levelo://app?vid=9d214859-c279-42fe-99f7-b2f6ade3f107","ios":"levelo://app?vid=9d214859-c279-42fe-99f7-b2f6ade3f107"},"vehicle_type_id":"4","last_reported":1727518116,"current_range_meters":38000,"station_id":"ce4bgup2rcd13ifvqcn0","pricing_plan_id":"cebpf4jnsgd1na2vs0mg"},{"bike_id":"afe5fcf5-fe1a-4d30-bfcd-4452c0d39cee","system_id":"levelo_inurba_marseille","lat":43.30149,"lon":5.38095,"is_reserved":false,"is_disabled":false,"rental_uris":{"android":"levelo://app?vid=afe5fcf5-fe1a-4d30-bfcd-4452c0d39cee","ios":"levelo://app?vid=afe5fcf5-fe1a-4d30-bfcd-4452c0d39cee"},"vehicle_type_id":"4","last_reported":1727518116,"current_range_meters":34000,"station_id":"ce4bgjp2rcd13ifvqbh0","pricing_plan_id":"cebpf4jnsgd1na2vs0mg"},{"bike_id":"476a9c50-f0f0-41a2-ab41-be41dc8de349","system_id":"levelo_inurba_marseille","lat":43.295319,"lon":5.38541,"is_reserved":false,"is_disabled":false,"rental_uris":{"android":"levelo://app?vid=476a9c50-f0f0-41a2-ab41-be41dc8de349","ios":"levelo://app?vid=476a9c50-f0f0-41a2-ab41-be41dc8de349"},"vehicle_type_id":"4","last_reported":1727518116,"current_range_meters":32000,"station_id":"ce4bgih2rcd13ifvqba0","pricing_plan_id":"cebpf4jnsgd1na2vs0mg"},{"bike_id":"e70a85af-042c-45b9-b461-16d315ee70d5","system_id":"levelo_inurba_marseille","lat":43.30559,"lon":5.36543,"is_reserved":false,"is_disabled":false,"rental_uris":{"android":"levelo://app?vid=e70a85af-042c-45b9-b461-16d315ee70d5","ios":"levelo://app?vid=e70a85af-042c-45b9-b461-16d315ee70d5"},"vehicle_type_id":"4","last_reported":1727518116,"current_range_meters":38400,"station_id":"ce4bgs12rcd13ifvqcag","pricing_plan_id":"cebpf4jnsgd1na2vs0mg"},{"bike_id":"93b592c1-3637-4418-88f1-149375efabc7","system_id":"levelo_inurba_marseille","lat":43.30768,"lon":5.37655,"is_reserved":false,"is_disabled":false,"rental_uris":{"android":"levelo://app?vid=93b592c1-3637-4418-88f1-149375efabc7","ios":"levelo://app?vid=93b592c1-3637-4418-88f1-149375efabc7"},"vehicle_type_id":"4","last_reported":1727518116,"current_range_meters":34000,"station_id":"ce4bgv92rcd13ifvqcq0","pricing_plan_id":"cebpf4jnsgd1na2vs0mg"},{"bike_id":"04af9991-7a71-4202-8523-21caad46978f","system_id":"levelo_inurba_marseille","lat":43.32336,"lon":5.40628,"is_reserved":false,"is_disabled":false,"rental_uris":{"android":"levelo://app?vid=04af9991-7a71-4202-8523-21caad46978f","ios":"levelo://app?vid=04af9991-7a71-4202-8523-21caad46978f"},"vehicle_type_id":"4","last_reported":1727518116,"current_range_meters":37600,"station_id":"ce4bhq92rcd13ifvqhjg","pricing_plan_id":"cebpf4jnsgd1na2vs0mg"},{"bike_id":"34210d1e-5120-452f-8bf4-0caac563929f","system_id":"levelo_inurba_marseille","lat":43.23184,"lon":5.39987,"is_reserved":false,"is_disabled":false,"rental_uris":{"android":"levelo://app?vid=34210d1e-5120-452f-8bf4-0caac563929f","ios":"levelo://app?vid=34210d1e-5120-452f-8bf4-0caac563929f"},"vehicle_type_id":"4","last_reported":1727518116,"current_range_meters":21600,"station_id":"ce4bhn12rcd13ifvqgqg","pricing_plan_id":"cebpf4jnsgd1na2vs0mg"},{"bike_id":"869403bb-4fcc-4f66-8ec3-05c3e0e700b7","system_id":"levelo_inurba_marseille","lat":43.27426,"lon":5.39412,"is_reserved":false,"is_disabled":false,"rental_uris":{"android":"levelo://app?vid=869403bb-4fcc-4f66-8ec3-05c3e0e700b7","ios":"levelo://app?vid=869403bb-4fcc-4f66-8ec3-05c3e0e700b7"},"vehicle_type_id":"4","last_reported":1727518116,"current_range_meters":40000,"station_id":"ce4bhdp2rcd13ifvqf20","pricing_plan_id":"cebpf4jnsgd1na2vs0mg"},{"bike_id":"c7662f29-d977-460a-81ef-ae899ee53108","system_id":"levelo_inurba_marseille","lat":43.24549,"lon":5.39522,"is_reserved":false,"is_disabled":false,"rental_uris":{"android":"levelo://app?vid=c7662f29-d977-460a-81ef-ae899ee53108","ios":"levelo://app?vid=c7662f29-d977-460a-81ef-ae899ee53108"},"vehicle_type_id":"4","last_reported":1727518116,"current_range_meters":14800,"station_id":"ce4bhlp2rcd13ifvqgjg","pricing_plan_id":"cebpf4jnsgd1na2vs0mg"},{"bike_id":"2cbc9e6c-88f8-4917-a839-56ca300cece2","system_id":"levelo_inurba_marseille","lat":43.28612,"lon":5.37063,"is_reserved":false,"is_disabled":false,"rental_uris":{"android":"levelo://app?vid=2cbc9e6c-88f8-4917-a839-56ca300cece2","ios":"levelo://app?vid=2cbc9e6c-88f8-4917-a839-56ca300cece2"},"vehicle_type_id":"4","last_reported":1727518116,"current_range_meters":25200,"station_id":"ce4bht12rcd13ifvqi60","pricing_plan_id":"cebpf4jnsgd1na2vs0mg"},{"bike_id":"42c29691-2fc8-42c6-8cf2-6e1e331d9372","system_id":"levelo_inurba_marseille","lat":43.28152,"lon":5.42644,"is_reserved":false,"is_disabled":false,"rental_uris":{"android":"levelo://app?vid=42c29691-2fc8-42c6-8cf2-6e1e331d9372","ios":"levelo://app?vid=42c29691-2fc8-42c6-8cf2-6e1e331d9372"},"vehicle_type_id":"4","last_reported":1727518116,"current_range_meters":34800,"station_id":"ce4bhnh2rcd13ifvqgug","pricing_plan_id":"cebpf4jnsgd1na2vs0mg"},{"bike_id":"36b9b5d7-7d3f-45f7-a93d-9dcbd5e92dc3","system_id":"levelo_inurba_marseille","lat":43.30422,"lon":5.38883,"is_reserved":false,"is_disabled":false,"rental_uris":{"android":"levelo://app?vid=36b9b5d7-7d3f-45f7-a93d-9dcbd5e92dc3","ios":"levelo://app?vid=36b9b5d7-7d3f-45f7-a93d-9dcbd5e92dc3"},"vehicle_type_id":"4","last_reported":1727518116,"current_range_meters":35600,"station_id":"ce4bgk12rcd13ifvqbi0","pricing_plan_id":"cebpf4jnsgd1na2vs0mg"},{"bike_id":"8fa167c6-7fc8-43e4-8eaf-0c8cfab4b094","system_id":"levelo_inurba_marseille","lat":43.23055,"lon":5.35489,"is_reserved":false,"is_disabled":false,"rental_uris":{"android":"levelo://app?vid=8fa167c6-7fc8-43e4-8eaf-0c8cfab4b094","ios":"levelo://app?vid=8fa167c6-7fc8-43e4-8eaf-0c8cfab4b094"},"vehicle_type_id":"4","last_reported":1727518116,"current_range_meters":1600,"station_id":"cpo3342slgdg3j2ifvpg","pricing_plan_id":"cebpf4jnsgd1na2vs0mg"},{"bike_id":"29fffc0f-5ee1-49fd-b093-b8286cc6dbdb","system_id":"levelo_inurba_marseille","lat":43.27814,"lon":5.40712,"is_reserved":false,"is_disabled":false,"rental_uris":{"android":"levelo://app?vid=29fffc0f-5ee1-49fd-b093-b8286cc6dbdb","ios":"levelo://app?vid=29fffc0f-5ee1-49fd-b093-b8286cc6dbdb"},"vehicle_type_id":"4","last_reported":1727518116,"current_range_meters":28800,"station_id":"ce4bhnh2rcd13ifvqgtg","pricing_plan_id":"cebpf4jnsgd1na2vs0mg"},{"bike_id":"cf2a99f0-171d-46e2-b5f9-b8e518581e33","system_id":"levelo_inurba_marseille","lat":43.23962,"lon":5.36625,"is_reserved":false,"is_disabled":false,"rental_uris":{"android":"levelo://app?vid=cf2a99f0-171d-46e2-b5f9-b8e518581e33","ios":"levelo://app?vid=cf2a99f0-171d-46e2-b5f9-b8e518581e33"},"vehicle_type_id":"4","last_reported":1727518116,"current_range_meters":38000,"station_id":"ce4bhi12rcd13ifvqfp0","pricing_plan_id":"cebpf4jnsgd1na2vs0mg"},{"bike_id":"92209333-4c80-4a5b-b959-847caf979aca","system_id":"levelo_inurba_marseille","lat":43.24648,"lon":5.389,"is_reserved":false,"is_disabled":false,"rental_uris":{"android":"levelo://app?vid=92209333-4c80-4a5b-b959-847caf979aca","ios":"levelo://app?vid=92209333-4c80-4a5b-b959-847caf979aca"},"vehicle_type_id":"4","last_reported":1727518116,"current_range_meters":24400,"station_id":"ce4bhg12rcd13ifvqf60","pricing_plan_id":"cebpf4jnsgd1na2vs0mg"},{"bike_id":"9813bfbe-daed-4c00-ace9-0d66d2e83d16","system_id":"levelo_inurba_marseille","lat":43.23143,"lon":5.4372,"is_reserved":false,"is_disabled":false,"rental_uris":{"android":"levelo://app?vid=9813bfbe-daed-4c00-ace9-0d66d2e83d16","ios":"levelo://app?vid=9813bfbe-daed-4c00-ace9-0d66d2e83d16"},"vehicle_type_id":"4","last_reported":1727518116,"current_range_meters":28000,"station_id":"ce4bhmp2rcd13ifvqgog","pricing_plan_id":"cebpf4jnsgd1na2vs0mg"},{"bike_id":"6cc42402-9f8b-44e6-8a47-6d3ace59029f","system_id":"levelo_inurba_marseille","lat":43.29358,"lon":5.37859,"is_reserved":false,"is_disabled":false,"rental_uris":{"android":"levelo://app?vid=6cc42402-9f8b-44e6-8a47-6d3ace59029f","ios":"levelo://app?vid=6cc42402-9f8b-44e6-8a47-6d3ace59029f"},"vehicle_type_id":"4","last_reported":1727518116,"current_range_meters":32800,"station_id":"ce4bgjh2rcd13ifvqbf0","pricing_plan_id":"cebpf4jnsgd1na2vs0mg"},{"bike_id":"7705500d-94da-4a6c-8415-d2bda081b546","system_id":"levelo_inurba_marseille","lat":43.254853,"lon":5.376478,"is_reserved":false,"is_disabled":false,"rental_uris":{"android":"levelo://app?vid=7705500d-94da-4a6c-8415-d2bda081b546","ios":"levelo://app?vid=7705500d-94da-4a6c-8415-d2bda081b546"},"vehicle_type_id":"4","last_reported":1727518116,"current_range_meters":36400,"station_id":"ce4bhh12rcd13ifvqff0","pricing_plan_id":"cebpf4jnsgd1na2vs0mg"},{"bike_id":"ef085059-2a97-4d4d-895b-03a4443405aa","system_id":"levelo_inurba_marseille","lat":43.30209,"lon":5.39466,"is_reserved":false,"is_disabled":false,"rental_uris":{"android":"levelo://app?vid=ef085059-2a97-4d4d-895b-03a4443405aa","ios":"levelo://app?vid=ef085059-2a97-4d4d-895b-03a4443405aa"},"vehicle_type_id":"4","last_reported":1727518116,"current_range_meters":38000,"station_id":"ce4bh0p2rcd13ifvqd70","pricing_plan_id":"cebpf4jnsgd1na2vs0mg"},{"bike_id":"e173e9bf-3b91-451c-8346-16cb54836af9","system_id":"levelo_inurba_marseille","lat":43.24389,"lon":5.37055,"is_reserved":false,"is_disabled":false,"rental_uris":{"android":"levelo://app?vid=e173e9bf-3b91-451c-8346-16cb54836af9","ios":"levelo://app?vid=e173e9bf-3b91-451c-8346-16cb54836af9"},"vehicle_type_id":"4","last_reported":1727518116,"current_range_meters":39200,"station_id":"ce4bhhh2rcd13ifvqfk0","pricing_plan_id":"cebpf4jnsgd1na2vs0mg"},{"bike_id":"a432ff7a-2016-4e49-8a29-d8479a5632ba","system_id":"levelo_inurba_marseille","lat":43.30942,"lon":5.39031,"is_reserved":false,"is_disabled":false,"rental_uris":{"android":"levelo://app?vid=a432ff7a-2016-4e49-8a29-d8479a5632ba","ios":"levelo://app?vid=a432ff7a-2016-4e49-8a29-d8479a5632ba"},"vehicle_type_id":"4","last_reported":1727518116,"current_range_meters":34800,"station_id":"ce4bgup2rcd13ifvqco0","pricing_plan_id":"cebpf4jnsgd1na2vs0mg"},{"bike_id":"66090a2d-c8e8-444b-97ee-580cb870764a","system_id":"levelo_inurba_marseille","lat":43.27307,"lon":5.39105,"is_reserved":false,"is_disabled":false,"rental_uris":{"android":"levelo://app?vid=66090a2d-c8e8-444b-97ee-580cb870764a","ios":"levelo://app?vid=66090a2d-c8e8-444b-97ee-580cb870764a"},"vehicle_type_id":"4","last_reported":1727518116,"current_range_meters":8000,"station_id":"ce4bhgp2rcd13ifvqfe0","pricing_plan_id":"cebpf4jnsgd1na2vs0mg"},{"bike_id":"0b55a54a-cb93-429c-895c-43a1c40cd808","system_id":"levelo_inurba_marseille","lat":43.29271,"lon":5.36839,"is_reserved":false,"is_disabled":false,"rental_uris":{"android":"levelo://app?vid=0b55a54a-cb93-429c-895c-43a1c40cd808","ios":"levelo://app?vid=0b55a54a-cb93-429c-895c-43a1c40cd808"},"vehicle_type_id":"4","last_reported":1727518116,"current_range_meters":38800,"station_id":"ce4bhbp2rcd13ifvqesg","pricing_plan_id":"cebpf4jnsgd1na2vs0mg"},{"bike_id":"2fe97347-d74b-4853-a175-570a52cf3516","system_id":"levelo_inurba_marseille","lat":43.29619,"lon":5.37157,"is_reserved":false,"is_disabled":false,"rental_uris":{"android":"levelo://app?vid=2fe97347-d74b-4853-a175-570a52cf3516","ios":"levelo://app?vid=2fe97347-d74b-4853-a175-570a52cf3516"},"vehicle_type_id":"4","last_reported":1727518116,"current_range_meters":38800,"station_id":"ce4bgnh2rcd13ifvqc0g","pricing_plan_id":"cebpf4jnsgd1na2vs0mg"},{"bike_id":"2136dc8f-b3dd-481b-af5c-ffa324e4a411","system_id":"levelo_inurba_marseille","lat":43.25579,"lon":5.38239,"is_reserved":false,"is_disabled":false,"rental_uris":{"android":"levelo://app?vid=2136dc8f-b3dd-481b-af5c-ffa324e4a411","ios":"levelo://app?vid=2136dc8f-b3dd-481b-af5c-ffa324e4a411"},"vehicle_type_id":"4","last_reported":1727518116,"current_range_meters":32400,"station_id":"ce4bhih2rcd13ifvqfs0","pricing_plan_id":"cebpf4jnsgd1na2vs0mg"},{"bike_id":"b9e2b4aa-28ee-4efe-8026-e893fe34ba55","system_id":"levelo_inurba_marseille","lat":43.29566,"lon":5.37512,"is_reserved":false,"is_disabled":false,"rental_uris":{"android":"levelo://app?vid=b9e2b4aa-28ee-4efe-8026-e893fe34ba55","ios":"levelo://app?vid=b9e2b4aa-28ee-4efe-8026-e893fe34ba55"},"vehicle_type_id":"4","last_reported":1727518116,"current_range_meters":26000,"station_id":"ce4bgh92rcd13ifvqb50","pricing_plan_id":"cebpf4jnsgd1na2vs0mg"},{"bike_id":"cef7b0e4-df87-48ab-b380-59c7db40cc58","system_id":"levelo_inurba_marseille","lat":43.29844,"lon":5.36274,"is_reserved":false,"is_disabled":false,"rental_uris":{"android":"levelo://app?vid=cef7b0e4-df87-48ab-b380-59c7db40cc58","ios":"levelo://app?vid=cef7b0e4-df87-48ab-b380-59c7db40cc58"},"vehicle_type_id":"4","last_reported":1727518116,"current_range_meters":8800,"station_id":"ce4bgpp2rcd13ifvqc3g","pricing_plan_id":"cebpf4jnsgd1na2vs0mg"},{"bike_id":"71b65365-44a7-49d8-9865-622c311209c8","system_id":"levelo_inurba_marseille","lat":43.3015,"lon":5.38089,"is_reserved":false,"is_disabled":false,"rental_uris":{"android":"levelo://app?vid=71b65365-44a7-49d8-9865-622c311209c8","ios":"levelo://app?vid=71b65365-44a7-49d8-9865-622c311209c8"},"vehicle_type_id":"4","last_reported":1727518116,"current_range_meters":39200,"station_id":"ce4bgjp2rcd13ifvqbh0","pricing_plan_id":"cebpf4jnsgd1na2vs0mg"},{"bike_id":"31d3c74d-f20a-4edf-9c40-1231eb4e8f43","system_id":"levelo_inurba_marseille","lat":43.29731,"lon":5.37677,"is_reserved":false,"is_disabled":false,"rental_uris":{"android":"levelo://app?vid=31d3c74d-f20a-4edf-9c40-1231eb4e8f43","ios":"levelo://app?vid=31d3c74d-f20a-4edf-9c40-1231eb4e8f43"},"vehicle_type_id":"4","last_reported":1727518116,"current_range_meters":38800,"station_id":"ce4bgkh2rcd13ifvqbl0","pricing_plan_id":"cebpf4jnsgd1na2vs0mg"},{"bike_id":"686ead0b-86f9-4780-a299-c14a9bae16e5","system_id":"levelo_inurba_marseille","lat":43.29001,"lon":5.35608,"is_reserved":false,"is_disabled":false,"rental_uris":{"android":"levelo://app?vid=686ead0b-86f9-4780-a299-c14a9bae16e5","ios":"levelo://app?vid=686ead0b-86f9-4780-a299-c14a9bae16e5"},"vehicle_type_id":"4","last_reported":1727518116,"current_range_meters":23200,"station_id":"ce4bhb92rcd13ifvqen0","pricing_plan_id":"cebpf4jnsgd1na2vs0mg"},{"bike_id":"2ae6ccef-710d-4c66-9e4e-d025d2e134a8","system_id":"levelo_inurba_marseille","lat":43.29573,"lon":5.37508,"is_reserved":false,"is_disabled":false,"rental_uris":{"android":"levelo://app?vid=2ae6ccef-710d-4c66-9e4e-d025d2e134a8","ios":"levelo://app?vid=2ae6ccef-710d-4c66-9e4e-d025d2e134a8"},"vehicle_type_id":"4","last_reported":1727518116,"current_range_meters":29600,"station_id":"ce4bgh92rcd13ifvqb50","pricing_plan_id":"cebpf4jnsgd1na2vs0mg"},{"bike_id":"144bc24b-c2f7-44f0-a3bd-99371a0e04b8","system_id":"levelo_inurba_marseille","lat":43.29532,"lon":5.37498,"is_reserved":false,"is_disabled":false,"rental_uris":{"android":"levelo://app?vid=144bc24b-c2f7-44f0-a3bd-99371a0e04b8","ios":"levelo://app?vid=144bc24b-c2f7-44f0-a3bd-99371a0e04b8"},"vehicle_type_id":"4","last_reported":1727518116,"current_range_meters":38800,"station_id":"ce4bgkp2rcd13ifvqbmg","pricing_plan_id":"cebpf4jnsgd1na2vs0mg"},{"bike_id":"8bc2963e-f24d-4af4-8d3d-ee0a94762b5c","system_id":"levelo_inurba_marseille","lat":43.24996,"lon":5.38934,"is_reserved":false,"is_disabled":false,"rental_uris":{"android":"levelo://app?vid=8bc2963e-f24d-4af4-8d3d-ee0a94762b5c","ios":"levelo://app?vid=8bc2963e-f24d-4af4-8d3d-ee0a94762b5c"},"vehicle_type_id":"4","last_reported":1727518116,"current_range_meters":19600,"station_id":"ce4bhgp2rcd13ifvqfd0","pricing_plan_id":"cebpf4jnsgd1na2vs0mg"},{"bike_id":"8f7b2d28-1b4b-4179-8dd5-892a567a6607","system_id":"levelo_inurba_marseille","lat":43.29714,"lon":5.36612,"is_reserved":false,"is_disabled":false,"rental_uris":{"android":"levelo://app?vid=8f7b2d28-1b4b-4179-8dd5-892a567a6607","ios":"levelo://app?vid=8f7b2d28-1b4b-4179-8dd5-892a567a6607"},"vehicle_type_id":"4","last_reported":1727518116,"current_range_meters":26800,"station_id":"ce4bgn12rcd13ifvqbt0","pricing_plan_id":"cebpf4jnsgd1na2vs0mg"},{"bike_id":"826bfe9e-73e8-41ac-99fb-30c565ef531e","system_id":"levelo_inurba_marseille","lat":43.28946,"lon":5.39635,"is_reserved":false,"is_disabled":false,"rental_uris":{"android":"levelo://app?vid=826bfe9e-73e8-41ac-99fb-30c565ef531e","ios":"levelo://app?vid=826bfe9e-73e8-41ac-99fb-30c565ef531e"},"vehicle_type_id":"4","last_reported":1727518116,"current_range_meters":3600,"station_id":"ce4bh3h2rcd13ifvqdn0","pricing_plan_id":"cebpf4jnsgd1na2vs0mg"},{"bike_id":"de8323f9-d012-4d9c-b01c-767c8be9d592","system_id":"levelo_inurba_marseille","lat":43.26551,"lon":5.37286,"is_reserved":false,"is_disabled":false,"rental_uris":{"android":"levelo://app?vid=de8323f9-d012-4d9c-b01c-767c8be9d592","ios":"levelo://app?vid=de8323f9-d012-4d9c-b01c-767c8be9d592"},"vehicle_type_id":"4","last_reported":1727518116,"current_range_meters":38800,"station_id":"ce4bhg12rcd13ifvqf70","pricing_plan_id":"cebpf4jnsgd1na2vs0mg"},{"bike_id":"bf15cf37-3a4c-4635-b28c-358f55c15bae","system_id":"levelo_inurba_marseille","lat":43.33739,"lon":5.37468,"is_reserved":false,"is_disabled":false,"rental_uris":{"android":"levelo://app?vid=bf15cf37-3a4c-4635-b28c-358f55c15bae","ios":"levelo://app?vid=bf15cf37-3a4c-4635-b28c-358f55c15bae"},"vehicle_type_id":"4","last_reported":1727518116,"current_range_meters":25200,"station_id":"","pricing_plan_id":"cebpf4jnsgd1na2vs0mg"},{"bike_id":"cd2327c7-af60-4af9-9eff-465722c02c8b","system_id":"levelo_inurba_marseille","lat":43.33617,"lon":5.41018,"is_reserved":false,"is_disabled":false,"rental_uris":{"android":"levelo://app?vid=cd2327c7-af60-4af9-9eff-465722c02c8b","ios":"levelo://app?vid=cd2327c7-af60-4af9-9eff-465722c02c8b"},"vehicle_type_id":"4","last_reported":1727518116,"current_range_meters":9200,"station_id":"ce4bhqh2rcd13ifvqhmg","pricing_plan_id":"cebpf4jnsgd1na2vs0mg"},{"bike_id":"18f4be4d-ea10-4ba9-8b8f-8f36b3fce747","system_id":"levelo_inurba_marseille","lat":43.29928,"lon":5.365503,"is_reserved":false,"is_disabled":false,"rental_uris":{"android":"levelo://app?vid=18f4be4d-ea10-4ba9-8b8f-8f36b3fce747","ios":"levelo://app?vid=18f4be4d-ea10-4ba9-8b8f-8f36b3fce747"},"vehicle_type_id":"4","last_reported":1727518116,"current_range_meters":36000,"station_id":"ce4bgm92rcd13ifvqbr0","pricing_plan_id":"cebpf4jnsgd1na2vs0mg"},{"bike_id":"6aa95821-8b44-42f3-9d07-8b4a4001e2b1","system_id":"levelo_inurba_marseille","lat":43.23963,"lon":5.36618,"is_reserved":false,"is_disabled":false,"rental_uris":{"android":"levelo://app?vid=6aa95821-8b44-42f3-9d07-8b4a4001e2b1","ios":"levelo://app?vid=6aa95821-8b44-42f3-9d07-8b4a4001e2b1"},"vehicle_type_id":"4","last_reported":1727518116,"current_range_meters":34000,"station_id":"ce4bhi12rcd13ifvqfp0","pricing_plan_id":"cebpf4jnsgd1na2vs0mg"},{"bike_id":"51870931-c5a1-4480-846a-13af532df7a7","system_id":"levelo_inurba_marseille","lat":43.31758,"lon":5.39016,"is_reserved":false,"is_disabled":false,"rental_uris":{"android":"levelo://app?vid=51870931-c5a1-4480-846a-13af532df7a7","ios":"levelo://app?vid=51870931-c5a1-4480-846a-13af532df7a7"},"vehicle_type_id":"4","last_reported":1727518116,"current_range_meters":29600,"station_id":"ce4bhqp2rcd13ifvqhng","pricing_plan_id":"cebpf4jnsgd1na2vs0mg"},{"bike_id":"a63d4449-4f5a-4f1c-9a3c-27c8d74bd2a3","system_id":"levelo_inurba_marseille","lat":43.2439,"lon":5.37066,"is_reserved":false,"is_disabled":false,"rental_uris":{"android":"levelo://app?vid=a63d4449-4f5a-4f1c-9a3c-27c8d74bd2a3","ios":"levelo://app?vid=a63d4449-4f5a-4f1c-9a3c-27c8d74bd2a3"},"vehicle_type_id":"4","last_reported":1727518116,"current_range_meters":16800,"station_id":"ce4bhhh2rcd13ifvqfk0","pricing_plan_id":"cebpf4jnsgd1na2vs0mg"},{"bike_id":"6b525450-4099-4e0b-bd11-2a201e3d7d9e","system_id":"levelo_inurba_marseille","lat":43.29172,"lon":5.37138,"is_reserved":false,"is_disabled":false,"rental_uris":{"android":"levelo://app?vid=6b525450-4099-4e0b-bd11-2a201e3d7d9e","ios":"levelo://app?vid=6b525450-4099-4e0b-bd11-2a201e3d7d9e"},"vehicle_type_id":"4","last_reported":1727518116,"current_range_meters":4400,"station_id":"ce4bha92rcd13ifvqeh0","pricing_plan_id":"cebpf4jnsgd1na2vs0mg"},{"bike_id":"e7caf543-5d44-4982-8ed7-9b4db597da7d","system_id":"levelo_inurba_marseille","lat":43.29648,"lon":5.37713,"is_reserved":false,"is_disabled":false,"rental_uris":{"android":"levelo://app?vid=e7caf543-5d44-4982-8ed7-9b4db597da7d","ios":"levelo://app?vid=e7caf543-5d44-4982-8ed7-9b4db597da7d"},"vehicle_type_id":"4","last_reported":1727518116,"current_range_meters":25600,"station_id":"ce4bgi92rcd13ifvqb90","pricing_plan_id":"cebpf4jnsgd1na2vs0mg"},{"bike_id":"4fa6380c-92e1-4c5a-b6fc-d4fbb06bf77e","system_id":"levelo_inurba_marseille","lat":43.2962,"lon":5.37716,"is_reserved":false,"is_disabled":false,"rental_uris":{"android":"levelo://app?vid=4fa6380c-92e1-4c5a-b6fc-d4fbb06bf77e","ios":"levelo://app?vid=4fa6380c-92e1-4c5a-b6fc-d4fbb06bf77e"},"vehicle_type_id":"4","last_reported":1727518116,"current_range_meters":22400,"station_id":"ce4bgi92rcd13ifvqb90","pricing_plan_id":"cebpf4jnsgd1na2vs0mg"},{"bike_id":"1e15bf70-5574-46f7-9a3e-96ac67eeac31","system_id":"levelo_inurba_marseille","lat":43.27054,"lon":5.40258,"is_reserved":false,"is_disabled":false,"rental_uris":{"android":"levelo://app?vid=1e15bf70-5574-46f7-9a3e-96ac67eeac31","ios":"levelo://app?vid=1e15bf70-5574-46f7-9a3e-96ac67eeac31"},"vehicle_type_id":"4","last_reported":1727518116,"current_range_meters":26000,"station_id":"ce4bhk92rcd13ifvqgc0","pricing_plan_id":"cebpf4jnsgd1na2vs0mg"},{"bike_id":"fd95c545-bbb0-4d3e-9028-2e7fcf9983de","system_id":"levelo_inurba_marseille","lat":43.29189,"lon":5.35803,"is_reserved":false,"is_disabled":false,"rental_uris":{"android":"levelo://app?vid=fd95c545-bbb0-4d3e-9028-2e7fcf9983de","ios":"levelo://app?vid=fd95c545-bbb0-4d3e-9028-2e7fcf9983de"},"vehicle_type_id":"4","last_reported":1727518116,"current_range_meters":38000,"station_id":"ce4bhb12rcd13ifvqel0","pricing_plan_id":"cebpf4jnsgd1na2vs0mg"},{"bike_id":"bf4babc3-d8e1-4008-9a0f-c8606ba7f89d","system_id":"levelo_inurba_marseille","lat":43.26196,"lon":5.3745,"is_reserved":false,"is_disabled":false,"rental_uris":{"android":"levelo://app?vid=bf4babc3-d8e1-4008-9a0f-c8606ba7f89d","ios":"levelo://app?vid=bf4babc3-d8e1-4008-9a0f-c8606ba7f89d"},"vehicle_type_id":"4","last_reported":1727518116,"current_range_meters":38800,"station_id":"ce4bhgp2rcd13ifvqfc0","pricing_plan_id":"cebpf4jnsgd1na2vs0mg"},{"bike_id":"cbf6de2b-f3aa-47b1-b337-1649217f178e","system_id":"levelo_inurba_marseille","lat":43.29056,"lon":5.35932,"is_reserved":false,"is_disabled":false,"rental_uris":{"android":"levelo://app?vid=cbf6de2b-f3aa-47b1-b337-1649217f178e","ios":"levelo://app?vid=cbf6de2b-f3aa-47b1-b337-1649217f178e"},"vehicle_type_id":"4","last_reported":1727518116,"current_range_meters":38000,"station_id":"ce4bha92rcd13ifvqeg0","pricing_plan_id":"cebpf4jnsgd1na2vs0mg"},{"bike_id":"e40f15b1-61f8-4c36-babb-e0e97df9c7d0","system_id":"levelo_inurba_marseille","lat":43.29704,"lon":5.377,"is_reserved":false,"is_disabled":false,"rental_uris":{"android":"levelo://app?vid=e40f15b1-61f8-4c36-babb-e0e97df9c7d0","ios":"levelo://app?vid=e40f15b1-61f8-4c36-babb-e0e97df9c7d0"},"vehicle_type_id":"4","last_reported":1727518116,"current_range_meters":24000,"station_id":"ce4bgkh2rcd13ifvqbl0","pricing_plan_id":"cebpf4jnsgd1na2vs0mg"},{"bike_id":"5aed1e9a-08ca-40a0-8d21-2164a5a0d30c","system_id":"levelo_inurba_marseille","lat":43.28489,"lon":5.38404,"is_reserved":false,"is_disabled":false,"rental_uris":{"android":"levelo://app?vid=5aed1e9a-08ca-40a0-8d21-2164a5a0d30c","ios":"levelo://app?vid=5aed1e9a-08ca-40a0-8d21-2164a5a0d30c"},"vehicle_type_id":"4","last_reported":1727518116,"current_range_meters":24000,"station_id":"ce4bh512rcd13ifvqe3g","pricing_plan_id":"cebpf4jnsgd1na2vs0mg"},{"bike_id":"ed8c0c2a-49b2-4987-a9ba-4dd1ce890fe6","system_id":"levelo_inurba_marseille","lat":43.29715,"lon":5.37683,"is_reserved":false,"is_disabled":false,"rental_uris":{"android":"levelo://app?vid=ed8c0c2a-49b2-4987-a9ba-4dd1ce890fe6","ios":"levelo://app?vid=ed8c0c2a-49b2-4987-a9ba-4dd1ce890fe6"},"vehicle_type_id":"4","last_reported":1727518116,"current_range_meters":38800,"station_id":"ce4bgkh2rcd13ifvqbl0","pricing_plan_id":"cebpf4jnsgd1na2vs0mg"},{"bike_id":"e2f1c042-249e-4ac6-8381-2fe14095f9a0","system_id":"levelo_inurba_marseille","lat":43.273895,"lon":5.362231,"is_reserved":false,"is_disabled":false,"rental_uris":{"android":"levelo://app?vid=e2f1c042-249e-4ac6-8381-2fe14095f9a0","ios":"levelo://app?vid=e2f1c042-249e-4ac6-8381-2fe14095f9a0"},"vehicle_type_id":"4","last_reported":1727518116,"current_range_meters":32400,"station_id":"ce4bh412rcd13ifvqds0","pricing_plan_id":"cebpf4jnsgd1na2vs0mg"},{"bike_id":"e9461f55-7e42-465e-ba90-31c941943249","system_id":"levelo_inurba_marseille","lat":43.30777,"lon":5.3765,"is_reserved":false,"is_disabled":false,"rental_uris":{"android":"levelo://app?vid=e9461f55-7e42-465e-ba90-31c941943249","ios":"levelo://app?vid=e9461f55-7e42-465e-ba90-31c941943249"},"vehicle_type_id":"4","last_reported":1727518116,"current_range_meters":38400,"station_id":"ce4bgv92rcd13ifvqcq0","pricing_plan_id":"cebpf4jnsgd1na2vs0mg"},{"bike_id":"40ded41a-a5e5-4436-9fab-4701faa67d9f","system_id":"levelo_inurba_marseille","lat":43.29577,"lon":5.36744,"is_reserved":false,"is_disabled":false,"rental_uris":{"android":"levelo://app?vid=40ded41a-a5e5-4436-9fab-4701faa67d9f","ios":"levelo://app?vid=40ded41a-a5e5-4436-9fab-4701faa67d9f"},"vehicle_type_id":"4","last_reported":1727518116,"current_range_meters":37600,"station_id":"ce4bgph2rcd13ifvqc2g","pricing_plan_id":"cebpf4jnsgd1na2vs0mg"},{"bike_id":"4bec3a7d-69b5-4087-96f4-4e0bbed86a87","system_id":"levelo_inurba_marseille","lat":43.31278,"lon":5.40168,"is_reserved":false,"is_disabled":false,"rental_uris":{"android":"levelo://app?vid=4bec3a7d-69b5-4087-96f4-4e0bbed86a87","ios":"levelo://app?vid=4bec3a7d-69b5-4087-96f4-4e0bbed86a87"},"vehicle_type_id":"4","last_reported":1727518116,"current_range_meters":25200,"station_id":"ce4bh092rcd13ifvqd30","pricing_plan_id":"cebpf4jnsgd1na2vs0mg"},{"bike_id":"6bbe7017-d8c4-4797-9de4-8c9de6239e13","system_id":"levelo_inurba_marseille","lat":43.25004,"lon":5.38924,"is_reserved":false,"is_disabled":false,"rental_uris":{"android":"levelo://app?vid=6bbe7017-d8c4-4797-9de4-8c9de6239e13","ios":"levelo://app?vid=6bbe7017-d8c4-4797-9de4-8c9de6239e13"},"vehicle_type_id":"4","last_reported":1727518116,"current_range_meters":35600,"station_id":"ce4bhgp2rcd13ifvqfd0","pricing_plan_id":"cebpf4jnsgd1na2vs0mg"},{"bike_id":"3b170ecf-4bbb-421f-886d-94818fba1de8","system_id":"levelo_inurba_marseille","lat":43.2847,"lon":5.39998,"is_reserved":false,"is_disabled":false,"rental_uris":{"android":"levelo://app?vid=3b170ecf-4bbb-421f-886d-94818fba1de8","ios":"levelo://app?vid=3b170ecf-4bbb-421f-886d-94818fba1de8"},"vehicle_type_id":"4","last_reported":1727518116,"current_range_meters":37600,"station_id":"ce4bh2h2rcd13ifvqdh0","pricing_plan_id":"cebpf4jnsgd1na2vs0mg"},{"bike_id":"a2930f9b-d270-4c8a-897e-ce534e0919b3","system_id":"levelo_inurba_marseille","lat":43.24176,"lon":5.39731,"is_reserved":false,"is_disabled":false,"rental_uris":{"android":"levelo://app?vid=a2930f9b-d270-4c8a-897e-ce534e0919b3","ios":"levelo://app?vid=a2930f9b-d270-4c8a-897e-ce534e0919b3"},"vehicle_type_id":"4","last_reported":1727518116,"current_range_meters":25200,"station_id":"ce4bhn12rcd13ifvqgpg","pricing_plan_id":"cebpf4jnsgd1na2vs0mg"},{"bike_id":"207ffe99-f2e2-4d11-a577-0100f424763e","system_id":"levelo_inurba_marseille","lat":43.32036,"lon":5.41572,"is_reserved":false,"is_disabled":false,"rental_uris":{"android":"levelo://app?vid=207ffe99-f2e2-4d11-a577-0100f424763e","ios":"levelo://app?vid=207ffe99-f2e2-4d11-a577-0100f424763e"},"vehicle_type_id":"4","last_reported":1727518116,"current_range_meters":21600,"station_id":"ce4bhq92rcd13ifvqhkg","pricing_plan_id":"cebpf4jnsgd1na2vs0mg"},{"bike_id":"1b5c59f8-89a9-4e46-93f7-af2461aa251a","system_id":"levelo_inurba_marseille","lat":43.2396,"lon":5.36622,"is_reserved":false,"is_disabled":false,"rental_uris":{"android":"levelo://app?vid=1b5c59f8-89a9-4e46-93f7-af2461aa251a","ios":"levelo://app?vid=1b5c59f8-89a9-4e46-93f7-af2461aa251a"},"vehicle_type_id":"4","last_reported":1727518116,"current_range_meters":24800,"station_id":"ce4bhi12rcd13ifvqfp0","pricing_plan_id":"cebpf4jnsgd1na2vs0mg"},{"bike_id":"cf12fc66-6548-4eeb-b6ca-f48c6053200d","system_id":"levelo_inurba_marseille","lat":43.30947,"lon":5.39036,"is_reserved":false,"is_disabled":false,"rental_uris":{"android":"levelo://app?vid=cf12fc66-6548-4eeb-b6ca-f48c6053200d","ios":"levelo://app?vid=cf12fc66-6548-4eeb-b6ca-f48c6053200d"},"vehicle_type_id":"4","last_reported":1727518116,"current_range_meters":9600,"station_id":"ce4bgup2rcd13ifvqco0","pricing_plan_id":"cebpf4jnsgd1na2vs0mg"},{"bike_id":"d39210b3-a40b-4413-9d2a-e861998a3aad","system_id":"levelo_inurba_marseille","lat":43.25822,"lon":5.39428,"is_reserved":false,"is_disabled":false,"rental_uris":{"android":"levelo://app?vid=d39210b3-a40b-4413-9d2a-e861998a3aad","ios":"levelo://app?vid=d39210b3-a40b-4413-9d2a-e861998a3aad"},"vehicle_type_id":"4","last_reported":1727518116,"current_range_meters":38800,"station_id":"ce4bhip2rcd13ifvqft0","pricing_plan_id":"cebpf4jnsgd1na2vs0mg"},{"bike_id":"4915f018-35a4-41ab-8f17-b1de5745ad2a","system_id":"levelo_inurba_marseille","lat":43.31889,"lon":5.40724,"is_reserved":false,"is_disabled":false,"rental_uris":{"android":"levelo://app?vid=4915f018-35a4-41ab-8f17-b1de5745ad2a","ios":"levelo://app?vid=4915f018-35a4-41ab-8f17-b1de5745ad2a"},"vehicle_type_id":"4","last_reported":1727518116,"current_range_meters":14400,"station_id":"ce4bhq12rcd13ifvqhig","pricing_plan_id":"cebpf4jnsgd1na2vs0mg"},{"bike_id":"27dd2217-59df-4be1-b2c3-392ea7c13d9d","system_id":"levelo_inurba_marseille","lat":43.2621,"lon":5.37442,"is_reserved":false,"is_disabled":false,"rental_uris":{"android":"levelo://app?vid=27dd2217-59df-4be1-b2c3-392ea7c13d9d","ios":"levelo://app?vid=27dd2217-59df-4be1-b2c3-392ea7c13d9d"},"vehicle_type_id":"4","last_reported":1727518116,"current_range_meters":36000,"station_id":"ce4bhgp2rcd13ifvqfc0","pricing_plan_id":"cebpf4jnsgd1na2vs0mg"},{"bike_id":"eb40660b-9cba-4839-95b5-e1a88988e1c0","system_id":"levelo_inurba_marseille","lat":43.29844,"lon":5.36269,"is_reserved":false,"is_disabled":false,"rental_uris":{"android":"levelo://app?vid=eb40660b-9cba-4839-95b5-e1a88988e1c0","ios":"levelo://app?vid=eb40660b-9cba-4839-95b5-e1a88988e1c0"},"vehicle_type_id":"4","last_reported":1727518116,"current_range_meters":40000,"station_id":"ce4bgpp2rcd13ifvqc3g","pricing_plan_id":"cebpf4jnsgd1na2vs0mg"},{"bike_id":"28fd6afa-8ab7-494a-b25a-1a23b319519f","system_id":"levelo_inurba_marseille","lat":43.3171,"lon":5.43708,"is_reserved":false,"is_disabled":false,"rental_uris":{"android":"levelo://app?vid=28fd6afa-8ab7-494a-b25a-1a23b319519f","ios":"levelo://app?vid=28fd6afa-8ab7-494a-b25a-1a23b319519f"},"vehicle_type_id":"4","last_reported":1727518116,"current_range_meters":37600,"station_id":"ce4bhp92rcd13ifvqhcg","pricing_plan_id":"cebpf4jnsgd1na2vs0mg"},{"bike_id":"cf728546-b453-4bbe-a199-05de8a38e92b","system_id":"levelo_inurba_marseille","lat":43.29853,"lon":5.36275,"is_reserved":false,"is_disabled":false,"rental_uris":{"android":"levelo://app?vid=cf728546-b453-4bbe-a199-05de8a38e92b","ios":"levelo://app?vid=cf728546-b453-4bbe-a199-05de8a38e92b"},"vehicle_type_id":"4","last_reported":1727518116,"current_range_meters":12000,"station_id":"ce4bgpp2rcd13ifvqc3g","pricing_plan_id":"cebpf4jnsgd1na2vs0mg"},{"bike_id":"863f921b-1562-4850-a547-80dc5a631762","system_id":"levelo_inurba_marseille","lat":43.30516,"lon":5.36555,"is_reserved":false,"is_disabled":false,"rental_uris":{"android":"levelo://app?vid=863f921b-1562-4850-a547-80dc5a631762","ios":"levelo://app?vid=863f921b-1562-4850-a547-80dc5a631762"},"vehicle_type_id":"4","last_reported":1727518116,"current_range_meters":36400,"station_id":"ce4bgs12rcd13ifvqcag","pricing_plan_id":"cebpf4jnsgd1na2vs0mg"},{"bike_id":"63ce1a58-fd76-4f97-9480-2d2ee4f38740","system_id":"levelo_inurba_marseille","lat":43.29364,"lon":5.3785,"is_reserved":false,"is_disabled":false,"rental_uris":{"android":"levelo://app?vid=63ce1a58-fd76-4f97-9480-2d2ee4f38740","ios":"levelo://app?vid=63ce1a58-fd76-4f97-9480-2d2ee4f38740"},"vehicle_type_id":"4","last_reported":1727518116,"current_range_meters":36800,"station_id":"ce4bgjh2rcd13ifvqbf0","pricing_plan_id":"cebpf4jnsgd1na2vs0mg"},{"bike_id":"03e8b385-e3e3-4831-b70e-8615ef15136c","system_id":"levelo_inurba_marseille","lat":43.32343,"lon":5.40615,"is_reserved":false,"is_disabled":false,"rental_uris":{"android":"levelo://app?vid=03e8b385-e3e3-4831-b70e-8615ef15136c","ios":"levelo://app?vid=03e8b385-e3e3-4831-b70e-8615ef15136c"},"vehicle_type_id":"4","last_reported":1727518116,"current_range_meters":18800,"station_id":"ce4bhq92rcd13ifvqhjg","pricing_plan_id":"cebpf4jnsgd1na2vs0mg"},{"bike_id":"31d9581d-789e-483b-ab43-a3d81f0839cd","system_id":"levelo_inurba_marseille","lat":43.23153,"lon":5.43697,"is_reserved":false,"is_disabled":false,"rental_uris":{"android":"levelo://app?vid=31d9581d-789e-483b-ab43-a3d81f0839cd","ios":"levelo://app?vid=31d9581d-789e-483b-ab43-a3d81f0839cd"},"vehicle_type_id":"4","last_reported":1727518116,"current_range_meters":16400,"station_id":"ce4bhmp2rcd13ifvqgog","pricing_plan_id":"cebpf4jnsgd1na2vs0mg"},{"bike_id":"a634c515-8f19-41fe-866c-07fe4daabdab","system_id":"levelo_inurba_marseille","lat":43.2743,"lon":5.3941,"is_reserved":false,"is_disabled":false,"rental_uris":{"android":"levelo://app?vid=a634c515-8f19-41fe-866c-07fe4daabdab","ios":"levelo://app?vid=a634c515-8f19-41fe-866c-07fe4daabdab"},"vehicle_type_id":"4","last_reported":1727518116,"current_range_meters":28000,"station_id":"ce4bhdp2rcd13ifvqf20","pricing_plan_id":"cebpf4jnsgd1na2vs0mg"},{"bike_id":"eeac406d-c796-47e9-bcb1-35f89dd3acf4","system_id":"levelo_inurba_marseille","lat":43.29302,"lon":5.37184,"is_reserved":false,"is_disabled":false,"rental_uris":{"android":"levelo://app?vid=eeac406d-c796-47e9-bcb1-35f89dd3acf4","ios":"levelo://app?vid=eeac406d-c796-47e9-bcb1-35f89dd3acf4"},"vehicle_type_id":"4","last_reported":1727518116,"current_range_meters":24800,"station_id":"ce4bgh92rcd13ifvqb40","pricing_plan_id":"cebpf4jnsgd1na2vs0mg"},{"bike_id":"6fe9b253-8db4-4d00-8fc6-9475baced5dc","system_id":"levelo_inurba_marseille","lat":43.29522,"lon":5.37492,"is_reserved":false,"is_disabled":false,"rental_uris":{"android":"levelo://app?vid=6fe9b253-8db4-4d00-8fc6-9475baced5dc","ios":"levelo://app?vid=6fe9b253-8db4-4d00-8fc6-9475baced5dc"},"vehicle_type_id":"4","last_reported":1727518116,"current_range_meters":38000,"station_id":"ce4bgkp2rcd13ifvqbmg","pricing_plan_id":"cebpf4jnsgd1na2vs0mg"},{"bike_id":"a1b1c0fa-4e57-4865-b490-f6dc01dafec5","system_id":"levelo_inurba_marseille","lat":43.31359,"lon":5.38451,"is_reserved":false,"is_disabled":false,"rental_uris":{"android":"levelo://app?vid=a1b1c0fa-4e57-4865-b490-f6dc01dafec5","ios":"levelo://app?vid=a1b1c0fa-4e57-4865-b490-f6dc01dafec5"},"vehicle_type_id":"4","last_reported":1727518116,"current_range_meters":27600,"station_id":"ce4bgt92rcd13ifvqcf0","pricing_plan_id":"cebpf4jnsgd1na2vs0mg"},{"bike_id":"2765eaf6-7ca6-4241-a191-b4d7fef45c56","system_id":"levelo_inurba_marseille","lat":43.32032,"lon":5.41563,"is_reserved":false,"is_disabled":false,"rental_uris":{"android":"levelo://app?vid=2765eaf6-7ca6-4241-a191-b4d7fef45c56","ios":"levelo://app?vid=2765eaf6-7ca6-4241-a191-b4d7fef45c56"},"vehicle_type_id":"4","last_reported":1727518116,"current_range_meters":34800,"station_id":"ce4bhq92rcd13ifvqhkg","pricing_plan_id":"cebpf4jnsgd1na2vs0mg"},{"bike_id":"ceda1303-8e1d-4d6f-8792-80ce6a3025d5","system_id":"levelo_inurba_marseille","lat":43.31708,"lon":5.437,"is_reserved":false,"is_disabled":false,"rental_uris":{"android":"levelo://app?vid=ceda1303-8e1d-4d6f-8792-80ce6a3025d5","ios":"levelo://app?vid=ceda1303-8e1d-4d6f-8792-80ce6a3025d5"},"vehicle_type_id":"4","last_reported":1727518116,"current_range_meters":6800,"station_id":"ce4bhp92rcd13ifvqhcg","pricing_plan_id":"cebpf4jnsgd1na2vs0mg"},{"bike_id":"61e10d90-1bb9-4c62-abe7-5b2652018e77","system_id":"levelo_inurba_marseille","lat":43.3031,"lon":5.36907,"is_reserved":false,"is_disabled":false,"rental_uris":{"android":"levelo://app?vid=61e10d90-1bb9-4c62-abe7-5b2652018e77","ios":"levelo://app?vid=61e10d90-1bb9-4c62-abe7-5b2652018e77"},"vehicle_type_id":"4","last_reported":1727518116,"current_range_meters":37600,"station_id":"ce4bgqh2rcd13ifvqc5g","pricing_plan_id":"cebpf4jnsgd1na2vs0mg"},{"bike_id":"403999e6-396e-4ef4-99d3-c76a06c6f1a0","system_id":"levelo_inurba_marseille","lat":43.25496,"lon":5.37646,"is_reserved":false,"is_disabled":false,"rental_uris":{"android":"levelo://app?vid=403999e6-396e-4ef4-99d3-c76a06c6f1a0","ios":"levelo://app?vid=403999e6-396e-4ef4-99d3-c76a06c6f1a0"},"vehicle_type_id":"4","last_reported":1727518116,"current_range_meters":16800,"station_id":"ce4bhh12rcd13ifvqff0","pricing_plan_id":"cebpf4jnsgd1na2vs0mg"},{"bike_id":"07d609b8-d7b8-49e9-b9ee-262fc446f689","system_id":"levelo_inurba_marseille","lat":43.29536,"lon":5.38539,"is_reserved":false,"is_disabled":false,"rental_uris":{"android":"levelo://app?vid=07d609b8-d7b8-49e9-b9ee-262fc446f689","ios":"levelo://app?vid=07d609b8-d7b8-49e9-b9ee-262fc446f689"},"vehicle_type_id":"4","last_reported":1727518116,"current_range_meters":18800,"station_id":"ce4bgih2rcd13ifvqba0","pricing_plan_id":"cebpf4jnsgd1na2vs0mg"},{"bike_id":"3fc43bcd-c6b6-4207-aa1f-bff47eb4b88a","system_id":"levelo_inurba_marseille","lat":43.32,"lon":5.38166,"is_reserved":false,"is_disabled":false,"rental_uris":{"android":"levelo://app?vid=3fc43bcd-c6b6-4207-aa1f-bff47eb4b88a","ios":"levelo://app?vid=3fc43bcd-c6b6-4207-aa1f-bff47eb4b88a"},"vehicle_type_id":"4","last_reported":1727518116,"current_range_meters":26800,"station_id":"ce4bhr12rcd13ifvqhpg","pricing_plan_id":"cebpf4jnsgd1na2vs0mg"},{"bike_id":"c049a602-ba08-44c1-a4f9-1cbd185f086f","system_id":"levelo_inurba_marseille","lat":43.22933,"lon":5.35375,"is_reserved":false,"is_disabled":false,"rental_uris":{"android":"levelo://app?vid=c049a602-ba08-44c1-a4f9-1cbd185f086f","ios":"levelo://app?vid=c049a602-ba08-44c1-a4f9-1cbd185f086f"},"vehicle_type_id":"4","last_reported":1727518116,"current_range_meters":6000,"station_id":"cpo3532slgdg3j2ikp40","pricing_plan_id":"cebpf4jnsgd1na2vs0mg"},{"bike_id":"2617c06e-e17f-43d0-bd86-b5a25b7cd217","system_id":"levelo_inurba_marseille","lat":43.27426,"lon":5.39408,"is_reserved":false,"is_disabled":false,"rental_uris":{"android":"levelo://app?vid=2617c06e-e17f-43d0-bd86-b5a25b7cd217","ios":"levelo://app?vid=2617c06e-e17f-43d0-bd86-b5a25b7cd217"},"vehicle_type_id":"4","last_reported":1727518116,"current_range_meters":8800,"station_id":"ce4bhdp2rcd13ifvqf20","pricing_plan_id":"cebpf4jnsgd1na2vs0mg"},{"bike_id":"59bdcb42-a50a-4dfb-93f8-91f6c21ccd67","system_id":"levelo_inurba_marseille","lat":43.30418,"lon":5.39744,"is_reserved":false,"is_disabled":false,"rental_uris":{"android":"levelo://app?vid=59bdcb42-a50a-4dfb-93f8-91f6c21ccd67","ios":"levelo://app?vid=59bdcb42-a50a-4dfb-93f8-91f6c21ccd67"},"vehicle_type_id":"4","last_reported":1727518116,"current_range_meters":38000,"station_id":"ce4bh092rcd13ifvqd20","pricing_plan_id":"cebpf4jnsgd1na2vs0mg"},{"bike_id":"050bf235-18dc-4608-a728-4332c6e7f289","system_id":"levelo_inurba_marseille","lat":43.289779,"lon":5.378406,"is_reserved":false,"is_disabled":false,"rental_uris":{"android":"levelo://app?vid=050bf235-18dc-4608-a728-4332c6e7f289","ios":"levelo://app?vid=050bf235-18dc-4608-a728-4332c6e7f289"},"vehicle_type_id":"4","last_reported":1727518116,"current_range_meters":39200,"station_id":"ce4bh9p2rcd13ifvqed0","pricing_plan_id":"cebpf4jnsgd1na2vs0mg"},{"bike_id":"04b6177d-c575-4b6e-8490-63c3c4fcb2fb","system_id":"levelo_inurba_marseille","lat":43.29851,"lon":5.36287,"is_reserved":false,"is_disabled":false,"rental_uris":{"android":"levelo://app?vid=04b6177d-c575-4b6e-8490-63c3c4fcb2fb","ios":"levelo://app?vid=04b6177d-c575-4b6e-8490-63c3c4fcb2fb"},"vehicle_type_id":"4","last_reported":1727518116,"current_range_meters":26800,"station_id":"ce4bgpp2rcd13ifvqc3g","pricing_plan_id":"cebpf4jnsgd1na2vs0mg"},{"bike_id":"df316ac9-48f8-43d7-9cd3-c39fa8192bf8","system_id":"levelo_inurba_marseille","lat":43.29626,"lon":5.40595,"is_reserved":false,"is_disabled":false,"rental_uris":{"android":"levelo://app?vid=df316ac9-48f8-43d7-9cd3-c39fa8192bf8","ios":"levelo://app?vid=df316ac9-48f8-43d7-9cd3-c39fa8192bf8"},"vehicle_type_id":"4","last_reported":1727518116,"current_range_meters":32400,"station_id":"ce4bh0h2rcd13ifvqd60","pricing_plan_id":"cebpf4jnsgd1na2vs0mg"},{"bike_id":"eab435e6-b89d-4cdf-aa0e-050a5dab33ea","system_id":"levelo_inurba_marseille","lat":43.27951,"lon":5.41038,"is_reserved":false,"is_disabled":false,"rental_uris":{"android":"levelo://app?vid=eab435e6-b89d-4cdf-aa0e-050a5dab33ea","ios":"levelo://app?vid=eab435e6-b89d-4cdf-aa0e-050a5dab33ea"},"vehicle_type_id":"4","last_reported":1727518116,"current_range_meters":36800,"station_id":"ce4bhnp2rcd13ifvqh0g","pricing_plan_id":"cebpf4jnsgd1na2vs0mg"},{"bike_id":"063bbd6f-5d09-4418-8bbc-24cbd88cc1c7","system_id":"levelo_inurba_marseille","lat":43.29896,"lon":5.43665,"is_reserved":false,"is_disabled":false,"rental_uris":{"android":"levelo://app?vid=063bbd6f-5d09-4418-8bbc-24cbd88cc1c7","ios":"levelo://app?vid=063bbd6f-5d09-4418-8bbc-24cbd88cc1c7"},"vehicle_type_id":"4","last_reported":1727518116,"current_range_meters":20000,"station_id":"ce4bhpp2rcd13ifvqhfg","pricing_plan_id":"cebpf4jnsgd1na2vs0mg"},{"bike_id":"b97c3542-5c9b-4759-9d88-a26e80c14df3","system_id":"levelo_inurba_marseille","lat":43.305919,"lon":5.393641,"is_reserved":false,"is_disabled":false,"rental_uris":{"android":"levelo://app?vid=b97c3542-5c9b-4759-9d88-a26e80c14df3","ios":"levelo://app?vid=b97c3542-5c9b-4759-9d88-a26e80c14df3"},"vehicle_type_id":"4","last_reported":1727518116,"current_range_meters":24800,"station_id":"ce4bh0p2rcd13ifvqd80","pricing_plan_id":"cebpf4jnsgd1na2vs0mg"},{"bike_id":"237be906-f998-4448-9588-92ef953a4d82","system_id":"levelo_inurba_marseille","lat":43.24161,"lon":5.36394,"is_reserved":false,"is_disabled":false,"rental_uris":{"android":"levelo://app?vid=237be906-f998-4448-9588-92ef953a4d82","ios":"levelo://app?vid=237be906-f998-4448-9588-92ef953a4d82"},"vehicle_type_id":"4","last_reported":1727518116,"current_range_meters":31200,"station_id":"cpo36qri1sfpv3e86is0","pricing_plan_id":"cebpf4jnsgd1na2vs0mg"},{"bike_id":"8ce4806c-bb9d-4fca-8f7a-c7ad41f52108","system_id":"levelo_inurba_marseille","lat":43.30149,"lon":5.38078,"is_reserved":false,"is_disabled":false,"rental_uris":{"android":"levelo://app?vid=8ce4806c-bb9d-4fca-8f7a-c7ad41f52108","ios":"levelo://app?vid=8ce4806c-bb9d-4fca-8f7a-c7ad41f52108"},"vehicle_type_id":"4","last_reported":1727518116,"current_range_meters":19200,"station_id":"ce4bgjp2rcd13ifvqbh0","pricing_plan_id":"cebpf4jnsgd1na2vs0mg"},{"bike_id":"cf75b762-b246-4899-a58b-3f89c40bd654","system_id":"levelo_inurba_marseille","lat":43.25106,"lon":5.40324,"is_reserved":false,"is_disabled":false,"rental_uris":{"android":"levelo://app?vid=cf75b762-b246-4899-a58b-3f89c40bd654","ios":"levelo://app?vid=cf75b762-b246-4899-a58b-3f89c40bd654"},"vehicle_type_id":"4","last_reported":1727518116,"current_range_meters":24400,"station_id":"ce4bhlh2rcd13ifvqgig","pricing_plan_id":"cebpf4jnsgd1na2vs0mg"},{"bike_id":"9d50c512-c568-4d6b-929d-0715f29d2268","system_id":"levelo_inurba_marseille","lat":43.29788,"lon":5.3811,"is_reserved":false,"is_disabled":false,"rental_uris":{"android":"levelo://app?vid=9d50c512-c568-4d6b-929d-0715f29d2268","ios":"levelo://app?vid=9d50c512-c568-4d6b-929d-0715f29d2268"},"vehicle_type_id":"4","last_reported":1727518116,"current_range_meters":18000,"station_id":"ce4bgip2rcd13ifvqbb0","pricing_plan_id":"cebpf4jnsgd1na2vs0mg"},{"bike_id":"a11f8321-e3c0-49d5-9273-cd0283f6c936","system_id":"levelo_inurba_marseille","lat":43.3042,"lon":5.38885,"is_reserved":false,"is_disabled":false,"rental_uris":{"android":"levelo://app?vid=a11f8321-e3c0-49d5-9273-cd0283f6c936","ios":"levelo://app?vid=a11f8321-e3c0-49d5-9273-cd0283f6c936"},"vehicle_type_id":"4","last_reported":1727518116,"current_range_meters":38800,"station_id":"ce4bgk12rcd13ifvqbi0","pricing_plan_id":"cebpf4jnsgd1na2vs0mg"},{"bike_id":"e9776310-b20e-4114-a6b6-30f9f0cfe653","system_id":"levelo_inurba_marseille","lat":43.26021,"lon":5.37549,"is_reserved":false,"is_disabled":false,"rental_uris":{"android":"levelo://app?vid=e9776310-b20e-4114-a6b6-30f9f0cfe653","ios":"levelo://app?vid=e9776310-b20e-4114-a6b6-30f9f0cfe653"},"vehicle_type_id":"4","last_reported":1727518116,"current_range_meters":38000,"station_id":"ce4bhgh2rcd13ifvqfa0","pricing_plan_id":"cebpf4jnsgd1na2vs0mg"},{"bike_id":"ff9d50c3-b092-469d-a929-184bcf2c51b6","system_id":"levelo_inurba_marseille","lat":43.30431,"lon":5.38892,"is_reserved":false,"is_disabled":false,"rental_uris":{"android":"levelo://app?vid=ff9d50c3-b092-469d-a929-184bcf2c51b6","ios":"levelo://app?vid=ff9d50c3-b092-469d-a929-184bcf2c51b6"},"vehicle_type_id":"4","last_reported":1727518116,"current_range_meters":32000,"station_id":"ce4bgk12rcd13ifvqbi0","pricing_plan_id":"cebpf4jnsgd1na2vs0mg"},{"bike_id":"0701cf2a-674c-4c9d-af1e-6650acbaaf74","system_id":"levelo_inurba_marseille","lat":43.2838,"lon":5.37309,"is_reserved":false,"is_disabled":false,"rental_uris":{"android":"levelo://app?vid=0701cf2a-674c-4c9d-af1e-6650acbaaf74","ios":"levelo://app?vid=0701cf2a-674c-4c9d-af1e-6650acbaaf74"},"vehicle_type_id":"4","last_reported":1727518116,"current_range_meters":16800,"station_id":"","pricing_plan_id":"cebpf4jnsgd1na2vs0mg"},{"bike_id":"246192c5-4b75-4235-b55e-232899a60ea4","system_id":"levelo_inurba_marseille","lat":43.27898,"lon":5.38017,"is_reserved":false,"is_disabled":false,"rental_uris":{"android":"levelo://app?vid=246192c5-4b75-4235-b55e-232899a60ea4","ios":"levelo://app?vid=246192c5-4b75-4235-b55e-232899a60ea4"},"vehicle_type_id":"4","last_reported":1727518116,"current_range_meters":38800,"station_id":"ce4bhf92rcd13ifvqf50","pricing_plan_id":"cebpf4jnsgd1na2vs0mg"},{"bike_id":"48dd8be6-53cb-4e56-80e9-0a26cb8e43ce","system_id":"levelo_inurba_marseille","lat":43.28153,"lon":5.42648,"is_reserved":false,"is_disabled":false,"rental_uris":{"android":"levelo://app?vid=48dd8be6-53cb-4e56-80e9-0a26cb8e43ce","ios":"levelo://app?vid=48dd8be6-53cb-4e56-80e9-0a26cb8e43ce"},"vehicle_type_id":"4","last_reported":1727518116,"current_range_meters":35600,"station_id":"ce4bhnh2rcd13ifvqgug","pricing_plan_id":"cebpf4jnsgd1na2vs0mg"},{"bike_id":"b60e81ac-1cf4-462f-8b85-747d36ad3820","system_id":"levelo_inurba_marseille","lat":43.26553,"lon":5.37283,"is_reserved":false,"is_disabled":false,"rental_uris":{"android":"levelo://app?vid=b60e81ac-1cf4-462f-8b85-747d36ad3820","ios":"levelo://app?vid=b60e81ac-1cf4-462f-8b85-747d36ad3820"},"vehicle_type_id":"4","last_reported":1727518116,"current_range_meters":30400,"station_id":"ce4bhg12rcd13ifvqf70","pricing_plan_id":"cebpf4jnsgd1na2vs0mg"},{"bike_id":"12f9708b-78a7-44bf-89fc-9bc5a8dcadce","system_id":"levelo_inurba_marseille","lat":43.28104,"lon":5.37831,"is_reserved":false,"is_disabled":false,"rental_uris":{"android":"levelo://app?vid=12f9708b-78a7-44bf-89fc-9bc5a8dcadce","ios":"levelo://app?vid=12f9708b-78a7-44bf-89fc-9bc5a8dcadce"},"vehicle_type_id":"4","last_reported":1727518116,"current_range_meters":26000,"station_id":"ce4bha12rcd13ifvqee0","pricing_plan_id":"cebpf4jnsgd1na2vs0mg"},{"bike_id":"73c9aba4-daba-4721-9190-63754d1f8156","system_id":"levelo_inurba_marseille","lat":43.29427,"lon":5.39765,"is_reserved":false,"is_disabled":false,"rental_uris":{"android":"levelo://app?vid=73c9aba4-daba-4721-9190-63754d1f8156","ios":"levelo://app?vid=73c9aba4-daba-4721-9190-63754d1f8156"},"vehicle_type_id":"4","last_reported":1727518116,"current_range_meters":38400,"station_id":"ce4bh3h2rcd13ifvqdo0","pricing_plan_id":"cebpf4jnsgd1na2vs0mg"},{"bike_id":"001dcef2-87f7-4b07-bfe4-c5e01ebeebf7","system_id":"levelo_inurba_marseille","lat":43.2396,"lon":5.36628,"is_reserved":false,"is_disabled":false,"rental_uris":{"android":"levelo://app?vid=001dcef2-87f7-4b07-bfe4-c5e01ebeebf7","ios":"levelo://app?vid=001dcef2-87f7-4b07-bfe4-c5e01ebeebf7"},"vehicle_type_id":"4","last_reported":1727518116,"current_range_meters":22800,"station_id":"ce4bhi12rcd13ifvqfp0","pricing_plan_id":"cebpf4jnsgd1na2vs0mg"},{"bike_id":"a6903808-354a-4aed-8af8-b4a5f29db99f","system_id":"levelo_inurba_marseille","lat":43.27955,"lon":5.41046,"is_reserved":false,"is_disabled":false,"rental_uris":{"android":"levelo://app?vid=a6903808-354a-4aed-8af8-b4a5f29db99f","ios":"levelo://app?vid=a6903808-354a-4aed-8af8-b4a5f29db99f"},"vehicle_type_id":"4","last_reported":1727518116,"current_range_meters":17600,"station_id":"ce4bhnp2rcd13ifvqh0g","pricing_plan_id":"cebpf4jnsgd1na2vs0mg"},{"bike_id":"2969bdbb-042e-46e5-981e-947736358a43","system_id":"levelo_inurba_marseille","lat":43.29514,"lon":5.37517,"is_reserved":false,"is_disabled":false,"rental_uris":{"android":"levelo://app?vid=2969bdbb-042e-46e5-981e-947736358a43","ios":"levelo://app?vid=2969bdbb-042e-46e5-981e-947736358a43"},"vehicle_type_id":"4","last_reported":1727518116,"current_range_meters":24400,"station_id":"ce4bgkp2rcd13ifvqbmg","pricing_plan_id":"cebpf4jnsgd1na2vs0mg"},{"bike_id":"6cdca13d-24d1-4302-912a-54d18c748242","system_id":"levelo_inurba_marseille","lat":43.31083,"lon":5.40132,"is_reserved":false,"is_disabled":false,"rental_uris":{"android":"levelo://app?vid=6cdca13d-24d1-4302-912a-54d18c748242","ios":"levelo://app?vid=6cdca13d-24d1-4302-912a-54d18c748242"},"vehicle_type_id":"4","last_reported":1727518116,"current_range_meters":9600,"station_id":"","pricing_plan_id":"cebpf4jnsgd1na2vs0mg"},{"bike_id":"cf3a4ee4-c9d3-4ea3-ae0b-b5b4c90d13af","system_id":"levelo_inurba_marseille","lat":43.2985,"lon":5.36286,"is_reserved":false,"is_disabled":false,"rental_uris":{"android":"levelo://app?vid=cf3a4ee4-c9d3-4ea3-ae0b-b5b4c90d13af","ios":"levelo://app?vid=cf3a4ee4-c9d3-4ea3-ae0b-b5b4c90d13af"},"vehicle_type_id":"4","last_reported":1727518116,"current_range_meters":16400,"station_id":"ce4bgpp2rcd13ifvqc3g","pricing_plan_id":"cebpf4jnsgd1na2vs0mg"},{"bike_id":"80772028-8c3e-4d06-b5a5-47d20bb2da13","system_id":"levelo_inurba_marseille","lat":43.30149,"lon":5.38081,"is_reserved":false,"is_disabled":false,"rental_uris":{"android":"levelo://app?vid=80772028-8c3e-4d06-b5a5-47d20bb2da13","ios":"levelo://app?vid=80772028-8c3e-4d06-b5a5-47d20bb2da13"},"vehicle_type_id":"4","last_reported":1727518116,"current_range_meters":36400,"station_id":"ce4bgjp2rcd13ifvqbh0","pricing_plan_id":"cebpf4jnsgd1na2vs0mg"},{"bike_id":"a16081e8-2054-468c-b28b-66edf0bf67ff","system_id":"levelo_inurba_marseille","lat":43.29064,"lon":5.37148,"is_reserved":false,"is_disabled":false,"rental_uris":{"android":"levelo://app?vid=a16081e8-2054-468c-b28b-66edf0bf67ff","ios":"levelo://app?vid=a16081e8-2054-468c-b28b-66edf0bf67ff"},"vehicle_type_id":"4","last_reported":1727518116,"current_range_meters":7200,"station_id":"ce4bh5p2rcd13ifvqe4g","pricing_plan_id":"cebpf4jnsgd1na2vs0mg"},{"bike_id":"7f31b7c3-4a3b-43de-afc0-d4cf26796b63","system_id":"levelo_inurba_marseille","lat":43.27951,"lon":5.41048,"is_reserved":false,"is_disabled":false,"rental_uris":{"android":"levelo://app?vid=7f31b7c3-4a3b-43de-afc0-d4cf26796b63","ios":"levelo://app?vid=7f31b7c3-4a3b-43de-afc0-d4cf26796b63"},"vehicle_type_id":"4","last_reported":1727518116,"current_range_meters":33200,"station_id":"ce4bhnp2rcd13ifvqh0g","pricing_plan_id":"cebpf4jnsgd1na2vs0mg"},{"bike_id":"da2e7afb-45a7-4193-9960-716c0aa1657b","system_id":"levelo_inurba_marseille","lat":43.32287,"lon":5.38268,"is_reserved":false,"is_disabled":false,"rental_uris":{"android":"levelo://app?vid=da2e7afb-45a7-4193-9960-716c0aa1657b","ios":"levelo://app?vid=da2e7afb-45a7-4193-9960-716c0aa1657b"},"vehicle_type_id":"4","last_reported":1727518116,"current_range_meters":38800,"station_id":"ce4bhr12rcd13ifvqhqg","pricing_plan_id":"cebpf4jnsgd1na2vs0mg"},{"bike_id":"b64089c7-13ae-46ba-b29e-4e00e75820e1","system_id":"levelo_inurba_marseille","lat":43.30154,"lon":5.38083,"is_reserved":false,"is_disabled":false,"rental_uris":{"android":"levelo://app?vid=b64089c7-13ae-46ba-b29e-4e00e75820e1","ios":"levelo://app?vid=b64089c7-13ae-46ba-b29e-4e00e75820e1"},"vehicle_type_id":"4","last_reported":1727518116,"current_range_meters":37600,"station_id":"ce4bgjp2rcd13ifvqbh0","pricing_plan_id":"cebpf4jnsgd1na2vs0mg"},{"bike_id":"007a75d5-0ad5-4811-897a-6d5e1a071c56","system_id":"levelo_inurba_marseille","lat":43.26206,"lon":5.37445,"is_reserved":false,"is_disabled":false,"rental_uris":{"android":"levelo://app?vid=007a75d5-0ad5-4811-897a-6d5e1a071c56","ios":"levelo://app?vid=007a75d5-0ad5-4811-897a-6d5e1a071c56"},"vehicle_type_id":"4","last_reported":1727518116,"current_range_meters":12400,"station_id":"ce4bhgp2rcd13ifvqfc0","pricing_plan_id":"cebpf4jnsgd1na2vs0mg"},{"bike_id":"dbab5e16-0de9-4389-932d-06a62d667144","system_id":"levelo_inurba_marseille","lat":43.258328,"lon":5.394171,"is_reserved":false,"is_disabled":false,"rental_uris":{"android":"levelo://app?vid=dbab5e16-0de9-4389-932d-06a62d667144","ios":"levelo://app?vid=dbab5e16-0de9-4389-932d-06a62d667144"},"vehicle_type_id":"4","last_reported":1727518116,"current_range_meters":37600,"station_id":"ce4bhip2rcd13ifvqft0","pricing_plan_id":"cebpf4jnsgd1na2vs0mg"},{"bike_id":"a5bcbc6c-275a-46c4-bb07-7ac70df82241","system_id":"levelo_inurba_marseille","lat":43.30182,"lon":5.36624,"is_reserved":false,"is_disabled":false,"rental_uris":{"android":"levelo://app?vid=a5bcbc6c-275a-46c4-bb07-7ac70df82241","ios":"levelo://app?vid=a5bcbc6c-275a-46c4-bb07-7ac70df82241"},"vehicle_type_id":"4","last_reported":1727518116,"current_range_meters":30800,"station_id":"ce4bgrh2rcd13ifvqc8g","pricing_plan_id":"cebpf4jnsgd1na2vs0mg"},{"bike_id":"b9cd4885-6618-49ae-b6e3-10480ada383c","system_id":"levelo_inurba_marseille","lat":43.28279,"lon":5.35042,"is_reserved":false,"is_disabled":false,"rental_uris":{"android":"levelo://app?vid=b9cd4885-6618-49ae-b6e3-10480ada383c","ios":"levelo://app?vid=b9cd4885-6618-49ae-b6e3-10480ada383c"},"vehicle_type_id":"4","last_reported":1727518116,"current_range_meters":39200,"station_id":"ce4bhbp2rcd13ifvqerg","pricing_plan_id":"cebpf4jnsgd1na2vs0mg"},{"bike_id":"3407da71-e9f5-4375-9956-506983640a2f","system_id":"levelo_inurba_marseille","lat":43.28988,"lon":5.37588,"is_reserved":false,"is_disabled":false,"rental_uris":{"android":"levelo://app?vid=3407da71-e9f5-4375-9956-506983640a2f","ios":"levelo://app?vid=3407da71-e9f5-4375-9956-506983640a2f"},"vehicle_type_id":"4","last_reported":1727518116,"current_range_meters":28800,"station_id":"ce4bh692rcd13ifvqe90","pricing_plan_id":"cebpf4jnsgd1na2vs0mg"},{"bike_id":"997c5dee-6023-4ccb-8a77-bb0dc221f9f4","system_id":"levelo_inurba_marseille","lat":43.30909,"lon":5.36849,"is_reserved":false,"is_disabled":false,"rental_uris":{"android":"levelo://app?vid=997c5dee-6023-4ccb-8a77-bb0dc221f9f4","ios":"levelo://app?vid=997c5dee-6023-4ccb-8a77-bb0dc221f9f4"},"vehicle_type_id":"4","last_reported":1727518116,"current_range_meters":37600,"station_id":"ce4bgn92rcd13ifvqbvg","pricing_plan_id":"cebpf4jnsgd1na2vs0mg"},{"bike_id":"058fdd83-22b0-42ff-bdbf-1b16045efe56","system_id":"levelo_inurba_marseille","lat":43.27199,"lon":5.39186,"is_reserved":false,"is_disabled":false,"rental_uris":{"android":"levelo://app?vid=058fdd83-22b0-42ff-bdbf-1b16045efe56","ios":"levelo://app?vid=058fdd83-22b0-42ff-bdbf-1b16045efe56"},"vehicle_type_id":"4","last_reported":1727518116,"current_range_meters":37600,"station_id":"ce4bhhp2rcd13ifvqfm0","pricing_plan_id":"cebpf4jnsgd1na2vs0mg"},{"bike_id":"a7bee9ae-54ab-4a82-bdc5-9f85919258dd","system_id":"levelo_inurba_marseille","lat":43.25507,"lon":5.3766,"is_reserved":false,"is_disabled":false,"rental_uris":{"android":"levelo://app?vid=a7bee9ae-54ab-4a82-bdc5-9f85919258dd","ios":"levelo://app?vid=a7bee9ae-54ab-4a82-bdc5-9f85919258dd"},"vehicle_type_id":"4","last_reported":1727518116,"current_range_meters":35600,"station_id":"ce4bhh12rcd13ifvqff0","pricing_plan_id":"cebpf4jnsgd1na2vs0mg"},{"bike_id":"e3ee7d5b-bd0b-4d4d-a3e6-11e8cd23caf2","system_id":"levelo_inurba_marseille","lat":43.28156,"lon":5.42632,"is_reserved":false,"is_disabled":false,"rental_uris":{"android":"levelo://app?vid=e3ee7d5b-bd0b-4d4d-a3e6-11e8cd23caf2","ios":"levelo://app?vid=e3ee7d5b-bd0b-4d4d-a3e6-11e8cd23caf2"},"vehicle_type_id":"4","last_reported":1727518116,"current_range_meters":33600,"station_id":"ce4bhnh2rcd13ifvqgug","pricing_plan_id":"cebpf4jnsgd1na2vs0mg"},{"bike_id":"65768cd7-63c4-42bd-95bb-2f7bc170252f","system_id":"levelo_inurba_marseille","lat":43.29845,"lon":5.36275,"is_reserved":false,"is_disabled":false,"rental_uris":{"android":"levelo://app?vid=65768cd7-63c4-42bd-95bb-2f7bc170252f","ios":"levelo://app?vid=65768cd7-63c4-42bd-95bb-2f7bc170252f"},"vehicle_type_id":"4","last_reported":1727518116,"current_range_meters":38000,"station_id":"ce4bgpp2rcd13ifvqc3g","pricing_plan_id":"cebpf4jnsgd1na2vs0mg"},{"bike_id":"7b93b0bb-573f-428b-b078-1356d3ffd397","system_id":"levelo_inurba_marseille","lat":43.30148,"lon":5.38088,"is_reserved":false,"is_disabled":false,"rental_uris":{"android":"levelo://app?vid=7b93b0bb-573f-428b-b078-1356d3ffd397","ios":"levelo://app?vid=7b93b0bb-573f-428b-b078-1356d3ffd397"},"vehicle_type_id":"4","last_reported":1727518116,"current_range_meters":10800,"station_id":"ce4bgjp2rcd13ifvqbh0","pricing_plan_id":"cebpf4jnsgd1na2vs0mg"},{"bike_id":"b25975a2-4789-471d-bf7d-ec59dfff3ec3","system_id":"levelo_inurba_marseille","lat":43.2953,"lon":5.3749,"is_reserved":false,"is_disabled":false,"rental_uris":{"android":"levelo://app?vid=b25975a2-4789-471d-bf7d-ec59dfff3ec3","ios":"levelo://app?vid=b25975a2-4789-471d-bf7d-ec59dfff3ec3"},"vehicle_type_id":"4","last_reported":1727518116,"current_range_meters":18800,"station_id":"ce4bgkp2rcd13ifvqbmg","pricing_plan_id":"cebpf4jnsgd1na2vs0mg"},{"bike_id":"9f901934-787a-4b94-be76-adbd9a005542","system_id":"levelo_inurba_marseille","lat":43.28668,"lon":5.36343,"is_reserved":false,"is_disabled":false,"rental_uris":{"android":"levelo://app?vid=9f901934-787a-4b94-be76-adbd9a005542","ios":"levelo://app?vid=9f901934-787a-4b94-be76-adbd9a005542"},"vehicle_type_id":"4","last_reported":1727518116,"current_range_meters":38800,"station_id":"ce4bhah2rcd13ifvqej0","pricing_plan_id":"cebpf4jnsgd1na2vs0mg"},{"bike_id":"4bcefddd-6ead-412a-b061-862f592e3f08","system_id":"levelo_inurba_marseille","lat":43.24386,"lon":5.37054,"is_reserved":false,"is_disabled":false,"rental_uris":{"android":"levelo://app?vid=4bcefddd-6ead-412a-b061-862f592e3f08","ios":"levelo://app?vid=4bcefddd-6ead-412a-b061-862f592e3f08"},"vehicle_type_id":"4","last_reported":1727518116,"current_range_meters":14000,"station_id":"ce4bhhh2rcd13ifvqfk0","pricing_plan_id":"cebpf4jnsgd1na2vs0mg"},{"bike_id":"da3d8f0d-0f47-455d-bf44-fb306bfeadf4","system_id":"levelo_inurba_marseille","lat":43.30148,"lon":5.38081,"is_reserved":false,"is_disabled":false,"rental_uris":{"android":"levelo://app?vid=da3d8f0d-0f47-455d-bf44-fb306bfeadf4","ios":"levelo://app?vid=da3d8f0d-0f47-455d-bf44-fb306bfeadf4"},"vehicle_type_id":"4","last_reported":1727518116,"current_range_meters":27200,"station_id":"ce4bgjp2rcd13ifvqbh0","pricing_plan_id":"cebpf4jnsgd1na2vs0mg"},{"bike_id":"103aa830-2b3f-4956-b2f5-aa04df73e85b","system_id":"levelo_inurba_marseille","lat":43.29619,"lon":5.37149,"is_reserved":false,"is_disabled":false,"rental_uris":{"android":"levelo://app?vid=103aa830-2b3f-4956-b2f5-aa04df73e85b","ios":"levelo://app?vid=103aa830-2b3f-4956-b2f5-aa04df73e85b"},"vehicle_type_id":"4","last_reported":1727518116,"current_range_meters":16400,"station_id":"ce4bgnh2rcd13ifvqc0g","pricing_plan_id":"cebpf4jnsgd1na2vs0mg"},{"bike_id":"67ad384a-3a16-4e29-9113-32c6258c1182","system_id":"levelo_inurba_marseille","lat":43.30161,"lon":5.38081,"is_reserved":false,"is_disabled":false,"rental_uris":{"android":"levelo://app?vid=67ad384a-3a16-4e29-9113-32c6258c1182","ios":"levelo://app?vid=67ad384a-3a16-4e29-9113-32c6258c1182"},"vehicle_type_id":"4","last_reported":1727518116,"current_range_meters":38800,"station_id":"ce4bgjp2rcd13ifvqbh0","pricing_plan_id":"cebpf4jnsgd1na2vs0mg"},{"bike_id":"0180ce52-df6e-4c5e-a8b0-b8ad49f017fe","system_id":"levelo_inurba_marseille","lat":43.30898,"lon":5.37189,"is_reserved":false,"is_disabled":false,"rental_uris":{"android":"levelo://app?vid=0180ce52-df6e-4c5e-a8b0-b8ad49f017fe","ios":"levelo://app?vid=0180ce52-df6e-4c5e-a8b0-b8ad49f017fe"},"vehicle_type_id":"4","last_reported":1727518116,"current_range_meters":32400,"station_id":"ce4bguh2rcd13ifvqckg","pricing_plan_id":"cebpf4jnsgd1na2vs0mg"},{"bike_id":"0c3f0369-7cdf-4cba-a0db-09435ab8c8da","system_id":"levelo_inurba_marseille","lat":43.23191,"lon":5.39991,"is_reserved":false,"is_disabled":false,"rental_uris":{"android":"levelo://app?vid=0c3f0369-7cdf-4cba-a0db-09435ab8c8da","ios":"levelo://app?vid=0c3f0369-7cdf-4cba-a0db-09435ab8c8da"},"vehicle_type_id":"4","last_reported":1727518116,"current_range_meters":31200,"station_id":"ce4bhn12rcd13ifvqgqg","pricing_plan_id":"cebpf4jnsgd1na2vs0mg"},{"bike_id":"deb7980f-58a8-4033-8835-655c6a4e78f7","system_id":"levelo_inurba_marseille","lat":43.27561,"lon":5.38414,"is_reserved":false,"is_disabled":false,"rental_uris":{"android":"levelo://app?vid=deb7980f-58a8-4033-8835-655c6a4e78f7","ios":"levelo://app?vid=deb7980f-58a8-4033-8835-655c6a4e78f7"},"vehicle_type_id":"4","last_reported":1727518116,"current_range_meters":38800,"station_id":"ce4bhh92rcd13ifvqfi0","pricing_plan_id":"cebpf4jnsgd1na2vs0mg"},{"bike_id":"5bbd2505-51dc-451e-8388-5c62e078114a","system_id":"levelo_inurba_marseille","lat":43.24179,"lon":5.39734,"is_reserved":false,"is_disabled":false,"rental_uris":{"android":"levelo://app?vid=5bbd2505-51dc-451e-8388-5c62e078114a","ios":"levelo://app?vid=5bbd2505-51dc-451e-8388-5c62e078114a"},"vehicle_type_id":"4","last_reported":1727518116,"current_range_meters":39200,"station_id":"ce4bhn12rcd13ifvqgpg","pricing_plan_id":"cebpf4jnsgd1na2vs0mg"},{"bike_id":"06981e52-06f2-48c7-8865-e14ca565f9df","system_id":"levelo_inurba_marseille","lat":43.29728,"lon":5.37679,"is_reserved":false,"is_disabled":false,"rental_uris":{"android":"levelo://app?vid=06981e52-06f2-48c7-8865-e14ca565f9df","ios":"levelo://app?vid=06981e52-06f2-48c7-8865-e14ca565f9df"},"vehicle_type_id":"4","last_reported":1727518116,"current_range_meters":38800,"station_id":"ce4bgkh2rcd13ifvqbl0","pricing_plan_id":"cebpf4jnsgd1na2vs0mg"},{"bike_id":"bc20af5c-be7b-4c51-b09b-2e170ca1b5b9","system_id":"levelo_inurba_marseille","lat":43.25487,"lon":5.37647,"is_reserved":false,"is_disabled":false,"rental_uris":{"android":"levelo://app?vid=bc20af5c-be7b-4c51-b09b-2e170ca1b5b9","ios":"levelo://app?vid=bc20af5c-be7b-4c51-b09b-2e170ca1b5b9"},"vehicle_type_id":"4","last_reported":1727518116,"current_range_meters":37600,"station_id":"ce4bhh12rcd13ifvqff0","pricing_plan_id":"cebpf4jnsgd1na2vs0mg"},{"bike_id":"03af8350-a5f2-42f1-9a40-a313e4daf477","system_id":"levelo_inurba_marseille","lat":43.23188,"lon":5.39983,"is_reserved":false,"is_disabled":false,"rental_uris":{"android":"levelo://app?vid=03af8350-a5f2-42f1-9a40-a313e4daf477","ios":"levelo://app?vid=03af8350-a5f2-42f1-9a40-a313e4daf477"},"vehicle_type_id":"4","last_reported":1727518116,"current_range_meters":9200,"station_id":"ce4bhn12rcd13ifvqgqg","pricing_plan_id":"cebpf4jnsgd1na2vs0mg"},{"bike_id":"242970b0-1372-463d-8314-94d3c92d90a4","system_id":"levelo_inurba_marseille","lat":43.26209,"lon":5.37443,"is_reserved":false,"is_disabled":false,"rental_uris":{"android":"levelo://app?vid=242970b0-1372-463d-8314-94d3c92d90a4","ios":"levelo://app?vid=242970b0-1372-463d-8314-94d3c92d90a4"},"vehicle_type_id":"4","last_reported":1727518116,"current_range_meters":33200,"station_id":"ce4bhgp2rcd13ifvqfc0","pricing_plan_id":"cebpf4jnsgd1na2vs0mg"},{"bike_id":"d8e32f1c-4c32-4777-922d-4d90b15b71c7","system_id":"levelo_inurba_marseille","lat":43.30863,"lon":5.3685,"is_reserved":false,"is_disabled":false,"rental_uris":{"android":"levelo://app?vid=d8e32f1c-4c32-4777-922d-4d90b15b71c7","ios":"levelo://app?vid=d8e32f1c-4c32-4777-922d-4d90b15b71c7"},"vehicle_type_id":"4","last_reported":1727518116,"current_range_meters":10000,"station_id":"ce4bgn92rcd13ifvqbvg","pricing_plan_id":"cebpf4jnsgd1na2vs0mg"},{"bike_id":"06f62eff-144c-42e8-9cda-03a811e02320","system_id":"levelo_inurba_marseille","lat":43.27488,"lon":5.42457,"is_reserved":false,"is_disabled":false,"rental_uris":{"android":"levelo://app?vid=06f62eff-144c-42e8-9cda-03a811e02320","ios":"levelo://app?vid=06f62eff-144c-42e8-9cda-03a811e02320"},"vehicle_type_id":"4","last_reported":1727518116,"current_range_meters":35200,"station_id":"ce4bhn92rcd13ifvqgrg","pricing_plan_id":"cebpf4jnsgd1na2vs0mg"},{"bike_id":"b470945e-f45c-4291-ac95-d7061c9aab44","system_id":"levelo_inurba_marseille","lat":43.27367,"lon":5.4122,"is_reserved":false,"is_disabled":false,"rental_uris":{"android":"levelo://app?vid=b470945e-f45c-4291-ac95-d7061c9aab44","ios":"levelo://app?vid=b470945e-f45c-4291-ac95-d7061c9aab44"},"vehicle_type_id":"4","last_reported":1727518116,"current_range_meters":28400,"station_id":"","pricing_plan_id":"cebpf4jnsgd1na2vs0mg"},{"bike_id":"af8b53b3-c5dd-46cd-8e9d-8d667b426117","system_id":"levelo_inurba_marseille","lat":43.303864,"lon":5.393082,"is_reserved":false,"is_disabled":false,"rental_uris":{"android":"levelo://app?vid=af8b53b3-c5dd-46cd-8e9d-8d667b426117","ios":"levelo://app?vid=af8b53b3-c5dd-46cd-8e9d-8d667b426117"},"vehicle_type_id":"4","last_reported":1727518116,"current_range_meters":38800,"station_id":"ce4bgj92rcd13ifvqbd0","pricing_plan_id":"cebpf4jnsgd1na2vs0mg"},{"bike_id":"23718270-4e74-46b6-8713-922dcb881082","system_id":"levelo_inurba_marseille","lat":43.3046,"lon":5.37901,"is_reserved":false,"is_disabled":false,"rental_uris":{"android":"levelo://app?vid=23718270-4e74-46b6-8713-922dcb881082","ios":"levelo://app?vid=23718270-4e74-46b6-8713-922dcb881082"},"vehicle_type_id":"4","last_reported":1727518116,"current_range_meters":30000,"station_id":"ce4bgup2rcd13ifvqcn0","pricing_plan_id":"cebpf4jnsgd1na2vs0mg"},{"bike_id":"1a20ea9f-ac93-42d3-aa28-127e314df036","system_id":"levelo_inurba_marseille","lat":43.26945,"lon":5.38628,"is_reserved":false,"is_disabled":false,"rental_uris":{"android":"levelo://app?vid=1a20ea9f-ac93-42d3-aa28-127e314df036","ios":"levelo://app?vid=1a20ea9f-ac93-42d3-aa28-127e314df036"},"vehicle_type_id":"4","last_reported":1727518116,"current_range_meters":37600,"station_id":"ce4bhh92rcd13ifvqfh0","pricing_plan_id":"cebpf4jnsgd1na2vs0mg"},{"bike_id":"dc414483-48e9-4841-af7d-32c7584a4d31","system_id":"levelo_inurba_marseille","lat":43.24644,"lon":5.38903,"is_reserved":false,"is_disabled":false,"rental_uris":{"android":"levelo://app?vid=dc414483-48e9-4841-af7d-32c7584a4d31","ios":"levelo://app?vid=dc414483-48e9-4841-af7d-32c7584a4d31"},"vehicle_type_id":"4","last_reported":1727518116,"current_range_meters":22000,"station_id":"ce4bhg12rcd13ifvqf60","pricing_plan_id":"cebpf4jnsgd1na2vs0mg"},{"bike_id":"e4361fa2-90d9-45ff-9d8a-e7b112f4e011","system_id":"levelo_inurba_marseille","lat":43.28506,"lon":5.39119,"is_reserved":false,"is_disabled":false,"rental_uris":{"android":"levelo://app?vid=e4361fa2-90d9-45ff-9d8a-e7b112f4e011","ios":"levelo://app?vid=e4361fa2-90d9-45ff-9d8a-e7b112f4e011"},"vehicle_type_id":"4","last_reported":1727518116,"current_range_meters":33600,"station_id":"ce4bh3p2rcd13ifvqdp0","pricing_plan_id":"cebpf4jnsgd1na2vs0mg"},{"bike_id":"5047cb4d-ca91-46aa-bdab-25b28ad12de4","system_id":"levelo_inurba_marseille","lat":43.2467,"lon":5.38148,"is_reserved":false,"is_disabled":false,"rental_uris":{"android":"levelo://app?vid=5047cb4d-ca91-46aa-bdab-25b28ad12de4","ios":"levelo://app?vid=5047cb4d-ca91-46aa-bdab-25b28ad12de4"},"vehicle_type_id":"4","last_reported":1727518116,"current_range_meters":6800,"station_id":"ce4bhih2rcd13ifvqfr0","pricing_plan_id":"cebpf4jnsgd1na2vs0mg"},{"bike_id":"e008fd61-43c0-429a-b2db-db9a7277c25c","system_id":"levelo_inurba_marseille","lat":43.2466,"lon":5.38162,"is_reserved":false,"is_disabled":false,"rental_uris":{"android":"levelo://app?vid=e008fd61-43c0-429a-b2db-db9a7277c25c","ios":"levelo://app?vid=e008fd61-43c0-429a-b2db-db9a7277c25c"},"vehicle_type_id":"4","last_reported":1727518116,"current_range_meters":38800,"station_id":"ce4bhih2rcd13ifvqfr0","pricing_plan_id":"cebpf4jnsgd1na2vs0mg"},{"bike_id":"623f0d9e-00ec-42fc-ad5c-64dbf135db7b","system_id":"levelo_inurba_marseille","lat":43.323425,"lon":5.406286,"is_reserved":false,"is_disabled":false,"rental_uris":{"android":"levelo://app?vid=623f0d9e-00ec-42fc-ad5c-64dbf135db7b","ios":"levelo://app?vid=623f0d9e-00ec-42fc-ad5c-64dbf135db7b"},"vehicle_type_id":"4","last_reported":1727518116,"current_range_meters":25200,"station_id":"ce4bhq92rcd13ifvqhjg","pricing_plan_id":"cebpf4jnsgd1na2vs0mg"},{"bike_id":"a6274047-7bda-46f6-9a15-5b3e5671f58d","system_id":"levelo_inurba_marseille","lat":43.30321,"lon":5.40433,"is_reserved":false,"is_disabled":false,"rental_uris":{"android":"levelo://app?vid=a6274047-7bda-46f6-9a15-5b3e5671f58d","ios":"levelo://app?vid=a6274047-7bda-46f6-9a15-5b3e5671f58d"},"vehicle_type_id":"4","last_reported":1727518116,"current_range_meters":35200,"station_id":"ce4bh012rcd13ifvqd10","pricing_plan_id":"cebpf4jnsgd1na2vs0mg"},{"bike_id":"cab45fd0-efbe-42f4-815f-9d32eba24a97","system_id":"levelo_inurba_marseille","lat":43.279449,"lon":5.410468,"is_reserved":false,"is_disabled":false,"rental_uris":{"android":"levelo://app?vid=cab45fd0-efbe-42f4-815f-9d32eba24a97","ios":"levelo://app?vid=cab45fd0-efbe-42f4-815f-9d32eba24a97"},"vehicle_type_id":"4","last_reported":1727518116,"current_range_meters":19600,"station_id":"ce4bhnp2rcd13ifvqh0g","pricing_plan_id":"cebpf4jnsgd1na2vs0mg"},{"bike_id":"6eff8d2d-61fa-4715-9388-b30a052d3e98","system_id":"levelo_inurba_marseille","lat":43.337444,"lon":5.374475,"is_reserved":false,"is_disabled":false,"rental_uris":{"android":"levelo://app?vid=6eff8d2d-61fa-4715-9388-b30a052d3e98","ios":"levelo://app?vid=6eff8d2d-61fa-4715-9388-b30a052d3e98"},"vehicle_type_id":"4","last_reported":1727518116,"current_range_meters":33200,"station_id":"","pricing_plan_id":"cebpf4jnsgd1na2vs0mg"},{"bike_id":"637ea54b-676e-4687-a372-f778f0655b85","system_id":"levelo_inurba_marseille","lat":43.27215,"lon":5.40101,"is_reserved":false,"is_disabled":false,"rental_uris":{"android":"levelo://app?vid=637ea54b-676e-4687-a372-f778f0655b85","ios":"levelo://app?vid=637ea54b-676e-4687-a372-f778f0655b85"},"vehicle_type_id":"4","last_reported":1727518116,"current_range_meters":26000,"station_id":"","pricing_plan_id":"cebpf4jnsgd1na2vs0mg"},{"bike_id":"a8b08d5f-10d8-4548-a24c-e33055436ce3","system_id":"levelo_inurba_marseille","lat":43.2668,"lon":5.38271,"is_reserved":false,"is_disabled":false,"rental_uris":{"android":"levelo://app?vid=a8b08d5f-10d8-4548-a24c-e33055436ce3","ios":"levelo://app?vid=a8b08d5f-10d8-4548-a24c-e33055436ce3"},"vehicle_type_id":"4","last_reported":1727518116,"current_range_meters":18000,"station_id":"ce4bhg92rcd13ifvqf90","pricing_plan_id":"cebpf4jnsgd1na2vs0mg"},{"bike_id":"def59186-a607-411f-b1e6-5f72436adb75","system_id":"levelo_inurba_marseille","lat":43.27979,"lon":5.38757,"is_reserved":false,"is_disabled":false,"rental_uris":{"android":"levelo://app?vid=def59186-a607-411f-b1e6-5f72436adb75","ios":"levelo://app?vid=def59186-a607-411f-b1e6-5f72436adb75"},"vehicle_type_id":"4","last_reported":1727518116,"current_range_meters":36400,"station_id":"ce4bhg12rcd13ifvqf80","pricing_plan_id":"cebpf4jnsgd1na2vs0mg"},{"bike_id":"f0e5d3cb-6abc-4ba4-a5da-e1c79fa1e22b","system_id":"levelo_inurba_marseille","lat":43.29964,"lon":5.38491,"is_reserved":false,"is_disabled":false,"rental_uris":{"android":"levelo://app?vid=f0e5d3cb-6abc-4ba4-a5da-e1c79fa1e22b","ios":"levelo://app?vid=f0e5d3cb-6abc-4ba4-a5da-e1c79fa1e22b"},"vehicle_type_id":"4","last_reported":1727518116,"current_range_meters":24400,"station_id":"ce4bgj92rcd13ifvqbd0","pricing_plan_id":"cebpf4jnsgd1na2vs0mg"},{"bike_id":"49103c36-092f-43a6-a665-96ac4218adb8","system_id":"levelo_inurba_marseille","lat":43.32286,"lon":5.38261,"is_reserved":false,"is_disabled":false,"rental_uris":{"android":"levelo://app?vid=49103c36-092f-43a6-a665-96ac4218adb8","ios":"levelo://app?vid=49103c36-092f-43a6-a665-96ac4218adb8"},"vehicle_type_id":"4","last_reported":1727518116,"current_range_meters":38800,"station_id":"ce4bhr12rcd13ifvqhqg","pricing_plan_id":"cebpf4jnsgd1na2vs0mg"},{"bike_id":"43fdf345-c7f3-42cd-ad8c-5b634196560a","system_id":"levelo_inurba_marseille","lat":43.30132,"lon":5.38778,"is_reserved":false,"is_disabled":false,"rental_uris":{"android":"levelo://app?vid=43fdf345-c7f3-42cd-ad8c-5b634196560a","ios":"levelo://app?vid=43fdf345-c7f3-42cd-ad8c-5b634196560a"},"vehicle_type_id":"4","last_reported":1727518116,"current_range_meters":21600,"station_id":"ce4bghh2rcd13ifvqb60","pricing_plan_id":"cebpf4jnsgd1na2vs0mg"},{"bike_id":"ee50b04c-1e19-4059-b07d-92bbfd271b23","system_id":"levelo_inurba_marseille","lat":43.30418,"lon":5.39748,"is_reserved":false,"is_disabled":false,"rental_uris":{"android":"levelo://app?vid=ee50b04c-1e19-4059-b07d-92bbfd271b23","ios":"levelo://app?vid=ee50b04c-1e19-4059-b07d-92bbfd271b23"},"vehicle_type_id":"4","last_reported":1727518116,"current_range_meters":39200,"station_id":"ce4bh092rcd13ifvqd20","pricing_plan_id":"cebpf4jnsgd1na2vs0mg"},{"bike_id":"4b4ed119-6eb4-4075-b262-c3ef8ccdccb2","system_id":"levelo_inurba_marseille","lat":43.28491,"lon":5.38568,"is_reserved":false,"is_disabled":false,"rental_uris":{"android":"levelo://app?vid=4b4ed119-6eb4-4075-b262-c3ef8ccdccb2","ios":"levelo://app?vid=4b4ed119-6eb4-4075-b262-c3ef8ccdccb2"},"vehicle_type_id":"4","last_reported":1727518116,"current_range_meters":20800,"station_id":"ce4bh8p2rcd13ifvqeb0","pricing_plan_id":"cebpf4jnsgd1na2vs0mg"},{"bike_id":"098b0cab-799a-42e0-9cb3-8fe6e62c7265","system_id":"levelo_inurba_marseille","lat":43.31276,"lon":5.401723,"is_reserved":false,"is_disabled":false,"rental_uris":{"android":"levelo://app?vid=098b0cab-799a-42e0-9cb3-8fe6e62c7265","ios":"levelo://app?vid=098b0cab-799a-42e0-9cb3-8fe6e62c7265"},"vehicle_type_id":"4","last_reported":1727518116,"current_range_meters":2800,"station_id":"ce4bh092rcd13ifvqd30","pricing_plan_id":"cebpf4jnsgd1na2vs0mg"},{"bike_id":"6f0f9c32-de70-4574-9b89-cca29ab0554e","system_id":"levelo_inurba_marseille","lat":43.337444,"lon":5.374475,"is_reserved":false,"is_disabled":false,"rental_uris":{"android":"levelo://app?vid=6f0f9c32-de70-4574-9b89-cca29ab0554e","ios":"levelo://app?vid=6f0f9c32-de70-4574-9b89-cca29ab0554e"},"vehicle_type_id":"4","last_reported":1727518116,"current_range_meters":31200,"station_id":"","pricing_plan_id":"cebpf4jnsgd1na2vs0mg"},{"bike_id":"44839918-e841-4578-a34d-4d8014b09bc8","system_id":"levelo_inurba_marseille","lat":43.31224,"lon":5.36855,"is_reserved":false,"is_disabled":false,"rental_uris":{"android":"levelo://app?vid=44839918-e841-4578-a34d-4d8014b09bc8","ios":"levelo://app?vid=44839918-e841-4578-a34d-4d8014b09bc8"},"vehicle_type_id":"4","last_reported":1727518116,"current_range_meters":38800,"station_id":"ce4bgl92rcd13ifvqbq0","pricing_plan_id":"cebpf4jnsgd1na2vs0mg"},{"bike_id":"0687a646-be72-47a3-8907-22e0afb02a46","system_id":"levelo_inurba_marseille","lat":43.23962,"lon":5.36624,"is_reserved":false,"is_disabled":false,"rental_uris":{"android":"levelo://app?vid=0687a646-be72-47a3-8907-22e0afb02a46","ios":"levelo://app?vid=0687a646-be72-47a3-8907-22e0afb02a46"},"vehicle_type_id":"4","last_reported":1727518116,"current_range_meters":36800,"station_id":"ce4bhi12rcd13ifvqfp0","pricing_plan_id":"cebpf4jnsgd1na2vs0mg"},{"bike_id":"b51e12b3-7df2-4845-bef4-3fd1f7641c91","system_id":"levelo_inurba_marseille","lat":43.25725,"lon":5.41105,"is_reserved":false,"is_disabled":false,"rental_uris":{"android":"levelo://app?vid=b51e12b3-7df2-4845-bef4-3fd1f7641c91","ios":"levelo://app?vid=b51e12b3-7df2-4845-bef4-3fd1f7641c91"},"vehicle_type_id":"4","last_reported":1727518116,"current_range_meters":34800,"station_id":"ce4bhkp2rcd13ifvqgd0","pricing_plan_id":"cebpf4jnsgd1na2vs0mg"},{"bike_id":"5e653bde-cd61-44a4-ac4d-5148c4bfa5d6","system_id":"levelo_inurba_marseille","lat":43.29578,"lon":5.36731,"is_reserved":false,"is_disabled":false,"rental_uris":{"android":"levelo://app?vid=5e653bde-cd61-44a4-ac4d-5148c4bfa5d6","ios":"levelo://app?vid=5e653bde-cd61-44a4-ac4d-5148c4bfa5d6"},"vehicle_type_id":"4","last_reported":1727518116,"current_range_meters":16000,"station_id":"ce4bgph2rcd13ifvqc2g","pricing_plan_id":"cebpf4jnsgd1na2vs0mg"},{"bike_id":"99cdbd9b-38e3-466f-bd1e-ac71554dadb5","system_id":"levelo_inurba_marseille","lat":43.28154,"lon":5.42635,"is_reserved":false,"is_disabled":false,"rental_uris":{"android":"levelo://app?vid=99cdbd9b-38e3-466f-bd1e-ac71554dadb5","ios":"levelo://app?vid=99cdbd9b-38e3-466f-bd1e-ac71554dadb5"},"vehicle_type_id":"4","last_reported":1727518116,"current_range_meters":38800,"station_id":"ce4bhnh2rcd13ifvqgug","pricing_plan_id":"cebpf4jnsgd1na2vs0mg"},{"bike_id":"90c05d40-f5db-4a12-95b3-f8d41ae2e51b","system_id":"levelo_inurba_marseille","lat":43.32367,"lon":5.38875,"is_reserved":false,"is_disabled":false,"rental_uris":{"android":"levelo://app?vid=90c05d40-f5db-4a12-95b3-f8d41ae2e51b","ios":"levelo://app?vid=90c05d40-f5db-4a12-95b3-f8d41ae2e51b"},"vehicle_type_id":"4","last_reported":1727518116,"current_range_meters":35200,"station_id":"ce4bhqp2rcd13ifvqhog","pricing_plan_id":"cebpf4jnsgd1na2vs0mg"},{"bike_id":"69f7b011-a50f-45ed-8749-b94fff8fdfb4","system_id":"levelo_inurba_marseille","lat":43.29763,"lon":5.3713,"is_reserved":false,"is_disabled":false,"rental_uris":{"android":"levelo://app?vid=69f7b011-a50f-45ed-8749-b94fff8fdfb4","ios":"levelo://app?vid=69f7b011-a50f-45ed-8749-b94fff8fdfb4"},"vehicle_type_id":"4","last_reported":1727518116,"current_range_meters":38800,"station_id":"ce4bgop2rcd13ifvqc1g","pricing_plan_id":"cebpf4jnsgd1na2vs0mg"},{"bike_id":"51cb7483-6abd-42e9-b258-96bd9ab429c0","system_id":"levelo_inurba_marseille","lat":43.30423,"lon":5.38889,"is_reserved":false,"is_disabled":false,"rental_uris":{"android":"levelo://app?vid=51cb7483-6abd-42e9-b258-96bd9ab429c0","ios":"levelo://app?vid=51cb7483-6abd-42e9-b258-96bd9ab429c0"},"vehicle_type_id":"4","last_reported":1727518116,"current_range_meters":30000,"station_id":"ce4bgk12rcd13ifvqbi0","pricing_plan_id":"cebpf4jnsgd1na2vs0mg"},{"bike_id":"b98e9569-881f-49b2-9b3e-86b7abafd7d4","system_id":"levelo_inurba_marseille","lat":43.3204,"lon":5.41555,"is_reserved":false,"is_disabled":false,"rental_uris":{"android":"levelo://app?vid=b98e9569-881f-49b2-9b3e-86b7abafd7d4","ios":"levelo://app?vid=b98e9569-881f-49b2-9b3e-86b7abafd7d4"},"vehicle_type_id":"4","last_reported":1727518116,"current_range_meters":39200,"station_id":"ce4bhq92rcd13ifvqhkg","pricing_plan_id":"cebpf4jnsgd1na2vs0mg"},{"bike_id":"8bb5918a-f616-48bb-95ac-211a7d9fb408","system_id":"levelo_inurba_marseille","lat":43.26033,"lon":5.37554,"is_reserved":false,"is_disabled":false,"rental_uris":{"android":"levelo://app?vid=8bb5918a-f616-48bb-95ac-211a7d9fb408","ios":"levelo://app?vid=8bb5918a-f616-48bb-95ac-211a7d9fb408"},"vehicle_type_id":"4","last_reported":1727518116,"current_range_meters":22000,"station_id":"ce4bhgh2rcd13ifvqfa0","pricing_plan_id":"cebpf4jnsgd1na2vs0mg"},