{"last_updated":1768770581,"ttl":60,"version":"2.2","data":{"bikes":[{"bike_id":"34c66c70-d3e2-4b84-b84c-2f238c05e82f","system_id":"levelo_inurba_marseille","lat":43.32369,"lon":5.36749,"is_reserved":false,"is_disabled":false,"rental_uris":{"android":"levelo://app?vid=34c66c70-d3e2-4b84-b84c-2f238c05e82f","ios":"levelo://app?vid=34c66c70-d3e2-4b84-b84c-2f238c05e82f"},"vehicle_type_id":"4","last_reported":1768770581,"current_range_meters":2800,"station_id":"ce4bhsh2rcd13ifvqi2g","pricing_plan_id":"cebpf4jnsgd1na2vs0mg"},{"bike_id":"f3bf1747-68f9-4f9b-8027-cf6afb5db377","system_id":"levelo_inurba_marseille","lat":43.283468,"lon":5.380984,"is_reserved":false,"is_disabled":false,"rental_uris":{"android":"levelo://app?vid=f3bf1747-68f9-4f9b-8027-cf6afb5db377","ios":"levelo://app?vid=f3bf1747-68f9-4f9b-8027-cf6afb5db377"},"vehicle_type_id":"4","last_reported":1768770581,"current_range_meters":3200,"station_id":"ce4bh412rcd13ifvqdr0","pricing_plan_id":"cebpf4jnsgd1na2vs0mg"},{"bike_id":"e6872936-d756-4b20-b25b-25e2aeef4bd8","system_id":"levelo_inurba_marseille","lat":43.23194,"lon":5.35547,"is_reserved":false,"is_disabled":false,"rental_uris":{"android":"levelo://app?vid=e6872936-d756-4b20-b25b-25e2aeef4bd8","ios":"levelo://app?vid=e6872936-d756-4b20-b25b-25e2aeef4bd8"},"vehicle_type_id":"4","last_reported":1768770581,"current_range_meters":3200,"station_id":"ce4bhu92rcd13ifvqi70","pricing_plan_id":"cebpf4jnsgd1na2vs0mg"},{"bike_id":"c15ab4b3-5485-40df-891c-d3d2746a9add","system_id":"levelo_inurba_marseille","lat":43.301251,"lon":5.431132,"is_reserved":false,"is_disabled":false,"rental_uris":{"android":"levelo://app?vid=c15ab4b3-5485-40df-891c-d3d2746a9add","ios":"levelo://app?vid=c15ab4b3-5485-40df-891c-d3d2746a9add"},"vehicle_type_id":"4","last_reported":1768770581,"current_range_meters":3200,"station_id":"st_d3js3co5814s73ftftug","pricing_plan_id":"cebpf4jnsgd1na2vs0mg"},{"bike_id":"878dde24-bede-4e19-ae02-67a59c493306","system_id":"levelo_inurba_marseille","lat":43.279428,"lon":5.410464,"is_reserved":false,"is_disabled":false,"rental_uris":{"android":"levelo://app?vid=878dde24-bede-4e19-ae02-67a59c493306","ios":"levelo://app?vid=878dde24-bede-4e19-ae02-67a59c493306"},"vehicle_type_id":"4","last_reported":1768770581,"current_range_meters":3200,"station_id":"ce4bhnp2rcd13ifvqh0g","pricing_plan_id":"cebpf4jnsgd1na2vs0mg"},{"bike_id":"835ceeb7-f45f-4988-ae31-f05f684342b1","system_id":"levelo_inurba_marseille","lat":43.24813,"lon":5.37468,"is_reserved":false,"is_disabled":false,"rental_uris":{"android":"levelo://app?vid=835ceeb7-f45f-4988-ae31-f05f684342b1","ios":"levelo://app?vid=835ceeb7-f45f-4988-ae31-f05f684342b1"},"vehicle_type_id":"4","last_reported":1768770581,"current_range_meters":3200,"station_id":"ce4bhgh2rcd13ifvqfb0","pricing_plan_id":"cebpf4jnsgd1na2vs0mg"},{"bike_id":"dc2a51a7-64f4-4158-b84a-2791d926c053","system_id":"levelo_inurba_marseille","lat":43.31302,"lon":5.38185,"is_reserved":false,"is_disabled":false,"rental_uris":{"android":"levelo://app?vid=dc2a51a7-64f4-4158-b84a-2791d926c053","ios":"levelo://app?vid=dc2a51a7-64f4-4158-b84a-2791d926c053"},"vehicle_type_id":"4","last_reported":1768770581,"current_range_meters":3200,"station_id":"","pricing_plan_id":"cebpf4jnsgd1na2vs0mg"},{"bike_id":"5fa4bc35-3a66-4e03-aa83-85a61637d85b","system_id":"levelo_inurba_marseille","lat":43.30914,"lon":5.39066,"is_reserved":false,"is_disabled":true,"rental_uris":{"android":"levelo://app?vid=5fa4bc35-3a66-4e03-aa83-85a61637d85b","ios":"levelo://app?vid=5fa4bc35-3a66-4e03-aa83-85a61637d85b"},"vehicle_type_id":"4","last_reported":1768770581,"current_range_meters":3200,"station_id":"","pricing_plan_id":"cebpf4jnsgd1na2vs0mg"},{"bike_id":"463320f5-e892-41ba-802c-8be01b12e869","system_id":"levelo_inurba_marseille","lat":43.22929,"lon":5.35373,"is_reserved":false,"is_disabled":false,"rental_uris":{"android":"levelo://app?vid=463320f5-e892-41ba-802c-8be01b12e869","ios":"levelo://app?vid=463320f5-e892-41ba-802c-8be01b12e869"},"vehicle_type_id":"4","last_reported":1768770581,"current_range_meters":3200,"station_id":"cpo3532slgdg3j2ikp40","pricing_plan_id":"cebpf4jnsgd1na2vs0mg"},{"bike_id":"87b5357d-414b-416f-80a1-83f8ec40c16e","system_id":"levelo_inurba_marseille","lat":43.308089,"lon":5.381576,"is_reserved":false,"is_disabled":false,"rental_uris":{"android":"levelo://app?vid=87b5357d-414b-416f-80a1-83f8ec40c16e","ios":"levelo://app?vid=87b5357d-414b-416f-80a1-83f8ec40c16e"},"vehicle_type_id":"4","last_reported":1768770581,"current_range_meters":3600,"station_id":"ce4bgt12rcd13ifvqce0","pricing_plan_id":"cebpf4jnsgd1na2vs0mg"},{"bike_id":"9f9ee95b-a709-468f-875a-8cf12fad1678","system_id":"levelo_inurba_marseille","lat":43.30197,"lon":5.37432,"is_reserved":false,"is_disabled":false,"rental_uris":{"android":"levelo://app?vid=9f9ee95b-a709-468f-875a-8cf12fad1678","ios":"levelo://app?vid=9f9ee95b-a709-468f-875a-8cf12fad1678"},"vehicle_type_id":"4","last_reported":1768770581,"current_range_meters":3600,"station_id":"","pricing_plan_id":"cebpf4jnsgd1na2vs0mg"},{"bike_id":"9e22bfa9-2a50-4ed5-b9b2-cd25f6476383","system_id":"levelo_inurba_marseille","lat":43.23172,"lon":5.39982,"is_reserved":false,"is_disabled":false,"rental_uris":{"android":"levelo://app?vid=9e22bfa9-2a50-4ed5-b9b2-cd25f6476383","ios":"levelo://app?vid=9e22bfa9-2a50-4ed5-b9b2-cd25f6476383"},"vehicle_type_id":"4","last_reported":1768770581,"current_range_meters":3600,"station_id":"ce4bhn12rcd13ifvqgqg","pricing_plan_id":"cebpf4jnsgd1na2vs0mg"},{"bike_id":"3320b44f-28ee-4e99-ab1b-4906eed292fe","system_id":"levelo_inurba_marseille","lat":43.31491,"lon":5.37308,"is_reserved":false,"is_disabled":false,"rental_uris":{"android":"levelo://app?vid=3320b44f-28ee-4e99-ab1b-4906eed292fe","ios":"levelo://app?vid=3320b44f-28ee-4e99-ab1b-4906eed292fe"},"vehicle_type_id":"4","last_reported":1768770581,"current_range_meters":3600,"station_id":"ce4bgt12rcd13ifvqcd0","pricing_plan_id":"cebpf4jnsgd1na2vs0mg"},{"bike_id":"1c7752d6-3957-41a3-b756-451c1e115cff","system_id":"levelo_inurba_marseille","lat":43.26559,"lon":5.39065,"is_reserved":false,"is_disabled":false,"rental_uris":{"android":"levelo://app?vid=1c7752d6-3957-41a3-b756-451c1e115cff","ios":"levelo://app?vid=1c7752d6-3957-41a3-b756-451c1e115cff"},"vehicle_type_id":"4","last_reported":1768770581,"current_range_meters":3600,"station_id":"ce4bhe12rcd13ifvqf30","pricing_plan_id":"cebpf4jnsgd1na2vs0mg"},{"bike_id":"88c4f766-d2de-480d-8f2e-cdf43acac5f1","system_id":"levelo_inurba_marseille","lat":43.26207,"lon":5.37443,"is_reserved":false,"is_disabled":false,"rental_uris":{"android":"levelo://app?vid=88c4f766-d2de-480d-8f2e-cdf43acac5f1","ios":"levelo://app?vid=88c4f766-d2de-480d-8f2e-cdf43acac5f1"},"vehicle_type_id":"4","last_reported":1768770581,"current_range_meters":3600,"station_id":"ce4bhgp2rcd13ifvqfc0","pricing_plan_id":"cebpf4jnsgd1na2vs0mg"},{"bike_id":"772223ce-24bf-4e7e-9860-3e6b11fe1be5","system_id":"levelo_inurba_marseille","lat":43.24952,"lon":5.40481,"is_reserved":false,"is_disabled":false,"rental_uris":{"android":"levelo://app?vid=772223ce-24bf-4e7e-9860-3e6b11fe1be5","ios":"levelo://app?vid=772223ce-24bf-4e7e-9860-3e6b11fe1be5"},"vehicle_type_id":"4","last_reported":1768770581,"current_range_meters":3600,"station_id":"st_d2ngiaodas8pm72gd1h0","pricing_plan_id":"cebpf4jnsgd1na2vs0mg"},{"bike_id":"bdcbf31d-bfb7-4c29-bb53-33bbb71e396d","system_id":"levelo_inurba_marseille","lat":43.29524,"lon":5.38542,"is_reserved":false,"is_disabled":false,"rental_uris":{"android":"levelo://app?vid=bdcbf31d-bfb7-4c29-bb53-33bbb71e396d","ios":"levelo://app?vid=bdcbf31d-bfb7-4c29-bb53-33bbb71e396d"},"vehicle_type_id":"4","last_reported":1768770581,"current_range_meters":3600,"station_id":"ce4bgih2rcd13ifvqba0","pricing_plan_id":"cebpf4jnsgd1na2vs0mg"},{"bike_id":"0cdf86fa-1d6f-4140-aa62-b930ff22d688","system_id":"levelo_inurba_marseille","lat":43.25327,"lon":5.42205,"is_reserved":false,"is_disabled":false,"rental_uris":{"android":"levelo://app?vid=0cdf86fa-1d6f-4140-aa62-b930ff22d688","ios":"levelo://app?vid=0cdf86fa-1d6f-4140-aa62-b930ff22d688"},"vehicle_type_id":"4","last_reported":1768770581,"current_range_meters":4000,"station_id":"st_d2m65c5bi1j21697t3ng","pricing_plan_id":"cebpf4jnsgd1na2vs0mg"},{"bike_id":"b7030c86-98d8-47f9-8c97-51fa1dd2d0e3","system_id":"levelo_inurba_marseille","lat":43.29878,"lon":5.38894,"is_reserved":false,"is_disabled":false,"rental_uris":{"android":"levelo://app?vid=b7030c86-98d8-47f9-8c97-51fa1dd2d0e3","ios":"levelo://app?vid=b7030c86-98d8-47f9-8c97-51fa1dd2d0e3"},"vehicle_type_id":"4","last_reported":1768770581,"current_range_meters":4000,"station_id":"ce4bh392rcd13ifvqdl0","pricing_plan_id":"cebpf4jnsgd1na2vs0mg"},{"bike_id":"cccdb1be-5776-4650-8d82-01bf129afac7","system_id":"levelo_inurba_marseille","lat":43.2918,"lon":5.3932,"is_reserved":false,"is_disabled":true,"rental_uris":{"android":"levelo://app?vid=cccdb1be-5776-4650-8d82-01bf129afac7","ios":"levelo://app?vid=cccdb1be-5776-4650-8d82-01bf129afac7"},"vehicle_type_id":"4","last_reported":1768770581,"current_range_meters":4000,"station_id":"ce4bh192rcd13ifvqdd0","pricing_plan_id":"cebpf4jnsgd1na2vs0mg"},{"bike_id":"923a293c-cb5e-4620-acad-ddc8186290d8","system_id":"levelo_inurba_marseille","lat":43.246523,"lon":5.388881,"is_reserved":false,"is_disabled":false,"rental_uris":{"android":"levelo://app?vid=923a293c-cb5e-4620-acad-ddc8186290d8","ios":"levelo://app?vid=923a293c-cb5e-4620-acad-ddc8186290d8"},"vehicle_type_id":"4","last_reported":1768770581,"current_range_meters":4000,"station_id":"ce4bhg12rcd13ifvqf60","pricing_plan_id":"cebpf4jnsgd1na2vs0mg"},{"bike_id":"3de79ba5-6bdb-408d-95bd-3f4b9c83991c","system_id":"levelo_inurba_marseille","lat":43.29523,"lon":5.37894,"is_reserved":false,"is_disabled":false,"rental_uris":{"android":"levelo://app?vid=3de79ba5-6bdb-408d-95bd-3f4b9c83991c","ios":"levelo://app?vid=3de79ba5-6bdb-408d-95bd-3f4b9c83991c"},"vehicle_type_id":"4","last_reported":1768770581,"current_range_meters":4000,"station_id":"","pricing_plan_id":"cebpf4jnsgd1na2vs0mg"},{"bike_id":"894a0977-5656-4a03-aa3f-1587f7cf7530","system_id":"levelo_inurba_marseille","lat":43.32542,"lon":5.41123,"is_reserved":false,"is_disabled":false,"rental_uris":{"android":"levelo://app?vid=894a0977-5656-4a03-aa3f-1587f7cf7530","ios":"levelo://app?vid=894a0977-5656-4a03-aa3f-1587f7cf7530"},"vehicle_type_id":"4","last_reported":1768770581,"current_range_meters":4000,"station_id":"","pricing_plan_id":"cebpf4jnsgd1na2vs0mg"},{"bike_id":"eb48bc79-cbe6-44af-afdc-ba18cfafe423","system_id":"levelo_inurba_marseille","lat":43.27807,"lon":5.40704,"is_reserved":false,"is_disabled":false,"rental_uris":{"android":"levelo://app?vid=eb48bc79-cbe6-44af-afdc-ba18cfafe423","ios":"levelo://app?vid=eb48bc79-cbe6-44af-afdc-ba18cfafe423"},"vehicle_type_id":"4","last_reported":1768770581,"current_range_meters":4000,"station_id":"ce4bhnh2rcd13ifvqgtg","pricing_plan_id":"cebpf4jnsgd1na2vs0mg"},{"bike_id":"bb74209e-c6a8-44ea-96c7-046161e5ebb1","system_id":"levelo_inurba_marseille","lat":43.229308,"lon":5.353725,"is_reserved":false,"is_disabled":false,"rental_uris":{"android":"levelo://app?vid=bb74209e-c6a8-44ea-96c7-046161e5ebb1","ios":"levelo://app?vid=bb74209e-c6a8-44ea-96c7-046161e5ebb1"},"vehicle_type_id":"4","last_reported":1768770581,"current_range_meters":4000,"station_id":"cpo3532slgdg3j2ikp40","pricing_plan_id":"cebpf4jnsgd1na2vs0mg"},{"bike_id":"b9b7ed48-fd8e-4b04-bd3a-dd82cb005eb6","system_id":"levelo_inurba_marseille","lat":43.291922,"lon":5.393127,"is_reserved":false,"is_disabled":false,"rental_uris":{"android":"levelo://app?vid=b9b7ed48-fd8e-4b04-bd3a-dd82cb005eb6","ios":"levelo://app?vid=b9b7ed48-fd8e-4b04-bd3a-dd82cb005eb6"},"vehicle_type_id":"4","last_reported":1768770581,"current_range_meters":4400,"station_id":"ce4bh192rcd13ifvqdd0","pricing_plan_id":"cebpf4jnsgd1na2vs0mg"},{"bike_id":"1ec247ef-5ae2-4481-a8f1-83d49de262d8","system_id":"levelo_inurba_marseille","lat":43.255809,"lon":5.38246,"is_reserved":false,"is_disabled":false,"rental_uris":{"android":"levelo://app?vid=1ec247ef-5ae2-4481-a8f1-83d49de262d8","ios":"levelo://app?vid=1ec247ef-5ae2-4481-a8f1-83d49de262d8"},"vehicle_type_id":"4","last_reported":1768770581,"current_range_meters":4400,"station_id":"ce4bhih2rcd13ifvqfs0","pricing_plan_id":"cebpf4jnsgd1na2vs0mg"},{"bike_id":"6116392c-6b86-47a5-bcc7-c95cae236d34","system_id":"levelo_inurba_marseille","lat":43.278,"lon":5.40717,"is_reserved":false,"is_disabled":false,"rental_uris":{"android":"levelo://app?vid=6116392c-6b86-47a5-bcc7-c95cae236d34","ios":"levelo://app?vid=6116392c-6b86-47a5-bcc7-c95cae236d34"},"vehicle_type_id":"4","last_reported":1768770581,"current_range_meters":4400,"station_id":"ce4bhnh2rcd13ifvqgtg","pricing_plan_id":"cebpf4jnsgd1na2vs0mg"},{"bike_id":"132d2f49-bf2d-4fdc-8224-9766c2457bfd","system_id":"levelo_inurba_marseille","lat":43.26036,"lon":5.39423,"is_reserved":false,"is_disabled":false,"rental_uris":{"android":"levelo://app?vid=132d2f49-bf2d-4fdc-8224-9766c2457bfd","ios":"levelo://app?vid=132d2f49-bf2d-4fdc-8224-9766c2457bfd"},"vehicle_type_id":"4","last_reported":1768770581,"current_range_meters":4400,"station_id":"ce4bhh92rcd13ifvqfj0","pricing_plan_id":"cebpf4jnsgd1na2vs0mg"},{"bike_id":"5e957bb0-b205-462f-b5e5-df60c0ace1a5","system_id":"levelo_inurba_marseille","lat":43.23777,"lon":5.36613,"is_reserved":false,"is_disabled":false,"rental_uris":{"android":"levelo://app?vid=5e957bb0-b205-462f-b5e5-df60c0ace1a5","ios":"levelo://app?vid=5e957bb0-b205-462f-b5e5-df60c0ace1a5"},"vehicle_type_id":"4","last_reported":1768770581,"current_range_meters":4400,"station_id":"st_d3nk18o9ro0c73en2l3g","pricing_plan_id":"cebpf4jnsgd1na2vs0mg"},{"bike_id":"e7214ada-a28a-4f98-a0df-b615cdc95b49","system_id":"levelo_inurba_marseille","lat":43.24664,"lon":5.3814,"is_reserved":false,"is_disabled":false,"rental_uris":{"android":"levelo://app?vid=e7214ada-a28a-4f98-a0df-b615cdc95b49","ios":"levelo://app?vid=e7214ada-a28a-4f98-a0df-b615cdc95b49"},"vehicle_type_id":"4","last_reported":1768770581,"current_range_meters":4400,"station_id":"ce4bhih2rcd13ifvqfr0","pricing_plan_id":"cebpf4jnsgd1na2vs0mg"},{"bike_id":"ddef4d4f-5883-4484-bc03-0df24418699a","system_id":"levelo_inurba_marseille","lat":43.21737,"lon":5.34634,"is_reserved":false,"is_disabled":false,"rental_uris":{"android":"levelo://app?vid=ddef4d4f-5883-4484-bc03-0df24418699a","ios":"levelo://app?vid=ddef4d4f-5883-4484-bc03-0df24418699a"},"vehicle_type_id":"4","last_reported":1768770581,"current_range_meters":4400,"station_id":"st_cvj6r9ubvosntc0bgbag","pricing_plan_id":"cebpf4jnsgd1na2vs0mg"},{"bike_id":"168fb7c0-bb3d-4dc2-b81c-95a7d644950b","system_id":"levelo_inurba_marseille","lat":43.28088,"lon":5.42666,"is_reserved":false,"is_disabled":false,"rental_uris":{"android":"levelo://app?vid=168fb7c0-bb3d-4dc2-b81c-95a7d644950b","ios":"levelo://app?vid=168fb7c0-bb3d-4dc2-b81c-95a7d644950b"},"vehicle_type_id":"4","last_reported":1768770581,"current_range_meters":4400,"station_id":"","pricing_plan_id":"cebpf4jnsgd1na2vs0mg"},{"bike_id":"45bb7221-e7aa-41a9-b651-ce7642ffb4d6","system_id":"levelo_inurba_marseille","lat":43.278127,"lon":5.407237,"is_reserved":false,"is_disabled":false,"rental_uris":{"android":"levelo://app?vid=45bb7221-e7aa-41a9-b651-ce7642ffb4d6","ios":"levelo://app?vid=45bb7221-e7aa-41a9-b651-ce7642ffb4d6"},"vehicle_type_id":"4","last_reported":1768770581,"current_range_meters":4800,"station_id":"ce4bhnh2rcd13ifvqgtg","pricing_plan_id":"cebpf4jnsgd1na2vs0mg"},{"bike_id":"3edcb619-e140-4ca7-af08-f551c6a288f3","system_id":"levelo_inurba_marseille","lat":43.28472,"lon":5.48399,"is_reserved":false,"is_disabled":false,"rental_uris":{"android":"levelo://app?vid=3edcb619-e140-4ca7-af08-f551c6a288f3","ios":"levelo://app?vid=3edcb619-e140-4ca7-af08-f551c6a288f3"},"vehicle_type_id":"4","last_reported":1768770581,"current_range_meters":4800,"station_id":"","pricing_plan_id":"cebpf4jnsgd1na2vs0mg"},{"bike_id":"6e51ce3f-e666-454c-9b3c-d528f5b8f635","system_id":"levelo_inurba_marseille","lat":43.28006,"lon":5.39994,"is_reserved":false,"is_disabled":false,"rental_uris":{"android":"levelo://app?vid=6e51ce3f-e666-454c-9b3c-d528f5b8f635","ios":"levelo://app?vid=6e51ce3f-e666-454c-9b3c-d528f5b8f635"},"vehicle_type_id":"4","last_reported":1768770581,"current_range_meters":4800,"station_id":"ce4bho92rcd13ifvqh4g","pricing_plan_id":"cebpf4jnsgd1na2vs0mg"},{"bike_id":"afe99290-f46f-41ea-8f53-ba6e9a92d5a3","system_id":"levelo_inurba_marseille","lat":43.28479,"lon":5.38462,"is_reserved":false,"is_disabled":false,"rental_uris":{"android":"levelo://app?vid=afe99290-f46f-41ea-8f53-ba6e9a92d5a3","ios":"levelo://app?vid=afe99290-f46f-41ea-8f53-ba6e9a92d5a3"},"vehicle_type_id":"4","last_reported":1768770581,"current_range_meters":4800,"station_id":"ce4bh512rcd13ifvqe3g","pricing_plan_id":"cebpf4jnsgd1na2vs0mg"},{"bike_id":"3ae9d50f-eef4-4a82-bef2-578e50db5bd0","system_id":"levelo_inurba_marseille","lat":43.28461,"lon":5.3588,"is_reserved":false,"is_disabled":false,"rental_uris":{"android":"levelo://app?vid=3ae9d50f-eef4-4a82-bef2-578e50db5bd0","ios":"levelo://app?vid=3ae9d50f-eef4-4a82-bef2-578e50db5bd0"},"vehicle_type_id":"4","last_reported":1768770581,"current_range_meters":4800,"station_id":"ce4bhah2rcd13ifvqei0","pricing_plan_id":"cebpf4jnsgd1na2vs0mg"},{"bike_id":"bf443dfe-f19a-49ca-ab0a-ace202cd3776","system_id":"levelo_inurba_marseille","lat":43.301384,"lon":5.374265,"is_reserved":false,"is_disabled":false,"rental_uris":{"android":"levelo://app?vid=bf443dfe-f19a-49ca-ab0a-ace202cd3776","ios":"levelo://app?vid=bf443dfe-f19a-49ca-ab0a-ace202cd3776"},"vehicle_type_id":"4","last_reported":1768770581,"current_range_meters":4800,"station_id":"ce4bgs92rcd13ifvqcc0","pricing_plan_id":"cebpf4jnsgd1na2vs0mg"},{"bike_id":"c433bdd0-ffc3-45fe-b187-2d2755665ee0","system_id":"levelo_inurba_marseille","lat":43.29912,"lon":5.38135,"is_reserved":false,"is_disabled":false,"rental_uris":{"android":"levelo://app?vid=c433bdd0-ffc3-45fe-b187-2d2755665ee0","ios":"levelo://app?vid=c433bdd0-ffc3-45fe-b187-2d2755665ee0"},"vehicle_type_id":"4","last_reported":1768770581,"current_range_meters":4800,"station_id":"ce4bgj12rcd13ifvqbc0","pricing_plan_id":"cebpf4jnsgd1na2vs0mg"},{"bike_id":"bd6b7033-d838-49d2-9f9e-c7224fde7095","system_id":"levelo_inurba_marseille","lat":43.24684,"lon":5.38137,"is_reserved":false,"is_disabled":false,"rental_uris":{"android":"levelo://app?vid=bd6b7033-d838-49d2-9f9e-c7224fde7095","ios":"levelo://app?vid=bd6b7033-d838-49d2-9f9e-c7224fde7095"},"vehicle_type_id":"4","last_reported":1768770581,"current_range_meters":4800,"station_id":"ce4bhih2rcd13ifvqfr0","pricing_plan_id":"cebpf4jnsgd1na2vs0mg"},{"bike_id":"5cfb22d8-732a-4759-a5ba-219d16350f07","system_id":"levelo_inurba_marseille","lat":43.27566,"lon":5.38425,"is_reserved":false,"is_disabled":false,"rental_uris":{"android":"levelo://app?vid=5cfb22d8-732a-4759-a5ba-219d16350f07","ios":"levelo://app?vid=5cfb22d8-732a-4759-a5ba-219d16350f07"},"vehicle_type_id":"4","last_reported":1768770581,"current_range_meters":4800,"station_id":"ce4bhh92rcd13ifvqfi0","pricing_plan_id":"cebpf4jnsgd1na2vs0mg"},{"bike_id":"b28a97c3-16e4-4be8-8147-34db1e170408","system_id":"levelo_inurba_marseille","lat":43.281552,"lon":5.426454,"is_reserved":false,"is_disabled":false,"rental_uris":{"android":"levelo://app?vid=b28a97c3-16e4-4be8-8147-34db1e170408","ios":"levelo://app?vid=b28a97c3-16e4-4be8-8147-34db1e170408"},"vehicle_type_id":"4","last_reported":1768770581,"current_range_meters":5600,"station_id":"ce4bhnh2rcd13ifvqgug","pricing_plan_id":"cebpf4jnsgd1na2vs0mg"},{"bike_id":"7eded3b1-4745-4b4d-b80d-d88da3addd51","system_id":"levelo_inurba_marseille","lat":43.27591,"lon":5.36109,"is_reserved":false,"is_disabled":false,"rental_uris":{"android":"levelo://app?vid=7eded3b1-4745-4b4d-b80d-d88da3addd51","ios":"levelo://app?vid=7eded3b1-4745-4b4d-b80d-d88da3addd51"},"vehicle_type_id":"4","last_reported":1768770581,"current_range_meters":5600,"station_id":"ce4bgj92rcd13ifvqbe0","pricing_plan_id":"cebpf4jnsgd1na2vs0mg"},{"bike_id":"624b55bb-4d49-4da2-97ee-cc0f0e7da638","system_id":"levelo_inurba_marseille","lat":43.25074,"lon":5.3954,"is_reserved":false,"is_disabled":false,"rental_uris":{"android":"levelo://app?vid=624b55bb-4d49-4da2-97ee-cc0f0e7da638","ios":"levelo://app?vid=624b55bb-4d49-4da2-97ee-cc0f0e7da638"},"vehicle_type_id":"4","last_reported":1768770581,"current_range_meters":5600,"station_id":"ce4bhm12rcd13ifvqgkg","pricing_plan_id":"cebpf4jnsgd1na2vs0mg"},{"bike_id":"d75d6a8b-66aa-4deb-820e-ef260a5410b0","system_id":"levelo_inurba_marseille","lat":43.231926,"lon":5.399825,"is_reserved":false,"is_disabled":false,"rental_uris":{"android":"levelo://app?vid=d75d6a8b-66aa-4deb-820e-ef260a5410b0","ios":"levelo://app?vid=d75d6a8b-66aa-4deb-820e-ef260a5410b0"},"vehicle_type_id":"4","last_reported":1768770581,"current_range_meters":5600,"station_id":"ce4bhn12rcd13ifvqgqg","pricing_plan_id":"cebpf4jnsgd1na2vs0mg"},{"bike_id":"3fcd7be5-9e86-4360-8db1-236a81bdedf0","system_id":"levelo_inurba_marseille","lat":43.25858,"lon":5.3991,"is_reserved":false,"is_disabled":false,"rental_uris":{"android":"levelo://app?vid=3fcd7be5-9e86-4360-8db1-236a81bdedf0","ios":"levelo://app?vid=3fcd7be5-9e86-4360-8db1-236a81bdedf0"},"vehicle_type_id":"4","last_reported":1768770581,"current_range_meters":5600,"station_id":"ce4bhl92rcd13ifvqghg","pricing_plan_id":"cebpf4jnsgd1na2vs0mg"},{"bike_id":"bcb6fd23-eb51-4278-a994-eb47185edae8","system_id":"levelo_inurba_marseille","lat":43.2962,"lon":5.37889,"is_reserved":false,"is_disabled":false,"rental_uris":{"android":"levelo://app?vid=bcb6fd23-eb51-4278-a994-eb47185edae8","ios":"levelo://app?vid=bcb6fd23-eb51-4278-a994-eb47185edae8"},"vehicle_type_id":"4","last_reported":1768770581,"current_range_meters":5600,"station_id":"","pricing_plan_id":"cebpf4jnsgd1na2vs0mg"},{"bike_id":"760dec81-d8be-4a20-afad-378842a676cb","system_id":"levelo_inurba_marseille","lat":43.28932,"lon":5.36638,"is_reserved":false,"is_disabled":false,"rental_uris":{"android":"levelo://app?vid=760dec81-d8be-4a20-afad-378842a676cb","ios":"levelo://app?vid=760dec81-d8be-4a20-afad-378842a676cb"},"vehicle_type_id":"4","last_reported":1768770581,"current_range_meters":5600,"station_id":"ce4bhap2rcd13ifvqek0","pricing_plan_id":"cebpf4jnsgd1na2vs0mg"},{"bike_id":"8de8b54d-ad44-4bfe-b86e-f06e0a2ec0cd","system_id":"levelo_inurba_marseille","lat":43.315783,"lon":5.379181,"is_reserved":false,"is_disabled":false,"rental_uris":{"android":"levelo://app?vid=8de8b54d-ad44-4bfe-b86e-f06e0a2ec0cd","ios":"levelo://app?vid=8de8b54d-ad44-4bfe-b86e-f06e0a2ec0cd"},"vehicle_type_id":"4","last_reported":1768770581,"current_range_meters":5600,"station_id":"","pricing_plan_id":"cebpf4jnsgd1na2vs0mg"},{"bike_id":"4160c95a-911c-47a2-8c82-0f403b2f4a3a","system_id":"levelo_inurba_marseille","lat":43.28415,"lon":5.3496,"is_reserved":false,"is_disabled":false,"rental_uris":{"android":"levelo://app?vid=4160c95a-911c-47a2-8c82-0f403b2f4a3a","ios":"levelo://app?vid=4160c95a-911c-47a2-8c82-0f403b2f4a3a"},"vehicle_type_id":"4","last_reported":1768770581,"current_range_meters":5600,"station_id":"ce4bhbh2rcd13ifvqepg","pricing_plan_id":"cebpf4jnsgd1na2vs0mg"},{"bike_id":"86a72b00-2bcd-490d-9cb1-515e8f72de07","system_id":"levelo_inurba_marseille","lat":43.25339,"lon":5.42166,"is_reserved":false,"is_disabled":false,"rental_uris":{"android":"levelo://app?vid=86a72b00-2bcd-490d-9cb1-515e8f72de07","ios":"levelo://app?vid=86a72b00-2bcd-490d-9cb1-515e8f72de07"},"vehicle_type_id":"4","last_reported":1768770581,"current_range_meters":5600,"station_id":"st_d2m65c5bi1j21697t3ng","pricing_plan_id":"cebpf4jnsgd1na2vs0mg"},{"bike_id":"12ad5361-c9b8-499f-b1d9-13623206709c","system_id":"levelo_inurba_marseille","lat":43.27818,"lon":5.40715,"is_reserved":false,"is_disabled":false,"rental_uris":{"android":"levelo://app?vid=12ad5361-c9b8-499f-b1d9-13623206709c","ios":"levelo://app?vid=12ad5361-c9b8-499f-b1d9-13623206709c"},"vehicle_type_id":"4","last_reported":1768770581,"current_range_meters":5600,"station_id":"ce4bhnh2rcd13ifvqgtg","pricing_plan_id":"cebpf4jnsgd1na2vs0mg"},{"bike_id":"d0b29b07-5102-4e6f-97b9-23723e4c0614","system_id":"levelo_inurba_marseille","lat":43.284795,"lon":5.483798,"is_reserved":false,"is_disabled":false,"rental_uris":{"android":"levelo://app?vid=d0b29b07-5102-4e6f-97b9-23723e4c0614","ios":"levelo://app?vid=d0b29b07-5102-4e6f-97b9-23723e4c0614"},"vehicle_type_id":"4","last_reported":1768770581,"current_range_meters":5600,"station_id":"","pricing_plan_id":"cebpf4jnsgd1na2vs0mg"},{"bike_id":"562feb0e-e7fa-4040-9a58-524311c899ba","system_id":"levelo_inurba_marseille","lat":43.29195,"lon":5.35815,"is_reserved":false,"is_disabled":true,"rental_uris":{"android":"levelo://app?vid=562feb0e-e7fa-4040-9a58-524311c899ba","ios":"levelo://app?vid=562feb0e-e7fa-4040-9a58-524311c899ba"},"vehicle_type_id":"4","last_reported":1768770581,"current_range_meters":6000,"station_id":"ce4bhb12rcd13ifvqel0","pricing_plan_id":"cebpf4jnsgd1na2vs0mg"},{"bike_id":"d311ffc7-6d26-41ec-96e5-fc35ec52cdc7","system_id":"levelo_inurba_marseille","lat":43.32347,"lon":5.3674,"is_reserved":false,"is_disabled":false,"rental_uris":{"android":"levelo://app?vid=d311ffc7-6d26-41ec-96e5-fc35ec52cdc7","ios":"levelo://app?vid=d311ffc7-6d26-41ec-96e5-fc35ec52cdc7"},"vehicle_type_id":"4","last_reported":1768770581,"current_range_meters":6000,"station_id":"ce4bhsh2rcd13ifvqi2g","pricing_plan_id":"cebpf4jnsgd1na2vs0mg"},{"bike_id":"07bb76d4-422a-4c87-90ad-e08ace96a760","system_id":"levelo_inurba_marseille","lat":43.24411,"lon":5.40072,"is_reserved":false,"is_disabled":false,"rental_uris":{"android":"levelo://app?vid=07bb76d4-422a-4c87-90ad-e08ace96a760","ios":"levelo://app?vid=07bb76d4-422a-4c87-90ad-e08ace96a760"},"vehicle_type_id":"4","last_reported":1768770581,"current_range_meters":6000,"station_id":"","pricing_plan_id":"cebpf4jnsgd1na2vs0mg"},{"bike_id":"9a96c7ff-aee0-42fe-87ea-dad07da0d7ef","system_id":"levelo_inurba_marseille","lat":43.26509,"lon":5.39533,"is_reserved":false,"is_disabled":false,"rental_uris":{"android":"levelo://app?vid=9a96c7ff-aee0-42fe-87ea-dad07da0d7ef","ios":"levelo://app?vid=9a96c7ff-aee0-42fe-87ea-dad07da0d7ef"},"vehicle_type_id":"4","last_reported":1768770581,"current_range_meters":6000,"station_id":"ce4bhi12rcd13ifvqfq0","pricing_plan_id":"cebpf4jnsgd1na2vs0mg"},{"bike_id":"724da048-f937-4446-a0b2-3f881c76c59a","system_id":"levelo_inurba_marseille","lat":43.28151,"lon":5.42675,"is_reserved":false,"is_disabled":false,"rental_uris":{"android":"levelo://app?vid=724da048-f937-4446-a0b2-3f881c76c59a","ios":"levelo://app?vid=724da048-f937-4446-a0b2-3f881c76c59a"},"vehicle_type_id":"4","last_reported":1768770581,"current_range_meters":6000,"station_id":"ce4bhnh2rcd13ifvqgug","pricing_plan_id":"cebpf4jnsgd1na2vs0mg"},{"bike_id":"f105a622-1eec-4225-9e46-e84e6e6b6073","system_id":"levelo_inurba_marseille","lat":43.24801,"lon":5.37508,"is_reserved":false,"is_disabled":false,"rental_uris":{"android":"levelo://app?vid=f105a622-1eec-4225-9e46-e84e6e6b6073","ios":"levelo://app?vid=f105a622-1eec-4225-9e46-e84e6e6b6073"},"vehicle_type_id":"4","last_reported":1768770581,"current_range_meters":6000,"station_id":"","pricing_plan_id":"cebpf4jnsgd1na2vs0mg"},{"bike_id":"848b23ea-2c41-462c-8a29-ee9c18139e8c","system_id":"levelo_inurba_marseille","lat":43.31178,"lon":5.36957,"is_reserved":false,"is_disabled":false,"rental_uris":{"android":"levelo://app?vid=848b23ea-2c41-462c-8a29-ee9c18139e8c","ios":"levelo://app?vid=848b23ea-2c41-462c-8a29-ee9c18139e8c"},"vehicle_type_id":"4","last_reported":1768770581,"current_range_meters":6000,"station_id":"","pricing_plan_id":"cebpf4jnsgd1na2vs0mg"},{"bike_id":"767eff67-48e3-4244-b425-866fa6739ce0","system_id":"levelo_inurba_marseille","lat":43.23191,"lon":5.39987,"is_reserved":false,"is_disabled":false,"rental_uris":{"android":"levelo://app?vid=767eff67-48e3-4244-b425-866fa6739ce0","ios":"levelo://app?vid=767eff67-48e3-4244-b425-866fa6739ce0"},"vehicle_type_id":"4","last_reported":1768770581,"current_range_meters":6400,"station_id":"ce4bhn12rcd13ifvqgqg","pricing_plan_id":"cebpf4jnsgd1na2vs0mg"},{"bike_id":"7116021d-a461-479f-9211-bcfd064121f8","system_id":"levelo_inurba_marseille","lat":43.27966,"lon":5.38673,"is_reserved":false,"is_disabled":false,"rental_uris":{"android":"levelo://app?vid=7116021d-a461-479f-9211-bcfd064121f8","ios":"levelo://app?vid=7116021d-a461-479f-9211-bcfd064121f8"},"vehicle_type_id":"4","last_reported":1768770581,"current_range_meters":6400,"station_id":"","pricing_plan_id":"cebpf4jnsgd1na2vs0mg"},{"bike_id":"53e3bdc2-3350-4597-b889-679f95ce65f7","system_id":"levelo_inurba_marseille","lat":43.284725,"lon":5.384184,"is_reserved":false,"is_disabled":false,"rental_uris":{"android":"levelo://app?vid=53e3bdc2-3350-4597-b889-679f95ce65f7","ios":"levelo://app?vid=53e3bdc2-3350-4597-b889-679f95ce65f7"},"vehicle_type_id":"4","last_reported":1768770581,"current_range_meters":6400,"station_id":"","pricing_plan_id":"cebpf4jnsgd1na2vs0mg"},{"bike_id":"ff839314-dbe7-407b-b40a-0a369c1d2176","system_id":"levelo_inurba_marseille","lat":43.29243,"lon":5.38456,"is_reserved":false,"is_disabled":false,"rental_uris":{"android":"levelo://app?vid=ff839314-dbe7-407b-b40a-0a369c1d2176","ios":"levelo://app?vid=ff839314-dbe7-407b-b40a-0a369c1d2176"},"vehicle_type_id":"4","last_reported":1768770581,"current_range_meters":6400,"station_id":"ce4bh692rcd13ifvqea0","pricing_plan_id":"cebpf4jnsgd1na2vs0mg"},{"bike_id":"24160edd-d39f-4289-876a-e9144f93a2c6","system_id":"levelo_inurba_marseille","lat":43.3236,"lon":5.36736,"is_reserved":false,"is_disabled":false,"rental_uris":{"android":"levelo://app?vid=24160edd-d39f-4289-876a-e9144f93a2c6","ios":"levelo://app?vid=24160edd-d39f-4289-876a-e9144f93a2c6"},"vehicle_type_id":"4","last_reported":1768770581,"current_range_meters":6400,"station_id":"ce4bhsh2rcd13ifvqi2g","pricing_plan_id":"cebpf4jnsgd1na2vs0mg"},{"bike_id":"f9650e24-8048-44b3-9275-13d881c210a3","system_id":"levelo_inurba_marseille","lat":43.30275,"lon":5.37702,"is_reserved":false,"is_disabled":false,"rental_uris":{"android":"levelo://app?vid=f9650e24-8048-44b3-9275-13d881c210a3","ios":"levelo://app?vid=f9650e24-8048-44b3-9275-13d881c210a3"},"vehicle_type_id":"4","last_reported":1768770581,"current_range_meters":6400,"station_id":"ce4bguh2rcd13ifvqcj0","pricing_plan_id":"cebpf4jnsgd1na2vs0mg"},{"bike_id":"6f14ae8d-8959-4661-a35e-ffbf6c793c91","system_id":"levelo_inurba_marseille","lat":43.24388,"lon":5.37052,"is_reserved":false,"is_disabled":false,"rental_uris":{"android":"levelo://app?vid=6f14ae8d-8959-4661-a35e-ffbf6c793c91","ios":"levelo://app?vid=6f14ae8d-8959-4661-a35e-ffbf6c793c91"},"vehicle_type_id":"4","last_reported":1768770581,"current_range_meters":6400,"station_id":"ce4bhhh2rcd13ifvqfk0","pricing_plan_id":"cebpf4jnsgd1na2vs0mg"},{"bike_id":"c6b7d41c-17d5-4d4d-98f7-04f5d62108df","system_id":"levelo_inurba_marseille","lat":43.225563,"lon":5.416261,"is_reserved":false,"is_disabled":true,"rental_uris":{"android":"levelo://app?vid=c6b7d41c-17d5-4d4d-98f7-04f5d62108df","ios":"levelo://app?vid=c6b7d41c-17d5-4d4d-98f7-04f5d62108df"},"vehicle_type_id":"4","last_reported":1768770581,"current_range_meters":6400,"station_id":"st_d2o4gvlbi1j2169b742g","pricing_plan_id":"cebpf4jnsgd1na2vs0mg"},{"bike_id":"a56bf3c3-cb30-440c-97b5-dd3ca6cc3b1e","system_id":"levelo_inurba_marseille","lat":43.29701,"lon":5.37701,"is_reserved":false,"is_disabled":false,"rental_uris":{"android":"levelo://app?vid=a56bf3c3-cb30-440c-97b5-dd3ca6cc3b1e","ios":"levelo://app?vid=a56bf3c3-cb30-440c-97b5-dd3ca6cc3b1e"},"vehicle_type_id":"4","last_reported":1768770581,"current_range_meters":6400,"station_id":"ce4bgkh2rcd13ifvqbl0","pricing_plan_id":"cebpf4jnsgd1na2vs0mg"},{"bike_id":"f85f4c33-1265-4e47-befa-9150dd174599","system_id":"levelo_inurba_marseille","lat":43.30289,"lon":5.37724,"is_reserved":false,"is_disabled":false,"rental_uris":{"android":"levelo://app?vid=f85f4c33-1265-4e47-befa-9150dd174599","ios":"levelo://app?vid=f85f4c33-1265-4e47-befa-9150dd174599"},"vehicle_type_id":"4","last_reported":1768770581,"current_range_meters":6400,"station_id":"ce4bguh2rcd13ifvqcj0","pricing_plan_id":"cebpf4jnsgd1na2vs0mg"},{"bike_id":"12048038-0e60-4261-a543-9a31dab12442","system_id":"levelo_inurba_marseille","lat":43.25573,"lon":5.38242,"is_reserved":false,"is_disabled":false,"rental_uris":{"android":"levelo://app?vid=12048038-0e60-4261-a543-9a31dab12442","ios":"levelo://app?vid=12048038-0e60-4261-a543-9a31dab12442"},"vehicle_type_id":"4","last_reported":1768770581,"current_range_meters":6400,"station_id":"ce4bhih2rcd13ifvqfs0","pricing_plan_id":"cebpf4jnsgd1na2vs0mg"},{"bike_id":"0097fcec-3ef8-4a54-a633-d601d851c5c2","system_id":"levelo_inurba_marseille","lat":43.24948,"lon":5.40493,"is_reserved":false,"is_disabled":false,"rental_uris":{"android":"levelo://app?vid=0097fcec-3ef8-4a54-a633-d601d851c5c2","ios":"levelo://app?vid=0097fcec-3ef8-4a54-a633-d601d851c5c2"},"vehicle_type_id":"4","last_reported":1768770581,"current_range_meters":6400,"station_id":"st_d2ngiaodas8pm72gd1h0","pricing_plan_id":"cebpf4jnsgd1na2vs0mg"},{"bike_id":"bbd797e5-dd94-48bc-8aa5-50ff1b2039d5","system_id":"levelo_inurba_marseille","lat":43.28719,"lon":5.36095,"is_reserved":false,"is_disabled":false,"rental_uris":{"android":"levelo://app?vid=bbd797e5-dd94-48bc-8aa5-50ff1b2039d5","ios":"levelo://app?vid=bbd797e5-dd94-48bc-8aa5-50ff1b2039d5"},"vehicle_type_id":"4","last_reported":1768770581,"current_range_meters":6400,"station_id":"cki0cbj6b192h4jlfktg","pricing_plan_id":"cebpf4jnsgd1na2vs0mg"},{"bike_id":"ee944490-322d-4e82-9fc0-1f3cfa45072a","system_id":"levelo_inurba_marseille","lat":43.28857,"lon":5.42493,"is_reserved":false,"is_disabled":false,"rental_uris":{"android":"levelo://app?vid=ee944490-322d-4e82-9fc0-1f3cfa45072a","ios":"levelo://app?vid=ee944490-322d-4e82-9fc0-1f3cfa45072a"},"vehicle_type_id":"4","last_reported":1768770581,"current_range_meters":6400,"station_id":"st_d3b462108ojc7389ooeg","pricing_plan_id":"cebpf4jnsgd1na2vs0mg"},{"bike_id":"aa648442-ea0f-4284-b119-78b9aeb4ca5c","system_id":"levelo_inurba_marseille","lat":43.30534,"lon":5.36722,"is_reserved":false,"is_disabled":false,"rental_uris":{"android":"levelo://app?vid=aa648442-ea0f-4284-b119-78b9aeb4ca5c","ios":"levelo://app?vid=aa648442-ea0f-4284-b119-78b9aeb4ca5c"},"vehicle_type_id":"4","last_reported":1768770581,"current_range_meters":6800,"station_id":"ce4bgrp2rcd13ifvqc9g","pricing_plan_id":"cebpf4jnsgd1na2vs0mg"},{"bike_id":"c55653aa-3b40-49b8-ab2e-4981db381d01","system_id":"levelo_inurba_marseille","lat":43.27989,"lon":5.41655,"is_reserved":false,"is_disabled":false,"rental_uris":{"android":"levelo://app?vid=c55653aa-3b40-49b8-ab2e-4981db381d01","ios":"levelo://app?vid=c55653aa-3b40-49b8-ab2e-4981db381d01"},"vehicle_type_id":"4","last_reported":1768770581,"current_range_meters":6800,"station_id":"ce4bho12rcd13ifvqh1g","pricing_plan_id":"cebpf4jnsgd1na2vs0mg"},{"bike_id":"02bf7a4c-8844-41f4-9ad9-8ab41f7538c4","system_id":"levelo_inurba_marseille","lat":43.30953,"lon":5.39019,"is_reserved":false,"is_disabled":true,"rental_uris":{"android":"levelo://app?vid=02bf7a4c-8844-41f4-9ad9-8ab41f7538c4","ios":"levelo://app?vid=02bf7a4c-8844-41f4-9ad9-8ab41f7538c4"},"vehicle_type_id":"4","last_reported":1768770581,"current_range_meters":6800,"station_id":"ce4bgup2rcd13ifvqco0","pricing_plan_id":"cebpf4jnsgd1na2vs0mg"},{"bike_id":"4a28a0a5-92a3-4f41-871e-f75bf8fb68f3","system_id":"levelo_inurba_marseille","lat":43.30398,"lon":5.40976,"is_reserved":false,"is_disabled":false,"rental_uris":{"android":"levelo://app?vid=4a28a0a5-92a3-4f41-871e-f75bf8fb68f3","ios":"levelo://app?vid=4a28a0a5-92a3-4f41-871e-f75bf8fb68f3"},"vehicle_type_id":"4","last_reported":1768770581,"current_range_meters":6800,"station_id":"","pricing_plan_id":"cebpf4jnsgd1na2vs0mg"},{"bike_id":"ffca010b-03ed-4be6-931c-938494bc3dcd","system_id":"levelo_inurba_marseille","lat":43.28856,"lon":5.42507,"is_reserved":false,"is_disabled":false,"rental_uris":{"android":"levelo://app?vid=ffca010b-03ed-4be6-931c-938494bc3dcd","ios":"levelo://app?vid=ffca010b-03ed-4be6-931c-938494bc3dcd"},"vehicle_type_id":"4","last_reported":1768770581,"current_range_meters":6800,"station_id":"st_d3b462108ojc7389ooeg","pricing_plan_id":"cebpf4jnsgd1na2vs0mg"},{"bike_id":"2b38c1fe-7b40-40b3-a3f9-5013de1a9ac2","system_id":"levelo_inurba_marseille","lat":43.262102,"lon":5.374461,"is_reserved":false,"is_disabled":false,"rental_uris":{"android":"levelo://app?vid=2b38c1fe-7b40-40b3-a3f9-5013de1a9ac2","ios":"levelo://app?vid=2b38c1fe-7b40-40b3-a3f9-5013de1a9ac2"},"vehicle_type_id":"4","last_reported":1768770581,"current_range_meters":7200,"station_id":"ce4bhgp2rcd13ifvqfc0","pricing_plan_id":"cebpf4jnsgd1na2vs0mg"},{"bike_id":"5914d024-165b-481f-8e69-f72eb8a78e37","system_id":"levelo_inurba_marseille","lat":43.31212,"lon":5.36881,"is_reserved":false,"is_disabled":false,"rental_uris":{"android":"levelo://app?vid=5914d024-165b-481f-8e69-f72eb8a78e37","ios":"levelo://app?vid=5914d024-165b-481f-8e69-f72eb8a78e37"},"vehicle_type_id":"4","last_reported":1768770581,"current_range_meters":7200,"station_id":"ce4bgl92rcd13ifvqbq0","pricing_plan_id":"cebpf4jnsgd1na2vs0mg"},{"bike_id":"2e4ee5e8-6d91-467b-8480-688c2671b88d","system_id":"levelo_inurba_marseille","lat":43.27812,"lon":5.40713,"is_reserved":false,"is_disabled":false,"rental_uris":{"android":"levelo://app?vid=2e4ee5e8-6d91-467b-8480-688c2671b88d","ios":"levelo://app?vid=2e4ee5e8-6d91-467b-8480-688c2671b88d"},"vehicle_type_id":"4","last_reported":1768770581,"current_range_meters":7200,"station_id":"ce4bhnh2rcd13ifvqgtg","pricing_plan_id":"cebpf4jnsgd1na2vs0mg"},{"bike_id":"87f35a5d-485c-42c0-a0d6-d17c180ada41","system_id":"levelo_inurba_marseille","lat":43.24163,"lon":5.36403,"is_reserved":false,"is_disabled":false,"rental_uris":{"android":"levelo://app?vid=87f35a5d-485c-42c0-a0d6-d17c180ada41","ios":"levelo://app?vid=87f35a5d-485c-42c0-a0d6-d17c180ada41"},"vehicle_type_id":"4","last_reported":1768770581,"current_range_meters":7200,"station_id":"cpo36qri1sfpv3e86is0","pricing_plan_id":"cebpf4jnsgd1na2vs0mg"},{"bike_id":"fe95f8b2-0555-47f3-b9fe-0255db063176","system_id":"levelo_inurba_marseille","lat":43.29805,"lon":5.38084,"is_reserved":false,"is_disabled":false,"rental_uris":{"android":"levelo://app?vid=fe95f8b2-0555-47f3-b9fe-0255db063176","ios":"levelo://app?vid=fe95f8b2-0555-47f3-b9fe-0255db063176"},"vehicle_type_id":"4","last_reported":1768770581,"current_range_meters":7200,"station_id":"ce4bgip2rcd13ifvqbb0","pricing_plan_id":"cebpf4jnsgd1na2vs0mg"},{"bike_id":"52d76d5a-c8fd-4dbd-b507-0ab60f5b55ae","system_id":"levelo_inurba_marseille","lat":43.25527,"lon":5.43236,"is_reserved":false,"is_disabled":false,"rental_uris":{"android":"levelo://app?vid=52d76d5a-c8fd-4dbd-b507-0ab60f5b55ae","ios":"levelo://app?vid=52d76d5a-c8fd-4dbd-b507-0ab60f5b55ae"},"vehicle_type_id":"4","last_reported":1768770581,"current_range_meters":7200,"station_id":"","pricing_plan_id":"cebpf4jnsgd1na2vs0mg"},{"bike_id":"4471b153-47fa-489c-846a-d53b16f561e8","system_id":"levelo_inurba_marseille","lat":43.26193,"lon":5.37442,"is_reserved":false,"is_disabled":false,"rental_uris":{"android":"levelo://app?vid=4471b153-47fa-489c-846a-d53b16f561e8","ios":"levelo://app?vid=4471b153-47fa-489c-846a-d53b16f561e8"},"vehicle_type_id":"4","last_reported":1768770581,"current_range_meters":7200,"station_id":"ce4bhgp2rcd13ifvqfc0","pricing_plan_id":"cebpf4jnsgd1na2vs0mg"},{"bike_id":"02ab98c5-1cd1-4d33-a034-5f5e1f65b38a","system_id":"levelo_inurba_marseille","lat":43.28483,"lon":5.48423,"is_reserved":false,"is_disabled":false,"rental_uris":{"android":"levelo://app?vid=02ab98c5-1cd1-4d33-a034-5f5e1f65b38a","ios":"levelo://app?vid=02ab98c5-1cd1-4d33-a034-5f5e1f65b38a"},"vehicle_type_id":"4","last_reported":1768770581,"current_range_meters":7200,"station_id":"","pricing_plan_id":"cebpf4jnsgd1na2vs0mg"},{"bike_id":"adbceb2c-585a-488e-bc6c-b1f08d718afd","system_id":"levelo_inurba_marseille","lat":43.29602,"lon":5.38104,"is_reserved":false,"is_disabled":false,"rental_uris":{"android":"levelo://app?vid=adbceb2c-585a-488e-bc6c-b1f08d718afd","ios":"levelo://app?vid=adbceb2c-585a-488e-bc6c-b1f08d718afd"},"vehicle_type_id":"4","last_reported":1768770581,"current_range_meters":7200,"station_id":"ce4bgl12rcd13ifvqbo0","pricing_plan_id":"cebpf4jnsgd1na2vs0mg"},{"bike_id":"ec84f853-3c1e-432f-84f1-c7932f803205","system_id":"levelo_inurba_marseille","lat":43.244686,"lon":5.425419,"is_reserved":false,"is_disabled":false,"rental_uris":{"android":"levelo://app?vid=ec84f853-3c1e-432f-84f1-c7932f803205","ios":"levelo://app?vid=ec84f853-3c1e-432f-84f1-c7932f803205"},"vehicle_type_id":"4","last_reported":1768770581,"current_range_meters":7200,"station_id":"st_d4a3vfp97mjs738cd8kg","pricing_plan_id":"cebpf4jnsgd1na2vs0mg"},{"bike_id":"ab74dafd-bdde-4806-9312-7ac8c28f3c12","system_id":"levelo_inurba_marseille","lat":43.28856,"lon":5.42501,"is_reserved":false,"is_disabled":false,"rental_uris":{"android":"levelo://app?vid=ab74dafd-bdde-4806-9312-7ac8c28f3c12","ios":"levelo://app?vid=ab74dafd-bdde-4806-9312-7ac8c28f3c12"},"vehicle_type_id":"4","last_reported":1768770581,"current_range_meters":7200,"station_id":"st_d3b462108ojc7389ooeg","pricing_plan_id":"cebpf4jnsgd1na2vs0mg"},{"bike_id":"26daab6d-aa9d-4c9b-baed-93046290ad6b","system_id":"levelo_inurba_marseille","lat":43.249501,"lon":5.404848,"is_reserved":false,"is_disabled":false,"rental_uris":{"android":"levelo://app?vid=26daab6d-aa9d-4c9b-baed-93046290ad6b","ios":"levelo://app?vid=26daab6d-aa9d-4c9b-baed-93046290ad6b"},"vehicle_type_id":"4","last_reported":1768770581,"current_range_meters":7200,"station_id":"st_d2ngiaodas8pm72gd1h0","pricing_plan_id":"cebpf4jnsgd1na2vs0mg"},{"bike_id":"da3c4aca-37e7-4c63-a18e-04f09b3ed01f","system_id":"levelo_inurba_marseille","lat":43.27941,"lon":5.41059,"is_reserved":false,"is_disabled":false,"rental_uris":{"android":"levelo://app?vid=da3c4aca-37e7-4c63-a18e-04f09b3ed01f","ios":"levelo://app?vid=da3c4aca-37e7-4c63-a18e-04f09b3ed01f"},"vehicle_type_id":"4","last_reported":1768770581,"current_range_meters":7200,"station_id":"","pricing_plan_id":"cebpf4jnsgd1na2vs0mg"},{"bike_id":"45effcca-683e-465c-b372-4ec67313c49d","system_id":"levelo_inurba_marseille","lat":43.3019,"lon":5.36619,"is_reserved":false,"is_disabled":false,"rental_uris":{"android":"levelo://app?vid=45effcca-683e-465c-b372-4ec67313c49d","ios":"levelo://app?vid=45effcca-683e-465c-b372-4ec67313c49d"},"vehicle_type_id":"4","last_reported":1768770581,"current_range_meters":7200,"station_id":"ce4bgrh2rcd13ifvqc8g","pricing_plan_id":"cebpf4jnsgd1na2vs0mg"},{"bike_id":"e4673345-b12b-41a6-851b-d8e241ebb64e","system_id":"levelo_inurba_marseille","lat":43.24942,"lon":5.40506,"is_reserved":false,"is_disabled":false,"rental_uris":{"android":"levelo://app?vid=e4673345-b12b-41a6-851b-d8e241ebb64e","ios":"levelo://app?vid=e4673345-b12b-41a6-851b-d8e241ebb64e"},"vehicle_type_id":"4","last_reported":1768770581,"current_range_meters":7200,"station_id":"st_d2ngiaodas8pm72gd1h0","pricing_plan_id":"cebpf4jnsgd1na2vs0mg"},{"bike_id":"e67e42fe-b68e-4d43-9d57-582dc6eaf5d9","system_id":"levelo_inurba_marseille","lat":43.25576,"lon":5.38231,"is_reserved":false,"is_disabled":false,"rental_uris":{"android":"levelo://app?vid=e67e42fe-b68e-4d43-9d57-582dc6eaf5d9","ios":"levelo://app?vid=e67e42fe-b68e-4d43-9d57-582dc6eaf5d9"},"vehicle_type_id":"4","last_reported":1768770581,"current_range_meters":8000,"station_id":"ce4bhih2rcd13ifvqfs0","pricing_plan_id":"cebpf4jnsgd1na2vs0mg"},{"bike_id":"5037036f-188b-4c9c-9f7e-772a64c012d7","system_id":"levelo_inurba_marseille","lat":43.24177,"lon":5.39727,"is_reserved":false,"is_disabled":false,"rental_uris":{"android":"levelo://app?vid=5037036f-188b-4c9c-9f7e-772a64c012d7","ios":"levelo://app?vid=5037036f-188b-4c9c-9f7e-772a64c012d7"},"vehicle_type_id":"4","last_reported":1768770581,"current_range_meters":8000,"station_id":"ce4bhn12rcd13ifvqgpg","pricing_plan_id":"cebpf4jnsgd1na2vs0mg"},{"bike_id":"825dbe6a-05ff-42c5-b686-988034ec5c97","system_id":"levelo_inurba_marseille","lat":43.27959,"lon":5.41079,"is_reserved":false,"is_disabled":true,"rental_uris":{"android":"levelo://app?vid=825dbe6a-05ff-42c5-b686-988034ec5c97","ios":"levelo://app?vid=825dbe6a-05ff-42c5-b686-988034ec5c97"},"vehicle_type_id":"4","last_reported":1768770581,"current_range_meters":8000,"station_id":"ce4bhnp2rcd13ifvqh0g","pricing_plan_id":"cebpf4jnsgd1na2vs0mg"},{"bike_id":"405bacf0-7d07-4ec7-aad7-72e1c5147c0f","system_id":"levelo_inurba_marseille","lat":43.30161,"lon":5.37406,"is_reserved":false,"is_disabled":false,"rental_uris":{"android":"levelo://app?vid=405bacf0-7d07-4ec7-aad7-72e1c5147c0f","ios":"levelo://app?vid=405bacf0-7d07-4ec7-aad7-72e1c5147c0f"},"vehicle_type_id":"4","last_reported":1768770581,"current_range_meters":8000,"station_id":"ce4bgs92rcd13ifvqcc0","pricing_plan_id":"cebpf4jnsgd1na2vs0mg"},{"bike_id":"3e1b0ae8-bc2e-47bc-9eec-b1e55fd276e4","system_id":"levelo_inurba_marseille","lat":43.28477,"lon":5.48387,"is_reserved":false,"is_disabled":false,"rental_uris":{"android":"levelo://app?vid=3e1b0ae8-bc2e-47bc-9eec-b1e55fd276e4","ios":"levelo://app?vid=3e1b0ae8-bc2e-47bc-9eec-b1e55fd276e4"},"vehicle_type_id":"4","last_reported":1768770581,"current_range_meters":8000,"station_id":"st_d3svhcjqgbts73a3dn0g","pricing_plan_id":"cebpf4jnsgd1na2vs0mg"},{"bike_id":"5cccdad3-57e0-40c4-bb97-5effe42d761a","system_id":"levelo_inurba_marseille","lat":43.24817,"lon":5.3746,"is_reserved":false,"is_disabled":false,"rental_uris":{"android":"levelo://app?vid=5cccdad3-57e0-40c4-bb97-5effe42d761a","ios":"levelo://app?vid=5cccdad3-57e0-40c4-bb97-5effe42d761a"},"vehicle_type_id":"4","last_reported":1768770581,"current_range_meters":8000,"station_id":"ce4bhgh2rcd13ifvqfb0","pricing_plan_id":"cebpf4jnsgd1na2vs0mg"},{"bike_id":"997bd131-bc4b-4ed3-be50-234bd23db618","system_id":"levelo_inurba_marseille","lat":43.23784,"lon":5.366326,"is_reserved":false,"is_disabled":false,"rental_uris":{"android":"levelo://app?vid=997bd131-bc4b-4ed3-be50-234bd23db618","ios":"levelo://app?vid=997bd131-bc4b-4ed3-be50-234bd23db618"},"vehicle_type_id":"4","last_reported":1768770581,"current_range_meters":8000,"station_id":"st_d3nk18o9ro0c73en2l3g","pricing_plan_id":"cebpf4jnsgd1na2vs0mg"},{"bike_id":"db062d50-2ff0-4eed-93be-03c6c2282e4f","system_id":"levelo_inurba_marseille","lat":43.29536,"lon":5.42363,"is_reserved":false,"is_disabled":false,"rental_uris":{"android":"levelo://app?vid=db062d50-2ff0-4eed-93be-03c6c2282e4f","ios":"levelo://app?vid=db062d50-2ff0-4eed-93be-03c6c2282e4f"},"vehicle_type_id":"4","last_reported":1768770581,"current_range_meters":8000,"station_id":"","pricing_plan_id":"cebpf4jnsgd1na2vs0mg"},{"bike_id":"80dd23a5-0dde-4636-a849-634c5c6760f9","system_id":"levelo_inurba_marseille","lat":43.24076,"lon":5.37767,"is_reserved":false,"is_disabled":false,"rental_uris":{"android":"levelo://app?vid=80dd23a5-0dde-4636-a849-634c5c6760f9","ios":"levelo://app?vid=80dd23a5-0dde-4636-a849-634c5c6760f9"},"vehicle_type_id":"4","last_reported":1768770581,"current_range_meters":8000,"station_id":"ce4bhnp2rcd13ifvqgvg","pricing_plan_id":"cebpf4jnsgd1na2vs0mg"},{"bike_id":"7007b3fe-b69a-4760-8ecb-3b3439d1132e","system_id":"levelo_inurba_marseille","lat":43.265688,"lon":5.390388,"is_reserved":false,"is_disabled":false,"rental_uris":{"android":"levelo://app?vid=7007b3fe-b69a-4760-8ecb-3b3439d1132e","ios":"levelo://app?vid=7007b3fe-b69a-4760-8ecb-3b3439d1132e"},"vehicle_type_id":"4","last_reported":1768770581,"current_range_meters":8000,"station_id":"ce4bhe12rcd13ifvqf30","pricing_plan_id":"cebpf4jnsgd1na2vs0mg"},{"bike_id":"2d2c6202-7275-43f0-a637-1bc8580a7874","system_id":"levelo_inurba_marseille","lat":43.31368,"lon":5.38484,"is_reserved":false,"is_disabled":false,"rental_uris":{"android":"levelo://app?vid=2d2c6202-7275-43f0-a637-1bc8580a7874","ios":"levelo://app?vid=2d2c6202-7275-43f0-a637-1bc8580a7874"},"vehicle_type_id":"4","last_reported":1768770581,"current_range_meters":8000,"station_id":"ce4bgt92rcd13ifvqcf0","pricing_plan_id":"cebpf4jnsgd1na2vs0mg"},{"bike_id":"fdaffa99-0f84-4230-8947-ab7e8618f38e","system_id":"levelo_inurba_marseille","lat":43.29247,"lon":5.38451,"is_reserved":false,"is_disabled":true,"rental_uris":{"android":"levelo://app?vid=fdaffa99-0f84-4230-8947-ab7e8618f38e","ios":"levelo://app?vid=fdaffa99-0f84-4230-8947-ab7e8618f38e"},"vehicle_type_id":"4","last_reported":1768770581,"current_range_meters":8000,"station_id":"ce4bh692rcd13ifvqea0","pricing_plan_id":"cebpf4jnsgd1na2vs0mg"},{"bike_id":"d19cfc42-b2b1-43d1-b130-a67d6f4e20e0","system_id":"levelo_inurba_marseille","lat":43.31919,"lon":5.40115,"is_reserved":false,"is_disabled":false,"rental_uris":{"android":"levelo://app?vid=d19cfc42-b2b1-43d1-b130-a67d6f4e20e0","ios":"levelo://app?vid=d19cfc42-b2b1-43d1-b130-a67d6f4e20e0"},"vehicle_type_id":"4","last_reported":1768770581,"current_range_meters":8000,"station_id":"","pricing_plan_id":"cebpf4jnsgd1na2vs0mg"},{"bike_id":"d61d55f2-38b3-47bf-8db3-dd8829f32d8f","system_id":"levelo_inurba_marseille","lat":43.29394,"lon":5.43707,"is_reserved":false,"is_disabled":false,"rental_uris":{"android":"levelo://app?vid=d61d55f2-38b3-47bf-8db3-dd8829f32d8f","ios":"levelo://app?vid=d61d55f2-38b3-47bf-8db3-dd8829f32d8f"},"vehicle_type_id":"4","last_reported":1768770581,"current_range_meters":8000,"station_id":"st_d3j3df2ikq2c7380ej80","pricing_plan_id":"cebpf4jnsgd1na2vs0mg"},{"bike_id":"e3ab7fbc-a543-4ce6-8bfb-a545434b1568","system_id":"levelo_inurba_marseille","lat":43.28865,"lon":5.42515,"is_reserved":false,"is_disabled":false,"rental_uris":{"android":"levelo://app?vid=e3ab7fbc-a543-4ce6-8bfb-a545434b1568","ios":"levelo://app?vid=e3ab7fbc-a543-4ce6-8bfb-a545434b1568"},"vehicle_type_id":"4","last_reported":1768770581,"current_range_meters":8400,"station_id":"st_d3b462108ojc7389ooeg","pricing_plan_id":"cebpf4jnsgd1na2vs0mg"},{"bike_id":"d1a3d020-e6c0-448c-8501-29062dced34e","system_id":"levelo_inurba_marseille","lat":43.309,"lon":5.36873,"is_reserved":false,"is_disabled":false,"rental_uris":{"android":"levelo://app?vid=d1a3d020-e6c0-448c-8501-29062dced34e","ios":"levelo://app?vid=d1a3d020-e6c0-448c-8501-29062dced34e"},"vehicle_type_id":"4","last_reported":1768770581,"current_range_meters":8400,"station_id":"ce4bgn92rcd13ifvqbvg","pricing_plan_id":"cebpf4jnsgd1na2vs0mg"},{"bike_id":"ae4ce485-63e9-411c-bcbd-fd77a291df13","system_id":"levelo_inurba_marseille","lat":43.31452,"lon":5.3727,"is_reserved":false,"is_disabled":false,"rental_uris":{"android":"levelo://app?vid=ae4ce485-63e9-411c-bcbd-fd77a291df13","ios":"levelo://app?vid=ae4ce485-63e9-411c-bcbd-fd77a291df13"},"vehicle_type_id":"4","last_reported":1768770581,"current_range_meters":8400,"station_id":"ce4bgt12rcd13ifvqcd0","pricing_plan_id":"cebpf4jnsgd1na2vs0mg"},{"bike_id":"e0b3d136-4efd-4410-be5e-53b3cc12c4c3","system_id":"levelo_inurba_marseille","lat":43.26051,"lon":5.38638,"is_reserved":false,"is_disabled":false,"rental_uris":{"android":"levelo://app?vid=e0b3d136-4efd-4410-be5e-53b3cc12c4c3","ios":"levelo://app?vid=e0b3d136-4efd-4410-be5e-53b3cc12c4c3"},"vehicle_type_id":"4","last_reported":1768770581,"current_range_meters":8400,"station_id":"","pricing_plan_id":"cebpf4jnsgd1na2vs0mg"},{"bike_id":"8d6cb534-06ca-49f6-9ae6-b08e1c864cbf","system_id":"levelo_inurba_marseille","lat":43.30655,"lon":5.40075,"is_reserved":false,"is_disabled":false,"rental_uris":{"android":"levelo://app?vid=8d6cb534-06ca-49f6-9ae6-b08e1c864cbf","ios":"levelo://app?vid=8d6cb534-06ca-49f6-9ae6-b08e1c864cbf"},"vehicle_type_id":"4","last_reported":1768770581,"current_range_meters":8400,"station_id":"ce4bh112rcd13ifvqda0","pricing_plan_id":"cebpf4jnsgd1na2vs0mg"},{"bike_id":"9ea71dd4-557a-49eb-872d-de0717506d64","system_id":"levelo_inurba_marseille","lat":43.23209,"lon":5.35551,"is_reserved":false,"is_disabled":false,"rental_uris":{"android":"levelo://app?vid=9ea71dd4-557a-49eb-872d-de0717506d64","ios":"levelo://app?vid=9ea71dd4-557a-49eb-872d-de0717506d64"},"vehicle_type_id":"4","last_reported":1768770581,"current_range_meters":8400,"station_id":"ce4bhu92rcd13ifvqi70","pricing_plan_id":"cebpf4jnsgd1na2vs0mg"},{"bike_id":"502976bc-a9bf-446d-890f-6b192d487131","system_id":"levelo_inurba_marseille","lat":43.26584,"lon":5.3904,"is_reserved":false,"is_disabled":false,"rental_uris":{"android":"levelo://app?vid=502976bc-a9bf-446d-890f-6b192d487131","ios":"levelo://app?vid=502976bc-a9bf-446d-890f-6b192d487131"},"vehicle_type_id":"4","last_reported":1768770581,"current_range_meters":8400,"station_id":"ce4bhe12rcd13ifvqf30","pricing_plan_id":"cebpf4jnsgd1na2vs0mg"},{"bike_id":"99eb7f6e-7d47-4fe7-a5ad-44af0b5818fb","system_id":"levelo_inurba_marseille","lat":43.24084,"lon":5.3971,"is_reserved":false,"is_disabled":false,"rental_uris":{"android":"levelo://app?vid=99eb7f6e-7d47-4fe7-a5ad-44af0b5818fb","ios":"levelo://app?vid=99eb7f6e-7d47-4fe7-a5ad-44af0b5818fb"},"vehicle_type_id":"4","last_reported":1768770581,"current_range_meters":8400,"station_id":"","pricing_plan_id":"cebpf4jnsgd1na2vs0mg"},{"bike_id":"9e956125-d135-4c5b-a672-b787c5ecd852","system_id":"levelo_inurba_marseille","lat":43.24158,"lon":5.39761,"is_reserved":false,"is_disabled":false,"rental_uris":{"android":"levelo://app?vid=9e956125-d135-4c5b-a672-b787c5ecd852","ios":"levelo://app?vid=9e956125-d135-4c5b-a672-b787c5ecd852"},"vehicle_type_id":"4","last_reported":1768770581,"current_range_meters":8400,"station_id":"ce4bhn12rcd13ifvqgpg","pricing_plan_id":"cebpf4jnsgd1na2vs0mg"},{"bike_id":"1d845d40-bee8-4284-affc-9030247b1e56","system_id":"levelo_inurba_marseille","lat":43.22902,"lon":5.35422,"is_reserved":false,"is_disabled":false,"rental_uris":{"android":"levelo://app?vid=1d845d40-bee8-4284-affc-9030247b1e56","ios":"levelo://app?vid=1d845d40-bee8-4284-affc-9030247b1e56"},"vehicle_type_id":"4","last_reported":1768770581,"current_range_meters":8400,"station_id":"cpo3532slgdg3j2ikp40","pricing_plan_id":"cebpf4jnsgd1na2vs0mg"},{"bike_id":"d6ab83d9-f0e3-4bdf-a1c4-652a184696f5","system_id":"levelo_inurba_marseille","lat":43.229334,"lon":5.3538,"is_reserved":false,"is_disabled":false,"rental_uris":{"android":"levelo://app?vid=d6ab83d9-f0e3-4bdf-a1c4-652a184696f5","ios":"levelo://app?vid=d6ab83d9-f0e3-4bdf-a1c4-652a184696f5"},"vehicle_type_id":"4","last_reported":1768770581,"current_range_meters":8400,"station_id":"cpo3532slgdg3j2ikp40","pricing_plan_id":"cebpf4jnsgd1na2vs0mg"},{"bike_id":"333aa3ec-dbc7-4d10-a665-05699776d9cf","system_id":"levelo_inurba_marseille","lat":43.28335,"lon":5.38109,"is_reserved":false,"is_disabled":false,"rental_uris":{"android":"levelo://app?vid=333aa3ec-dbc7-4d10-a665-05699776d9cf","ios":"levelo://app?vid=333aa3ec-dbc7-4d10-a665-05699776d9cf"},"vehicle_type_id":"4","last_reported":1768770581,"current_range_meters":8400,"station_id":"ce4bh412rcd13ifvqdr0","pricing_plan_id":"cebpf4jnsgd1na2vs0mg"},{"bike_id":"1532d42e-38ab-4af0-9974-bda480cde4fa","system_id":"levelo_inurba_marseille","lat":43.270586,"lon":5.383106,"is_reserved":false,"is_disabled":false,"rental_uris":{"android":"levelo://app?vid=1532d42e-38ab-4af0-9974-bda480cde4fa","ios":"levelo://app?vid=1532d42e-38ab-4af0-9974-bda480cde4fa"},"vehicle_type_id":"4","last_reported":1768770581,"current_range_meters":8400,"station_id":"st_d3n2fo6cfp8s73cte1j0","pricing_plan_id":"cebpf4jnsgd1na2vs0mg"},{"bike_id":"85e5b6f5-3fad-4389-a62d-0d5edd813f11","system_id":"levelo_inurba_marseille","lat":43.265611,"lon":5.403465,"is_reserved":false,"is_disabled":false,"rental_uris":{"android":"levelo://app?vid=85e5b6f5-3fad-4389-a62d-0d5edd813f11","ios":"levelo://app?vid=85e5b6f5-3fad-4389-a62d-0d5edd813f11"},"vehicle_type_id":"4","last_reported":1768770581,"current_range_meters":8400,"station_id":"ce4bhmp2rcd13ifvqgng","pricing_plan_id":"cebpf4jnsgd1na2vs0mg"},{"bike_id":"25425e15-43fe-4c3e-ae39-849597531f73","system_id":"levelo_inurba_marseille","lat":43.29557,"lon":5.40652,"is_reserved":false,"is_disabled":false,"rental_uris":{"android":"levelo://app?vid=25425e15-43fe-4c3e-ae39-849597531f73","ios":"levelo://app?vid=25425e15-43fe-4c3e-ae39-849597531f73"},"vehicle_type_id":"4","last_reported":1768770581,"current_range_meters":8400,"station_id":"","pricing_plan_id":"cebpf4jnsgd1na2vs0mg"},{"bike_id":"f6adf0c1-f5b5-44a2-95f0-fade2e340101","system_id":"levelo_inurba_marseille","lat":43.278107,"lon":5.407192,"is_reserved":false,"is_disabled":false,"rental_uris":{"android":"levelo://app?vid=f6adf0c1-f5b5-44a2-95f0-fade2e340101","ios":"levelo://app?vid=f6adf0c1-f5b5-44a2-95f0-fade2e340101"},"vehicle_type_id":"4","last_reported":1768770581,"current_range_meters":8400,"station_id":"ce4bhnh2rcd13ifvqgtg","pricing_plan_id":"cebpf4jnsgd1na2vs0mg"},{"bike_id":"84a5722c-405c-4425-8224-bc6fab9a45d0","system_id":"levelo_inurba_marseille","lat":43.29712,"lon":5.37708,"is_reserved":false,"is_disabled":false,"rental_uris":{"android":"levelo://app?vid=84a5722c-405c-4425-8224-bc6fab9a45d0","ios":"levelo://app?vid=84a5722c-405c-4425-8224-bc6fab9a45d0"},"vehicle_type_id":"4","last_reported":1768770581,"current_range_meters":8400,"station_id":"ce4bgkh2rcd13ifvqbl0","pricing_plan_id":"cebpf4jnsgd1na2vs0mg"},{"bike_id":"3921e2d0-f060-4fd6-bd78-5a1c13f78178","system_id":"levelo_inurba_marseille","lat":43.26505,"lon":5.39496,"is_reserved":false,"is_disabled":false,"rental_uris":{"android":"levelo://app?vid=3921e2d0-f060-4fd6-bd78-5a1c13f78178","ios":"levelo://app?vid=3921e2d0-f060-4fd6-bd78-5a1c13f78178"},"vehicle_type_id":"4","last_reported":1768770581,"current_range_meters":8400,"station_id":"ce4bhi12rcd13ifvqfq0","pricing_plan_id":"cebpf4jnsgd1na2vs0mg"},{"bike_id":"a54d5df4-8e04-455c-aff5-6470c2bee2e4","system_id":"levelo_inurba_marseille","lat":43.27934,"lon":5.38585,"is_reserved":false,"is_disabled":false,"rental_uris":{"android":"levelo://app?vid=a54d5df4-8e04-455c-aff5-6470c2bee2e4","ios":"levelo://app?vid=a54d5df4-8e04-455c-aff5-6470c2bee2e4"},"vehicle_type_id":"4","last_reported":1768770581,"current_range_meters":8800,"station_id":"","pricing_plan_id":"cebpf4jnsgd1na2vs0mg"},{"bike_id":"bc5446ee-938b-4f89-b75e-21ffe1627550","system_id":"levelo_inurba_marseille","lat":43.27325,"lon":5.39089,"is_reserved":false,"is_disabled":false,"rental_uris":{"android":"levelo://app?vid=bc5446ee-938b-4f89-b75e-21ffe1627550","ios":"levelo://app?vid=bc5446ee-938b-4f89-b75e-21ffe1627550"},"vehicle_type_id":"4","last_reported":1768770581,"current_range_meters":8800,"station_id":"ce4bhgp2rcd13ifvqfe0","pricing_plan_id":"cebpf4jnsgd1na2vs0mg"},{"bike_id":"09105b5f-3c1b-4262-b05c-2ed28916e5be","system_id":"levelo_inurba_marseille","lat":43.25345,"lon":5.42163,"is_reserved":false,"is_disabled":false,"rental_uris":{"android":"levelo://app?vid=09105b5f-3c1b-4262-b05c-2ed28916e5be","ios":"levelo://app?vid=09105b5f-3c1b-4262-b05c-2ed28916e5be"},"vehicle_type_id":"4","last_reported":1768770581,"current_range_meters":8800,"station_id":"st_d2m65c5bi1j21697t3ng","pricing_plan_id":"cebpf4jnsgd1na2vs0mg"},{"bike_id":"a9cdf974-4322-4744-b774-7480af4d3eeb","system_id":"levelo_inurba_marseille","lat":43.28029,"lon":5.41666,"is_reserved":false,"is_disabled":false,"rental_uris":{"android":"levelo://app?vid=a9cdf974-4322-4744-b774-7480af4d3eeb","ios":"levelo://app?vid=a9cdf974-4322-4744-b774-7480af4d3eeb"},"vehicle_type_id":"4","last_reported":1768770581,"current_range_meters":8800,"station_id":"ce4bho12rcd13ifvqh1g","pricing_plan_id":"cebpf4jnsgd1na2vs0mg"},{"bike_id":"ec1861e3-cf5e-47e7-9bee-92fe639b30f4","system_id":"levelo_inurba_marseille","lat":43.24544,"lon":5.39523,"is_reserved":false,"is_disabled":false,"rental_uris":{"android":"levelo://app?vid=ec1861e3-cf5e-47e7-9bee-92fe639b30f4","ios":"levelo://app?vid=ec1861e3-cf5e-47e7-9bee-92fe639b30f4"},"vehicle_type_id":"4","last_reported":1768770581,"current_range_meters":8800,"station_id":"ce4bhlp2rcd13ifvqgjg","pricing_plan_id":"cebpf4jnsgd1na2vs0mg"},{"bike_id":"456fa838-bde1-41a1-bacb-725c5d31c7ed","system_id":"levelo_inurba_marseille","lat":43.273737,"lon":5.362475,"is_reserved":false,"is_disabled":false,"rental_uris":{"android":"levelo://app?vid=456fa838-bde1-41a1-bacb-725c5d31c7ed","ios":"levelo://app?vid=456fa838-bde1-41a1-bacb-725c5d31c7ed"},"vehicle_type_id":"4","last_reported":1768770581,"current_range_meters":8800,"station_id":"ce4bhbh2rcd13ifvqeo0","pricing_plan_id":"cebpf4jnsgd1na2vs0mg"},{"bike_id":"ba07251e-69c5-4418-ace3-7cd844e33077","system_id":"levelo_inurba_marseille","lat":43.27811,"lon":5.40697,"is_reserved":false,"is_disabled":false,"rental_uris":{"android":"levelo://app?vid=ba07251e-69c5-4418-ace3-7cd844e33077","ios":"levelo://app?vid=ba07251e-69c5-4418-ace3-7cd844e33077"},"vehicle_type_id":"4","last_reported":1768770581,"current_range_meters":8800,"station_id":"ce4bhnh2rcd13ifvqgtg","pricing_plan_id":"cebpf4jnsgd1na2vs0mg"},{"bike_id":"1606f888-b4dc-4200-b20c-005f9a7c7417","system_id":"levelo_inurba_marseille","lat":43.22923,"lon":5.35412,"is_reserved":false,"is_disabled":false,"rental_uris":{"android":"levelo://app?vid=1606f888-b4dc-4200-b20c-005f9a7c7417","ios":"levelo://app?vid=1606f888-b4dc-4200-b20c-005f9a7c7417"},"vehicle_type_id":"4","last_reported":1768770581,"current_range_meters":8800,"station_id":"cpo3532slgdg3j2ikp40","pricing_plan_id":"cebpf4jnsgd1na2vs0mg"},{"bike_id":"f760a7b1-29a2-400f-be88-26a576d0ed33","system_id":"levelo_inurba_marseille","lat":43.22565,"lon":5.41639,"is_reserved":false,"is_disabled":false,"rental_uris":{"android":"levelo://app?vid=f760a7b1-29a2-400f-be88-26a576d0ed33","ios":"levelo://app?vid=f760a7b1-29a2-400f-be88-26a576d0ed33"},"vehicle_type_id":"4","last_reported":1768770581,"current_range_meters":8800,"station_id":"st_d2o4gvlbi1j2169b742g","pricing_plan_id":"cebpf4jnsgd1na2vs0mg"},{"bike_id":"da5ec0dc-b428-4d22-9b7d-d9f0923ad17e","system_id":"levelo_inurba_marseille","lat":43.29636,"lon":5.37156,"is_reserved":false,"is_disabled":true,"rental_uris":{"android":"levelo://app?vid=da5ec0dc-b428-4d22-9b7d-d9f0923ad17e","ios":"levelo://app?vid=da5ec0dc-b428-4d22-9b7d-d9f0923ad17e"},"vehicle_type_id":"4","last_reported":1768770581,"current_range_meters":8800,"station_id":"ce4bgnh2rcd13ifvqc0g","pricing_plan_id":"cebpf4jnsgd1na2vs0mg"},{"bike_id":"d6a5286c-a8f1-4c48-bd44-cb6cde170fbe","system_id":"levelo_inurba_marseille","lat":43.30094,"lon":5.39095,"is_reserved":false,"is_disabled":true,"rental_uris":{"android":"levelo://app?vid=d6a5286c-a8f1-4c48-bd44-cb6cde170fbe","ios":"levelo://app?vid=d6a5286c-a8f1-4c48-bd44-cb6cde170fbe"},"vehicle_type_id":"4","last_reported":1768770581,"current_range_meters":8800,"station_id":"ce4bh192rcd13ifvqdb0","pricing_plan_id":"cebpf4jnsgd1na2vs0mg"},{"bike_id":"76bd8662-78d2-416e-bd1f-dbf6b13bf763","system_id":"levelo_inurba_marseille","lat":43.269431,"lon":5.402439,"is_reserved":false,"is_disabled":false,"rental_uris":{"android":"levelo://app?vid=76bd8662-78d2-416e-bd1f-dbf6b13bf763","ios":"levelo://app?vid=76bd8662-78d2-416e-bd1f-dbf6b13bf763"},"vehicle_type_id":"4","last_reported":1768770581,"current_range_meters":8800,"station_id":"cjm6bp8fraef2m0cb0m0","pricing_plan_id":"cebpf4jnsgd1na2vs0mg"},{"bike_id":"2692c150-a0c0-40f2-90c3-6786678aa239","system_id":"levelo_inurba_marseille","lat":43.31045,"lon":5.42451,"is_reserved":false,"is_disabled":false,"rental_uris":{"android":"levelo://app?vid=2692c150-a0c0-40f2-90c3-6786678aa239","ios":"levelo://app?vid=2692c150-a0c0-40f2-90c3-6786678aa239"},"vehicle_type_id":"4","last_reported":1768770581,"current_range_meters":8800,"station_id":"ce4bhp92rcd13ifvqhag","pricing_plan_id":"cebpf4jnsgd1na2vs0mg"},{"bike_id":"0fd21be0-2047-4c19-93b0-3d78a043614b","system_id":"levelo_inurba_marseille","lat":43.23813,"lon":5.36631,"is_reserved":false,"is_disabled":false,"rental_uris":{"android":"levelo://app?vid=0fd21be0-2047-4c19-93b0-3d78a043614b","ios":"levelo://app?vid=0fd21be0-2047-4c19-93b0-3d78a043614b"},"vehicle_type_id":"4","last_reported":1768770581,"current_range_meters":8800,"station_id":"st_d3nk18o9ro0c73en2l3g","pricing_plan_id":"cebpf4jnsgd1na2vs0mg"},{"bike_id":"c24b6d66-22a5-4e3b-8dea-8013ffef366b","system_id":"levelo_inurba_marseille","lat":43.31078,"lon":5.38356,"is_reserved":false,"is_disabled":false,"rental_uris":{"android":"levelo://app?vid=c24b6d66-22a5-4e3b-8dea-8013ffef366b","ios":"levelo://app?vid=c24b6d66-22a5-4e3b-8dea-8013ffef366b"},"vehicle_type_id":"4","last_reported":1768770581,"current_range_meters":8800,"station_id":"ce4bgv92rcd13ifvqcr0","pricing_plan_id":"cebpf4jnsgd1na2vs0mg"},{"bike_id":"f6dee482-e963-4223-be46-6a1a82c523df","system_id":"levelo_inurba_marseille","lat":43.24181,"lon":5.39719,"is_reserved":false,"is_disabled":false,"rental_uris":{"android":"levelo://app?vid=f6dee482-e963-4223-be46-6a1a82c523df","ios":"levelo://app?vid=f6dee482-e963-4223-be46-6a1a82c523df"},"vehicle_type_id":"4","last_reported":1768770581,"current_range_meters":8800,"station_id":"ce4bhn12rcd13ifvqgpg","pricing_plan_id":"cebpf4jnsgd1na2vs0mg"},{"bike_id":"84d602b3-8943-4780-bcf1-164d29a27b66","system_id":"levelo_inurba_marseille","lat":43.28483,"lon":5.48395,"is_reserved":false,"is_disabled":false,"rental_uris":{"android":"levelo://app?vid=84d602b3-8943-4780-bcf1-164d29a27b66","ios":"levelo://app?vid=84d602b3-8943-4780-bcf1-164d29a27b66"},"vehicle_type_id":"4","last_reported":1768770581,"current_range_meters":8800,"station_id":"","pricing_plan_id":"cebpf4jnsgd1na2vs0mg"},{"bike_id":"80b40564-d8ca-4fba-94c7-74b7e6e95b0e","system_id":"levelo_inurba_marseille","lat":43.30538,"lon":5.365329,"is_reserved":false,"is_disabled":false,"rental_uris":{"android":"levelo://app?vid=80b40564-d8ca-4fba-94c7-74b7e6e95b0e","ios":"levelo://app?vid=80b40564-d8ca-4fba-94c7-74b7e6e95b0e"},"vehicle_type_id":"4","last_reported":1768770581,"current_range_meters":8800,"station_id":"ce4bgs12rcd13ifvqcag","pricing_plan_id":"cebpf4jnsgd1na2vs0mg"},{"bike_id":"44d80ca6-dac0-4000-97a2-ac8fa224bc0e","system_id":"levelo_inurba_marseille","lat":43.28754,"lon":5.3714,"is_reserved":false,"is_disabled":false,"rental_uris":{"android":"levelo://app?vid=44d80ca6-dac0-4000-97a2-ac8fa224bc0e","ios":"levelo://app?vid=44d80ca6-dac0-4000-97a2-ac8fa224bc0e"},"vehicle_type_id":"4","last_reported":1768770581,"current_range_meters":8800,"station_id":"","pricing_plan_id":"cebpf4jnsgd1na2vs0mg"},{"bike_id":"ef88c352-189d-4372-beb9-7002182fbb2b","system_id":"levelo_inurba_marseille","lat":43.27974,"lon":5.40008,"is_reserved":false,"is_disabled":false,"rental_uris":{"android":"levelo://app?vid=ef88c352-189d-4372-beb9-7002182fbb2b","ios":"levelo://app?vid=ef88c352-189d-4372-beb9-7002182fbb2b"},"vehicle_type_id":"4","last_reported":1768770581,"current_range_meters":8800,"station_id":"ce4bho92rcd13ifvqh4g","pricing_plan_id":"cebpf4jnsgd1na2vs0mg"},{"bike_id":"188c635f-31eb-4e45-b29f-e748801ba7a3","system_id":"levelo_inurba_marseille","lat":43.2847,"lon":5.48388,"is_reserved":false,"is_disabled":false,"rental_uris":{"android":"levelo://app?vid=188c635f-31eb-4e45-b29f-e748801ba7a3","ios":"levelo://app?vid=188c635f-31eb-4e45-b29f-e748801ba7a3"},"vehicle_type_id":"4","last_reported":1768770581,"current_range_meters":8800,"station_id":"st_d3svhcjqgbts73a3dn0g","pricing_plan_id":"cebpf4jnsgd1na2vs0mg"},{"bike_id":"8045f91a-bfa2-4104-81d2-8d9071103d44","system_id":"levelo_inurba_marseille","lat":43.26576,"lon":5.39003,"is_reserved":false,"is_disabled":false,"rental_uris":{"android":"levelo://app?vid=8045f91a-bfa2-4104-81d2-8d9071103d44","ios":"levelo://app?vid=8045f91a-bfa2-4104-81d2-8d9071103d44"},"vehicle_type_id":"4","last_reported":1768770581,"current_range_meters":8800,"station_id":"ce4bhe12rcd13ifvqf30","pricing_plan_id":"cebpf4jnsgd1na2vs0mg"},{"bike_id":"418bfda8-decb-4a83-b9ec-dd22be0a4258","system_id":"levelo_inurba_marseille","lat":43.3172,"lon":5.40457,"is_reserved":false,"is_disabled":false,"rental_uris":{"android":"levelo://app?vid=418bfda8-decb-4a83-b9ec-dd22be0a4258","ios":"levelo://app?vid=418bfda8-decb-4a83-b9ec-dd22be0a4258"},"vehicle_type_id":"4","last_reported":1768770581,"current_range_meters":8800,"station_id":"ce4bh012rcd13ifvqd00","pricing_plan_id":"cebpf4jnsgd1na2vs0mg"},{"bike_id":"03256455-2cf8-4003-8cb2-14438e50ba23","system_id":"levelo_inurba_marseille","lat":43.30733,"lon":5.42419,"is_reserved":false,"is_disabled":false,"rental_uris":{"android":"levelo://app?vid=03256455-2cf8-4003-8cb2-14438e50ba23","ios":"levelo://app?vid=03256455-2cf8-4003-8cb2-14438e50ba23"},"vehicle_type_id":"4","last_reported":1768770581,"current_range_meters":8800,"station_id":"st_cvj6ca6bvosntc0bfgr0","pricing_plan_id":"cebpf4jnsgd1na2vs0mg"},{"bike_id":"3019b242-daef-4adc-9001-a765b1be88a4","system_id":"levelo_inurba_marseille","lat":43.28517,"lon":5.44109,"is_reserved":false,"is_disabled":false,"rental_uris":{"android":"levelo://app?vid=3019b242-daef-4adc-9001-a765b1be88a4","ios":"levelo://app?vid=3019b242-daef-4adc-9001-a765b1be88a4"},"vehicle_type_id":"4","last_reported":1768770581,"current_range_meters":8800,"station_id":"st_d3j3df2ikq2c7380ej80","pricing_plan_id":"cebpf4jnsgd1na2vs0mg"},{"bike_id":"d554e6a2-2936-4241-99d5-d43952b7d16e","system_id":"levelo_inurba_marseille","lat":43.29262,"lon":5.40888,"is_reserved":false,"is_disabled":false,"rental_uris":{"android":"levelo://app?vid=d554e6a2-2936-4241-99d5-d43952b7d16e","ios":"levelo://app?vid=d554e6a2-2936-4241-99d5-d43952b7d16e"},"vehicle_type_id":"4","last_reported":1768770581,"current_range_meters":8800,"station_id":"ce4bh192rcd13ifvqdc0","pricing_plan_id":"cebpf4jnsgd1na2vs0mg"},{"bike_id":"544bcdbb-4ade-4e28-8d58-bd0ce6c900eb","system_id":"levelo_inurba_marseille","lat":43.25329,"lon":5.42162,"is_reserved":false,"is_disabled":false,"rental_uris":{"android":"levelo://app?vid=544bcdbb-4ade-4e28-8d58-bd0ce6c900eb","ios":"levelo://app?vid=544bcdbb-4ade-4e28-8d58-bd0ce6c900eb"},"vehicle_type_id":"4","last_reported":1768770581,"current_range_meters":8800,"station_id":"st_d2m65c5bi1j21697t3ng","pricing_plan_id":"cebpf4jnsgd1na2vs0mg"},{"bike_id":"017ac6ba-5de6-4940-8209-8a79986e4549","system_id":"levelo_inurba_marseille","lat":43.29264,"lon":5.38445,"is_reserved":false,"is_disabled":true,"rental_uris":{"android":"levelo://app?vid=017ac6ba-5de6-4940-8209-8a79986e4549","ios":"levelo://app?vid=017ac6ba-5de6-4940-8209-8a79986e4549"},"vehicle_type_id":"4","last_reported":1768770581,"current_range_meters":9200,"station_id":"ce4bh692rcd13ifvqea0","pricing_plan_id":"cebpf4jnsgd1na2vs0mg"},{"bike_id":"0975f492-1758-4813-958c-364296bfbee6","system_id":"levelo_inurba_marseille","lat":43.26059,"lon":5.39428,"is_reserved":false,"is_disabled":false,"rental_uris":{"android":"levelo://app?vid=0975f492-1758-4813-958c-364296bfbee6","ios":"levelo://app?vid=0975f492-1758-4813-958c-364296bfbee6"},"vehicle_type_id":"4","last_reported":1768770581,"current_range_meters":9200,"station_id":"ce4bhh92rcd13ifvqfj0","pricing_plan_id":"cebpf4jnsgd1na2vs0mg"},{"bike_id":"016900bc-5ac6-4330-ab84-4d755560128b","system_id":"levelo_inurba_marseille","lat":43.27951,"lon":5.3994,"is_reserved":false,"is_disabled":false,"rental_uris":{"android":"levelo://app?vid=016900bc-5ac6-4330-ab84-4d755560128b","ios":"levelo://app?vid=016900bc-5ac6-4330-ab84-4d755560128b"},"vehicle_type_id":"4","last_reported":1768770581,"current_range_meters":9200,"station_id":"","pricing_plan_id":"cebpf4jnsgd1na2vs0mg"},{"bike_id":"681232eb-8730-4455-bfaa-f9a1ecc3ac98","system_id":"levelo_inurba_marseille","lat":43.24799,"lon":5.37451,"is_reserved":false,"is_disabled":false,"rental_uris":{"android":"levelo://app?vid=681232eb-8730-4455-bfaa-f9a1ecc3ac98","ios":"levelo://app?vid=681232eb-8730-4455-bfaa-f9a1ecc3ac98"},"vehicle_type_id":"4","last_reported":1768770581,"current_range_meters":9200,"station_id":"ce4bhgh2rcd13ifvqfb0","pricing_plan_id":"cebpf4jnsgd1na2vs0mg"},{"bike_id":"afa4a834-dd76-412c-abdc-b712bd680a88","system_id":"levelo_inurba_marseille","lat":43.24944,"lon":5.40482,"is_reserved":false,"is_disabled":false,"rental_uris":{"android":"levelo://app?vid=afa4a834-dd76-412c-abdc-b712bd680a88","ios":"levelo://app?vid=afa4a834-dd76-412c-abdc-b712bd680a88"},"vehicle_type_id":"4","last_reported":1768770581,"current_range_meters":9200,"station_id":"st_d2ngiaodas8pm72gd1h0","pricing_plan_id":"cebpf4jnsgd1na2vs0mg"},{"bike_id":"a793b43a-2f1a-44e5-b8fd-5c578f863f85","system_id":"levelo_inurba_marseille","lat":43.31759,"lon":5.39003,"is_reserved":false,"is_disabled":false,"rental_uris":{"android":"levelo://app?vid=a793b43a-2f1a-44e5-b8fd-5c578f863f85","ios":"levelo://app?vid=a793b43a-2f1a-44e5-b8fd-5c578f863f85"},"vehicle_type_id":"4","last_reported":1768770581,"current_range_meters":9200,"station_id":"ce4bhqp2rcd13ifvqhng","pricing_plan_id":"cebpf4jnsgd1na2vs0mg"},{"bike_id":"6cf01478-fde2-46e6-bdc7-d20cd609786f","system_id":"levelo_inurba_marseille","lat":43.28485,"lon":5.38536,"is_reserved":false,"is_disabled":false,"rental_uris":{"android":"levelo://app?vid=6cf01478-fde2-46e6-bdc7-d20cd609786f","ios":"levelo://app?vid=6cf01478-fde2-46e6-bdc7-d20cd609786f"},"vehicle_type_id":"4","last_reported":1768770581,"current_range_meters":9200,"station_id":"ce4bh8p2rcd13ifvqeb0","pricing_plan_id":"cebpf4jnsgd1na2vs0mg"},{"bike_id":"f105bb30-5feb-43b7-adae-39f585dd1cca","system_id":"levelo_inurba_marseille","lat":43.28615,"lon":5.35115,"is_reserved":false,"is_disabled":true,"rental_uris":{"android":"levelo://app?vid=f105bb30-5feb-43b7-adae-39f585dd1cca","ios":"levelo://app?vid=f105bb30-5feb-43b7-adae-39f585dd1cca"},"vehicle_type_id":"4","last_reported":1768770581,"current_range_meters":9200,"station_id":"ce4bhch2rcd13ifvqeug","pricing_plan_id":"cebpf4jnsgd1na2vs0mg"},{"bike_id":"7dbbcfab-8796-4f78-b67c-fb95c692bb9a","system_id":"levelo_inurba_marseille","lat":43.25185,"lon":5.40101,"is_reserved":false,"is_disabled":false,"rental_uris":{"android":"levelo://app?vid=7dbbcfab-8796-4f78-b67c-fb95c692bb9a","ios":"levelo://app?vid=7dbbcfab-8796-4f78-b67c-fb95c692bb9a"},"vehicle_type_id":"4","last_reported":1768770581,"current_range_meters":9200,"station_id":"","pricing_plan_id":"cebpf4jnsgd1na2vs0mg"},{"bike_id":"63e60c57-53e1-4fce-a6de-f27c8994573b","system_id":"levelo_inurba_marseille","lat":43.30789,"lon":5.39249,"is_reserved":false,"is_disabled":false,"rental_uris":{"android":"levelo://app?vid=63e60c57-53e1-4fce-a6de-f27c8994573b","ios":"levelo://app?vid=63e60c57-53e1-4fce-a6de-f27c8994573b"},"vehicle_type_id":"4","last_reported":1768770581,"current_range_meters":9200,"station_id":"","pricing_plan_id":"cebpf4jnsgd1na2vs0mg"},{"bike_id":"40ec9b3e-8a68-4f21-9a1a-c3df8cc32599","system_id":"levelo_inurba_marseille","lat":43.24078,"lon":5.37759,"is_reserved":false,"is_disabled":false,"rental_uris":{"android":"levelo://app?vid=40ec9b3e-8a68-4f21-9a1a-c3df8cc32599","ios":"levelo://app?vid=40ec9b3e-8a68-4f21-9a1a-c3df8cc32599"},"vehicle_type_id":"4","last_reported":1768770581,"current_range_meters":9200,"station_id":"ce4bhnp2rcd13ifvqgvg","pricing_plan_id":"cebpf4jnsgd1na2vs0mg"},{"bike_id":"2090a1bd-4d02-4c60-92de-1961961aca62","system_id":"levelo_inurba_marseille","lat":43.28671,"lon":5.38658,"is_reserved":false,"is_disabled":true,"rental_uris":{"android":"levelo://app?vid=2090a1bd-4d02-4c60-92de-1961961aca62","ios":"levelo://app?vid=2090a1bd-4d02-4c60-92de-1961961aca62"},"vehicle_type_id":"4","last_reported":1768770581,"current_range_meters":9200,"station_id":"ce4bh492rcd13ifvqdug","pricing_plan_id":"cebpf4jnsgd1na2vs0mg"},{"bike_id":"1837b76f-55b2-4942-aef4-b0d299ab4019","system_id":"levelo_inurba_marseille","lat":43.25217,"lon":5.38073,"is_reserved":false,"is_disabled":false,"rental_uris":{"android":"levelo://app?vid=1837b76f-55b2-4942-aef4-b0d299ab4019","ios":"levelo://app?vid=1837b76f-55b2-4942-aef4-b0d299ab4019"},"vehicle_type_id":"4","last_reported":1768770581,"current_range_meters":9200,"station_id":"","pricing_plan_id":"cebpf4jnsgd1na2vs0mg"},{"bike_id":"c17fb97b-ae07-4c98-a543-c0e22027b693","system_id":"levelo_inurba_marseille","lat":43.2438,"lon":5.37042,"is_reserved":false,"is_disabled":false,"rental_uris":{"android":"levelo://app?vid=c17fb97b-ae07-4c98-a543-c0e22027b693","ios":"levelo://app?vid=c17fb97b-ae07-4c98-a543-c0e22027b693"},"vehicle_type_id":"4","last_reported":1768770581,"current_range_meters":9200,"station_id":"ce4bhhh2rcd13ifvqfk0","pricing_plan_id":"cebpf4jnsgd1na2vs0mg"},{"bike_id":"13c7565e-579a-4d8c-8e4a-79f4880e8378","system_id":"levelo_inurba_marseille","lat":43.25337,"lon":5.38009,"is_reserved":false,"is_disabled":false,"rental_uris":{"android":"levelo://app?vid=13c7565e-579a-4d8c-8e4a-79f4880e8378","ios":"levelo://app?vid=13c7565e-579a-4d8c-8e4a-79f4880e8378"},"vehicle_type_id":"4","last_reported":1768770581,"current_range_meters":9200,"station_id":"","pricing_plan_id":"cebpf4jnsgd1na2vs0mg"},{"bike_id":"d3636923-d529-4805-a8bd-d6d3ddc3aec2","system_id":"levelo_inurba_marseille","lat":43.2899,"lon":5.40018,"is_reserved":false,"is_disabled":true,"rental_uris":{"android":"levelo://app?vid=d3636923-d529-4805-a8bd-d6d3ddc3aec2","ios":"levelo://app?vid=d3636923-d529-4805-a8bd-d6d3ddc3aec2"},"vehicle_type_id":"4","last_reported":1768770581,"current_range_meters":9200,"station_id":"","pricing_plan_id":"cebpf4jnsgd1na2vs0mg"},{"bike_id":"bbe519d1-7d24-4dfc-8eea-7f3e8bf5a4b8","system_id":"levelo_inurba_marseille","lat":43.24145,"lon":5.39752,"is_reserved":false,"is_disabled":false,"rental_uris":{"android":"levelo://app?vid=bbe519d1-7d24-4dfc-8eea-7f3e8bf5a4b8","ios":"levelo://app?vid=bbe519d1-7d24-4dfc-8eea-7f3e8bf5a4b8"},"vehicle_type_id":"4","last_reported":1768770581,"current_range_meters":9200,"station_id":"ce4bhn12rcd13ifvqgpg","pricing_plan_id":"cebpf4jnsgd1na2vs0mg"},{"bike_id":"e5ab658e-81fe-444d-a6bf-1d45924ca7dc","system_id":"levelo_inurba_marseille","lat":43.29517,"lon":5.39409,"is_reserved":false,"is_disabled":false,"rental_uris":{"android":"levelo://app?vid=e5ab658e-81fe-444d-a6bf-1d45924ca7dc","ios":"levelo://app?vid=e5ab658e-81fe-444d-a6bf-1d45924ca7dc"},"vehicle_type_id":"4","last_reported":1768770581,"current_range_meters":9200,"station_id":"ce4bh292rcd13ifvqdf0","pricing_plan_id":"cebpf4jnsgd1na2vs0mg"},{"bike_id":"5c17b88d-8827-4f96-b5ec-2c1841b5b322","system_id":"levelo_inurba_marseille","lat":43.31682,"lon":5.40474,"is_reserved":false,"is_disabled":false,"rental_uris":{"android":"levelo://app?vid=5c17b88d-8827-4f96-b5ec-2c1841b5b322","ios":"levelo://app?vid=5c17b88d-8827-4f96-b5ec-2c1841b5b322"},"vehicle_type_id":"4","last_reported":1768770581,"current_range_meters":9600,"station_id":"ce4bh012rcd13ifvqd00","pricing_plan_id":"cebpf4jnsgd1na2vs0mg"},{"bike_id":"f145c426-a778-498f-9774-3a2a8dd62400","system_id":"levelo_inurba_marseille","lat":43.2846,"lon":5.35887,"is_reserved":false,"is_disabled":false,"rental_uris":{"android":"levelo://app?vid=f145c426-a778-498f-9774-3a2a8dd62400","ios":"levelo://app?vid=f145c426-a778-498f-9774-3a2a8dd62400"},"vehicle_type_id":"4","last_reported":1768770581,"current_range_meters":9600,"station_id":"ce4bhah2rcd13ifvqei0","pricing_plan_id":"cebpf4jnsgd1na2vs0mg"},{"bike_id":"a701194d-0cc5-497a-93ea-f1faca1626fe","system_id":"levelo_inurba_marseille","lat":43.26579,"lon":5.40307,"is_reserved":false,"is_disabled":false,"rental_uris":{"android":"levelo://app?vid=a701194d-0cc5-497a-93ea-f1faca1626fe","ios":"levelo://app?vid=a701194d-0cc5-497a-93ea-f1faca1626fe"},"vehicle_type_id":"4","last_reported":1768770581,"current_range_meters":9600,"station_id":"ce4bhmp2rcd13ifvqgng","pricing_plan_id":"cebpf4jnsgd1na2vs0mg"},{"bike_id":"c8219853-0947-4a07-8781-ea369620595b","system_id":"levelo_inurba_marseille","lat":43.26952,"lon":5.38623,"is_reserved":false,"is_disabled":false,"rental_uris":{"android":"levelo://app?vid=c8219853-0947-4a07-8781-ea369620595b","ios":"levelo://app?vid=c8219853-0947-4a07-8781-ea369620595b"},"vehicle_type_id":"4","last_reported":1768770581,"current_range_meters":9600,"station_id":"ce4bhh92rcd13ifvqfh0","pricing_plan_id":"cebpf4jnsgd1na2vs0mg"},{"bike_id":"f70a59b4-29fe-4c71-a82c-c9b428830b98","system_id":"levelo_inurba_marseille","lat":43.24083,"lon":5.37764,"is_reserved":false,"is_disabled":false,"rental_uris":{"android":"levelo://app?vid=f70a59b4-29fe-4c71-a82c-c9b428830b98","ios":"levelo://app?vid=f70a59b4-29fe-4c71-a82c-c9b428830b98"},"vehicle_type_id":"4","last_reported":1768770581,"current_range_meters":9600,"station_id":"ce4bhnp2rcd13ifvqgvg","pricing_plan_id":"cebpf4jnsgd1na2vs0mg"},{"bike_id":"86c3f0b8-2cd4-4a60-9cca-42812eafe40e","system_id":"levelo_inurba_marseille","lat":43.281529,"lon":5.426305,"is_reserved":false,"is_disabled":false,"rental_uris":{"android":"levelo://app?vid=86c3f0b8-2cd4-4a60-9cca-42812eafe40e","ios":"levelo://app?vid=86c3f0b8-2cd4-4a60-9cca-42812eafe40e"},"vehicle_type_id":"4","last_reported":1768770581,"current_range_meters":9600,"station_id":"ce4bhnh2rcd13ifvqgug","pricing_plan_id":"cebpf4jnsgd1na2vs0mg"},{"bike_id":"536f7c96-4167-4be5-8a94-92113cb642f7","system_id":"levelo_inurba_marseille","lat":43.22567,"lon":5.41631,"is_reserved":false,"is_disabled":false,"rental_uris":{"android":"levelo://app?vid=536f7c96-4167-4be5-8a94-92113cb642f7","ios":"levelo://app?vid=536f7c96-4167-4be5-8a94-92113cb642f7"},"vehicle_type_id":"4","last_reported":1768770581,"current_range_meters":9600,"station_id":"st_d2o4gvlbi1j2169b742g","pricing_plan_id":"cebpf4jnsgd1na2vs0mg"},{"bike_id":"c3633228-22c1-48b6-a73d-2db8665cea58","system_id":"levelo_inurba_marseille","lat":43.27812,"lon":5.40705,"is_reserved":false,"is_disabled":false,"rental_uris":{"android":"levelo://app?vid=c3633228-22c1-48b6-a73d-2db8665cea58","ios":"levelo://app?vid=c3633228-22c1-48b6-a73d-2db8665cea58"},"vehicle_type_id":"4","last_reported":1768770581,"current_range_meters":9600,"station_id":"ce4bhnh2rcd13ifvqgtg","pricing_plan_id":"cebpf4jnsgd1na2vs0mg"},{"bike_id":"1bae9140-ff17-4e53-90ce-59eb9d8c1a5d","system_id":"levelo_inurba_marseille","lat":43.27987,"lon":5.416675,"is_reserved":false,"is_disabled":false,"rental_uris":{"android":"levelo://app?vid=1bae9140-ff17-4e53-90ce-59eb9d8c1a5d","ios":"levelo://app?vid=1bae9140-ff17-4e53-90ce-59eb9d8c1a5d"},"vehicle_type_id":"4","last_reported":1768770581,"current_range_meters":9600,"station_id":"ce4bho12rcd13ifvqh1g","pricing_plan_id":"cebpf4jnsgd1na2vs0mg"},{"bike_id":"abf30d9a-8f0c-4626-8dc8-b0faa0cf4d72","system_id":"levelo_inurba_marseille","lat":43.24949,"lon":5.40486,"is_reserved":false,"is_disabled":false,"rental_uris":{"android":"levelo://app?vid=abf30d9a-8f0c-4626-8dc8-b0faa0cf4d72","ios":"levelo://app?vid=abf30d9a-8f0c-4626-8dc8-b0faa0cf4d72"},"vehicle_type_id":"4","last_reported":1768770581,"current_range_meters":9600,"station_id":"st_d2ngiaodas8pm72gd1h0","pricing_plan_id":"cebpf4jnsgd1na2vs0mg"},{"bike_id":"335a8731-875e-404c-9011-f15c2acf8de6","system_id":"levelo_inurba_marseille","lat":43.26204,"lon":5.41546,"is_reserved":false,"is_disabled":false,"rental_uris":{"android":"levelo://app?vid=335a8731-875e-404c-9011-f15c2acf8de6","ios":"levelo://app?vid=335a8731-875e-404c-9011-f15c2acf8de6"},"vehicle_type_id":"4","last_reported":1768770581,"current_range_meters":9600,"station_id":"","pricing_plan_id":"cebpf4jnsgd1na2vs0mg"},{"bike_id":"dfda086e-42f7-4971-ac2d-fdeeaebbab19","system_id":"levelo_inurba_marseille","lat":43.28613,"lon":5.35107,"is_reserved":false,"is_disabled":false,"rental_uris":{"android":"levelo://app?vid=dfda086e-42f7-4971-ac2d-fdeeaebbab19","ios":"levelo://app?vid=dfda086e-42f7-4971-ac2d-fdeeaebbab19"},"vehicle_type_id":"4","last_reported":1768770581,"current_range_meters":9600,"station_id":"ce4bhch2rcd13ifvqeug","pricing_plan_id":"cebpf4jnsgd1na2vs0mg"},{"bike_id":"36a22704-64ff-4561-b90f-223ed19390ca","system_id":"levelo_inurba_marseille","lat":43.29939,"lon":5.36531,"is_reserved":false,"is_disabled":false,"rental_uris":{"android":"levelo://app?vid=36a22704-64ff-4561-b90f-223ed19390ca","ios":"levelo://app?vid=36a22704-64ff-4561-b90f-223ed19390ca"},"vehicle_type_id":"4","last_reported":1768770581,"current_range_meters":9600,"station_id":"ce4bgm92rcd13ifvqbr0","pricing_plan_id":"cebpf4jnsgd1na2vs0mg"},{"bike_id":"7890d8a9-a5ee-4c6a-9a9c-ecbe6e802b3b","system_id":"levelo_inurba_marseille","lat":43.28004,"lon":5.40008,"is_reserved":false,"is_disabled":false,"rental_uris":{"android":"levelo://app?vid=7890d8a9-a5ee-4c6a-9a9c-ecbe6e802b3b","ios":"levelo://app?vid=7890d8a9-a5ee-4c6a-9a9c-ecbe6e802b3b"},"vehicle_type_id":"4","last_reported":1768770581,"current_range_meters":10000,"station_id":"ce4bho92rcd13ifvqh4g","pricing_plan_id":"cebpf4jnsgd1na2vs0mg"},{"bike_id":"19bff589-1033-493b-b972-4fa3ed49becb","system_id":"levelo_inurba_marseille","lat":43.31113,"lon":5.37778,"is_reserved":false,"is_disabled":true,"rental_uris":{"android":"levelo://app?vid=19bff589-1033-493b-b972-4fa3ed49becb","ios":"levelo://app?vid=19bff589-1033-493b-b972-4fa3ed49becb"},"vehicle_type_id":"4","last_reported":1768770581,"current_range_meters":10000,"station_id":"ce4bgt92rcd13ifvqcg0","pricing_plan_id":"cebpf4jnsgd1na2vs0mg"},{"bike_id":"58fcb4ec-9c17-42cd-9134-f379e029a9fd","system_id":"levelo_inurba_marseille","lat":43.30178,"lon":5.37935,"is_reserved":false,"is_disabled":false,"rental_uris":{"android":"levelo://app?vid=58fcb4ec-9c17-42cd-9134-f379e029a9fd","ios":"levelo://app?vid=58fcb4ec-9c17-42cd-9134-f379e029a9fd"},"vehicle_type_id":"4","last_reported":1768770581,"current_range_meters":10000,"station_id":"","pricing_plan_id":"cebpf4jnsgd1na2vs0mg"},{"bike_id":"0a08d70d-bf34-4fe3-805a-fc10d9d8a88c","system_id":"levelo_inurba_marseille","lat":43.29623,"lon":5.3775,"is_reserved":false,"is_disabled":false,"rental_uris":{"android":"levelo://app?vid=0a08d70d-bf34-4fe3-805a-fc10d9d8a88c","ios":"levelo://app?vid=0a08d70d-bf34-4fe3-805a-fc10d9d8a88c"},"vehicle_type_id":"4","last_reported":1768770581,"current_range_meters":10000,"station_id":"ce4bgi92rcd13ifvqb90","pricing_plan_id":"cebpf4jnsgd1na2vs0mg"},{"bike_id":"0cf1f2c5-376b-41dc-bc01-878c31e518a5","system_id":"levelo_inurba_marseille","lat":43.28156,"lon":5.42646,"is_reserved":false,"is_disabled":false,"rental_uris":{"android":"levelo://app?vid=0cf1f2c5-376b-41dc-bc01-878c31e518a5","ios":"levelo://app?vid=0cf1f2c5-376b-41dc-bc01-878c31e518a5"},"vehicle_type_id":"4","last_reported":1768770581,"current_range_meters":10000,"station_id":"ce4bhnh2rcd13ifvqgug","pricing_plan_id":"cebpf4jnsgd1na2vs0mg"},{"bike_id":"484705cd-b20d-4716-8e33-beec169a25e2","system_id":"levelo_inurba_marseille","lat":43.29021,"lon":5.37529,"is_reserved":false,"is_disabled":false,"rental_uris":{"android":"levelo://app?vid=484705cd-b20d-4716-8e33-beec169a25e2","ios":"levelo://app?vid=484705cd-b20d-4716-8e33-beec169a25e2"},"vehicle_type_id":"4","last_reported":1768770581,"current_range_meters":10000,"station_id":"ce4bh692rcd13ifvqe90","pricing_plan_id":"cebpf4jnsgd1na2vs0mg"},{"bike_id":"5e7df9d7-418f-4368-a954-d50fe151d8de","system_id":"levelo_inurba_marseille","lat":43.22929,"lon":5.353733,"is_reserved":false,"is_disabled":false,"rental_uris":{"android":"levelo://app?vid=5e7df9d7-418f-4368-a954-d50fe151d8de","ios":"levelo://app?vid=5e7df9d7-418f-4368-a954-d50fe151d8de"},"vehicle_type_id":"4","last_reported":1768770581,"current_range_meters":10000,"station_id":"cpo3532slgdg3j2ikp40","pricing_plan_id":"cebpf4jnsgd1na2vs0mg"},{"bike_id":"6735a20a-0321-423c-a55a-4ecf97e291d0","system_id":"levelo_inurba_marseille","lat":43.229275,"lon":5.353827,"is_reserved":false,"is_disabled":false,"rental_uris":{"android":"levelo://app?vid=6735a20a-0321-423c-a55a-4ecf97e291d0","ios":"levelo://app?vid=6735a20a-0321-423c-a55a-4ecf97e291d0"},"vehicle_type_id":"4","last_reported":1768770581,"current_range_meters":10000,"station_id":"cpo3532slgdg3j2ikp40","pricing_plan_id":"cebpf4jnsgd1na2vs0mg"},{"bike_id":"564fb158-816d-4e9e-84aa-3da9e8b12e86","system_id":"levelo_inurba_marseille","lat":43.25582,"lon":5.38257,"is_reserved":false,"is_disabled":false,"rental_uris":{"android":"levelo://app?vid=564fb158-816d-4e9e-84aa-3da9e8b12e86","ios":"levelo://app?vid=564fb158-816d-4e9e-84aa-3da9e8b12e86"},"vehicle_type_id":"4","last_reported":1768770581,"current_range_meters":10000,"station_id":"ce4bhih2rcd13ifvqfs0","pricing_plan_id":"cebpf4jnsgd1na2vs0mg"},{"bike_id":"643a0bb3-7f00-438c-b64a-14f811a7652b","system_id":"levelo_inurba_marseille","lat":43.297171,"lon":5.377806,"is_reserved":false,"is_disabled":false,"rental_uris":{"android":"levelo://app?vid=643a0bb3-7f00-438c-b64a-14f811a7652b","ios":"levelo://app?vid=643a0bb3-7f00-438c-b64a-14f811a7652b"},"vehicle_type_id":"4","last_reported":1768770581,"current_range_meters":10000,"station_id":"","pricing_plan_id":"cebpf4jnsgd1na2vs0mg"},{"bike_id":"791ccb0c-3ea6-4f65-9436-65087a5f1af6","system_id":"levelo_inurba_marseille","lat":43.33753,"lon":5.37462,"is_reserved":false,"is_disabled":false,"rental_uris":{"android":"levelo://app?vid=791ccb0c-3ea6-4f65-9436-65087a5f1af6","ios":"levelo://app?vid=791ccb0c-3ea6-4f65-9436-65087a5f1af6"},"vehicle_type_id":"4","last_reported":1768770581,"current_range_meters":10000,"station_id":"","pricing_plan_id":"cebpf4jnsgd1na2vs0mg"},{"bike_id":"f8330021-0a37-4582-b84a-3ce94c8292c6","system_id":"levelo_inurba_marseille","lat":43.217508,"lon":5.345988,"is_reserved":false,"is_disabled":false,"rental_uris":{"android":"levelo://app?vid=f8330021-0a37-4582-b84a-3ce94c8292c6","ios":"levelo://app?vid=f8330021-0a37-4582-b84a-3ce94c8292c6"},"vehicle_type_id":"4","last_reported":1768770581,"current_range_meters":10000,"station_id":"st_cvj6r9ubvosntc0bgbag","pricing_plan_id":"cebpf4jnsgd1na2vs0mg"},{"bike_id":"c5db7ad0-3b21-4d0f-bf57-74ba050038f7","system_id":"levelo_inurba_marseille","lat":43.270582,"lon":5.383056,"is_reserved":false,"is_disabled":false,"rental_uris":{"android":"levelo://app?vid=c5db7ad0-3b21-4d0f-bf57-74ba050038f7","ios":"levelo://app?vid=c5db7ad0-3b21-4d0f-bf57-74ba050038f7"},"vehicle_type_id":"4","last_reported":1768770581,"current_range_meters":10000,"station_id":"st_d3n2fo6cfp8s73cte1j0","pricing_plan_id":"cebpf4jnsgd1na2vs0mg"},{"bike_id":"0f3a19af-39a2-4082-bd8e-26d337f54773","system_id":"levelo_inurba_marseille","lat":43.28873,"lon":5.42502,"is_reserved":false,"is_disabled":false,"rental_uris":{"android":"levelo://app?vid=0f3a19af-39a2-4082-bd8e-26d337f54773","ios":"levelo://app?vid=0f3a19af-39a2-4082-bd8e-26d337f54773"},"vehicle_type_id":"4","last_reported":1768770581,"current_range_meters":10000,"station_id":"st_d3b462108ojc7389ooeg","pricing_plan_id":"cebpf4jnsgd1na2vs0mg"},{"bike_id":"94bc6900-cd32-400e-aec2-89942c87a3e0","system_id":"levelo_inurba_marseille","lat":43.295227,"lon":5.385427,"is_reserved":false,"is_disabled":false,"rental_uris":{"android":"levelo://app?vid=94bc6900-cd32-400e-aec2-89942c87a3e0","ios":"levelo://app?vid=94bc6900-cd32-400e-aec2-89942c87a3e0"},"vehicle_type_id":"4","last_reported":1768770581,"current_range_meters":10000,"station_id":"ce4bh512rcd13ifvqe2g","pricing_plan_id":"cebpf4jnsgd1na2vs0mg"},{"bike_id":"027b52b7-3f46-47b2-a774-98ddf53ee027","system_id":"levelo_inurba_marseille","lat":43.23188,"lon":5.3998,"is_reserved":false,"is_disabled":false,"rental_uris":{"android":"levelo://app?vid=027b52b7-3f46-47b2-a774-98ddf53ee027","ios":"levelo://app?vid=027b52b7-3f46-47b2-a774-98ddf53ee027"},"vehicle_type_id":"4","last_reported":1768770581,"current_range_meters":10000,"station_id":"ce4bhn12rcd13ifvqgqg","pricing_plan_id":"cebpf4jnsgd1na2vs0mg"},{"bike_id":"f8bf59b4-3e23-4e90-bc70-5ee15a6c83c2","system_id":"levelo_inurba_marseille","lat":43.25353,"lon":5.42179,"is_reserved":false,"is_disabled":false,"rental_uris":{"android":"levelo://app?vid=f8bf59b4-3e23-4e90-bc70-5ee15a6c83c2","ios":"levelo://app?vid=f8bf59b4-3e23-4e90-bc70-5ee15a6c83c2"},"vehicle_type_id":"4","last_reported":1768770581,"current_range_meters":10800,"station_id":"st_d2m65c5bi1j21697t3ng","pricing_plan_id":"cebpf4jnsgd1na2vs0mg"},{"bike_id":"de6c90fb-dd51-4e08-9dbd-a70160fc9495","system_id":"levelo_inurba_marseille","lat":43.26368,"lon":5.41097,"is_reserved":false,"is_disabled":false,"rental_uris":{"android":"levelo://app?vid=de6c90fb-dd51-4e08-9dbd-a70160fc9495","ios":"levelo://app?vid=de6c90fb-dd51-4e08-9dbd-a70160fc9495"},"vehicle_type_id":"4","last_reported":1768770581,"current_range_meters":10800,"station_id":"st_d4e5ca6na9uc73bfl5fg","pricing_plan_id":"cebpf4jnsgd1na2vs0mg"},{"bike_id":"e1093d92-684f-463f-9907-089eedd95fa6","system_id":"levelo_inurba_marseille","lat":43.241741,"lon":5.397159,"is_reserved":false,"is_disabled":false,"rental_uris":{"android":"levelo://app?vid=e1093d92-684f-463f-9907-089eedd95fa6","ios":"levelo://app?vid=e1093d92-684f-463f-9907-089eedd95fa6"},"vehicle_type_id":"4","last_reported":1768770581,"current_range_meters":10800,"station_id":"ce4bhn12rcd13ifvqgpg","pricing_plan_id":"cebpf4jnsgd1na2vs0mg"},{"bike_id":"4cdfadb1-1bf3-4d49-ad80-a271fd97b4c1","system_id":"levelo_inurba_marseille","lat":43.33758,"lon":5.37493,"is_reserved":false,"is_disabled":false,"rental_uris":{"android":"levelo://app?vid=4cdfadb1-1bf3-4d49-ad80-a271fd97b4c1","ios":"levelo://app?vid=4cdfadb1-1bf3-4d49-ad80-a271fd97b4c1"},"vehicle_type_id":"4","last_reported":1768770581,"current_range_meters":10800,"station_id":"","pricing_plan_id":"cebpf4jnsgd1na2vs0mg"},{"bike_id":"6eabd888-c6a1-4aa4-b081-69393e8da4b6","system_id":"levelo_inurba_marseille","lat":43.278144,"lon":5.407063,"is_reserved":false,"is_disabled":false,"rental_uris":{"android":"levelo://app?vid=6eabd888-c6a1-4aa4-b081-69393e8da4b6","ios":"levelo://app?vid=6eabd888-c6a1-4aa4-b081-69393e8da4b6"},"vehicle_type_id":"4","last_reported":1768770581,"current_range_meters":10800,"station_id":"ce4bhnh2rcd13ifvqgtg","pricing_plan_id":"cebpf4jnsgd1na2vs0mg"},{"bike_id":"676b108a-8631-463b-ac20-0a121b44cff0","system_id":"levelo_inurba_marseille","lat":43.26491,"lon":5.39482,"is_reserved":false,"is_disabled":false,"rental_uris":{"android":"levelo://app?vid=676b108a-8631-463b-ac20-0a121b44cff0","ios":"levelo://app?vid=676b108a-8631-463b-ac20-0a121b44cff0"},"vehicle_type_id":"4","last_reported":1768770581,"current_range_meters":10800,"station_id":"","pricing_plan_id":"cebpf4jnsgd1na2vs0mg"},{"bike_id":"c37d9fed-e659-4634-9d60-2e7a3e1f2e5b","system_id":"levelo_inurba_marseille","lat":43.28336,"lon":5.38108,"is_reserved":false,"is_disabled":false,"rental_uris":{"android":"levelo://app?vid=c37d9fed-e659-4634-9d60-2e7a3e1f2e5b","ios":"levelo://app?vid=c37d9fed-e659-4634-9d60-2e7a3e1f2e5b"},"vehicle_type_id":"4","last_reported":1768770581,"current_range_meters":10800,"station_id":"ce4bh412rcd13ifvqdr0","pricing_plan_id":"cebpf4jnsgd1na2vs0mg"},{"bike_id":"816bb8a8-f8c1-4c2c-800a-b75b4245f3eb","system_id":"levelo_inurba_marseille","lat":43.26863,"lon":5.39565,"is_reserved":false,"is_disabled":false,"rental_uris":{"android":"levelo://app?vid=816bb8a8-f8c1-4c2c-800a-b75b4245f3eb","ios":"levelo://app?vid=816bb8a8-f8c1-4c2c-800a-b75b4245f3eb"},"vehicle_type_id":"4","last_reported":1768770581,"current_range_meters":10800,"station_id":"","pricing_plan_id":"cebpf4jnsgd1na2vs0mg"},{"bike_id":"afc1b4b5-c0b7-40a6-baef-e81015f9f998","system_id":"levelo_inurba_marseille","lat":43.30302,"lon":5.36916,"is_reserved":false,"is_disabled":false,"rental_uris":{"android":"levelo://app?vid=afc1b4b5-c0b7-40a6-baef-e81015f9f998","ios":"levelo://app?vid=afc1b4b5-c0b7-40a6-baef-e81015f9f998"},"vehicle_type_id":"4","last_reported":1768770581,"current_range_meters":10800,"station_id":"ce4bgqh2rcd13ifvqc5g","pricing_plan_id":"cebpf4jnsgd1na2vs0mg"},{"bike_id":"87a54c48-d7ac-433a-ae3b-f1377c77482d","system_id":"levelo_inurba_marseille","lat":43.31516,"lon":5.3801,"is_reserved":false,"is_disabled":false,"rental_uris":{"android":"levelo://app?vid=87a54c48-d7ac-433a-ae3b-f1377c77482d","ios":"levelo://app?vid=87a54c48-d7ac-433a-ae3b-f1377c77482d"},"vehicle_type_id":"4","last_reported":1768770581,"current_range_meters":10800,"station_id":"ce4bhsp2rcd13ifvqi50","pricing_plan_id":"cebpf4jnsgd1na2vs0mg"},{"bike_id":"cb678858-b1a7-4e4e-81a9-d91d3b4d50e3","system_id":"levelo_inurba_marseille","lat":43.25341,"lon":5.42164,"is_reserved":false,"is_disabled":false,"rental_uris":{"android":"levelo://app?vid=cb678858-b1a7-4e4e-81a9-d91d3b4d50e3","ios":"levelo://app?vid=cb678858-b1a7-4e4e-81a9-d91d3b4d50e3"},"vehicle_type_id":"4","last_reported":1768770581,"current_range_meters":10800,"station_id":"st_d2m65c5bi1j21697t3ng","pricing_plan_id":"cebpf4jnsgd1na2vs0mg"},{"bike_id":"22082c15-ecce-4cbe-939e-5e9c10f2ba84","system_id":"levelo_inurba_marseille","lat":43.31719,"lon":5.4241,"is_reserved":false,"is_disabled":false,"rental_uris":{"android":"levelo://app?vid=22082c15-ecce-4cbe-939e-5e9c10f2ba84","ios":"levelo://app?vid=22082c15-ecce-4cbe-939e-5e9c10f2ba84"},"vehicle_type_id":"4","last_reported":1768770581,"current_range_meters":10800,"station_id":"ce4bhp92rcd13ifvqhbg","pricing_plan_id":"cebpf4jnsgd1na2vs0mg"},{"bike_id":"760dca37-a904-42a9-b08c-dcd355cb4e4d","system_id":"levelo_inurba_marseille","lat":43.27997,"lon":5.40001,"is_reserved":false,"is_disabled":false,"rental_uris":{"android":"levelo://app?vid=760dca37-a904-42a9-b08c-dcd355cb4e4d","ios":"levelo://app?vid=760dca37-a904-42a9-b08c-dcd355cb4e4d"},"vehicle_type_id":"4","last_reported":1768770581,"current_range_meters":11200,"station_id":"ce4bho92rcd13ifvqh4g","pricing_plan_id":"cebpf4jnsgd1na2vs0mg"},{"bike_id":"5993e2ef-a9ab-45d2-826c-ed7d952584cd","system_id":"levelo_inurba_marseille","lat":43.337546,"lon":5.374427,"is_reserved":false,"is_disabled":false,"rental_uris":{"android":"levelo://app?vid=5993e2ef-a9ab-45d2-826c-ed7d952584cd","ios":"levelo://app?vid=5993e2ef-a9ab-45d2-826c-ed7d952584cd"},"vehicle_type_id":"4","last_reported":1768770581,"current_range_meters":11200,"station_id":"","pricing_plan_id":"cebpf4jnsgd1na2vs0mg"},{"bike_id":"05d0217a-5f92-459d-b3a8-964ab9ed1cd4","system_id":"levelo_inurba_marseille","lat":43.278176,"lon":5.406998,"is_reserved":false,"is_disabled":false,"rental_uris":{"android":"levelo://app?vid=05d0217a-5f92-459d-b3a8-964ab9ed1cd4","ios":"levelo://app?vid=05d0217a-5f92-459d-b3a8-964ab9ed1cd4"},"vehicle_type_id":"4","last_reported":1768770581,"current_range_meters":11200,"station_id":"ce4bhnh2rcd13ifvqgtg","pricing_plan_id":"cebpf4jnsgd1na2vs0mg"},{"bike_id":"0b0bd9e8-0e91-4cd7-8087-c13549508128","system_id":"levelo_inurba_marseille","lat":43.28512,"lon":5.44121,"is_reserved":false,"is_disabled":false,"rental_uris":{"android":"levelo://app?vid=0b0bd9e8-0e91-4cd7-8087-c13549508128","ios":"levelo://app?vid=0b0bd9e8-0e91-4cd7-8087-c13549508128"},"vehicle_type_id":"4","last_reported":1768770581,"current_range_meters":11200,"station_id":"st_d3j3df2ikq2c7380ej80","pricing_plan_id":"cebpf4jnsgd1na2vs0mg"},{"bike_id":"784bf8ae-0097-45a5-89e6-e9987ffc4672","system_id":"levelo_inurba_marseille","lat":43.24166,"lon":5.39731,"is_reserved":false,"is_disabled":false,"rental_uris":{"android":"levelo://app?vid=784bf8ae-0097-45a5-89e6-e9987ffc4672","ios":"levelo://app?vid=784bf8ae-0097-45a5-89e6-e9987ffc4672"},"vehicle_type_id":"4","last_reported":1768770581,"current_range_meters":11200,"station_id":"ce4bhn12rcd13ifvqgpg","pricing_plan_id":"cebpf4jnsgd1na2vs0mg"},{"bike_id":"8b45db66-7c1e-4b1a-9dd7-fd16de0f93e6","system_id":"levelo_inurba_marseille","lat":43.26222,"lon":5.40376,"is_reserved":false,"is_disabled":false,"rental_uris":{"android":"levelo://app?vid=8b45db66-7c1e-4b1a-9dd7-fd16de0f93e6","ios":"levelo://app?vid=8b45db66-7c1e-4b1a-9dd7-fd16de0f93e6"},"vehicle_type_id":"4","last_reported":1768770581,"current_range_meters":11200,"station_id":"","pricing_plan_id":"cebpf4jnsgd1na2vs0mg"},{"bike_id":"be4191d7-937c-4234-a928-8a8c44fb2412","system_id":"levelo_inurba_marseille","lat":43.2508,"lon":5.39516,"is_reserved":false,"is_disabled":false,"rental_uris":{"android":"levelo://app?vid=be4191d7-937c-4234-a928-8a8c44fb2412","ios":"levelo://app?vid=be4191d7-937c-4234-a928-8a8c44fb2412"},"vehicle_type_id":"4","last_reported":1768770581,"current_range_meters":11200,"station_id":"ce4bhm12rcd13ifvqgkg","pricing_plan_id":"cebpf4jnsgd1na2vs0mg"},