{"last_updated":1737972624,"ttl":60,"version":"2.2","data":{"bikes":[{"bike_id":"b51734ac-0d9a-4bb1-9c1a-e7766c25d7f1","system_id":"levelo_inurba_marseille","lat":43.28999,"lon":5.3562,"is_reserved":false,"is_disabled":false,"rental_uris":{"android":"levelo://app?vid=b51734ac-0d9a-4bb1-9c1a-e7766c25d7f1","ios":"levelo://app?vid=b51734ac-0d9a-4bb1-9c1a-e7766c25d7f1"},"vehicle_type_id":"4","last_reported":1737972624,"current_range_meters":38800,"station_id":"ce4bhb92rcd13ifvqen0","pricing_plan_id":"cebpf4jnsgd1na2vs0mg"},{"bike_id":"cb675d55-e5c8-4982-aca6-2a4540f10435","system_id":"levelo_inurba_marseille","lat":43.29841,"lon":5.3628,"is_reserved":false,"is_disabled":false,"rental_uris":{"android":"levelo://app?vid=cb675d55-e5c8-4982-aca6-2a4540f10435","ios":"levelo://app?vid=cb675d55-e5c8-4982-aca6-2a4540f10435"},"vehicle_type_id":"4","last_reported":1737972624,"current_range_meters":14000,"station_id":"ce4bgpp2rcd13ifvqc3g","pricing_plan_id":"cebpf4jnsgd1na2vs0mg"},{"bike_id":"437b4119-4c95-43d5-a637-fa77eb57e74a","system_id":"levelo_inurba_marseille","lat":43.3045,"lon":5.37918,"is_reserved":false,"is_disabled":false,"rental_uris":{"android":"levelo://app?vid=437b4119-4c95-43d5-a637-fa77eb57e74a","ios":"levelo://app?vid=437b4119-4c95-43d5-a637-fa77eb57e74a"},"vehicle_type_id":"4","last_reported":1737972624,"current_range_meters":25600,"station_id":"ce4bgup2rcd13ifvqcn0","pricing_plan_id":"cebpf4jnsgd1na2vs0mg"},{"bike_id":"e95125c1-cd97-49f2-acf5-2baeadab5edb","system_id":"levelo_inurba_marseille","lat":43.29188,"lon":5.37142,"is_reserved":false,"is_disabled":false,"rental_uris":{"android":"levelo://app?vid=e95125c1-cd97-49f2-acf5-2baeadab5edb","ios":"levelo://app?vid=e95125c1-cd97-49f2-acf5-2baeadab5edb"},"vehicle_type_id":"4","last_reported":1737972624,"current_range_meters":24800,"station_id":"ce4bha92rcd13ifvqeh0","pricing_plan_id":"cebpf4jnsgd1na2vs0mg"},{"bike_id":"22fdda07-29f7-4097-aa7c-457566d3caba","system_id":"levelo_inurba_marseille","lat":43.25081,"lon":5.39529,"is_reserved":false,"is_disabled":false,"rental_uris":{"android":"levelo://app?vid=22fdda07-29f7-4097-aa7c-457566d3caba","ios":"levelo://app?vid=22fdda07-29f7-4097-aa7c-457566d3caba"},"vehicle_type_id":"4","last_reported":1737972624,"current_range_meters":22800,"station_id":"ce4bhm12rcd13ifvqgkg","pricing_plan_id":"cebpf4jnsgd1na2vs0mg"},{"bike_id":"f9ea3b7d-3e08-41ce-9f28-17237eb201ee","system_id":"levelo_inurba_marseille","lat":43.27481,"lon":5.42482,"is_reserved":false,"is_disabled":true,"rental_uris":{"android":"levelo://app?vid=f9ea3b7d-3e08-41ce-9f28-17237eb201ee","ios":"levelo://app?vid=f9ea3b7d-3e08-41ce-9f28-17237eb201ee"},"vehicle_type_id":"4","last_reported":1737972624,"current_range_meters":0,"station_id":"ce4bhn92rcd13ifvqgrg","pricing_plan_id":"cebpf4jnsgd1na2vs0mg"},{"bike_id":"4857b4cf-decd-41a9-ade3-4c571462c146","system_id":"levelo_inurba_marseille","lat":43.25394,"lon":5.41897,"is_reserved":false,"is_disabled":true,"rental_uris":{"android":"levelo://app?vid=4857b4cf-decd-41a9-ade3-4c571462c146","ios":"levelo://app?vid=4857b4cf-decd-41a9-ade3-4c571462c146"},"vehicle_type_id":"4","last_reported":1737972624,"current_range_meters":0,"station_id":"","pricing_plan_id":"cebpf4jnsgd1na2vs0mg"},{"bike_id":"dee161fe-82c1-4855-9bd7-e7193193e749","system_id":"levelo_inurba_marseille","lat":43.31699,"lon":5.437,"is_reserved":false,"is_disabled":true,"rental_uris":{"android":"levelo://app?vid=dee161fe-82c1-4855-9bd7-e7193193e749","ios":"levelo://app?vid=dee161fe-82c1-4855-9bd7-e7193193e749"},"vehicle_type_id":"4","last_reported":1737972624,"current_range_meters":37600,"station_id":"ce4bhp92rcd13ifvqhcg","pricing_plan_id":"cebpf4jnsgd1na2vs0mg"},{"bike_id":"58d9e3df-28a3-4560-b2cd-4d33fefbd544","system_id":"levelo_inurba_marseille","lat":43.28345,"lon":5.38107,"is_reserved":false,"is_disabled":true,"rental_uris":{"android":"levelo://app?vid=58d9e3df-28a3-4560-b2cd-4d33fefbd544","ios":"levelo://app?vid=58d9e3df-28a3-4560-b2cd-4d33fefbd544"},"vehicle_type_id":"4","last_reported":1737972624,"current_range_meters":12400,"station_id":"ce4bh412rcd13ifvqdr0","pricing_plan_id":"cebpf4jnsgd1na2vs0mg"},{"bike_id":"fa5cc696-fa74-45d7-9894-bb340f9342a9","system_id":"levelo_inurba_marseille","lat":43.28656,"lon":5.3638,"is_reserved":false,"is_disabled":true,"rental_uris":{"android":"levelo://app?vid=fa5cc696-fa74-45d7-9894-bb340f9342a9","ios":"levelo://app?vid=fa5cc696-fa74-45d7-9894-bb340f9342a9"},"vehicle_type_id":"4","last_reported":1737972624,"current_range_meters":27200,"station_id":"ce4bhah2rcd13ifvqej0","pricing_plan_id":"cebpf4jnsgd1na2vs0mg"},{"bike_id":"335ad0c5-146e-43f1-8438-de35e0cad150","system_id":"levelo_inurba_marseille","lat":43.28363,"lon":5.38105,"is_reserved":false,"is_disabled":false,"rental_uris":{"android":"levelo://app?vid=335ad0c5-146e-43f1-8438-de35e0cad150","ios":"levelo://app?vid=335ad0c5-146e-43f1-8438-de35e0cad150"},"vehicle_type_id":"4","last_reported":1737972624,"current_range_meters":30000,"station_id":"ce4bh412rcd13ifvqdr0","pricing_plan_id":"cebpf4jnsgd1na2vs0mg"},{"bike_id":"5ccff8f5-a6d3-41d2-b523-50a98221b0f7","system_id":"levelo_inurba_marseille","lat":43.3137,"lon":5.367,"is_reserved":false,"is_disabled":false,"rental_uris":{"android":"levelo://app?vid=5ccff8f5-a6d3-41d2-b523-50a98221b0f7","ios":"levelo://app?vid=5ccff8f5-a6d3-41d2-b523-50a98221b0f7"},"vehicle_type_id":"4","last_reported":1737972624,"current_range_meters":9600,"station_id":"ce4bgr92rcd13ifvqc6g","pricing_plan_id":"cebpf4jnsgd1na2vs0mg"},{"bike_id":"38af70bd-88e5-49db-aa4a-c08a09f737e1","system_id":"levelo_inurba_marseille","lat":43.27437,"lon":5.39423,"is_reserved":false,"is_disabled":false,"rental_uris":{"android":"levelo://app?vid=38af70bd-88e5-49db-aa4a-c08a09f737e1","ios":"levelo://app?vid=38af70bd-88e5-49db-aa4a-c08a09f737e1"},"vehicle_type_id":"4","last_reported":1737972624,"current_range_meters":37600,"station_id":"ce4bhdp2rcd13ifvqf20","pricing_plan_id":"cebpf4jnsgd1na2vs0mg"},{"bike_id":"a4507d79-f6e4-4541-ac8c-43ccf3587389","system_id":"levelo_inurba_marseille","lat":43.27488,"lon":5.42473,"is_reserved":false,"is_disabled":false,"rental_uris":{"android":"levelo://app?vid=a4507d79-f6e4-4541-ac8c-43ccf3587389","ios":"levelo://app?vid=a4507d79-f6e4-4541-ac8c-43ccf3587389"},"vehicle_type_id":"4","last_reported":1737972624,"current_range_meters":30000,"station_id":"ce4bhn92rcd13ifvqgrg","pricing_plan_id":"cebpf4jnsgd1na2vs0mg"},{"bike_id":"011424fc-28f4-4f86-a41c-b0bfd267d6ab","system_id":"levelo_inurba_marseille","lat":43.26049,"lon":5.39401,"is_reserved":false,"is_disabled":false,"rental_uris":{"android":"levelo://app?vid=011424fc-28f4-4f86-a41c-b0bfd267d6ab","ios":"levelo://app?vid=011424fc-28f4-4f86-a41c-b0bfd267d6ab"},"vehicle_type_id":"4","last_reported":1737972624,"current_range_meters":30400,"station_id":"ce4bhh92rcd13ifvqfj0","pricing_plan_id":"cebpf4jnsgd1na2vs0mg"},{"bike_id":"d6755dc8-d9a9-49dc-8a8f-22ec6b86e111","system_id":"levelo_inurba_marseille","lat":43.28153,"lon":5.4264,"is_reserved":false,"is_disabled":false,"rental_uris":{"android":"levelo://app?vid=d6755dc8-d9a9-49dc-8a8f-22ec6b86e111","ios":"levelo://app?vid=d6755dc8-d9a9-49dc-8a8f-22ec6b86e111"},"vehicle_type_id":"4","last_reported":1737972624,"current_range_meters":30000,"station_id":"ce4bhnh2rcd13ifvqgug","pricing_plan_id":"cebpf4jnsgd1na2vs0mg"},{"bike_id":"22fe6381-bfa8-481c-9415-4e6666169356","system_id":"levelo_inurba_marseille","lat":43.26536,"lon":5.3905,"is_reserved":false,"is_disabled":false,"rental_uris":{"android":"levelo://app?vid=22fe6381-bfa8-481c-9415-4e6666169356","ios":"levelo://app?vid=22fe6381-bfa8-481c-9415-4e6666169356"},"vehicle_type_id":"4","last_reported":1737972624,"current_range_meters":27200,"station_id":"ce4bhe12rcd13ifvqf30","pricing_plan_id":"cebpf4jnsgd1na2vs0mg"},{"bike_id":"3e6446e6-e4d3-4a8e-a7f0-18ce3144b943","system_id":"levelo_inurba_marseille","lat":43.269214,"lon":5.389119,"is_reserved":false,"is_disabled":false,"rental_uris":{"android":"levelo://app?vid=3e6446e6-e4d3-4a8e-a7f0-18ce3144b943","ios":"levelo://app?vid=3e6446e6-e4d3-4a8e-a7f0-18ce3144b943"},"vehicle_type_id":"4","last_reported":1737972624,"current_range_meters":38800,"station_id":"ce4bhhh2rcd13ifvqfl0","pricing_plan_id":"cebpf4jnsgd1na2vs0mg"},{"bike_id":"457dbd0e-8f95-45e9-8ae6-40b39a5ca596","system_id":"levelo_inurba_marseille","lat":43.23192,"lon":5.35553,"is_reserved":false,"is_disabled":false,"rental_uris":{"android":"levelo://app?vid=457dbd0e-8f95-45e9-8ae6-40b39a5ca596","ios":"levelo://app?vid=457dbd0e-8f95-45e9-8ae6-40b39a5ca596"},"vehicle_type_id":"4","last_reported":1737972624,"current_range_meters":32000,"station_id":"ce4bhu92rcd13ifvqi70","pricing_plan_id":"cebpf4jnsgd1na2vs0mg"},{"bike_id":"c96545e6-b3fa-4a6b-836e-d89ea478e5d1","system_id":"levelo_inurba_marseille","lat":43.24999,"lon":5.38928,"is_reserved":false,"is_disabled":false,"rental_uris":{"android":"levelo://app?vid=c96545e6-b3fa-4a6b-836e-d89ea478e5d1","ios":"levelo://app?vid=c96545e6-b3fa-4a6b-836e-d89ea478e5d1"},"vehicle_type_id":"4","last_reported":1737972624,"current_range_meters":38800,"station_id":"ce4bhgp2rcd13ifvqfd0","pricing_plan_id":"cebpf4jnsgd1na2vs0mg"},{"bike_id":"d77db00f-908b-4381-ac06-dc3e91b69008","system_id":"levelo_inurba_marseille","lat":43.25582,"lon":5.38246,"is_reserved":false,"is_disabled":false,"rental_uris":{"android":"levelo://app?vid=d77db00f-908b-4381-ac06-dc3e91b69008","ios":"levelo://app?vid=d77db00f-908b-4381-ac06-dc3e91b69008"},"vehicle_type_id":"4","last_reported":1737972624,"current_range_meters":36800,"station_id":"ce4bhih2rcd13ifvqfs0","pricing_plan_id":"cebpf4jnsgd1na2vs0mg"},{"bike_id":"db484191-f02a-4929-aefd-a21b94c3793a","system_id":"levelo_inurba_marseille","lat":43.2668,"lon":5.38264,"is_reserved":false,"is_disabled":false,"rental_uris":{"android":"levelo://app?vid=db484191-f02a-4929-aefd-a21b94c3793a","ios":"levelo://app?vid=db484191-f02a-4929-aefd-a21b94c3793a"},"vehicle_type_id":"4","last_reported":1737972624,"current_range_meters":28000,"station_id":"ce4bhg92rcd13ifvqf90","pricing_plan_id":"cebpf4jnsgd1na2vs0mg"},{"bike_id":"fb8faa90-2fe6-41bb-9682-f8015ce20050","system_id":"levelo_inurba_marseille","lat":43.2922,"lon":5.36052,"is_reserved":false,"is_disabled":false,"rental_uris":{"android":"levelo://app?vid=fb8faa90-2fe6-41bb-9682-f8015ce20050","ios":"levelo://app?vid=fb8faa90-2fe6-41bb-9682-f8015ce20050"},"vehicle_type_id":"4","last_reported":1737972624,"current_range_meters":20000,"station_id":"ce4bhbh2rcd13ifvqeqg","pricing_plan_id":"cebpf4jnsgd1na2vs0mg"},{"bike_id":"5a6503ca-c2c6-4dbe-a6f7-68e5f1916ac2","system_id":"levelo_inurba_marseille","lat":43.29895,"lon":5.43663,"is_reserved":false,"is_disabled":false,"rental_uris":{"android":"levelo://app?vid=5a6503ca-c2c6-4dbe-a6f7-68e5f1916ac2","ios":"levelo://app?vid=5a6503ca-c2c6-4dbe-a6f7-68e5f1916ac2"},"vehicle_type_id":"4","last_reported":1737972624,"current_range_meters":10800,"station_id":"ce4bhpp2rcd13ifvqhfg","pricing_plan_id":"cebpf4jnsgd1na2vs0mg"},{"bike_id":"426cbb7a-3f56-4ed5-8adb-ec3dfdeed3c2","system_id":"levelo_inurba_marseille","lat":43.28564,"lon":5.39496,"is_reserved":false,"is_disabled":false,"rental_uris":{"android":"levelo://app?vid=426cbb7a-3f56-4ed5-8adb-ec3dfdeed3c2","ios":"levelo://app?vid=426cbb7a-3f56-4ed5-8adb-ec3dfdeed3c2"},"vehicle_type_id":"4","last_reported":1737972624,"current_range_meters":38000,"station_id":"ce4bh292rcd13ifvqdg0","pricing_plan_id":"cebpf4jnsgd1na2vs0mg"},{"bike_id":"c7bcfc70-2cf1-4e09-b388-d62f9e2b7da7","system_id":"levelo_inurba_marseille","lat":43.29247,"lon":5.36869,"is_reserved":false,"is_disabled":false,"rental_uris":{"android":"levelo://app?vid=c7bcfc70-2cf1-4e09-b388-d62f9e2b7da7","ios":"levelo://app?vid=c7bcfc70-2cf1-4e09-b388-d62f9e2b7da7"},"vehicle_type_id":"4","last_reported":1737972624,"current_range_meters":36800,"station_id":"ce4bhbp2rcd13ifvqesg","pricing_plan_id":"cebpf4jnsgd1na2vs0mg"},{"bike_id":"908fadb4-8699-4af2-b0fd-43bcb44cdab6","system_id":"levelo_inurba_marseille","lat":43.29782,"lon":5.38113,"is_reserved":false,"is_disabled":false,"rental_uris":{"android":"levelo://app?vid=908fadb4-8699-4af2-b0fd-43bcb44cdab6","ios":"levelo://app?vid=908fadb4-8699-4af2-b0fd-43bcb44cdab6"},"vehicle_type_id":"4","last_reported":1737972624,"current_range_meters":36000,"station_id":"","pricing_plan_id":"cebpf4jnsgd1na2vs0mg"},{"bike_id":"57387c58-8686-4406-b06b-637dd105379a","system_id":"levelo_inurba_marseille","lat":43.30263,"lon":5.37722,"is_reserved":false,"is_disabled":false,"rental_uris":{"android":"levelo://app?vid=57387c58-8686-4406-b06b-637dd105379a","ios":"levelo://app?vid=57387c58-8686-4406-b06b-637dd105379a"},"vehicle_type_id":"4","last_reported":1737972624,"current_range_meters":30400,"station_id":"ce4bguh2rcd13ifvqcj0","pricing_plan_id":"cebpf4jnsgd1na2vs0mg"},{"bike_id":"28eec19e-683c-4132-9365-bcac345d1499","system_id":"levelo_inurba_marseille","lat":43.23962,"lon":5.36633,"is_reserved":false,"is_disabled":false,"rental_uris":{"android":"levelo://app?vid=28eec19e-683c-4132-9365-bcac345d1499","ios":"levelo://app?vid=28eec19e-683c-4132-9365-bcac345d1499"},"vehicle_type_id":"4","last_reported":1737972624,"current_range_meters":38800,"station_id":"ce4bhi12rcd13ifvqfp0","pricing_plan_id":"cebpf4jnsgd1na2vs0mg"},{"bike_id":"3fc26aad-e68e-4245-80c2-3695620aa3dc","system_id":"levelo_inurba_marseille","lat":43.28961,"lon":5.378542,"is_reserved":false,"is_disabled":false,"rental_uris":{"android":"levelo://app?vid=3fc26aad-e68e-4245-80c2-3695620aa3dc","ios":"levelo://app?vid=3fc26aad-e68e-4245-80c2-3695620aa3dc"},"vehicle_type_id":"4","last_reported":1737972624,"current_range_meters":38800,"station_id":"ce4bh9p2rcd13ifvqed0","pricing_plan_id":"cebpf4jnsgd1na2vs0mg"},{"bike_id":"a7dfd304-7524-4f42-b260-bd9cb2446f27","system_id":"levelo_inurba_marseille","lat":43.28025,"lon":5.36966,"is_reserved":false,"is_disabled":false,"rental_uris":{"android":"levelo://app?vid=a7dfd304-7524-4f42-b260-bd9cb2446f27","ios":"levelo://app?vid=a7dfd304-7524-4f42-b260-bd9cb2446f27"},"vehicle_type_id":"4","last_reported":1737972624,"current_range_meters":38400,"station_id":"ce4bha12rcd13ifvqef0","pricing_plan_id":"cebpf4jnsgd1na2vs0mg"},{"bike_id":"6a111f2e-3d37-4032-bfb5-7c9a0c5e7b4f","system_id":"levelo_inurba_marseille","lat":43.27058,"lon":5.40261,"is_reserved":false,"is_disabled":false,"rental_uris":{"android":"levelo://app?vid=6a111f2e-3d37-4032-bfb5-7c9a0c5e7b4f","ios":"levelo://app?vid=6a111f2e-3d37-4032-bfb5-7c9a0c5e7b4f"},"vehicle_type_id":"4","last_reported":1737972624,"current_range_meters":21600,"station_id":"ce4bhk92rcd13ifvqgc0","pricing_plan_id":"cebpf4jnsgd1na2vs0mg"},{"bike_id":"1d77d048-ce0a-4186-b9ae-e7e345be0222","system_id":"levelo_inurba_marseille","lat":43.30957,"lon":5.39044,"is_reserved":false,"is_disabled":false,"rental_uris":{"android":"levelo://app?vid=1d77d048-ce0a-4186-b9ae-e7e345be0222","ios":"levelo://app?vid=1d77d048-ce0a-4186-b9ae-e7e345be0222"},"vehicle_type_id":"4","last_reported":1737972624,"current_range_meters":28400,"station_id":"ce4bgup2rcd13ifvqco0","pricing_plan_id":"cebpf4jnsgd1na2vs0mg"},{"bike_id":"aeaff8cd-01e9-4908-a504-4b8602bcc40a","system_id":"levelo_inurba_marseille","lat":43.24175,"lon":5.39721,"is_reserved":false,"is_disabled":false,"rental_uris":{"android":"levelo://app?vid=aeaff8cd-01e9-4908-a504-4b8602bcc40a","ios":"levelo://app?vid=aeaff8cd-01e9-4908-a504-4b8602bcc40a"},"vehicle_type_id":"4","last_reported":1737972624,"current_range_meters":13600,"station_id":"ce4bhn12rcd13ifvqgpg","pricing_plan_id":"cebpf4jnsgd1na2vs0mg"},{"bike_id":"b2a77bcb-8636-4783-bb85-a20e6eec5fb2","system_id":"levelo_inurba_marseille","lat":43.27643,"lon":5.38935,"is_reserved":false,"is_disabled":false,"rental_uris":{"android":"levelo://app?vid=b2a77bcb-8636-4783-bb85-a20e6eec5fb2","ios":"levelo://app?vid=b2a77bcb-8636-4783-bb85-a20e6eec5fb2"},"vehicle_type_id":"4","last_reported":1737972624,"current_range_meters":30800,"station_id":"ce4bhi12rcd13ifvqfo0","pricing_plan_id":"cebpf4jnsgd1na2vs0mg"},{"bike_id":"53742e05-5478-446d-9a5a-2171d39a1114","system_id":"levelo_inurba_marseille","lat":43.28471,"lon":5.3845,"is_reserved":false,"is_disabled":false,"rental_uris":{"android":"levelo://app?vid=53742e05-5478-446d-9a5a-2171d39a1114","ios":"levelo://app?vid=53742e05-5478-446d-9a5a-2171d39a1114"},"vehicle_type_id":"4","last_reported":1737972624,"current_range_meters":31200,"station_id":"ce4bh512rcd13ifvqe3g","pricing_plan_id":"cebpf4jnsgd1na2vs0mg"},{"bike_id":"1387f3a8-728e-4bdc-977f-c1b044bf7c2a","system_id":"levelo_inurba_marseille","lat":43.30545,"lon":5.36555,"is_reserved":false,"is_disabled":false,"rental_uris":{"android":"levelo://app?vid=1387f3a8-728e-4bdc-977f-c1b044bf7c2a","ios":"levelo://app?vid=1387f3a8-728e-4bdc-977f-c1b044bf7c2a"},"vehicle_type_id":"4","last_reported":1737972624,"current_range_meters":8000,"station_id":"ce4bgs12rcd13ifvqcag","pricing_plan_id":"cebpf4jnsgd1na2vs0mg"},{"bike_id":"cbff9398-ab73-4f43-baf9-df17cd33414f","system_id":"levelo_inurba_marseille","lat":43.29883,"lon":5.39746,"is_reserved":false,"is_disabled":false,"rental_uris":{"android":"levelo://app?vid=cbff9398-ab73-4f43-baf9-df17cd33414f","ios":"levelo://app?vid=cbff9398-ab73-4f43-baf9-df17cd33414f"},"vehicle_type_id":"4","last_reported":1737972624,"current_range_meters":32400,"station_id":"ce4bh0h2rcd13ifvqd50","pricing_plan_id":"cebpf4jnsgd1na2vs0mg"},{"bike_id":"8b24ee26-2ef3-43bc-a61f-7dad385fa3a7","system_id":"levelo_inurba_marseille","lat":43.26671,"lon":5.38284,"is_reserved":false,"is_disabled":true,"rental_uris":{"android":"levelo://app?vid=8b24ee26-2ef3-43bc-a61f-7dad385fa3a7","ios":"levelo://app?vid=8b24ee26-2ef3-43bc-a61f-7dad385fa3a7"},"vehicle_type_id":"4","last_reported":1737972624,"current_range_meters":800,"station_id":"ce4bhg92rcd13ifvqf90","pricing_plan_id":"cebpf4jnsgd1na2vs0mg"},{"bike_id":"6adc5ca7-0c2c-4563-b34e-99dac6c709d8","system_id":"levelo_inurba_marseille","lat":43.29895,"lon":5.37851,"is_reserved":false,"is_disabled":true,"rental_uris":{"android":"levelo://app?vid=6adc5ca7-0c2c-4563-b34e-99dac6c709d8","ios":"levelo://app?vid=6adc5ca7-0c2c-4563-b34e-99dac6c709d8"},"vehicle_type_id":"4","last_reported":1737972624,"current_range_meters":0,"station_id":"","pricing_plan_id":"cebpf4jnsgd1na2vs0mg"},{"bike_id":"3dd2c115-5d80-4367-a5a5-2e2d8d5ff718","system_id":"levelo_inurba_marseille","lat":43.28488,"lon":5.38432,"is_reserved":false,"is_disabled":false,"rental_uris":{"android":"levelo://app?vid=3dd2c115-5d80-4367-a5a5-2e2d8d5ff718","ios":"levelo://app?vid=3dd2c115-5d80-4367-a5a5-2e2d8d5ff718"},"vehicle_type_id":"4","last_reported":1737972624,"current_range_meters":32400,"station_id":"ce4bh2p2rcd13ifvqdi0","pricing_plan_id":"cebpf4jnsgd1na2vs0mg"},{"bike_id":"092bde8a-c0e6-421d-8d6a-71e36303b675","system_id":"levelo_inurba_marseille","lat":43.33025,"lon":5.39048,"is_reserved":false,"is_disabled":false,"rental_uris":{"android":"levelo://app?vid=092bde8a-c0e6-421d-8d6a-71e36303b675","ios":"levelo://app?vid=092bde8a-c0e6-421d-8d6a-71e36303b675"},"vehicle_type_id":"4","last_reported":1737972624,"current_range_meters":8400,"station_id":"ce4bhr92rcd13ifvqhrg","pricing_plan_id":"cebpf4jnsgd1na2vs0mg"},{"bike_id":"5de3a2ff-e22b-4d37-a51c-f4f2c9cb3dbc","system_id":"levelo_inurba_marseille","lat":43.32368,"lon":5.38903,"is_reserved":false,"is_disabled":false,"rental_uris":{"android":"levelo://app?vid=5de3a2ff-e22b-4d37-a51c-f4f2c9cb3dbc","ios":"levelo://app?vid=5de3a2ff-e22b-4d37-a51c-f4f2c9cb3dbc"},"vehicle_type_id":"4","last_reported":1737972624,"current_range_meters":16400,"station_id":"ce4bhqp2rcd13ifvqhog","pricing_plan_id":"cebpf4jnsgd1na2vs0mg"},{"bike_id":"707291c0-801f-4378-b622-04349833c400","system_id":"levelo_inurba_marseille","lat":43.28939,"lon":5.36651,"is_reserved":false,"is_disabled":true,"rental_uris":{"android":"levelo://app?vid=707291c0-801f-4378-b622-04349833c400","ios":"levelo://app?vid=707291c0-801f-4378-b622-04349833c400"},"vehicle_type_id":"4","last_reported":1737972624,"current_range_meters":30400,"station_id":"ce4bhap2rcd13ifvqek0","pricing_plan_id":"cebpf4jnsgd1na2vs0mg"},{"bike_id":"d1c9e299-976b-4067-95ba-dab8fc38751c","system_id":"levelo_inurba_marseille","lat":43.25716,"lon":5.41114,"is_reserved":false,"is_disabled":false,"rental_uris":{"android":"levelo://app?vid=d1c9e299-976b-4067-95ba-dab8fc38751c","ios":"levelo://app?vid=d1c9e299-976b-4067-95ba-dab8fc38751c"},"vehicle_type_id":"4","last_reported":1737972624,"current_range_meters":39200,"station_id":"ce4bhkp2rcd13ifvqgd0","pricing_plan_id":"cebpf4jnsgd1na2vs0mg"},{"bike_id":"c7830262-ea23-45f4-9a23-990ed17ebf09","system_id":"levelo_inurba_marseille","lat":43.29811,"lon":5.39768,"is_reserved":false,"is_disabled":true,"rental_uris":{"android":"levelo://app?vid=c7830262-ea23-45f4-9a23-990ed17ebf09","ios":"levelo://app?vid=c7830262-ea23-45f4-9a23-990ed17ebf09"},"vehicle_type_id":"4","last_reported":1737972624,"current_range_meters":0,"station_id":"","pricing_plan_id":"cebpf4jnsgd1na2vs0mg"},{"bike_id":"330b3936-0ec2-4a69-914b-3c91fd9a6c39","system_id":"levelo_inurba_marseille","lat":43.32542,"lon":5.41461,"is_reserved":false,"is_disabled":false,"rental_uris":{"android":"levelo://app?vid=330b3936-0ec2-4a69-914b-3c91fd9a6c39","ios":"levelo://app?vid=330b3936-0ec2-4a69-914b-3c91fd9a6c39"},"vehicle_type_id":"4","last_reported":1737972624,"current_range_meters":28800,"station_id":"ce4bhq12rcd13ifvqhhg","pricing_plan_id":"cebpf4jnsgd1na2vs0mg"},{"bike_id":"8088ef40-b8cf-40a3-a702-e5362d54409a","system_id":"levelo_inurba_marseille","lat":43.27057,"lon":5.40262,"is_reserved":false,"is_disabled":false,"rental_uris":{"android":"levelo://app?vid=8088ef40-b8cf-40a3-a702-e5362d54409a","ios":"levelo://app?vid=8088ef40-b8cf-40a3-a702-e5362d54409a"},"vehicle_type_id":"4","last_reported":1737972624,"current_range_meters":36000,"station_id":"ce4bhk92rcd13ifvqgc0","pricing_plan_id":"cebpf4jnsgd1na2vs0mg"},{"bike_id":"91248acd-5261-453c-b5c9-6960b0e9de7b","system_id":"levelo_inurba_marseille","lat":43.292795,"lon":5.374575,"is_reserved":false,"is_disabled":true,"rental_uris":{"android":"levelo://app?vid=91248acd-5261-453c-b5c9-6960b0e9de7b","ios":"levelo://app?vid=91248acd-5261-453c-b5c9-6960b0e9de7b"},"vehicle_type_id":"4","last_reported":1737972624,"current_range_meters":10800,"station_id":"ce4bgi12rcd13ifvqb70","pricing_plan_id":"cebpf4jnsgd1na2vs0mg"},{"bike_id":"f962de68-1607-4313-9ff5-fa0126715301","system_id":"levelo_inurba_marseille","lat":43.29074,"lon":5.37168,"is_reserved":false,"is_disabled":false,"rental_uris":{"android":"levelo://app?vid=f962de68-1607-4313-9ff5-fa0126715301","ios":"levelo://app?vid=f962de68-1607-4313-9ff5-fa0126715301"},"vehicle_type_id":"4","last_reported":1737972624,"current_range_meters":37600,"station_id":"ce4bh5p2rcd13ifvqe4g","pricing_plan_id":"cebpf4jnsgd1na2vs0mg"},{"bike_id":"b8e7fbad-0668-4a5a-a339-f627c7f3cdc2","system_id":"levelo_inurba_marseille","lat":43.2706,"lon":5.40278,"is_reserved":false,"is_disabled":false,"rental_uris":{"android":"levelo://app?vid=b8e7fbad-0668-4a5a-a339-f627c7f3cdc2","ios":"levelo://app?vid=b8e7fbad-0668-4a5a-a339-f627c7f3cdc2"},"vehicle_type_id":"4","last_reported":1737972624,"current_range_meters":37600,"station_id":"ce4bhk92rcd13ifvqgc0","pricing_plan_id":"cebpf4jnsgd1na2vs0mg"},{"bike_id":"2bd0fe4b-8303-4360-aeba-302831eebc62","system_id":"levelo_inurba_marseille","lat":43.24022,"lon":5.37786,"is_reserved":false,"is_disabled":false,"rental_uris":{"android":"levelo://app?vid=2bd0fe4b-8303-4360-aeba-302831eebc62","ios":"levelo://app?vid=2bd0fe4b-8303-4360-aeba-302831eebc62"},"vehicle_type_id":"4","last_reported":1737972624,"current_range_meters":18800,"station_id":"","pricing_plan_id":"cebpf4jnsgd1na2vs0mg"},{"bike_id":"83ab2271-68aa-4e51-92e2-d89b2328d98b","system_id":"levelo_inurba_marseille","lat":43.30552,"lon":5.36722,"is_reserved":false,"is_disabled":false,"rental_uris":{"android":"levelo://app?vid=83ab2271-68aa-4e51-92e2-d89b2328d98b","ios":"levelo://app?vid=83ab2271-68aa-4e51-92e2-d89b2328d98b"},"vehicle_type_id":"4","last_reported":1737972624,"current_range_meters":36400,"station_id":"ce4bgrp2rcd13ifvqc9g","pricing_plan_id":"cebpf4jnsgd1na2vs0mg"},{"bike_id":"5a504fe4-0ab6-4eed-b9ef-e27131441d67","system_id":"levelo_inurba_marseille","lat":43.30327,"lon":5.3788,"is_reserved":false,"is_disabled":false,"rental_uris":{"android":"levelo://app?vid=5a504fe4-0ab6-4eed-b9ef-e27131441d67","ios":"levelo://app?vid=5a504fe4-0ab6-4eed-b9ef-e27131441d67"},"vehicle_type_id":"4","last_reported":1737972624,"current_range_meters":25600,"station_id":"","pricing_plan_id":"cebpf4jnsgd1na2vs0mg"},{"bike_id":"11ba3b1e-84b5-4609-901b-fe845e306d2e","system_id":"levelo_inurba_marseille","lat":43.32483,"lon":5.36555,"is_reserved":false,"is_disabled":false,"rental_uris":{"android":"levelo://app?vid=11ba3b1e-84b5-4609-901b-fe845e306d2e","ios":"levelo://app?vid=11ba3b1e-84b5-4609-901b-fe845e306d2e"},"vehicle_type_id":"4","last_reported":1737972624,"current_range_meters":34800,"station_id":"ce4bhs12rcd13ifvqhvg","pricing_plan_id":"cebpf4jnsgd1na2vs0mg"},{"bike_id":"a8640fae-35fa-49bf-9f80-dcd921bf9884","system_id":"levelo_inurba_marseille","lat":43.30307,"lon":5.39208,"is_reserved":false,"is_disabled":false,"rental_uris":{"android":"levelo://app?vid=a8640fae-35fa-49bf-9f80-dcd921bf9884","ios":"levelo://app?vid=a8640fae-35fa-49bf-9f80-dcd921bf9884"},"vehicle_type_id":"4","last_reported":1737972624,"current_range_meters":12400,"station_id":"ce4bgkh2rcd13ifvqbk0","pricing_plan_id":"cebpf4jnsgd1na2vs0mg"},{"bike_id":"3718b059-a8c9-4f1d-a905-df1c00ae4a69","system_id":"levelo_inurba_marseille","lat":43.24553,"lon":5.3952,"is_reserved":false,"is_disabled":false,"rental_uris":{"android":"levelo://app?vid=3718b059-a8c9-4f1d-a905-df1c00ae4a69","ios":"levelo://app?vid=3718b059-a8c9-4f1d-a905-df1c00ae4a69"},"vehicle_type_id":"4","last_reported":1737972624,"current_range_meters":37600,"station_id":"ce4bhlp2rcd13ifvqgjg","pricing_plan_id":"cebpf4jnsgd1na2vs0mg"},{"bike_id":"29537b6d-60f6-4053-b601-105bf13a2e3a","system_id":"levelo_inurba_marseille","lat":43.28471,"lon":5.38428,"is_reserved":false,"is_disabled":true,"rental_uris":{"android":"levelo://app?vid=29537b6d-60f6-4053-b601-105bf13a2e3a","ios":"levelo://app?vid=29537b6d-60f6-4053-b601-105bf13a2e3a"},"vehicle_type_id":"4","last_reported":1737972624,"current_range_meters":38800,"station_id":"ce4bh512rcd13ifvqe3g","pricing_plan_id":"cebpf4jnsgd1na2vs0mg"},{"bike_id":"ee252580-be6a-49e5-8c9d-87fb740f795a","system_id":"levelo_inurba_marseille","lat":43.24803,"lon":5.37454,"is_reserved":false,"is_disabled":false,"rental_uris":{"android":"levelo://app?vid=ee252580-be6a-49e5-8c9d-87fb740f795a","ios":"levelo://app?vid=ee252580-be6a-49e5-8c9d-87fb740f795a"},"vehicle_type_id":"4","last_reported":1737972624,"current_range_meters":36000,"station_id":"ce4bhgh2rcd13ifvqfb0","pricing_plan_id":"cebpf4jnsgd1na2vs0mg"},{"bike_id":"aaaa234f-237f-477a-9919-600608da573e","system_id":"levelo_inurba_marseille","lat":43.28707,"lon":5.37933,"is_reserved":false,"is_disabled":false,"rental_uris":{"android":"levelo://app?vid=aaaa234f-237f-477a-9919-600608da573e","ios":"levelo://app?vid=aaaa234f-237f-477a-9919-600608da573e"},"vehicle_type_id":"4","last_reported":1737972624,"current_range_meters":17600,"station_id":"ce4bh9p2rcd13ifvqec0","pricing_plan_id":"cebpf4jnsgd1na2vs0mg"},{"bike_id":"657b9103-72d2-4f9d-a0b1-89e4f5ff5378","system_id":"levelo_inurba_marseille","lat":43.26497,"lon":5.39548,"is_reserved":false,"is_disabled":false,"rental_uris":{"android":"levelo://app?vid=657b9103-72d2-4f9d-a0b1-89e4f5ff5378","ios":"levelo://app?vid=657b9103-72d2-4f9d-a0b1-89e4f5ff5378"},"vehicle_type_id":"4","last_reported":1737972624,"current_range_meters":28400,"station_id":"ce4bhi12rcd13ifvqfq0","pricing_plan_id":"cebpf4jnsgd1na2vs0mg"},{"bike_id":"31757d28-1bff-4129-af33-54506f69903a","system_id":"levelo_inurba_marseille","lat":43.29295,"lon":5.37453,"is_reserved":false,"is_disabled":false,"rental_uris":{"android":"levelo://app?vid=31757d28-1bff-4129-af33-54506f69903a","ios":"levelo://app?vid=31757d28-1bff-4129-af33-54506f69903a"},"vehicle_type_id":"4","last_reported":1737972624,"current_range_meters":31200,"station_id":"ce4bgi12rcd13ifvqb70","pricing_plan_id":"cebpf4jnsgd1na2vs0mg"},{"bike_id":"9838cc78-2b53-49d3-ae13-82df62c4fd64","system_id":"levelo_inurba_marseille","lat":43.28419,"lon":5.40937,"is_reserved":false,"is_disabled":true,"rental_uris":{"android":"levelo://app?vid=9838cc78-2b53-49d3-ae13-82df62c4fd64","ios":"levelo://app?vid=9838cc78-2b53-49d3-ae13-82df62c4fd64"},"vehicle_type_id":"4","last_reported":1737972624,"current_range_meters":0,"station_id":"","pricing_plan_id":"cebpf4jnsgd1na2vs0mg"},{"bike_id":"68f99b21-2fbe-41a7-b050-a7f4c140afc1","system_id":"levelo_inurba_marseille","lat":43.29921,"lon":5.40233,"is_reserved":false,"is_disabled":true,"rental_uris":{"android":"levelo://app?vid=68f99b21-2fbe-41a7-b050-a7f4c140afc1","ios":"levelo://app?vid=68f99b21-2fbe-41a7-b050-a7f4c140afc1"},"vehicle_type_id":"4","last_reported":1737972624,"current_range_meters":0,"station_id":"","pricing_plan_id":"cebpf4jnsgd1na2vs0mg"},{"bike_id":"1a12ccc4-119d-4583-9cd0-f3b08fa41a49","system_id":"levelo_inurba_marseille","lat":43.2403,"lon":5.37803,"is_reserved":false,"is_disabled":false,"rental_uris":{"android":"levelo://app?vid=1a12ccc4-119d-4583-9cd0-f3b08fa41a49","ios":"levelo://app?vid=1a12ccc4-119d-4583-9cd0-f3b08fa41a49"},"vehicle_type_id":"4","last_reported":1737972624,"current_range_meters":36000,"station_id":"","pricing_plan_id":"cebpf4jnsgd1na2vs0mg"},{"bike_id":"93fa7128-527d-45c4-aa50-6800e7e1e06b","system_id":"levelo_inurba_marseille","lat":43.33604,"lon":5.41032,"is_reserved":false,"is_disabled":false,"rental_uris":{"android":"levelo://app?vid=93fa7128-527d-45c4-aa50-6800e7e1e06b","ios":"levelo://app?vid=93fa7128-527d-45c4-aa50-6800e7e1e06b"},"vehicle_type_id":"4","last_reported":1737972624,"current_range_meters":36800,"station_id":"ce4bhqh2rcd13ifvqhmg","pricing_plan_id":"cebpf4jnsgd1na2vs0mg"},{"bike_id":"bf096a89-ee72-4f37-85bd-7b3cf9f0cb41","system_id":"levelo_inurba_marseille","lat":43.33747,"lon":5.39177,"is_reserved":false,"is_disabled":false,"rental_uris":{"android":"levelo://app?vid=bf096a89-ee72-4f37-85bd-7b3cf9f0cb41","ios":"levelo://app?vid=bf096a89-ee72-4f37-85bd-7b3cf9f0cb41"},"vehicle_type_id":"4","last_reported":1737972624,"current_range_meters":25600,"station_id":"ce4bhr92rcd13ifvqhsg","pricing_plan_id":"cebpf4jnsgd1na2vs0mg"},{"bike_id":"8d59e66f-da7f-4cfc-99a3-6c0619252f37","system_id":"levelo_inurba_marseille","lat":43.24171,"lon":5.39732,"is_reserved":false,"is_disabled":false,"rental_uris":{"android":"levelo://app?vid=8d59e66f-da7f-4cfc-99a3-6c0619252f37","ios":"levelo://app?vid=8d59e66f-da7f-4cfc-99a3-6c0619252f37"},"vehicle_type_id":"4","last_reported":1737972624,"current_range_meters":13600,"station_id":"ce4bhn12rcd13ifvqgpg","pricing_plan_id":"cebpf4jnsgd1na2vs0mg"},{"bike_id":"80b5e9ba-45aa-4f07-a76d-689c757a3ac7","system_id":"levelo_inurba_marseille","lat":43.24046,"lon":5.37711,"is_reserved":false,"is_disabled":false,"rental_uris":{"android":"levelo://app?vid=80b5e9ba-45aa-4f07-a76d-689c757a3ac7","ios":"levelo://app?vid=80b5e9ba-45aa-4f07-a76d-689c757a3ac7"},"vehicle_type_id":"4","last_reported":1737972624,"current_range_meters":38400,"station_id":"ce4bhnp2rcd13ifvqgvg","pricing_plan_id":"cebpf4jnsgd1na2vs0mg"},{"bike_id":"90c45c03-474d-4d4e-81af-b81640b4b6d9","system_id":"levelo_inurba_marseille","lat":43.30955,"lon":5.39054,"is_reserved":false,"is_disabled":false,"rental_uris":{"android":"levelo://app?vid=90c45c03-474d-4d4e-81af-b81640b4b6d9","ios":"levelo://app?vid=90c45c03-474d-4d4e-81af-b81640b4b6d9"},"vehicle_type_id":"4","last_reported":1737972624,"current_range_meters":17600,"station_id":"ce4bgup2rcd13ifvqco0","pricing_plan_id":"cebpf4jnsgd1na2vs0mg"},{"bike_id":"eb8e2715-50e8-4f9c-aaa7-763acdecaa89","system_id":"levelo_inurba_marseille","lat":43.29743,"lon":5.36883,"is_reserved":false,"is_disabled":true,"rental_uris":{"android":"levelo://app?vid=eb8e2715-50e8-4f9c-aaa7-763acdecaa89","ios":"levelo://app?vid=eb8e2715-50e8-4f9c-aaa7-763acdecaa89"},"vehicle_type_id":"4","last_reported":1737972624,"current_range_meters":1200,"station_id":"","pricing_plan_id":"cebpf4jnsgd1na2vs0mg"},{"bike_id":"5bfe4cc7-48e4-4417-a580-189db90fa859","system_id":"levelo_inurba_marseille","lat":43.28692,"lon":5.40031,"is_reserved":false,"is_disabled":false,"rental_uris":{"android":"levelo://app?vid=5bfe4cc7-48e4-4417-a580-189db90fa859","ios":"levelo://app?vid=5bfe4cc7-48e4-4417-a580-189db90fa859"},"vehicle_type_id":"4","last_reported":1737972624,"current_range_meters":26800,"station_id":"ce4bho92rcd13ifvqh3g","pricing_plan_id":"cebpf4jnsgd1na2vs0mg"},{"bike_id":"2e0a8b86-b457-48a0-8577-213b01080398","system_id":"levelo_inurba_marseille","lat":43.23186,"lon":5.3556,"is_reserved":false,"is_disabled":false,"rental_uris":{"android":"levelo://app?vid=2e0a8b86-b457-48a0-8577-213b01080398","ios":"levelo://app?vid=2e0a8b86-b457-48a0-8577-213b01080398"},"vehicle_type_id":"4","last_reported":1737972624,"current_range_meters":39200,"station_id":"ce4bhu92rcd13ifvqi70","pricing_plan_id":"cebpf4jnsgd1na2vs0mg"},{"bike_id":"d2e14334-91cf-4683-8086-fad56bb3beac","system_id":"levelo_inurba_marseille","lat":43.30544,"lon":5.36533,"is_reserved":false,"is_disabled":false,"rental_uris":{"android":"levelo://app?vid=d2e14334-91cf-4683-8086-fad56bb3beac","ios":"levelo://app?vid=d2e14334-91cf-4683-8086-fad56bb3beac"},"vehicle_type_id":"4","last_reported":1737972624,"current_range_meters":27200,"station_id":"ce4bgs12rcd13ifvqcag","pricing_plan_id":"cebpf4jnsgd1na2vs0mg"},{"bike_id":"410fa470-2e85-4d72-b0ad-53837381e3a3","system_id":"levelo_inurba_marseille","lat":43.29627,"lon":5.37168,"is_reserved":false,"is_disabled":false,"rental_uris":{"android":"levelo://app?vid=410fa470-2e85-4d72-b0ad-53837381e3a3","ios":"levelo://app?vid=410fa470-2e85-4d72-b0ad-53837381e3a3"},"vehicle_type_id":"4","last_reported":1737972624,"current_range_meters":24800,"station_id":"ce4bgnh2rcd13ifvqc0g","pricing_plan_id":"cebpf4jnsgd1na2vs0mg"},{"bike_id":"d979d8d2-ec65-47af-9229-e4270aab279a","system_id":"levelo_inurba_marseille","lat":43.2305,"lon":5.355,"is_reserved":false,"is_disabled":false,"rental_uris":{"android":"levelo://app?vid=d979d8d2-ec65-47af-9229-e4270aab279a","ios":"levelo://app?vid=d979d8d2-ec65-47af-9229-e4270aab279a"},"vehicle_type_id":"4","last_reported":1737972624,"current_range_meters":28400,"station_id":"cpo3342slgdg3j2ifvpg","pricing_plan_id":"cebpf4jnsgd1na2vs0mg"},{"bike_id":"1f4e05f5-f7cd-439c-85aa-38dd0d03f92b","system_id":"levelo_inurba_marseille","lat":43.29045,"lon":5.39945,"is_reserved":false,"is_disabled":false,"rental_uris":{"android":"levelo://app?vid=1f4e05f5-f7cd-439c-85aa-38dd0d03f92b","ios":"levelo://app?vid=1f4e05f5-f7cd-439c-85aa-38dd0d03f92b"},"vehicle_type_id":"4","last_reported":1737972624,"current_range_meters":27600,"station_id":"ce4bh392rcd13ifvqdm0","pricing_plan_id":"cebpf4jnsgd1na2vs0mg"},{"bike_id":"07dcb066-d9ef-4840-988f-79060f66efdc","system_id":"levelo_inurba_marseille","lat":43.29619,"lon":5.37153,"is_reserved":false,"is_disabled":false,"rental_uris":{"android":"levelo://app?vid=07dcb066-d9ef-4840-988f-79060f66efdc","ios":"levelo://app?vid=07dcb066-d9ef-4840-988f-79060f66efdc"},"vehicle_type_id":"4","last_reported":1737972624,"current_range_meters":28400,"station_id":"ce4bgnh2rcd13ifvqc0g","pricing_plan_id":"cebpf4jnsgd1na2vs0mg"},{"bike_id":"d2f46f7d-2b81-439d-b204-7f1db040effc","system_id":"levelo_inurba_marseille","lat":43.28938,"lon":5.39655,"is_reserved":false,"is_disabled":false,"rental_uris":{"android":"levelo://app?vid=d2f46f7d-2b81-439d-b204-7f1db040effc","ios":"levelo://app?vid=d2f46f7d-2b81-439d-b204-7f1db040effc"},"vehicle_type_id":"4","last_reported":1737972624,"current_range_meters":19200,"station_id":"ce4bh3h2rcd13ifvqdn0","pricing_plan_id":"cebpf4jnsgd1na2vs0mg"},{"bike_id":"95228a16-0a2a-4a01-8484-95c91e5ee8a6","system_id":"levelo_inurba_marseille","lat":43.32371,"lon":5.38884,"is_reserved":false,"is_disabled":false,"rental_uris":{"android":"levelo://app?vid=95228a16-0a2a-4a01-8484-95c91e5ee8a6","ios":"levelo://app?vid=95228a16-0a2a-4a01-8484-95c91e5ee8a6"},"vehicle_type_id":"4","last_reported":1737972624,"current_range_meters":16000,"station_id":"ce4bhqp2rcd13ifvqhog","pricing_plan_id":"cebpf4jnsgd1na2vs0mg"},{"bike_id":"80578b06-6210-4912-a34f-34611d5b6592","system_id":"levelo_inurba_marseille","lat":43.27963,"lon":5.38762,"is_reserved":false,"is_disabled":false,"rental_uris":{"android":"levelo://app?vid=80578b06-6210-4912-a34f-34611d5b6592","ios":"levelo://app?vid=80578b06-6210-4912-a34f-34611d5b6592"},"vehicle_type_id":"4","last_reported":1737972624,"current_range_meters":38000,"station_id":"ce4bhg12rcd13ifvqf80","pricing_plan_id":"cebpf4jnsgd1na2vs0mg"},{"bike_id":"5c15f1a0-f3a9-4acd-b448-15018003ef2e","system_id":"levelo_inurba_marseille","lat":43.32537,"lon":5.41451,"is_reserved":false,"is_disabled":false,"rental_uris":{"android":"levelo://app?vid=5c15f1a0-f3a9-4acd-b448-15018003ef2e","ios":"levelo://app?vid=5c15f1a0-f3a9-4acd-b448-15018003ef2e"},"vehicle_type_id":"4","last_reported":1737972624,"current_range_meters":25600,"station_id":"ce4bhq12rcd13ifvqhhg","pricing_plan_id":"cebpf4jnsgd1na2vs0mg"},{"bike_id":"52d554ff-cc84-4bb5-96f5-8da285f6a8e6","system_id":"levelo_inurba_marseille","lat":43.29609,"lon":5.38075,"is_reserved":false,"is_disabled":false,"rental_uris":{"android":"levelo://app?vid=52d554ff-cc84-4bb5-96f5-8da285f6a8e6","ios":"levelo://app?vid=52d554ff-cc84-4bb5-96f5-8da285f6a8e6"},"vehicle_type_id":"4","last_reported":1737972624,"current_range_meters":27200,"station_id":"ce4bgl12rcd13ifvqbo0","pricing_plan_id":"cebpf4jnsgd1na2vs0mg"},{"bike_id":"f6751bad-ec0f-4352-a7c0-e2216651a47d","system_id":"levelo_inurba_marseille","lat":43.29846,"lon":5.36279,"is_reserved":false,"is_disabled":false,"rental_uris":{"android":"levelo://app?vid=f6751bad-ec0f-4352-a7c0-e2216651a47d","ios":"levelo://app?vid=f6751bad-ec0f-4352-a7c0-e2216651a47d"},"vehicle_type_id":"4","last_reported":1737972624,"current_range_meters":36000,"station_id":"ce4bgpp2rcd13ifvqc3g","pricing_plan_id":"cebpf4jnsgd1na2vs0mg"},{"bike_id":"5925b8fe-d4e7-4c76-8ad0-bdc7c063ae3e","system_id":"levelo_inurba_marseille","lat":43.30455,"lon":5.37918,"is_reserved":false,"is_disabled":false,"rental_uris":{"android":"levelo://app?vid=5925b8fe-d4e7-4c76-8ad0-bdc7c063ae3e","ios":"levelo://app?vid=5925b8fe-d4e7-4c76-8ad0-bdc7c063ae3e"},"vehicle_type_id":"4","last_reported":1737972624,"current_range_meters":28000,"station_id":"ce4bgup2rcd13ifvqcn0","pricing_plan_id":"cebpf4jnsgd1na2vs0mg"},{"bike_id":"5ca23b61-eed9-4acf-bda1-100d676c6ed9","system_id":"levelo_inurba_marseille","lat":43.31027,"lon":5.36745,"is_reserved":false,"is_disabled":false,"rental_uris":{"android":"levelo://app?vid=5ca23b61-eed9-4acf-bda1-100d676c6ed9","ios":"levelo://app?vid=5ca23b61-eed9-4acf-bda1-100d676c6ed9"},"vehicle_type_id":"4","last_reported":1737972624,"current_range_meters":12800,"station_id":"","pricing_plan_id":"cebpf4jnsgd1na2vs0mg"},{"bike_id":"30bbb00e-1612-4a25-b2e9-c8ad656fb58a","system_id":"levelo_inurba_marseille","lat":43.33714,"lon":5.392,"is_reserved":false,"is_disabled":false,"rental_uris":{"android":"levelo://app?vid=30bbb00e-1612-4a25-b2e9-c8ad656fb58a","ios":"levelo://app?vid=30bbb00e-1612-4a25-b2e9-c8ad656fb58a"},"vehicle_type_id":"4","last_reported":1737972624,"current_range_meters":39200,"station_id":"ce4bhr92rcd13ifvqhsg","pricing_plan_id":"cebpf4jnsgd1na2vs0mg"},{"bike_id":"005330c6-9ea4-44b1-af35-6b68ca394cb6","system_id":"levelo_inurba_marseille","lat":43.30962,"lon":5.39053,"is_reserved":false,"is_disabled":false,"rental_uris":{"android":"levelo://app?vid=005330c6-9ea4-44b1-af35-6b68ca394cb6","ios":"levelo://app?vid=005330c6-9ea4-44b1-af35-6b68ca394cb6"},"vehicle_type_id":"4","last_reported":1737972624,"current_range_meters":38800,"station_id":"ce4bgup2rcd13ifvqco0","pricing_plan_id":"cebpf4jnsgd1na2vs0mg"},{"bike_id":"ee1b69c0-caac-4ecf-b220-3c793b5960ce","system_id":"levelo_inurba_marseille","lat":43.325386,"lon":5.414484,"is_reserved":false,"is_disabled":false,"rental_uris":{"android":"levelo://app?vid=ee1b69c0-caac-4ecf-b220-3c793b5960ce","ios":"levelo://app?vid=ee1b69c0-caac-4ecf-b220-3c793b5960ce"},"vehicle_type_id":"4","last_reported":1737972624,"current_range_meters":37600,"station_id":"ce4bhq12rcd13ifvqhhg","pricing_plan_id":"cebpf4jnsgd1na2vs0mg"},{"bike_id":"6917a016-fa2f-4726-952b-ffe1167166a3","system_id":"levelo_inurba_marseille","lat":43.2607,"lon":5.39397,"is_reserved":false,"is_disabled":true,"rental_uris":{"android":"levelo://app?vid=6917a016-fa2f-4726-952b-ffe1167166a3","ios":"levelo://app?vid=6917a016-fa2f-4726-952b-ffe1167166a3"},"vehicle_type_id":"4","last_reported":1737972624,"current_range_meters":0,"station_id":"ce4bhh92rcd13ifvqfj0","pricing_plan_id":"cebpf4jnsgd1na2vs0mg"},{"bike_id":"4cb596df-44fd-4741-9495-cfdb53019931","system_id":"levelo_inurba_marseille","lat":43.23153,"lon":5.43716,"is_reserved":false,"is_disabled":false,"rental_uris":{"android":"levelo://app?vid=4cb596df-44fd-4741-9495-cfdb53019931","ios":"levelo://app?vid=4cb596df-44fd-4741-9495-cfdb53019931"},"vehicle_type_id":"4","last_reported":1737972624,"current_range_meters":27200,"station_id":"ce4bhmp2rcd13ifvqgog","pricing_plan_id":"cebpf4jnsgd1na2vs0mg"},{"bike_id":"bcc149d8-6418-4b80-b7f4-9e41a4dc2c09","system_id":"levelo_inurba_marseille","lat":43.30544,"lon":5.36551,"is_reserved":false,"is_disabled":false,"rental_uris":{"android":"levelo://app?vid=bcc149d8-6418-4b80-b7f4-9e41a4dc2c09","ios":"levelo://app?vid=bcc149d8-6418-4b80-b7f4-9e41a4dc2c09"},"vehicle_type_id":"4","last_reported":1737972624,"current_range_meters":35600,"station_id":"ce4bgs12rcd13ifvqcag","pricing_plan_id":"cebpf4jnsgd1na2vs0mg"},{"bike_id":"4d94131b-b295-4717-b73a-3d3660c7ce50","system_id":"levelo_inurba_marseille","lat":43.27483,"lon":5.42476,"is_reserved":false,"is_disabled":false,"rental_uris":{"android":"levelo://app?vid=4d94131b-b295-4717-b73a-3d3660c7ce50","ios":"levelo://app?vid=4d94131b-b295-4717-b73a-3d3660c7ce50"},"vehicle_type_id":"4","last_reported":1737972624,"current_range_meters":24400,"station_id":"ce4bhn92rcd13ifvqgrg","pricing_plan_id":"cebpf4jnsgd1na2vs0mg"},{"bike_id":"acf4cec9-04b2-432c-83ba-19cc7ebac443","system_id":"levelo_inurba_marseille","lat":43.28996,"lon":5.38147,"is_reserved":false,"is_disabled":true,"rental_uris":{"android":"levelo://app?vid=acf4cec9-04b2-432c-83ba-19cc7ebac443","ios":"levelo://app?vid=acf4cec9-04b2-432c-83ba-19cc7ebac443"},"vehicle_type_id":"4","last_reported":1737972624,"current_range_meters":24000,"station_id":"ce4bh4p2rcd13ifvqe1g","pricing_plan_id":"cebpf4jnsgd1na2vs0mg"},{"bike_id":"3c9c9088-9c27-4609-bc62-8218c0dc2be8","system_id":"levelo_inurba_marseille","lat":43.23203,"lon":5.35565,"is_reserved":false,"is_disabled":false,"rental_uris":{"android":"levelo://app?vid=3c9c9088-9c27-4609-bc62-8218c0dc2be8","ios":"levelo://app?vid=3c9c9088-9c27-4609-bc62-8218c0dc2be8"},"vehicle_type_id":"4","last_reported":1737972624,"current_range_meters":38000,"station_id":"ce4bhu92rcd13ifvqi70","pricing_plan_id":"cebpf4jnsgd1na2vs0mg"},{"bike_id":"8a4fd9c1-126f-44bd-8919-7cf37f162b5e","system_id":"levelo_inurba_marseille","lat":43.28176,"lon":5.42634,"is_reserved":false,"is_disabled":false,"rental_uris":{"android":"levelo://app?vid=8a4fd9c1-126f-44bd-8919-7cf37f162b5e","ios":"levelo://app?vid=8a4fd9c1-126f-44bd-8919-7cf37f162b5e"},"vehicle_type_id":"4","last_reported":1737972624,"current_range_meters":31200,"station_id":"ce4bhnh2rcd13ifvqgug","pricing_plan_id":"cebpf4jnsgd1na2vs0mg"},{"bike_id":"908611cd-358e-457c-a364-8caf0fc92ab1","system_id":"levelo_inurba_marseille","lat":43.33598,"lon":5.41016,"is_reserved":false,"is_disabled":false,"rental_uris":{"android":"levelo://app?vid=908611cd-358e-457c-a364-8caf0fc92ab1","ios":"levelo://app?vid=908611cd-358e-457c-a364-8caf0fc92ab1"},"vehicle_type_id":"4","last_reported":1737972624,"current_range_meters":36800,"station_id":"ce4bhqh2rcd13ifvqhmg","pricing_plan_id":"cebpf4jnsgd1na2vs0mg"},{"bike_id":"02a65308-936d-4187-b4db-c0afc2d3e10c","system_id":"levelo_inurba_marseille","lat":43.25913,"lon":5.40917,"is_reserved":false,"is_disabled":false,"rental_uris":{"android":"levelo://app?vid=02a65308-936d-4187-b4db-c0afc2d3e10c","ios":"levelo://app?vid=02a65308-936d-4187-b4db-c0afc2d3e10c"},"vehicle_type_id":"4","last_reported":1737972624,"current_range_meters":38000,"station_id":"ce4bhm92rcd13ifvqglg","pricing_plan_id":"cebpf4jnsgd1na2vs0mg"},{"bike_id":"5ef42bac-1a09-4f8c-9fe8-ab058034fe56","system_id":"levelo_inurba_marseille","lat":43.29899,"lon":5.43666,"is_reserved":false,"is_disabled":false,"rental_uris":{"android":"levelo://app?vid=5ef42bac-1a09-4f8c-9fe8-ab058034fe56","ios":"levelo://app?vid=5ef42bac-1a09-4f8c-9fe8-ab058034fe56"},"vehicle_type_id":"4","last_reported":1737972624,"current_range_meters":16800,"station_id":"ce4bhpp2rcd13ifvqhfg","pricing_plan_id":"cebpf4jnsgd1na2vs0mg"},{"bike_id":"427197db-011a-4f01-9ced-bccbb9608a6e","system_id":"levelo_inurba_marseille","lat":43.30546,"lon":5.36707,"is_reserved":false,"is_disabled":false,"rental_uris":{"android":"levelo://app?vid=427197db-011a-4f01-9ced-bccbb9608a6e","ios":"levelo://app?vid=427197db-011a-4f01-9ced-bccbb9608a6e"},"vehicle_type_id":"4","last_reported":1737972624,"current_range_meters":30000,"station_id":"ce4bgrp2rcd13ifvqc9g","pricing_plan_id":"cebpf4jnsgd1na2vs0mg"},{"bike_id":"0e15d77d-1543-419f-bfee-5bc37433fa77","system_id":"levelo_inurba_marseille","lat":43.30268,"lon":5.37711,"is_reserved":false,"is_disabled":false,"rental_uris":{"android":"levelo://app?vid=0e15d77d-1543-419f-bfee-5bc37433fa77","ios":"levelo://app?vid=0e15d77d-1543-419f-bfee-5bc37433fa77"},"vehicle_type_id":"4","last_reported":1737972624,"current_range_meters":38000,"station_id":"ce4bguh2rcd13ifvqcj0","pricing_plan_id":"cebpf4jnsgd1na2vs0mg"},{"bike_id":"32b74d79-3aba-4260-afb4-fe5484579572","system_id":"levelo_inurba_marseille","lat":43.26952,"lon":5.38622,"is_reserved":false,"is_disabled":false,"rental_uris":{"android":"levelo://app?vid=32b74d79-3aba-4260-afb4-fe5484579572","ios":"levelo://app?vid=32b74d79-3aba-4260-afb4-fe5484579572"},"vehicle_type_id":"4","last_reported":1737972624,"current_range_meters":39200,"station_id":"ce4bhh92rcd13ifvqfh0","pricing_plan_id":"cebpf4jnsgd1na2vs0mg"},{"bike_id":"c692a871-bf77-4428-885e-c44bee765d55","system_id":"levelo_inurba_marseille","lat":43.29357,"lon":5.37838,"is_reserved":false,"is_disabled":false,"rental_uris":{"android":"levelo://app?vid=c692a871-bf77-4428-885e-c44bee765d55","ios":"levelo://app?vid=c692a871-bf77-4428-885e-c44bee765d55"},"vehicle_type_id":"4","last_reported":1737972624,"current_range_meters":36000,"station_id":"ce4bgjh2rcd13ifvqbf0","pricing_plan_id":"cebpf4jnsgd1na2vs0mg"},{"bike_id":"d130c15c-70ca-4c42-ac54-b96dee859fb5","system_id":"levelo_inurba_marseille","lat":43.29421,"lon":5.38626,"is_reserved":false,"is_disabled":false,"rental_uris":{"android":"levelo://app?vid=d130c15c-70ca-4c42-ac54-b96dee859fb5","ios":"levelo://app?vid=d130c15c-70ca-4c42-ac54-b96dee859fb5"},"vehicle_type_id":"4","last_reported":1737972624,"current_range_meters":18800,"station_id":"ce4bh2h2rcd13ifvqdh0","pricing_plan_id":"cebpf4jnsgd1na2vs0mg"},{"bike_id":"bba6c7d2-3568-4ccc-8835-01a759d4b4f4","system_id":"levelo_inurba_marseille","lat":43.28719,"lon":5.4,"is_reserved":false,"is_disabled":false,"rental_uris":{"android":"levelo://app?vid=bba6c7d2-3568-4ccc-8835-01a759d4b4f4","ios":"levelo://app?vid=bba6c7d2-3568-4ccc-8835-01a759d4b4f4"},"vehicle_type_id":"4","last_reported":1737972624,"current_range_meters":38800,"station_id":"ce4bho92rcd13ifvqh3g","pricing_plan_id":"cebpf4jnsgd1na2vs0mg"},{"bike_id":"b5f9da4a-0440-436b-86f5-ecc367051a64","system_id":"levelo_inurba_marseille","lat":43.29843,"lon":5.36269,"is_reserved":false,"is_disabled":false,"rental_uris":{"android":"levelo://app?vid=b5f9da4a-0440-436b-86f5-ecc367051a64","ios":"levelo://app?vid=b5f9da4a-0440-436b-86f5-ecc367051a64"},"vehicle_type_id":"4","last_reported":1737972624,"current_range_meters":31200,"station_id":"ce4bgpp2rcd13ifvqc3g","pricing_plan_id":"cebpf4jnsgd1na2vs0mg"},{"bike_id":"ce732d49-5963-47e6-8c0d-3def73ae88b1","system_id":"levelo_inurba_marseille","lat":43.27656,"lon":5.38935,"is_reserved":false,"is_disabled":false,"rental_uris":{"android":"levelo://app?vid=ce732d49-5963-47e6-8c0d-3def73ae88b1","ios":"levelo://app?vid=ce732d49-5963-47e6-8c0d-3def73ae88b1"},"vehicle_type_id":"4","last_reported":1737972624,"current_range_meters":39200,"station_id":"ce4bhi12rcd13ifvqfo0","pricing_plan_id":"cebpf4jnsgd1na2vs0mg"},{"bike_id":"091ec011-b792-4fc7-8fe9-55cd6cf698d6","system_id":"levelo_inurba_marseille","lat":43.28557,"lon":5.39517,"is_reserved":false,"is_disabled":false,"rental_uris":{"android":"levelo://app?vid=091ec011-b792-4fc7-8fe9-55cd6cf698d6","ios":"levelo://app?vid=091ec011-b792-4fc7-8fe9-55cd6cf698d6"},"vehicle_type_id":"4","last_reported":1737972624,"current_range_meters":38800,"station_id":"ce4bh292rcd13ifvqdg0","pricing_plan_id":"cebpf4jnsgd1na2vs0mg"},{"bike_id":"a10e71e1-ad9f-4bb7-8c59-4fa0ebc2e55a","system_id":"levelo_inurba_marseille","lat":43.29647,"lon":5.37156,"is_reserved":false,"is_disabled":false,"rental_uris":{"android":"levelo://app?vid=a10e71e1-ad9f-4bb7-8c59-4fa0ebc2e55a","ios":"levelo://app?vid=a10e71e1-ad9f-4bb7-8c59-4fa0ebc2e55a"},"vehicle_type_id":"4","last_reported":1737972624,"current_range_meters":38400,"station_id":"ce4bgnh2rcd13ifvqc0g","pricing_plan_id":"cebpf4jnsgd1na2vs0mg"},{"bike_id":"406e67ae-7d1b-40ff-8392-4c4a97836418","system_id":"levelo_inurba_marseille","lat":43.274525,"lon":5.390037,"is_reserved":false,"is_disabled":false,"rental_uris":{"android":"levelo://app?vid=406e67ae-7d1b-40ff-8392-4c4a97836418","ios":"levelo://app?vid=406e67ae-7d1b-40ff-8392-4c4a97836418"},"vehicle_type_id":"4","last_reported":1737972624,"current_range_meters":27600,"station_id":"ce4bhgp2rcd13ifvqfe0","pricing_plan_id":"cebpf4jnsgd1na2vs0mg"},{"bike_id":"e77f4a3c-5357-4959-a3f1-e8d754926725","system_id":"levelo_inurba_marseille","lat":43.26558,"lon":5.37284,"is_reserved":false,"is_disabled":false,"rental_uris":{"android":"levelo://app?vid=e77f4a3c-5357-4959-a3f1-e8d754926725","ios":"levelo://app?vid=e77f4a3c-5357-4959-a3f1-e8d754926725"},"vehicle_type_id":"4","last_reported":1737972624,"current_range_meters":19200,"station_id":"ce4bhg12rcd13ifvqf70","pricing_plan_id":"cebpf4jnsgd1na2vs0mg"},{"bike_id":"3cd8d72b-f1ac-49cc-ba3b-d9273a75292c","system_id":"levelo_inurba_marseille","lat":43.24164,"lon":5.36403,"is_reserved":false,"is_disabled":false,"rental_uris":{"android":"levelo://app?vid=3cd8d72b-f1ac-49cc-ba3b-d9273a75292c","ios":"levelo://app?vid=3cd8d72b-f1ac-49cc-ba3b-d9273a75292c"},"vehicle_type_id":"4","last_reported":1737972624,"current_range_meters":32800,"station_id":"cpo36qri1sfpv3e86is0","pricing_plan_id":"cebpf4jnsgd1na2vs0mg"},{"bike_id":"9d01ac1d-f000-4abb-9a72-7b68ff9d60b7","system_id":"levelo_inurba_marseille","lat":43.30953,"lon":5.39036,"is_reserved":false,"is_disabled":false,"rental_uris":{"android":"levelo://app?vid=9d01ac1d-f000-4abb-9a72-7b68ff9d60b7","ios":"levelo://app?vid=9d01ac1d-f000-4abb-9a72-7b68ff9d60b7"},"vehicle_type_id":"4","last_reported":1737972624,"current_range_meters":38800,"station_id":"ce4bgup2rcd13ifvqco0","pricing_plan_id":"cebpf4jnsgd1na2vs0mg"},{"bike_id":"ace796d2-a3c1-4a40-9a6a-c28670bfa779","system_id":"levelo_inurba_marseille","lat":43.29719,"lon":5.37719,"is_reserved":false,"is_disabled":false,"rental_uris":{"android":"levelo://app?vid=ace796d2-a3c1-4a40-9a6a-c28670bfa779","ios":"levelo://app?vid=ace796d2-a3c1-4a40-9a6a-c28670bfa779"},"vehicle_type_id":"4","last_reported":1737972624,"current_range_meters":38800,"station_id":"ce4bgkh2rcd13ifvqbl0","pricing_plan_id":"cebpf4jnsgd1na2vs0mg"},{"bike_id":"d54e7416-9133-47cb-bc55-3d590b1f98b8","system_id":"levelo_inurba_marseille","lat":43.286446,"lon":5.363664,"is_reserved":false,"is_disabled":true,"rental_uris":{"android":"levelo://app?vid=d54e7416-9133-47cb-bc55-3d590b1f98b8","ios":"levelo://app?vid=d54e7416-9133-47cb-bc55-3d590b1f98b8"},"vehicle_type_id":"4","last_reported":1737972624,"current_range_meters":0,"station_id":"ce4bhah2rcd13ifvqej0","pricing_plan_id":"cebpf4jnsgd1na2vs0mg"},{"bike_id":"f50c99f6-d9ef-4353-96c0-f0ed3401e807","system_id":"levelo_inurba_marseille","lat":43.24642,"lon":5.38912,"is_reserved":false,"is_disabled":false,"rental_uris":{"android":"levelo://app?vid=f50c99f6-d9ef-4353-96c0-f0ed3401e807","ios":"levelo://app?vid=f50c99f6-d9ef-4353-96c0-f0ed3401e807"},"vehicle_type_id":"4","last_reported":1737972624,"current_range_meters":38800,"station_id":"ce4bhg12rcd13ifvqf60","pricing_plan_id":"cebpf4jnsgd1na2vs0mg"},{"bike_id":"f3517fa1-709e-4952-b6fa-124b29197995","system_id":"levelo_inurba_marseille","lat":43.33608,"lon":5.41028,"is_reserved":false,"is_disabled":false,"rental_uris":{"android":"levelo://app?vid=f3517fa1-709e-4952-b6fa-124b29197995","ios":"levelo://app?vid=f3517fa1-709e-4952-b6fa-124b29197995"},"vehicle_type_id":"4","last_reported":1737972624,"current_range_meters":28400,"station_id":"ce4bhqh2rcd13ifvqhmg","pricing_plan_id":"cebpf4jnsgd1na2vs0mg"},{"bike_id":"d797e137-b09a-43a0-bccf-ccd71e8987a5","system_id":"levelo_inurba_marseille","lat":43.29527,"lon":5.38535,"is_reserved":false,"is_disabled":false,"rental_uris":{"android":"levelo://app?vid=d797e137-b09a-43a0-bccf-ccd71e8987a5","ios":"levelo://app?vid=d797e137-b09a-43a0-bccf-ccd71e8987a5"},"vehicle_type_id":"4","last_reported":1737972624,"current_range_meters":33600,"station_id":"ce4bgih2rcd13ifvqba0","pricing_plan_id":"cebpf4jnsgd1na2vs0mg"},{"bike_id":"0234500d-df73-4eb0-9c5c-2bca1fe5e0cf","system_id":"levelo_inurba_marseille","lat":43.25816,"lon":5.39422,"is_reserved":false,"is_disabled":false,"rental_uris":{"android":"levelo://app?vid=0234500d-df73-4eb0-9c5c-2bca1fe5e0cf","ios":"levelo://app?vid=0234500d-df73-4eb0-9c5c-2bca1fe5e0cf"},"vehicle_type_id":"4","last_reported":1737972624,"current_range_meters":38800,"station_id":"ce4bhip2rcd13ifvqft0","pricing_plan_id":"cebpf4jnsgd1na2vs0mg"},{"bike_id":"1c35c755-8b1c-439e-8798-f1a001a3969d","system_id":"levelo_inurba_marseille","lat":43.280977,"lon":5.37849,"is_reserved":false,"is_disabled":true,"rental_uris":{"android":"levelo://app?vid=1c35c755-8b1c-439e-8798-f1a001a3969d","ios":"levelo://app?vid=1c35c755-8b1c-439e-8798-f1a001a3969d"},"vehicle_type_id":"4","last_reported":1737972624,"current_range_meters":0,"station_id":"ce4bha12rcd13ifvqee0","pricing_plan_id":"cebpf4jnsgd1na2vs0mg"},{"bike_id":"919abb9f-7f59-47cb-bf65-694df1f42365","system_id":"levelo_inurba_marseille","lat":43.3235,"lon":5.40613,"is_reserved":false,"is_disabled":false,"rental_uris":{"android":"levelo://app?vid=919abb9f-7f59-47cb-bf65-694df1f42365","ios":"levelo://app?vid=919abb9f-7f59-47cb-bf65-694df1f42365"},"vehicle_type_id":"4","last_reported":1737972624,"current_range_meters":38800,"station_id":"ce4bhq92rcd13ifvqhjg","pricing_plan_id":"cebpf4jnsgd1na2vs0mg"},{"bike_id":"b0325b31-6e06-44e4-b7c2-c542d11011f6","system_id":"levelo_inurba_marseille","lat":43.28987,"lon":5.37828,"is_reserved":false,"is_disabled":false,"rental_uris":{"android":"levelo://app?vid=b0325b31-6e06-44e4-b7c2-c542d11011f6","ios":"levelo://app?vid=b0325b31-6e06-44e4-b7c2-c542d11011f6"},"vehicle_type_id":"4","last_reported":1737972624,"current_range_meters":30800,"station_id":"ce4bh9p2rcd13ifvqed0","pricing_plan_id":"cebpf4jnsgd1na2vs0mg"},{"bike_id":"a620cb61-d42e-474d-b7ce-f4db697a5ece","system_id":"levelo_inurba_marseille","lat":43.30308,"lon":5.392,"is_reserved":false,"is_disabled":false,"rental_uris":{"android":"levelo://app?vid=a620cb61-d42e-474d-b7ce-f4db697a5ece","ios":"levelo://app?vid=a620cb61-d42e-474d-b7ce-f4db697a5ece"},"vehicle_type_id":"4","last_reported":1737972624,"current_range_meters":38800,"station_id":"ce4bgkh2rcd13ifvqbk0","pricing_plan_id":"cebpf4jnsgd1na2vs0mg"},{"bike_id":"4df2a845-0c01-44df-9066-683f72b76f35","system_id":"levelo_inurba_marseille","lat":43.30953,"lon":5.39065,"is_reserved":false,"is_disabled":false,"rental_uris":{"android":"levelo://app?vid=4df2a845-0c01-44df-9066-683f72b76f35","ios":"levelo://app?vid=4df2a845-0c01-44df-9066-683f72b76f35"},"vehicle_type_id":"4","last_reported":1737972624,"current_range_meters":39200,"station_id":"ce4bgup2rcd13ifvqco0","pricing_plan_id":"cebpf4jnsgd1na2vs0mg"},{"bike_id":"b4a457e1-da34-46a9-b4f2-a51ab6b0a2b0","system_id":"levelo_inurba_marseille","lat":43.30272,"lon":5.37706,"is_reserved":false,"is_disabled":false,"rental_uris":{"android":"levelo://app?vid=b4a457e1-da34-46a9-b4f2-a51ab6b0a2b0","ios":"levelo://app?vid=b4a457e1-da34-46a9-b4f2-a51ab6b0a2b0"},"vehicle_type_id":"4","last_reported":1737972624,"current_range_meters":38000,"station_id":"ce4bguh2rcd13ifvqcj0","pricing_plan_id":"cebpf4jnsgd1na2vs0mg"},{"bike_id":"b96c22ba-a4c6-4ca8-b881-a2a2972e9bc2","system_id":"levelo_inurba_marseille","lat":43.26025,"lon":5.37552,"is_reserved":false,"is_disabled":true,"rental_uris":{"android":"levelo://app?vid=b96c22ba-a4c6-4ca8-b881-a2a2972e9bc2","ios":"levelo://app?vid=b96c22ba-a4c6-4ca8-b881-a2a2972e9bc2"},"vehicle_type_id":"4","last_reported":1737972624,"current_range_meters":28400,"station_id":"","pricing_plan_id":"cebpf4jnsgd1na2vs0mg"},{"bike_id":"3b5b4cf6-2cae-49fc-b3fa-3fdc78c6224b","system_id":"levelo_inurba_marseille","lat":43.30314,"lon":5.36905,"is_reserved":false,"is_disabled":false,"rental_uris":{"android":"levelo://app?vid=3b5b4cf6-2cae-49fc-b3fa-3fdc78c6224b","ios":"levelo://app?vid=3b5b4cf6-2cae-49fc-b3fa-3fdc78c6224b"},"vehicle_type_id":"4","last_reported":1737972624,"current_range_meters":38800,"station_id":"ce4bgqh2rcd13ifvqc5g","pricing_plan_id":"cebpf4jnsgd1na2vs0mg"},{"bike_id":"017f93d7-eb0f-4b1a-94a4-58c962719523","system_id":"levelo_inurba_marseille","lat":43.29274,"lon":5.37442,"is_reserved":false,"is_disabled":false,"rental_uris":{"android":"levelo://app?vid=017f93d7-eb0f-4b1a-94a4-58c962719523","ios":"levelo://app?vid=017f93d7-eb0f-4b1a-94a4-58c962719523"},"vehicle_type_id":"4","last_reported":1737972624,"current_range_meters":38800,"station_id":"ce4bgi12rcd13ifvqb70","pricing_plan_id":"cebpf4jnsgd1na2vs0mg"},{"bike_id":"dcb50635-0e5e-4da9-b4df-329e73a63f8f","system_id":"levelo_inurba_marseille","lat":43.24187,"lon":5.39745,"is_reserved":false,"is_disabled":false,"rental_uris":{"android":"levelo://app?vid=dcb50635-0e5e-4da9-b4df-329e73a63f8f","ios":"levelo://app?vid=dcb50635-0e5e-4da9-b4df-329e73a63f8f"},"vehicle_type_id":"4","last_reported":1737972624,"current_range_meters":24400,"station_id":"ce4bhn12rcd13ifvqgpg","pricing_plan_id":"cebpf4jnsgd1na2vs0mg"},{"bike_id":"98a2cb10-0f11-4a3f-b5c2-fb63add72da7","system_id":"levelo_inurba_marseille","lat":43.23189,"lon":5.35569,"is_reserved":false,"is_disabled":false,"rental_uris":{"android":"levelo://app?vid=98a2cb10-0f11-4a3f-b5c2-fb63add72da7","ios":"levelo://app?vid=98a2cb10-0f11-4a3f-b5c2-fb63add72da7"},"vehicle_type_id":"4","last_reported":1737972624,"current_range_meters":26000,"station_id":"ce4bhu92rcd13ifvqi70","pricing_plan_id":"cebpf4jnsgd1na2vs0mg"},{"bike_id":"1346ff93-9ddb-4093-aa5d-b6cb09dfef3c","system_id":"levelo_inurba_marseille","lat":43.28617,"lon":5.351,"is_reserved":false,"is_disabled":false,"rental_uris":{"android":"levelo://app?vid=1346ff93-9ddb-4093-aa5d-b6cb09dfef3c","ios":"levelo://app?vid=1346ff93-9ddb-4093-aa5d-b6cb09dfef3c"},"vehicle_type_id":"4","last_reported":1737972624,"current_range_meters":38800,"station_id":"ce4bhch2rcd13ifvqeug","pricing_plan_id":"cebpf4jnsgd1na2vs0mg"},{"bike_id":"c78051e4-f108-4892-915f-d328c363bcb9","system_id":"levelo_inurba_marseille","lat":43.33608,"lon":5.41027,"is_reserved":false,"is_disabled":false,"rental_uris":{"android":"levelo://app?vid=c78051e4-f108-4892-915f-d328c363bcb9","ios":"levelo://app?vid=c78051e4-f108-4892-915f-d328c363bcb9"},"vehicle_type_id":"4","last_reported":1737972624,"current_range_meters":39200,"station_id":"ce4bhqh2rcd13ifvqhmg","pricing_plan_id":"cebpf4jnsgd1na2vs0mg"},{"bike_id":"1d29e75c-7e1e-408c-8ece-b7be92eb3fbf","system_id":"levelo_inurba_marseille","lat":43.32541,"lon":5.41447,"is_reserved":false,"is_disabled":false,"rental_uris":{"android":"levelo://app?vid=1d29e75c-7e1e-408c-8ece-b7be92eb3fbf","ios":"levelo://app?vid=1d29e75c-7e1e-408c-8ece-b7be92eb3fbf"},"vehicle_type_id":"4","last_reported":1737972624,"current_range_meters":20000,"station_id":"ce4bhq12rcd13ifvqhhg","pricing_plan_id":"cebpf4jnsgd1na2vs0mg"},{"bike_id":"ad73b2c4-a299-42f9-8109-8e844f4e3df2","system_id":"levelo_inurba_marseille","lat":43.31336,"lon":5.36711,"is_reserved":false,"is_disabled":false,"rental_uris":{"android":"levelo://app?vid=ad73b2c4-a299-42f9-8109-8e844f4e3df2","ios":"levelo://app?vid=ad73b2c4-a299-42f9-8109-8e844f4e3df2"},"vehicle_type_id":"4","last_reported":1737972624,"current_range_meters":32800,"station_id":"ce4bgr92rcd13ifvqc6g","pricing_plan_id":"cebpf4jnsgd1na2vs0mg"},{"bike_id":"ad64d5ec-72ee-4fa1-bdcc-4d7e02016bc5","system_id":"levelo_inurba_marseille","lat":43.30437,"lon":5.37923,"is_reserved":false,"is_disabled":false,"rental_uris":{"android":"levelo://app?vid=ad64d5ec-72ee-4fa1-bdcc-4d7e02016bc5","ios":"levelo://app?vid=ad64d5ec-72ee-4fa1-bdcc-4d7e02016bc5"},"vehicle_type_id":"4","last_reported":1737972624,"current_range_meters":38800,"station_id":"ce4bgup2rcd13ifvqcn0","pricing_plan_id":"cebpf4jnsgd1na2vs0mg"},{"bike_id":"38ffec2a-fc66-4d14-b825-4703e88f5460","system_id":"levelo_inurba_marseille","lat":43.32096,"lon":5.36785,"is_reserved":false,"is_disabled":true,"rental_uris":{"android":"levelo://app?vid=38ffec2a-fc66-4d14-b825-4703e88f5460","ios":"levelo://app?vid=38ffec2a-fc66-4d14-b825-4703e88f5460"},"vehicle_type_id":"4","last_reported":1737972624,"current_range_meters":26000,"station_id":"ce4bhrh2rcd13ifvqhug","pricing_plan_id":"cebpf4jnsgd1na2vs0mg"},{"bike_id":"b01b0706-3a3a-4ff1-ac0d-6b17e48eff7a","system_id":"levelo_inurba_marseille","lat":43.23178,"lon":5.35556,"is_reserved":false,"is_disabled":false,"rental_uris":{"android":"levelo://app?vid=b01b0706-3a3a-4ff1-ac0d-6b17e48eff7a","ios":"levelo://app?vid=b01b0706-3a3a-4ff1-ac0d-6b17e48eff7a"},"vehicle_type_id":"4","last_reported":1737972624,"current_range_meters":36800,"station_id":"ce4bhu92rcd13ifvqi70","pricing_plan_id":"cebpf4jnsgd1na2vs0mg"},{"bike_id":"5870e80c-8ef2-426d-ae61-b87dcd478a43","system_id":"levelo_inurba_marseille","lat":43.29204,"lon":5.39302,"is_reserved":false,"is_disabled":false,"rental_uris":{"android":"levelo://app?vid=5870e80c-8ef2-426d-ae61-b87dcd478a43","ios":"levelo://app?vid=5870e80c-8ef2-426d-ae61-b87dcd478a43"},"vehicle_type_id":"4","last_reported":1737972624,"current_range_meters":27200,"station_id":"ce4bh192rcd13ifvqdd0","pricing_plan_id":"cebpf4jnsgd1na2vs0mg"},{"bike_id":"9484e110-1ca0-4803-9f9c-789c4e818300","system_id":"levelo_inurba_marseille","lat":43.25112,"lon":5.40325,"is_reserved":false,"is_disabled":false,"rental_uris":{"android":"levelo://app?vid=9484e110-1ca0-4803-9f9c-789c4e818300","ios":"levelo://app?vid=9484e110-1ca0-4803-9f9c-789c4e818300"},"vehicle_type_id":"4","last_reported":1737972624,"current_range_meters":13600,"station_id":"ce4bhlh2rcd13ifvqgig","pricing_plan_id":"cebpf4jnsgd1na2vs0mg"},{"bike_id":"51665612-a659-47ca-bc3c-f42e668c369e","system_id":"levelo_inurba_marseille","lat":43.30938,"lon":5.36832,"is_reserved":false,"is_disabled":false,"rental_uris":{"android":"levelo://app?vid=51665612-a659-47ca-bc3c-f42e668c369e","ios":"levelo://app?vid=51665612-a659-47ca-bc3c-f42e668c369e"},"vehicle_type_id":"4","last_reported":1737972624,"current_range_meters":12800,"station_id":"ce4bgn92rcd13ifvqbvg","pricing_plan_id":"cebpf4jnsgd1na2vs0mg"},{"bike_id":"82268c69-bcd8-49fb-91ea-6277b4711aa7","system_id":"levelo_inurba_marseille","lat":43.255505,"lon":5.397785,"is_reserved":false,"is_disabled":false,"rental_uris":{"android":"levelo://app?vid=82268c69-bcd8-49fb-91ea-6277b4711aa7","ios":"levelo://app?vid=82268c69-bcd8-49fb-91ea-6277b4711aa7"},"vehicle_type_id":"4","last_reported":1737972624,"current_range_meters":26800,"station_id":"","pricing_plan_id":"cebpf4jnsgd1na2vs0mg"},{"bike_id":"4f36bb3d-3d4d-4f60-913b-e55e33455695","system_id":"levelo_inurba_marseille","lat":43.30548,"lon":5.36526,"is_reserved":false,"is_disabled":false,"rental_uris":{"android":"levelo://app?vid=4f36bb3d-3d4d-4f60-913b-e55e33455695","ios":"levelo://app?vid=4f36bb3d-3d4d-4f60-913b-e55e33455695"},"vehicle_type_id":"4","last_reported":1737972624,"current_range_meters":38000,"station_id":"ce4bgs12rcd13ifvqcag","pricing_plan_id":"cebpf4jnsgd1na2vs0mg"},{"bike_id":"358ea70b-11d9-47fa-b75c-b7801a957d01","system_id":"levelo_inurba_marseille","lat":43.23994,"lon":5.37777,"is_reserved":false,"is_disabled":false,"rental_uris":{"android":"levelo://app?vid=358ea70b-11d9-47fa-b75c-b7801a957d01","ios":"levelo://app?vid=358ea70b-11d9-47fa-b75c-b7801a957d01"},"vehicle_type_id":"4","last_reported":1737972624,"current_range_meters":4800,"station_id":"","pricing_plan_id":"cebpf4jnsgd1na2vs0mg"},{"bike_id":"24cfb25a-4e6b-44c9-aa4f-740815d4798b","system_id":"levelo_inurba_marseille","lat":43.30303,"lon":5.3691,"is_reserved":false,"is_disabled":false,"rental_uris":{"android":"levelo://app?vid=24cfb25a-4e6b-44c9-aa4f-740815d4798b","ios":"levelo://app?vid=24cfb25a-4e6b-44c9-aa4f-740815d4798b"},"vehicle_type_id":"4","last_reported":1737972624,"current_range_meters":33600,"station_id":"ce4bgqh2rcd13ifvqc5g","pricing_plan_id":"cebpf4jnsgd1na2vs0mg"},{"bike_id":"b0c53e68-43cd-46e7-9dd7-f43549c3e3c3","system_id":"levelo_inurba_marseille","lat":43.281,"lon":5.37834,"is_reserved":false,"is_disabled":false,"rental_uris":{"android":"levelo://app?vid=b0c53e68-43cd-46e7-9dd7-f43549c3e3c3","ios":"levelo://app?vid=b0c53e68-43cd-46e7-9dd7-f43549c3e3c3"},"vehicle_type_id":"4","last_reported":1737972624,"current_range_meters":20800,"station_id":"ce4bha12rcd13ifvqee0","pricing_plan_id":"cebpf4jnsgd1na2vs0mg"},{"bike_id":"01e1773c-3be5-489f-b890-a0907a952fb7","system_id":"levelo_inurba_marseille","lat":43.30447,"lon":5.37904,"is_reserved":false,"is_disabled":false,"rental_uris":{"android":"levelo://app?vid=01e1773c-3be5-489f-b890-a0907a952fb7","ios":"levelo://app?vid=01e1773c-3be5-489f-b890-a0907a952fb7"},"vehicle_type_id":"4","last_reported":1737972624,"current_range_meters":38800,"station_id":"ce4bgup2rcd13ifvqcn0","pricing_plan_id":"cebpf4jnsgd1na2vs0mg"},{"bike_id":"10b1a047-be93-49dc-bba5-67085f222023","system_id":"levelo_inurba_marseille","lat":43.25558,"lon":5.38244,"is_reserved":false,"is_disabled":false,"rental_uris":{"android":"levelo://app?vid=10b1a047-be93-49dc-bba5-67085f222023","ios":"levelo://app?vid=10b1a047-be93-49dc-bba5-67085f222023"},"vehicle_type_id":"4","last_reported":1737972624,"current_range_meters":28400,"station_id":"ce4bhih2rcd13ifvqfs0","pricing_plan_id":"cebpf4jnsgd1na2vs0mg"},{"bike_id":"c3865dce-3c7d-4577-a225-4ea6d10f96a9","system_id":"levelo_inurba_marseille","lat":43.29547,"lon":5.4229,"is_reserved":false,"is_disabled":false,"rental_uris":{"android":"levelo://app?vid=c3865dce-3c7d-4577-a225-4ea6d10f96a9","ios":"levelo://app?vid=c3865dce-3c7d-4577-a225-4ea6d10f96a9"},"vehicle_type_id":"4","last_reported":1737972624,"current_range_meters":38000,"station_id":"ce4bhph2rcd13ifvqhdg","pricing_plan_id":"cebpf4jnsgd1na2vs0mg"},{"bike_id":"7fd84b68-8795-4b64-88b1-cc544e1d0969","system_id":"levelo_inurba_marseille","lat":43.28293,"lon":5.35079,"is_reserved":false,"is_disabled":true,"rental_uris":{"android":"levelo://app?vid=7fd84b68-8795-4b64-88b1-cc544e1d0969","ios":"levelo://app?vid=7fd84b68-8795-4b64-88b1-cc544e1d0969"},"vehicle_type_id":"4","last_reported":1737972624,"current_range_meters":400,"station_id":"ce4bhbp2rcd13ifvqerg","pricing_plan_id":"cebpf4jnsgd1na2vs0mg"},{"bike_id":"8d4a2c03-332c-43fc-94a2-34f34407062a","system_id":"levelo_inurba_marseille","lat":43.32545,"lon":5.36587,"is_reserved":false,"is_disabled":false,"rental_uris":{"android":"levelo://app?vid=8d4a2c03-332c-43fc-94a2-34f34407062a","ios":"levelo://app?vid=8d4a2c03-332c-43fc-94a2-34f34407062a"},"vehicle_type_id":"4","last_reported":1737972624,"current_range_meters":28000,"station_id":"","pricing_plan_id":"cebpf4jnsgd1na2vs0mg"},{"bike_id":"59551bc9-7141-4735-b06c-610db512ea98","system_id":"levelo_inurba_marseille","lat":43.24809,"lon":5.37458,"is_reserved":false,"is_disabled":false,"rental_uris":{"android":"levelo://app?vid=59551bc9-7141-4735-b06c-610db512ea98","ios":"levelo://app?vid=59551bc9-7141-4735-b06c-610db512ea98"},"vehicle_type_id":"4","last_reported":1737972624,"current_range_meters":9200,"station_id":"ce4bhgh2rcd13ifvqfb0","pricing_plan_id":"cebpf4jnsgd1na2vs0mg"},{"bike_id":"57823e25-308b-4f11-a2b6-a7f52902c1c5","system_id":"levelo_inurba_marseille","lat":43.30812,"lon":5.38148,"is_reserved":false,"is_disabled":true,"rental_uris":{"android":"levelo://app?vid=57823e25-308b-4f11-a2b6-a7f52902c1c5","ios":"levelo://app?vid=57823e25-308b-4f11-a2b6-a7f52902c1c5"},"vehicle_type_id":"4","last_reported":1737972624,"current_range_meters":8800,"station_id":"ce4bgt12rcd13ifvqce0","pricing_plan_id":"cebpf4jnsgd1na2vs0mg"},{"bike_id":"ff68af14-5554-4f8d-a3de-4549d987f602","system_id":"levelo_inurba_marseille","lat":43.29892,"lon":5.43652,"is_reserved":false,"is_disabled":false,"rental_uris":{"android":"levelo://app?vid=ff68af14-5554-4f8d-a3de-4549d987f602","ios":"levelo://app?vid=ff68af14-5554-4f8d-a3de-4549d987f602"},"vehicle_type_id":"4","last_reported":1737972624,"current_range_meters":38800,"station_id":"ce4bhpp2rcd13ifvqhfg","pricing_plan_id":"cebpf4jnsgd1na2vs0mg"},{"bike_id":"1a7afdb6-7f50-4322-b301-ee53fd967ce3","system_id":"levelo_inurba_marseille","lat":43.2396,"lon":5.36633,"is_reserved":false,"is_disabled":false,"rental_uris":{"android":"levelo://app?vid=1a7afdb6-7f50-4322-b301-ee53fd967ce3","ios":"levelo://app?vid=1a7afdb6-7f50-4322-b301-ee53fd967ce3"},"vehicle_type_id":"4","last_reported":1737972624,"current_range_meters":19600,"station_id":"ce4bhi12rcd13ifvqfp0","pricing_plan_id":"cebpf4jnsgd1na2vs0mg"},{"bike_id":"e372f218-4338-476f-bb3e-f258aa0c353f","system_id":"levelo_inurba_marseille","lat":43.27074,"lon":5.42281,"is_reserved":false,"is_disabled":false,"rental_uris":{"android":"levelo://app?vid=e372f218-4338-476f-bb3e-f258aa0c353f","ios":"levelo://app?vid=e372f218-4338-476f-bb3e-f258aa0c353f"},"vehicle_type_id":"4","last_reported":1737972624,"current_range_meters":7200,"station_id":"ce4bhk92rcd13ifvqgb0","pricing_plan_id":"cebpf4jnsgd1na2vs0mg"},{"bike_id":"f9a2e459-14e6-46e4-a547-26478f5c74d9","system_id":"levelo_inurba_marseille","lat":43.30143,"lon":5.37421,"is_reserved":false,"is_disabled":false,"rental_uris":{"android":"levelo://app?vid=f9a2e459-14e6-46e4-a547-26478f5c74d9","ios":"levelo://app?vid=f9a2e459-14e6-46e4-a547-26478f5c74d9"},"vehicle_type_id":"4","last_reported":1737972624,"current_range_meters":14400,"station_id":"ce4bgs92rcd13ifvqcc0","pricing_plan_id":"cebpf4jnsgd1na2vs0mg"},{"bike_id":"86b498e3-784c-4315-9910-77930c320efa","system_id":"levelo_inurba_marseille","lat":43.286054,"lon":5.370723,"is_reserved":false,"is_disabled":false,"rental_uris":{"android":"levelo://app?vid=86b498e3-784c-4315-9910-77930c320efa","ios":"levelo://app?vid=86b498e3-784c-4315-9910-77930c320efa"},"vehicle_type_id":"4","last_reported":1737972624,"current_range_meters":38000,"station_id":"ce4bht12rcd13ifvqi60","pricing_plan_id":"cebpf4jnsgd1na2vs0mg"},{"bike_id":"d4b96a79-6fba-47bf-8cf9-899b5e9182b4","system_id":"levelo_inurba_marseille","lat":43.26193,"lon":5.37925,"is_reserved":false,"is_disabled":false,"rental_uris":{"android":"levelo://app?vid=d4b96a79-6fba-47bf-8cf9-899b5e9182b4","ios":"levelo://app?vid=d4b96a79-6fba-47bf-8cf9-899b5e9182b4"},"vehicle_type_id":"4","last_reported":1737972624,"current_range_meters":14400,"station_id":"ce4bhjp2rcd13ifvqg90","pricing_plan_id":"cebpf4jnsgd1na2vs0mg"},{"bike_id":"8c772f1a-bac2-41fc-878f-d0d152dc8c92","system_id":"levelo_inurba_marseille","lat":43.29163,"lon":5.38246,"is_reserved":false,"is_disabled":false,"rental_uris":{"android":"levelo://app?vid=8c772f1a-bac2-41fc-878f-d0d152dc8c92","ios":"levelo://app?vid=8c772f1a-bac2-41fc-878f-d0d152dc8c92"},"vehicle_type_id":"4","last_reported":1737972624,"current_range_meters":6400,"station_id":"","pricing_plan_id":"cebpf4jnsgd1na2vs0mg"},{"bike_id":"ad5175d1-7d67-470d-a403-c1d1bb876607","system_id":"levelo_inurba_marseille","lat":43.30099,"lon":5.39061,"is_reserved":false,"is_disabled":false,"rental_uris":{"android":"levelo://app?vid=ad5175d1-7d67-470d-a403-c1d1bb876607","ios":"levelo://app?vid=ad5175d1-7d67-470d-a403-c1d1bb876607"},"vehicle_type_id":"4","last_reported":1737972624,"current_range_meters":8000,"station_id":"ce4bh192rcd13ifvqdb0","pricing_plan_id":"cebpf4jnsgd1na2vs0mg"},{"bike_id":"6d301d54-3fe2-456f-9752-1a1a8fa0c2b5","system_id":"levelo_inurba_marseille","lat":43.3144,"lon":5.3664,"is_reserved":false,"is_disabled":false,"rental_uris":{"android":"levelo://app?vid=6d301d54-3fe2-456f-9752-1a1a8fa0c2b5","ios":"levelo://app?vid=6d301d54-3fe2-456f-9752-1a1a8fa0c2b5"},"vehicle_type_id":"4","last_reported":1737972624,"current_range_meters":38800,"station_id":"ce4bgr92rcd13ifvqc6g","pricing_plan_id":"cebpf4jnsgd1na2vs0mg"},{"bike_id":"05d9d994-ea09-41ca-aeb8-dc4b233c543b","system_id":"levelo_inurba_marseille","lat":43.29025,"lon":5.38649,"is_reserved":false,"is_disabled":true,"rental_uris":{"android":"levelo://app?vid=05d9d994-ea09-41ca-aeb8-dc4b233c543b","ios":"levelo://app?vid=05d9d994-ea09-41ca-aeb8-dc4b233c543b"},"vehicle_type_id":"4","last_reported":1737972624,"current_range_meters":27600,"station_id":"ce4bh4p2rcd13ifvqe0g","pricing_plan_id":"cebpf4jnsgd1na2vs0mg"},{"bike_id":"98cd4406-dd34-4787-8914-5ea5d0100c14","system_id":"levelo_inurba_marseille","lat":43.26185,"lon":5.37929,"is_reserved":false,"is_disabled":false,"rental_uris":{"android":"levelo://app?vid=98cd4406-dd34-4787-8914-5ea5d0100c14","ios":"levelo://app?vid=98cd4406-dd34-4787-8914-5ea5d0100c14"},"vehicle_type_id":"4","last_reported":1737972624,"current_range_meters":38800,"station_id":"ce4bhjp2rcd13ifvqg90","pricing_plan_id":"cebpf4jnsgd1na2vs0mg"},{"bike_id":"eae7604f-f549-42ac-9a31-689982918a1a","system_id":"levelo_inurba_marseille","lat":43.30955,"lon":5.39052,"is_reserved":false,"is_disabled":false,"rental_uris":{"android":"levelo://app?vid=eae7604f-f549-42ac-9a31-689982918a1a","ios":"levelo://app?vid=eae7604f-f549-42ac-9a31-689982918a1a"},"vehicle_type_id":"4","last_reported":1737972624,"current_range_meters":38000,"station_id":"ce4bgup2rcd13ifvqco0","pricing_plan_id":"cebpf4jnsgd1na2vs0mg"},{"bike_id":"959f28ed-933e-4c7a-b1b6-9d13436d97ec","system_id":"levelo_inurba_marseille","lat":43.29594,"lon":5.3812,"is_reserved":false,"is_disabled":false,"rental_uris":{"android":"levelo://app?vid=959f28ed-933e-4c7a-b1b6-9d13436d97ec","ios":"levelo://app?vid=959f28ed-933e-4c7a-b1b6-9d13436d97ec"},"vehicle_type_id":"4","last_reported":1737972624,"current_range_meters":17600,"station_id":"ce4bgl12rcd13ifvqbo0","pricing_plan_id":"cebpf4jnsgd1na2vs0mg"},{"bike_id":"f9173de2-2fa5-436f-a76b-3c96bd571284","system_id":"levelo_inurba_marseille","lat":43.29766,"lon":5.40413,"is_reserved":false,"is_disabled":false,"rental_uris":{"android":"levelo://app?vid=f9173de2-2fa5-436f-a76b-3c96bd571284","ios":"levelo://app?vid=f9173de2-2fa5-436f-a76b-3c96bd571284"},"vehicle_type_id":"4","last_reported":1737972624,"current_range_meters":38800,"station_id":"ce4bh112rcd13ifvqd90","pricing_plan_id":"cebpf4jnsgd1na2vs0mg"},{"bike_id":"bbf56802-3769-49a5-a853-783ce81a2528","system_id":"levelo_inurba_marseille","lat":43.30945,"lon":5.39037,"is_reserved":false,"is_disabled":false,"rental_uris":{"android":"levelo://app?vid=bbf56802-3769-49a5-a853-783ce81a2528","ios":"levelo://app?vid=bbf56802-3769-49a5-a853-783ce81a2528"},"vehicle_type_id":"4","last_reported":1737972624,"current_range_meters":38800,"station_id":"ce4bgup2rcd13ifvqco0","pricing_plan_id":"cebpf4jnsgd1na2vs0mg"},{"bike_id":"cb11c4e4-37a9-44f4-9ccd-767b3b519e30","system_id":"levelo_inurba_marseille","lat":43.28478,"lon":5.38423,"is_reserved":false,"is_disabled":false,"rental_uris":{"android":"levelo://app?vid=cb11c4e4-37a9-44f4-9ccd-767b3b519e30","ios":"levelo://app?vid=cb11c4e4-37a9-44f4-9ccd-767b3b519e30"},"vehicle_type_id":"4","last_reported":1737972624,"current_range_meters":11600,"station_id":"ce4bh512rcd13ifvqe3g","pricing_plan_id":"cebpf4jnsgd1na2vs0mg"},{"bike_id":"c90dfe9a-5bc6-41cc-b94a-b39c973f0a8d","system_id":"levelo_inurba_marseille","lat":43.32665,"lon":5.40981,"is_reserved":false,"is_disabled":true,"rental_uris":{"android":"levelo://app?vid=c90dfe9a-5bc6-41cc-b94a-b39c973f0a8d","ios":"levelo://app?vid=c90dfe9a-5bc6-41cc-b94a-b39c973f0a8d"},"vehicle_type_id":"4","last_reported":1737972624,"current_range_meters":3200,"station_id":"ce4bhpp2rcd13ifvqhgg","pricing_plan_id":"cebpf4jnsgd1na2vs0mg"},{"bike_id":"2bc2b2c6-232a-4755-a982-c663e39927be","system_id":"levelo_inurba_marseille","lat":43.295756,"lon":5.399803,"is_reserved":false,"is_disabled":false,"rental_uris":{"android":"levelo://app?vid=2bc2b2c6-232a-4755-a982-c663e39927be","ios":"levelo://app?vid=2bc2b2c6-232a-4755-a982-c663e39927be"},"vehicle_type_id":"4","last_reported":1737972624,"current_range_meters":32000,"station_id":"ce4bh312rcd13ifvqdj0","pricing_plan_id":"cebpf4jnsgd1na2vs0mg"},{"bike_id":"26c5f55d-b689-44ba-bcbe-576c29c6025c","system_id":"levelo_inurba_marseille","lat":43.33736,"lon":5.39197,"is_reserved":false,"is_disabled":false,"rental_uris":{"android":"levelo://app?vid=26c5f55d-b689-44ba-bcbe-576c29c6025c","ios":"levelo://app?vid=26c5f55d-b689-44ba-bcbe-576c29c6025c"},"vehicle_type_id":"4","last_reported":1737972624,"current_range_meters":25200,"station_id":"ce4bhr92rcd13ifvqhsg","pricing_plan_id":"cebpf4jnsgd1na2vs0mg"},{"bike_id":"944ecfa4-1deb-441b-a89a-e1bce60c6518","system_id":"levelo_inurba_marseille","lat":43.27064,"lon":5.42262,"is_reserved":false,"is_disabled":false,"rental_uris":{"android":"levelo://app?vid=944ecfa4-1deb-441b-a89a-e1bce60c6518","ios":"levelo://app?vid=944ecfa4-1deb-441b-a89a-e1bce60c6518"},"vehicle_type_id":"4","last_reported":1737972624,"current_range_meters":39200,"station_id":"ce4bhk92rcd13ifvqgb0","pricing_plan_id":"cebpf4jnsgd1na2vs0mg"},{"bike_id":"cc692049-090f-4dd4-b9f6-1445b1c1f0d2","system_id":"levelo_inurba_marseille","lat":43.29733,"lon":5.37715,"is_reserved":false,"is_disabled":false,"rental_uris":{"android":"levelo://app?vid=cc692049-090f-4dd4-b9f6-1445b1c1f0d2","ios":"levelo://app?vid=cc692049-090f-4dd4-b9f6-1445b1c1f0d2"},"vehicle_type_id":"4","last_reported":1737972624,"current_range_meters":38800,"station_id":"ce4bgkh2rcd13ifvqbl0","pricing_plan_id":"cebpf4jnsgd1na2vs0mg"},{"bike_id":"4ee7a4b2-dea3-4f4a-a76b-2d1e4fcbcafe","system_id":"levelo_inurba_marseille","lat":43.28476,"lon":5.3854,"is_reserved":false,"is_disabled":false,"rental_uris":{"android":"levelo://app?vid=4ee7a4b2-dea3-4f4a-a76b-2d1e4fcbcafe","ios":"levelo://app?vid=4ee7a4b2-dea3-4f4a-a76b-2d1e4fcbcafe"},"vehicle_type_id":"4","last_reported":1737972624,"current_range_meters":2800,"station_id":"ce4bh8p2rcd13ifvqeb0","pricing_plan_id":"cebpf4jnsgd1na2vs0mg"},{"bike_id":"c772779b-3b78-4143-a73c-c60232eed73c","system_id":"levelo_inurba_marseille","lat":43.32531,"lon":5.41446,"is_reserved":false,"is_disabled":false,"rental_uris":{"android":"levelo://app?vid=c772779b-3b78-4143-a73c-c60232eed73c","ios":"levelo://app?vid=c772779b-3b78-4143-a73c-c60232eed73c"},"vehicle_type_id":"4","last_reported":1737972624,"current_range_meters":36400,"station_id":"ce4bhq12rcd13ifvqhhg","pricing_plan_id":"cebpf4jnsgd1na2vs0mg"},{"bike_id":"565e831a-998a-4696-ae22-bee0501ba347","system_id":"levelo_inurba_marseille","lat":43.30457,"lon":5.37912,"is_reserved":false,"is_disabled":false,"rental_uris":{"android":"levelo://app?vid=565e831a-998a-4696-ae22-bee0501ba347","ios":"levelo://app?vid=565e831a-998a-4696-ae22-bee0501ba347"},"vehicle_type_id":"4","last_reported":1737972624,"current_range_meters":27600,"station_id":"ce4bgup2rcd13ifvqcn0","pricing_plan_id":"cebpf4jnsgd1na2vs0mg"},{"bike_id":"b46ec64f-1231-4211-a4c1-8d476fdc247d","system_id":"levelo_inurba_marseille","lat":43.31686,"lon":5.40472,"is_reserved":false,"is_disabled":false,"rental_uris":{"android":"levelo://app?vid=b46ec64f-1231-4211-a4c1-8d476fdc247d","ios":"levelo://app?vid=b46ec64f-1231-4211-a4c1-8d476fdc247d"},"vehicle_type_id":"4","last_reported":1737972624,"current_range_meters":20800,"station_id":"ce4bh012rcd13ifvqd00","pricing_plan_id":"cebpf4jnsgd1na2vs0mg"},{"bike_id":"e3e26aee-15e1-425c-a48f-db58aa520742","system_id":"levelo_inurba_marseille","lat":43.23054,"lon":5.35516,"is_reserved":false,"is_disabled":false,"rental_uris":{"android":"levelo://app?vid=e3e26aee-15e1-425c-a48f-db58aa520742","ios":"levelo://app?vid=e3e26aee-15e1-425c-a48f-db58aa520742"},"vehicle_type_id":"4","last_reported":1737972624,"current_range_meters":38800,"station_id":"cpo3342slgdg3j2ifvpg","pricing_plan_id":"cebpf4jnsgd1na2vs0mg"},{"bike_id":"333a6599-474f-4570-afad-adf905a09430","system_id":"levelo_inurba_marseille","lat":43.30463,"lon":5.37913,"is_reserved":false,"is_disabled":false,"rental_uris":{"android":"levelo://app?vid=333a6599-474f-4570-afad-adf905a09430","ios":"levelo://app?vid=333a6599-474f-4570-afad-adf905a09430"},"vehicle_type_id":"4","last_reported":1737972624,"current_range_meters":30000,"station_id":"ce4bgup2rcd13ifvqcn0","pricing_plan_id":"cebpf4jnsgd1na2vs0mg"},{"bike_id":"414e9e87-13c8-4dd8-9df6-7723400a2d87","system_id":"levelo_inurba_marseille","lat":43.2594,"lon":5.40878,"is_reserved":false,"is_disabled":false,"rental_uris":{"android":"levelo://app?vid=414e9e87-13c8-4dd8-9df6-7723400a2d87","ios":"levelo://app?vid=414e9e87-13c8-4dd8-9df6-7723400a2d87"},"vehicle_type_id":"4","last_reported":1737972624,"current_range_meters":38800,"station_id":"ce4bhm92rcd13ifvqglg","pricing_plan_id":"cebpf4jnsgd1na2vs0mg"},{"bike_id":"4f0d564d-d2c5-4d63-8272-ec4ed8b18df2","system_id":"levelo_inurba_marseille","lat":43.2593,"lon":5.4092,"is_reserved":false,"is_disabled":false,"rental_uris":{"android":"levelo://app?vid=4f0d564d-d2c5-4d63-8272-ec4ed8b18df2","ios":"levelo://app?vid=4f0d564d-d2c5-4d63-8272-ec4ed8b18df2"},"vehicle_type_id":"4","last_reported":1737972624,"current_range_meters":32000,"station_id":"ce4bhm92rcd13ifvqglg","pricing_plan_id":"cebpf4jnsgd1na2vs0mg"},{"bike_id":"7c78a755-c7f5-4f07-a96b-621451d47948","system_id":"levelo_inurba_marseille","lat":43.29916,"lon":5.43656,"is_reserved":false,"is_disabled":false,"rental_uris":{"android":"levelo://app?vid=7c78a755-c7f5-4f07-a96b-621451d47948","ios":"levelo://app?vid=7c78a755-c7f5-4f07-a96b-621451d47948"},"vehicle_type_id":"4","last_reported":1737972624,"current_range_meters":28000,"station_id":"ce4bhpp2rcd13ifvqhfg","pricing_plan_id":"cebpf4jnsgd1na2vs0mg"},{"bike_id":"8bc17420-8e8f-4e23-949f-644ecfc72724","system_id":"levelo_inurba_marseille","lat":43.27366,"lon":5.36251,"is_reserved":false,"is_disabled":false,"rental_uris":{"android":"levelo://app?vid=8bc17420-8e8f-4e23-949f-644ecfc72724","ios":"levelo://app?vid=8bc17420-8e8f-4e23-949f-644ecfc72724"},"vehicle_type_id":"4","last_reported":1737972624,"current_range_meters":39200,"station_id":"ce4bhbh2rcd13ifvqeo0","pricing_plan_id":"cebpf4jnsgd1na2vs0mg"},{"bike_id":"538d5be7-8552-4e85-8113-86a63e156e35","system_id":"levelo_inurba_marseille","lat":43.26938,"lon":5.38668,"is_reserved":false,"is_disabled":false,"rental_uris":{"android":"levelo://app?vid=538d5be7-8552-4e85-8113-86a63e156e35","ios":"levelo://app?vid=538d5be7-8552-4e85-8113-86a63e156e35"},"vehicle_type_id":"4","last_reported":1737972624,"current_range_meters":36400,"station_id":"ce4bhh92rcd13ifvqfh0","pricing_plan_id":"cebpf4jnsgd1na2vs0mg"},{"bike_id":"728edd33-1187-4296-b25c-b606d3c17288","system_id":"levelo_inurba_marseille","lat":43.29352,"lon":5.37861,"is_reserved":false,"is_disabled":false,"rental_uris":{"android":"levelo://app?vid=728edd33-1187-4296-b25c-b606d3c17288","ios":"levelo://app?vid=728edd33-1187-4296-b25c-b606d3c17288"},"vehicle_type_id":"4","last_reported":1737972624,"current_range_meters":39200,"station_id":"ce4bgjh2rcd13ifvqbf0","pricing_plan_id":"cebpf4jnsgd1na2vs0mg"},{"bike_id":"deec60b4-f26d-42c3-b0b3-918aaa9fe179","system_id":"levelo_inurba_marseille","lat":43.27935,"lon":5.38786,"is_reserved":false,"is_disabled":false,"rental_uris":{"android":"levelo://app?vid=deec60b4-f26d-42c3-b0b3-918aaa9fe179","ios":"levelo://app?vid=deec60b4-f26d-42c3-b0b3-918aaa9fe179"},"vehicle_type_id":"4","last_reported":1737972624,"current_range_meters":35200,"station_id":"ce4bhg12rcd13ifvqf80","pricing_plan_id":"cebpf4jnsgd1na2vs0mg"},{"bike_id":"684ea44b-b4bc-456a-be59-2cf6bb158b0d","system_id":"levelo_inurba_marseille","lat":43.3372,"lon":5.39173,"is_reserved":false,"is_disabled":false,"rental_uris":{"android":"levelo://app?vid=684ea44b-b4bc-456a-be59-2cf6bb158b0d","ios":"levelo://app?vid=684ea44b-b4bc-456a-be59-2cf6bb158b0d"},"vehicle_type_id":"4","last_reported":1737972624,"current_range_meters":37600,"station_id":"ce4bhr92rcd13ifvqhsg","pricing_plan_id":"cebpf4jnsgd1na2vs0mg"},{"bike_id":"afc694e3-62c1-4d0c-817b-5b98230ac2ac","system_id":"levelo_inurba_marseille","lat":43.29706,"lon":5.36628,"is_reserved":false,"is_disabled":false,"rental_uris":{"android":"levelo://app?vid=afc694e3-62c1-4d0c-817b-5b98230ac2ac","ios":"levelo://app?vid=afc694e3-62c1-4d0c-817b-5b98230ac2ac"},"vehicle_type_id":"4","last_reported":1737972624,"current_range_meters":24400,"station_id":"ce4bgn12rcd13ifvqbt0","pricing_plan_id":"cebpf4jnsgd1na2vs0mg"},{"bike_id":"a48a4fa8-387b-4ecc-bc7a-c3f07822bf47","system_id":"levelo_inurba_marseille","lat":43.27062,"lon":5.39239,"is_reserved":false,"is_disabled":true,"rental_uris":{"android":"levelo://app?vid=a48a4fa8-387b-4ecc-bc7a-c3f07822bf47","ios":"levelo://app?vid=a48a4fa8-387b-4ecc-bc7a-c3f07822bf47"},"vehicle_type_id":"4","last_reported":1737972624,"current_range_meters":0,"station_id":"","pricing_plan_id":"cebpf4jnsgd1na2vs0mg"},{"bike_id":"afc4d53a-7a00-4e31-ba93-3fdb3be5f28e","system_id":"levelo_inurba_marseille","lat":43.24023,"lon":5.37801,"is_reserved":false,"is_disabled":false,"rental_uris":{"android":"levelo://app?vid=afc4d53a-7a00-4e31-ba93-3fdb3be5f28e","ios":"levelo://app?vid=afc4d53a-7a00-4e31-ba93-3fdb3be5f28e"},"vehicle_type_id":"4","last_reported":1737972624,"current_range_meters":38800,"station_id":"","pricing_plan_id":"cebpf4jnsgd1na2vs0mg"},{"bike_id":"f083ce9c-1330-4457-abc6-57c4c2a195fd","system_id":"levelo_inurba_marseille","lat":43.29284,"lon":5.36843,"is_reserved":false,"is_disabled":true,"rental_uris":{"android":"levelo://app?vid=f083ce9c-1330-4457-abc6-57c4c2a195fd","ios":"levelo://app?vid=f083ce9c-1330-4457-abc6-57c4c2a195fd"},"vehicle_type_id":"4","last_reported":1737972624,"current_range_meters":800,"station_id":"ce4bhbp2rcd13ifvqesg","pricing_plan_id":"cebpf4jnsgd1na2vs0mg"},{"bike_id":"a8d0380b-0a88-41c3-845f-e00ffb2cbc88","system_id":"levelo_inurba_marseille","lat":43.27993,"lon":5.4001,"is_reserved":false,"is_disabled":true,"rental_uris":{"android":"levelo://app?vid=a8d0380b-0a88-41c3-845f-e00ffb2cbc88","ios":"levelo://app?vid=a8d0380b-0a88-41c3-845f-e00ffb2cbc88"},"vehicle_type_id":"4","last_reported":1737972624,"current_range_meters":30800,"station_id":"ce4bho92rcd13ifvqh4g","pricing_plan_id":"cebpf4jnsgd1na2vs0mg"},{"bike_id":"ab4b2f25-068f-4c1f-b709-3c0cbf337322","system_id":"levelo_inurba_marseille","lat":43.23158,"lon":5.43698,"is_reserved":false,"is_disabled":false,"rental_uris":{"android":"levelo://app?vid=ab4b2f25-068f-4c1f-b709-3c0cbf337322","ios":"levelo://app?vid=ab4b2f25-068f-4c1f-b709-3c0cbf337322"},"vehicle_type_id":"4","last_reported":1737972624,"current_range_meters":7200,"station_id":"ce4bhmp2rcd13ifvqgog","pricing_plan_id":"cebpf4jnsgd1na2vs0mg"},{"bike_id":"94229cda-4639-49c7-9106-bc4cbf3a3095","system_id":"levelo_inurba_marseille","lat":43.26206,"lon":5.40466,"is_reserved":false,"is_disabled":false,"rental_uris":{"android":"levelo://app?vid=94229cda-4639-49c7-9106-bc4cbf3a3095","ios":"levelo://app?vid=94229cda-4639-49c7-9106-bc4cbf3a3095"},"vehicle_type_id":"4","last_reported":1737972624,"current_range_meters":6000,"station_id":"","pricing_plan_id":"cebpf4jnsgd1na2vs0mg"},{"bike_id":"5081e94c-6e15-46a3-8958-4b50eefd7659","system_id":"levelo_inurba_marseille","lat":43.24069,"lon":5.3775,"is_reserved":false,"is_disabled":false,"rental_uris":{"android":"levelo://app?vid=5081e94c-6e15-46a3-8958-4b50eefd7659","ios":"levelo://app?vid=5081e94c-6e15-46a3-8958-4b50eefd7659"},"vehicle_type_id":"4","last_reported":1737972624,"current_range_meters":38800,"station_id":"ce4bhnp2rcd13ifvqgvg","pricing_plan_id":"cebpf4jnsgd1na2vs0mg"},{"bike_id":"9c09af66-30f1-488d-910d-a8a905d02871","system_id":"levelo_inurba_marseille","lat":43.29385,"lon":5.37925,"is_reserved":false,"is_disabled":true,"rental_uris":{"android":"levelo://app?vid=9c09af66-30f1-488d-910d-a8a905d02871","ios":"levelo://app?vid=9c09af66-30f1-488d-910d-a8a905d02871"},"vehicle_type_id":"4","last_reported":1737972624,"current_range_meters":0,"station_id":"","pricing_plan_id":"cebpf4jnsgd1na2vs0mg"},{"bike_id":"a2636170-fcb1-4c50-b016-59fa35899ebc","system_id":"levelo_inurba_marseille","lat":43.31364,"lon":5.36709,"is_reserved":false,"is_disabled":false,"rental_uris":{"android":"levelo://app?vid=a2636170-fcb1-4c50-b016-59fa35899ebc","ios":"levelo://app?vid=a2636170-fcb1-4c50-b016-59fa35899ebc"},"vehicle_type_id":"4","last_reported":1737972624,"current_range_meters":36400,"station_id":"ce4bgr92rcd13ifvqc6g","pricing_plan_id":"cebpf4jnsgd1na2vs0mg"},{"bike_id":"5832b0d1-9fbe-4647-a3ce-70036d555f34","system_id":"levelo_inurba_marseille","lat":43.29088,"lon":5.38172,"is_reserved":false,"is_disabled":false,"rental_uris":{"android":"levelo://app?vid=5832b0d1-9fbe-4647-a3ce-70036d555f34","ios":"levelo://app?vid=5832b0d1-9fbe-4647-a3ce-70036d555f34"},"vehicle_type_id":"4","last_reported":1737972624,"current_range_meters":39200,"station_id":"ce4bh512rcd13ifvqe2g","pricing_plan_id":"cebpf4jnsgd1na2vs0mg"},{"bike_id":"22e948b1-900e-4a5c-9a5a-b682c4d5119c","system_id":"levelo_inurba_marseille","lat":43.23154,"lon":5.43721,"is_reserved":false,"is_disabled":false,"rental_uris":{"android":"levelo://app?vid=22e948b1-900e-4a5c-9a5a-b682c4d5119c","ios":"levelo://app?vid=22e948b1-900e-4a5c-9a5a-b682c4d5119c"},"vehicle_type_id":"4","last_reported":1737972624,"current_range_meters":25200,"station_id":"ce4bhmp2rcd13ifvqgog","pricing_plan_id":"cebpf4jnsgd1na2vs0mg"},{"bike_id":"c438c788-2c8f-4eda-8233-a8485c23c4af","system_id":"levelo_inurba_marseille","lat":43.30418,"lon":5.41287,"is_reserved":false,"is_disabled":true,"rental_uris":{"android":"levelo://app?vid=c438c788-2c8f-4eda-8233-a8485c23c4af","ios":"levelo://app?vid=c438c788-2c8f-4eda-8233-a8485c23c4af"},"vehicle_type_id":"4","last_reported":1737972624,"current_range_meters":0,"station_id":"ce4bhop2rcd13ifvqh8g","pricing_plan_id":"cebpf4jnsgd1na2vs0mg"},{"bike_id":"655b1c80-936c-4eff-86c8-1fb83ed97cc2","system_id":"levelo_inurba_marseille","lat":43.29017,"lon":5.38149,"is_reserved":false,"is_disabled":true,"rental_uris":{"android":"levelo://app?vid=655b1c80-936c-4eff-86c8-1fb83ed97cc2","ios":"levelo://app?vid=655b1c80-936c-4eff-86c8-1fb83ed97cc2"},"vehicle_type_id":"4","last_reported":1737972624,"current_range_meters":38800,"station_id":"ce4bh4p2rcd13ifvqe1g","pricing_plan_id":"cebpf4jnsgd1na2vs0mg"},{"bike_id":"8ce91b79-eec2-4449-82de-a212beac1c70","system_id":"levelo_inurba_marseille","lat":43.30262,"lon":5.37741,"is_reserved":false,"is_disabled":true,"rental_uris":{"android":"levelo://app?vid=8ce91b79-eec2-4449-82de-a212beac1c70","ios":"levelo://app?vid=8ce91b79-eec2-4449-82de-a212beac1c70"},"vehicle_type_id":"4","last_reported":1737972624,"current_range_meters":37600,"station_id":"ce4bguh2rcd13ifvqcj0","pricing_plan_id":"cebpf4jnsgd1na2vs0mg"},{"bike_id":"2e1f41c8-ee04-4d5e-b989-f8d2ceb8944f","system_id":"levelo_inurba_marseille","lat":43.25021,"lon":5.38914,"is_reserved":false,"is_disabled":false,"rental_uris":{"android":"levelo://app?vid=2e1f41c8-ee04-4d5e-b989-f8d2ceb8944f","ios":"levelo://app?vid=2e1f41c8-ee04-4d5e-b989-f8d2ceb8944f"},"vehicle_type_id":"4","last_reported":1737972624,"current_range_meters":27200,"station_id":"ce4bhgp2rcd13ifvqfd0","pricing_plan_id":"cebpf4jnsgd1na2vs0mg"},{"bike_id":"714bad54-c98e-48d1-9514-98a6d8144d82","system_id":"levelo_inurba_marseille","lat":43.30955,"lon":5.39048,"is_reserved":false,"is_disabled":false,"rental_uris":{"android":"levelo://app?vid=714bad54-c98e-48d1-9514-98a6d8144d82","ios":"levelo://app?vid=714bad54-c98e-48d1-9514-98a6d8144d82"},"vehicle_type_id":"4","last_reported":1737972624,"current_range_meters":25600,"station_id":"ce4bgup2rcd13ifvqco0","pricing_plan_id":"cebpf4jnsgd1na2vs0mg"},{"bike_id":"9467e29b-7f6b-4eb3-b15b-3d835cd18fed","system_id":"levelo_inurba_marseille","lat":43.29599,"lon":5.37278,"is_reserved":false,"is_disabled":false,"rental_uris":{"android":"levelo://app?vid=9467e29b-7f6b-4eb3-b15b-3d835cd18fed","ios":"levelo://app?vid=9467e29b-7f6b-4eb3-b15b-3d835cd18fed"},"vehicle_type_id":"4","last_reported":1737972624,"current_range_meters":38800,"station_id":"ce4bgnh2rcd13ifvqc0g","pricing_plan_id":"cebpf4jnsgd1na2vs0mg"},{"bike_id":"c0e9afac-3027-4e6b-b5e9-3196c155323d","system_id":"levelo_inurba_marseille","lat":43.32476,"lon":5.36567,"is_reserved":false,"is_disabled":false,"rental_uris":{"android":"levelo://app?vid=c0e9afac-3027-4e6b-b5e9-3196c155323d","ios":"levelo://app?vid=c0e9afac-3027-4e6b-b5e9-3196c155323d"},"vehicle_type_id":"4","last_reported":1737972624,"current_range_meters":18800,"station_id":"ce4bhs12rcd13ifvqhvg","pricing_plan_id":"cebpf4jnsgd1na2vs0mg"},{"bike_id":"e1ca76d3-5f70-4de5-ad64-856549b63764","system_id":"levelo_inurba_marseille","lat":43.31534,"lon":5.38037,"is_reserved":false,"is_disabled":false,"rental_uris":{"android":"levelo://app?vid=e1ca76d3-5f70-4de5-ad64-856549b63764","ios":"levelo://app?vid=e1ca76d3-5f70-4de5-ad64-856549b63764"},"vehicle_type_id":"4","last_reported":1737972624,"current_range_meters":36000,"station_id":"ce4bhsp2rcd13ifvqi50","pricing_plan_id":"cebpf4jnsgd1na2vs0mg"},{"bike_id":"dd2ba638-d4f3-4ba6-b901-57e086eb4ba1","system_id":"levelo_inurba_marseille","lat":43.27223,"lon":5.39182,"is_reserved":false,"is_disabled":false,"rental_uris":{"android":"levelo://app?vid=dd2ba638-d4f3-4ba6-b901-57e086eb4ba1","ios":"levelo://app?vid=dd2ba638-d4f3-4ba6-b901-57e086eb4ba1"},"vehicle_type_id":"4","last_reported":1737972624,"current_range_meters":11200,"station_id":"ce4bhhp2rcd13ifvqfm0","pricing_plan_id":"cebpf4jnsgd1na2vs0mg"},{"bike_id":"9c718178-79c3-4062-b385-95e1401bf217","system_id":"levelo_inurba_marseille","lat":43.301445,"lon":5.380904,"is_reserved":false,"is_disabled":false,"rental_uris":{"android":"levelo://app?vid=9c718178-79c3-4062-b385-95e1401bf217","ios":"levelo://app?vid=9c718178-79c3-4062-b385-95e1401bf217"},"vehicle_type_id":"4","last_reported":1737972624,"current_range_meters":25600,"station_id":"ce4bgjp2rcd13ifvqbh0","pricing_plan_id":"cebpf4jnsgd1na2vs0mg"},{"bike_id":"3d98c6ce-e80d-46e8-b577-648cd8c28632","system_id":"levelo_inurba_marseille","lat":43.34699,"lon":5.34741,"is_reserved":false,"is_disabled":true,"rental_uris":{"android":"levelo://app?vid=3d98c6ce-e80d-46e8-b577-648cd8c28632","ios":"levelo://app?vid=3d98c6ce-e80d-46e8-b577-648cd8c28632"},"vehicle_type_id":"4","last_reported":1737972624,"current_range_meters":0,"station_id":"","pricing_plan_id":"cebpf4jnsgd1na2vs0mg"},{"bike_id":"bc9360b9-fd0e-422d-9782-dd707d319d5c","system_id":"levelo_inurba_marseille","lat":43.30927,"lon":5.36862,"is_reserved":false,"is_disabled":true,"rental_uris":{"android":"levelo://app?vid=bc9360b9-fd0e-422d-9782-dd707d319d5c","ios":"levelo://app?vid=bc9360b9-fd0e-422d-9782-dd707d319d5c"},"vehicle_type_id":"4","last_reported":1737972624,"current_range_meters":35600,"station_id":"ce4bgn92rcd13ifvqbvg","pricing_plan_id":"cebpf4jnsgd1na2vs0mg"},{"bike_id":"e6276f2b-3fdc-4f59-a41b-72f8e6f38021","system_id":"levelo_inurba_marseille","lat":43.29786,"lon":5.38104,"is_reserved":false,"is_disabled":false,"rental_uris":{"android":"levelo://app?vid=e6276f2b-3fdc-4f59-a41b-72f8e6f38021","ios":"levelo://app?vid=e6276f2b-3fdc-4f59-a41b-72f8e6f38021"},"vehicle_type_id":"4","last_reported":1737972624,"current_range_meters":19600,"station_id":"ce4bgip2rcd13ifvqbb0","pricing_plan_id":"cebpf4jnsgd1na2vs0mg"},{"bike_id":"6975cfd6-2081-4544-8ad1-47f93123d5f7","system_id":"levelo_inurba_marseille","lat":43.28715,"lon":5.39992,"is_reserved":false,"is_disabled":false,"rental_uris":{"android":"levelo://app?vid=6975cfd6-2081-4544-8ad1-47f93123d5f7","ios":"levelo://app?vid=6975cfd6-2081-4544-8ad1-47f93123d5f7"},"vehicle_type_id":"4","last_reported":1737972624,"current_range_meters":38800,"station_id":"ce4bho92rcd13ifvqh3g","pricing_plan_id":"cebpf4jnsgd1na2vs0mg"},{"bike_id":"16cba4e1-cb10-44ef-b1a1-eca95385335f","system_id":"levelo_inurba_marseille","lat":43.28415,"lon":5.34989,"is_reserved":false,"is_disabled":true,"rental_uris":{"android":"levelo://app?vid=16cba4e1-cb10-44ef-b1a1-eca95385335f","ios":"levelo://app?vid=16cba4e1-cb10-44ef-b1a1-eca95385335f"},"vehicle_type_id":"4","last_reported":1737972624,"current_range_meters":0,"station_id":"ce4bhbh2rcd13ifvqepg","pricing_plan_id":"cebpf4jnsgd1na2vs0mg"},{"bike_id":"9c6c808c-2344-4484-b654-8a68fb115aa6","system_id":"levelo_inurba_marseille","lat":43.31183,"lon":5.3694,"is_reserved":false,"is_disabled":false,"rental_uris":{"android":"levelo://app?vid=9c6c808c-2344-4484-b654-8a68fb115aa6","ios":"levelo://app?vid=9c6c808c-2344-4484-b654-8a68fb115aa6"},"vehicle_type_id":"4","last_reported":1737972624,"current_range_meters":34800,"station_id":"","pricing_plan_id":"cebpf4jnsgd1na2vs0mg"},{"bike_id":"60f530e1-8cb2-4c58-99fd-6a6d2a354002","system_id":"levelo_inurba_marseille","lat":43.30145,"lon":5.37418,"is_reserved":false,"is_disabled":false,"rental_uris":{"android":"levelo://app?vid=60f530e1-8cb2-4c58-99fd-6a6d2a354002","ios":"levelo://app?vid=60f530e1-8cb2-4c58-99fd-6a6d2a354002"},"vehicle_type_id":"4","last_reported":1737972624,"current_range_meters":18000,"station_id":"ce4bgs92rcd13ifvqcc0","pricing_plan_id":"cebpf4jnsgd1na2vs0mg"},{"bike_id":"01f098f1-d52d-4439-88b6-a1f74c6e591a","system_id":"levelo_inurba_marseille","lat":43.23149,"lon":5.4371,"is_reserved":false,"is_disabled":false,"rental_uris":{"android":"levelo://app?vid=01f098f1-d52d-4439-88b6-a1f74c6e591a","ios":"levelo://app?vid=01f098f1-d52d-4439-88b6-a1f74c6e591a"},"vehicle_type_id":"4","last_reported":1737972624,"current_range_meters":24400,"station_id":"ce4bhmp2rcd13ifvqgog","pricing_plan_id":"cebpf4jnsgd1na2vs0mg"},{"bike_id":"1604ee6e-864e-4c48-962a-2217b8d95b6b","system_id":"levelo_inurba_marseille","lat":43.309,"lon":5.3677,"is_reserved":false,"is_disabled":false,"rental_uris":{"android":"levelo://app?vid=1604ee6e-864e-4c48-962a-2217b8d95b6b","ios":"levelo://app?vid=1604ee6e-864e-4c48-962a-2217b8d95b6b"},"vehicle_type_id":"4","last_reported":1737972624,"current_range_meters":28000,"station_id":"","pricing_plan_id":"cebpf4jnsgd1na2vs0mg"},{"bike_id":"8fc5f132-29ed-47c1-bff0-bf17728d82ae","system_id":"levelo_inurba_marseille","lat":43.29357,"lon":5.37885,"is_reserved":false,"is_disabled":true,"rental_uris":{"android":"levelo://app?vid=8fc5f132-29ed-47c1-bff0-bf17728d82ae","ios":"levelo://app?vid=8fc5f132-29ed-47c1-bff0-bf17728d82ae"},"vehicle_type_id":"4","last_reported":1737972624,"current_range_meters":30000,"station_id":"ce4bgjh2rcd13ifvqbf0","pricing_plan_id":"cebpf4jnsgd1na2vs0mg"},{"bike_id":"b93508a9-7285-4064-afc8-6c7fe626dbd5","system_id":"levelo_inurba_marseille","lat":43.30451,"lon":5.37917,"is_reserved":false,"is_disabled":false,"rental_uris":{"android":"levelo://app?vid=b93508a9-7285-4064-afc8-6c7fe626dbd5","ios":"levelo://app?vid=b93508a9-7285-4064-afc8-6c7fe626dbd5"},