{"last_updated":1747602514,"ttl":60,"version":"2.2","data":{"bikes":[{"bike_id":"3b843dca-d67a-4b0e-916b-710ebb36ec6d","system_id":"levelo_inurba_marseille","lat":43.32509,"lon":5.40137,"is_reserved":false,"is_disabled":true,"rental_uris":{"android":"levelo://app?vid=3b843dca-d67a-4b0e-916b-710ebb36ec6d","ios":"levelo://app?vid=3b843dca-d67a-4b0e-916b-710ebb36ec6d"},"vehicle_type_id":"4","last_reported":1747602514,"current_range_meters":2800,"station_id":"","pricing_plan_id":"cebpf4jnsgd1na2vs0mg"},{"bike_id":"1b943774-7fad-488b-858c-6c8700eaf739","system_id":"levelo_inurba_marseille","lat":43.29928,"lon":5.38124,"is_reserved":false,"is_disabled":true,"rental_uris":{"android":"levelo://app?vid=1b943774-7fad-488b-858c-6c8700eaf739","ios":"levelo://app?vid=1b943774-7fad-488b-858c-6c8700eaf739"},"vehicle_type_id":"4","last_reported":1747602514,"current_range_meters":2800,"station_id":"ce4bgj12rcd13ifvqbc0","pricing_plan_id":"cebpf4jnsgd1na2vs0mg"},{"bike_id":"70f1f2ca-adc9-43a2-9a83-560e63eddc37","system_id":"levelo_inurba_marseille","lat":43.2895,"lon":5.36398,"is_reserved":false,"is_disabled":true,"rental_uris":{"android":"levelo://app?vid=70f1f2ca-adc9-43a2-9a83-560e63eddc37","ios":"levelo://app?vid=70f1f2ca-adc9-43a2-9a83-560e63eddc37"},"vehicle_type_id":"4","last_reported":1747602514,"current_range_meters":2800,"station_id":"ce4bhc92rcd13ifvqetg","pricing_plan_id":"cebpf4jnsgd1na2vs0mg"},{"bike_id":"aa1d8c1e-7594-4615-aa13-56fdebb973d7","system_id":"levelo_inurba_marseille","lat":43.26886,"lon":5.39111,"is_reserved":false,"is_disabled":false,"rental_uris":{"android":"levelo://app?vid=aa1d8c1e-7594-4615-aa13-56fdebb973d7","ios":"levelo://app?vid=aa1d8c1e-7594-4615-aa13-56fdebb973d7"},"vehicle_type_id":"4","last_reported":1747602514,"current_range_meters":3200,"station_id":"","pricing_plan_id":"cebpf4jnsgd1na2vs0mg"},{"bike_id":"0554aadb-3cfb-43bd-84e2-40c4fa9feaae","system_id":"levelo_inurba_marseille","lat":43.27993,"lon":5.40011,"is_reserved":false,"is_disabled":false,"rental_uris":{"android":"levelo://app?vid=0554aadb-3cfb-43bd-84e2-40c4fa9feaae","ios":"levelo://app?vid=0554aadb-3cfb-43bd-84e2-40c4fa9feaae"},"vehicle_type_id":"4","last_reported":1747602514,"current_range_meters":3200,"station_id":"ce4bho92rcd13ifvqh4g","pricing_plan_id":"cebpf4jnsgd1na2vs0mg"},{"bike_id":"164f210d-05d6-4c74-85f1-414474f5864b","system_id":"levelo_inurba_marseille","lat":43.28134,"lon":5.42627,"is_reserved":false,"is_disabled":false,"rental_uris":{"android":"levelo://app?vid=164f210d-05d6-4c74-85f1-414474f5864b","ios":"levelo://app?vid=164f210d-05d6-4c74-85f1-414474f5864b"},"vehicle_type_id":"4","last_reported":1747602514,"current_range_meters":3600,"station_id":"ce4bhnh2rcd13ifvqgug","pricing_plan_id":"cebpf4jnsgd1na2vs0mg"},{"bike_id":"34a50d07-14b8-4d27-9d94-c1996d01cc8d","system_id":"levelo_inurba_marseille","lat":43.27937,"lon":5.41033,"is_reserved":false,"is_disabled":false,"rental_uris":{"android":"levelo://app?vid=34a50d07-14b8-4d27-9d94-c1996d01cc8d","ios":"levelo://app?vid=34a50d07-14b8-4d27-9d94-c1996d01cc8d"},"vehicle_type_id":"4","last_reported":1747602514,"current_range_meters":3600,"station_id":"ce4bhnp2rcd13ifvqh0g","pricing_plan_id":"cebpf4jnsgd1na2vs0mg"},{"bike_id":"c1b9fa33-9c2d-40ce-9979-b53b7ae668ed","system_id":"levelo_inurba_marseille","lat":43.281505,"lon":5.42631,"is_reserved":false,"is_disabled":true,"rental_uris":{"android":"levelo://app?vid=c1b9fa33-9c2d-40ce-9979-b53b7ae668ed","ios":"levelo://app?vid=c1b9fa33-9c2d-40ce-9979-b53b7ae668ed"},"vehicle_type_id":"4","last_reported":1747602514,"current_range_meters":3600,"station_id":"ce4bhnh2rcd13ifvqgug","pricing_plan_id":"cebpf4jnsgd1na2vs0mg"},{"bike_id":"ad201fd8-43d4-4e13-b393-60400b28cd6f","system_id":"levelo_inurba_marseille","lat":43.23947,"lon":5.37827,"is_reserved":false,"is_disabled":false,"rental_uris":{"android":"levelo://app?vid=ad201fd8-43d4-4e13-b393-60400b28cd6f","ios":"levelo://app?vid=ad201fd8-43d4-4e13-b393-60400b28cd6f"},"vehicle_type_id":"4","last_reported":1747602514,"current_range_meters":4400,"station_id":"ce4bhnp2rcd13ifvqgvg","pricing_plan_id":"cebpf4jnsgd1na2vs0mg"},{"bike_id":"b05b1f64-0753-4df6-9d99-52c918cd47ad","system_id":"levelo_inurba_marseille","lat":43.29046,"lon":5.39951,"is_reserved":false,"is_disabled":true,"rental_uris":{"android":"levelo://app?vid=b05b1f64-0753-4df6-9d99-52c918cd47ad","ios":"levelo://app?vid=b05b1f64-0753-4df6-9d99-52c918cd47ad"},"vehicle_type_id":"4","last_reported":1747602514,"current_range_meters":4400,"station_id":"ce4bh392rcd13ifvqdm0","pricing_plan_id":"cebpf4jnsgd1na2vs0mg"},{"bike_id":"b1e588a8-6868-4632-aaf7-01c00ab698a5","system_id":"levelo_inurba_marseille","lat":43.279417,"lon":5.410392,"is_reserved":false,"is_disabled":false,"rental_uris":{"android":"levelo://app?vid=b1e588a8-6868-4632-aaf7-01c00ab698a5","ios":"levelo://app?vid=b1e588a8-6868-4632-aaf7-01c00ab698a5"},"vehicle_type_id":"4","last_reported":1747602514,"current_range_meters":4400,"station_id":"ce4bhnp2rcd13ifvqh0g","pricing_plan_id":"cebpf4jnsgd1na2vs0mg"},{"bike_id":"b8e6468b-87db-4ff6-8122-ef13bf5b7c8c","system_id":"levelo_inurba_marseille","lat":43.31379,"lon":5.37916,"is_reserved":false,"is_disabled":false,"rental_uris":{"android":"levelo://app?vid=b8e6468b-87db-4ff6-8122-ef13bf5b7c8c","ios":"levelo://app?vid=b8e6468b-87db-4ff6-8122-ef13bf5b7c8c"},"vehicle_type_id":"4","last_reported":1747602514,"current_range_meters":5600,"station_id":"","pricing_plan_id":"cebpf4jnsgd1na2vs0mg"},{"bike_id":"c99e3425-aa03-474f-a492-40b1e9776c52","system_id":"levelo_inurba_marseille","lat":43.27917,"lon":5.39586,"is_reserved":false,"is_disabled":false,"rental_uris":{"android":"levelo://app?vid=c99e3425-aa03-474f-a492-40b1e9776c52","ios":"levelo://app?vid=c99e3425-aa03-474f-a492-40b1e9776c52"},"vehicle_type_id":"4","last_reported":1747602514,"current_range_meters":5600,"station_id":"ce4bhf92rcd13ifvqf40","pricing_plan_id":"cebpf4jnsgd1na2vs0mg"},{"bike_id":"af2f3908-848e-4879-9c80-b3ddea1b7f0a","system_id":"levelo_inurba_marseille","lat":43.3122,"lon":5.38755,"is_reserved":false,"is_disabled":true,"rental_uris":{"android":"levelo://app?vid=af2f3908-848e-4879-9c80-b3ddea1b7f0a","ios":"levelo://app?vid=af2f3908-848e-4879-9c80-b3ddea1b7f0a"},"vehicle_type_id":"4","last_reported":1747602514,"current_range_meters":5600,"station_id":"","pricing_plan_id":"cebpf4jnsgd1na2vs0mg"},{"bike_id":"398a8fd1-747d-4b0d-84d1-22519fee4719","system_id":"levelo_inurba_marseille","lat":43.27379,"lon":5.36245,"is_reserved":false,"is_disabled":true,"rental_uris":{"android":"levelo://app?vid=398a8fd1-747d-4b0d-84d1-22519fee4719","ios":"levelo://app?vid=398a8fd1-747d-4b0d-84d1-22519fee4719"},"vehicle_type_id":"4","last_reported":1747602514,"current_range_meters":6000,"station_id":"ce4bhbh2rcd13ifvqeo0","pricing_plan_id":"cebpf4jnsgd1na2vs0mg"},{"bike_id":"1c03bd5a-9af5-4f8d-ac22-134ae538c3b5","system_id":"levelo_inurba_marseille","lat":43.23205,"lon":5.39976,"is_reserved":false,"is_disabled":false,"rental_uris":{"android":"levelo://app?vid=1c03bd5a-9af5-4f8d-ac22-134ae538c3b5","ios":"levelo://app?vid=1c03bd5a-9af5-4f8d-ac22-134ae538c3b5"},"vehicle_type_id":"4","last_reported":1747602514,"current_range_meters":6000,"station_id":"ce4bhn12rcd13ifvqgqg","pricing_plan_id":"cebpf4jnsgd1na2vs0mg"},{"bike_id":"1381bd49-568c-425f-bcfd-260613800bb1","system_id":"levelo_inurba_marseille","lat":43.27421,"lon":5.39412,"is_reserved":false,"is_disabled":false,"rental_uris":{"android":"levelo://app?vid=1381bd49-568c-425f-bcfd-260613800bb1","ios":"levelo://app?vid=1381bd49-568c-425f-bcfd-260613800bb1"},"vehicle_type_id":"4","last_reported":1747602514,"current_range_meters":6000,"station_id":"ce4bhdp2rcd13ifvqf20","pricing_plan_id":"cebpf4jnsgd1na2vs0mg"},{"bike_id":"cba2067c-a08b-479c-8b0b-7aae2b36b17b","system_id":"levelo_inurba_marseille","lat":43.24103,"lon":5.37732,"is_reserved":false,"is_disabled":false,"rental_uris":{"android":"levelo://app?vid=cba2067c-a08b-479c-8b0b-7aae2b36b17b","ios":"levelo://app?vid=cba2067c-a08b-479c-8b0b-7aae2b36b17b"},"vehicle_type_id":"4","last_reported":1747602514,"current_range_meters":6000,"station_id":"ce4bhnp2rcd13ifvqgvg","pricing_plan_id":"cebpf4jnsgd1na2vs0mg"},{"bike_id":"6b849ac5-c25f-4393-bc5a-47493e693ba8","system_id":"levelo_inurba_marseille","lat":43.241644,"lon":5.364037,"is_reserved":false,"is_disabled":true,"rental_uris":{"android":"levelo://app?vid=6b849ac5-c25f-4393-bc5a-47493e693ba8","ios":"levelo://app?vid=6b849ac5-c25f-4393-bc5a-47493e693ba8"},"vehicle_type_id":"4","last_reported":1747602514,"current_range_meters":6000,"station_id":"cpo36qri1sfpv3e86is0","pricing_plan_id":"cebpf4jnsgd1na2vs0mg"},{"bike_id":"ce26ef1d-ff9f-41bc-80a0-66e3580955b1","system_id":"levelo_inurba_marseille","lat":43.29261,"lon":5.40902,"is_reserved":false,"is_disabled":false,"rental_uris":{"android":"levelo://app?vid=ce26ef1d-ff9f-41bc-80a0-66e3580955b1","ios":"levelo://app?vid=ce26ef1d-ff9f-41bc-80a0-66e3580955b1"},"vehicle_type_id":"4","last_reported":1747602514,"current_range_meters":5600,"station_id":"ce4bh192rcd13ifvqdc0","pricing_plan_id":"cebpf4jnsgd1na2vs0mg"},{"bike_id":"d2840165-1c23-431e-aa0b-16b735842f8a","system_id":"levelo_inurba_marseille","lat":43.28081,"lon":5.39658,"is_reserved":false,"is_disabled":false,"rental_uris":{"android":"levelo://app?vid=d2840165-1c23-431e-aa0b-16b735842f8a","ios":"levelo://app?vid=d2840165-1c23-431e-aa0b-16b735842f8a"},"vehicle_type_id":"4","last_reported":1747602514,"current_range_meters":6400,"station_id":"ce4bho12rcd13ifvqh2g","pricing_plan_id":"cebpf4jnsgd1na2vs0mg"},{"bike_id":"aa3bef31-ed81-4e5b-8311-6fffece70997","system_id":"levelo_inurba_marseille","lat":43.231976,"lon":5.355551,"is_reserved":false,"is_disabled":false,"rental_uris":{"android":"levelo://app?vid=aa3bef31-ed81-4e5b-8311-6fffece70997","ios":"levelo://app?vid=aa3bef31-ed81-4e5b-8311-6fffece70997"},"vehicle_type_id":"4","last_reported":1747602514,"current_range_meters":6400,"station_id":"ce4bhu92rcd13ifvqi70","pricing_plan_id":"cebpf4jnsgd1na2vs0mg"},{"bike_id":"54510974-805e-44ca-aeed-f6f214315efd","system_id":"levelo_inurba_marseille","lat":43.2712,"lon":5.39893,"is_reserved":false,"is_disabled":false,"rental_uris":{"android":"levelo://app?vid=54510974-805e-44ca-aeed-f6f214315efd","ios":"levelo://app?vid=54510974-805e-44ca-aeed-f6f214315efd"},"vehicle_type_id":"4","last_reported":1747602514,"current_range_meters":6400,"station_id":"","pricing_plan_id":"cebpf4jnsgd1na2vs0mg"},{"bike_id":"bfe448fb-2f91-4bfc-9f87-682acde35158","system_id":"levelo_inurba_marseille","lat":43.26185,"lon":5.37451,"is_reserved":false,"is_disabled":true,"rental_uris":{"android":"levelo://app?vid=bfe448fb-2f91-4bfc-9f87-682acde35158","ios":"levelo://app?vid=bfe448fb-2f91-4bfc-9f87-682acde35158"},"vehicle_type_id":"4","last_reported":1747602514,"current_range_meters":6400,"station_id":"ce4bhgp2rcd13ifvqfc0","pricing_plan_id":"cebpf4jnsgd1na2vs0mg"},{"bike_id":"7a82397e-c258-4325-b836-1bc38b80aab5","system_id":"levelo_inurba_marseille","lat":43.24126,"lon":5.37731,"is_reserved":false,"is_disabled":false,"rental_uris":{"android":"levelo://app?vid=7a82397e-c258-4325-b836-1bc38b80aab5","ios":"levelo://app?vid=7a82397e-c258-4325-b836-1bc38b80aab5"},"vehicle_type_id":"4","last_reported":1747602514,"current_range_meters":6800,"station_id":"ce4bhnp2rcd13ifvqgvg","pricing_plan_id":"cebpf4jnsgd1na2vs0mg"},{"bike_id":"1f539f46-b374-4bb3-88ca-7a79668a9645","system_id":"levelo_inurba_marseille","lat":43.30808,"lon":5.38136,"is_reserved":false,"is_disabled":false,"rental_uris":{"android":"levelo://app?vid=1f539f46-b374-4bb3-88ca-7a79668a9645","ios":"levelo://app?vid=1f539f46-b374-4bb3-88ca-7a79668a9645"},"vehicle_type_id":"4","last_reported":1747602514,"current_range_meters":6400,"station_id":"ce4bgt12rcd13ifvqce0","pricing_plan_id":"cebpf4jnsgd1na2vs0mg"},{"bike_id":"5a072e05-abdf-458e-81d4-7b25d867d9cb","system_id":"levelo_inurba_marseille","lat":43.29363,"lon":5.37852,"is_reserved":false,"is_disabled":false,"rental_uris":{"android":"levelo://app?vid=5a072e05-abdf-458e-81d4-7b25d867d9cb","ios":"levelo://app?vid=5a072e05-abdf-458e-81d4-7b25d867d9cb"},"vehicle_type_id":"4","last_reported":1747602514,"current_range_meters":6000,"station_id":"ce4bgjh2rcd13ifvqbf0","pricing_plan_id":"cebpf4jnsgd1na2vs0mg"},{"bike_id":"b934e6da-efb5-4ac5-a51a-eb50220f6e1b","system_id":"levelo_inurba_marseille","lat":43.26946,"lon":5.40614,"is_reserved":false,"is_disabled":true,"rental_uris":{"android":"levelo://app?vid=b934e6da-efb5-4ac5-a51a-eb50220f6e1b","ios":"levelo://app?vid=b934e6da-efb5-4ac5-a51a-eb50220f6e1b"},"vehicle_type_id":"4","last_reported":1747602514,"current_range_meters":7200,"station_id":"","pricing_plan_id":"cebpf4jnsgd1na2vs0mg"},{"bike_id":"c0db4030-ef30-480b-a735-af5435a471ed","system_id":"levelo_inurba_marseille","lat":43.2777,"lon":5.42664,"is_reserved":false,"is_disabled":false,"rental_uris":{"android":"levelo://app?vid=c0db4030-ef30-480b-a735-af5435a471ed","ios":"levelo://app?vid=c0db4030-ef30-480b-a735-af5435a471ed"},"vehicle_type_id":"4","last_reported":1747602514,"current_range_meters":7200,"station_id":"","pricing_plan_id":"cebpf4jnsgd1na2vs0mg"},{"bike_id":"9be12a09-efe5-495b-8ec3-e7e0d7473370","system_id":"levelo_inurba_marseille","lat":43.295979,"lon":5.381014,"is_reserved":false,"is_disabled":true,"rental_uris":{"android":"levelo://app?vid=9be12a09-efe5-495b-8ec3-e7e0d7473370","ios":"levelo://app?vid=9be12a09-efe5-495b-8ec3-e7e0d7473370"},"vehicle_type_id":"4","last_reported":1747602514,"current_range_meters":7200,"station_id":"ce4bgl12rcd13ifvqbo0","pricing_plan_id":"cebpf4jnsgd1na2vs0mg"},{"bike_id":"e5c8a2b0-e20c-401e-819e-2833d3af4a7a","system_id":"levelo_inurba_marseille","lat":43.27492,"lon":5.42458,"is_reserved":false,"is_disabled":false,"rental_uris":{"android":"levelo://app?vid=e5c8a2b0-e20c-401e-819e-2833d3af4a7a","ios":"levelo://app?vid=e5c8a2b0-e20c-401e-819e-2833d3af4a7a"},"vehicle_type_id":"4","last_reported":1747602514,"current_range_meters":7200,"station_id":"ce4bhn92rcd13ifvqgrg","pricing_plan_id":"cebpf4jnsgd1na2vs0mg"},{"bike_id":"0c2b5650-b63e-432a-a802-72710d7a63b5","system_id":"levelo_inurba_marseille","lat":43.27931,"lon":5.39578,"is_reserved":false,"is_disabled":false,"rental_uris":{"android":"levelo://app?vid=0c2b5650-b63e-432a-a802-72710d7a63b5","ios":"levelo://app?vid=0c2b5650-b63e-432a-a802-72710d7a63b5"},"vehicle_type_id":"4","last_reported":1747602514,"current_range_meters":7200,"station_id":"ce4bhf92rcd13ifvqf40","pricing_plan_id":"cebpf4jnsgd1na2vs0mg"},{"bike_id":"12569b35-d33a-407b-80dd-e3c1ef7409ca","system_id":"levelo_inurba_marseille","lat":43.30358,"lon":5.400865,"is_reserved":false,"is_disabled":false,"rental_uris":{"android":"levelo://app?vid=12569b35-d33a-407b-80dd-e3c1ef7409ca","ios":"levelo://app?vid=12569b35-d33a-407b-80dd-e3c1ef7409ca"},"vehicle_type_id":"4","last_reported":1747602514,"current_range_meters":5600,"station_id":"ce4bgvp2rcd13ifvqct0","pricing_plan_id":"cebpf4jnsgd1na2vs0mg"},{"bike_id":"0fb02880-5c6e-4026-9e4a-07529c572b44","system_id":"levelo_inurba_marseille","lat":43.25492,"lon":5.37388,"is_reserved":false,"is_disabled":false,"rental_uris":{"android":"levelo://app?vid=0fb02880-5c6e-4026-9e4a-07529c572b44","ios":"levelo://app?vid=0fb02880-5c6e-4026-9e4a-07529c572b44"},"vehicle_type_id":"4","last_reported":1747602514,"current_range_meters":8000,"station_id":"","pricing_plan_id":"cebpf4jnsgd1na2vs0mg"},{"bike_id":"fee08e6f-b10c-44dd-a463-829384ac1a9b","system_id":"levelo_inurba_marseille","lat":43.28703,"lon":5.374,"is_reserved":false,"is_disabled":false,"rental_uris":{"android":"levelo://app?vid=fee08e6f-b10c-44dd-a463-829384ac1a9b","ios":"levelo://app?vid=fee08e6f-b10c-44dd-a463-829384ac1a9b"},"vehicle_type_id":"4","last_reported":1747602514,"current_range_meters":8000,"station_id":"ce4bh3p2rcd13ifvqdq0","pricing_plan_id":"cebpf4jnsgd1na2vs0mg"},{"bike_id":"cbef9dc4-2cb3-4c71-9588-71406cbd38f4","system_id":"levelo_inurba_marseille","lat":43.271303,"lon":5.386191,"is_reserved":false,"is_disabled":false,"rental_uris":{"android":"levelo://app?vid=cbef9dc4-2cb3-4c71-9588-71406cbd38f4","ios":"levelo://app?vid=cbef9dc4-2cb3-4c71-9588-71406cbd38f4"},"vehicle_type_id":"4","last_reported":1747602514,"current_range_meters":6800,"station_id":"ce4bhh92rcd13ifvqfi0","pricing_plan_id":"cebpf4jnsgd1na2vs0mg"},{"bike_id":"b1e6675a-64b4-4fbc-a190-c2fdd07f79bd","system_id":"levelo_inurba_marseille","lat":43.34143,"lon":5.408948,"is_reserved":false,"is_disabled":false,"rental_uris":{"android":"levelo://app?vid=b1e6675a-64b4-4fbc-a190-c2fdd07f79bd","ios":"levelo://app?vid=b1e6675a-64b4-4fbc-a190-c2fdd07f79bd"},"vehicle_type_id":"4","last_reported":1747602514,"current_range_meters":8400,"station_id":"ce4bhqh2rcd13ifvqhlg","pricing_plan_id":"cebpf4jnsgd1na2vs0mg"},{"bike_id":"2eab994d-a378-4391-894b-b62d11a34041","system_id":"levelo_inurba_marseille","lat":43.23199,"lon":5.43663,"is_reserved":false,"is_disabled":true,"rental_uris":{"android":"levelo://app?vid=2eab994d-a378-4391-894b-b62d11a34041","ios":"levelo://app?vid=2eab994d-a378-4391-894b-b62d11a34041"},"vehicle_type_id":"4","last_reported":1747602514,"current_range_meters":8400,"station_id":"","pricing_plan_id":"cebpf4jnsgd1na2vs0mg"},{"bike_id":"3dbf4202-6716-451d-aeb1-f268340013a7","system_id":"levelo_inurba_marseille","lat":43.31494,"lon":5.37281,"is_reserved":false,"is_disabled":true,"rental_uris":{"android":"levelo://app?vid=3dbf4202-6716-451d-aeb1-f268340013a7","ios":"levelo://app?vid=3dbf4202-6716-451d-aeb1-f268340013a7"},"vehicle_type_id":"4","last_reported":1747602514,"current_range_meters":8400,"station_id":"ce4bgt12rcd13ifvqcd0","pricing_plan_id":"cebpf4jnsgd1na2vs0mg"},{"bike_id":"1095c8be-c665-4dc2-8f08-f6b53f28326d","system_id":"levelo_inurba_marseille","lat":43.28659,"lon":5.3636,"is_reserved":false,"is_disabled":false,"rental_uris":{"android":"levelo://app?vid=1095c8be-c665-4dc2-8f08-f6b53f28326d","ios":"levelo://app?vid=1095c8be-c665-4dc2-8f08-f6b53f28326d"},"vehicle_type_id":"4","last_reported":1747602514,"current_range_meters":8400,"station_id":"ce4bhah2rcd13ifvqej0","pricing_plan_id":"cebpf4jnsgd1na2vs0mg"},{"bike_id":"b3d3c3ee-d31e-42f9-8725-23762e5459dc","system_id":"levelo_inurba_marseille","lat":43.31705,"lon":5.3776,"is_reserved":false,"is_disabled":false,"rental_uris":{"android":"levelo://app?vid=b3d3c3ee-d31e-42f9-8725-23762e5459dc","ios":"levelo://app?vid=b3d3c3ee-d31e-42f9-8725-23762e5459dc"},"vehicle_type_id":"4","last_reported":1747602514,"current_range_meters":8400,"station_id":"ce4bgth2rcd13ifvqch0","pricing_plan_id":"cebpf4jnsgd1na2vs0mg"},{"bike_id":"f60d54d7-a18a-4c4a-84f4-bfe11384b4dd","system_id":"levelo_inurba_marseille","lat":43.28558,"lon":5.39466,"is_reserved":false,"is_disabled":false,"rental_uris":{"android":"levelo://app?vid=f60d54d7-a18a-4c4a-84f4-bfe11384b4dd","ios":"levelo://app?vid=f60d54d7-a18a-4c4a-84f4-bfe11384b4dd"},"vehicle_type_id":"4","last_reported":1747602514,"current_range_meters":8400,"station_id":"ce4bh292rcd13ifvqdg0","pricing_plan_id":"cebpf4jnsgd1na2vs0mg"},{"bike_id":"caf4c81d-8b81-4d8d-a4f9-9d00bac7ad70","system_id":"levelo_inurba_marseille","lat":43.307858,"lon":5.427688,"is_reserved":false,"is_disabled":false,"rental_uris":{"android":"levelo://app?vid=caf4c81d-8b81-4d8d-a4f9-9d00bac7ad70","ios":"levelo://app?vid=caf4c81d-8b81-4d8d-a4f9-9d00bac7ad70"},"vehicle_type_id":"4","last_reported":1747602514,"current_range_meters":8400,"station_id":"","pricing_plan_id":"cebpf4jnsgd1na2vs0mg"},{"bike_id":"0942a4e0-09d2-4a94-9ccc-136b2604fc2e","system_id":"levelo_inurba_marseille","lat":43.24073,"lon":5.37767,"is_reserved":false,"is_disabled":false,"rental_uris":{"android":"levelo://app?vid=0942a4e0-09d2-4a94-9ccc-136b2604fc2e","ios":"levelo://app?vid=0942a4e0-09d2-4a94-9ccc-136b2604fc2e"},"vehicle_type_id":"4","last_reported":1747602514,"current_range_meters":8400,"station_id":"ce4bhnp2rcd13ifvqgvg","pricing_plan_id":"cebpf4jnsgd1na2vs0mg"},{"bike_id":"752fccba-7c8c-4704-a985-695310354a1c","system_id":"levelo_inurba_marseille","lat":43.31535,"lon":5.38034,"is_reserved":false,"is_disabled":false,"rental_uris":{"android":"levelo://app?vid=752fccba-7c8c-4704-a985-695310354a1c","ios":"levelo://app?vid=752fccba-7c8c-4704-a985-695310354a1c"},"vehicle_type_id":"4","last_reported":1747602514,"current_range_meters":8400,"station_id":"ce4bhsp2rcd13ifvqi50","pricing_plan_id":"cebpf4jnsgd1na2vs0mg"},{"bike_id":"14603e41-b2dd-4757-a53c-2e366aa4f983","system_id":"levelo_inurba_marseille","lat":43.26997,"lon":5.42837,"is_reserved":false,"is_disabled":false,"rental_uris":{"android":"levelo://app?vid=14603e41-b2dd-4757-a53c-2e366aa4f983","ios":"levelo://app?vid=14603e41-b2dd-4757-a53c-2e366aa4f983"},"vehicle_type_id":"4","last_reported":1747602514,"current_range_meters":8400,"station_id":"","pricing_plan_id":"cebpf4jnsgd1na2vs0mg"},{"bike_id":"7d080336-5a2d-419d-8d50-e49d93450255","system_id":"levelo_inurba_marseille","lat":43.29176,"lon":5.37137,"is_reserved":false,"is_disabled":true,"rental_uris":{"android":"levelo://app?vid=7d080336-5a2d-419d-8d50-e49d93450255","ios":"levelo://app?vid=7d080336-5a2d-419d-8d50-e49d93450255"},"vehicle_type_id":"4","last_reported":1747602514,"current_range_meters":8800,"station_id":"ce4bha92rcd13ifvqeh0","pricing_plan_id":"cebpf4jnsgd1na2vs0mg"},{"bike_id":"67f72f62-eb9d-4994-bbcf-c10b28dd838c","system_id":"levelo_inurba_marseille","lat":43.26602,"lon":5.39339,"is_reserved":false,"is_disabled":false,"rental_uris":{"android":"levelo://app?vid=67f72f62-eb9d-4994-bbcf-c10b28dd838c","ios":"levelo://app?vid=67f72f62-eb9d-4994-bbcf-c10b28dd838c"},"vehicle_type_id":"4","last_reported":1747602514,"current_range_meters":8800,"station_id":"","pricing_plan_id":"cebpf4jnsgd1na2vs0mg"},{"bike_id":"ffc3ddf2-0082-4578-9e25-c91f5b4279bc","system_id":"levelo_inurba_marseille","lat":43.2832,"lon":5.41128,"is_reserved":false,"is_disabled":false,"rental_uris":{"android":"levelo://app?vid=ffc3ddf2-0082-4578-9e25-c91f5b4279bc","ios":"levelo://app?vid=ffc3ddf2-0082-4578-9e25-c91f5b4279bc"},"vehicle_type_id":"4","last_reported":1747602514,"current_range_meters":8800,"station_id":"","pricing_plan_id":"cebpf4jnsgd1na2vs0mg"},{"bike_id":"43b47f55-f2d2-49ee-8f5f-b100c45adb99","system_id":"levelo_inurba_marseille","lat":43.3093,"lon":5.40148,"is_reserved":false,"is_disabled":false,"rental_uris":{"android":"levelo://app?vid=43b47f55-f2d2-49ee-8f5f-b100c45adb99","ios":"levelo://app?vid=43b47f55-f2d2-49ee-8f5f-b100c45adb99"},"vehicle_type_id":"4","last_reported":1747602514,"current_range_meters":8800,"station_id":"ce4bgvp2rcd13ifvqct0","pricing_plan_id":"cebpf4jnsgd1na2vs0mg"},{"bike_id":"dca0eb48-1b46-4427-85a4-61632008454f","system_id":"levelo_inurba_marseille","lat":43.2791,"lon":5.3801,"is_reserved":false,"is_disabled":false,"rental_uris":{"android":"levelo://app?vid=dca0eb48-1b46-4427-85a4-61632008454f","ios":"levelo://app?vid=dca0eb48-1b46-4427-85a4-61632008454f"},"vehicle_type_id":"4","last_reported":1747602514,"current_range_meters":8800,"station_id":"ce4bhf92rcd13ifvqf50","pricing_plan_id":"cebpf4jnsgd1na2vs0mg"},{"bike_id":"ca2a3cd1-9e0f-47c5-bfeb-3862db0c259f","system_id":"levelo_inurba_marseille","lat":43.309639,"lon":5.402077,"is_reserved":false,"is_disabled":false,"rental_uris":{"android":"levelo://app?vid=ca2a3cd1-9e0f-47c5-bfeb-3862db0c259f","ios":"levelo://app?vid=ca2a3cd1-9e0f-47c5-bfeb-3862db0c259f"},"vehicle_type_id":"4","last_reported":1747602514,"current_range_meters":9200,"station_id":"ce4bgvp2rcd13ifvqct0","pricing_plan_id":"cebpf4jnsgd1na2vs0mg"},{"bike_id":"88c266e6-7038-494f-b358-90ca603fb435","system_id":"levelo_inurba_marseille","lat":43.29601,"lon":5.3748,"is_reserved":false,"is_disabled":true,"rental_uris":{"android":"levelo://app?vid=88c266e6-7038-494f-b358-90ca603fb435","ios":"levelo://app?vid=88c266e6-7038-494f-b358-90ca603fb435"},"vehicle_type_id":"4","last_reported":1747602514,"current_range_meters":9200,"station_id":"ce4bgh92rcd13ifvqb50","pricing_plan_id":"cebpf4jnsgd1na2vs0mg"},{"bike_id":"1b2f0e19-c9dc-4000-8367-67c619535c14","system_id":"levelo_inurba_marseille","lat":43.299538,"lon":5.365228,"is_reserved":false,"is_disabled":true,"rental_uris":{"android":"levelo://app?vid=1b2f0e19-c9dc-4000-8367-67c619535c14","ios":"levelo://app?vid=1b2f0e19-c9dc-4000-8367-67c619535c14"},"vehicle_type_id":"4","last_reported":1747602514,"current_range_meters":9200,"station_id":"ce4bgm92rcd13ifvqbr0","pricing_plan_id":"cebpf4jnsgd1na2vs0mg"},{"bike_id":"e0aefe02-3904-4167-89eb-23f17215c6a8","system_id":"levelo_inurba_marseille","lat":43.29895,"lon":5.38894,"is_reserved":false,"is_disabled":false,"rental_uris":{"android":"levelo://app?vid=e0aefe02-3904-4167-89eb-23f17215c6a8","ios":"levelo://app?vid=e0aefe02-3904-4167-89eb-23f17215c6a8"},"vehicle_type_id":"4","last_reported":1747602514,"current_range_meters":8800,"station_id":"ce4bh392rcd13ifvqdl0","pricing_plan_id":"cebpf4jnsgd1na2vs0mg"},{"bike_id":"6e1bd625-3ec1-43df-9657-36d71ae09f8d","system_id":"levelo_inurba_marseille","lat":43.33748,"lon":5.37479,"is_reserved":false,"is_disabled":false,"rental_uris":{"android":"levelo://app?vid=6e1bd625-3ec1-43df-9657-36d71ae09f8d","ios":"levelo://app?vid=6e1bd625-3ec1-43df-9657-36d71ae09f8d"},"vehicle_type_id":"4","last_reported":1747602514,"current_range_meters":9200,"station_id":"","pricing_plan_id":"cebpf4jnsgd1na2vs0mg"},{"bike_id":"bad86af2-0ffe-4b1f-923c-e1a8ba9fe0ac","system_id":"levelo_inurba_marseille","lat":43.29273,"lon":5.40115,"is_reserved":false,"is_disabled":false,"rental_uris":{"android":"levelo://app?vid=bad86af2-0ffe-4b1f-923c-e1a8ba9fe0ac","ios":"levelo://app?vid=bad86af2-0ffe-4b1f-923c-e1a8ba9fe0ac"},"vehicle_type_id":"4","last_reported":1747602514,"current_range_meters":9200,"station_id":"ce4bh312rcd13ifvqdk0","pricing_plan_id":"cebpf4jnsgd1na2vs0mg"},{"bike_id":"eb2c2731-2edc-4d41-9768-74e49a367a23","system_id":"levelo_inurba_marseille","lat":43.31075,"lon":5.38353,"is_reserved":false,"is_disabled":false,"rental_uris":{"android":"levelo://app?vid=eb2c2731-2edc-4d41-9768-74e49a367a23","ios":"levelo://app?vid=eb2c2731-2edc-4d41-9768-74e49a367a23"},"vehicle_type_id":"4","last_reported":1747602514,"current_range_meters":9200,"station_id":"ce4bgv92rcd13ifvqcr0","pricing_plan_id":"cebpf4jnsgd1na2vs0mg"},{"bike_id":"9dbadacf-fbbb-4744-b239-0fae16a8ed75","system_id":"levelo_inurba_marseille","lat":43.270522,"lon":5.402546,"is_reserved":false,"is_disabled":false,"rental_uris":{"android":"levelo://app?vid=9dbadacf-fbbb-4744-b239-0fae16a8ed75","ios":"levelo://app?vid=9dbadacf-fbbb-4744-b239-0fae16a8ed75"},"vehicle_type_id":"4","last_reported":1747602514,"current_range_meters":9600,"station_id":"","pricing_plan_id":"cebpf4jnsgd1na2vs0mg"},{"bike_id":"6f0ccaf6-c59e-4aac-8843-2b31239c6909","system_id":"levelo_inurba_marseille","lat":43.30212,"lon":5.3948,"is_reserved":false,"is_disabled":false,"rental_uris":{"android":"levelo://app?vid=6f0ccaf6-c59e-4aac-8843-2b31239c6909","ios":"levelo://app?vid=6f0ccaf6-c59e-4aac-8843-2b31239c6909"},"vehicle_type_id":"4","last_reported":1747602514,"current_range_meters":9600,"station_id":"ce4bh0p2rcd13ifvqd70","pricing_plan_id":"cebpf4jnsgd1na2vs0mg"},{"bike_id":"cbe3f29f-b6d1-4365-887e-ed52d8bb2d41","system_id":"levelo_inurba_marseille","lat":43.337286,"lon":5.39182,"is_reserved":false,"is_disabled":false,"rental_uris":{"android":"levelo://app?vid=cbe3f29f-b6d1-4365-887e-ed52d8bb2d41","ios":"levelo://app?vid=cbe3f29f-b6d1-4365-887e-ed52d8bb2d41"},"vehicle_type_id":"4","last_reported":1747602514,"current_range_meters":9600,"station_id":"ce4bhr92rcd13ifvqhsg","pricing_plan_id":"cebpf4jnsgd1na2vs0mg"},{"bike_id":"20e349d2-8c8b-424c-bff3-8d68189c1fb1","system_id":"levelo_inurba_marseille","lat":43.28457,"lon":5.35889,"is_reserved":false,"is_disabled":false,"rental_uris":{"android":"levelo://app?vid=20e349d2-8c8b-424c-bff3-8d68189c1fb1","ios":"levelo://app?vid=20e349d2-8c8b-424c-bff3-8d68189c1fb1"},"vehicle_type_id":"4","last_reported":1747602514,"current_range_meters":9200,"station_id":"ce4bhah2rcd13ifvqei0","pricing_plan_id":"cebpf4jnsgd1na2vs0mg"},{"bike_id":"452f057a-7b3d-49f4-87c4-28e634720532","system_id":"levelo_inurba_marseille","lat":43.284462,"lon":5.392072,"is_reserved":false,"is_disabled":false,"rental_uris":{"android":"levelo://app?vid=452f057a-7b3d-49f4-87c4-28e634720532","ios":"levelo://app?vid=452f057a-7b3d-49f4-87c4-28e634720532"},"vehicle_type_id":"4","last_reported":1747602514,"current_range_meters":9600,"station_id":"ce4bhoh2rcd13ifvqh5g","pricing_plan_id":"cebpf4jnsgd1na2vs0mg"},{"bike_id":"9b55a1e0-14da-4879-90dc-b321de5c8345","system_id":"levelo_inurba_marseille","lat":43.297821,"lon":5.381126,"is_reserved":false,"is_disabled":true,"rental_uris":{"android":"levelo://app?vid=9b55a1e0-14da-4879-90dc-b321de5c8345","ios":"levelo://app?vid=9b55a1e0-14da-4879-90dc-b321de5c8345"},"vehicle_type_id":"4","last_reported":1747602514,"current_range_meters":9600,"station_id":"ce4bgip2rcd13ifvqbb0","pricing_plan_id":"cebpf4jnsgd1na2vs0mg"},{"bike_id":"4745dd8b-a0b2-49db-b417-8a28eecc51d4","system_id":"levelo_inurba_marseille","lat":43.24329,"lon":5.38001,"is_reserved":false,"is_disabled":false,"rental_uris":{"android":"levelo://app?vid=4745dd8b-a0b2-49db-b417-8a28eecc51d4","ios":"levelo://app?vid=4745dd8b-a0b2-49db-b417-8a28eecc51d4"},"vehicle_type_id":"4","last_reported":1747602514,"current_range_meters":9600,"station_id":"","pricing_plan_id":"cebpf4jnsgd1na2vs0mg"},{"bike_id":"c608898e-58b6-42f7-903a-6008119c7a64","system_id":"levelo_inurba_marseille","lat":43.24064,"lon":5.37758,"is_reserved":false,"is_disabled":false,"rental_uris":{"android":"levelo://app?vid=c608898e-58b6-42f7-903a-6008119c7a64","ios":"levelo://app?vid=c608898e-58b6-42f7-903a-6008119c7a64"},"vehicle_type_id":"4","last_reported":1747602514,"current_range_meters":9600,"station_id":"ce4bhnp2rcd13ifvqgvg","pricing_plan_id":"cebpf4jnsgd1na2vs0mg"},{"bike_id":"6ee7001e-07ad-49d2-9902-4e2095457f59","system_id":"levelo_inurba_marseille","lat":43.27069,"lon":5.42279,"is_reserved":false,"is_disabled":true,"rental_uris":{"android":"levelo://app?vid=6ee7001e-07ad-49d2-9902-4e2095457f59","ios":"levelo://app?vid=6ee7001e-07ad-49d2-9902-4e2095457f59"},"vehicle_type_id":"4","last_reported":1747602514,"current_range_meters":10000,"station_id":"ce4bhk92rcd13ifvqgb0","pricing_plan_id":"cebpf4jnsgd1na2vs0mg"},{"bike_id":"729918f8-f344-4485-8aad-10309154b9ab","system_id":"levelo_inurba_marseille","lat":43.31369,"lon":5.38492,"is_reserved":false,"is_disabled":false,"rental_uris":{"android":"levelo://app?vid=729918f8-f344-4485-8aad-10309154b9ab","ios":"levelo://app?vid=729918f8-f344-4485-8aad-10309154b9ab"},"vehicle_type_id":"4","last_reported":1747602514,"current_range_meters":10000,"station_id":"ce4bgt92rcd13ifvqcf0","pricing_plan_id":"cebpf4jnsgd1na2vs0mg"},{"bike_id":"8c1358ab-eac1-4c80-9f48-a739214cfa6d","system_id":"levelo_inurba_marseille","lat":43.28154,"lon":5.42636,"is_reserved":false,"is_disabled":false,"rental_uris":{"android":"levelo://app?vid=8c1358ab-eac1-4c80-9f48-a739214cfa6d","ios":"levelo://app?vid=8c1358ab-eac1-4c80-9f48-a739214cfa6d"},"vehicle_type_id":"4","last_reported":1747602514,"current_range_meters":10000,"station_id":"ce4bhnh2rcd13ifvqgug","pricing_plan_id":"cebpf4jnsgd1na2vs0mg"},{"bike_id":"40635187-8b5c-4431-b8a3-4fd5c4e136e6","system_id":"levelo_inurba_marseille","lat":43.31684,"lon":5.40474,"is_reserved":false,"is_disabled":false,"rental_uris":{"android":"levelo://app?vid=40635187-8b5c-4431-b8a3-4fd5c4e136e6","ios":"levelo://app?vid=40635187-8b5c-4431-b8a3-4fd5c4e136e6"},"vehicle_type_id":"4","last_reported":1747602514,"current_range_meters":10000,"station_id":"ce4bh012rcd13ifvqd00","pricing_plan_id":"cebpf4jnsgd1na2vs0mg"},{"bike_id":"3dced1d9-0c80-49d8-a25b-68d880296f3d","system_id":"levelo_inurba_marseille","lat":43.30425,"lon":5.39779,"is_reserved":false,"is_disabled":false,"rental_uris":{"android":"levelo://app?vid=3dced1d9-0c80-49d8-a25b-68d880296f3d","ios":"levelo://app?vid=3dced1d9-0c80-49d8-a25b-68d880296f3d"},"vehicle_type_id":"4","last_reported":1747602514,"current_range_meters":10800,"station_id":"ce4bh092rcd13ifvqd20","pricing_plan_id":"cebpf4jnsgd1na2vs0mg"},{"bike_id":"79922f2a-1d16-47ac-bf89-1334419d04ef","system_id":"levelo_inurba_marseille","lat":43.2919,"lon":5.39339,"is_reserved":false,"is_disabled":false,"rental_uris":{"android":"levelo://app?vid=79922f2a-1d16-47ac-bf89-1334419d04ef","ios":"levelo://app?vid=79922f2a-1d16-47ac-bf89-1334419d04ef"},"vehicle_type_id":"4","last_reported":1747602514,"current_range_meters":10800,"station_id":"ce4bh192rcd13ifvqdd0","pricing_plan_id":"cebpf4jnsgd1na2vs0mg"},{"bike_id":"5d86bbef-94ca-4dcb-9edd-d128b7c97ecc","system_id":"levelo_inurba_marseille","lat":43.30882,"lon":5.39633,"is_reserved":false,"is_disabled":false,"rental_uris":{"android":"levelo://app?vid=5d86bbef-94ca-4dcb-9edd-d128b7c97ecc","ios":"levelo://app?vid=5d86bbef-94ca-4dcb-9edd-d128b7c97ecc"},"vehicle_type_id":"4","last_reported":1747602514,"current_range_meters":10800,"station_id":"ce4bh012rcd13ifvqcv0","pricing_plan_id":"cebpf4jnsgd1na2vs0mg"},{"bike_id":"75463357-e93f-40fe-bd3c-705c5c56d40d","system_id":"levelo_inurba_marseille","lat":43.30139,"lon":5.39866,"is_reserved":false,"is_disabled":false,"rental_uris":{"android":"levelo://app?vid=75463357-e93f-40fe-bd3c-705c5c56d40d","ios":"levelo://app?vid=75463357-e93f-40fe-bd3c-705c5c56d40d"},"vehicle_type_id":"4","last_reported":1747602514,"current_range_meters":10800,"station_id":"ce4bh0h2rcd13ifvqd40","pricing_plan_id":"cebpf4jnsgd1na2vs0mg"},{"bike_id":"cddea7e2-cc86-4292-80ec-a4197c75f226","system_id":"levelo_inurba_marseille","lat":43.297162,"lon":5.366016,"is_reserved":false,"is_disabled":false,"rental_uris":{"android":"levelo://app?vid=cddea7e2-cc86-4292-80ec-a4197c75f226","ios":"levelo://app?vid=cddea7e2-cc86-4292-80ec-a4197c75f226"},"vehicle_type_id":"4","last_reported":1747602514,"current_range_meters":10000,"station_id":"ce4bgn12rcd13ifvqbt0","pricing_plan_id":"cebpf4jnsgd1na2vs0mg"},{"bike_id":"b26a0dd7-cbdc-4ab7-8def-31c4b88b224a","system_id":"levelo_inurba_marseille","lat":43.31209,"lon":5.39261,"is_reserved":false,"is_disabled":false,"rental_uris":{"android":"levelo://app?vid=b26a0dd7-cbdc-4ab7-8def-31c4b88b224a","ios":"levelo://app?vid=b26a0dd7-cbdc-4ab7-8def-31c4b88b224a"},"vehicle_type_id":"4","last_reported":1747602514,"current_range_meters":11200,"station_id":"","pricing_plan_id":"cebpf4jnsgd1na2vs0mg"},{"bike_id":"51a33848-f0f0-40ec-b6c6-8948c992d932","system_id":"levelo_inurba_marseille","lat":43.250916,"lon":5.395118,"is_reserved":false,"is_disabled":false,"rental_uris":{"android":"levelo://app?vid=51a33848-f0f0-40ec-b6c6-8948c992d932","ios":"levelo://app?vid=51a33848-f0f0-40ec-b6c6-8948c992d932"},"vehicle_type_id":"4","last_reported":1747602514,"current_range_meters":11200,"station_id":"ce4bhm12rcd13ifvqgkg","pricing_plan_id":"cebpf4jnsgd1na2vs0mg"},{"bike_id":"3fe4ee94-b4ae-4871-89c2-728f25947523","system_id":"levelo_inurba_marseille","lat":43.32369,"lon":5.38868,"is_reserved":false,"is_disabled":false,"rental_uris":{"android":"levelo://app?vid=3fe4ee94-b4ae-4871-89c2-728f25947523","ios":"levelo://app?vid=3fe4ee94-b4ae-4871-89c2-728f25947523"},"vehicle_type_id":"4","last_reported":1747602514,"current_range_meters":11200,"station_id":"ce4bhqp2rcd13ifvqhog","pricing_plan_id":"cebpf4jnsgd1na2vs0mg"},{"bike_id":"dd739f45-3eab-4b92-9449-7aa0e2a37938","system_id":"levelo_inurba_marseille","lat":43.31167,"lon":5.38713,"is_reserved":false,"is_disabled":false,"rental_uris":{"android":"levelo://app?vid=dd739f45-3eab-4b92-9449-7aa0e2a37938","ios":"levelo://app?vid=dd739f45-3eab-4b92-9449-7aa0e2a37938"},"vehicle_type_id":"4","last_reported":1747602514,"current_range_meters":11600,"station_id":"ce4bgv12rcd13ifvqcp0","pricing_plan_id":"cebpf4jnsgd1na2vs0mg"},{"bike_id":"018dda92-33f7-4f9c-9997-940b853b8743","system_id":"levelo_inurba_marseille","lat":43.27408,"lon":5.39405,"is_reserved":false,"is_disabled":true,"rental_uris":{"android":"levelo://app?vid=018dda92-33f7-4f9c-9997-940b853b8743","ios":"levelo://app?vid=018dda92-33f7-4f9c-9997-940b853b8743"},"vehicle_type_id":"4","last_reported":1747602514,"current_range_meters":11600,"station_id":"ce4bhdp2rcd13ifvqf20","pricing_plan_id":"cebpf4jnsgd1na2vs0mg"},{"bike_id":"77e758c6-87b4-4f01-8c58-a3a1151b092c","system_id":"levelo_inurba_marseille","lat":43.31359,"lon":5.38497,"is_reserved":false,"is_disabled":false,"rental_uris":{"android":"levelo://app?vid=77e758c6-87b4-4f01-8c58-a3a1151b092c","ios":"levelo://app?vid=77e758c6-87b4-4f01-8c58-a3a1151b092c"},"vehicle_type_id":"4","last_reported":1747602514,"current_range_meters":11200,"station_id":"ce4bgt92rcd13ifvqcf0","pricing_plan_id":"cebpf4jnsgd1na2vs0mg"},{"bike_id":"d58d835e-072e-47bf-92d9-254c889a2672","system_id":"levelo_inurba_marseille","lat":43.28486,"lon":5.38414,"is_reserved":false,"is_disabled":false,"rental_uris":{"android":"levelo://app?vid=d58d835e-072e-47bf-92d9-254c889a2672","ios":"levelo://app?vid=d58d835e-072e-47bf-92d9-254c889a2672"},"vehicle_type_id":"4","last_reported":1747602514,"current_range_meters":11600,"station_id":"ce4bh512rcd13ifvqe3g","pricing_plan_id":"cebpf4jnsgd1na2vs0mg"},{"bike_id":"c95edae8-90ce-4d52-a6a6-375c9efc7c36","system_id":"levelo_inurba_marseille","lat":43.30134,"lon":5.39856,"is_reserved":false,"is_disabled":false,"rental_uris":{"android":"levelo://app?vid=c95edae8-90ce-4d52-a6a6-375c9efc7c36","ios":"levelo://app?vid=c95edae8-90ce-4d52-a6a6-375c9efc7c36"},"vehicle_type_id":"4","last_reported":1747602514,"current_range_meters":11600,"station_id":"ce4bh0h2rcd13ifvqd40","pricing_plan_id":"cebpf4jnsgd1na2vs0mg"},{"bike_id":"d8da70fb-a079-460a-9e23-65ed45fe0088","system_id":"levelo_inurba_marseille","lat":43.255024,"lon":5.376432,"is_reserved":false,"is_disabled":true,"rental_uris":{"android":"levelo://app?vid=d8da70fb-a079-460a-9e23-65ed45fe0088","ios":"levelo://app?vid=d8da70fb-a079-460a-9e23-65ed45fe0088"},"vehicle_type_id":"4","last_reported":1747602514,"current_range_meters":11600,"station_id":"ce4bhh12rcd13ifvqff0","pricing_plan_id":"cebpf4jnsgd1na2vs0mg"},{"bike_id":"1e755959-071e-4e32-88c3-22fabc9da577","system_id":"levelo_inurba_marseille","lat":43.3067,"lon":5.40089,"is_reserved":false,"is_disabled":false,"rental_uris":{"android":"levelo://app?vid=1e755959-071e-4e32-88c3-22fabc9da577","ios":"levelo://app?vid=1e755959-071e-4e32-88c3-22fabc9da577"},"vehicle_type_id":"4","last_reported":1747602514,"current_range_meters":11600,"station_id":"ce4bh112rcd13ifvqda0","pricing_plan_id":"cebpf4jnsgd1na2vs0mg"},{"bike_id":"51736835-8128-4840-b526-bf33d386a6e7","system_id":"levelo_inurba_marseille","lat":43.299062,"lon":5.436371,"is_reserved":false,"is_disabled":true,"rental_uris":{"android":"levelo://app?vid=51736835-8128-4840-b526-bf33d386a6e7","ios":"levelo://app?vid=51736835-8128-4840-b526-bf33d386a6e7"},"vehicle_type_id":"4","last_reported":1747602514,"current_range_meters":11600,"station_id":"ce4bhpp2rcd13ifvqhfg","pricing_plan_id":"cebpf4jnsgd1na2vs0mg"},{"bike_id":"814e2930-a412-47af-849d-26da2abc07f6","system_id":"levelo_inurba_marseille","lat":43.27861,"lon":5.40699,"is_reserved":false,"is_disabled":true,"rental_uris":{"android":"levelo://app?vid=814e2930-a412-47af-849d-26da2abc07f6","ios":"levelo://app?vid=814e2930-a412-47af-849d-26da2abc07f6"},"vehicle_type_id":"4","last_reported":1747602514,"current_range_meters":11600,"station_id":"ce4bhnh2rcd13ifvqgtg","pricing_plan_id":"cebpf4jnsgd1na2vs0mg"},{"bike_id":"bfe2616a-ffe2-4507-a00a-544cad85d2ea","system_id":"levelo_inurba_marseille","lat":43.28225,"lon":5.39032,"is_reserved":false,"is_disabled":false,"rental_uris":{"android":"levelo://app?vid=bfe2616a-ffe2-4507-a00a-544cad85d2ea","ios":"levelo://app?vid=bfe2616a-ffe2-4507-a00a-544cad85d2ea"},"vehicle_type_id":"4","last_reported":1747602514,"current_range_meters":12000,"station_id":"","pricing_plan_id":"cebpf4jnsgd1na2vs0mg"},{"bike_id":"07672ecb-c631-450f-8bc9-47acc1780ab4","system_id":"levelo_inurba_marseille","lat":43.30881,"lon":5.39627,"is_reserved":false,"is_disabled":false,"rental_uris":{"android":"levelo://app?vid=07672ecb-c631-450f-8bc9-47acc1780ab4","ios":"levelo://app?vid=07672ecb-c631-450f-8bc9-47acc1780ab4"},"vehicle_type_id":"4","last_reported":1747602514,"current_range_meters":12000,"station_id":"ce4bh012rcd13ifvqcv0","pricing_plan_id":"cebpf4jnsgd1na2vs0mg"},{"bike_id":"22ee0c6a-6b7a-4329-87b1-be780bcc2765","system_id":"levelo_inurba_marseille","lat":43.24652,"lon":5.38892,"is_reserved":false,"is_disabled":false,"rental_uris":{"android":"levelo://app?vid=22ee0c6a-6b7a-4329-87b1-be780bcc2765","ios":"levelo://app?vid=22ee0c6a-6b7a-4329-87b1-be780bcc2765"},"vehicle_type_id":"4","last_reported":1747602514,"current_range_meters":12000,"station_id":"ce4bhg12rcd13ifvqf60","pricing_plan_id":"cebpf4jnsgd1na2vs0mg"},{"bike_id":"12c4d802-2c6a-4c71-888e-000ffe312a3f","system_id":"levelo_inurba_marseille","lat":43.323655,"lon":5.36753,"is_reserved":false,"is_disabled":false,"rental_uris":{"android":"levelo://app?vid=12c4d802-2c6a-4c71-888e-000ffe312a3f","ios":"levelo://app?vid=12c4d802-2c6a-4c71-888e-000ffe312a3f"},"vehicle_type_id":"4","last_reported":1747602514,"current_range_meters":12000,"station_id":"ce4bhsh2rcd13ifvqi2g","pricing_plan_id":"cebpf4jnsgd1na2vs0mg"},{"bike_id":"e3b78554-4d24-4011-be37-94a8a7d4a2fb","system_id":"levelo_inurba_marseille","lat":43.26489,"lon":5.39553,"is_reserved":false,"is_disabled":true,"rental_uris":{"android":"levelo://app?vid=e3b78554-4d24-4011-be37-94a8a7d4a2fb","ios":"levelo://app?vid=e3b78554-4d24-4011-be37-94a8a7d4a2fb"},"vehicle_type_id":"4","last_reported":1747602514,"current_range_meters":12000,"station_id":"ce4bhi12rcd13ifvqfq0","pricing_plan_id":"cebpf4jnsgd1na2vs0mg"},{"bike_id":"c9098f0c-9735-4b11-b691-4a6b9418f24c","system_id":"levelo_inurba_marseille","lat":43.30638,"lon":5.40075,"is_reserved":false,"is_disabled":false,"rental_uris":{"android":"levelo://app?vid=c9098f0c-9735-4b11-b691-4a6b9418f24c","ios":"levelo://app?vid=c9098f0c-9735-4b11-b691-4a6b9418f24c"},"vehicle_type_id":"4","last_reported":1747602514,"current_range_meters":12000,"station_id":"ce4bh112rcd13ifvqda0","pricing_plan_id":"cebpf4jnsgd1na2vs0mg"},{"bike_id":"07a9b917-369e-4608-b7a7-9efe6f2bd1c1","system_id":"levelo_inurba_marseille","lat":43.30255,"lon":5.40061,"is_reserved":false,"is_disabled":false,"rental_uris":{"android":"levelo://app?vid=07a9b917-369e-4608-b7a7-9efe6f2bd1c1","ios":"levelo://app?vid=07a9b917-369e-4608-b7a7-9efe6f2bd1c1"},"vehicle_type_id":"4","last_reported":1747602514,"current_range_meters":12000,"station_id":"ce4bgvh2rcd13ifvqcs0","pricing_plan_id":"cebpf4jnsgd1na2vs0mg"},{"bike_id":"aadb0f4e-96b7-4c05-ac13-89b466b04707","system_id":"levelo_inurba_marseille","lat":43.28407,"lon":5.37516,"is_reserved":false,"is_disabled":false,"rental_uris":{"android":"levelo://app?vid=aadb0f4e-96b7-4c05-ac13-89b466b04707","ios":"levelo://app?vid=aadb0f4e-96b7-4c05-ac13-89b466b04707"},"vehicle_type_id":"4","last_reported":1747602514,"current_range_meters":12000,"station_id":"ce4bh412rcd13ifvqds0","pricing_plan_id":"cebpf4jnsgd1na2vs0mg"},{"bike_id":"c722f492-6af3-4aea-8b23-0c8ac327deb3","system_id":"levelo_inurba_marseille","lat":43.24074,"lon":5.3776,"is_reserved":false,"is_disabled":false,"rental_uris":{"android":"levelo://app?vid=c722f492-6af3-4aea-8b23-0c8ac327deb3","ios":"levelo://app?vid=c722f492-6af3-4aea-8b23-0c8ac327deb3"},"vehicle_type_id":"4","last_reported":1747602514,"current_range_meters":12400,"station_id":"ce4bhnp2rcd13ifvqgvg","pricing_plan_id":"cebpf4jnsgd1na2vs0mg"},{"bike_id":"fa922033-5240-4d00-8a04-7369d98a6dcb","system_id":"levelo_inurba_marseille","lat":43.25099,"lon":5.40335,"is_reserved":false,"is_disabled":false,"rental_uris":{"android":"levelo://app?vid=fa922033-5240-4d00-8a04-7369d98a6dcb","ios":"levelo://app?vid=fa922033-5240-4d00-8a04-7369d98a6dcb"},"vehicle_type_id":"4","last_reported":1747602514,"current_range_meters":12400,"station_id":"ce4bhlh2rcd13ifvqgig","pricing_plan_id":"cebpf4jnsgd1na2vs0mg"},{"bike_id":"98dfbc4f-742d-4de8-a3e7-707ea58489bc","system_id":"levelo_inurba_marseille","lat":43.2836,"lon":5.38102,"is_reserved":false,"is_disabled":false,"rental_uris":{"android":"levelo://app?vid=98dfbc4f-742d-4de8-a3e7-707ea58489bc","ios":"levelo://app?vid=98dfbc4f-742d-4de8-a3e7-707ea58489bc"},"vehicle_type_id":"4","last_reported":1747602514,"current_range_meters":12400,"station_id":"ce4bh412rcd13ifvqdr0","pricing_plan_id":"cebpf4jnsgd1na2vs0mg"},{"bike_id":"7c288e5f-bf2e-426c-9424-762c5f2a6c72","system_id":"levelo_inurba_marseille","lat":43.29288,"lon":5.40148,"is_reserved":false,"is_disabled":false,"rental_uris":{"android":"levelo://app?vid=7c288e5f-bf2e-426c-9424-762c5f2a6c72","ios":"levelo://app?vid=7c288e5f-bf2e-426c-9424-762c5f2a6c72"},"vehicle_type_id":"4","last_reported":1747602514,"current_range_meters":12400,"station_id":"ce4bh312rcd13ifvqdk0","pricing_plan_id":"cebpf4jnsgd1na2vs0mg"},{"bike_id":"f9ca6d6c-0101-413a-8223-2d093f5fe032","system_id":"levelo_inurba_marseille","lat":43.29533,"lon":5.394,"is_reserved":false,"is_disabled":false,"rental_uris":{"android":"levelo://app?vid=f9ca6d6c-0101-413a-8223-2d093f5fe032","ios":"levelo://app?vid=f9ca6d6c-0101-413a-8223-2d093f5fe032"},"vehicle_type_id":"4","last_reported":1747602514,"current_range_meters":12400,"station_id":"ce4bh292rcd13ifvqdf0","pricing_plan_id":"cebpf4jnsgd1na2vs0mg"},{"bike_id":"2d43dba1-6ff7-4289-91c8-c617d5aac932","system_id":"levelo_inurba_marseille","lat":43.295692,"lon":5.37499,"is_reserved":false,"is_disabled":true,"rental_uris":{"android":"levelo://app?vid=2d43dba1-6ff7-4289-91c8-c617d5aac932","ios":"levelo://app?vid=2d43dba1-6ff7-4289-91c8-c617d5aac932"},"vehicle_type_id":"4","last_reported":1747602514,"current_range_meters":12800,"station_id":"ce4bgh92rcd13ifvqb50","pricing_plan_id":"cebpf4jnsgd1na2vs0mg"},{"bike_id":"639e1137-4902-4e1b-b39a-c52b5d4a4d32","system_id":"levelo_inurba_marseille","lat":43.29261,"lon":5.40899,"is_reserved":false,"is_disabled":false,"rental_uris":{"android":"levelo://app?vid=639e1137-4902-4e1b-b39a-c52b5d4a4d32","ios":"levelo://app?vid=639e1137-4902-4e1b-b39a-c52b5d4a4d32"},"vehicle_type_id":"4","last_reported":1747602514,"current_range_meters":12800,"station_id":"ce4bh192rcd13ifvqdc0","pricing_plan_id":"cebpf4jnsgd1na2vs0mg"},{"bike_id":"a85be539-0282-4f5c-add7-ff454bb1404c","system_id":"levelo_inurba_marseille","lat":43.279209,"lon":5.395804,"is_reserved":false,"is_disabled":false,"rental_uris":{"android":"levelo://app?vid=a85be539-0282-4f5c-add7-ff454bb1404c","ios":"levelo://app?vid=a85be539-0282-4f5c-add7-ff454bb1404c"},"vehicle_type_id":"4","last_reported":1747602514,"current_range_meters":12800,"station_id":"ce4bhf92rcd13ifvqf40","pricing_plan_id":"cebpf4jnsgd1na2vs0mg"},{"bike_id":"e472a7f3-1962-44a9-b366-ed0d4cb32e38","system_id":"levelo_inurba_marseille","lat":43.262528,"lon":5.404266,"is_reserved":false,"is_disabled":false,"rental_uris":{"android":"levelo://app?vid=e472a7f3-1962-44a9-b366-ed0d4cb32e38","ios":"levelo://app?vid=e472a7f3-1962-44a9-b366-ed0d4cb32e38"},"vehicle_type_id":"4","last_reported":1747602514,"current_range_meters":12800,"station_id":"ce4bhmh2rcd13ifvqgmg","pricing_plan_id":"cebpf4jnsgd1na2vs0mg"},{"bike_id":"356b2829-3ca0-4f70-8f78-46e79da913e0","system_id":"levelo_inurba_marseille","lat":43.281512,"lon":5.4265,"is_reserved":false,"is_disabled":false,"rental_uris":{"android":"levelo://app?vid=356b2829-3ca0-4f70-8f78-46e79da913e0","ios":"levelo://app?vid=356b2829-3ca0-4f70-8f78-46e79da913e0"},"vehicle_type_id":"4","last_reported":1747602514,"current_range_meters":12800,"station_id":"ce4bhnh2rcd13ifvqgug","pricing_plan_id":"cebpf4jnsgd1na2vs0mg"},{"bike_id":"077af346-78a0-40d2-84f7-0977329ebab2","system_id":"levelo_inurba_marseille","lat":43.28923,"lon":5.38397,"is_reserved":false,"is_disabled":false,"rental_uris":{"android":"levelo://app?vid=077af346-78a0-40d2-84f7-0977329ebab2","ios":"levelo://app?vid=077af346-78a0-40d2-84f7-0977329ebab2"},"vehicle_type_id":"4","last_reported":1747602514,"current_range_meters":12800,"station_id":"ce4bh612rcd13ifvqe6g","pricing_plan_id":"cebpf4jnsgd1na2vs0mg"},{"bike_id":"b96a4e7c-0de7-41da-b086-8b5a8e70a687","system_id":"levelo_inurba_marseille","lat":43.2721,"lon":5.392,"is_reserved":false,"is_disabled":true,"rental_uris":{"android":"levelo://app?vid=b96a4e7c-0de7-41da-b086-8b5a8e70a687","ios":"levelo://app?vid=b96a4e7c-0de7-41da-b086-8b5a8e70a687"},"vehicle_type_id":"4","last_reported":1747602514,"current_range_meters":12800,"station_id":"ce4bhhp2rcd13ifvqfm0","pricing_plan_id":"cebpf4jnsgd1na2vs0mg"},{"bike_id":"1a8bfaf9-d99b-4840-b157-cbfbec4af027","system_id":"levelo_inurba_marseille","lat":43.28734,"lon":5.37933,"is_reserved":false,"is_disabled":false,"rental_uris":{"android":"levelo://app?vid=1a8bfaf9-d99b-4840-b157-cbfbec4af027","ios":"levelo://app?vid=1a8bfaf9-d99b-4840-b157-cbfbec4af027"},"vehicle_type_id":"4","last_reported":1747602514,"current_range_meters":12800,"station_id":"ce4bh9p2rcd13ifvqec0","pricing_plan_id":"cebpf4jnsgd1na2vs0mg"},{"bike_id":"5f641fbf-7878-437e-995c-b5c65f03910a","system_id":"levelo_inurba_marseille","lat":43.31173,"lon":5.38722,"is_reserved":false,"is_disabled":false,"rental_uris":{"android":"levelo://app?vid=5f641fbf-7878-437e-995c-b5c65f03910a","ios":"levelo://app?vid=5f641fbf-7878-437e-995c-b5c65f03910a"},"vehicle_type_id":"4","last_reported":1747602514,"current_range_meters":12800,"station_id":"ce4bgv12rcd13ifvqcp0","pricing_plan_id":"cebpf4jnsgd1na2vs0mg"},{"bike_id":"a675f4e5-fc13-43cf-92f6-6acfa57913c0","system_id":"levelo_inurba_marseille","lat":43.29026,"lon":5.38085,"is_reserved":false,"is_disabled":true,"rental_uris":{"android":"levelo://app?vid=a675f4e5-fc13-43cf-92f6-6acfa57913c0","ios":"levelo://app?vid=a675f4e5-fc13-43cf-92f6-6acfa57913c0"},"vehicle_type_id":"4","last_reported":1747602514,"current_range_meters":13600,"station_id":"ce4bh4p2rcd13ifvqe1g","pricing_plan_id":"cebpf4jnsgd1na2vs0mg"},{"bike_id":"7e85683c-0527-4a85-9ab8-35d06ff2f9ad","system_id":"levelo_inurba_marseille","lat":43.294164,"lon":5.386024,"is_reserved":false,"is_disabled":true,"rental_uris":{"android":"levelo://app?vid=7e85683c-0527-4a85-9ab8-35d06ff2f9ad","ios":"levelo://app?vid=7e85683c-0527-4a85-9ab8-35d06ff2f9ad"},"vehicle_type_id":"4","last_reported":1747602514,"current_range_meters":13600,"station_id":"ce4bh2h2rcd13ifvqdh0","pricing_plan_id":"cebpf4jnsgd1na2vs0mg"},{"bike_id":"d60138cc-d1fe-426c-9536-5a41dbfe71a8","system_id":"levelo_inurba_marseille","lat":43.25724,"lon":5.41111,"is_reserved":false,"is_disabled":false,"rental_uris":{"android":"levelo://app?vid=d60138cc-d1fe-426c-9536-5a41dbfe71a8","ios":"levelo://app?vid=d60138cc-d1fe-426c-9536-5a41dbfe71a8"},"vehicle_type_id":"4","last_reported":1747602514,"current_range_meters":13600,"station_id":"ce4bhkp2rcd13ifvqgd0","pricing_plan_id":"cebpf4jnsgd1na2vs0mg"},{"bike_id":"0f72c582-6021-4abf-8dab-e777eddb9d5b","system_id":"levelo_inurba_marseille","lat":43.30801,"lon":5.43525,"is_reserved":false,"is_disabled":false,"rental_uris":{"android":"levelo://app?vid=0f72c582-6021-4abf-8dab-e777eddb9d5b","ios":"levelo://app?vid=0f72c582-6021-4abf-8dab-e777eddb9d5b"},"vehicle_type_id":"4","last_reported":1747602514,"current_range_meters":12800,"station_id":"ce4bhph2rcd13ifvqheg","pricing_plan_id":"cebpf4jnsgd1na2vs0mg"},{"bike_id":"bf2b2bfb-9733-4bda-908d-03391ae976cc","system_id":"levelo_inurba_marseille","lat":43.31191,"lon":5.41603,"is_reserved":false,"is_disabled":false,"rental_uris":{"android":"levelo://app?vid=bf2b2bfb-9733-4bda-908d-03391ae976cc","ios":"levelo://app?vid=bf2b2bfb-9733-4bda-908d-03391ae976cc"},"vehicle_type_id":"4","last_reported":1747602514,"current_range_meters":13600,"station_id":"","pricing_plan_id":"cebpf4jnsgd1na2vs0mg"},{"bike_id":"ed34fad4-c48e-4c1a-b9b1-8eb1cd77d573","system_id":"levelo_inurba_marseille","lat":43.30957,"lon":5.38626,"is_reserved":false,"is_disabled":false,"rental_uris":{"android":"levelo://app?vid=ed34fad4-c48e-4c1a-b9b1-8eb1cd77d573","ios":"levelo://app?vid=ed34fad4-c48e-4c1a-b9b1-8eb1cd77d573"},"vehicle_type_id":"4","last_reported":1747602514,"current_range_meters":13600,"station_id":"ce4bgv12rcd13ifvqcp0","pricing_plan_id":"cebpf4jnsgd1na2vs0mg"},{"bike_id":"0b823a07-6962-4e0d-8e4a-dd2d68ba751f","system_id":"levelo_inurba_marseille","lat":43.27072,"lon":5.42284,"is_reserved":false,"is_disabled":false,"rental_uris":{"android":"levelo://app?vid=0b823a07-6962-4e0d-8e4a-dd2d68ba751f","ios":"levelo://app?vid=0b823a07-6962-4e0d-8e4a-dd2d68ba751f"},"vehicle_type_id":"4","last_reported":1747602514,"current_range_meters":13600,"station_id":"ce4bhk92rcd13ifvqgb0","pricing_plan_id":"cebpf4jnsgd1na2vs0mg"},{"bike_id":"19456222-7d38-48cf-a950-06daadd07927","system_id":"levelo_inurba_marseille","lat":43.25016,"lon":5.3754,"is_reserved":false,"is_disabled":false,"rental_uris":{"android":"levelo://app?vid=19456222-7d38-48cf-a950-06daadd07927","ios":"levelo://app?vid=19456222-7d38-48cf-a950-06daadd07927"},"vehicle_type_id":"4","last_reported":1747602514,"current_range_meters":14000,"station_id":"","pricing_plan_id":"cebpf4jnsgd1na2vs0mg"},{"bike_id":"cf81ba9f-4910-44ec-9b06-44209e8c04de","system_id":"levelo_inurba_marseille","lat":43.23659,"lon":5.36239,"is_reserved":false,"is_disabled":false,"rental_uris":{"android":"levelo://app?vid=cf81ba9f-4910-44ec-9b06-44209e8c04de","ios":"levelo://app?vid=cf81ba9f-4910-44ec-9b06-44209e8c04de"},"vehicle_type_id":"4","last_reported":1747602514,"current_range_meters":14000,"station_id":"","pricing_plan_id":"cebpf4jnsgd1na2vs0mg"},{"bike_id":"4b7c5fea-6b3e-41bc-9ccd-5bea79060561","system_id":"levelo_inurba_marseille","lat":43.31109,"lon":5.37772,"is_reserved":false,"is_disabled":false,"rental_uris":{"android":"levelo://app?vid=4b7c5fea-6b3e-41bc-9ccd-5bea79060561","ios":"levelo://app?vid=4b7c5fea-6b3e-41bc-9ccd-5bea79060561"},"vehicle_type_id":"4","last_reported":1747602514,"current_range_meters":14000,"station_id":"ce4bgt92rcd13ifvqcg0","pricing_plan_id":"cebpf4jnsgd1na2vs0mg"},{"bike_id":"3347e92f-19a6-4dc9-bf1f-d804d0835e42","system_id":"levelo_inurba_marseille","lat":43.211967,"lon":5.35064,"is_reserved":false,"is_disabled":false,"rental_uris":{"android":"levelo://app?vid=3347e92f-19a6-4dc9-bf1f-d804d0835e42","ios":"levelo://app?vid=3347e92f-19a6-4dc9-bf1f-d804d0835e42"},"vehicle_type_id":"4","last_reported":1747602514,"current_range_meters":14400,"station_id":"st_cvj6sg6p6f1abm77japg","pricing_plan_id":"cebpf4jnsgd1na2vs0mg"},{"bike_id":"2104866f-c069-4201-ab61-371f588c2d14","system_id":"levelo_inurba_marseille","lat":43.28699,"lon":5.39993,"is_reserved":false,"is_disabled":false,"rental_uris":{"android":"levelo://app?vid=2104866f-c069-4201-ab61-371f588c2d14","ios":"levelo://app?vid=2104866f-c069-4201-ab61-371f588c2d14"},"vehicle_type_id":"4","last_reported":1747602514,"current_range_meters":14000,"station_id":"ce4bho92rcd13ifvqh3g","pricing_plan_id":"cebpf4jnsgd1na2vs0mg"},{"bike_id":"e8c092b6-ea1e-49b4-86f2-ae6140f06f6f","system_id":"levelo_inurba_marseille","lat":43.28911,"lon":5.38392,"is_reserved":false,"is_disabled":true,"rental_uris":{"android":"levelo://app?vid=e8c092b6-ea1e-49b4-86f2-ae6140f06f6f","ios":"levelo://app?vid=e8c092b6-ea1e-49b4-86f2-ae6140f06f6f"},"vehicle_type_id":"4","last_reported":1747602514,"current_range_meters":14000,"station_id":"ce4bh612rcd13ifvqe6g","pricing_plan_id":"cebpf4jnsgd1na2vs0mg"},{"bike_id":"86603db7-b462-4e72-8622-a2dee8bb2920","system_id":"levelo_inurba_marseille","lat":43.337444,"lon":5.374475,"is_reserved":false,"is_disabled":false,"rental_uris":{"android":"levelo://app?vid=86603db7-b462-4e72-8622-a2dee8bb2920","ios":"levelo://app?vid=86603db7-b462-4e72-8622-a2dee8bb2920"},"vehicle_type_id":"4","last_reported":1747602514,"current_range_meters":14000,"station_id":"","pricing_plan_id":"cebpf4jnsgd1na2vs0mg"},{"bike_id":"bcbdbd69-7be8-42f8-a855-a4358565de8f","system_id":"levelo_inurba_marseille","lat":43.277316,"lon":5.413921,"is_reserved":false,"is_disabled":false,"rental_uris":{"android":"levelo://app?vid=bcbdbd69-7be8-42f8-a855-a4358565de8f","ios":"levelo://app?vid=bcbdbd69-7be8-42f8-a855-a4358565de8f"},"vehicle_type_id":"4","last_reported":1747602514,"current_range_meters":14400,"station_id":"","pricing_plan_id":"cebpf4jnsgd1na2vs0mg"},{"bike_id":"e47dfc52-b270-4d90-b9f5-8f4bef61d077","system_id":"levelo_inurba_marseille","lat":43.25726,"lon":5.41109,"is_reserved":false,"is_disabled":false,"rental_uris":{"android":"levelo://app?vid=e47dfc52-b270-4d90-b9f5-8f4bef61d077","ios":"levelo://app?vid=e47dfc52-b270-4d90-b9f5-8f4bef61d077"},"vehicle_type_id":"4","last_reported":1747602514,"current_range_meters":14400,"station_id":"ce4bhkp2rcd13ifvqgd0","pricing_plan_id":"cebpf4jnsgd1na2vs0mg"},{"bike_id":"954f9a2f-3d92-4afe-8ccd-55ebda55dfe0","system_id":"levelo_inurba_marseille","lat":43.270754,"lon":5.422754,"is_reserved":false,"is_disabled":false,"rental_uris":{"android":"levelo://app?vid=954f9a2f-3d92-4afe-8ccd-55ebda55dfe0","ios":"levelo://app?vid=954f9a2f-3d92-4afe-8ccd-55ebda55dfe0"},"vehicle_type_id":"4","last_reported":1747602514,"current_range_meters":14400,"station_id":"ce4bhk92rcd13ifvqgb0","pricing_plan_id":"cebpf4jnsgd1na2vs0mg"},{"bike_id":"67eb2d48-4a91-47f5-8520-695b8b16224f","system_id":"levelo_inurba_marseille","lat":43.30133,"lon":5.398476,"is_reserved":false,"is_disabled":false,"rental_uris":{"android":"levelo://app?vid=67eb2d48-4a91-47f5-8520-695b8b16224f","ios":"levelo://app?vid=67eb2d48-4a91-47f5-8520-695b8b16224f"},"vehicle_type_id":"4","last_reported":1747602514,"current_range_meters":14400,"station_id":"ce4bh0h2rcd13ifvqd40","pricing_plan_id":"cebpf4jnsgd1na2vs0mg"},{"bike_id":"cd882363-6fba-44e4-8f5c-05592e9ce81a","system_id":"levelo_inurba_marseille","lat":43.26264,"lon":5.40394,"is_reserved":false,"is_disabled":false,"rental_uris":{"android":"levelo://app?vid=cd882363-6fba-44e4-8f5c-05592e9ce81a","ios":"levelo://app?vid=cd882363-6fba-44e4-8f5c-05592e9ce81a"},"vehicle_type_id":"4","last_reported":1747602514,"current_range_meters":14800,"station_id":"ce4bhmh2rcd13ifvqgmg","pricing_plan_id":"cebpf4jnsgd1na2vs0mg"},{"bike_id":"e2483e33-e22f-4969-8812-f7cdcc75c59a","system_id":"levelo_inurba_marseille","lat":43.323593,"lon":5.367483,"is_reserved":false,"is_disabled":false,"rental_uris":{"android":"levelo://app?vid=e2483e33-e22f-4969-8812-f7cdcc75c59a","ios":"levelo://app?vid=e2483e33-e22f-4969-8812-f7cdcc75c59a"},"vehicle_type_id":"4","last_reported":1747602514,"current_range_meters":14800,"station_id":"ce4bhsh2rcd13ifvqi2g","pricing_plan_id":"cebpf4jnsgd1na2vs0mg"},{"bike_id":"f0a690f3-aaef-41ef-91ff-088837a16951","system_id":"levelo_inurba_marseille","lat":43.25716,"lon":5.41109,"is_reserved":false,"is_disabled":false,"rental_uris":{"android":"levelo://app?vid=f0a690f3-aaef-41ef-91ff-088837a16951","ios":"levelo://app?vid=f0a690f3-aaef-41ef-91ff-088837a16951"},"vehicle_type_id":"4","last_reported":1747602514,"current_range_meters":15200,"station_id":"ce4bhkp2rcd13ifvqgd0","pricing_plan_id":"cebpf4jnsgd1na2vs0mg"},{"bike_id":"54d2470c-98eb-4d24-a7f6-2fa6dab0e8b6","system_id":"levelo_inurba_marseille","lat":43.29249,"lon":5.40903,"is_reserved":false,"is_disabled":false,"rental_uris":{"android":"levelo://app?vid=54d2470c-98eb-4d24-a7f6-2fa6dab0e8b6","ios":"levelo://app?vid=54d2470c-98eb-4d24-a7f6-2fa6dab0e8b6"},"vehicle_type_id":"4","last_reported":1747602514,"current_range_meters":14800,"station_id":"ce4bh192rcd13ifvqdc0","pricing_plan_id":"cebpf4jnsgd1na2vs0mg"},{"bike_id":"ed29d038-bc0e-48cf-a824-019c9d3e4517","system_id":"levelo_inurba_marseille","lat":43.28716,"lon":5.37938,"is_reserved":false,"is_disabled":false,"rental_uris":{"android":"levelo://app?vid=ed29d038-bc0e-48cf-a824-019c9d3e4517","ios":"levelo://app?vid=ed29d038-bc0e-48cf-a824-019c9d3e4517"},"vehicle_type_id":"4","last_reported":1747602514,"current_range_meters":14400,"station_id":"ce4bh9p2rcd13ifvqec0","pricing_plan_id":"cebpf4jnsgd1na2vs0mg"},{"bike_id":"a0ef91e8-eab4-4e92-9764-f8b59bed148c","system_id":"levelo_inurba_marseille","lat":43.31364,"lon":5.38477,"is_reserved":false,"is_disabled":false,"rental_uris":{"android":"levelo://app?vid=a0ef91e8-eab4-4e92-9764-f8b59bed148c","ios":"levelo://app?vid=a0ef91e8-eab4-4e92-9764-f8b59bed148c"},"vehicle_type_id":"4","last_reported":1747602514,"current_range_meters":14800,"station_id":"ce4bgt92rcd13ifvqcf0","pricing_plan_id":"cebpf4jnsgd1na2vs0mg"},{"bike_id":"cbf22af3-6c8f-4023-8971-3961263cafe8","system_id":"levelo_inurba_marseille","lat":43.2871,"lon":5.37395,"is_reserved":false,"is_disabled":true,"rental_uris":{"android":"levelo://app?vid=cbf22af3-6c8f-4023-8971-3961263cafe8","ios":"levelo://app?vid=cbf22af3-6c8f-4023-8971-3961263cafe8"},"vehicle_type_id":"4","last_reported":1747602514,"current_range_meters":14800,"station_id":"ce4bh3p2rcd13ifvqdq0","pricing_plan_id":"cebpf4jnsgd1na2vs0mg"},{"bike_id":"8a7a75ee-b8f8-4af5-b0ed-d8dec76b4d69","system_id":"levelo_inurba_marseille","lat":43.283506,"lon":5.381088,"is_reserved":false,"is_disabled":false,"rental_uris":{"android":"levelo://app?vid=8a7a75ee-b8f8-4af5-b0ed-d8dec76b4d69","ios":"levelo://app?vid=8a7a75ee-b8f8-4af5-b0ed-d8dec76b4d69"},"vehicle_type_id":"4","last_reported":1747602514,"current_range_meters":14800,"station_id":"ce4bh412rcd13ifvqdr0","pricing_plan_id":"cebpf4jnsgd1na2vs0mg"},{"bike_id":"83716387-b62a-46f5-aaba-b1b2f0e6a3a9","system_id":"levelo_inurba_marseille","lat":43.27542,"lon":5.38441,"is_reserved":false,"is_disabled":false,"rental_uris":{"android":"levelo://app?vid=83716387-b62a-46f5-aaba-b1b2f0e6a3a9","ios":"levelo://app?vid=83716387-b62a-46f5-aaba-b1b2f0e6a3a9"},"vehicle_type_id":"4","last_reported":1747602514,"current_range_meters":14800,"station_id":"ce4bhh92rcd13ifvqfi0","pricing_plan_id":"cebpf4jnsgd1na2vs0mg"},{"bike_id":"e5d123a7-5dcd-4032-a9ff-778af936e867","system_id":"levelo_inurba_marseille","lat":43.33611,"lon":5.41032,"is_reserved":false,"is_disabled":false,"rental_uris":{"android":"levelo://app?vid=e5d123a7-5dcd-4032-a9ff-778af936e867","ios":"levelo://app?vid=e5d123a7-5dcd-4032-a9ff-778af936e867"},"vehicle_type_id":"4","last_reported":1747602514,"current_range_meters":14800,"station_id":"ce4bhqh2rcd13ifvqhmg","pricing_plan_id":"cebpf4jnsgd1na2vs0mg"},{"bike_id":"43d95b57-3a1d-4bd4-b0f5-537a29764826","system_id":"levelo_inurba_marseille","lat":43.29261,"lon":5.40911,"is_reserved":false,"is_disabled":false,"rental_uris":{"android":"levelo://app?vid=43d95b57-3a1d-4bd4-b0f5-537a29764826","ios":"levelo://app?vid=43d95b57-3a1d-4bd4-b0f5-537a29764826"},"vehicle_type_id":"4","last_reported":1747602514,"current_range_meters":15200,"station_id":"ce4bh192rcd13ifvqdc0","pricing_plan_id":"cebpf4jnsgd1na2vs0mg"},{"bike_id":"26ae3f71-446b-4d48-9715-d0cb78472fbf","system_id":"levelo_inurba_marseille","lat":43.31171,"lon":5.36975,"is_reserved":false,"is_disabled":false,"rental_uris":{"android":"levelo://app?vid=26ae3f71-446b-4d48-9715-d0cb78472fbf","ios":"levelo://app?vid=26ae3f71-446b-4d48-9715-d0cb78472fbf"},"vehicle_type_id":"4","last_reported":1747602514,"current_range_meters":15200,"station_id":"","pricing_plan_id":"cebpf4jnsgd1na2vs0mg"},{"bike_id":"2a88e114-925f-488b-b07f-3cd7b36267ee","system_id":"levelo_inurba_marseille","lat":43.29779,"lon":5.38139,"is_reserved":false,"is_disabled":true,"rental_uris":{"android":"levelo://app?vid=2a88e114-925f-488b-b07f-3cd7b36267ee","ios":"levelo://app?vid=2a88e114-925f-488b-b07f-3cd7b36267ee"},"vehicle_type_id":"4","last_reported":1747602514,"current_range_meters":16000,"station_id":"ce4bgip2rcd13ifvqbb0","pricing_plan_id":"cebpf4jnsgd1na2vs0mg"},{"bike_id":"2774ce48-67f6-4054-997b-82ef9e8373fc","system_id":"levelo_inurba_marseille","lat":43.29034,"lon":5.39975,"is_reserved":false,"is_disabled":false,"rental_uris":{"android":"levelo://app?vid=2774ce48-67f6-4054-997b-82ef9e8373fc","ios":"levelo://app?vid=2774ce48-67f6-4054-997b-82ef9e8373fc"},"vehicle_type_id":"4","last_reported":1747602514,"current_range_meters":16000,"station_id":"ce4bh392rcd13ifvqdm0","pricing_plan_id":"cebpf4jnsgd1na2vs0mg"},{"bike_id":"1dcdcf4d-a775-45b7-ba77-12918f1606de","system_id":"levelo_inurba_marseille","lat":43.29106,"lon":5.3814,"is_reserved":false,"is_disabled":false,"rental_uris":{"android":"levelo://app?vid=1dcdcf4d-a775-45b7-ba77-12918f1606de","ios":"levelo://app?vid=1dcdcf4d-a775-45b7-ba77-12918f1606de"},"vehicle_type_id":"4","last_reported":1747602514,"current_range_meters":16000,"station_id":"ce4bh512rcd13ifvqe2g","pricing_plan_id":"cebpf4jnsgd1na2vs0mg"},{"bike_id":"0d7da0db-c221-41ea-835a-6ec71df75f71","system_id":"levelo_inurba_marseille","lat":43.29615,"lon":5.37721,"is_reserved":false,"is_disabled":false,"rental_uris":{"android":"levelo://app?vid=0d7da0db-c221-41ea-835a-6ec71df75f71","ios":"levelo://app?vid=0d7da0db-c221-41ea-835a-6ec71df75f71"},"vehicle_type_id":"4","last_reported":1747602514,"current_range_meters":14800,"station_id":"ce4bgi92rcd13ifvqb90","pricing_plan_id":"cebpf4jnsgd1na2vs0mg"},{"bike_id":"fba103a6-30ce-481c-a05a-9411e513bfcf","system_id":"levelo_inurba_marseille","lat":43.25935,"lon":5.4089,"is_reserved":false,"is_disabled":false,"rental_uris":{"android":"levelo://app?vid=fba103a6-30ce-481c-a05a-9411e513bfcf","ios":"levelo://app?vid=fba103a6-30ce-481c-a05a-9411e513bfcf"},"vehicle_type_id":"4","last_reported":1747602514,"current_range_meters":16000,"station_id":"ce4bhm92rcd13ifvqglg","pricing_plan_id":"cebpf4jnsgd1na2vs0mg"},{"bike_id":"10c48ea4-ca62-4963-a6a2-8b31d795174a","system_id":"levelo_inurba_marseille","lat":43.29044,"lon":5.39973,"is_reserved":false,"is_disabled":false,"rental_uris":{"android":"levelo://app?vid=10c48ea4-ca62-4963-a6a2-8b31d795174a","ios":"levelo://app?vid=10c48ea4-ca62-4963-a6a2-8b31d795174a"},"vehicle_type_id":"4","last_reported":1747602514,"current_range_meters":17200,"station_id":"ce4bh392rcd13ifvqdm0","pricing_plan_id":"cebpf4jnsgd1na2vs0mg"},{"bike_id":"41389e7c-6f3c-410d-88e7-f591b55a002a","system_id":"levelo_inurba_marseille","lat":43.24076,"lon":5.37784,"is_reserved":false,"is_disabled":false,"rental_uris":{"android":"levelo://app?vid=41389e7c-6f3c-410d-88e7-f591b55a002a","ios":"levelo://app?vid=41389e7c-6f3c-410d-88e7-f591b55a002a"},"vehicle_type_id":"4","last_reported":1747602514,"current_range_meters":16400,"station_id":"ce4bhnp2rcd13ifvqgvg","pricing_plan_id":"cebpf4jnsgd1na2vs0mg"},{"bike_id":"dc51b593-a5cd-4446-8449-f319ed28e729","system_id":"levelo_inurba_marseille","lat":43.31067,"lon":5.40103,"is_reserved":false,"is_disabled":false,"rental_uris":{"android":"levelo://app?vid=dc51b593-a5cd-4446-8449-f319ed28e729","ios":"levelo://app?vid=dc51b593-a5cd-4446-8449-f319ed28e729"},"vehicle_type_id":"4","last_reported":1747602514,"current_range_meters":16400,"station_id":"","pricing_plan_id":"cebpf4jnsgd1na2vs0mg"},{"bike_id":"728a310f-8251-465b-b0a5-f1695e23b39d","system_id":"levelo_inurba_marseille","lat":43.26789,"lon":5.39411,"is_reserved":false,"is_disabled":false,"rental_uris":{"android":"levelo://app?vid=728a310f-8251-465b-b0a5-f1695e23b39d","ios":"levelo://app?vid=728a310f-8251-465b-b0a5-f1695e23b39d"},"vehicle_type_id":"4","last_reported":1747602514,"current_range_meters":16400,"station_id":"ce4bhh12rcd13ifvqfg0","pricing_plan_id":"cebpf4jnsgd1na2vs0mg"},{"bike_id":"63470031-5018-4306-9d01-bb4b6110b041","system_id":"levelo_inurba_marseille","lat":43.29918,"lon":5.37477,"is_reserved":false,"is_disabled":false,"rental_uris":{"android":"levelo://app?vid=63470031-5018-4306-9d01-bb4b6110b041","ios":"levelo://app?vid=63470031-5018-4306-9d01-bb4b6110b041"},"vehicle_type_id":"4","last_reported":1747602514,"current_range_meters":16000,"station_id":"ce4bgjh2rcd13ifvqbg0","pricing_plan_id":"cebpf4jnsgd1na2vs0mg"},{"bike_id":"a40c0dd9-3c1d-4ef8-bf5e-5a9bd92f17be","system_id":"levelo_inurba_marseille","lat":43.29042,"lon":5.39971,"is_reserved":false,"is_disabled":false,"rental_uris":{"android":"levelo://app?vid=a40c0dd9-3c1d-4ef8-bf5e-5a9bd92f17be","ios":"levelo://app?vid=a40c0dd9-3c1d-4ef8-bf5e-5a9bd92f17be"},"vehicle_type_id":"4","last_reported":1747602514,"current_range_meters":16400,"station_id":"ce4bh392rcd13ifvqdm0","pricing_plan_id":"cebpf4jnsgd1na2vs0mg"},{"bike_id":"90bb7a19-74dd-4320-94b3-1629a4028834","system_id":"levelo_inurba_marseille","lat":43.21751,"lon":5.34601,"is_reserved":false,"is_disabled":true,"rental_uris":{"android":"levelo://app?vid=90bb7a19-74dd-4320-94b3-1629a4028834","ios":"levelo://app?vid=90bb7a19-74dd-4320-94b3-1629a4028834"},"vehicle_type_id":"4","last_reported":1747602514,"current_range_meters":16400,"station_id":"st_cvj6r9ubvosntc0bgbag","pricing_plan_id":"cebpf4jnsgd1na2vs0mg"},{"bike_id":"f441b4d6-d50a-454a-9ff3-28bb0eb62a62","system_id":"levelo_inurba_marseille","lat":43.27069,"lon":5.42273,"is_reserved":false,"is_disabled":false,"rental_uris":{"android":"levelo://app?vid=f441b4d6-d50a-454a-9ff3-28bb0eb62a62","ios":"levelo://app?vid=f441b4d6-d50a-454a-9ff3-28bb0eb62a62"},"vehicle_type_id":"4","last_reported":1747602514,"current_range_meters":16400,"station_id":"ce4bhk92rcd13ifvqgb0","pricing_plan_id":"cebpf4jnsgd1na2vs0mg"},{"bike_id":"0c698211-1f48-4c58-8241-20d705a14a6f","system_id":"levelo_inurba_marseille","lat":43.309372,"lon":5.40138,"is_reserved":false,"is_disabled":false,"rental_uris":{"android":"levelo://app?vid=0c698211-1f48-4c58-8241-20d705a14a6f","ios":"levelo://app?vid=0c698211-1f48-4c58-8241-20d705a14a6f"},"vehicle_type_id":"4","last_reported":1747602514,"current_range_meters":16400,"station_id":"ce4bgvp2rcd13ifvqct0","pricing_plan_id":"cebpf4jnsgd1na2vs0mg"},{"bike_id":"b0fdac88-a118-470b-9e6b-385ec3c37039","system_id":"levelo_inurba_marseille","lat":43.27496,"lon":5.42451,"is_reserved":false,"is_disabled":false,"rental_uris":{"android":"levelo://app?vid=b0fdac88-a118-470b-9e6b-385ec3c37039","ios":"levelo://app?vid=b0fdac88-a118-470b-9e6b-385ec3c37039"},"vehicle_type_id":"4","last_reported":1747602514,"current_range_meters":16400,"station_id":"ce4bhn92rcd13ifvqgrg","pricing_plan_id":"cebpf4jnsgd1na2vs0mg"},{"bike_id":"06c5d935-141e-4a2a-8a1c-99c6c936abb9","system_id":"levelo_inurba_marseille","lat":43.30742,"lon":5.42446,"is_reserved":false,"is_disabled":false,"rental_uris":{"android":"levelo://app?vid=06c5d935-141e-4a2a-8a1c-99c6c936abb9","ios":"levelo://app?vid=06c5d935-141e-4a2a-8a1c-99c6c936abb9"},"vehicle_type_id":"4","last_reported":1747602514,"current_range_meters":16400,"station_id":"st_cvj6ca6bvosntc0bfgr0","pricing_plan_id":"cebpf4jnsgd1na2vs0mg"},{"bike_id":"5c1cfafc-efda-4c44-a512-0b0d7a09f432","system_id":"levelo_inurba_marseille","lat":43.27313,"lon":5.39093,"is_reserved":false,"is_disabled":true,"rental_uris":{"android":"levelo://app?vid=5c1cfafc-efda-4c44-a512-0b0d7a09f432","ios":"levelo://app?vid=5c1cfafc-efda-4c44-a512-0b0d7a09f432"},"vehicle_type_id":"4","last_reported":1747602514,"current_range_meters":16800,"station_id":"ce4bhgp2rcd13ifvqfe0","pricing_plan_id":"cebpf4jnsgd1na2vs0mg"},{"bike_id":"a4dbdbcd-38f5-4bc3-bdd4-b6668d52c596","system_id":"levelo_inurba_marseille","lat":43.27836,"lon":5.39212,"is_reserved":false,"is_disabled":false,"rental_uris":{"android":"levelo://app?vid=a4dbdbcd-38f5-4bc3-bdd4-b6668d52c596","ios":"levelo://app?vid=a4dbdbcd-38f5-4bc3-bdd4-b6668d52c596"},"vehicle_type_id":"4","last_reported":1747602514,"current_range_meters":16800,"station_id":"ce4bhjp2rcd13ifvqga0","pricing_plan_id":"cebpf4jnsgd1na2vs0mg"},{"bike_id":"bffbaf88-357a-4e87-a68c-a9a27a6e01e6","system_id":"levelo_inurba_marseille","lat":43.26224,"lon":5.42112,"is_reserved":false,"is_disabled":false,"rental_uris":{"android":"levelo://app?vid=bffbaf88-357a-4e87-a68c-a9a27a6e01e6","ios":"levelo://app?vid=bffbaf88-357a-4e87-a68c-a9a27a6e01e6"},"vehicle_type_id":"4","last_reported":1747602514,"current_range_meters":16800,"station_id":"","pricing_plan_id":"cebpf4jnsgd1na2vs0mg"},{"bike_id":"2b8eaed0-7195-4117-9102-0192d6a0abef","system_id":"levelo_inurba_marseille","lat":43.30788,"lon":5.37638,"is_reserved":false,"is_disabled":false,"rental_uris":{"android":"levelo://app?vid=2b8eaed0-7195-4117-9102-0192d6a0abef","ios":"levelo://app?vid=2b8eaed0-7195-4117-9102-0192d6a0abef"},"vehicle_type_id":"4","last_reported":1747602514,"current_range_meters":16800,"station_id":"ce4bgv92rcd13ifvqcq0","pricing_plan_id":"cebpf4jnsgd1na2vs0mg"},{"bike_id":"fca86a55-22f2-4b7a-b972-9f8946fa6983","system_id":"levelo_inurba_marseille","lat":43.30307,"lon":5.39207,"is_reserved":false,"is_disabled":true,"rental_uris":{"android":"levelo://app?vid=fca86a55-22f2-4b7a-b972-9f8946fa6983","ios":"levelo://app?vid=fca86a55-22f2-4b7a-b972-9f8946fa6983"},"vehicle_type_id":"4","last_reported":1747602514,"current_range_meters":16800,"station_id":"ce4bgkh2rcd13ifvqbk0","pricing_plan_id":"cebpf4jnsgd1na2vs0mg"},{"bike_id":"bf96caf2-259d-4544-ba8b-a805d582ae5a","system_id":"levelo_inurba_marseille","lat":43.28557,"lon":5.39474,"is_reserved":false,"is_disabled":false,"rental_uris":{"android":"levelo://app?vid=bf96caf2-259d-4544-ba8b-a805d582ae5a","ios":"levelo://app?vid=bf96caf2-259d-4544-ba8b-a805d582ae5a"},"vehicle_type_id":"4","last_reported":1747602514,"current_range_meters":16800,"station_id":"ce4bh292rcd13ifvqdg0","pricing_plan_id":"cebpf4jnsgd1na2vs0mg"},{"bike_id":"d39cae16-34b5-4b82-8fc6-cac28c889070","system_id":"levelo_inurba_marseille","lat":43.29455,"lon":5.38677,"is_reserved":false,"is_disabled":true,"rental_uris":{"android":"levelo://app?vid=d39cae16-34b5-4b82-8fc6-cac28c889070","ios":"levelo://app?vid=d39cae16-34b5-4b82-8fc6-cac28c889070"},"vehicle_type_id":"4","last_reported":1747602514,"current_range_meters":16800,"station_id":"","pricing_plan_id":"cebpf4jnsgd1na2vs0mg"},{"bike_id":"477bf49d-04fb-48c6-9dfe-f96deb783f31","system_id":"levelo_inurba_marseille","lat":43.284877,"lon":5.385382,"is_reserved":false,"is_disabled":true,"rental_uris":{"android":"levelo://app?vid=477bf49d-04fb-48c6-9dfe-f96deb783f31","ios":"levelo://app?vid=477bf49d-04fb-48c6-9dfe-f96deb783f31"},"vehicle_type_id":"4","last_reported":1747602514,"current_range_meters":16800,"station_id":"ce4bh8p2rcd13ifvqeb0","pricing_plan_id":"cebpf4jnsgd1na2vs0mg"},{"bike_id":"83892c75-7a4d-4fc9-bc5f-bdd5906f8c37","system_id":"levelo_inurba_marseille","lat":43.27816,"lon":5.39202,"is_reserved":false,"is_disabled":false,"rental_uris":{"android":"levelo://app?vid=83892c75-7a4d-4fc9-bc5f-bdd5906f8c37","ios":"levelo://app?vid=83892c75-7a4d-4fc9-bc5f-bdd5906f8c37"},"vehicle_type_id":"4","last_reported":1747602514,"current_range_meters":16800,"station_id":"ce4bhjp2rcd13ifvqga0","pricing_plan_id":"cebpf4jnsgd1na2vs0mg"},{"bike_id":"259e05f1-5815-4eaa-8326-1c0ec3259270","system_id":"levelo_inurba_marseille","lat":43.31072,"lon":5.38357,"is_reserved":false,"is_disabled":false,"rental_uris":{"android":"levelo://app?vid=259e05f1-5815-4eaa-8326-1c0ec3259270","ios":"levelo://app?vid=259e05f1-5815-4eaa-8326-1c0ec3259270"},"vehicle_type_id":"4","last_reported":1747602514,"current_range_meters":16800,"station_id":"ce4bgv92rcd13ifvqcr0","pricing_plan_id":"cebpf4jnsgd1na2vs0mg"},{"bike_id":"74779d32-87cf-4f23-b047-7955c944ddd2","system_id":"levelo_inurba_marseille","lat":43.297832,"lon":5.381189,"is_reserved":false,"is_disabled":true,"rental_uris":{"android":"levelo://app?vid=74779d32-87cf-4f23-b047-7955c944ddd2","ios":"levelo://app?vid=74779d32-87cf-4f23-b047-7955c944ddd2"},"vehicle_type_id":"4","last_reported":1747602514,"current_range_meters":16800,"station_id":"ce4bgip2rcd13ifvqbb0","pricing_plan_id":"cebpf4jnsgd1na2vs0mg"},{"bike_id":"bba77845-8b15-498e-8349-e0733711e31d","system_id":"levelo_inurba_marseille","lat":43.28078,"lon":5.396513,"is_reserved":false,"is_disabled":false,"rental_uris":{"android":"levelo://app?vid=bba77845-8b15-498e-8349-e0733711e31d","ios":"levelo://app?vid=bba77845-8b15-498e-8349-e0733711e31d"},"vehicle_type_id":"4","last_reported":1747602514,"current_range_meters":16800,"station_id":"ce4bho12rcd13ifvqh2g","pricing_plan_id":"cebpf4jnsgd1na2vs0mg"},{"bike_id":"710241c1-46a3-4954-9e50-bd4b0b3c4335","system_id":"levelo_inurba_marseille","lat":43.31341,"lon":5.38488,"is_reserved":false,"is_disabled":true,"rental_uris":{"android":"levelo://app?vid=710241c1-46a3-4954-9e50-bd4b0b3c4335","ios":"levelo://app?vid=710241c1-46a3-4954-9e50-bd4b0b3c4335"},"vehicle_type_id":"4","last_reported":1747602514,"current_range_meters":17200,"station_id":"ce4bgt92rcd13ifvqcf0","pricing_plan_id":"cebpf4jnsgd1na2vs0mg"},{"bike_id":"93bb0e99-2bb8-4c61-90e7-ea7c7adfa993","system_id":"levelo_inurba_marseille","lat":43.29973,"lon":5.36528,"is_reserved":false,"is_disabled":true,"rental_uris":{"android":"levelo://app?vid=93bb0e99-2bb8-4c61-90e7-ea7c7adfa993","ios":"levelo://app?vid=93bb0e99-2bb8-4c61-90e7-ea7c7adfa993"},"vehicle_type_id":"4","last_reported":1747602514,"current_range_meters":17200,"station_id":"ce4bgm92rcd13ifvqbr0","pricing_plan_id":"cebpf4jnsgd1na2vs0mg"},{"bike_id":"87e2ffe7-e2ac-484b-b2b1-fc1a1439801c","system_id":"levelo_inurba_marseille","lat":43.29244,"lon":5.38446,"is_reserved":false,"is_disabled":true,"rental_uris":{"android":"levelo://app?vid=87e2ffe7-e2ac-484b-b2b1-fc1a1439801c","ios":"levelo://app?vid=87e2ffe7-e2ac-484b-b2b1-fc1a1439801c"},"vehicle_type_id":"4","last_reported":1747602514,"current_range_meters":17200,"station_id":"ce4bh692rcd13ifvqea0","pricing_plan_id":"cebpf4jnsgd1na2vs0mg"},{"bike_id":"76ee76b0-73b2-42fe-9bbc-bc09871affe4","system_id":"levelo_inurba_marseille","lat":43.28466,"lon":5.38432,"is_reserved":false,"is_disabled":true,"rental_uris":{"android":"levelo://app?vid=76ee76b0-73b2-42fe-9bbc-bc09871affe4","ios":"levelo://app?vid=76ee76b0-73b2-42fe-9bbc-bc09871affe4"},"vehicle_type_id":"4","last_reported":1747602514,"current_range_meters":17200,"station_id":"ce4bh512rcd13ifvqe3g","pricing_plan_id":"cebpf4jnsgd1na2vs0mg"},{"bike_id":"e2526c29-bc85-41ce-9228-7f2592454abf","system_id":"levelo_inurba_marseille","lat":43.26498,"lon":5.39535,"is_reserved":false,"is_disabled":false,"rental_uris":{"android":"levelo://app?vid=e2526c29-bc85-41ce-9228-7f2592454abf","ios":"levelo://app?vid=e2526c29-bc85-41ce-9228-7f2592454abf"},"vehicle_type_id":"4","last_reported":1747602514,"current_range_meters":16800,"station_id":"ce4bhi12rcd13ifvqfq0","pricing_plan_id":"cebpf4jnsgd1na2vs0mg"},{"bike_id":"eddc3e2f-204e-47a6-9d8f-809f554335b4","system_id":"levelo_inurba_marseille","lat":43.24078,"lon":5.37754,"is_reserved":false,"is_disabled":false,"rental_uris":{"android":"levelo://app?vid=eddc3e2f-204e-47a6-9d8f-809f554335b4","ios":"levelo://app?vid=eddc3e2f-204e-47a6-9d8f-809f554335b4"},"vehicle_type_id":"4","last_reported":1747602514,"current_range_meters":17200,"station_id":"ce4bhnp2rcd13ifvqgvg","pricing_plan_id":"cebpf4jnsgd1na2vs0mg"},{"bike_id":"f63c9346-f5de-4472-920c-b0cafb41a135","system_id":"levelo_inurba_marseille","lat":43.270409,"lon":5.403062,"is_reserved":false,"is_disabled":true,"rental_uris":{"android":"levelo://app?vid=f63c9346-f5de-4472-920c-b0cafb41a135","ios":"levelo://app?vid=f63c9346-f5de-4472-920c-b0cafb41a135"},"vehicle_type_id":"4","last_reported":1747602514,"current_range_meters":17200,"station_id":"ce4bhk92rcd13ifvqgc0","pricing_plan_id":"cebpf4jnsgd1na2vs0mg"},{"bike_id":"ea91362a-00d2-44b2-8245-e7abd185b362","system_id":"levelo_inurba_marseille","lat":43.27066,"lon":5.42259,"is_reserved":false,"is_disabled":false,"rental_uris":{"android":"levelo://app?vid=ea91362a-00d2-44b2-8245-e7abd185b362","ios":"levelo://app?vid=ea91362a-00d2-44b2-8245-e7abd185b362"},"vehicle_type_id":"4","last_reported":1747602514,"current_range_meters":17600,"station_id":"ce4bhk92rcd13ifvqgb0","pricing_plan_id":"cebpf4jnsgd1na2vs0mg"},{"bike_id":"2d5104a5-8690-4634-bcfa-fc773c5865c8","system_id":"levelo_inurba_marseille","lat":43.29978,"lon":5.37194,"is_reserved":false,"is_disabled":false,"rental_uris":{"android":"levelo://app?vid=2d5104a5-8690-4634-bcfa-fc773c5865c8","ios":"levelo://app?vid=2d5104a5-8690-4634-bcfa-fc773c5865c8"},"vehicle_type_id":"4","last_reported":1747602514,"current_range_meters":17600,"station_id":"ce4bgr92rcd13ifvqc7g","pricing_plan_id":"cebpf4jnsgd1na2vs0mg"},{"bike_id":"ab40d454-2496-4967-a2a5-fd9afd944516","system_id":"levelo_inurba_marseille","lat":43.28708,"lon":5.37394,"is_reserved":false,"is_disabled":false,"rental_uris":{"android":"levelo://app?vid=ab40d454-2496-4967-a2a5-fd9afd944516","ios":"levelo://app?vid=ab40d454-2496-4967-a2a5-fd9afd944516"},"vehicle_type_id":"4","last_reported":1747602514,"current_range_meters":17600,"station_id":"ce4bh3p2rcd13ifvqdq0","pricing_plan_id":"cebpf4jnsgd1na2vs0mg"},{"bike_id":"d7d50958-d866-4779-b5e9-dd4312f50791","system_id":"levelo_inurba_marseille","lat":43.29026,"lon":5.38627,"is_reserved":false,"is_disabled":false,"rental_uris":{"android":"levelo://app?vid=d7d50958-d866-4779-b5e9-dd4312f50791","ios":"levelo://app?vid=d7d50958-d866-4779-b5e9-dd4312f50791"},"vehicle_type_id":"4","last_reported":1747602514,"current_range_meters":18000,"station_id":"ce4bh4p2rcd13ifvqe0g","pricing_plan_id":"cebpf4jnsgd1na2vs0mg"},{"bike_id":"d919db5a-e31a-43e2-99e6-666c9eff6f83","system_id":"levelo_inurba_marseille","lat":43.24648,"lon":5.38896,"is_reserved":false,"is_disabled":false,"rental_uris":{"android":"levelo://app?vid=d919db5a-e31a-43e2-99e6-666c9eff6f83","ios":"levelo://app?vid=d919db5a-e31a-43e2-99e6-666c9eff6f83"},"vehicle_type_id":"4","last_reported":1747602514,"current_range_meters":18000,"station_id":"ce4bhg12rcd13ifvqf60","pricing_plan_id":"cebpf4jnsgd1na2vs0mg"},{"bike_id":"2fc2c404-de05-4e6c-a659-714ba6398df1","system_id":"levelo_inurba_marseille","lat":43.33862,"lon":5.40513,"is_reserved":false,"is_disabled":false,"rental_uris":{"android":"levelo://app?vid=2fc2c404-de05-4e6c-a659-714ba6398df1","ios":"levelo://app?vid=2fc2c404-de05-4e6c-a659-714ba6398df1"},"vehicle_type_id":"4","last_reported":1747602514,"current_range_meters":18000,"station_id":"","pricing_plan_id":"cebpf4jnsgd1na2vs0mg"},{"bike_id":"e8162579-a5ad-485f-ad83-fec8a2ebe7e1","system_id":"levelo_inurba_marseille","lat":43.26826,"lon":5.39099,"is_reserved":false,"is_disabled":false,"rental_uris":{"android":"levelo://app?vid=e8162579-a5ad-485f-ad83-fec8a2ebe7e1","ios":"levelo://app?vid=e8162579-a5ad-485f-ad83-fec8a2ebe7e1"},"vehicle_type_id":"4","last_reported":1747602514,"current_range_meters":18800,"station_id":"","pricing_plan_id":"cebpf4jnsgd1na2vs0mg"},{"bike_id":"a38395c8-547a-44db-be7c-94283cea283f","system_id":"levelo_inurba_marseille","lat":43.31357,"lon":5.38495,"is_reserved":false,"is_disabled":false,"rental_uris":{"android":"levelo://app?vid=a38395c8-547a-44db-be7c-94283cea283f","ios":"levelo://app?vid=a38395c8-547a-44db-be7c-94283cea283f"},"vehicle_type_id":"4","last_reported":1747602514,"current_range_meters":19600,"station_id":"ce4bgt92rcd13ifvqcf0","pricing_plan_id":"cebpf4jnsgd1na2vs0mg"},{"bike_id":"0cfae820-cdf5-4a99-8ff5-7860db81de27","system_id":"levelo_inurba_marseille","lat":43.29203,"lon":5.39319,"is_reserved":false,"is_disabled":false,"rental_uris":{"android":"levelo://app?vid=0cfae820-cdf5-4a99-8ff5-7860db81de27","ios":"levelo://app?vid=0cfae820-cdf5-4a99-8ff5-7860db81de27"},"vehicle_type_id":"4","last_reported":1747602514,"current_range_meters":18800,"station_id":"ce4bh192rcd13ifvqdd0","pricing_plan_id":"cebpf4jnsgd1na2vs0mg"},{"bike_id":"c7acb669-b4aa-44b7-94ce-4dfcd32b697e","system_id":"levelo_inurba_marseille","lat":43.29505,"lon":5.39407,"is_reserved":false,"is_disabled":false,"rental_uris":{"android":"levelo://app?vid=c7acb669-b4aa-44b7-94ce-4dfcd32b697e","ios":"levelo://app?vid=c7acb669-b4aa-44b7-94ce-4dfcd32b697e"},"vehicle_type_id":"4","last_reported":1747602514,"current_range_meters":18800,"station_id":"ce4bh292rcd13ifvqdf0","pricing_plan_id":"cebpf4jnsgd1na2vs0mg"},{"bike_id":"a7f7c69f-8e30-4ab1-b0ad-53d7a45c0a15","system_id":"levelo_inurba_marseille","lat":43.243838,"lon":5.370688,"is_reserved":false,"is_disabled":true,"rental_uris":{"android":"levelo://app?vid=a7f7c69f-8e30-4ab1-b0ad-53d7a45c0a15","ios":"levelo://app?vid=a7f7c69f-8e30-4ab1-b0ad-53d7a45c0a15"},"vehicle_type_id":"4","last_reported":1747602514,"current_range_meters":18800,"station_id":"ce4bhhh2rcd13ifvqfk0","pricing_plan_id":"cebpf4jnsgd1na2vs0mg"},{"bike_id":"5b5b5308-5520-4034-b7ad-f4dfde106a04","system_id":"levelo_inurba_marseille","lat":43.28146,"lon":5.42619,"is_reserved":false,"is_disabled":false,"rental_uris":{"android":"levelo://app?vid=5b5b5308-5520-4034-b7ad-f4dfde106a04","ios":"levelo://app?vid=5b5b5308-5520-4034-b7ad-f4dfde106a04"},"vehicle_type_id":"4","last_reported":1747602514,"current_range_meters":18800,"station_id":"ce4bhnh2rcd13ifvqgug","pricing_plan_id":"cebpf4jnsgd1na2vs0mg"},{"bike_id":"090eff22-c1fd-4bcd-abb2-7f77530711d5","system_id":"levelo_inurba_marseille","lat":43.28572,"lon":5.39491,"is_reserved":false,"is_disabled":false,"rental_uris":{"android":"levelo://app?vid=090eff22-c1fd-4bcd-abb2-7f77530711d5","ios":"levelo://app?vid=090eff22-c1fd-4bcd-abb2-7f77530711d5"},"vehicle_type_id":"4","last_reported":1747602514,"current_range_meters":18800,"station_id":"ce4bh292rcd13ifvqdg0","pricing_plan_id":"cebpf4jnsgd1na2vs0mg"},{"bike_id":"e5c7738b-14a6-4eb6-bced-bc3dd60e0494","system_id":"levelo_inurba_marseille","lat":43.32543,"lon":5.4143,"is_reserved":false,"is_disabled":false,"rental_uris":{"android":"levelo://app?vid=e5c7738b-14a6-4eb6-bced-bc3dd60e0494","ios":"levelo://app?vid=e5c7738b-14a6-4eb6-bced-bc3dd60e0494"},"vehicle_type_id":"4","last_reported":1747602514,"current_range_meters":18000,"station_id":"","pricing_plan_id":"cebpf4jnsgd1na2vs0mg"},{"bike_id":"10079349-e9e5-403f-a822-e397aa6d3540","system_id":"levelo_inurba_marseille","lat":43.31527,"lon":5.38027,"is_reserved":false,"is_disabled":false,"rental_uris":{"android":"levelo://app?vid=10079349-e9e5-403f-a822-e397aa6d3540","ios":"levelo://app?vid=10079349-e9e5-403f-a822-e397aa6d3540"},"vehicle_type_id":"4","last_reported":1747602514,"current_range_meters":18800,"station_id":"ce4bhsp2rcd13ifvqi50","pricing_plan_id":"cebpf4jnsgd1na2vs0mg"},{"bike_id":"a607d283-d290-485a-9155-50a949fba7e9","system_id":"levelo_inurba_marseille","lat":43.28718,"lon":5.3998,"is_reserved":false,"is_disabled":false,"rental_uris":{"android":"levelo://app?vid=a607d283-d290-485a-9155-50a949fba7e9","ios":"levelo://app?vid=a607d283-d290-485a-9155-50a949fba7e9"},"vehicle_type_id":"4","last_reported":1747602514,"current_range_meters":18800,"station_id":"ce4bho92rcd13ifvqh3g","pricing_plan_id":"cebpf4jnsgd1na2vs0mg"},{"bike_id":"4582e055-67fa-41ba-a2c6-1d89aedd7e83","system_id":"levelo_inurba_marseille","lat":43.28934,"lon":5.38374,"is_reserved":false,"is_disabled":false,"rental_uris":{"android":"levelo://app?vid=4582e055-67fa-41ba-a2c6-1d89aedd7e83","ios":"levelo://app?vid=4582e055-67fa-41ba-a2c6-1d89aedd7e83"},"vehicle_type_id":"4","last_reported":1747602514,"current_range_meters":18800,"station_id":"","pricing_plan_id":"cebpf4jnsgd1na2vs0mg"},{"bike_id":"ffaf3062-224f-4ea7-af5b-6cecc717a772","system_id":"levelo_inurba_marseille","lat":43.30909,"lon":5.36847,"is_reserved":false,"is_disabled":false,"rental_uris":{"android":"levelo://app?vid=ffaf3062-224f-4ea7-af5b-6cecc717a772","ios":"levelo://app?vid=ffaf3062-224f-4ea7-af5b-6cecc717a772"},"vehicle_type_id":"4","last_reported":1747602514,"current_range_meters":19200,"station_id":"ce4bgn92rcd13ifvqbvg","pricing_plan_id":"cebpf4jnsgd1na2vs0mg"},{"bike_id":"2edac17f-64df-47b7-a848-7c42cf0f36e7","system_id":"levelo_inurba_marseille","lat":43.27817,"lon":5.407103,"is_reserved":false,"is_disabled":false,"rental_uris":{"android":"levelo://app?vid=2edac17f-64df-47b7-a848-7c42cf0f36e7","ios":"levelo://app?vid=2edac17f-64df-47b7-a848-7c42cf0f36e7"},"vehicle_type_id":"4","last_reported":1747602514,"current_range_meters":19200,"station_id":"ce4bhnh2rcd13ifvqgtg","pricing_plan_id":"cebpf4jnsgd1na2vs0mg"},{"bike_id":"2b1a9abb-b4fe-48ac-a33c-e26414700371","system_id":"levelo_inurba_marseille","lat":43.251059,"lon":5.403249,"is_reserved":false,"is_disabled":false,"rental_uris":{"android":"levelo://app?vid=2b1a9abb-b4fe-48ac-a33c-e26414700371","ios":"levelo://app?vid=2b1a9abb-b4fe-48ac-a33c-e26414700371"},"vehicle_type_id":"4","last_reported":1747602514,"current_range_meters":19200,"station_id":"ce4bhlh2rcd13ifvqgig","pricing_plan_id":"cebpf4jnsgd1na2vs0mg"},{"bike_id":"2c5b0dad-3a5c-4908-8ce2-98d1673660b3","system_id":"levelo_inurba_marseille","lat":43.28736,"lon":5.37398,"is_reserved":false,"is_disabled":false,"rental_uris":{"android":"levelo://app?vid=2c5b0dad-3a5c-4908-8ce2-98d1673660b3","ios":"levelo://app?vid=2c5b0dad-3a5c-4908-8ce2-98d1673660b3"},"vehicle_type_id":"4","last_reported":1747602514,"current_range_meters":19200,"station_id":"ce4bh3p2rcd13ifvqdq0","pricing_plan_id":"cebpf4jnsgd1na2vs0mg"},{"bike_id":"b16885dd-407c-4d5c-8611-d72348566c4c","system_id":"levelo_inurba_marseille","lat":43.26569,"lon":5.3902,"is_reserved":false,"is_disabled":false,"rental_uris":{"android":"levelo://app?vid=b16885dd-407c-4d5c-8611-d72348566c4c","ios":"levelo://app?vid=b16885dd-407c-4d5c-8611-d72348566c4c"},"vehicle_type_id":"4","last_reported":1747602514,"current_range_meters":19200,"station_id":"ce4bhe12rcd13ifvqf30","pricing_plan_id":"cebpf4jnsgd1na2vs0mg"},{"bike_id":"e047b05a-36e0-4e37-b294-3b5ddd602af4","system_id":"levelo_inurba_marseille","lat":43.285812,"lon":5.394946,"is_reserved":false,"is_disabled":false,"rental_uris":{"android":"levelo://app?vid=e047b05a-36e0-4e37-b294-3b5ddd602af4","ios":"levelo://app?vid=e047b05a-36e0-4e37-b294-3b5ddd602af4"},"vehicle_type_id":"4","last_reported":1747602514,"current_range_meters":19200,"station_id":"","pricing_plan_id":"cebpf4jnsgd1na2vs0mg"},{"bike_id":"ec5696db-b3a4-4ace-9494-c5ae12f4361d","system_id":"levelo_inurba_marseille","lat":43.27483,"lon":5.36063,"is_reserved":false,"is_disabled":true,"rental_uris":{"android":"levelo://app?vid=ec5696db-b3a4-4ace-9494-c5ae12f4361d","ios":"levelo://app?vid=ec5696db-b3a4-4ace-9494-c5ae12f4361d"},"vehicle_type_id":"4","last_reported":1747602514,"current_range_meters":19200,"station_id":"","pricing_plan_id":"cebpf4jnsgd1na2vs0mg"},{"bike_id":"f198f61c-140a-45ab-9df5-fbdfbf1e2560","system_id":"levelo_inurba_marseille","lat":43.32037,"lon":5.38144,"is_reserved":false,"is_disabled":true,"rental_uris":{"android":"levelo://app?vid=f198f61c-140a-45ab-9df5-fbdfbf1e2560","ios":"levelo://app?vid=f198f61c-140a-45ab-9df5-fbdfbf1e2560"},"vehicle_type_id":"4","last_reported":1747602514,"current_range_meters":19200,"station_id":"","pricing_plan_id":"cebpf4jnsgd1na2vs0mg"},{"bike_id":"9035525d-8db2-478d-8eca-49e4b86cd727","system_id":"levelo_inurba_marseille","lat":43.29885,"lon":5.436513,"is_reserved":false,"is_disabled":false,"rental_uris":{"android":"levelo://app?vid=9035525d-8db2-478d-8eca-49e4b86cd727","ios":"levelo://app?vid=9035525d-8db2-478d-8eca-49e4b86cd727"},"vehicle_type_id":"4","last_reported":1747602514,"current_range_meters":19600,"station_id":"ce4bhpp2rcd13ifvqhfg","pricing_plan_id":"cebpf4jnsgd1na2vs0mg"},{"bike_id":"d0283942-91f4-4a79-a23c-24ce22d10510","system_id":"levelo_inurba_marseille","lat":43.30775,"lon":5.37651,"is_reserved":false,"is_disabled":false,"rental_uris":{"android":"levelo://app?vid=d0283942-91f4-4a79-a23c-24ce22d10510","ios":"levelo://app?vid=d0283942-91f4-4a79-a23c-24ce22d10510"},"vehicle_type_id":"4","last_reported":1747602514,"current_range_meters":19600,"station_id":"ce4bgv92rcd13ifvqcq0","pricing_plan_id":"cebpf4jnsgd1na2vs0mg"},{"bike_id":"6bdf6fdd-9502-4276-a01f-4fbb41e716d9","system_id":"levelo_inurba_marseille","lat":43.29785,"lon":5.38083,"is_reserved":false,"is_disabled":false,"rental_uris":{"android":"levelo://app?vid=6bdf6fdd-9502-4276-a01f-4fbb41e716d9","ios":"levelo://app?vid=6bdf6fdd-9502-4276-a01f-4fbb41e716d9"},"vehicle_type_id":"4","last_reported":1747602514,"current_range_meters":19200,"station_id":"ce4bhop2rcd13ifvqh8g","pricing_plan_id":"cebpf4jnsgd1na2vs0mg"},{"bike_id":"36a261f1-7667-4dd0-8c00-fea7d96a9d5c","system_id":"levelo_inurba_marseille","lat":43.31162,"lon":5.38727,"is_reserved":false,"is_disabled":false,"rental_uris":{"android":"levelo://app?vid=36a261f1-7667-4dd0-8c00-fea7d96a9d5c","ios":"levelo://app?vid=36a261f1-7667-4dd0-8c00-fea7d96a9d5c"},"vehicle_type_id":"4","last_reported":1747602514,"current_range_meters":19200,"station_id":"ce4bgv12rcd13ifvqcp0","pricing_plan_id":"cebpf4jnsgd1na2vs0mg"},{"bike_id":"c1929fb6-acf6-4a05-9edf-4318a1bdea21","system_id":"levelo_inurba_marseille","lat":43.32365,"lon":5.38885,"is_reserved":false,"is_disabled":false,"rental_uris":{"android":"levelo://app?vid=c1929fb6-acf6-4a05-9edf-4318a1bdea21","ios":"levelo://app?vid=c1929fb6-acf6-4a05-9edf-4318a1bdea21"},"vehicle_type_id":"4","last_reported":1747602514,"current_range_meters":19600,"station_id":"ce4bhqp2rcd13ifvqhog","pricing_plan_id":"cebpf4jnsgd1na2vs0mg"},{"bike_id":"2fb949d1-294f-4b28-be4c-d73bb46cb255","system_id":"levelo_inurba_marseille","lat":43.275686,"lon":5.384166,"is_reserved":false,"is_disabled":false,"rental_uris":{"android":"levelo://app?vid=2fb949d1-294f-4b28-be4c-d73bb46cb255","ios":"levelo://app?vid=2fb949d1-294f-4b28-be4c-d73bb46cb255"},"vehicle_type_id":"4","last_reported":1747602514,"current_range_meters":19600,"station_id":"ce4bhh92rcd13ifvqfi0","pricing_plan_id":"cebpf4jnsgd1na2vs0mg"},{"bike_id":"0162ee7e-52a7-479d-91fd-dd08a70dfd39","system_id":"levelo_inurba_marseille","lat":43.29126,"lon":5.39342,"is_reserved":false,"is_disabled":false,"rental_uris":{"android":"levelo://app?vid=0162ee7e-52a7-479d-91fd-dd08a70dfd39","ios":"levelo://app?vid=0162ee7e-52a7-479d-91fd-dd08a70dfd39"},"vehicle_type_id":"4","last_reported":1747602514,"current_range_meters":19600,"station_id":"ce4bh192rcd13ifvqdd0","pricing_plan_id":"cebpf4jnsgd1na2vs0mg"},{"bike_id":"32c10455-a058-47f0-94a9-880a27084ee3","system_id":"levelo_inurba_marseille","lat":43.2696,"lon":5.38638,"is_reserved":false,"is_disabled":false,"rental_uris":{"android":"levelo://app?vid=32c10455-a058-47f0-94a9-880a27084ee3","ios":"levelo://app?vid=32c10455-a058-47f0-94a9-880a27084ee3"},"vehicle_type_id":"4","last_reported":1747602514,"current_range_meters":19600,"station_id":"ce4bhh92rcd13ifvqfh0","pricing_plan_id":"cebpf4jnsgd1na2vs0mg"},{"bike_id":"ab7d1ddb-c6ab-4c47-831b-69e06fb8bb1b","system_id":"levelo_inurba_marseille","lat":43.21761,"lon":5.34591,"is_reserved":false,"is_disabled":false,"rental_uris":{"android":"levelo://app?vid=ab7d1ddb-c6ab-4c47-831b-69e06fb8bb1b","ios":"levelo://app?vid=ab7d1ddb-c6ab-4c47-831b-69e06fb8bb1b"},"vehicle_type_id":"4","last_reported":1747602514,"current_range_meters":20000,"station_id":"st_cvj6r9ubvosntc0bgbag","pricing_plan_id":"cebpf4jnsgd1na2vs0mg"},{"bike_id":"0a6bda8c-eba1-4d6b-82e7-f5a94d1cb937","system_id":"levelo_inurba_marseille","lat":43.31705,"lon":5.37753,"is_reserved":false,"is_disabled":false,"rental_uris":{"android":"levelo://app?vid=0a6bda8c-eba1-4d6b-82e7-f5a94d1cb937","ios":"levelo://app?vid=0a6bda8c-eba1-4d6b-82e7-f5a94d1cb937"},"vehicle_type_id":"4","last_reported":1747602514,"current_range_meters":19600,"station_id":"ce4bgth2rcd13ifvqch0","pricing_plan_id":"cebpf4jnsgd1na2vs0mg"},{"bike_id":"192ae61e-5e2e-43d5-a32e-88cc0487ea7c","system_id":"levelo_inurba_marseille","lat":43.24673,"lon":5.38917,"is_reserved":false,"is_disabled":false,"rental_uris":{"android":"levelo://app?vid=192ae61e-5e2e-43d5-a32e-88cc0487ea7c","ios":"levelo://app?vid=192ae61e-5e2e-43d5-a32e-88cc0487ea7c"},"vehicle_type_id":"4","last_reported":1747602514,"current_range_meters":20000,"station_id":"ce4bhg12rcd13ifvqf60","pricing_plan_id":"cebpf4jnsgd1na2vs0mg"},{"bike_id":"e2e3a6f6-0f08-4185-b27b-75bc9500a96d","system_id":"levelo_inurba_marseille","lat":43.2119,"lon":5.35073,"is_reserved":false,"is_disabled":true,"rental_uris":{"android":"levelo://app?vid=e2e3a6f6-0f08-4185-b27b-75bc9500a96d","ios":"levelo://app?vid=e2e3a6f6-0f08-4185-b27b-75bc9500a96d"},"vehicle_type_id":"4","last_reported":1747602514,"current_range_meters":20000,"station_id":"st_cvj6sg6p6f1abm77japg","pricing_plan_id":"cebpf4jnsgd1na2vs0mg"},{"bike_id":"3552fbf2-b43a-446f-93f5-d695fc251b73","system_id":"levelo_inurba_marseille","lat":43.25172,"lon":5.37517,"is_reserved":false,"is_disabled":false,"rental_uris":{"android":"levelo://app?vid=3552fbf2-b43a-446f-93f5-d695fc251b73","ios":"levelo://app?vid=3552fbf2-b43a-446f-93f5-d695fc251b73"},"vehicle_type_id":"4","last_reported":1747602514,"current_range_meters":20000,"station_id":"","pricing_plan_id":"cebpf4jnsgd1na2vs0mg"},{"bike_id":"af1bb4f9-1339-4852-aa0c-c9bdb2fa0aea","system_id":"levelo_inurba_marseille","lat":43.28103,"lon":5.3784,"is_reserved":false,"is_disabled":false,"rental_uris":{"android":"levelo://app?vid=af1bb4f9-1339-4852-aa0c-c9bdb2fa0aea","ios":"levelo://app?vid=af1bb4f9-1339-4852-aa0c-c9bdb2fa0aea"},"vehicle_type_id":"4","last_reported":1747602514,"current_range_meters":20000,"station_id":"ce4bha12rcd13ifvqee0","pricing_plan_id":"cebpf4jnsgd1na2vs0mg"},{"bike_id":"f10c7f80-369b-498b-8d67-1d2ccccfe061","system_id":"levelo_inurba_marseille","lat":43.28702,"lon":5.37383,"is_reserved":false,"is_disabled":false,"rental_uris":{"android":"levelo://app?vid=f10c7f80-369b-498b-8d67-1d2ccccfe061","ios":"levelo://app?vid=f10c7f80-369b-498b-8d67-1d2ccccfe061"},"vehicle_type_id":"4","last_reported":1747602514,"current_range_meters":20000,"station_id":"ce4bh3p2rcd13ifvqdq0","pricing_plan_id":"cebpf4jnsgd1na2vs0mg"},{"bike_id":"431750b8-e0a2-4e9f-9b2b-7d4fb8bb5c04","system_id":"levelo_inurba_marseille","lat":43.23195,"lon":5.35545,"is_reserved":false,"is_disabled":false,"rental_uris":{"android":"levelo://app?vid=431750b8-e0a2-4e9f-9b2b-7d4fb8bb5c04","ios":"levelo://app?vid=431750b8-e0a2-4e9f-9b2b-7d4fb8bb5c04"},"vehicle_type_id":"4","last_reported":1747602514,"current_range_meters":20000,"station_id":"ce4bhu92rcd13ifvqi70","pricing_plan_id":"cebpf4jnsgd1na2vs0mg"},{"bike_id":"0aa93a17-2c67-4401-bc28-11d2158b34f7","system_id":"levelo_inurba_marseille","lat":43.24061,"lon":5.37739,"is_reserved":false,"is_disabled":false,"rental_uris":{"android":"levelo://app?vid=0aa93a17-2c67-4401-bc28-11d2158b34f7","ios":"levelo://app?vid=0aa93a17-2c67-4401-bc28-11d2158b34f7"},"vehicle_type_id":"4","last_reported":1747602514,"current_range_meters":20400,"station_id":"ce4bhnp2rcd13ifvqgvg","pricing_plan_id":"cebpf4jnsgd1na2vs0mg"},{"bike_id":"67762e7b-83a2-4f05-84e7-0db3321140ef","system_id":"levelo_inurba_marseille","lat":43.31491,"lon":5.37309,"is_reserved":false,"is_disabled":false,"rental_uris":{"android":"levelo://app?vid=67762e7b-83a2-4f05-84e7-0db3321140ef","ios":"levelo://app?vid=67762e7b-83a2-4f05-84e7-0db3321140ef"},"vehicle_type_id":"4","last_reported":1747602514,"current_range_meters":20400,"station_id":"ce4bgt12rcd13ifvqcd0","pricing_plan_id":"cebpf4jnsgd1na2vs0mg"},{"bike_id":"1ddd815c-6a3b-46da-94aa-ca792f8675d1","system_id":"levelo_inurba_marseille","lat":43.28562,"lon":5.39491,"is_reserved":false,"is_disabled":false,"rental_uris":{"android":"levelo://app?vid=1ddd815c-6a3b-46da-94aa-ca792f8675d1","ios":"levelo://app?vid=1ddd815c-6a3b-46da-94aa-ca792f8675d1"},"vehicle_type_id":"4","last_reported":1747602514,"current_range_meters":20800,"station_id":"ce4bh292rcd13ifvqdg0","pricing_plan_id":"cebpf4jnsgd1na2vs0mg"},{"bike_id":"6219e431-0d10-4995-bdc1-dcd619339c50","system_id":"levelo_inurba_marseille","lat":43.23254,"lon":5.3998,"is_reserved":false,"is_disabled":false,"rental_uris":{"android":"levelo://app?vid=6219e431-0d10-4995-bdc1-dcd619339c50","ios":"levelo://app?vid=6219e431-0d10-4995-bdc1-dcd619339c50"},"vehicle_type_id":"4","last_reported":1747602514,"current_range_meters":20400,"station_id":"","pricing_plan_id":"cebpf4jnsgd1na2vs0mg"},{"bike_id":"31817c8f-fbb5-41fe-9496-8dec97fb5c43","system_id":"levelo_inurba_marseille","lat":43.303287,"lon":5.404359,"is_reserved":false,"is_disabled":true,"rental_uris":{"android":"levelo://app?vid=31817c8f-fbb5-41fe-9496-8dec97fb5c43","ios":"levelo://app?vid=31817c8f-fbb5-41fe-9496-8dec97fb5c43"},"vehicle_type_id":"4","last_reported":1747602514,"current_range_meters":20400,"station_id":"ce4bh012rcd13ifvqd10","pricing_plan_id":"cebpf4jnsgd1na2vs0mg"},