{"last_updated":1711278291,"ttl":30,"version":"2.2","data":{"bikes":[{"bike_id":"92163c80-9c1f-4365-9824-e76fc95a1595","system_id":"levelo_inurba_marseille","lat":43.312239,"lon":5.368562,"is_reserved":false,"is_disabled":false,"rental_uris":{"android":"levelo://app?vid=92163c80-9c1f-4365-9824-e76fc95a1595","ios":"levelo://app?vid=92163c80-9c1f-4365-9824-e76fc95a1595"},"vehicle_type_id":"4","last_reported":1711278291,"current_range_meters":25200,"station_id":"ce4bgl92rcd13ifvqbq0","pricing_plan_id":"cebpf4jnsgd1na2vs0mg"},{"bike_id":"87bb5ca5-1a5a-4fa4-b0b1-f700588222b1","system_id":"levelo_inurba_marseille","lat":43.312239,"lon":5.368562,"is_reserved":false,"is_disabled":false,"rental_uris":{"android":"levelo://app?vid=87bb5ca5-1a5a-4fa4-b0b1-f700588222b1","ios":"levelo://app?vid=87bb5ca5-1a5a-4fa4-b0b1-f700588222b1"},"vehicle_type_id":"4","last_reported":1711278291,"current_range_meters":28800,"station_id":"ce4bgl92rcd13ifvqbq0","pricing_plan_id":"cebpf4jnsgd1na2vs0mg"},{"bike_id":"310f6695-518c-47b6-beba-1d2581ca86c3","system_id":"levelo_inurba_marseille","lat":43.314811,"lon":5.373103,"is_reserved":false,"is_disabled":false,"rental_uris":{"android":"levelo://app?vid=310f6695-518c-47b6-beba-1d2581ca86c3","ios":"levelo://app?vid=310f6695-518c-47b6-beba-1d2581ca86c3"},"vehicle_type_id":"4","last_reported":1711278291,"current_range_meters":26400,"station_id":"ce4bgt12rcd13ifvqcd0","pricing_plan_id":"cebpf4jnsgd1na2vs0mg"},{"bike_id":"1f317919-1530-4ad7-97e6-9c94696acfba","system_id":"levelo_inurba_marseille","lat":43.314811,"lon":5.373103,"is_reserved":false,"is_disabled":false,"rental_uris":{"android":"levelo://app?vid=1f317919-1530-4ad7-97e6-9c94696acfba","ios":"levelo://app?vid=1f317919-1530-4ad7-97e6-9c94696acfba"},"vehicle_type_id":"4","last_reported":1711278291,"current_range_meters":12400,"station_id":"ce4bgt12rcd13ifvqcd0","pricing_plan_id":"cebpf4jnsgd1na2vs0mg"},{"bike_id":"cada30c4-4683-44e1-a925-198e5d99cfd7","system_id":"levelo_inurba_marseille","lat":43.314811,"lon":5.373103,"is_reserved":false,"is_disabled":false,"rental_uris":{"android":"levelo://app?vid=cada30c4-4683-44e1-a925-198e5d99cfd7","ios":"levelo://app?vid=cada30c4-4683-44e1-a925-198e5d99cfd7"},"vehicle_type_id":"4","last_reported":1711278291,"current_range_meters":21200,"station_id":"ce4bgt12rcd13ifvqcd0","pricing_plan_id":"cebpf4jnsgd1na2vs0mg"},{"bike_id":"a4f2026e-12c1-431c-9c2b-51add3b909c0","system_id":"levelo_inurba_marseille","lat":43.314811,"lon":5.373103,"is_reserved":false,"is_disabled":false,"rental_uris":{"android":"levelo://app?vid=a4f2026e-12c1-431c-9c2b-51add3b909c0","ios":"levelo://app?vid=a4f2026e-12c1-431c-9c2b-51add3b909c0"},"vehicle_type_id":"4","last_reported":1711278291,"current_range_meters":15200,"station_id":"ce4bgt12rcd13ifvqcd0","pricing_plan_id":"cebpf4jnsgd1na2vs0mg"},{"bike_id":"85ed9e58-8ca1-4c82-8521-700a26dc9551","system_id":"levelo_inurba_marseille","lat":43.314811,"lon":5.373103,"is_reserved":false,"is_disabled":false,"rental_uris":{"android":"levelo://app?vid=85ed9e58-8ca1-4c82-8521-700a26dc9551","ios":"levelo://app?vid=85ed9e58-8ca1-4c82-8521-700a26dc9551"},"vehicle_type_id":"4","last_reported":1711278291,"current_range_meters":23200,"station_id":"ce4bgt12rcd13ifvqcd0","pricing_plan_id":"cebpf4jnsgd1na2vs0mg"},{"bike_id":"2399bbac-bba8-4745-a8c8-5f73c782fe1a","system_id":"levelo_inurba_marseille","lat":43.314811,"lon":5.373103,"is_reserved":false,"is_disabled":false,"rental_uris":{"android":"levelo://app?vid=2399bbac-bba8-4745-a8c8-5f73c782fe1a","ios":"levelo://app?vid=2399bbac-bba8-4745-a8c8-5f73c782fe1a"},"vehicle_type_id":"4","last_reported":1711278291,"current_range_meters":17600,"station_id":"ce4bgt12rcd13ifvqcd0","pricing_plan_id":"cebpf4jnsgd1na2vs0mg"},{"bike_id":"29543272-cd48-4732-9186-d7e4388ea8b8","system_id":"levelo_inurba_marseille","lat":43.31494,"lon":5.37307,"is_reserved":false,"is_disabled":false,"rental_uris":{"android":"levelo://app?vid=29543272-cd48-4732-9186-d7e4388ea8b8","ios":"levelo://app?vid=29543272-cd48-4732-9186-d7e4388ea8b8"},"vehicle_type_id":"4","last_reported":1711278291,"current_range_meters":1600,"station_id":"ce4bgt12rcd13ifvqcd0","pricing_plan_id":"cebpf4jnsgd1na2vs0mg"},{"bike_id":"c385d6c7-f34c-4887-843e-90f8a13c5b80","system_id":"levelo_inurba_marseille","lat":43.314811,"lon":5.373103,"is_reserved":false,"is_disabled":false,"rental_uris":{"android":"levelo://app?vid=c385d6c7-f34c-4887-843e-90f8a13c5b80","ios":"levelo://app?vid=c385d6c7-f34c-4887-843e-90f8a13c5b80"},"vehicle_type_id":"4","last_reported":1711278291,"current_range_meters":15200,"station_id":"ce4bgt12rcd13ifvqcd0","pricing_plan_id":"cebpf4jnsgd1na2vs0mg"},{"bike_id":"89fe8493-0af6-463e-b167-a40c9659ad0e","system_id":"levelo_inurba_marseille","lat":43.314811,"lon":5.373103,"is_reserved":false,"is_disabled":false,"rental_uris":{"android":"levelo://app?vid=89fe8493-0af6-463e-b167-a40c9659ad0e","ios":"levelo://app?vid=89fe8493-0af6-463e-b167-a40c9659ad0e"},"vehicle_type_id":"4","last_reported":1711278291,"current_range_meters":17600,"station_id":"ce4bgt12rcd13ifvqcd0","pricing_plan_id":"cebpf4jnsgd1na2vs0mg"},{"bike_id":"3839c265-bd06-4d27-90bb-382a68820f72","system_id":"levelo_inurba_marseille","lat":43.30537,"lon":5.367345,"is_reserved":false,"is_disabled":false,"rental_uris":{"android":"levelo://app?vid=3839c265-bd06-4d27-90bb-382a68820f72","ios":"levelo://app?vid=3839c265-bd06-4d27-90bb-382a68820f72"},"vehicle_type_id":"4","last_reported":1711278291,"current_range_meters":2000,"station_id":"ce4bgrp2rcd13ifvqc9g","pricing_plan_id":"cebpf4jnsgd1na2vs0mg"},{"bike_id":"07330462-b597-4dbd-ad2a-3f3a06c3a560","system_id":"levelo_inurba_marseille","lat":43.305714,"lon":5.365633,"is_reserved":false,"is_disabled":false,"rental_uris":{"android":"levelo://app?vid=07330462-b597-4dbd-ad2a-3f3a06c3a560","ios":"levelo://app?vid=07330462-b597-4dbd-ad2a-3f3a06c3a560"},"vehicle_type_id":"4","last_reported":1711278291,"current_range_meters":16400,"station_id":"ce4bgs12rcd13ifvqcag","pricing_plan_id":"cebpf4jnsgd1na2vs0mg"},{"bike_id":"d5ff7ed9-d399-4b88-b44f-3e428d248261","system_id":"levelo_inurba_marseille","lat":43.305714,"lon":5.365633,"is_reserved":false,"is_disabled":false,"rental_uris":{"android":"levelo://app?vid=d5ff7ed9-d399-4b88-b44f-3e428d248261","ios":"levelo://app?vid=d5ff7ed9-d399-4b88-b44f-3e428d248261"},"vehicle_type_id":"4","last_reported":1711278291,"current_range_meters":18800,"station_id":"ce4bgs12rcd13ifvqcag","pricing_plan_id":"cebpf4jnsgd1na2vs0mg"},{"bike_id":"44ce58b9-eb67-4738-ba88-dbcdfd14ae52","system_id":"levelo_inurba_marseille","lat":43.305706,"lon":5.365654,"is_reserved":false,"is_disabled":false,"rental_uris":{"android":"levelo://app?vid=44ce58b9-eb67-4738-ba88-dbcdfd14ae52","ios":"levelo://app?vid=44ce58b9-eb67-4738-ba88-dbcdfd14ae52"},"vehicle_type_id":"4","last_reported":1711278291,"current_range_meters":22000,"station_id":"ce4bgs12rcd13ifvqcag","pricing_plan_id":"cebpf4jnsgd1na2vs0mg"},{"bike_id":"2868ac04-bbc6-4968-a512-a8bf8de8cf0c","system_id":"levelo_inurba_marseille","lat":43.305706,"lon":5.365654,"is_reserved":false,"is_disabled":false,"rental_uris":{"android":"levelo://app?vid=2868ac04-bbc6-4968-a512-a8bf8de8cf0c","ios":"levelo://app?vid=2868ac04-bbc6-4968-a512-a8bf8de8cf0c"},"vehicle_type_id":"4","last_reported":1711278291,"current_range_meters":13200,"station_id":"ce4bgs12rcd13ifvqcag","pricing_plan_id":"cebpf4jnsgd1na2vs0mg"},{"bike_id":"633cfde1-dae6-49cb-85af-f53e0554314e","system_id":"levelo_inurba_marseille","lat":43.305714,"lon":5.365633,"is_reserved":false,"is_disabled":false,"rental_uris":{"android":"levelo://app?vid=633cfde1-dae6-49cb-85af-f53e0554314e","ios":"levelo://app?vid=633cfde1-dae6-49cb-85af-f53e0554314e"},"vehicle_type_id":"4","last_reported":1711278291,"current_range_meters":25200,"station_id":"ce4bgs12rcd13ifvqcag","pricing_plan_id":"cebpf4jnsgd1na2vs0mg"},{"bike_id":"24d6349a-d6b9-42cd-8b04-f759f46afc6f","system_id":"levelo_inurba_marseille","lat":43.305706,"lon":5.365654,"is_reserved":false,"is_disabled":false,"rental_uris":{"android":"levelo://app?vid=24d6349a-d6b9-42cd-8b04-f759f46afc6f","ios":"levelo://app?vid=24d6349a-d6b9-42cd-8b04-f759f46afc6f"},"vehicle_type_id":"4","last_reported":1711278291,"current_range_meters":18400,"station_id":"ce4bgs12rcd13ifvqcag","pricing_plan_id":"cebpf4jnsgd1na2vs0mg"},{"bike_id":"dfd736b5-1c06-49e2-ba59-937585f61840","system_id":"levelo_inurba_marseille","lat":43.305714,"lon":5.365633,"is_reserved":false,"is_disabled":false,"rental_uris":{"android":"levelo://app?vid=dfd736b5-1c06-49e2-ba59-937585f61840","ios":"levelo://app?vid=dfd736b5-1c06-49e2-ba59-937585f61840"},"vehicle_type_id":"4","last_reported":1711278291,"current_range_meters":0,"station_id":"ce4bgs12rcd13ifvqcag","pricing_plan_id":"cebpf4jnsgd1na2vs0mg"},{"bike_id":"07104693-723b-47cb-9d78-27029a68f86a","system_id":"levelo_inurba_marseille","lat":43.311131,"lon":5.377651,"is_reserved":false,"is_disabled":false,"rental_uris":{"android":"levelo://app?vid=07104693-723b-47cb-9d78-27029a68f86a","ios":"levelo://app?vid=07104693-723b-47cb-9d78-27029a68f86a"},"vehicle_type_id":"4","last_reported":1711278291,"current_range_meters":22400,"station_id":"ce4bgt92rcd13ifvqcg0","pricing_plan_id":"cebpf4jnsgd1na2vs0mg"},{"bike_id":"dfbc12f0-ecd5-4cc0-8645-eb6890268dcd","system_id":"levelo_inurba_marseille","lat":43.311131,"lon":5.377651,"is_reserved":false,"is_disabled":false,"rental_uris":{"android":"levelo://app?vid=dfbc12f0-ecd5-4cc0-8645-eb6890268dcd","ios":"levelo://app?vid=dfbc12f0-ecd5-4cc0-8645-eb6890268dcd"},"vehicle_type_id":"4","last_reported":1711278291,"current_range_meters":17600,"station_id":"ce4bgt92rcd13ifvqcg0","pricing_plan_id":"cebpf4jnsgd1na2vs0mg"},{"bike_id":"b916e65d-9470-4670-a63f-7acc05595928","system_id":"levelo_inurba_marseille","lat":43.31926,"lon":5.37385,"is_reserved":false,"is_disabled":false,"rental_uris":{"android":"levelo://app?vid=b916e65d-9470-4670-a63f-7acc05595928","ios":"levelo://app?vid=b916e65d-9470-4670-a63f-7acc05595928"},"vehicle_type_id":"4","last_reported":1711278291,"current_range_meters":22400,"station_id":"","pricing_plan_id":"cebpf4jnsgd1na2vs0mg"},{"bike_id":"ffe30f49-09d8-442b-9894-83d5e811bb0d","system_id":"levelo_inurba_marseille","lat":43.307945,"lon":5.376487,"is_reserved":false,"is_disabled":false,"rental_uris":{"android":"levelo://app?vid=ffe30f49-09d8-442b-9894-83d5e811bb0d","ios":"levelo://app?vid=ffe30f49-09d8-442b-9894-83d5e811bb0d"},"vehicle_type_id":"4","last_reported":1711278291,"current_range_meters":4400,"station_id":"ce4bgv92rcd13ifvqcq0","pricing_plan_id":"cebpf4jnsgd1na2vs0mg"},{"bike_id":"d3553070-1c28-44ad-b7ac-aad4b00c5383","system_id":"levelo_inurba_marseille","lat":43.307945,"lon":5.376487,"is_reserved":false,"is_disabled":false,"rental_uris":{"android":"levelo://app?vid=d3553070-1c28-44ad-b7ac-aad4b00c5383","ios":"levelo://app?vid=d3553070-1c28-44ad-b7ac-aad4b00c5383"},"vehicle_type_id":"4","last_reported":1711278291,"current_range_meters":31600,"station_id":"ce4bgv92rcd13ifvqcq0","pricing_plan_id":"cebpf4jnsgd1na2vs0mg"},{"bike_id":"01fdd790-3949-4aab-9862-9075d590b8a9","system_id":"levelo_inurba_marseille","lat":43.307945,"lon":5.376487,"is_reserved":false,"is_disabled":false,"rental_uris":{"android":"levelo://app?vid=01fdd790-3949-4aab-9862-9075d590b8a9","ios":"levelo://app?vid=01fdd790-3949-4aab-9862-9075d590b8a9"},"vehicle_type_id":"4","last_reported":1711278291,"current_range_meters":31200,"station_id":"ce4bgv92rcd13ifvqcq0","pricing_plan_id":"cebpf4jnsgd1na2vs0mg"},{"bike_id":"66b87530-dbc6-4080-9ef0-45d9ee7ab064","system_id":"levelo_inurba_marseille","lat":43.307945,"lon":5.376487,"is_reserved":false,"is_disabled":false,"rental_uris":{"android":"levelo://app?vid=66b87530-dbc6-4080-9ef0-45d9ee7ab064","ios":"levelo://app?vid=66b87530-dbc6-4080-9ef0-45d9ee7ab064"},"vehicle_type_id":"4","last_reported":1711278291,"current_range_meters":30000,"station_id":"ce4bgv92rcd13ifvqcq0","pricing_plan_id":"cebpf4jnsgd1na2vs0mg"},{"bike_id":"2f7857a8-e80c-4d15-b913-5e57f6fc13f4","system_id":"levelo_inurba_marseille","lat":43.317075,"lon":5.377367,"is_reserved":false,"is_disabled":false,"rental_uris":{"android":"levelo://app?vid=2f7857a8-e80c-4d15-b913-5e57f6fc13f4","ios":"levelo://app?vid=2f7857a8-e80c-4d15-b913-5e57f6fc13f4"},"vehicle_type_id":"4","last_reported":1711278291,"current_range_meters":13200,"station_id":"ce4bgth2rcd13ifvqch0","pricing_plan_id":"cebpf4jnsgd1na2vs0mg"},{"bike_id":"05ab8554-db19-4a8d-8cca-fc993c197fd1","system_id":"levelo_inurba_marseille","lat":43.317075,"lon":5.377367,"is_reserved":false,"is_disabled":false,"rental_uris":{"android":"levelo://app?vid=05ab8554-db19-4a8d-8cca-fc993c197fd1","ios":"levelo://app?vid=05ab8554-db19-4a8d-8cca-fc993c197fd1"},"vehicle_type_id":"4","last_reported":1711278291,"current_range_meters":13600,"station_id":"ce4bgth2rcd13ifvqch0","pricing_plan_id":"cebpf4jnsgd1na2vs0mg"},{"bike_id":"b9ac2d51-14c6-4def-a9e3-020ab6242289","system_id":"levelo_inurba_marseille","lat":43.317075,"lon":5.377367,"is_reserved":false,"is_disabled":false,"rental_uris":{"android":"levelo://app?vid=b9ac2d51-14c6-4def-a9e3-020ab6242289","ios":"levelo://app?vid=b9ac2d51-14c6-4def-a9e3-020ab6242289"},"vehicle_type_id":"4","last_reported":1711278291,"current_range_meters":31200,"station_id":"ce4bgth2rcd13ifvqch0","pricing_plan_id":"cebpf4jnsgd1na2vs0mg"},{"bike_id":"358d00cc-e500-4e65-803a-0f8f35b2515c","system_id":"levelo_inurba_marseille","lat":43.317075,"lon":5.377367,"is_reserved":false,"is_disabled":false,"rental_uris":{"android":"levelo://app?vid=358d00cc-e500-4e65-803a-0f8f35b2515c","ios":"levelo://app?vid=358d00cc-e500-4e65-803a-0f8f35b2515c"},"vehicle_type_id":"4","last_reported":1711278291,"current_range_meters":12400,"station_id":"ce4bgth2rcd13ifvqch0","pricing_plan_id":"cebpf4jnsgd1na2vs0mg"},{"bike_id":"de7cb3ab-1ed6-4093-8fa9-9fc6542ab72d","system_id":"levelo_inurba_marseille","lat":43.315289,"lon":5.380349,"is_reserved":false,"is_disabled":false,"rental_uris":{"android":"levelo://app?vid=de7cb3ab-1ed6-4093-8fa9-9fc6542ab72d","ios":"levelo://app?vid=de7cb3ab-1ed6-4093-8fa9-9fc6542ab72d"},"vehicle_type_id":"4","last_reported":1711278291,"current_range_meters":31200,"station_id":"ce4bhsp2rcd13ifvqi50","pricing_plan_id":"cebpf4jnsgd1na2vs0mg"},{"bike_id":"4f006df7-4021-4894-a978-e7fbd68140e6","system_id":"levelo_inurba_marseille","lat":43.318783,"lon":5.378807,"is_reserved":false,"is_disabled":false,"rental_uris":{"android":"levelo://app?vid=4f006df7-4021-4894-a978-e7fbd68140e6","ios":"levelo://app?vid=4f006df7-4021-4894-a978-e7fbd68140e6"},"vehicle_type_id":"4","last_reported":1711278291,"current_range_meters":8400,"station_id":"","pricing_plan_id":"cebpf4jnsgd1na2vs0mg"},{"bike_id":"171e14c0-d63f-424c-ba59-26fdf637d527","system_id":"levelo_inurba_marseille","lat":43.308012,"lon":5.381511,"is_reserved":false,"is_disabled":false,"rental_uris":{"android":"levelo://app?vid=171e14c0-d63f-424c-ba59-26fdf637d527","ios":"levelo://app?vid=171e14c0-d63f-424c-ba59-26fdf637d527"},"vehicle_type_id":"4","last_reported":1711278291,"current_range_meters":28400,"station_id":"ce4bgt12rcd13ifvqce0","pricing_plan_id":"cebpf4jnsgd1na2vs0mg"},{"bike_id":"ad7837d8-d611-4d63-b240-c2230f540e73","system_id":"levelo_inurba_marseille","lat":43.308012,"lon":5.381511,"is_reserved":false,"is_disabled":false,"rental_uris":{"android":"levelo://app?vid=ad7837d8-d611-4d63-b240-c2230f540e73","ios":"levelo://app?vid=ad7837d8-d611-4d63-b240-c2230f540e73"},"vehicle_type_id":"4","last_reported":1711278291,"current_range_meters":0,"station_id":"ce4bgt12rcd13ifvqce0","pricing_plan_id":"cebpf4jnsgd1na2vs0mg"},{"bike_id":"915d3fe6-f0a5-49d9-8a6d-cd955550f408","system_id":"levelo_inurba_marseille","lat":43.30817,"lon":5.3816,"is_reserved":false,"is_disabled":false,"rental_uris":{"android":"levelo://app?vid=915d3fe6-f0a5-49d9-8a6d-cd955550f408","ios":"levelo://app?vid=915d3fe6-f0a5-49d9-8a6d-cd955550f408"},"vehicle_type_id":"4","last_reported":1711278291,"current_range_meters":0,"station_id":"ce4bgt12rcd13ifvqce0","pricing_plan_id":"cebpf4jnsgd1na2vs0mg"},{"bike_id":"f4ff53f0-e9dd-4479-826a-251d0de5d0f2","system_id":"levelo_inurba_marseille","lat":43.308012,"lon":5.381511,"is_reserved":false,"is_disabled":false,"rental_uris":{"android":"levelo://app?vid=f4ff53f0-e9dd-4479-826a-251d0de5d0f2","ios":"levelo://app?vid=f4ff53f0-e9dd-4479-826a-251d0de5d0f2"},"vehicle_type_id":"4","last_reported":1711278291,"current_range_meters":16000,"station_id":"ce4bgt12rcd13ifvqce0","pricing_plan_id":"cebpf4jnsgd1na2vs0mg"},{"bike_id":"e27da5f2-3bbc-4ee1-ac92-d545d4865ef9","system_id":"levelo_inurba_marseille","lat":43.308012,"lon":5.381511,"is_reserved":false,"is_disabled":false,"rental_uris":{"android":"levelo://app?vid=e27da5f2-3bbc-4ee1-ac92-d545d4865ef9","ios":"levelo://app?vid=e27da5f2-3bbc-4ee1-ac92-d545d4865ef9"},"vehicle_type_id":"4","last_reported":1711278291,"current_range_meters":0,"station_id":"ce4bgt12rcd13ifvqce0","pricing_plan_id":"cebpf4jnsgd1na2vs0mg"},{"bike_id":"b7690ec4-1c9a-4e83-85d5-177470ebce97","system_id":"levelo_inurba_marseille","lat":43.308012,"lon":5.381511,"is_reserved":false,"is_disabled":false,"rental_uris":{"android":"levelo://app?vid=b7690ec4-1c9a-4e83-85d5-177470ebce97","ios":"levelo://app?vid=b7690ec4-1c9a-4e83-85d5-177470ebce97"},"vehicle_type_id":"4","last_reported":1711278291,"current_range_meters":22800,"station_id":"ce4bgt12rcd13ifvqce0","pricing_plan_id":"cebpf4jnsgd1na2vs0mg"},{"bike_id":"3bfbdbc8-0354-441b-adfe-0895bb7f014e","system_id":"levelo_inurba_marseille","lat":43.308012,"lon":5.381511,"is_reserved":false,"is_disabled":false,"rental_uris":{"android":"levelo://app?vid=3bfbdbc8-0354-441b-adfe-0895bb7f014e","ios":"levelo://app?vid=3bfbdbc8-0354-441b-adfe-0895bb7f014e"},"vehicle_type_id":"4","last_reported":1711278291,"current_range_meters":13200,"station_id":"ce4bgt12rcd13ifvqce0","pricing_plan_id":"cebpf4jnsgd1na2vs0mg"},{"bike_id":"dc3a9b3d-3b88-4bee-8a65-a3aa2af8ae0a","system_id":"levelo_inurba_marseille","lat":43.308012,"lon":5.381511,"is_reserved":false,"is_disabled":false,"rental_uris":{"android":"levelo://app?vid=dc3a9b3d-3b88-4bee-8a65-a3aa2af8ae0a","ios":"levelo://app?vid=dc3a9b3d-3b88-4bee-8a65-a3aa2af8ae0a"},"vehicle_type_id":"4","last_reported":1711278291,"current_range_meters":23600,"station_id":"ce4bgt12rcd13ifvqce0","pricing_plan_id":"cebpf4jnsgd1na2vs0mg"},{"bike_id":"a6d54cef-641f-4327-b88a-094138743c76","system_id":"levelo_inurba_marseille","lat":43.308012,"lon":5.381511,"is_reserved":false,"is_disabled":false,"rental_uris":{"android":"levelo://app?vid=a6d54cef-641f-4327-b88a-094138743c76","ios":"levelo://app?vid=a6d54cef-641f-4327-b88a-094138743c76"},"vehicle_type_id":"4","last_reported":1711278291,"current_range_meters":26000,"station_id":"ce4bgt12rcd13ifvqce0","pricing_plan_id":"cebpf4jnsgd1na2vs0mg"},{"bike_id":"1c185e1f-b3b2-42b1-836d-209d4ca401b1","system_id":"levelo_inurba_marseille","lat":43.308012,"lon":5.381511,"is_reserved":false,"is_disabled":false,"rental_uris":{"android":"levelo://app?vid=1c185e1f-b3b2-42b1-836d-209d4ca401b1","ios":"levelo://app?vid=1c185e1f-b3b2-42b1-836d-209d4ca401b1"},"vehicle_type_id":"4","last_reported":1711278291,"current_range_meters":400,"station_id":"ce4bgt12rcd13ifvqce0","pricing_plan_id":"cebpf4jnsgd1na2vs0mg"},{"bike_id":"b443b387-6b66-401d-bfff-c826f722c0b2","system_id":"levelo_inurba_marseille","lat":43.30474,"lon":5.37896,"is_reserved":false,"is_disabled":false,"rental_uris":{"android":"levelo://app?vid=b443b387-6b66-401d-bfff-c826f722c0b2","ios":"levelo://app?vid=b443b387-6b66-401d-bfff-c826f722c0b2"},"vehicle_type_id":"4","last_reported":1711278291,"current_range_meters":21600,"station_id":"ce4bgup2rcd13ifvqcn0","pricing_plan_id":"cebpf4jnsgd1na2vs0mg"},{"bike_id":"312e1d39-b54b-4f2c-84e2-324b27a03a94","system_id":"levelo_inurba_marseille","lat":43.304606,"lon":5.379026,"is_reserved":false,"is_disabled":false,"rental_uris":{"android":"levelo://app?vid=312e1d39-b54b-4f2c-84e2-324b27a03a94","ios":"levelo://app?vid=312e1d39-b54b-4f2c-84e2-324b27a03a94"},"vehicle_type_id":"4","last_reported":1711278291,"current_range_meters":18000,"station_id":"ce4bgup2rcd13ifvqcn0","pricing_plan_id":"cebpf4jnsgd1na2vs0mg"},{"bike_id":"ade0b073-d4d0-482b-8217-f4c480303bcf","system_id":"levelo_inurba_marseille","lat":43.305364,"lon":5.384119,"is_reserved":false,"is_disabled":false,"rental_uris":{"android":"levelo://app?vid=ade0b073-d4d0-482b-8217-f4c480303bcf","ios":"levelo://app?vid=ade0b073-d4d0-482b-8217-f4c480303bcf"},"vehicle_type_id":"4","last_reported":1711278291,"current_range_meters":3200,"station_id":"ce4bgg92rcd13ifvqb30","pricing_plan_id":"cebpf4jnsgd1na2vs0mg"},{"bike_id":"f1bc8b02-cee8-4054-9ca0-37b1d2075c6e","system_id":"levelo_inurba_marseille","lat":43.304606,"lon":5.379026,"is_reserved":false,"is_disabled":false,"rental_uris":{"android":"levelo://app?vid=f1bc8b02-cee8-4054-9ca0-37b1d2075c6e","ios":"levelo://app?vid=f1bc8b02-cee8-4054-9ca0-37b1d2075c6e"},"vehicle_type_id":"4","last_reported":1711278291,"current_range_meters":12400,"station_id":"ce4bgup2rcd13ifvqcn0","pricing_plan_id":"cebpf4jnsgd1na2vs0mg"},{"bike_id":"4a9b312f-8580-4096-beb1-b8ebddb5f083","system_id":"levelo_inurba_marseille","lat":43.304606,"lon":5.379026,"is_reserved":false,"is_disabled":false,"rental_uris":{"android":"levelo://app?vid=4a9b312f-8580-4096-beb1-b8ebddb5f083","ios":"levelo://app?vid=4a9b312f-8580-4096-beb1-b8ebddb5f083"},"vehicle_type_id":"4","last_reported":1711278291,"current_range_meters":24800,"station_id":"ce4bgup2rcd13ifvqcn0","pricing_plan_id":"cebpf4jnsgd1na2vs0mg"},{"bike_id":"a7894be7-a297-4db4-8503-d56d2717b1e9","system_id":"levelo_inurba_marseille","lat":43.30474,"lon":5.37911,"is_reserved":false,"is_disabled":false,"rental_uris":{"android":"levelo://app?vid=a7894be7-a297-4db4-8503-d56d2717b1e9","ios":"levelo://app?vid=a7894be7-a297-4db4-8503-d56d2717b1e9"},"vehicle_type_id":"4","last_reported":1711278291,"current_range_meters":27200,"station_id":"ce4bgup2rcd13ifvqcn0","pricing_plan_id":"cebpf4jnsgd1na2vs0mg"},{"bike_id":"6909d92d-dd7f-4ff5-88dc-43e437ec284b","system_id":"levelo_inurba_marseille","lat":43.304606,"lon":5.379026,"is_reserved":false,"is_disabled":false,"rental_uris":{"android":"levelo://app?vid=6909d92d-dd7f-4ff5-88dc-43e437ec284b","ios":"levelo://app?vid=6909d92d-dd7f-4ff5-88dc-43e437ec284b"},"vehicle_type_id":"4","last_reported":1711278291,"current_range_meters":31600,"station_id":"ce4bgup2rcd13ifvqcn0","pricing_plan_id":"cebpf4jnsgd1na2vs0mg"},{"bike_id":"6d3ad99c-1661-46af-82ba-22a525fb8837","system_id":"levelo_inurba_marseille","lat":43.30464,"lon":5.37909,"is_reserved":false,"is_disabled":false,"rental_uris":{"android":"levelo://app?vid=6d3ad99c-1661-46af-82ba-22a525fb8837","ios":"levelo://app?vid=6d3ad99c-1661-46af-82ba-22a525fb8837"},"vehicle_type_id":"4","last_reported":1711278291,"current_range_meters":16000,"station_id":"ce4bgup2rcd13ifvqcn0","pricing_plan_id":"cebpf4jnsgd1na2vs0mg"},{"bike_id":"e07035e0-8bec-4a11-8d4b-89eae92555f9","system_id":"levelo_inurba_marseille","lat":43.304606,"lon":5.379026,"is_reserved":false,"is_disabled":false,"rental_uris":{"android":"levelo://app?vid=e07035e0-8bec-4a11-8d4b-89eae92555f9","ios":"levelo://app?vid=e07035e0-8bec-4a11-8d4b-89eae92555f9"},"vehicle_type_id":"4","last_reported":1711278291,"current_range_meters":27200,"station_id":"ce4bgup2rcd13ifvqcn0","pricing_plan_id":"cebpf4jnsgd1na2vs0mg"},{"bike_id":"306fff6e-fae8-47e7-b003-c23f7aa3d495","system_id":"levelo_inurba_marseille","lat":43.30462,"lon":5.37908,"is_reserved":false,"is_disabled":false,"rental_uris":{"android":"levelo://app?vid=306fff6e-fae8-47e7-b003-c23f7aa3d495","ios":"levelo://app?vid=306fff6e-fae8-47e7-b003-c23f7aa3d495"},"vehicle_type_id":"4","last_reported":1711278291,"current_range_meters":29600,"station_id":"ce4bgup2rcd13ifvqcn0","pricing_plan_id":"cebpf4jnsgd1na2vs0mg"},{"bike_id":"cbbbc7f1-7980-4be8-b670-471b545e4e06","system_id":"levelo_inurba_marseille","lat":43.304639,"lon":5.379112,"is_reserved":false,"is_disabled":false,"rental_uris":{"android":"levelo://app?vid=cbbbc7f1-7980-4be8-b670-471b545e4e06","ios":"levelo://app?vid=cbbbc7f1-7980-4be8-b670-471b545e4e06"},"vehicle_type_id":"4","last_reported":1711278291,"current_range_meters":11200,"station_id":"ce4bgup2rcd13ifvqcn0","pricing_plan_id":"cebpf4jnsgd1na2vs0mg"},{"bike_id":"cc39c3c6-5b33-4202-b9a6-8370f45cc562","system_id":"levelo_inurba_marseille","lat":43.304606,"lon":5.379026,"is_reserved":false,"is_disabled":false,"rental_uris":{"android":"levelo://app?vid=cc39c3c6-5b33-4202-b9a6-8370f45cc562","ios":"levelo://app?vid=cc39c3c6-5b33-4202-b9a6-8370f45cc562"},"vehicle_type_id":"4","last_reported":1711278291,"current_range_meters":12000,"station_id":"ce4bgup2rcd13ifvqcn0","pricing_plan_id":"cebpf4jnsgd1na2vs0mg"},{"bike_id":"63bdfab1-617a-414d-af88-2c297b463946","system_id":"levelo_inurba_marseille","lat":43.324771,"lon":5.36557,"is_reserved":false,"is_disabled":false,"rental_uris":{"android":"levelo://app?vid=63bdfab1-617a-414d-af88-2c297b463946","ios":"levelo://app?vid=63bdfab1-617a-414d-af88-2c297b463946"},"vehicle_type_id":"4","last_reported":1711278291,"current_range_meters":11600,"station_id":"ce4bhs12rcd13ifvqhvg","pricing_plan_id":"cebpf4jnsgd1na2vs0mg"},{"bike_id":"7af650e7-eea9-472c-9b12-4db10b0402c1","system_id":"levelo_inurba_marseille","lat":43.324771,"lon":5.36557,"is_reserved":false,"is_disabled":false,"rental_uris":{"android":"levelo://app?vid=7af650e7-eea9-472c-9b12-4db10b0402c1","ios":"levelo://app?vid=7af650e7-eea9-472c-9b12-4db10b0402c1"},"vehicle_type_id":"4","last_reported":1711278291,"current_range_meters":7200,"station_id":"ce4bhs12rcd13ifvqhvg","pricing_plan_id":"cebpf4jnsgd1na2vs0mg"},{"bike_id":"fa05d3e5-f409-4e05-ace7-f6f819e528e8","system_id":"levelo_inurba_marseille","lat":43.32475,"lon":5.365762,"is_reserved":false,"is_disabled":false,"rental_uris":{"android":"levelo://app?vid=fa05d3e5-f409-4e05-ace7-f6f819e528e8","ios":"levelo://app?vid=fa05d3e5-f409-4e05-ace7-f6f819e528e8"},"vehicle_type_id":"4","last_reported":1711278291,"current_range_meters":1600,"station_id":"ce4bhs12rcd13ifvqhvg","pricing_plan_id":"cebpf4jnsgd1na2vs0mg"},{"bike_id":"d58a9651-39ca-44be-85f6-bd6916965960","system_id":"levelo_inurba_marseille","lat":43.324771,"lon":5.36557,"is_reserved":false,"is_disabled":false,"rental_uris":{"android":"levelo://app?vid=d58a9651-39ca-44be-85f6-bd6916965960","ios":"levelo://app?vid=d58a9651-39ca-44be-85f6-bd6916965960"},"vehicle_type_id":"4","last_reported":1711278291,"current_range_meters":22000,"station_id":"ce4bhs12rcd13ifvqhvg","pricing_plan_id":"cebpf4jnsgd1na2vs0mg"},{"bike_id":"fb073e17-0d3a-45b1-86d1-1c76902a33ac","system_id":"levelo_inurba_marseille","lat":43.324771,"lon":5.36557,"is_reserved":false,"is_disabled":false,"rental_uris":{"android":"levelo://app?vid=fb073e17-0d3a-45b1-86d1-1c76902a33ac","ios":"levelo://app?vid=fb073e17-0d3a-45b1-86d1-1c76902a33ac"},"vehicle_type_id":"4","last_reported":1711278291,"current_range_meters":5200,"station_id":"ce4bhs12rcd13ifvqhvg","pricing_plan_id":"cebpf4jnsgd1na2vs0mg"},{"bike_id":"6cc20f86-eab6-4635-8f90-6882d139dbf5","system_id":"levelo_inurba_marseille","lat":43.324771,"lon":5.36557,"is_reserved":false,"is_disabled":false,"rental_uris":{"android":"levelo://app?vid=6cc20f86-eab6-4635-8f90-6882d139dbf5","ios":"levelo://app?vid=6cc20f86-eab6-4635-8f90-6882d139dbf5"},"vehicle_type_id":"4","last_reported":1711278291,"current_range_meters":25200,"station_id":"ce4bhs12rcd13ifvqhvg","pricing_plan_id":"cebpf4jnsgd1na2vs0mg"},{"bike_id":"d7bbf469-0702-482a-9065-81a731bc5d18","system_id":"levelo_inurba_marseille","lat":43.324771,"lon":5.36557,"is_reserved":false,"is_disabled":false,"rental_uris":{"android":"levelo://app?vid=d7bbf469-0702-482a-9065-81a731bc5d18","ios":"levelo://app?vid=d7bbf469-0702-482a-9065-81a731bc5d18"},"vehicle_type_id":"4","last_reported":1711278291,"current_range_meters":0,"station_id":"ce4bhs12rcd13ifvqhvg","pricing_plan_id":"cebpf4jnsgd1na2vs0mg"},{"bike_id":"58b28653-3c75-43af-badd-b91acb1c2f85","system_id":"levelo_inurba_marseille","lat":43.32479,"lon":5.365756,"is_reserved":false,"is_disabled":false,"rental_uris":{"android":"levelo://app?vid=58b28653-3c75-43af-badd-b91acb1c2f85","ios":"levelo://app?vid=58b28653-3c75-43af-badd-b91acb1c2f85"},"vehicle_type_id":"4","last_reported":1711278291,"current_range_meters":25600,"station_id":"ce4bhs12rcd13ifvqhvg","pricing_plan_id":"cebpf4jnsgd1na2vs0mg"},{"bike_id":"ca7e6977-44ec-4b1f-8fe2-f0a04aa8303f","system_id":"levelo_inurba_marseille","lat":43.324771,"lon":5.36557,"is_reserved":false,"is_disabled":false,"rental_uris":{"android":"levelo://app?vid=ca7e6977-44ec-4b1f-8fe2-f0a04aa8303f","ios":"levelo://app?vid=ca7e6977-44ec-4b1f-8fe2-f0a04aa8303f"},"vehicle_type_id":"4","last_reported":1711278291,"current_range_meters":25600,"station_id":"ce4bhs12rcd13ifvqhvg","pricing_plan_id":"cebpf4jnsgd1na2vs0mg"},{"bike_id":"3aacaf08-9deb-470c-aff0-c811ea4c9093","system_id":"levelo_inurba_marseille","lat":43.324771,"lon":5.36557,"is_reserved":false,"is_disabled":false,"rental_uris":{"android":"levelo://app?vid=3aacaf08-9deb-470c-aff0-c811ea4c9093","ios":"levelo://app?vid=3aacaf08-9deb-470c-aff0-c811ea4c9093"},"vehicle_type_id":"4","last_reported":1711278291,"current_range_meters":30000,"station_id":"ce4bhs12rcd13ifvqhvg","pricing_plan_id":"cebpf4jnsgd1na2vs0mg"},{"bike_id":"b88553c7-39de-4a84-8d1f-6c11f9d43ddb","system_id":"levelo_inurba_marseille","lat":43.324771,"lon":5.36557,"is_reserved":false,"is_disabled":false,"rental_uris":{"android":"levelo://app?vid=b88553c7-39de-4a84-8d1f-6c11f9d43ddb","ios":"levelo://app?vid=b88553c7-39de-4a84-8d1f-6c11f9d43ddb"},"vehicle_type_id":"4","last_reported":1711278291,"current_range_meters":0,"station_id":"ce4bhs12rcd13ifvqhvg","pricing_plan_id":"cebpf4jnsgd1na2vs0mg"},{"bike_id":"bee737cb-c3ac-4025-9021-caa11b8a5a1a","system_id":"levelo_inurba_marseille","lat":43.324771,"lon":5.36557,"is_reserved":false,"is_disabled":false,"rental_uris":{"android":"levelo://app?vid=bee737cb-c3ac-4025-9021-caa11b8a5a1a","ios":"levelo://app?vid=bee737cb-c3ac-4025-9021-caa11b8a5a1a"},"vehicle_type_id":"4","last_reported":1711278291,"current_range_meters":13200,"station_id":"ce4bhs12rcd13ifvqhvg","pricing_plan_id":"cebpf4jnsgd1na2vs0mg"},{"bike_id":"7da53701-90d3-4a38-995f-79eab59d821c","system_id":"levelo_inurba_marseille","lat":43.324771,"lon":5.36557,"is_reserved":false,"is_disabled":false,"rental_uris":{"android":"levelo://app?vid=7da53701-90d3-4a38-995f-79eab59d821c","ios":"levelo://app?vid=7da53701-90d3-4a38-995f-79eab59d821c"},"vehicle_type_id":"4","last_reported":1711278291,"current_range_meters":12400,"station_id":"ce4bhs12rcd13ifvqhvg","pricing_plan_id":"cebpf4jnsgd1na2vs0mg"},{"bike_id":"d72ea8dc-e19e-46f8-9242-6c167d8484ba","system_id":"levelo_inurba_marseille","lat":43.310719,"lon":5.38347,"is_reserved":false,"is_disabled":false,"rental_uris":{"android":"levelo://app?vid=d72ea8dc-e19e-46f8-9242-6c167d8484ba","ios":"levelo://app?vid=d72ea8dc-e19e-46f8-9242-6c167d8484ba"},"vehicle_type_id":"4","last_reported":1711278291,"current_range_meters":27200,"station_id":"ce4bgv92rcd13ifvqcr0","pricing_plan_id":"cebpf4jnsgd1na2vs0mg"},{"bike_id":"1da5e40e-58a0-4d1b-a7e7-2641b7356d14","system_id":"levelo_inurba_marseille","lat":43.324771,"lon":5.36557,"is_reserved":false,"is_disabled":false,"rental_uris":{"android":"levelo://app?vid=1da5e40e-58a0-4d1b-a7e7-2641b7356d14","ios":"levelo://app?vid=1da5e40e-58a0-4d1b-a7e7-2641b7356d14"},"vehicle_type_id":"4","last_reported":1711278291,"current_range_meters":400,"station_id":"ce4bhs12rcd13ifvqhvg","pricing_plan_id":"cebpf4jnsgd1na2vs0mg"},{"bike_id":"b8197abd-1fa3-4ede-86c4-4edca0a180c4","system_id":"levelo_inurba_marseille","lat":43.32494,"lon":5.36572,"is_reserved":false,"is_disabled":false,"rental_uris":{"android":"levelo://app?vid=b8197abd-1fa3-4ede-86c4-4edca0a180c4","ios":"levelo://app?vid=b8197abd-1fa3-4ede-86c4-4edca0a180c4"},"vehicle_type_id":"4","last_reported":1711278291,"current_range_meters":23200,"station_id":"ce4bhs12rcd13ifvqhvg","pricing_plan_id":"cebpf4jnsgd1na2vs0mg"},{"bike_id":"e5abbfc9-c065-427f-b0ef-4834f3b2a88f","system_id":"levelo_inurba_marseille","lat":43.310702,"lon":5.383524,"is_reserved":false,"is_disabled":false,"rental_uris":{"android":"levelo://app?vid=e5abbfc9-c065-427f-b0ef-4834f3b2a88f","ios":"levelo://app?vid=e5abbfc9-c065-427f-b0ef-4834f3b2a88f"},"vehicle_type_id":"4","last_reported":1711278291,"current_range_meters":24800,"station_id":"ce4bgv92rcd13ifvqcr0","pricing_plan_id":"cebpf4jnsgd1na2vs0mg"},{"bike_id":"45ffbcfa-b8f8-40cf-985a-98dec63e040f","system_id":"levelo_inurba_marseille","lat":43.310717,"lon":5.383529,"is_reserved":false,"is_disabled":false,"rental_uris":{"android":"levelo://app?vid=45ffbcfa-b8f8-40cf-985a-98dec63e040f","ios":"levelo://app?vid=45ffbcfa-b8f8-40cf-985a-98dec63e040f"},"vehicle_type_id":"4","last_reported":1711278291,"current_range_meters":31600,"station_id":"ce4bgv92rcd13ifvqcr0","pricing_plan_id":"cebpf4jnsgd1na2vs0mg"},{"bike_id":"f5faf25f-fb90-4a21-8107-de16028ff217","system_id":"levelo_inurba_marseille","lat":43.324771,"lon":5.36557,"is_reserved":false,"is_disabled":false,"rental_uris":{"android":"levelo://app?vid=f5faf25f-fb90-4a21-8107-de16028ff217","ios":"levelo://app?vid=f5faf25f-fb90-4a21-8107-de16028ff217"},"vehicle_type_id":"4","last_reported":1711278291,"current_range_meters":400,"station_id":"ce4bhs12rcd13ifvqhvg","pricing_plan_id":"cebpf4jnsgd1na2vs0mg"},{"bike_id":"5e7f462a-ba1a-4684-8538-40f36e582d58","system_id":"levelo_inurba_marseille","lat":43.302784,"lon":5.377158,"is_reserved":false,"is_disabled":false,"rental_uris":{"android":"levelo://app?vid=5e7f462a-ba1a-4684-8538-40f36e582d58","ios":"levelo://app?vid=5e7f462a-ba1a-4684-8538-40f36e582d58"},"vehicle_type_id":"4","last_reported":1711278291,"current_range_meters":5600,"station_id":"ce4bguh2rcd13ifvqcj0","pricing_plan_id":"cebpf4jnsgd1na2vs0mg"},{"bike_id":"e35e3ffc-bef4-4980-922f-b2cb2847f204","system_id":"levelo_inurba_marseille","lat":43.310804,"lon":5.38359,"is_reserved":false,"is_disabled":false,"rental_uris":{"android":"levelo://app?vid=e35e3ffc-bef4-4980-922f-b2cb2847f204","ios":"levelo://app?vid=e35e3ffc-bef4-4980-922f-b2cb2847f204"},"vehicle_type_id":"4","last_reported":1711278291,"current_range_meters":800,"station_id":"ce4bgv92rcd13ifvqcr0","pricing_plan_id":"cebpf4jnsgd1na2vs0mg"},{"bike_id":"d94270da-142a-4663-8fd7-5a77ba9ac219","system_id":"levelo_inurba_marseille","lat":43.310804,"lon":5.38359,"is_reserved":false,"is_disabled":false,"rental_uris":{"android":"levelo://app?vid=d94270da-142a-4663-8fd7-5a77ba9ac219","ios":"levelo://app?vid=d94270da-142a-4663-8fd7-5a77ba9ac219"},"vehicle_type_id":"4","last_reported":1711278291,"current_range_meters":3600,"station_id":"ce4bgv92rcd13ifvqcr0","pricing_plan_id":"cebpf4jnsgd1na2vs0mg"},{"bike_id":"1d299e91-f274-4082-9fa6-41438807838c","system_id":"levelo_inurba_marseille","lat":43.302784,"lon":5.377158,"is_reserved":false,"is_disabled":false,"rental_uris":{"android":"levelo://app?vid=1d299e91-f274-4082-9fa6-41438807838c","ios":"levelo://app?vid=1d299e91-f274-4082-9fa6-41438807838c"},"vehicle_type_id":"4","last_reported":1711278291,"current_range_meters":22000,"station_id":"ce4bguh2rcd13ifvqcj0","pricing_plan_id":"cebpf4jnsgd1na2vs0mg"},{"bike_id":"c85e2912-dd59-43fa-ae41-451cbcd91515","system_id":"levelo_inurba_marseille","lat":43.302784,"lon":5.377158,"is_reserved":false,"is_disabled":false,"rental_uris":{"android":"levelo://app?vid=c85e2912-dd59-43fa-ae41-451cbcd91515","ios":"levelo://app?vid=c85e2912-dd59-43fa-ae41-451cbcd91515"},"vehicle_type_id":"4","last_reported":1711278291,"current_range_meters":16800,"station_id":"ce4bguh2rcd13ifvqcj0","pricing_plan_id":"cebpf4jnsgd1na2vs0mg"},{"bike_id":"8c996430-6491-4c43-a894-0a89ac68349b","system_id":"levelo_inurba_marseille","lat":43.310804,"lon":5.38359,"is_reserved":false,"is_disabled":false,"rental_uris":{"android":"levelo://app?vid=8c996430-6491-4c43-a894-0a89ac68349b","ios":"levelo://app?vid=8c996430-6491-4c43-a894-0a89ac68349b"},"vehicle_type_id":"4","last_reported":1711278291,"current_range_meters":26400,"station_id":"ce4bgv92rcd13ifvqcr0","pricing_plan_id":"cebpf4jnsgd1na2vs0mg"},{"bike_id":"77d7c993-8ae4-4527-8fec-2594a3d5e608","system_id":"levelo_inurba_marseille","lat":43.302784,"lon":5.377158,"is_reserved":false,"is_disabled":false,"rental_uris":{"android":"levelo://app?vid=77d7c993-8ae4-4527-8fec-2594a3d5e608","ios":"levelo://app?vid=77d7c993-8ae4-4527-8fec-2594a3d5e608"},"vehicle_type_id":"4","last_reported":1711278291,"current_range_meters":31200,"station_id":"ce4bguh2rcd13ifvqcj0","pricing_plan_id":"cebpf4jnsgd1na2vs0mg"},{"bike_id":"895cd997-8c2d-434c-b5cf-11e737cf0ee3","system_id":"levelo_inurba_marseille","lat":43.302784,"lon":5.377158,"is_reserved":false,"is_disabled":false,"rental_uris":{"android":"levelo://app?vid=895cd997-8c2d-434c-b5cf-11e737cf0ee3","ios":"levelo://app?vid=895cd997-8c2d-434c-b5cf-11e737cf0ee3"},"vehicle_type_id":"4","last_reported":1711278291,"current_range_meters":31200,"station_id":"ce4bguh2rcd13ifvqcj0","pricing_plan_id":"cebpf4jnsgd1na2vs0mg"},{"bike_id":"5493a387-8816-46b6-b1dd-f8b4c4309f1a","system_id":"levelo_inurba_marseille","lat":43.302784,"lon":5.377158,"is_reserved":false,"is_disabled":false,"rental_uris":{"android":"levelo://app?vid=5493a387-8816-46b6-b1dd-f8b4c4309f1a","ios":"levelo://app?vid=5493a387-8816-46b6-b1dd-f8b4c4309f1a"},"vehicle_type_id":"4","last_reported":1711278291,"current_range_meters":12400,"station_id":"ce4bguh2rcd13ifvqcj0","pricing_plan_id":"cebpf4jnsgd1na2vs0mg"},{"bike_id":"a9f624cb-0b2b-423e-ada7-30861ed26701","system_id":"levelo_inurba_marseille","lat":43.31628,"lon":5.38389,"is_reserved":false,"is_disabled":false,"rental_uris":{"android":"levelo://app?vid=a9f624cb-0b2b-423e-ada7-30861ed26701","ios":"levelo://app?vid=a9f624cb-0b2b-423e-ada7-30861ed26701"},"vehicle_type_id":"4","last_reported":1711278291,"current_range_meters":18400,"station_id":"","pricing_plan_id":"cebpf4jnsgd1na2vs0mg"},{"bike_id":"8cc07e8a-fe85-4076-8051-5b2f06127f3f","system_id":"levelo_inurba_marseille","lat":43.319969,"lon":5.381514,"is_reserved":false,"is_disabled":false,"rental_uris":{"android":"levelo://app?vid=8cc07e8a-fe85-4076-8051-5b2f06127f3f","ios":"levelo://app?vid=8cc07e8a-fe85-4076-8051-5b2f06127f3f"},"vehicle_type_id":"4","last_reported":1711278291,"current_range_meters":14800,"station_id":"ce4bhgh2rcd13ifvqfb0","pricing_plan_id":"cebpf4jnsgd1na2vs0mg"},{"bike_id":"e5f5c752-19b7-4634-a296-4585844028ed","system_id":"levelo_inurba_marseille","lat":43.319935,"lon":5.381699,"is_reserved":false,"is_disabled":false,"rental_uris":{"android":"levelo://app?vid=e5f5c752-19b7-4634-a296-4585844028ed","ios":"levelo://app?vid=e5f5c752-19b7-4634-a296-4585844028ed"},"vehicle_type_id":"4","last_reported":1711278291,"current_range_meters":28400,"station_id":"ce4bhr12rcd13ifvqhpg","pricing_plan_id":"cebpf4jnsgd1na2vs0mg"},{"bike_id":"ab488b21-5c3c-4cc3-8a1c-ff6a85047802","system_id":"levelo_inurba_marseille","lat":43.319935,"lon":5.381699,"is_reserved":false,"is_disabled":false,"rental_uris":{"android":"levelo://app?vid=ab488b21-5c3c-4cc3-8a1c-ff6a85047802","ios":"levelo://app?vid=ab488b21-5c3c-4cc3-8a1c-ff6a85047802"},"vehicle_type_id":"4","last_reported":1711278291,"current_range_meters":5200,"station_id":"ce4bhr12rcd13ifvqhpg","pricing_plan_id":"cebpf4jnsgd1na2vs0mg"},{"bike_id":"9fee9b9b-a740-46c5-96bd-8f0e79a39c23","system_id":"levelo_inurba_marseille","lat":43.319935,"lon":5.381699,"is_reserved":false,"is_disabled":false,"rental_uris":{"android":"levelo://app?vid=9fee9b9b-a740-46c5-96bd-8f0e79a39c23","ios":"levelo://app?vid=9fee9b9b-a740-46c5-96bd-8f0e79a39c23"},"vehicle_type_id":"4","last_reported":1711278291,"current_range_meters":400,"station_id":"ce4bhr12rcd13ifvqhpg","pricing_plan_id":"cebpf4jnsgd1na2vs0mg"},{"bike_id":"9faf436b-ca22-4851-ae8b-de9efb37cbb5","system_id":"levelo_inurba_marseille","lat":43.313589,"lon":5.385029,"is_reserved":false,"is_disabled":false,"rental_uris":{"android":"levelo://app?vid=9faf436b-ca22-4851-ae8b-de9efb37cbb5","ios":"levelo://app?vid=9faf436b-ca22-4851-ae8b-de9efb37cbb5"},"vehicle_type_id":"4","last_reported":1711278291,"current_range_meters":27200,"station_id":"ce4bgt92rcd13ifvqcf0","pricing_plan_id":"cebpf4jnsgd1na2vs0mg"},{"bike_id":"c1054645-f211-47d7-a218-d540dc689b71","system_id":"levelo_inurba_marseille","lat":43.299612,"lon":5.370174,"is_reserved":false,"is_disabled":false,"rental_uris":{"android":"levelo://app?vid=c1054645-f211-47d7-a218-d540dc689b71","ios":"levelo://app?vid=c1054645-f211-47d7-a218-d540dc689b71"},"vehicle_type_id":"4","last_reported":1711278291,"current_range_meters":0,"station_id":"","pricing_plan_id":"cebpf4jnsgd1na2vs0mg"},{"bike_id":"af6c0770-e7b6-42aa-9e5f-1f267bf1ae38","system_id":"levelo_inurba_marseille","lat":43.299222,"lon":5.365554,"is_reserved":false,"is_disabled":false,"rental_uris":{"android":"levelo://app?vid=af6c0770-e7b6-42aa-9e5f-1f267bf1ae38","ios":"levelo://app?vid=af6c0770-e7b6-42aa-9e5f-1f267bf1ae38"},"vehicle_type_id":"4","last_reported":1711278291,"current_range_meters":6400,"station_id":"ce4bgm92rcd13ifvqbr0","pricing_plan_id":"cebpf4jnsgd1na2vs0mg"},{"bike_id":"548a45bd-c056-4982-aff5-6dcd48e1fc23","system_id":"levelo_inurba_marseille","lat":43.299724,"lon":5.371829,"is_reserved":false,"is_disabled":false,"rental_uris":{"android":"levelo://app?vid=548a45bd-c056-4982-aff5-6dcd48e1fc23","ios":"levelo://app?vid=548a45bd-c056-4982-aff5-6dcd48e1fc23"},"vehicle_type_id":"4","last_reported":1711278291,"current_range_meters":25200,"station_id":"ce4bgr92rcd13ifvqc7g","pricing_plan_id":"cebpf4jnsgd1na2vs0mg"},{"bike_id":"2526aa07-87be-4dbd-96e9-06f4c8b7108d","system_id":"levelo_inurba_marseille","lat":43.298433,"lon":5.362774,"is_reserved":false,"is_disabled":false,"rental_uris":{"android":"levelo://app?vid=2526aa07-87be-4dbd-96e9-06f4c8b7108d","ios":"levelo://app?vid=2526aa07-87be-4dbd-96e9-06f4c8b7108d"},"vehicle_type_id":"4","last_reported":1711278291,"current_range_meters":4000,"station_id":"ce4bgpp2rcd13ifvqc3g","pricing_plan_id":"cebpf4jnsgd1na2vs0mg"},{"bike_id":"365091e8-583c-4e98-bb12-0f0b8ef59535","system_id":"levelo_inurba_marseille","lat":43.298433,"lon":5.362774,"is_reserved":false,"is_disabled":false,"rental_uris":{"android":"levelo://app?vid=365091e8-583c-4e98-bb12-0f0b8ef59535","ios":"levelo://app?vid=365091e8-583c-4e98-bb12-0f0b8ef59535"},"vehicle_type_id":"4","last_reported":1711278291,"current_range_meters":0,"station_id":"ce4bgpp2rcd13ifvqc3g","pricing_plan_id":"cebpf4jnsgd1na2vs0mg"},{"bike_id":"0fc96961-df28-437b-8331-7abdb9db0999","system_id":"levelo_inurba_marseille","lat":43.298433,"lon":5.362774,"is_reserved":false,"is_disabled":false,"rental_uris":{"android":"levelo://app?vid=0fc96961-df28-437b-8331-7abdb9db0999","ios":"levelo://app?vid=0fc96961-df28-437b-8331-7abdb9db0999"},"vehicle_type_id":"4","last_reported":1711278291,"current_range_meters":23200,"station_id":"ce4bgpp2rcd13ifvqc3g","pricing_plan_id":"cebpf4jnsgd1na2vs0mg"},{"bike_id":"5f613b9e-464a-4a13-9e51-41c11cab8ade","system_id":"levelo_inurba_marseille","lat":43.298433,"lon":5.362774,"is_reserved":false,"is_disabled":false,"rental_uris":{"android":"levelo://app?vid=5f613b9e-464a-4a13-9e51-41c11cab8ade","ios":"levelo://app?vid=5f613b9e-464a-4a13-9e51-41c11cab8ade"},"vehicle_type_id":"4","last_reported":1711278291,"current_range_meters":28000,"station_id":"ce4bgpp2rcd13ifvqc3g","pricing_plan_id":"cebpf4jnsgd1na2vs0mg"},{"bike_id":"ffc072ee-acbd-45fa-8c51-f938028d456c","system_id":"levelo_inurba_marseille","lat":43.305364,"lon":5.384119,"is_reserved":false,"is_disabled":false,"rental_uris":{"android":"levelo://app?vid=ffc072ee-acbd-45fa-8c51-f938028d456c","ios":"levelo://app?vid=ffc072ee-acbd-45fa-8c51-f938028d456c"},"vehicle_type_id":"4","last_reported":1711278291,"current_range_meters":26800,"station_id":"ce4bgg92rcd13ifvqb30","pricing_plan_id":"cebpf4jnsgd1na2vs0mg"},{"bike_id":"fcd97e46-af2c-42fe-9182-c64d0a187bd4","system_id":"levelo_inurba_marseille","lat":43.298433,"lon":5.362774,"is_reserved":false,"is_disabled":false,"rental_uris":{"android":"levelo://app?vid=fcd97e46-af2c-42fe-9182-c64d0a187bd4","ios":"levelo://app?vid=fcd97e46-af2c-42fe-9182-c64d0a187bd4"},"vehicle_type_id":"4","last_reported":1711278291,"current_range_meters":19200,"station_id":"ce4bgpp2rcd13ifvqc3g","pricing_plan_id":"cebpf4jnsgd1na2vs0mg"},{"bike_id":"e5dc37d7-b7e1-4d73-8785-1127fe47d0d7","system_id":"levelo_inurba_marseille","lat":43.298433,"lon":5.362774,"is_reserved":false,"is_disabled":false,"rental_uris":{"android":"levelo://app?vid=e5dc37d7-b7e1-4d73-8785-1127fe47d0d7","ios":"levelo://app?vid=e5dc37d7-b7e1-4d73-8785-1127fe47d0d7"},"vehicle_type_id":"4","last_reported":1711278291,"current_range_meters":4800,"station_id":"ce4bgpp2rcd13ifvqc3g","pricing_plan_id":"cebpf4jnsgd1na2vs0mg"},{"bike_id":"7aba6f3c-3371-4db2-8d64-612fe2efe84d","system_id":"levelo_inurba_marseille","lat":43.298433,"lon":5.362774,"is_reserved":false,"is_disabled":false,"rental_uris":{"android":"levelo://app?vid=7aba6f3c-3371-4db2-8d64-612fe2efe84d","ios":"levelo://app?vid=7aba6f3c-3371-4db2-8d64-612fe2efe84d"},"vehicle_type_id":"4","last_reported":1711278291,"current_range_meters":2000,"station_id":"ce4bgpp2rcd13ifvqc3g","pricing_plan_id":"cebpf4jnsgd1na2vs0mg"},{"bike_id":"459de7f9-4ffd-4a6b-9a06-e691f4c2b825","system_id":"levelo_inurba_marseille","lat":43.305364,"lon":5.384119,"is_reserved":false,"is_disabled":false,"rental_uris":{"android":"levelo://app?vid=459de7f9-4ffd-4a6b-9a06-e691f4c2b825","ios":"levelo://app?vid=459de7f9-4ffd-4a6b-9a06-e691f4c2b825"},"vehicle_type_id":"4","last_reported":1711278291,"current_range_meters":16400,"station_id":"ce4bgg92rcd13ifvqb30","pricing_plan_id":"cebpf4jnsgd1na2vs0mg"},{"bike_id":"70d603d3-200a-40fd-b686-98c1acc3f1df","system_id":"levelo_inurba_marseille","lat":43.298433,"lon":5.362774,"is_reserved":false,"is_disabled":false,"rental_uris":{"android":"levelo://app?vid=70d603d3-200a-40fd-b686-98c1acc3f1df","ios":"levelo://app?vid=70d603d3-200a-40fd-b686-98c1acc3f1df"},"vehicle_type_id":"4","last_reported":1711278291,"current_range_meters":18400,"station_id":"ce4bgpp2rcd13ifvqc3g","pricing_plan_id":"cebpf4jnsgd1na2vs0mg"},{"bike_id":"bbe73dc6-b3ec-45cb-97b2-fd679a8ba713","system_id":"levelo_inurba_marseille","lat":43.298433,"lon":5.362774,"is_reserved":false,"is_disabled":false,"rental_uris":{"android":"levelo://app?vid=bbe73dc6-b3ec-45cb-97b2-fd679a8ba713","ios":"levelo://app?vid=bbe73dc6-b3ec-45cb-97b2-fd679a8ba713"},"vehicle_type_id":"4","last_reported":1711278291,"current_range_meters":22800,"station_id":"ce4bgpp2rcd13ifvqc3g","pricing_plan_id":"cebpf4jnsgd1na2vs0mg"},{"bike_id":"84c38f94-2117-4e8b-8ca6-90dadb38cb50","system_id":"levelo_inurba_marseille","lat":43.305364,"lon":5.384119,"is_reserved":false,"is_disabled":false,"rental_uris":{"android":"levelo://app?vid=84c38f94-2117-4e8b-8ca6-90dadb38cb50","ios":"levelo://app?vid=84c38f94-2117-4e8b-8ca6-90dadb38cb50"},"vehicle_type_id":"4","last_reported":1711278291,"current_range_meters":25200,"station_id":"ce4bgg92rcd13ifvqb30","pricing_plan_id":"cebpf4jnsgd1na2vs0mg"},{"bike_id":"f1098504-1246-4c9d-bf12-dda2ae178037","system_id":"levelo_inurba_marseille","lat":43.298433,"lon":5.362774,"is_reserved":false,"is_disabled":false,"rental_uris":{"android":"levelo://app?vid=f1098504-1246-4c9d-bf12-dda2ae178037","ios":"levelo://app?vid=f1098504-1246-4c9d-bf12-dda2ae178037"},"vehicle_type_id":"4","last_reported":1711278291,"current_range_meters":1200,"station_id":"ce4bgpp2rcd13ifvqc3g","pricing_plan_id":"cebpf4jnsgd1na2vs0mg"},{"bike_id":"6aa35f08-7e07-419a-ba88-d8771f7f7d5b","system_id":"levelo_inurba_marseille","lat":43.298433,"lon":5.362774,"is_reserved":false,"is_disabled":false,"rental_uris":{"android":"levelo://app?vid=6aa35f08-7e07-419a-ba88-d8771f7f7d5b","ios":"levelo://app?vid=6aa35f08-7e07-419a-ba88-d8771f7f7d5b"},"vehicle_type_id":"4","last_reported":1711278291,"current_range_meters":31600,"station_id":"ce4bgpp2rcd13ifvqc3g","pricing_plan_id":"cebpf4jnsgd1na2vs0mg"},{"bike_id":"b33eb7b9-5f10-4949-97e8-278636a6e483","system_id":"levelo_inurba_marseille","lat":43.299243,"lon":5.37481,"is_reserved":false,"is_disabled":false,"rental_uris":{"android":"levelo://app?vid=b33eb7b9-5f10-4949-97e8-278636a6e483","ios":"levelo://app?vid=b33eb7b9-5f10-4949-97e8-278636a6e483"},"vehicle_type_id":"4","last_reported":1711278291,"current_range_meters":0,"station_id":"ce4bgjh2rcd13ifvqbg0","pricing_plan_id":"cebpf4jnsgd1na2vs0mg"},{"bike_id":"1338a075-df1a-48eb-ad09-582b750e05f7","system_id":"levelo_inurba_marseille","lat":43.298433,"lon":5.362774,"is_reserved":false,"is_disabled":false,"rental_uris":{"android":"levelo://app?vid=1338a075-df1a-48eb-ad09-582b750e05f7","ios":"levelo://app?vid=1338a075-df1a-48eb-ad09-582b750e05f7"},"vehicle_type_id":"4","last_reported":1711278291,"current_range_meters":18000,"station_id":"ce4bgpp2rcd13ifvqc3g","pricing_plan_id":"cebpf4jnsgd1na2vs0mg"},{"bike_id":"3ae46b93-f158-4a4d-bd64-7ca0c38c7b31","system_id":"levelo_inurba_marseille","lat":43.298433,"lon":5.362774,"is_reserved":false,"is_disabled":false,"rental_uris":{"android":"levelo://app?vid=3ae46b93-f158-4a4d-bd64-7ca0c38c7b31","ios":"levelo://app?vid=3ae46b93-f158-4a4d-bd64-7ca0c38c7b31"},"vehicle_type_id":"4","last_reported":1711278291,"current_range_meters":0,"station_id":"ce4bgpp2rcd13ifvqc3g","pricing_plan_id":"cebpf4jnsgd1na2vs0mg"},{"bike_id":"670bf601-3ad5-4afa-83ff-a0d9e5037fea","system_id":"levelo_inurba_marseille","lat":43.298433,"lon":5.362774,"is_reserved":false,"is_disabled":false,"rental_uris":{"android":"levelo://app?vid=670bf601-3ad5-4afa-83ff-a0d9e5037fea","ios":"levelo://app?vid=670bf601-3ad5-4afa-83ff-a0d9e5037fea"},"vehicle_type_id":"4","last_reported":1711278291,"current_range_meters":16000,"station_id":"ce4bgpp2rcd13ifvqc3g","pricing_plan_id":"cebpf4jnsgd1na2vs0mg"},{"bike_id":"1c6c5dcd-0697-4f38-8bcc-bf3a793e7fd6","system_id":"levelo_inurba_marseille","lat":43.298433,"lon":5.362774,"is_reserved":false,"is_disabled":false,"rental_uris":{"android":"levelo://app?vid=1c6c5dcd-0697-4f38-8bcc-bf3a793e7fd6","ios":"levelo://app?vid=1c6c5dcd-0697-4f38-8bcc-bf3a793e7fd6"},"vehicle_type_id":"4","last_reported":1711278291,"current_range_meters":20800,"station_id":"ce4bgpp2rcd13ifvqc3g","pricing_plan_id":"cebpf4jnsgd1na2vs0mg"},{"bike_id":"a062c284-7f04-4d25-9fa3-316fbcf5a527","system_id":"levelo_inurba_marseille","lat":43.298433,"lon":5.362774,"is_reserved":false,"is_disabled":false,"rental_uris":{"android":"levelo://app?vid=a062c284-7f04-4d25-9fa3-316fbcf5a527","ios":"levelo://app?vid=a062c284-7f04-4d25-9fa3-316fbcf5a527"},"vehicle_type_id":"4","last_reported":1711278291,"current_range_meters":26400,"station_id":"ce4bgpp2rcd13ifvqc3g","pricing_plan_id":"cebpf4jnsgd1na2vs0mg"},{"bike_id":"64ac0a45-de47-40e2-90ed-3f58183aa500","system_id":"levelo_inurba_marseille","lat":43.305364,"lon":5.384119,"is_reserved":false,"is_disabled":false,"rental_uris":{"android":"levelo://app?vid=64ac0a45-de47-40e2-90ed-3f58183aa500","ios":"levelo://app?vid=64ac0a45-de47-40e2-90ed-3f58183aa500"},"vehicle_type_id":"4","last_reported":1711278291,"current_range_meters":19600,"station_id":"ce4bgg92rcd13ifvqb30","pricing_plan_id":"cebpf4jnsgd1na2vs0mg"},{"bike_id":"d7d92808-32e9-4996-86b3-bd18c3b748e4","system_id":"levelo_inurba_marseille","lat":43.298433,"lon":5.362774,"is_reserved":false,"is_disabled":false,"rental_uris":{"android":"levelo://app?vid=d7d92808-32e9-4996-86b3-bd18c3b748e4","ios":"levelo://app?vid=d7d92808-32e9-4996-86b3-bd18c3b748e4"},"vehicle_type_id":"4","last_reported":1711278291,"current_range_meters":22400,"station_id":"ce4bgpp2rcd13ifvqc3g","pricing_plan_id":"cebpf4jnsgd1na2vs0mg"},{"bike_id":"a2d15044-12e2-4537-ae85-82262e442d3b","system_id":"levelo_inurba_marseille","lat":43.311882,"lon":5.387126,"is_reserved":false,"is_disabled":false,"rental_uris":{"android":"levelo://app?vid=a2d15044-12e2-4537-ae85-82262e442d3b","ios":"levelo://app?vid=a2d15044-12e2-4537-ae85-82262e442d3b"},"vehicle_type_id":"4","last_reported":1711278291,"current_range_meters":29600,"station_id":"ce4bgv12rcd13ifvqcp0","pricing_plan_id":"cebpf4jnsgd1na2vs0mg"},{"bike_id":"ab754d2a-3a09-49e5-ace6-89a8e7b5a592","system_id":"levelo_inurba_marseille","lat":43.311909,"lon":5.387143,"is_reserved":false,"is_disabled":false,"rental_uris":{"android":"levelo://app?vid=ab754d2a-3a09-49e5-ace6-89a8e7b5a592","ios":"levelo://app?vid=ab754d2a-3a09-49e5-ace6-89a8e7b5a592"},"vehicle_type_id":"4","last_reported":1711278291,"current_range_meters":17200,"station_id":"ce4bgv12rcd13ifvqcp0","pricing_plan_id":"cebpf4jnsgd1na2vs0mg"},{"bike_id":"47e0bfa4-0835-4794-9d6c-cc98303e5d62","system_id":"levelo_inurba_marseille","lat":43.311722,"lon":5.387247,"is_reserved":false,"is_disabled":false,"rental_uris":{"android":"levelo://app?vid=47e0bfa4-0835-4794-9d6c-cc98303e5d62","ios":"levelo://app?vid=47e0bfa4-0835-4794-9d6c-cc98303e5d62"},"vehicle_type_id":"4","last_reported":1711278291,"current_range_meters":20000,"station_id":"ce4bgv12rcd13ifvqcp0","pricing_plan_id":"cebpf4jnsgd1na2vs0mg"},{"bike_id":"bdb64dbc-accd-4022-a56c-b568268284af","system_id":"levelo_inurba_marseille","lat":43.297794,"lon":5.370888,"is_reserved":false,"is_disabled":false,"rental_uris":{"android":"levelo://app?vid=bdb64dbc-accd-4022-a56c-b568268284af","ios":"levelo://app?vid=bdb64dbc-accd-4022-a56c-b568268284af"},"vehicle_type_id":"4","last_reported":1711278291,"current_range_meters":30800,"station_id":"ce4bgop2rcd13ifvqc1g","pricing_plan_id":"cebpf4jnsgd1na2vs0mg"},{"bike_id":"feead7e7-9cee-4c57-94a6-da647512767c","system_id":"levelo_inurba_marseille","lat":43.322896,"lon":5.382515,"is_reserved":false,"is_disabled":false,"rental_uris":{"android":"levelo://app?vid=feead7e7-9cee-4c57-94a6-da647512767c","ios":"levelo://app?vid=feead7e7-9cee-4c57-94a6-da647512767c"},"vehicle_type_id":"4","last_reported":1711278291,"current_range_meters":3600,"station_id":"ce4bhr12rcd13ifvqhqg","pricing_plan_id":"cebpf4jnsgd1na2vs0mg"},{"bike_id":"ef63e760-1de8-4d2d-8a65-2d7d6b47b9e6","system_id":"levelo_inurba_marseille","lat":43.297794,"lon":5.370888,"is_reserved":false,"is_disabled":false,"rental_uris":{"android":"levelo://app?vid=ef63e760-1de8-4d2d-8a65-2d7d6b47b9e6","ios":"levelo://app?vid=ef63e760-1de8-4d2d-8a65-2d7d6b47b9e6"},"vehicle_type_id":"4","last_reported":1711278291,"current_range_meters":22000,"station_id":"ce4bgop2rcd13ifvqc1g","pricing_plan_id":"cebpf4jnsgd1na2vs0mg"},{"bike_id":"452f5a12-5840-4928-8e50-d0aee6036731","system_id":"levelo_inurba_marseille","lat":43.32287,"lon":5.38265,"is_reserved":false,"is_disabled":false,"rental_uris":{"android":"levelo://app?vid=452f5a12-5840-4928-8e50-d0aee6036731","ios":"levelo://app?vid=452f5a12-5840-4928-8e50-d0aee6036731"},"vehicle_type_id":"4","last_reported":1711278291,"current_range_meters":8000,"station_id":"ce4bhr12rcd13ifvqhqg","pricing_plan_id":"cebpf4jnsgd1na2vs0mg"},{"bike_id":"8b004ee8-7400-4db7-97a8-7a3b78ef5c51","system_id":"levelo_inurba_marseille","lat":43.322932,"lon":5.382625,"is_reserved":false,"is_disabled":false,"rental_uris":{"android":"levelo://app?vid=8b004ee8-7400-4db7-97a8-7a3b78ef5c51","ios":"levelo://app?vid=8b004ee8-7400-4db7-97a8-7a3b78ef5c51"},"vehicle_type_id":"4","last_reported":1711278291,"current_range_meters":25200,"station_id":"ce4bhr12rcd13ifvqhqg","pricing_plan_id":"cebpf4jnsgd1na2vs0mg"},{"bike_id":"3ff125a5-dff1-4591-b6cc-449dc2424878","system_id":"levelo_inurba_marseille","lat":43.32289,"lon":5.38269,"is_reserved":false,"is_disabled":false,"rental_uris":{"android":"levelo://app?vid=3ff125a5-dff1-4591-b6cc-449dc2424878","ios":"levelo://app?vid=3ff125a5-dff1-4591-b6cc-449dc2424878"},"vehicle_type_id":"4","last_reported":1711278291,"current_range_meters":2400,"station_id":"ce4bhr12rcd13ifvqhqg","pricing_plan_id":"cebpf4jnsgd1na2vs0mg"},{"bike_id":"9607cebd-f2b1-4cda-94e6-b812c1eeae5d","system_id":"levelo_inurba_marseille","lat":43.322872,"lon":5.382756,"is_reserved":false,"is_disabled":false,"rental_uris":{"android":"levelo://app?vid=9607cebd-f2b1-4cda-94e6-b812c1eeae5d","ios":"levelo://app?vid=9607cebd-f2b1-4cda-94e6-b812c1eeae5d"},"vehicle_type_id":"4","last_reported":1711278291,"current_range_meters":29200,"station_id":"ce4bhr12rcd13ifvqhqg","pricing_plan_id":"cebpf4jnsgd1na2vs0mg"},{"bike_id":"5d8768c3-c16c-4f03-812d-0467d2c881f1","system_id":"levelo_inurba_marseille","lat":43.322872,"lon":5.382756,"is_reserved":false,"is_disabled":false,"rental_uris":{"android":"levelo://app?vid=5d8768c3-c16c-4f03-812d-0467d2c881f1","ios":"levelo://app?vid=5d8768c3-c16c-4f03-812d-0467d2c881f1"},"vehicle_type_id":"4","last_reported":1711278291,"current_range_meters":21200,"station_id":"ce4bhr12rcd13ifvqhqg","pricing_plan_id":"cebpf4jnsgd1na2vs0mg"},{"bike_id":"85d4d71c-b2c1-426a-b0b8-be8461195f7e","system_id":"levelo_inurba_marseille","lat":43.322872,"lon":5.382756,"is_reserved":false,"is_disabled":false,"rental_uris":{"android":"levelo://app?vid=85d4d71c-b2c1-426a-b0b8-be8461195f7e","ios":"levelo://app?vid=85d4d71c-b2c1-426a-b0b8-be8461195f7e"},"vehicle_type_id":"4","last_reported":1711278291,"current_range_meters":31200,"station_id":"ce4bhr12rcd13ifvqhqg","pricing_plan_id":"cebpf4jnsgd1na2vs0mg"},{"bike_id":"28e3e501-5412-490b-bec3-0862d434bf8f","system_id":"levelo_inurba_marseille","lat":43.322872,"lon":5.382756,"is_reserved":false,"is_disabled":false,"rental_uris":{"android":"levelo://app?vid=28e3e501-5412-490b-bec3-0862d434bf8f","ios":"levelo://app?vid=28e3e501-5412-490b-bec3-0862d434bf8f"},"vehicle_type_id":"4","last_reported":1711278291,"current_range_meters":18400,"station_id":"ce4bhr12rcd13ifvqhqg","pricing_plan_id":"cebpf4jnsgd1na2vs0mg"},{"bike_id":"70a8c463-3c22-41fc-a1cd-b92976ebe64d","system_id":"levelo_inurba_marseille","lat":43.2968,"lon":5.37291,"is_reserved":false,"is_disabled":false,"rental_uris":{"android":"levelo://app?vid=70a8c463-3c22-41fc-a1cd-b92976ebe64d","ios":"levelo://app?vid=70a8c463-3c22-41fc-a1cd-b92976ebe64d"},"vehicle_type_id":"4","last_reported":1711278291,"current_range_meters":14800,"station_id":"ce4bgk12rcd13ifvqbj0","pricing_plan_id":"cebpf4jnsgd1na2vs0mg"},{"bike_id":"1c8e55b6-57d4-4dac-b3e4-373534337c89","system_id":"levelo_inurba_marseille","lat":43.296131,"lon":5.370791,"is_reserved":false,"is_disabled":false,"rental_uris":{"android":"levelo://app?vid=1c8e55b6-57d4-4dac-b3e4-373534337c89","ios":"levelo://app?vid=1c8e55b6-57d4-4dac-b3e4-373534337c89"},"vehicle_type_id":"4","last_reported":1711278291,"current_range_meters":27600,"station_id":"ce4bgnh2rcd13ifvqc0g","pricing_plan_id":"cebpf4jnsgd1na2vs0mg"},{"bike_id":"c63ea847-022b-47fc-8ff7-277f647b5bbc","system_id":"levelo_inurba_marseille","lat":43.296131,"lon":5.370791,"is_reserved":false,"is_disabled":false,"rental_uris":{"android":"levelo://app?vid=c63ea847-022b-47fc-8ff7-277f647b5bbc","ios":"levelo://app?vid=c63ea847-022b-47fc-8ff7-277f647b5bbc"},"vehicle_type_id":"4","last_reported":1711278291,"current_range_meters":13200,"station_id":"ce4bgnh2rcd13ifvqc0g","pricing_plan_id":"cebpf4jnsgd1na2vs0mg"},{"bike_id":"1a84c836-39df-4804-b0f4-501365260de8","system_id":"levelo_inurba_marseille","lat":43.29587,"lon":5.36749,"is_reserved":false,"is_disabled":false,"rental_uris":{"android":"levelo://app?vid=1a84c836-39df-4804-b0f4-501365260de8","ios":"levelo://app?vid=1a84c836-39df-4804-b0f4-501365260de8"},"vehicle_type_id":"4","last_reported":1711278291,"current_range_meters":20400,"station_id":"ce4bgph2rcd13ifvqc2g","pricing_plan_id":"cebpf4jnsgd1na2vs0mg"},{"bike_id":"3cbc67ef-082a-481f-8b01-c7c499c2964e","system_id":"levelo_inurba_marseille","lat":43.29573,"lon":5.367355,"is_reserved":false,"is_disabled":false,"rental_uris":{"android":"levelo://app?vid=3cbc67ef-082a-481f-8b01-c7c499c2964e","ios":"levelo://app?vid=3cbc67ef-082a-481f-8b01-c7c499c2964e"},"vehicle_type_id":"4","last_reported":1711278291,"current_range_meters":29200,"station_id":"ce4bgph2rcd13ifvqc2g","pricing_plan_id":"cebpf4jnsgd1na2vs0mg"},{"bike_id":"d5c5a94b-2504-4c9d-9ce1-81a681364b16","system_id":"levelo_inurba_marseille","lat":43.29573,"lon":5.367355,"is_reserved":false,"is_disabled":false,"rental_uris":{"android":"levelo://app?vid=d5c5a94b-2504-4c9d-9ce1-81a681364b16","ios":"levelo://app?vid=d5c5a94b-2504-4c9d-9ce1-81a681364b16"},"vehicle_type_id":"4","last_reported":1711278291,"current_range_meters":31200,"station_id":"ce4bgph2rcd13ifvqc2g","pricing_plan_id":"cebpf4jnsgd1na2vs0mg"},{"bike_id":"33272bb2-0ca0-43b4-a342-234ba0c3168f","system_id":"levelo_inurba_marseille","lat":43.29573,"lon":5.367355,"is_reserved":false,"is_disabled":false,"rental_uris":{"android":"levelo://app?vid=33272bb2-0ca0-43b4-a342-234ba0c3168f","ios":"levelo://app?vid=33272bb2-0ca0-43b4-a342-234ba0c3168f"},"vehicle_type_id":"4","last_reported":1711278291,"current_range_meters":22800,"station_id":"ce4bgph2rcd13ifvqc2g","pricing_plan_id":"cebpf4jnsgd1na2vs0mg"},{"bike_id":"4879ad78-9951-40ee-bc5b-393f63849f6f","system_id":"levelo_inurba_marseille","lat":43.29573,"lon":5.367355,"is_reserved":false,"is_disabled":false,"rental_uris":{"android":"levelo://app?vid=4879ad78-9951-40ee-bc5b-393f63849f6f","ios":"levelo://app?vid=4879ad78-9951-40ee-bc5b-393f63849f6f"},"vehicle_type_id":"4","last_reported":1711278291,"current_range_meters":21600,"station_id":"ce4bgph2rcd13ifvqc2g","pricing_plan_id":"cebpf4jnsgd1na2vs0mg"},{"bike_id":"d056c70b-de21-4a45-9c67-79a37f8704c4","system_id":"levelo_inurba_marseille","lat":43.29573,"lon":5.367355,"is_reserved":false,"is_disabled":false,"rental_uris":{"android":"levelo://app?vid=d056c70b-de21-4a45-9c67-79a37f8704c4","ios":"levelo://app?vid=d056c70b-de21-4a45-9c67-79a37f8704c4"},"vehicle_type_id":"4","last_reported":1711278291,"current_range_meters":16800,"station_id":"ce4bgph2rcd13ifvqc2g","pricing_plan_id":"cebpf4jnsgd1na2vs0mg"},{"bike_id":"b524fd61-4fa9-4355-b089-9027eb5bb32d","system_id":"levelo_inurba_marseille","lat":43.29573,"lon":5.367355,"is_reserved":false,"is_disabled":false,"rental_uris":{"android":"levelo://app?vid=b524fd61-4fa9-4355-b089-9027eb5bb32d","ios":"levelo://app?vid=b524fd61-4fa9-4355-b089-9027eb5bb32d"},"vehicle_type_id":"4","last_reported":1711278291,"current_range_meters":31200,"station_id":"ce4bgph2rcd13ifvqc2g","pricing_plan_id":"cebpf4jnsgd1na2vs0mg"},{"bike_id":"576d69bd-3647-45cd-a535-d4c7623aca82","system_id":"levelo_inurba_marseille","lat":43.309589,"lon":5.390258,"is_reserved":false,"is_disabled":false,"rental_uris":{"android":"levelo://app?vid=576d69bd-3647-45cd-a535-d4c7623aca82","ios":"levelo://app?vid=576d69bd-3647-45cd-a535-d4c7623aca82"},"vehicle_type_id":"4","last_reported":1711278291,"current_range_meters":26800,"station_id":"ce4bgup2rcd13ifvqco0","pricing_plan_id":"cebpf4jnsgd1na2vs0mg"},{"bike_id":"ab04c103-cf7f-43ea-9f46-108405bbde00","system_id":"levelo_inurba_marseille","lat":43.30951,"lon":5.39031,"is_reserved":false,"is_disabled":false,"rental_uris":{"android":"levelo://app?vid=ab04c103-cf7f-43ea-9f46-108405bbde00","ios":"levelo://app?vid=ab04c103-cf7f-43ea-9f46-108405bbde00"},"vehicle_type_id":"4","last_reported":1711278291,"current_range_meters":21200,"station_id":"ce4bgup2rcd13ifvqco0","pricing_plan_id":"cebpf4jnsgd1na2vs0mg"},{"bike_id":"f5fcc504-be5c-42b2-910f-1ac3ff7448c5","system_id":"levelo_inurba_marseille","lat":43.309589,"lon":5.390258,"is_reserved":false,"is_disabled":false,"rental_uris":{"android":"levelo://app?vid=f5fcc504-be5c-42b2-910f-1ac3ff7448c5","ios":"levelo://app?vid=f5fcc504-be5c-42b2-910f-1ac3ff7448c5"},"vehicle_type_id":"4","last_reported":1711278291,"current_range_meters":31200,"station_id":"ce4bgup2rcd13ifvqco0","pricing_plan_id":"cebpf4jnsgd1na2vs0mg"},{"bike_id":"ee2340fc-dbf3-4d59-ad85-9e5bff13aa0e","system_id":"levelo_inurba_marseille","lat":43.309589,"lon":5.390258,"is_reserved":false,"is_disabled":false,"rental_uris":{"android":"levelo://app?vid=ee2340fc-dbf3-4d59-ad85-9e5bff13aa0e","ios":"levelo://app?vid=ee2340fc-dbf3-4d59-ad85-9e5bff13aa0e"},"vehicle_type_id":"4","last_reported":1711278291,"current_range_meters":15200,"station_id":"ce4bgup2rcd13ifvqco0","pricing_plan_id":"cebpf4jnsgd1na2vs0mg"},{"bike_id":"c5fc81d4-655b-4c69-957b-d7fc5b6bdad7","system_id":"levelo_inurba_marseille","lat":43.309509,"lon":5.390479,"is_reserved":false,"is_disabled":false,"rental_uris":{"android":"levelo://app?vid=c5fc81d4-655b-4c69-957b-d7fc5b6bdad7","ios":"levelo://app?vid=c5fc81d4-655b-4c69-957b-d7fc5b6bdad7"},"vehicle_type_id":"4","last_reported":1711278291,"current_range_meters":20400,"station_id":"ce4bgup2rcd13ifvqco0","pricing_plan_id":"cebpf4jnsgd1na2vs0mg"},{"bike_id":"2f383941-8dae-480b-a762-e0959fabd4af","system_id":"levelo_inurba_marseille","lat":43.317557,"lon":5.390173,"is_reserved":false,"is_disabled":false,"rental_uris":{"android":"levelo://app?vid=2f383941-8dae-480b-a762-e0959fabd4af","ios":"levelo://app?vid=2f383941-8dae-480b-a762-e0959fabd4af"},"vehicle_type_id":"4","last_reported":1711278291,"current_range_meters":24800,"station_id":"ce4bhqp2rcd13ifvqhng","pricing_plan_id":"cebpf4jnsgd1na2vs0mg"},{"bike_id":"adc5f267-f562-4b7d-a994-a352687d2db6","system_id":"levelo_inurba_marseille","lat":43.31755,"lon":5.39015,"is_reserved":false,"is_disabled":false,"rental_uris":{"android":"levelo://app?vid=adc5f267-f562-4b7d-a994-a352687d2db6","ios":"levelo://app?vid=adc5f267-f562-4b7d-a994-a352687d2db6"},"vehicle_type_id":"4","last_reported":1711278291,"current_range_meters":0,"station_id":"ce4bhqp2rcd13ifvqhng","pricing_plan_id":"cebpf4jnsgd1na2vs0mg"},{"bike_id":"8038916e-1d0c-4aef-9319-ddb1489fca3e","system_id":"levelo_inurba_marseille","lat":43.317491,"lon":5.390179,"is_reserved":false,"is_disabled":false,"rental_uris":{"android":"levelo://app?vid=8038916e-1d0c-4aef-9319-ddb1489fca3e","ios":"levelo://app?vid=8038916e-1d0c-4aef-9319-ddb1489fca3e"},"vehicle_type_id":"4","last_reported":1711278291,"current_range_meters":0,"station_id":"ce4bhqp2rcd13ifvqhng","pricing_plan_id":"cebpf4jnsgd1na2vs0mg"},{"bike_id":"f094d01c-5a96-4449-a3c2-ca0ed18b8b5b","system_id":"levelo_inurba_marseille","lat":43.317557,"lon":5.390173,"is_reserved":false,"is_disabled":false,"rental_uris":{"android":"levelo://app?vid=f094d01c-5a96-4449-a3c2-ca0ed18b8b5b","ios":"levelo://app?vid=f094d01c-5a96-4449-a3c2-ca0ed18b8b5b"},"vehicle_type_id":"4","last_reported":1711278291,"current_range_meters":0,"station_id":"ce4bhqp2rcd13ifvqhng","pricing_plan_id":"cebpf4jnsgd1na2vs0mg"},{"bike_id":"f8105812-5475-4cfc-a32b-03ce6b0b0631","system_id":"levelo_inurba_marseille","lat":43.317557,"lon":5.390173,"is_reserved":false,"is_disabled":false,"rental_uris":{"android":"levelo://app?vid=f8105812-5475-4cfc-a32b-03ce6b0b0631","ios":"levelo://app?vid=f8105812-5475-4cfc-a32b-03ce6b0b0631"},"vehicle_type_id":"4","last_reported":1711278291,"current_range_meters":27600,"station_id":"ce4bhqp2rcd13ifvqhng","pricing_plan_id":"cebpf4jnsgd1na2vs0mg"},{"bike_id":"687de689-3567-4513-a83c-732bad9f23e6","system_id":"levelo_inurba_marseille","lat":43.317557,"lon":5.390173,"is_reserved":false,"is_disabled":false,"rental_uris":{"android":"levelo://app?vid=687de689-3567-4513-a83c-732bad9f23e6","ios":"levelo://app?vid=687de689-3567-4513-a83c-732bad9f23e6"},"vehicle_type_id":"4","last_reported":1711278291,"current_range_meters":28800,"station_id":"ce4bhqp2rcd13ifvqhng","pricing_plan_id":"cebpf4jnsgd1na2vs0mg"},{"bike_id":"063c5670-b10d-4107-85ca-2e4418ef68a8","system_id":"levelo_inurba_marseille","lat":43.317564,"lon":5.390211,"is_reserved":false,"is_disabled":false,"rental_uris":{"android":"levelo://app?vid=063c5670-b10d-4107-85ca-2e4418ef68a8","ios":"levelo://app?vid=063c5670-b10d-4107-85ca-2e4418ef68a8"},"vehicle_type_id":"4","last_reported":1711278291,"current_range_meters":27200,"station_id":"ce4bhqp2rcd13ifvqhng","pricing_plan_id":"cebpf4jnsgd1na2vs0mg"},{"bike_id":"a84494ff-e488-44c6-9347-0b89aeb12141","system_id":"levelo_inurba_marseille","lat":43.31755,"lon":5.390245,"is_reserved":false,"is_disabled":false,"rental_uris":{"android":"levelo://app?vid=a84494ff-e488-44c6-9347-0b89aeb12141","ios":"levelo://app?vid=a84494ff-e488-44c6-9347-0b89aeb12141"},"vehicle_type_id":"4","last_reported":1711278291,"current_range_meters":6000,"station_id":"ce4bhqp2rcd13ifvqhng","pricing_plan_id":"cebpf4jnsgd1na2vs0mg"},{"bike_id":"8613e140-9742-4900-beb7-bb86bd73b07a","system_id":"levelo_inurba_marseille","lat":43.317463,"lon":5.39028,"is_reserved":false,"is_disabled":false,"rental_uris":{"android":"levelo://app?vid=8613e140-9742-4900-beb7-bb86bd73b07a","ios":"levelo://app?vid=8613e140-9742-4900-beb7-bb86bd73b07a"},"vehicle_type_id":"4","last_reported":1711278291,"current_range_meters":0,"station_id":"ce4bhqp2rcd13ifvqhng","pricing_plan_id":"cebpf4jnsgd1na2vs0mg"},{"bike_id":"64faaf0e-8299-47ab-9335-1274f7d2f7f6","system_id":"levelo_inurba_marseille","lat":43.317496,"lon":5.390284,"is_reserved":false,"is_disabled":false,"rental_uris":{"android":"levelo://app?vid=64faaf0e-8299-47ab-9335-1274f7d2f7f6","ios":"levelo://app?vid=64faaf0e-8299-47ab-9335-1274f7d2f7f6"},"vehicle_type_id":"4","last_reported":1711278291,"current_range_meters":8400,"station_id":"ce4bhqp2rcd13ifvqhng","pricing_plan_id":"cebpf4jnsgd1na2vs0mg"},{"bike_id":"fe92d481-ce5f-4e4e-8950-c1ea981ac946","system_id":"levelo_inurba_marseille","lat":43.29581,"lon":5.3751,"is_reserved":false,"is_disabled":false,"rental_uris":{"android":"levelo://app?vid=fe92d481-ce5f-4e4e-8950-c1ea981ac946","ios":"levelo://app?vid=fe92d481-ce5f-4e4e-8950-c1ea981ac946"},"vehicle_type_id":"4","last_reported":1711278291,"current_range_meters":0,"station_id":"ce4bgh92rcd13ifvqb50","pricing_plan_id":"cebpf4jnsgd1na2vs0mg"},{"bike_id":"0a221178-084c-46cf-b92c-ed130102df60","system_id":"levelo_inurba_marseille","lat":43.304274,"lon":5.388873,"is_reserved":false,"is_disabled":false,"rental_uris":{"android":"levelo://app?vid=0a221178-084c-46cf-b92c-ed130102df60","ios":"levelo://app?vid=0a221178-084c-46cf-b92c-ed130102df60"},"vehicle_type_id":"4","last_reported":1711278291,"current_range_meters":23200,"station_id":"ce4bgk12rcd13ifvqbi0","pricing_plan_id":"cebpf4jnsgd1na2vs0mg"},{"bike_id":"f7669345-8381-4143-9f0b-097a788a6954","system_id":"levelo_inurba_marseille","lat":43.296263,"lon":5.377094,"is_reserved":false,"is_disabled":false,"rental_uris":{"android":"levelo://app?vid=f7669345-8381-4143-9f0b-097a788a6954","ios":"levelo://app?vid=f7669345-8381-4143-9f0b-097a788a6954"},"vehicle_type_id":"4","last_reported":1711278291,"current_range_meters":20000,"station_id":"ce4bgi92rcd13ifvqb90","pricing_plan_id":"cebpf4jnsgd1na2vs0mg"},{"bike_id":"9c53b0de-0cba-4a4e-badc-de7fd847e8e9","system_id":"levelo_inurba_marseille","lat":43.304274,"lon":5.388873,"is_reserved":false,"is_disabled":false,"rental_uris":{"android":"levelo://app?vid=9c53b0de-0cba-4a4e-badc-de7fd847e8e9","ios":"levelo://app?vid=9c53b0de-0cba-4a4e-badc-de7fd847e8e9"},"vehicle_type_id":"4","last_reported":1711278291,"current_range_meters":30000,"station_id":"ce4bgk12rcd13ifvqbi0","pricing_plan_id":"cebpf4jnsgd1na2vs0mg"},{"bike_id":"49e998b8-be76-4c4c-b2cb-2a3397b77e3b","system_id":"levelo_inurba_marseille","lat":43.296263,"lon":5.377094,"is_reserved":false,"is_disabled":false,"rental_uris":{"android":"levelo://app?vid=49e998b8-be76-4c4c-b2cb-2a3397b77e3b","ios":"levelo://app?vid=49e998b8-be76-4c4c-b2cb-2a3397b77e3b"},"vehicle_type_id":"4","last_reported":1711278291,"current_range_meters":0,"station_id":"ce4bgi92rcd13ifvqb90","pricing_plan_id":"cebpf4jnsgd1na2vs0mg"},{"bike_id":"3b92ca3c-62fb-46ac-ba89-383bd859abcd","system_id":"levelo_inurba_marseille","lat":43.296263,"lon":5.377094,"is_reserved":false,"is_disabled":false,"rental_uris":{"android":"levelo://app?vid=3b92ca3c-62fb-46ac-ba89-383bd859abcd","ios":"levelo://app?vid=3b92ca3c-62fb-46ac-ba89-383bd859abcd"},"vehicle_type_id":"4","last_reported":1711278291,"current_range_meters":21600,"station_id":"ce4bgi92rcd13ifvqb90","pricing_plan_id":"cebpf4jnsgd1na2vs0mg"},{"bike_id":"03e2aee7-caca-4dde-888a-3a7a52499047","system_id":"levelo_inurba_marseille","lat":43.296263,"lon":5.377094,"is_reserved":false,"is_disabled":false,"rental_uris":{"android":"levelo://app?vid=03e2aee7-caca-4dde-888a-3a7a52499047","ios":"levelo://app?vid=03e2aee7-caca-4dde-888a-3a7a52499047"},"vehicle_type_id":"4","last_reported":1711278291,"current_range_meters":22000,"station_id":"ce4bgi92rcd13ifvqb90","pricing_plan_id":"cebpf4jnsgd1na2vs0mg"},{"bike_id":"2b84d73f-78ba-4ac5-90d6-d1c999f53c92","system_id":"levelo_inurba_marseille","lat":43.296263,"lon":5.377094,"is_reserved":false,"is_disabled":false,"rental_uris":{"android":"levelo://app?vid=2b84d73f-78ba-4ac5-90d6-d1c999f53c92","ios":"levelo://app?vid=2b84d73f-78ba-4ac5-90d6-d1c999f53c92"},"vehicle_type_id":"4","last_reported":1711278291,"current_range_meters":24400,"station_id":"ce4bgi92rcd13ifvqb90","pricing_plan_id":"cebpf4jnsgd1na2vs0mg"},{"bike_id":"9d9879eb-7fa4-4a1a-be7e-c0b5ee3cf0a5","system_id":"levelo_inurba_marseille","lat":43.296277,"lon":5.377108,"is_reserved":false,"is_disabled":false,"rental_uris":{"android":"levelo://app?vid=9d9879eb-7fa4-4a1a-be7e-c0b5ee3cf0a5","ios":"levelo://app?vid=9d9879eb-7fa4-4a1a-be7e-c0b5ee3cf0a5"},"vehicle_type_id":"4","last_reported":1711278291,"current_range_meters":1600,"station_id":"ce4bgi92rcd13ifvqb90","pricing_plan_id":"cebpf4jnsgd1na2vs0mg"},{"bike_id":"e729f3aa-c807-452d-92d9-87e0f2072f83","system_id":"levelo_inurba_marseille","lat":43.296277,"lon":5.377108,"is_reserved":false,"is_disabled":false,"rental_uris":{"android":"levelo://app?vid=e729f3aa-c807-452d-92d9-87e0f2072f83","ios":"levelo://app?vid=e729f3aa-c807-452d-92d9-87e0f2072f83"},"vehicle_type_id":"4","last_reported":1711278291,"current_range_meters":8400,"station_id":"ce4bgi92rcd13ifvqb90","pricing_plan_id":"cebpf4jnsgd1na2vs0mg"},{"bike_id":"465d854f-a983-4775-ba13-459ed9958655","system_id":"levelo_inurba_marseille","lat":43.29613,"lon":5.37718,"is_reserved":false,"is_disabled":false,"rental_uris":{"android":"levelo://app?vid=465d854f-a983-4775-ba13-459ed9958655","ios":"levelo://app?vid=465d854f-a983-4775-ba13-459ed9958655"},"vehicle_type_id":"4","last_reported":1711278291,"current_range_meters":19200,"station_id":"ce4bgi92rcd13ifvqb90","pricing_plan_id":"cebpf4jnsgd1na2vs0mg"},{"bike_id":"ba4f64c5-efb8-49b0-a706-fa7e0037914d","system_id":"levelo_inurba_marseille","lat":43.296263,"lon":5.377094,"is_reserved":false,"is_disabled":false,"rental_uris":{"android":"levelo://app?vid=ba4f64c5-efb8-49b0-a706-fa7e0037914d","ios":"levelo://app?vid=ba4f64c5-efb8-49b0-a706-fa7e0037914d"},"vehicle_type_id":"4","last_reported":1711278291,"current_range_meters":0,"station_id":"ce4bgi92rcd13ifvqb90","pricing_plan_id":"cebpf4jnsgd1na2vs0mg"},{"bike_id":"617b0e6f-676e-40f0-bbaf-c9395e5b4dcd","system_id":"levelo_inurba_marseille","lat":43.31467,"lon":5.392027,"is_reserved":false,"is_disabled":false,"rental_uris":{"android":"levelo://app?vid=617b0e6f-676e-40f0-bbaf-c9395e5b4dcd","ios":"levelo://app?vid=617b0e6f-676e-40f0-bbaf-c9395e5b4dcd"},"vehicle_type_id":"4","last_reported":1711278291,"current_range_meters":7600,"station_id":"","pricing_plan_id":"cebpf4jnsgd1na2vs0mg"},{"bike_id":"bf9bf615-bce6-4b76-a67d-ae2385bcd89c","system_id":"levelo_inurba_marseille","lat":43.31455,"lon":5.39238,"is_reserved":false,"is_disabled":false,"rental_uris":{"android":"levelo://app?vid=bf9bf615-bce6-4b76-a67d-ae2385bcd89c","ios":"levelo://app?vid=bf9bf615-bce6-4b76-a67d-ae2385bcd89c"},"vehicle_type_id":"4","last_reported":1711278291,"current_range_meters":31200,"station_id":"","pricing_plan_id":"cebpf4jnsgd1na2vs0mg"},{"bike_id":"133f5558-07a4-4862-a01b-89b7a755e38f","system_id":"levelo_inurba_marseille","lat":43.295279,"lon":5.375048,"is_reserved":false,"is_disabled":false,"rental_uris":{"android":"levelo://app?vid=133f5558-07a4-4862-a01b-89b7a755e38f","ios":"levelo://app?vid=133f5558-07a4-4862-a01b-89b7a755e38f"},"vehicle_type_id":"4","last_reported":1711278291,"current_range_meters":24800,"station_id":"ce4bgkp2rcd13ifvqbmg","pricing_plan_id":"cebpf4jnsgd1na2vs0mg"},{"bike_id":"f05e8134-4f67-479a-830d-99721dea2df9","system_id":"levelo_inurba_marseille","lat":43.314181,"lon":5.392853,"is_reserved":false,"is_disabled":false,"rental_uris":{"android":"levelo://app?vid=f05e8134-4f67-479a-830d-99721dea2df9","ios":"levelo://app?vid=f05e8134-4f67-479a-830d-99721dea2df9"},"vehicle_type_id":"4","last_reported":1711278291,"current_range_meters":2800,"station_id":"","pricing_plan_id":"cebpf4jnsgd1na2vs0mg"},{"bike_id":"6451d464-07a3-44a6-bd30-15948e5cce5a","system_id":"levelo_inurba_marseille","lat":43.298764,"lon":5.388973,"is_reserved":false,"is_disabled":false,"rental_uris":{"android":"levelo://app?vid=6451d464-07a3-44a6-bd30-15948e5cce5a","ios":"levelo://app?vid=6451d464-07a3-44a6-bd30-15948e5cce5a"},"vehicle_type_id":"4","last_reported":1711278291,"current_range_meters":12800,"station_id":"ce4bh392rcd13ifvqdl0","pricing_plan_id":"cebpf4jnsgd1na2vs0mg"},{"bike_id":"cd3ad0dd-115f-4e17-bc69-39e1287d5727","system_id":"levelo_inurba_marseille","lat":43.32365,"lon":5.38873,"is_reserved":false,"is_disabled":false,"rental_uris":{"android":"levelo://app?vid=cd3ad0dd-115f-4e17-bc69-39e1287d5727","ios":"levelo://app?vid=cd3ad0dd-115f-4e17-bc69-39e1287d5727"},"vehicle_type_id":"4","last_reported":1711278291,"current_range_meters":2800,"station_id":"ce4bhqp2rcd13ifvqhog","pricing_plan_id":"cebpf4jnsgd1na2vs0mg"},{"bike_id":"0d555c24-8a06-4648-9bc9-68a4d8ea4199","system_id":"levelo_inurba_marseille","lat":43.32367,"lon":5.388836,"is_reserved":false,"is_disabled":false,"rental_uris":{"android":"levelo://app?vid=0d555c24-8a06-4648-9bc9-68a4d8ea4199","ios":"levelo://app?vid=0d555c24-8a06-4648-9bc9-68a4d8ea4199"},"vehicle_type_id":"4","last_reported":1711278291,"current_range_meters":13200,"station_id":"ce4bhqp2rcd13ifvqhog","pricing_plan_id":"cebpf4jnsgd1na2vs0mg"},{"bike_id":"c0d8d07a-ce05-4c46-a1a6-9d9c58fb0567","system_id":"levelo_inurba_marseille","lat":43.32367,"lon":5.388836,"is_reserved":false,"is_disabled":false,"rental_uris":{"android":"levelo://app?vid=c0d8d07a-ce05-4c46-a1a6-9d9c58fb0567","ios":"levelo://app?vid=c0d8d07a-ce05-4c46-a1a6-9d9c58fb0567"},"vehicle_type_id":"4","last_reported":1711278291,"current_range_meters":30000,"station_id":"ce4bhqp2rcd13ifvqhog","pricing_plan_id":"cebpf4jnsgd1na2vs0mg"},{"bike_id":"0d5cf218-da9d-4a6d-86c9-722fdf79b041","system_id":"levelo_inurba_marseille","lat":43.32367,"lon":5.388836,"is_reserved":false,"is_disabled":false,"rental_uris":{"android":"levelo://app?vid=0d5cf218-da9d-4a6d-86c9-722fdf79b041","ios":"levelo://app?vid=0d5cf218-da9d-4a6d-86c9-722fdf79b041"},"vehicle_type_id":"4","last_reported":1711278291,"current_range_meters":5200,"station_id":"ce4bhqp2rcd13ifvqhog","pricing_plan_id":"cebpf4jnsgd1na2vs0mg"},{"bike_id":"d28f1c0b-6efc-4711-90b7-7fa644e25120","system_id":"levelo_inurba_marseille","lat":43.32367,"lon":5.388836,"is_reserved":false,"is_disabled":false,"rental_uris":{"android":"levelo://app?vid=d28f1c0b-6efc-4711-90b7-7fa644e25120","ios":"levelo://app?vid=d28f1c0b-6efc-4711-90b7-7fa644e25120"},"vehicle_type_id":"4","last_reported":1711278291,"current_range_meters":7600,"station_id":"ce4bhqp2rcd13ifvqhog","pricing_plan_id":"cebpf4jnsgd1na2vs0mg"},{"bike_id":"69377fc2-8b2a-4316-ae68-3664d4d5fc7e","system_id":"levelo_inurba_marseille","lat":43.32366,"lon":5.38886,"is_reserved":false,"is_disabled":false,"rental_uris":{"android":"levelo://app?vid=69377fc2-8b2a-4316-ae68-3664d4d5fc7e","ios":"levelo://app?vid=69377fc2-8b2a-4316-ae68-3664d4d5fc7e"},"vehicle_type_id":"4","last_reported":1711278291,"current_range_meters":4400,"station_id":"ce4bhqp2rcd13ifvqhog","pricing_plan_id":"cebpf4jnsgd1na2vs0mg"},{"bike_id":"53e9f705-5a29-47bf-91d5-500f9a294af3","system_id":"levelo_inurba_marseille","lat":43.32367,"lon":5.388836,"is_reserved":false,"is_disabled":false,"rental_uris":{"android":"levelo://app?vid=53e9f705-5a29-47bf-91d5-500f9a294af3","ios":"levelo://app?vid=53e9f705-5a29-47bf-91d5-500f9a294af3"},"vehicle_type_id":"4","last_reported":1711278291,"current_range_meters":29200,"station_id":"ce4bhqp2rcd13ifvqhog","pricing_plan_id":"cebpf4jnsgd1na2vs0mg"},{"bike_id":"c9a3c98e-7cac-4856-b507-897618b57146","system_id":"levelo_inurba_marseille","lat":43.32367,"lon":5.38889,"is_reserved":false,"is_disabled":false,"rental_uris":{"android":"levelo://app?vid=c9a3c98e-7cac-4856-b507-897618b57146","ios":"levelo://app?vid=c9a3c98e-7cac-4856-b507-897618b57146"},"vehicle_type_id":"4","last_reported":1711278291,"current_range_meters":5600,"station_id":"ce4bhqp2rcd13ifvqhog","pricing_plan_id":"cebpf4jnsgd1na2vs0mg"},{"bike_id":"5e549f94-3c84-4810-8cc1-f5220752ece0","system_id":"levelo_inurba_marseille","lat":43.32371,"lon":5.38886,"is_reserved":false,"is_disabled":false,"rental_uris":{"android":"levelo://app?vid=5e549f94-3c84-4810-8cc1-f5220752ece0","ios":"levelo://app?vid=5e549f94-3c84-4810-8cc1-f5220752ece0"},"vehicle_type_id":"4","last_reported":1711278291,"current_range_meters":11600,"station_id":"ce4bhqp2rcd13ifvqhog","pricing_plan_id":"cebpf4jnsgd1na2vs0mg"},{"bike_id":"be752c37-aeae-4a0b-a2a3-9fd1efd353e5","system_id":"levelo_inurba_marseille","lat":43.29276,"lon":5.36842,"is_reserved":false,"is_disabled":false,"rental_uris":{"android":"levelo://app?vid=be752c37-aeae-4a0b-a2a3-9fd1efd353e5","ios":"levelo://app?vid=be752c37-aeae-4a0b-a2a3-9fd1efd353e5"},"vehicle_type_id":"4","last_reported":1711278291,"current_range_meters":0,"station_id":"ce4bhbp2rcd13ifvqesg","pricing_plan_id":"cebpf4jnsgd1na2vs0mg"},{"bike_id":"8fdd48c7-6bb6-4d70-9759-3c7577c14d3b","system_id":"levelo_inurba_marseille","lat":43.293009,"lon":5.374584,"is_reserved":false,"is_disabled":false,"rental_uris":{"android":"levelo://app?vid=8fdd48c7-6bb6-4d70-9759-3c7577c14d3b","ios":"levelo://app?vid=8fdd48c7-6bb6-4d70-9759-3c7577c14d3b"},"vehicle_type_id":"4","last_reported":1711278291,"current_range_meters":20800,"station_id":"ce4bgi12rcd13ifvqb70","pricing_plan_id":"cebpf4jnsgd1na2vs0mg"},{"bike_id":"57b9e4f3-73da-4a71-9ed1-7fc52ad4894e","system_id":"levelo_inurba_marseille","lat":43.29369,"lon":5.37827,"is_reserved":false,"is_disabled":false,"rental_uris":{"android":"levelo://app?vid=57b9e4f3-73da-4a71-9ed1-7fc52ad4894e","ios":"levelo://app?vid=57b9e4f3-73da-4a71-9ed1-7fc52ad4894e"},"vehicle_type_id":"4","last_reported":1711278291,"current_range_meters":17200,"station_id":"ce4bgjh2rcd13ifvqbf0","pricing_plan_id":"cebpf4jnsgd1na2vs0mg"},{"bike_id":"cd5b0ee2-b1b7-4d94-bbd3-9d94c4c8ad4b","system_id":"levelo_inurba_marseille","lat":43.29361,"lon":5.37835,"is_reserved":false,"is_disabled":false,"rental_uris":{"android":"levelo://app?vid=cd5b0ee2-b1b7-4d94-bbd3-9d94c4c8ad4b","ios":"levelo://app?vid=cd5b0ee2-b1b7-4d94-bbd3-9d94c4c8ad4b"},"vehicle_type_id":"4","last_reported":1711278291,"current_range_meters":1200,"station_id":"ce4bgjh2rcd13ifvqbf0","pricing_plan_id":"cebpf4jnsgd1na2vs0mg"},{"bike_id":"f1c5f625-8db6-4420-bc72-33be8fd9bd74","system_id":"levelo_inurba_marseille","lat":43.292311,"lon":5.360731,"is_reserved":false,"is_disabled":false,"rental_uris":{"android":"levelo://app?vid=f1c5f625-8db6-4420-bc72-33be8fd9bd74","ios":"levelo://app?vid=f1c5f625-8db6-4420-bc72-33be8fd9bd74"},"vehicle_type_id":"4","last_reported":1711278291,"current_range_meters":22400,"station_id":"ce4bhbh2rcd13ifvqeqg","pricing_plan_id":"cebpf4jnsgd1na2vs0mg"},{"bike_id":"a7029fcc-a452-44f3-9b5a-6cdfdfa4bb90","system_id":"levelo_inurba_marseille","lat":43.292311,"lon":5.360731,"is_reserved":false,"is_disabled":false,"rental_uris":{"android":"levelo://app?vid=a7029fcc-a452-44f3-9b5a-6cdfdfa4bb90","ios":"levelo://app?vid=a7029fcc-a452-44f3-9b5a-6cdfdfa4bb90"},"vehicle_type_id":"4","last_reported":1711278291,"current_range_meters":6800,"station_id":"ce4bhbh2rcd13ifvqeqg","pricing_plan_id":"cebpf4jnsgd1na2vs0mg"},{"bike_id":"1c6bfda9-eb68-4ad1-88ea-a54948d384cc","system_id":"levelo_inurba_marseille","lat":43.298764,"lon":5.388973,"is_reserved":false,"is_disabled":false,"rental_uris":{"android":"levelo://app?vid=1c6bfda9-eb68-4ad1-88ea-a54948d384cc","ios":"levelo://app?vid=1c6bfda9-eb68-4ad1-88ea-a54948d384cc"},"vehicle_type_id":"4","last_reported":1711278291,"current_range_meters":14400,"station_id":"ce4bh392rcd13ifvqdl0","pricing_plan_id":"cebpf4jnsgd1na2vs0mg"},{"bike_id":"92ba90f6-2d28-408d-89d9-f7f44859d17c","system_id":"levelo_inurba_marseille","lat":43.298764,"lon":5.388973,"is_reserved":false,"is_disabled":false,"rental_uris":{"android":"levelo://app?vid=92ba90f6-2d28-408d-89d9-f7f44859d17c","ios":"levelo://app?vid=92ba90f6-2d28-408d-89d9-f7f44859d17c"},"vehicle_type_id":"4","last_reported":1711278291,"current_range_meters":1200,"station_id":"ce4bh392rcd13ifvqdl0","pricing_plan_id":"cebpf4jnsgd1na2vs0mg"},{"bike_id":"25f3b19e-bd63-425f-bd98-27d5e13bddd8","system_id":"levelo_inurba_marseille","lat":43.291663,"lon":5.371469,"is_reserved":false,"is_disabled":false,"rental_uris":{"android":"levelo://app?vid=25f3b19e-bd63-425f-bd98-27d5e13bddd8","ios":"levelo://app?vid=25f3b19e-bd63-425f-bd98-27d5e13bddd8"},"vehicle_type_id":"4","last_reported":1711278291,"current_range_meters":29200,"station_id":"ce4bha92rcd13ifvqeh0","pricing_plan_id":"cebpf4jnsgd1na2vs0mg"},{"bike_id":"aca2a8be-9f5e-4f5e-9477-17c858ef2b91","system_id":"levelo_inurba_marseille","lat":43.291675,"lon":5.371583,"is_reserved":false,"is_disabled":false,"rental_uris":{"android":"levelo://app?vid=aca2a8be-9f5e-4f5e-9477-17c858ef2b91","ios":"levelo://app?vid=aca2a8be-9f5e-4f5e-9477-17c858ef2b91"},"vehicle_type_id":"4","last_reported":1711278291,"current_range_meters":8000,"station_id":"ce4bha92rcd13ifvqeh0","pricing_plan_id":"cebpf4jnsgd1na2vs0mg"},{"bike_id":"084e8b84-2462-4dd3-b834-8cd122dd1ec5","system_id":"levelo_inurba_marseille","lat":43.291675,"lon":5.371583,"is_reserved":false,"is_disabled":false,"rental_uris":{"android":"levelo://app?vid=084e8b84-2462-4dd3-b834-8cd122dd1ec5","ios":"levelo://app?vid=084e8b84-2462-4dd3-b834-8cd122dd1ec5"},"vehicle_type_id":"4","last_reported":1711278291,"current_range_meters":11600,"station_id":"ce4bha92rcd13ifvqeh0","pricing_plan_id":"cebpf4jnsgd1na2vs0mg"},{"bike_id":"ea4f1e58-04a7-437e-8a42-f6ba482e9208","system_id":"levelo_inurba_marseille","lat":43.29201,"lon":5.35802,"is_reserved":false,"is_disabled":false,"rental_uris":{"android":"levelo://app?vid=ea4f1e58-04a7-437e-8a42-f6ba482e9208","ios":"levelo://app?vid=ea4f1e58-04a7-437e-8a42-f6ba482e9208"},"vehicle_type_id":"4","last_reported":1711278291,"current_range_meters":16000,"station_id":"ce4bhb12rcd13ifvqel0","pricing_plan_id":"cebpf4jnsgd1na2vs0mg"},{"bike_id":"fd75e046-ad76-4c0b-94d9-677d647b3875","system_id":"levelo_inurba_marseille","lat":43.29203,"lon":5.35793,"is_reserved":false,"is_disabled":false,"rental_uris":{"android":"levelo://app?vid=fd75e046-ad76-4c0b-94d9-677d647b3875","ios":"levelo://app?vid=fd75e046-ad76-4c0b-94d9-677d647b3875"},"vehicle_type_id":"4","last_reported":1711278291,"current_range_meters":18000,"station_id":"ce4bhb12rcd13ifvqel0","pricing_plan_id":"cebpf4jnsgd1na2vs0mg"},{"bike_id":"684b615f-d363-4cfd-9805-4787b9fbc0b3","system_id":"levelo_inurba_marseille","lat":43.29199,"lon":5.35808,"is_reserved":false,"is_disabled":false,"rental_uris":{"android":"levelo://app?vid=684b615f-d363-4cfd-9805-4787b9fbc0b3","ios":"levelo://app?vid=684b615f-d363-4cfd-9805-4787b9fbc0b3"},"vehicle_type_id":"4","last_reported":1711278291,"current_range_meters":8000,"station_id":"ce4bhb12rcd13ifvqel0","pricing_plan_id":"cebpf4jnsgd1na2vs0mg"},{"bike_id":"6ffca383-e81e-462c-b069-145569b34121","system_id":"levelo_inurba_marseille","lat":43.29202,"lon":5.35794,"is_reserved":false,"is_disabled":false,"rental_uris":{"android":"levelo://app?vid=6ffca383-e81e-462c-b069-145569b34121","ios":"levelo://app?vid=6ffca383-e81e-462c-b069-145569b34121"},"vehicle_type_id":"4","last_reported":1711278291,"current_range_meters":26000,"station_id":"ce4bhb12rcd13ifvqel0","pricing_plan_id":"cebpf4jnsgd1na2vs0mg"},{"bike_id":"d22638ad-3a68-4008-b7b8-9feebaa4a625","system_id":"levelo_inurba_marseille","lat":43.309047,"lon":5.396551,"is_reserved":false,"is_disabled":false,"rental_uris":{"android":"levelo://app?vid=d22638ad-3a68-4008-b7b8-9feebaa4a625","ios":"levelo://app?vid=d22638ad-3a68-4008-b7b8-9feebaa4a625"},"vehicle_type_id":"4","last_reported":1711278291,"current_range_meters":18000,"station_id":"ce4bh012rcd13ifvqcv0","pricing_plan_id":"cebpf4jnsgd1na2vs0mg"},{"bike_id":"30e2603e-26f5-4de3-9fc8-96a901864501","system_id":"levelo_inurba_marseille","lat":43.29195,"lon":5.35803,"is_reserved":false,"is_disabled":false,"rental_uris":{"android":"levelo://app?vid=30e2603e-26f5-4de3-9fc8-96a901864501","ios":"levelo://app?vid=30e2603e-26f5-4de3-9fc8-96a901864501"},"vehicle_type_id":"4","last_reported":1711278291,"current_range_meters":2400,"station_id":"ce4bhb12rcd13ifvqel0","pricing_plan_id":"cebpf4jnsgd1na2vs0mg"},{"bike_id":"bd81e366-b958-4331-a482-e49a7f4148a4","system_id":"levelo_inurba_marseille","lat":43.313291,"lon":5.396838,"is_reserved":false,"is_disabled":false,"rental_uris":{"android":"levelo://app?vid=bd81e366-b958-4331-a482-e49a7f4148a4","ios":"levelo://app?vid=bd81e366-b958-4331-a482-e49a7f4148a4"},"vehicle_type_id":"4","last_reported":1711278291,"current_range_meters":17200,"station_id":"ce4bgvp2rcd13ifvqcu0","pricing_plan_id":"cebpf4jnsgd1na2vs0mg"},{"bike_id":"7fdac56d-3a7b-479d-8e71-339434027556","system_id":"levelo_inurba_marseille","lat":43.309047,"lon":5.396551,"is_reserved":false,"is_disabled":false,"rental_uris":{"android":"levelo://app?vid=7fdac56d-3a7b-479d-8e71-339434027556","ios":"levelo://app?vid=7fdac56d-3a7b-479d-8e71-339434027556"},"vehicle_type_id":"4","last_reported":1711278291,"current_range_meters":400,"station_id":"ce4bh012rcd13ifvqcv0","pricing_plan_id":"cebpf4jnsgd1na2vs0mg"},{"bike_id":"ff0aeb3c-6a48-47dc-a4e6-1d262aff8238","system_id":"levelo_inurba_marseille","lat":43.29192,"lon":5.35801,"is_reserved":false,"is_disabled":false,"rental_uris":{"android":"levelo://app?vid=ff0aeb3c-6a48-47dc-a4e6-1d262aff8238","ios":"levelo://app?vid=ff0aeb3c-6a48-47dc-a4e6-1d262aff8238"},"vehicle_type_id":"4","last_reported":1711278291,"current_range_meters":6400,"station_id":"ce4bhb12rcd13ifvqel0","pricing_plan_id":"cebpf4jnsgd1na2vs0mg"},{"bike_id":"b1881f22-ec41-46ac-b322-cd7ff9e39a11","system_id":"levelo_inurba_marseille","lat":43.309038,"lon":5.396546,"is_reserved":false,"is_disabled":false,"rental_uris":{"android":"levelo://app?vid=b1881f22-ec41-46ac-b322-cd7ff9e39a11","ios":"levelo://app?vid=b1881f22-ec41-46ac-b322-cd7ff9e39a11"},"vehicle_type_id":"4","last_reported":1711278291,"current_range_meters":31200,"station_id":"ce4bh012rcd13ifvqcv0","pricing_plan_id":"cebpf4jnsgd1na2vs0mg"},{"bike_id":"f8569740-4319-4849-8382-048fd9d2059c","system_id":"levelo_inurba_marseille","lat":43.313291,"lon":5.396838,"is_reserved":false,"is_disabled":false,"rental_uris":{"android":"levelo://app?vid=f8569740-4319-4849-8382-048fd9d2059c","ios":"levelo://app?vid=f8569740-4319-4849-8382-048fd9d2059c"},"vehicle_type_id":"4","last_reported":1711278291,"current_range_meters":25200,"station_id":"ce4bgvp2rcd13ifvqcu0","pricing_plan_id":"cebpf4jnsgd1na2vs0mg"},{"bike_id":"525cd665-758d-4410-9bee-e17715b23c7c","system_id":"levelo_inurba_marseille","lat":43.309038,"lon":5.396546,"is_reserved":false,"is_disabled":false,"rental_uris":{"android":"levelo://app?vid=525cd665-758d-4410-9bee-e17715b23c7c","ios":"levelo://app?vid=525cd665-758d-4410-9bee-e17715b23c7c"},"vehicle_type_id":"4","last_reported":1711278291,"current_range_meters":1600,"station_id":"ce4bh012rcd13ifvqcv0","pricing_plan_id":"cebpf4jnsgd1na2vs0mg"},{"bike_id":"4209fdab-149c-4e8c-a212-6c0f11440634","system_id":"levelo_inurba_marseille","lat":43.291873,"lon":5.357983,"is_reserved":false,"is_disabled":false,"rental_uris":{"android":"levelo://app?vid=4209fdab-149c-4e8c-a212-6c0f11440634","ios":"levelo://app?vid=4209fdab-149c-4e8c-a212-6c0f11440634"},"vehicle_type_id":"4","last_reported":1711278291,"current_range_meters":15200,"station_id":"ce4bhb12rcd13ifvqel0","pricing_plan_id":"cebpf4jnsgd1na2vs0mg"},{"bike_id":"c3b37d78-75f6-4a6a-ba87-a2f4f55dff44","system_id":"levelo_inurba_marseille","lat":43.29529,"lon":5.385581,"is_reserved":false,"is_disabled":false,"rental_uris":{"android":"levelo://app?vid=c3b37d78-75f6-4a6a-ba87-a2f4f55dff44","ios":"levelo://app?vid=c3b37d78-75f6-4a6a-ba87-a2f4f55dff44"},"vehicle_type_id":"4","last_reported":1711278291,"current_range_meters":19600,"station_id":"ce4bgih2rcd13ifvqba0","pricing_plan_id":"cebpf4jnsgd1na2vs0mg"},{"bike_id":"3c47bada-98cb-412d-9e12-62af1b6da7eb","system_id":"levelo_inurba_marseille","lat":43.29529,"lon":5.385581,"is_reserved":false,"is_disabled":false,"rental_uris":{"android":"levelo://app?vid=3c47bada-98cb-412d-9e12-62af1b6da7eb","ios":"levelo://app?vid=3c47bada-98cb-412d-9e12-62af1b6da7eb"},"vehicle_type_id":"4","last_reported":1711278291,"current_range_meters":11600,"station_id":"ce4bgih2rcd13ifvqba0","pricing_plan_id":"cebpf4jnsgd1na2vs0mg"},{"bike_id":"553be6ba-c65d-4cef-80a9-9bd5e9dea82e","system_id":"levelo_inurba_marseille","lat":43.328077,"lon":5.388815,"is_reserved":false,"is_disabled":false,"rental_uris":{"android":"levelo://app?vid=553be6ba-c65d-4cef-80a9-9bd5e9dea82e","ios":"levelo://app?vid=553be6ba-c65d-4cef-80a9-9bd5e9dea82e"},"vehicle_type_id":"4","last_reported":1711278291,"current_range_meters":30800,"station_id":"","pricing_plan_id":"cebpf4jnsgd1na2vs0mg"},{"bike_id":"4036fc7a-247e-4439-807c-6d18b4ae5f53","system_id":"levelo_inurba_marseille","lat":43.296375,"lon":5.387806,"is_reserved":false,"is_disabled":false,"rental_uris":{"android":"levelo://app?vid=4036fc7a-247e-4439-807c-6d18b4ae5f53","ios":"levelo://app?vid=4036fc7a-247e-4439-807c-6d18b4ae5f53"},"vehicle_type_id":"4","last_reported":1711278291,"current_range_meters":20000,"station_id":"","pricing_plan_id":"cebpf4jnsgd1na2vs0mg"},{"bike_id":"2d26622e-1849-4570-b8a9-6fd5ca426850","system_id":"levelo_inurba_marseille","lat":43.290624,"lon":5.359245,"is_reserved":false,"is_disabled":false,"rental_uris":{"android":"levelo://app?vid=2d26622e-1849-4570-b8a9-6fd5ca426850","ios":"levelo://app?vid=2d26622e-1849-4570-b8a9-6fd5ca426850"},"vehicle_type_id":"4","last_reported":1711278291,"current_range_meters":11200,"station_id":"ce4bha92rcd13ifvqeg0","pricing_plan_id":"cebpf4jnsgd1na2vs0mg"},{"bike_id":"cdb8f224-4f61-4430-9e73-2fa498431ee1","system_id":"levelo_inurba_marseille","lat":43.290624,"lon":5.359245,"is_reserved":false,"is_disabled":false,"rental_uris":{"android":"levelo://app?vid=cdb8f224-4f61-4430-9e73-2fa498431ee1","ios":"levelo://app?vid=cdb8f224-4f61-4430-9e73-2fa498431ee1"},"vehicle_type_id":"4","last_reported":1711278291,"current_range_meters":8000,"station_id":"ce4bha92rcd13ifvqeg0","pricing_plan_id":"cebpf4jnsgd1na2vs0mg"},{"bike_id":"39336ff0-0a62-4e8e-87d5-431d5dd59409","system_id":"levelo_inurba_marseille","lat":43.290624,"lon":5.359245,"is_reserved":false,"is_disabled":false,"rental_uris":{"android":"levelo://app?vid=39336ff0-0a62-4e8e-87d5-431d5dd59409","ios":"levelo://app?vid=39336ff0-0a62-4e8e-87d5-431d5dd59409"},"vehicle_type_id":"4","last_reported":1711278291,"current_range_meters":24800,"station_id":"ce4bha92rcd13ifvqeg0","pricing_plan_id":"cebpf4jnsgd1na2vs0mg"},{"bike_id":"e6a25857-e53c-47eb-afaf-32c6915cbb45","system_id":"levelo_inurba_marseille","lat":43.290443,"lon":5.359167,"is_reserved":false,"is_disabled":false,"rental_uris":{"android":"levelo://app?vid=e6a25857-e53c-47eb-afaf-32c6915cbb45","ios":"levelo://app?vid=e6a25857-e53c-47eb-afaf-32c6915cbb45"},"vehicle_type_id":"4","last_reported":1711278291,"current_range_meters":25600,"station_id":"ce4bha92rcd13ifvqeg0","pricing_plan_id":"cebpf4jnsgd1na2vs0mg"},{"bike_id":"d0956966-243d-4ba0-b59c-f9581661569b","system_id":"levelo_inurba_marseille","lat":43.290396,"lon":5.35923,"is_reserved":false,"is_disabled":false,"rental_uris":{"android":"levelo://app?vid=d0956966-243d-4ba0-b59c-f9581661569b","ios":"levelo://app?vid=d0956966-243d-4ba0-b59c-f9581661569b"},"vehicle_type_id":"4","last_reported":1711278291,"current_range_meters":24000,"station_id":"ce4bha92rcd13ifvqeg0","pricing_plan_id":"cebpf4jnsgd1na2vs0mg"},{"bike_id":"5b251fe6-887b-4391-9b5b-42c00245efbb","system_id":"levelo_inurba_marseille","lat":43.289468,"lon":5.363719,"is_reserved":false,"is_disabled":false,"rental_uris":{"android":"levelo://app?vid=5b251fe6-887b-4391-9b5b-42c00245efbb","ios":"levelo://app?vid=5b251fe6-887b-4391-9b5b-42c00245efbb"},"vehicle_type_id":"4","last_reported":1711278291,"current_range_meters":10800,"station_id":"ce4bhc92rcd13ifvqetg","pricing_plan_id":"cebpf4jnsgd1na2vs0mg"},{"bike_id":"0e1164b4-720c-4d65-b0db-6dd859d29590","system_id":"levelo_inurba_marseille","lat":43.290327,"lon":5.375711,"is_reserved":false,"is_disabled":false,"rental_uris":{"android":"levelo://app?vid=0e1164b4-720c-4d65-b0db-6dd859d29590","ios":"levelo://app?vid=0e1164b4-720c-4d65-b0db-6dd859d29590"},"vehicle_type_id":"4","last_reported":1711278291,"current_range_meters":11600,"station_id":"ce4bh692rcd13ifvqe90","pricing_plan_id":"cebpf4jnsgd1na2vs0mg"},{"bike_id":"64cafff0-9512-4257-ada7-b62a523aae80","system_id":"levelo_inurba_marseille","lat":43.289468,"lon":5.363719,"is_reserved":false,"is_disabled":false,"rental_uris":{"android":"levelo://app?vid=64cafff0-9512-4257-ada7-b62a523aae80","ios":"levelo://app?vid=64cafff0-9512-4257-ada7-b62a523aae80"},"vehicle_type_id":"4","last_reported":1711278291,"current_range_meters":12400,"station_id":"ce4bhc92rcd13ifvqetg","pricing_plan_id":"cebpf4jnsgd1na2vs0mg"},{"bike_id":"5d2db00e-a562-4761-b5e9-975cbf9866f9","system_id":"levelo_inurba_marseille","lat":43.289184,"lon":5.366408,"is_reserved":false,"is_disabled":false,"rental_uris":{"android":"levelo://app?vid=5d2db00e-a562-4761-b5e9-975cbf9866f9","ios":"levelo://app?vid=5d2db00e-a562-4761-b5e9-975cbf9866f9"},"vehicle_type_id":"4","last_reported":1711278291,"current_range_meters":6800,"station_id":"ce4bhap2rcd13ifvqek0","pricing_plan_id":"cebpf4jnsgd1na2vs0mg"},{"bike_id":"0008228d-2c8a-4363-b6ae-1cb0c498b850","system_id":"levelo_inurba_marseille","lat":43.289184,"lon":5.366408,"is_reserved":false,"is_disabled":false,"rental_uris":{"android":"levelo://app?vid=0008228d-2c8a-4363-b6ae-1cb0c498b850","ios":"levelo://app?vid=0008228d-2c8a-4363-b6ae-1cb0c498b850"},"vehicle_type_id":"4","last_reported":1711278291,"current_range_meters":6800,"station_id":"ce4bhap2rcd13ifvqek0","pricing_plan_id":"cebpf4jnsgd1na2vs0mg"},{"bike_id":"a9468fdf-18e7-417d-9607-521b8d2318ce","system_id":"levelo_inurba_marseille","lat":43.289184,"lon":5.366408,"is_reserved":false,"is_disabled":false,"rental_uris":{"android":"levelo://app?vid=a9468fdf-18e7-417d-9607-521b8d2318ce","ios":"levelo://app?vid=a9468fdf-18e7-417d-9607-521b8d2318ce"},"vehicle_type_id":"4","last_reported":1711278291,"current_range_meters":28000,"station_id":"ce4bhap2rcd13ifvqek0","pricing_plan_id":"cebpf4jnsgd1na2vs0mg"},{"bike_id":"c94d5272-0ba5-4b5c-9f07-d22e588189d6","system_id":"levelo_inurba_marseille","lat":43.304274,"lon":5.397513,"is_reserved":false,"is_disabled":false,"rental_uris":{"android":"levelo://app?vid=c94d5272-0ba5-4b5c-9f07-d22e588189d6","ios":"levelo://app?vid=c94d5272-0ba5-4b5c-9f07-d22e588189d6"},"vehicle_type_id":"4","last_reported":1711278291,"current_range_meters":12400,"station_id":"ce4bh092rcd13ifvqd20","pricing_plan_id":"cebpf4jnsgd1na2vs0mg"},{"bike_id":"7cb6d4fd-06e0-4da7-b991-d06f102d1d01","system_id":"levelo_inurba_marseille","lat":43.304296,"lon":5.397513,"is_reserved":false,"is_disabled":false,"rental_uris":{"android":"levelo://app?vid=7cb6d4fd-06e0-4da7-b991-d06f102d1d01","ios":"levelo://app?vid=7cb6d4fd-06e0-4da7-b991-d06f102d1d01"},"vehicle_type_id":"4","last_reported":1711278291,"current_range_meters":18000,"station_id":"ce4bh092rcd13ifvqd20","pricing_plan_id":"cebpf4jnsgd1na2vs0mg"},