{"last_updated":1744182650,"ttl":60,"version":"2.2","data":{"bikes":[{"bike_id":"3944b4a0-54fb-4d6c-af80-4ca20b89931c","system_id":"levelo_inurba_marseille","lat":43.27989,"lon":5.41658,"is_reserved":false,"is_disabled":false,"rental_uris":{"android":"levelo://app?vid=3944b4a0-54fb-4d6c-af80-4ca20b89931c","ios":"levelo://app?vid=3944b4a0-54fb-4d6c-af80-4ca20b89931c"},"vehicle_type_id":"4","last_reported":1744182650,"current_range_meters":2800,"station_id":"ce4bho12rcd13ifvqh1g","pricing_plan_id":"cebpf4jnsgd1na2vs0mg"},{"bike_id":"b37171f7-b0f5-4873-819e-78afc6c89784","system_id":"levelo_inurba_marseille","lat":43.2606,"lon":5.39401,"is_reserved":false,"is_disabled":false,"rental_uris":{"android":"levelo://app?vid=b37171f7-b0f5-4873-819e-78afc6c89784","ios":"levelo://app?vid=b37171f7-b0f5-4873-819e-78afc6c89784"},"vehicle_type_id":"4","last_reported":1744182650,"current_range_meters":2800,"station_id":"ce4bhh92rcd13ifvqfj0","pricing_plan_id":"cebpf4jnsgd1na2vs0mg"},{"bike_id":"87bda883-ac94-49fc-94c2-3a86e52b4f97","system_id":"levelo_inurba_marseille","lat":43.307216,"lon":5.38343,"is_reserved":false,"is_disabled":false,"rental_uris":{"android":"levelo://app?vid=87bda883-ac94-49fc-94c2-3a86e52b4f97","ios":"levelo://app?vid=87bda883-ac94-49fc-94c2-3a86e52b4f97"},"vehicle_type_id":"4","last_reported":1744182650,"current_range_meters":2800,"station_id":"","pricing_plan_id":"cebpf4jnsgd1na2vs0mg"},{"bike_id":"24fc0471-bd91-4bc6-b2d6-94a6fa37ad05","system_id":"levelo_inurba_marseille","lat":43.29618,"lon":5.40598,"is_reserved":false,"is_disabled":false,"rental_uris":{"android":"levelo://app?vid=24fc0471-bd91-4bc6-b2d6-94a6fa37ad05","ios":"levelo://app?vid=24fc0471-bd91-4bc6-b2d6-94a6fa37ad05"},"vehicle_type_id":"4","last_reported":1744182650,"current_range_meters":2800,"station_id":"ce4bh0h2rcd13ifvqd60","pricing_plan_id":"cebpf4jnsgd1na2vs0mg"},{"bike_id":"8e950c1a-f9f1-4180-823a-5c1f2bd9469a","system_id":"levelo_inurba_marseille","lat":43.28482,"lon":5.38571,"is_reserved":false,"is_disabled":false,"rental_uris":{"android":"levelo://app?vid=8e950c1a-f9f1-4180-823a-5c1f2bd9469a","ios":"levelo://app?vid=8e950c1a-f9f1-4180-823a-5c1f2bd9469a"},"vehicle_type_id":"4","last_reported":1744182650,"current_range_meters":3200,"station_id":"ce4bh8p2rcd13ifvqeb0","pricing_plan_id":"cebpf4jnsgd1na2vs0mg"},{"bike_id":"b59af30e-2361-4150-afd4-7ff227ee0e3f","system_id":"levelo_inurba_marseille","lat":43.26556,"lon":5.37286,"is_reserved":false,"is_disabled":true,"rental_uris":{"android":"levelo://app?vid=b59af30e-2361-4150-afd4-7ff227ee0e3f","ios":"levelo://app?vid=b59af30e-2361-4150-afd4-7ff227ee0e3f"},"vehicle_type_id":"4","last_reported":1744182650,"current_range_meters":3200,"station_id":"ce4bhg12rcd13ifvqf70","pricing_plan_id":"cebpf4jnsgd1na2vs0mg"},{"bike_id":"02dca660-df5c-444c-b2c8-4a2b2d8c526c","system_id":"levelo_inurba_marseille","lat":43.29002,"lon":5.39978,"is_reserved":false,"is_disabled":false,"rental_uris":{"android":"levelo://app?vid=02dca660-df5c-444c-b2c8-4a2b2d8c526c","ios":"levelo://app?vid=02dca660-df5c-444c-b2c8-4a2b2d8c526c"},"vehicle_type_id":"4","last_reported":1744182650,"current_range_meters":3200,"station_id":"ce4bh392rcd13ifvqdm0","pricing_plan_id":"cebpf4jnsgd1na2vs0mg"},{"bike_id":"0fc79cc4-b380-4b73-a1c3-61a73fb9c926","system_id":"levelo_inurba_marseille","lat":43.29096,"lon":5.38154,"is_reserved":false,"is_disabled":false,"rental_uris":{"android":"levelo://app?vid=0fc79cc4-b380-4b73-a1c3-61a73fb9c926","ios":"levelo://app?vid=0fc79cc4-b380-4b73-a1c3-61a73fb9c926"},"vehicle_type_id":"4","last_reported":1744182650,"current_range_meters":2000,"station_id":"ce4bh512rcd13ifvqe2g","pricing_plan_id":"cebpf4jnsgd1na2vs0mg"},{"bike_id":"3fd88aea-9fee-4f73-aafe-b66b700e672b","system_id":"levelo_inurba_marseille","lat":43.31113,"lon":5.3779,"is_reserved":false,"is_disabled":false,"rental_uris":{"android":"levelo://app?vid=3fd88aea-9fee-4f73-aafe-b66b700e672b","ios":"levelo://app?vid=3fd88aea-9fee-4f73-aafe-b66b700e672b"},"vehicle_type_id":"4","last_reported":1744182650,"current_range_meters":3600,"station_id":"ce4bgt92rcd13ifvqcg0","pricing_plan_id":"cebpf4jnsgd1na2vs0mg"},{"bike_id":"0fbdf58d-4917-4d24-8b4b-9c66b7b96e08","system_id":"levelo_inurba_marseille","lat":43.31755,"lon":5.3988,"is_reserved":false,"is_disabled":false,"rental_uris":{"android":"levelo://app?vid=0fbdf58d-4917-4d24-8b4b-9c66b7b96e08","ios":"levelo://app?vid=0fbdf58d-4917-4d24-8b4b-9c66b7b96e08"},"vehicle_type_id":"4","last_reported":1744182650,"current_range_meters":3600,"station_id":"","pricing_plan_id":"cebpf4jnsgd1na2vs0mg"},{"bike_id":"38c43302-d0f3-42c8-89fb-a9374ff631e5","system_id":"levelo_inurba_marseille","lat":43.30532,"lon":5.36557,"is_reserved":false,"is_disabled":false,"rental_uris":{"android":"levelo://app?vid=38c43302-d0f3-42c8-89fb-a9374ff631e5","ios":"levelo://app?vid=38c43302-d0f3-42c8-89fb-a9374ff631e5"},"vehicle_type_id":"4","last_reported":1744182650,"current_range_meters":3600,"station_id":"ce4bgs12rcd13ifvqcag","pricing_plan_id":"cebpf4jnsgd1na2vs0mg"},{"bike_id":"4b8dddbd-4a73-4c7c-a615-40a931cd78e8","system_id":"levelo_inurba_marseille","lat":43.25072,"lon":5.39519,"is_reserved":false,"is_disabled":false,"rental_uris":{"android":"levelo://app?vid=4b8dddbd-4a73-4c7c-a615-40a931cd78e8","ios":"levelo://app?vid=4b8dddbd-4a73-4c7c-a615-40a931cd78e8"},"vehicle_type_id":"4","last_reported":1744182650,"current_range_meters":4000,"station_id":"ce4bhm12rcd13ifvqgkg","pricing_plan_id":"cebpf4jnsgd1na2vs0mg"},{"bike_id":"01c10d9c-6749-4cb0-95a9-9e7a13065362","system_id":"levelo_inurba_marseille","lat":43.259288,"lon":5.409033,"is_reserved":false,"is_disabled":false,"rental_uris":{"android":"levelo://app?vid=01c10d9c-6749-4cb0-95a9-9e7a13065362","ios":"levelo://app?vid=01c10d9c-6749-4cb0-95a9-9e7a13065362"},"vehicle_type_id":"4","last_reported":1744182650,"current_range_meters":4000,"station_id":"ce4bhm92rcd13ifvqglg","pricing_plan_id":"cebpf4jnsgd1na2vs0mg"},{"bike_id":"52a3a737-d744-44aa-901d-daf29012d3d4","system_id":"levelo_inurba_marseille","lat":43.30904,"lon":5.37081,"is_reserved":false,"is_disabled":false,"rental_uris":{"android":"levelo://app?vid=52a3a737-d744-44aa-901d-daf29012d3d4","ios":"levelo://app?vid=52a3a737-d744-44aa-901d-daf29012d3d4"},"vehicle_type_id":"4","last_reported":1744182650,"current_range_meters":4000,"station_id":"","pricing_plan_id":"cebpf4jnsgd1na2vs0mg"},{"bike_id":"211c8f17-1218-40ab-ba9e-0b88b6828211","system_id":"levelo_inurba_marseille","lat":43.309372,"lon":5.401526,"is_reserved":false,"is_disabled":false,"rental_uris":{"android":"levelo://app?vid=211c8f17-1218-40ab-ba9e-0b88b6828211","ios":"levelo://app?vid=211c8f17-1218-40ab-ba9e-0b88b6828211"},"vehicle_type_id":"4","last_reported":1744182650,"current_range_meters":4000,"station_id":"ce4bgi12rcd13ifvqb70","pricing_plan_id":"cebpf4jnsgd1na2vs0mg"},{"bike_id":"0c0a28ab-1049-4d67-b64a-836d7dcd6233","system_id":"levelo_inurba_marseille","lat":43.2898,"lon":5.3783,"is_reserved":false,"is_disabled":false,"rental_uris":{"android":"levelo://app?vid=0c0a28ab-1049-4d67-b64a-836d7dcd6233","ios":"levelo://app?vid=0c0a28ab-1049-4d67-b64a-836d7dcd6233"},"vehicle_type_id":"4","last_reported":1744182650,"current_range_meters":4000,"station_id":"ce4bh9p2rcd13ifvqed0","pricing_plan_id":"cebpf4jnsgd1na2vs0mg"},{"bike_id":"94cc02d0-1cba-4ce3-a6ee-2b2a43266460","system_id":"levelo_inurba_marseille","lat":43.25092,"lon":5.39518,"is_reserved":false,"is_disabled":false,"rental_uris":{"android":"levelo://app?vid=94cc02d0-1cba-4ce3-a6ee-2b2a43266460","ios":"levelo://app?vid=94cc02d0-1cba-4ce3-a6ee-2b2a43266460"},"vehicle_type_id":"4","last_reported":1744182650,"current_range_meters":4400,"station_id":"ce4bhm12rcd13ifvqgkg","pricing_plan_id":"cebpf4jnsgd1na2vs0mg"},{"bike_id":"64e290ff-550b-4748-9dd6-aa06cb452fa8","system_id":"levelo_inurba_marseille","lat":43.2509,"lon":5.39517,"is_reserved":false,"is_disabled":false,"rental_uris":{"android":"levelo://app?vid=64e290ff-550b-4748-9dd6-aa06cb452fa8","ios":"levelo://app?vid=64e290ff-550b-4748-9dd6-aa06cb452fa8"},"vehicle_type_id":"4","last_reported":1744182650,"current_range_meters":4400,"station_id":"ce4bhm12rcd13ifvqgkg","pricing_plan_id":"cebpf4jnsgd1na2vs0mg"},{"bike_id":"a2f68036-7c93-4c64-ae59-f8a76bcb8e02","system_id":"levelo_inurba_marseille","lat":43.30307,"lon":5.36906,"is_reserved":false,"is_disabled":false,"rental_uris":{"android":"levelo://app?vid=a2f68036-7c93-4c64-ae59-f8a76bcb8e02","ios":"levelo://app?vid=a2f68036-7c93-4c64-ae59-f8a76bcb8e02"},"vehicle_type_id":"4","last_reported":1744182650,"current_range_meters":4400,"station_id":"ce4bgqh2rcd13ifvqc5g","pricing_plan_id":"cebpf4jnsgd1na2vs0mg"},{"bike_id":"16817800-3a2b-4c2f-9e50-a859de8eef35","system_id":"levelo_inurba_marseille","lat":43.25938,"lon":5.40901,"is_reserved":false,"is_disabled":false,"rental_uris":{"android":"levelo://app?vid=16817800-3a2b-4c2f-9e50-a859de8eef35","ios":"levelo://app?vid=16817800-3a2b-4c2f-9e50-a859de8eef35"},"vehicle_type_id":"4","last_reported":1744182650,"current_range_meters":4400,"station_id":"ce4bhm92rcd13ifvqglg","pricing_plan_id":"cebpf4jnsgd1na2vs0mg"},{"bike_id":"95e4d341-aa1d-45d3-97d4-58ce3861535b","system_id":"levelo_inurba_marseille","lat":43.211965,"lon":5.350819,"is_reserved":false,"is_disabled":true,"rental_uris":{"android":"levelo://app?vid=95e4d341-aa1d-45d3-97d4-58ce3861535b","ios":"levelo://app?vid=95e4d341-aa1d-45d3-97d4-58ce3861535b"},"vehicle_type_id":"4","last_reported":1744182650,"current_range_meters":4400,"station_id":"","pricing_plan_id":"cebpf4jnsgd1na2vs0mg"},{"bike_id":"140843da-0edb-46c3-ad5b-c32ab706b8ed","system_id":"levelo_inurba_marseille","lat":43.24176,"lon":5.39714,"is_reserved":false,"is_disabled":false,"rental_uris":{"android":"levelo://app?vid=140843da-0edb-46c3-ad5b-c32ab706b8ed","ios":"levelo://app?vid=140843da-0edb-46c3-ad5b-c32ab706b8ed"},"vehicle_type_id":"4","last_reported":1744182650,"current_range_meters":4400,"station_id":"ce4bhn12rcd13ifvqgpg","pricing_plan_id":"cebpf4jnsgd1na2vs0mg"},{"bike_id":"79c84c53-a666-44ce-b7f0-3467f766e2f3","system_id":"levelo_inurba_marseille","lat":43.29417,"lon":5.38619,"is_reserved":false,"is_disabled":false,"rental_uris":{"android":"levelo://app?vid=79c84c53-a666-44ce-b7f0-3467f766e2f3","ios":"levelo://app?vid=79c84c53-a666-44ce-b7f0-3467f766e2f3"},"vehicle_type_id":"4","last_reported":1744182650,"current_range_meters":8000,"station_id":"ce4bh2h2rcd13ifvqdh0","pricing_plan_id":"cebpf4jnsgd1na2vs0mg"},{"bike_id":"1a6cea75-c85f-4f82-8867-c3239c8b691f","system_id":"levelo_inurba_marseille","lat":43.29234,"lon":5.3607,"is_reserved":false,"is_disabled":false,"rental_uris":{"android":"levelo://app?vid=1a6cea75-c85f-4f82-8867-c3239c8b691f","ios":"levelo://app?vid=1a6cea75-c85f-4f82-8867-c3239c8b691f"},"vehicle_type_id":"4","last_reported":1744182650,"current_range_meters":4800,"station_id":"ce4bhbh2rcd13ifvqeqg","pricing_plan_id":"cebpf4jnsgd1na2vs0mg"},{"bike_id":"a48bb4be-7a67-49df-9ac8-64c84aabf615","system_id":"levelo_inurba_marseille","lat":43.26775,"lon":5.39429,"is_reserved":false,"is_disabled":true,"rental_uris":{"android":"levelo://app?vid=a48bb4be-7a67-49df-9ac8-64c84aabf615","ios":"levelo://app?vid=a48bb4be-7a67-49df-9ac8-64c84aabf615"},"vehicle_type_id":"4","last_reported":1744182650,"current_range_meters":4800,"station_id":"ce4bhh12rcd13ifvqfg0","pricing_plan_id":"cebpf4jnsgd1na2vs0mg"},{"bike_id":"f39be6f5-2f69-4c37-b021-559d20b299a4","system_id":"levelo_inurba_marseille","lat":43.30022,"lon":5.37687,"is_reserved":false,"is_disabled":false,"rental_uris":{"android":"levelo://app?vid=f39be6f5-2f69-4c37-b021-559d20b299a4","ios":"levelo://app?vid=f39be6f5-2f69-4c37-b021-559d20b299a4"},"vehicle_type_id":"4","last_reported":1744182650,"current_range_meters":4800,"station_id":"","pricing_plan_id":"cebpf4jnsgd1na2vs0mg"},{"bike_id":"fe15bbb3-41d5-44a5-be9a-d99b3ed36373","system_id":"levelo_inurba_marseille","lat":43.2844,"lon":5.39193,"is_reserved":false,"is_disabled":true,"rental_uris":{"android":"levelo://app?vid=fe15bbb3-41d5-44a5-be9a-d99b3ed36373","ios":"levelo://app?vid=fe15bbb3-41d5-44a5-be9a-d99b3ed36373"},"vehicle_type_id":"4","last_reported":1744182650,"current_range_meters":5600,"station_id":"ce4bhoh2rcd13ifvqh5g","pricing_plan_id":"cebpf4jnsgd1na2vs0mg"},{"bike_id":"c5fb24e6-da81-4c8b-a57b-0bdcae5727b6","system_id":"levelo_inurba_marseille","lat":43.25097,"lon":5.39522,"is_reserved":false,"is_disabled":false,"rental_uris":{"android":"levelo://app?vid=c5fb24e6-da81-4c8b-a57b-0bdcae5727b6","ios":"levelo://app?vid=c5fb24e6-da81-4c8b-a57b-0bdcae5727b6"},"vehicle_type_id":"4","last_reported":1744182650,"current_range_meters":5600,"station_id":"ce4bhm12rcd13ifvqgkg","pricing_plan_id":"cebpf4jnsgd1na2vs0mg"},{"bike_id":"7ceaec0d-0b51-4906-8b76-4e1c781d5e18","system_id":"levelo_inurba_marseille","lat":43.29265,"lon":5.40906,"is_reserved":false,"is_disabled":false,"rental_uris":{"android":"levelo://app?vid=7ceaec0d-0b51-4906-8b76-4e1c781d5e18","ios":"levelo://app?vid=7ceaec0d-0b51-4906-8b76-4e1c781d5e18"},"vehicle_type_id":"4","last_reported":1744182650,"current_range_meters":5600,"station_id":"ce4bh192rcd13ifvqdc0","pricing_plan_id":"cebpf4jnsgd1na2vs0mg"},{"bike_id":"02f5f556-9aca-41a9-928c-e217b6392b4b","system_id":"levelo_inurba_marseille","lat":43.31827,"lon":5.43511,"is_reserved":false,"is_disabled":true,"rental_uris":{"android":"levelo://app?vid=02f5f556-9aca-41a9-928c-e217b6392b4b","ios":"levelo://app?vid=02f5f556-9aca-41a9-928c-e217b6392b4b"},"vehicle_type_id":"4","last_reported":1744182650,"current_range_meters":5600,"station_id":"","pricing_plan_id":"cebpf4jnsgd1na2vs0mg"},{"bike_id":"ecef8e9e-03dc-4612-b74e-b978f92e2873","system_id":"levelo_inurba_marseille","lat":43.3011,"lon":5.39114,"is_reserved":false,"is_disabled":true,"rental_uris":{"android":"levelo://app?vid=ecef8e9e-03dc-4612-b74e-b978f92e2873","ios":"levelo://app?vid=ecef8e9e-03dc-4612-b74e-b978f92e2873"},"vehicle_type_id":"4","last_reported":1744182650,"current_range_meters":5600,"station_id":"ce4bh192rcd13ifvqdb0","pricing_plan_id":"cebpf4jnsgd1na2vs0mg"},{"bike_id":"9da6eac3-919d-45e6-a38c-9d85c9506e74","system_id":"levelo_inurba_marseille","lat":43.24068,"lon":5.37768,"is_reserved":false,"is_disabled":false,"rental_uris":{"android":"levelo://app?vid=9da6eac3-919d-45e6-a38c-9d85c9506e74","ios":"levelo://app?vid=9da6eac3-919d-45e6-a38c-9d85c9506e74"},"vehicle_type_id":"4","last_reported":1744182650,"current_range_meters":6000,"station_id":"ce4bhnp2rcd13ifvqgvg","pricing_plan_id":"cebpf4jnsgd1na2vs0mg"},{"bike_id":"3576b946-70b3-456f-a60a-d98e227f015c","system_id":"levelo_inurba_marseille","lat":43.30089,"lon":5.38217,"is_reserved":false,"is_disabled":false,"rental_uris":{"android":"levelo://app?vid=3576b946-70b3-456f-a60a-d98e227f015c","ios":"levelo://app?vid=3576b946-70b3-456f-a60a-d98e227f015c"},"vehicle_type_id":"4","last_reported":1744182650,"current_range_meters":6000,"station_id":"","pricing_plan_id":"cebpf4jnsgd1na2vs0mg"},{"bike_id":"717259be-755d-4b05-9444-fca78788061b","system_id":"levelo_inurba_marseille","lat":43.25933,"lon":5.40912,"is_reserved":false,"is_disabled":false,"rental_uris":{"android":"levelo://app?vid=717259be-755d-4b05-9444-fca78788061b","ios":"levelo://app?vid=717259be-755d-4b05-9444-fca78788061b"},"vehicle_type_id":"4","last_reported":1744182650,"current_range_meters":6000,"station_id":"ce4bhm92rcd13ifvqglg","pricing_plan_id":"cebpf4jnsgd1na2vs0mg"},{"bike_id":"61faeab7-d3b1-42ea-8185-a6bb834269b2","system_id":"levelo_inurba_marseille","lat":43.27132,"lon":5.41444,"is_reserved":false,"is_disabled":false,"rental_uris":{"android":"levelo://app?vid=61faeab7-d3b1-42ea-8185-a6bb834269b2","ios":"levelo://app?vid=61faeab7-d3b1-42ea-8185-a6bb834269b2"},"vehicle_type_id":"4","last_reported":1744182650,"current_range_meters":6000,"station_id":"","pricing_plan_id":"cebpf4jnsgd1na2vs0mg"},{"bike_id":"c4201faf-9130-4223-95e8-a15c9cb6ca3d","system_id":"levelo_inurba_marseille","lat":43.25936,"lon":5.40902,"is_reserved":false,"is_disabled":false,"rental_uris":{"android":"levelo://app?vid=c4201faf-9130-4223-95e8-a15c9cb6ca3d","ios":"levelo://app?vid=c4201faf-9130-4223-95e8-a15c9cb6ca3d"},"vehicle_type_id":"4","last_reported":1744182650,"current_range_meters":6000,"station_id":"ce4bhm92rcd13ifvqglg","pricing_plan_id":"cebpf4jnsgd1na2vs0mg"},{"bike_id":"2e9000dc-6400-4918-a994-dd60039ca96d","system_id":"levelo_inurba_marseille","lat":43.319963,"lon":5.381497,"is_reserved":false,"is_disabled":true,"rental_uris":{"android":"levelo://app?vid=2e9000dc-6400-4918-a994-dd60039ca96d","ios":"levelo://app?vid=2e9000dc-6400-4918-a994-dd60039ca96d"},"vehicle_type_id":"4","last_reported":1744182650,"current_range_meters":6000,"station_id":"ce4bhr12rcd13ifvqhpg","pricing_plan_id":"cebpf4jnsgd1na2vs0mg"},{"bike_id":"86fcf064-6505-4522-a488-45966eb83229","system_id":"levelo_inurba_marseille","lat":43.30555,"lon":5.36693,"is_reserved":false,"is_disabled":false,"rental_uris":{"android":"levelo://app?vid=86fcf064-6505-4522-a488-45966eb83229","ios":"levelo://app?vid=86fcf064-6505-4522-a488-45966eb83229"},"vehicle_type_id":"4","last_reported":1744182650,"current_range_meters":6400,"station_id":"ce4bgrp2rcd13ifvqc9g","pricing_plan_id":"cebpf4jnsgd1na2vs0mg"},{"bike_id":"f483a1cd-0a1b-49d9-91fe-3caa63c17522","system_id":"levelo_inurba_marseille","lat":43.29176,"lon":5.37158,"is_reserved":false,"is_disabled":false,"rental_uris":{"android":"levelo://app?vid=f483a1cd-0a1b-49d9-91fe-3caa63c17522","ios":"levelo://app?vid=f483a1cd-0a1b-49d9-91fe-3caa63c17522"},"vehicle_type_id":"4","last_reported":1744182650,"current_range_meters":6400,"station_id":"ce4bha92rcd13ifvqeh0","pricing_plan_id":"cebpf4jnsgd1na2vs0mg"},{"bike_id":"d3d2d8ab-3a20-484c-970a-311c64abc672","system_id":"levelo_inurba_marseille","lat":43.29636,"lon":5.40606,"is_reserved":false,"is_disabled":false,"rental_uris":{"android":"levelo://app?vid=d3d2d8ab-3a20-484c-970a-311c64abc672","ios":"levelo://app?vid=d3d2d8ab-3a20-484c-970a-311c64abc672"},"vehicle_type_id":"4","last_reported":1744182650,"current_range_meters":6400,"station_id":"ce4bh0h2rcd13ifvqd60","pricing_plan_id":"cebpf4jnsgd1na2vs0mg"},{"bike_id":"b9d1d5af-bea1-4034-b95f-410563597dbc","system_id":"levelo_inurba_marseille","lat":43.30772,"lon":5.38137,"is_reserved":false,"is_disabled":false,"rental_uris":{"android":"levelo://app?vid=b9d1d5af-bea1-4034-b95f-410563597dbc","ios":"levelo://app?vid=b9d1d5af-bea1-4034-b95f-410563597dbc"},"vehicle_type_id":"4","last_reported":1744182650,"current_range_meters":6400,"station_id":"ce4bgt12rcd13ifvqce0","pricing_plan_id":"cebpf4jnsgd1na2vs0mg"},{"bike_id":"456b79bb-81b6-42d9-a52b-1ca6c839f098","system_id":"levelo_inurba_marseille","lat":43.30414,"lon":5.412779,"is_reserved":false,"is_disabled":true,"rental_uris":{"android":"levelo://app?vid=456b79bb-81b6-42d9-a52b-1ca6c839f098","ios":"levelo://app?vid=456b79bb-81b6-42d9-a52b-1ca6c839f098"},"vehicle_type_id":"4","last_reported":1744182650,"current_range_meters":6400,"station_id":"ce4bhop2rcd13ifvqh8g","pricing_plan_id":"cebpf4jnsgd1na2vs0mg"},{"bike_id":"f17ce36f-e80a-4732-89e2-7a7dfab19d87","system_id":"levelo_inurba_marseille","lat":43.29886,"lon":5.43715,"is_reserved":false,"is_disabled":false,"rental_uris":{"android":"levelo://app?vid=f17ce36f-e80a-4732-89e2-7a7dfab19d87","ios":"levelo://app?vid=f17ce36f-e80a-4732-89e2-7a7dfab19d87"},"vehicle_type_id":"4","last_reported":1744182650,"current_range_meters":6800,"station_id":"ce4bhpp2rcd13ifvqhfg","pricing_plan_id":"cebpf4jnsgd1na2vs0mg"},{"bike_id":"82f28cf6-556c-431d-a12b-bd3ce5fc2f28","system_id":"levelo_inurba_marseille","lat":43.275069,"lon":5.377481,"is_reserved":false,"is_disabled":false,"rental_uris":{"android":"levelo://app?vid=82f28cf6-556c-431d-a12b-bd3ce5fc2f28","ios":"levelo://app?vid=82f28cf6-556c-431d-a12b-bd3ce5fc2f28"},"vehicle_type_id":"4","last_reported":1744182650,"current_range_meters":6800,"station_id":"","pricing_plan_id":"cebpf4jnsgd1na2vs0mg"},{"bike_id":"97a296d0-295d-4a01-8b31-5e2f833e735c","system_id":"levelo_inurba_marseille","lat":43.25938,"lon":5.40907,"is_reserved":false,"is_disabled":false,"rental_uris":{"android":"levelo://app?vid=97a296d0-295d-4a01-8b31-5e2f833e735c","ios":"levelo://app?vid=97a296d0-295d-4a01-8b31-5e2f833e735c"},"vehicle_type_id":"4","last_reported":1744182650,"current_range_meters":6800,"station_id":"ce4bhm92rcd13ifvqglg","pricing_plan_id":"cebpf4jnsgd1na2vs0mg"},{"bike_id":"a2aba970-c65a-49a9-9c74-51a042ebf15f","system_id":"levelo_inurba_marseille","lat":43.2593,"lon":5.40912,"is_reserved":false,"is_disabled":false,"rental_uris":{"android":"levelo://app?vid=a2aba970-c65a-49a9-9c74-51a042ebf15f","ios":"levelo://app?vid=a2aba970-c65a-49a9-9c74-51a042ebf15f"},"vehicle_type_id":"4","last_reported":1744182650,"current_range_meters":6800,"station_id":"ce4bhm92rcd13ifvqglg","pricing_plan_id":"cebpf4jnsgd1na2vs0mg"},{"bike_id":"70ab16c7-e624-43d1-8b13-3c7baabf1241","system_id":"levelo_inurba_marseille","lat":43.2991,"lon":5.37466,"is_reserved":false,"is_disabled":false,"rental_uris":{"android":"levelo://app?vid=70ab16c7-e624-43d1-8b13-3c7baabf1241","ios":"levelo://app?vid=70ab16c7-e624-43d1-8b13-3c7baabf1241"},"vehicle_type_id":"4","last_reported":1744182650,"current_range_meters":6800,"station_id":"ce4bgjh2rcd13ifvqbg0","pricing_plan_id":"cebpf4jnsgd1na2vs0mg"},{"bike_id":"90468961-ea62-48b3-8f76-e769f3c1c672","system_id":"levelo_inurba_marseille","lat":43.31726,"lon":5.42401,"is_reserved":false,"is_disabled":false,"rental_uris":{"android":"levelo://app?vid=90468961-ea62-48b3-8f76-e769f3c1c672","ios":"levelo://app?vid=90468961-ea62-48b3-8f76-e769f3c1c672"},"vehicle_type_id":"4","last_reported":1744182650,"current_range_meters":6800,"station_id":"ce4bhp92rcd13ifvqhbg","pricing_plan_id":"cebpf4jnsgd1na2vs0mg"},{"bike_id":"74b78a6e-275c-47e0-b1ed-2ccf34bd59b9","system_id":"levelo_inurba_marseille","lat":43.30166,"lon":5.36638,"is_reserved":false,"is_disabled":false,"rental_uris":{"android":"levelo://app?vid=74b78a6e-275c-47e0-b1ed-2ccf34bd59b9","ios":"levelo://app?vid=74b78a6e-275c-47e0-b1ed-2ccf34bd59b9"},"vehicle_type_id":"4","last_reported":1744182650,"current_range_meters":7200,"station_id":"ce4bgrh2rcd13ifvqc8g","pricing_plan_id":"cebpf4jnsgd1na2vs0mg"},{"bike_id":"5ae1a071-0a62-4335-876c-b6ddbe41be41","system_id":"levelo_inurba_marseille","lat":43.28436,"lon":5.39201,"is_reserved":false,"is_disabled":false,"rental_uris":{"android":"levelo://app?vid=5ae1a071-0a62-4335-876c-b6ddbe41be41","ios":"levelo://app?vid=5ae1a071-0a62-4335-876c-b6ddbe41be41"},"vehicle_type_id":"4","last_reported":1744182650,"current_range_meters":6800,"station_id":"ce4bhoh2rcd13ifvqh5g","pricing_plan_id":"cebpf4jnsgd1na2vs0mg"},{"bike_id":"70810d3e-9936-4863-b211-84f880613e88","system_id":"levelo_inurba_marseille","lat":43.31315,"lon":5.37346,"is_reserved":false,"is_disabled":false,"rental_uris":{"android":"levelo://app?vid=70810d3e-9936-4863-b211-84f880613e88","ios":"levelo://app?vid=70810d3e-9936-4863-b211-84f880613e88"},"vehicle_type_id":"4","last_reported":1744182650,"current_range_meters":7200,"station_id":"","pricing_plan_id":"cebpf4jnsgd1na2vs0mg"},{"bike_id":"ec41b842-c84f-4ab1-894c-fc6101e00efb","system_id":"levelo_inurba_marseille","lat":43.31732,"lon":5.40329,"is_reserved":false,"is_disabled":false,"rental_uris":{"android":"levelo://app?vid=ec41b842-c84f-4ab1-894c-fc6101e00efb","ios":"levelo://app?vid=ec41b842-c84f-4ab1-894c-fc6101e00efb"},"vehicle_type_id":"4","last_reported":1744182650,"current_range_meters":7200,"station_id":"","pricing_plan_id":"cebpf4jnsgd1na2vs0mg"},{"bike_id":"c2583706-f1a8-4fc9-aea2-467ac7d08dae","system_id":"levelo_inurba_marseille","lat":43.3014,"lon":5.38111,"is_reserved":false,"is_disabled":false,"rental_uris":{"android":"levelo://app?vid=c2583706-f1a8-4fc9-aea2-467ac7d08dae","ios":"levelo://app?vid=c2583706-f1a8-4fc9-aea2-467ac7d08dae"},"vehicle_type_id":"4","last_reported":1744182650,"current_range_meters":7200,"station_id":"ce4bgjp2rcd13ifvqbh0","pricing_plan_id":"cebpf4jnsgd1na2vs0mg"},{"bike_id":"ffe06810-5584-4421-889d-508aad74984f","system_id":"levelo_inurba_marseille","lat":43.26202,"lon":5.37484,"is_reserved":false,"is_disabled":false,"rental_uris":{"android":"levelo://app?vid=ffe06810-5584-4421-889d-508aad74984f","ios":"levelo://app?vid=ffe06810-5584-4421-889d-508aad74984f"},"vehicle_type_id":"4","last_reported":1744182650,"current_range_meters":8000,"station_id":"ce4bhgp2rcd13ifvqfc0","pricing_plan_id":"cebpf4jnsgd1na2vs0mg"},{"bike_id":"3d0cae43-5b75-4aac-b7cb-471ce1151dd5","system_id":"levelo_inurba_marseille","lat":43.33024,"lon":5.3953,"is_reserved":false,"is_disabled":false,"rental_uris":{"android":"levelo://app?vid=3d0cae43-5b75-4aac-b7cb-471ce1151dd5","ios":"levelo://app?vid=3d0cae43-5b75-4aac-b7cb-471ce1151dd5"},"vehicle_type_id":"4","last_reported":1744182650,"current_range_meters":8000,"station_id":"","pricing_plan_id":"cebpf4jnsgd1na2vs0mg"},{"bike_id":"872eb5cd-f642-4091-be84-d58b0bf7e732","system_id":"levelo_inurba_marseille","lat":43.26784,"lon":5.39414,"is_reserved":false,"is_disabled":false,"rental_uris":{"android":"levelo://app?vid=872eb5cd-f642-4091-be84-d58b0bf7e732","ios":"levelo://app?vid=872eb5cd-f642-4091-be84-d58b0bf7e732"},"vehicle_type_id":"4","last_reported":1744182650,"current_range_meters":8000,"station_id":"ce4bhh12rcd13ifvqfg0","pricing_plan_id":"cebpf4jnsgd1na2vs0mg"},{"bike_id":"422563f7-cd11-412a-b611-48af322e2103","system_id":"levelo_inurba_marseille","lat":43.29291,"lon":5.37469,"is_reserved":false,"is_disabled":false,"rental_uris":{"android":"levelo://app?vid=422563f7-cd11-412a-b611-48af322e2103","ios":"levelo://app?vid=422563f7-cd11-412a-b611-48af322e2103"},"vehicle_type_id":"4","last_reported":1744182650,"current_range_meters":8400,"station_id":"ce4bgi12rcd13ifvqb70","pricing_plan_id":"cebpf4jnsgd1na2vs0mg"},{"bike_id":"fb0a2477-1664-4008-af89-978d188e9351","system_id":"levelo_inurba_marseille","lat":43.30547,"lon":5.36558,"is_reserved":false,"is_disabled":false,"rental_uris":{"android":"levelo://app?vid=fb0a2477-1664-4008-af89-978d188e9351","ios":"levelo://app?vid=fb0a2477-1664-4008-af89-978d188e9351"},"vehicle_type_id":"4","last_reported":1744182650,"current_range_meters":8400,"station_id":"ce4bgs12rcd13ifvqcag","pricing_plan_id":"cebpf4jnsgd1na2vs0mg"},{"bike_id":"ca1cb9af-e981-4da8-ae84-4ca0779eecf9","system_id":"levelo_inurba_marseille","lat":43.31491,"lon":5.37333,"is_reserved":false,"is_disabled":false,"rental_uris":{"android":"levelo://app?vid=ca1cb9af-e981-4da8-ae84-4ca0779eecf9","ios":"levelo://app?vid=ca1cb9af-e981-4da8-ae84-4ca0779eecf9"},"vehicle_type_id":"4","last_reported":1744182650,"current_range_meters":8400,"station_id":"ce4bgt12rcd13ifvqcd0","pricing_plan_id":"cebpf4jnsgd1na2vs0mg"},{"bike_id":"68d1cc33-0218-451e-8e10-d32225c21263","system_id":"levelo_inurba_marseille","lat":43.23164,"lon":5.43738,"is_reserved":false,"is_disabled":true,"rental_uris":{"android":"levelo://app?vid=68d1cc33-0218-451e-8e10-d32225c21263","ios":"levelo://app?vid=68d1cc33-0218-451e-8e10-d32225c21263"},"vehicle_type_id":"4","last_reported":1744182650,"current_range_meters":8400,"station_id":"ce4bhmp2rcd13ifvqgog","pricing_plan_id":"cebpf4jnsgd1na2vs0mg"},{"bike_id":"5e6ad826-38da-4531-b4ba-2eda8622ede3","system_id":"levelo_inurba_marseille","lat":43.310935,"lon":5.404643,"is_reserved":false,"is_disabled":false,"rental_uris":{"android":"levelo://app?vid=5e6ad826-38da-4531-b4ba-2eda8622ede3","ios":"levelo://app?vid=5e6ad826-38da-4531-b4ba-2eda8622ede3"},"vehicle_type_id":"4","last_reported":1744182650,"current_range_meters":8400,"station_id":"","pricing_plan_id":"cebpf4jnsgd1na2vs0mg"},{"bike_id":"e0ddec79-bccf-492b-bfd6-46048fa2475d","system_id":"levelo_inurba_marseille","lat":43.32352,"lon":5.3675,"is_reserved":false,"is_disabled":false,"rental_uris":{"android":"levelo://app?vid=e0ddec79-bccf-492b-bfd6-46048fa2475d","ios":"levelo://app?vid=e0ddec79-bccf-492b-bfd6-46048fa2475d"},"vehicle_type_id":"4","last_reported":1744182650,"current_range_meters":8400,"station_id":"ce4bhsh2rcd13ifvqi2g","pricing_plan_id":"cebpf4jnsgd1na2vs0mg"},{"bike_id":"e4ceb3d1-8347-42aa-a51b-867998777b81","system_id":"levelo_inurba_marseille","lat":43.26804,"lon":5.40266,"is_reserved":false,"is_disabled":false,"rental_uris":{"android":"levelo://app?vid=e4ceb3d1-8347-42aa-a51b-867998777b81","ios":"levelo://app?vid=e4ceb3d1-8347-42aa-a51b-867998777b81"},"vehicle_type_id":"4","last_reported":1744182650,"current_range_meters":8800,"station_id":"ce501612rcd8frsf0b60","pricing_plan_id":"cebpf4jnsgd1na2vs0mg"},{"bike_id":"7cbc3abb-d96e-46ad-87a3-e0fdd1126f87","system_id":"levelo_inurba_marseille","lat":43.31374,"lon":5.38514,"is_reserved":false,"is_disabled":false,"rental_uris":{"android":"levelo://app?vid=7cbc3abb-d96e-46ad-87a3-e0fdd1126f87","ios":"levelo://app?vid=7cbc3abb-d96e-46ad-87a3-e0fdd1126f87"},"vehicle_type_id":"4","last_reported":1744182650,"current_range_meters":8800,"station_id":"ce4bgt92rcd13ifvqcf0","pricing_plan_id":"cebpf4jnsgd1na2vs0mg"},{"bike_id":"e249359c-2aa1-419e-9353-7d468424c604","system_id":"levelo_inurba_marseille","lat":43.29637,"lon":5.40634,"is_reserved":false,"is_disabled":false,"rental_uris":{"android":"levelo://app?vid=e249359c-2aa1-419e-9353-7d468424c604","ios":"levelo://app?vid=e249359c-2aa1-419e-9353-7d468424c604"},"vehicle_type_id":"4","last_reported":1744182650,"current_range_meters":8800,"station_id":"ce4bh0h2rcd13ifvqd60","pricing_plan_id":"cebpf4jnsgd1na2vs0mg"},{"bike_id":"0aa02c49-cbb3-4907-a588-f754056f3ba8","system_id":"levelo_inurba_marseille","lat":43.3079,"lon":5.38175,"is_reserved":false,"is_disabled":true,"rental_uris":{"android":"levelo://app?vid=0aa02c49-cbb3-4907-a588-f754056f3ba8","ios":"levelo://app?vid=0aa02c49-cbb3-4907-a588-f754056f3ba8"},"vehicle_type_id":"4","last_reported":1744182650,"current_range_meters":8800,"station_id":"ce4bgt12rcd13ifvqce0","pricing_plan_id":"cebpf4jnsgd1na2vs0mg"},{"bike_id":"9e79e8f3-dfc4-45d1-8e7f-9b34c7f69aba","system_id":"levelo_inurba_marseille","lat":43.25947,"lon":5.40952,"is_reserved":false,"is_disabled":false,"rental_uris":{"android":"levelo://app?vid=9e79e8f3-dfc4-45d1-8e7f-9b34c7f69aba","ios":"levelo://app?vid=9e79e8f3-dfc4-45d1-8e7f-9b34c7f69aba"},"vehicle_type_id":"4","last_reported":1744182650,"current_range_meters":8800,"station_id":"ce4bhm92rcd13ifvqglg","pricing_plan_id":"cebpf4jnsgd1na2vs0mg"},{"bike_id":"557e216a-f1fd-448c-87dc-bf453f47c735","system_id":"levelo_inurba_marseille","lat":43.292533,"lon":5.409076,"is_reserved":false,"is_disabled":false,"rental_uris":{"android":"levelo://app?vid=557e216a-f1fd-448c-87dc-bf453f47c735","ios":"levelo://app?vid=557e216a-f1fd-448c-87dc-bf453f47c735"},"vehicle_type_id":"4","last_reported":1744182650,"current_range_meters":8800,"station_id":"ce4bh192rcd13ifvqdc0","pricing_plan_id":"cebpf4jnsgd1na2vs0mg"},{"bike_id":"1ca7d0c4-b7aa-4350-ad9f-4e24c2ba029a","system_id":"levelo_inurba_marseille","lat":43.30381,"lon":5.42489,"is_reserved":false,"is_disabled":true,"rental_uris":{"android":"levelo://app?vid=1ca7d0c4-b7aa-4350-ad9f-4e24c2ba029a","ios":"levelo://app?vid=1ca7d0c4-b7aa-4350-ad9f-4e24c2ba029a"},"vehicle_type_id":"4","last_reported":1744182650,"current_range_meters":9200,"station_id":"ce4bhoh2rcd13ifvqh6g","pricing_plan_id":"cebpf4jnsgd1na2vs0mg"},{"bike_id":"a566336b-6133-47a6-ad7f-74f32862e29a","system_id":"levelo_inurba_marseille","lat":43.30382,"lon":5.42521,"is_reserved":false,"is_disabled":false,"rental_uris":{"android":"levelo://app?vid=a566336b-6133-47a6-ad7f-74f32862e29a","ios":"levelo://app?vid=a566336b-6133-47a6-ad7f-74f32862e29a"},"vehicle_type_id":"4","last_reported":1744182650,"current_range_meters":9200,"station_id":"ce4bhoh2rcd13ifvqh6g","pricing_plan_id":"cebpf4jnsgd1na2vs0mg"},{"bike_id":"08f9c0c8-8b33-4578-8a03-20f44d582241","system_id":"levelo_inurba_marseille","lat":43.30616,"lon":5.37178,"is_reserved":false,"is_disabled":false,"rental_uris":{"android":"levelo://app?vid=08f9c0c8-8b33-4578-8a03-20f44d582241","ios":"levelo://app?vid=08f9c0c8-8b33-4578-8a03-20f44d582241"},"vehicle_type_id":"4","last_reported":1744182650,"current_range_meters":9200,"station_id":"ce4bgqh2rcd13ifvqc4g","pricing_plan_id":"cebpf4jnsgd1na2vs0mg"},{"bike_id":"3be4dcd8-5df5-40ab-93f5-d859e599a681","system_id":"levelo_inurba_marseille","lat":43.29642,"lon":5.3717,"is_reserved":false,"is_disabled":false,"rental_uris":{"android":"levelo://app?vid=3be4dcd8-5df5-40ab-93f5-d859e599a681","ios":"levelo://app?vid=3be4dcd8-5df5-40ab-93f5-d859e599a681"},"vehicle_type_id":"4","last_reported":1744182650,"current_range_meters":9200,"station_id":"ce4bgnh2rcd13ifvqc0g","pricing_plan_id":"cebpf4jnsgd1na2vs0mg"},{"bike_id":"9a2c0e56-d8df-40db-86f2-28bffe25a0ea","system_id":"levelo_inurba_marseille","lat":43.31206,"lon":5.36837,"is_reserved":false,"is_disabled":false,"rental_uris":{"android":"levelo://app?vid=9a2c0e56-d8df-40db-86f2-28bffe25a0ea","ios":"levelo://app?vid=9a2c0e56-d8df-40db-86f2-28bffe25a0ea"},"vehicle_type_id":"4","last_reported":1744182650,"current_range_meters":9200,"station_id":"ce4bgl92rcd13ifvqbq0","pricing_plan_id":"cebpf4jnsgd1na2vs0mg"},{"bike_id":"9fce7fb9-26b6-4832-9f96-ea1b75c489f0","system_id":"levelo_inurba_marseille","lat":43.23195,"lon":5.35568,"is_reserved":false,"is_disabled":false,"rental_uris":{"android":"levelo://app?vid=9fce7fb9-26b6-4832-9f96-ea1b75c489f0","ios":"levelo://app?vid=9fce7fb9-26b6-4832-9f96-ea1b75c489f0"},"vehicle_type_id":"4","last_reported":1744182650,"current_range_meters":9600,"station_id":"ce4bhu92rcd13ifvqi70","pricing_plan_id":"cebpf4jnsgd1na2vs0mg"},{"bike_id":"80663e12-6b64-446d-88c9-20255bde1a8a","system_id":"levelo_inurba_marseille","lat":43.3089,"lon":5.39657,"is_reserved":false,"is_disabled":true,"rental_uris":{"android":"levelo://app?vid=80663e12-6b64-446d-88c9-20255bde1a8a","ios":"levelo://app?vid=80663e12-6b64-446d-88c9-20255bde1a8a"},"vehicle_type_id":"4","last_reported":1744182650,"current_range_meters":9600,"station_id":"ce4bh012rcd13ifvqcv0","pricing_plan_id":"cebpf4jnsgd1na2vs0mg"},{"bike_id":"ae8acc12-d36d-43ae-9b5c-d788c29ead74","system_id":"levelo_inurba_marseille","lat":43.248059,"lon":5.37457,"is_reserved":false,"is_disabled":false,"rental_uris":{"android":"levelo://app?vid=ae8acc12-d36d-43ae-9b5c-d788c29ead74","ios":"levelo://app?vid=ae8acc12-d36d-43ae-9b5c-d788c29ead74"},"vehicle_type_id":"4","last_reported":1744182650,"current_range_meters":9600,"station_id":"","pricing_plan_id":"cebpf4jnsgd1na2vs0mg"},{"bike_id":"af4a1304-907f-4602-81d6-6adc9277cd2e","system_id":"levelo_inurba_marseille","lat":43.26228,"lon":5.40458,"is_reserved":false,"is_disabled":false,"rental_uris":{"android":"levelo://app?vid=af4a1304-907f-4602-81d6-6adc9277cd2e","ios":"levelo://app?vid=af4a1304-907f-4602-81d6-6adc9277cd2e"},"vehicle_type_id":"4","last_reported":1744182650,"current_range_meters":9600,"station_id":"ce4bhmh2rcd13ifvqgmg","pricing_plan_id":"cebpf4jnsgd1na2vs0mg"},{"bike_id":"8e6708ac-e44e-48a0-92a2-0d3d997bf7bf","system_id":"levelo_inurba_marseille","lat":43.27176,"lon":5.40995,"is_reserved":false,"is_disabled":false,"rental_uris":{"android":"levelo://app?vid=8e6708ac-e44e-48a0-92a2-0d3d997bf7bf","ios":"levelo://app?vid=8e6708ac-e44e-48a0-92a2-0d3d997bf7bf"},"vehicle_type_id":"4","last_reported":1744182650,"current_range_meters":9600,"station_id":"ce4bhl12rcd13ifvqgf0","pricing_plan_id":"cebpf4jnsgd1na2vs0mg"},{"bike_id":"d19d78ea-f6ff-463e-a01b-f44ad9ceb51c","system_id":"levelo_inurba_marseille","lat":43.255795,"lon":5.382298,"is_reserved":false,"is_disabled":false,"rental_uris":{"android":"levelo://app?vid=d19d78ea-f6ff-463e-a01b-f44ad9ceb51c","ios":"levelo://app?vid=d19d78ea-f6ff-463e-a01b-f44ad9ceb51c"},"vehicle_type_id":"4","last_reported":1744182650,"current_range_meters":9600,"station_id":"ce4bhih2rcd13ifvqfs0","pricing_plan_id":"cebpf4jnsgd1na2vs0mg"},{"bike_id":"06c5b5d3-7968-4dbb-a8ad-851439447cd9","system_id":"levelo_inurba_marseille","lat":43.26945,"lon":5.40275,"is_reserved":false,"is_disabled":false,"rental_uris":{"android":"levelo://app?vid=06c5b5d3-7968-4dbb-a8ad-851439447cd9","ios":"levelo://app?vid=06c5b5d3-7968-4dbb-a8ad-851439447cd9"},"vehicle_type_id":"4","last_reported":1744182650,"current_range_meters":9600,"station_id":"cjm6bp8fraef2m0cb0m0","pricing_plan_id":"cebpf4jnsgd1na2vs0mg"},{"bike_id":"05ebd012-a397-44d6-8d3a-b4fd8a759a09","system_id":"levelo_inurba_marseille","lat":43.30824,"lon":5.43528,"is_reserved":false,"is_disabled":false,"rental_uris":{"android":"levelo://app?vid=05ebd012-a397-44d6-8d3a-b4fd8a759a09","ios":"levelo://app?vid=05ebd012-a397-44d6-8d3a-b4fd8a759a09"},"vehicle_type_id":"4","last_reported":1744182650,"current_range_meters":9600,"station_id":"ce4bhph2rcd13ifvqheg","pricing_plan_id":"cebpf4jnsgd1na2vs0mg"},{"bike_id":"b2cee8e0-4c9e-4848-bd0c-91de02906d6a","system_id":"levelo_inurba_marseille","lat":43.27946,"lon":5.41046,"is_reserved":false,"is_disabled":false,"rental_uris":{"android":"levelo://app?vid=b2cee8e0-4c9e-4848-bd0c-91de02906d6a","ios":"levelo://app?vid=b2cee8e0-4c9e-4848-bd0c-91de02906d6a"},"vehicle_type_id":"4","last_reported":1744182650,"current_range_meters":9600,"station_id":"ce4bhnp2rcd13ifvqh0g","pricing_plan_id":"cebpf4jnsgd1na2vs0mg"},{"bike_id":"b397701f-0d3d-44bf-ab3e-3ccc7e74fb2e","system_id":"levelo_inurba_marseille","lat":43.264409,"lon":5.422798,"is_reserved":false,"is_disabled":false,"rental_uris":{"android":"levelo://app?vid=b397701f-0d3d-44bf-ab3e-3ccc7e74fb2e","ios":"levelo://app?vid=b397701f-0d3d-44bf-ab3e-3ccc7e74fb2e"},"vehicle_type_id":"4","last_reported":1744182650,"current_range_meters":9600,"station_id":"","pricing_plan_id":"cebpf4jnsgd1na2vs0mg"},{"bike_id":"e144898c-5060-45a5-8ca9-26fb817c2301","system_id":"levelo_inurba_marseille","lat":43.31213,"lon":5.36854,"is_reserved":false,"is_disabled":false,"rental_uris":{"android":"levelo://app?vid=e144898c-5060-45a5-8ca9-26fb817c2301","ios":"levelo://app?vid=e144898c-5060-45a5-8ca9-26fb817c2301"},"vehicle_type_id":"4","last_reported":1744182650,"current_range_meters":10000,"station_id":"ce4bgl92rcd13ifvqbq0","pricing_plan_id":"cebpf4jnsgd1na2vs0mg"},{"bike_id":"264703cb-1f33-470a-ba2f-7eed4681b2b3","system_id":"levelo_inurba_marseille","lat":43.29221,"lon":5.40072,"is_reserved":false,"is_disabled":false,"rental_uris":{"android":"levelo://app?vid=264703cb-1f33-470a-ba2f-7eed4681b2b3","ios":"levelo://app?vid=264703cb-1f33-470a-ba2f-7eed4681b2b3"},"vehicle_type_id":"4","last_reported":1744182650,"current_range_meters":10000,"station_id":"","pricing_plan_id":"cebpf4jnsgd1na2vs0mg"},{"bike_id":"9f3a516e-04e0-4231-b327-31f63226a530","system_id":"levelo_inurba_marseille","lat":43.32538,"lon":5.41425,"is_reserved":false,"is_disabled":false,"rental_uris":{"android":"levelo://app?vid=9f3a516e-04e0-4231-b327-31f63226a530","ios":"levelo://app?vid=9f3a516e-04e0-4231-b327-31f63226a530"},"vehicle_type_id":"4","last_reported":1744182650,"current_range_meters":10000,"station_id":"ce4bhq12rcd13ifvqhhg","pricing_plan_id":"cebpf4jnsgd1na2vs0mg"},{"bike_id":"fe554949-79fc-40fb-9308-e13fc7147f59","system_id":"levelo_inurba_marseille","lat":43.31085,"lon":5.42451,"is_reserved":false,"is_disabled":false,"rental_uris":{"android":"levelo://app?vid=fe554949-79fc-40fb-9308-e13fc7147f59","ios":"levelo://app?vid=fe554949-79fc-40fb-9308-e13fc7147f59"},"vehicle_type_id":"4","last_reported":1744182650,"current_range_meters":10000,"station_id":"ce4bhp92rcd13ifvqhag","pricing_plan_id":"cebpf4jnsgd1na2vs0mg"},{"bike_id":"894923f7-24a8-4f05-8d0c-1af4b4d3211a","system_id":"levelo_inurba_marseille","lat":43.30306,"lon":5.39202,"is_reserved":false,"is_disabled":true,"rental_uris":{"android":"levelo://app?vid=894923f7-24a8-4f05-8d0c-1af4b4d3211a","ios":"levelo://app?vid=894923f7-24a8-4f05-8d0c-1af4b4d3211a"},"vehicle_type_id":"4","last_reported":1744182650,"current_range_meters":10800,"station_id":"ce4bgkh2rcd13ifvqbk0","pricing_plan_id":"cebpf4jnsgd1na2vs0mg"},{"bike_id":"b86eab0d-277a-44aa-b0d6-f413fa90aac6","system_id":"levelo_inurba_marseille","lat":43.28408,"lon":5.37516,"is_reserved":false,"is_disabled":true,"rental_uris":{"android":"levelo://app?vid=b86eab0d-277a-44aa-b0d6-f413fa90aac6","ios":"levelo://app?vid=b86eab0d-277a-44aa-b0d6-f413fa90aac6"},"vehicle_type_id":"4","last_reported":1744182650,"current_range_meters":10800,"station_id":"ce4bh412rcd13ifvqds0","pricing_plan_id":"cebpf4jnsgd1na2vs0mg"},{"bike_id":"48de49e2-d7b3-498b-bce4-c46ebc0d2c81","system_id":"levelo_inurba_marseille","lat":43.25934,"lon":5.40912,"is_reserved":false,"is_disabled":false,"rental_uris":{"android":"levelo://app?vid=48de49e2-d7b3-498b-bce4-c46ebc0d2c81","ios":"levelo://app?vid=48de49e2-d7b3-498b-bce4-c46ebc0d2c81"},"vehicle_type_id":"4","last_reported":1744182650,"current_range_meters":10800,"station_id":"ce4bhm92rcd13ifvqglg","pricing_plan_id":"cebpf4jnsgd1na2vs0mg"},{"bike_id":"218aea37-f9e1-48f6-8a2f-86f29d1d6421","system_id":"levelo_inurba_marseille","lat":43.29841,"lon":5.36278,"is_reserved":false,"is_disabled":false,"rental_uris":{"android":"levelo://app?vid=218aea37-f9e1-48f6-8a2f-86f29d1d6421","ios":"levelo://app?vid=218aea37-f9e1-48f6-8a2f-86f29d1d6421"},"vehicle_type_id":"4","last_reported":1744182650,"current_range_meters":10800,"station_id":"ce4bgpp2rcd13ifvqc3g","pricing_plan_id":"cebpf4jnsgd1na2vs0mg"},{"bike_id":"73153009-7cec-47a0-b6a6-38701e42dcec","system_id":"levelo_inurba_marseille","lat":43.246588,"lon":5.381617,"is_reserved":false,"is_disabled":false,"rental_uris":{"android":"levelo://app?vid=73153009-7cec-47a0-b6a6-38701e42dcec","ios":"levelo://app?vid=73153009-7cec-47a0-b6a6-38701e42dcec"},"vehicle_type_id":"4","last_reported":1744182650,"current_range_meters":10800,"station_id":"ce4bhh12rcd13ifvqfg0","pricing_plan_id":"cebpf4jnsgd1na2vs0mg"},{"bike_id":"602e51f2-da81-4272-85cf-31c8731c65e8","system_id":"levelo_inurba_marseille","lat":43.29895,"lon":5.43675,"is_reserved":false,"is_disabled":false,"rental_uris":{"android":"levelo://app?vid=602e51f2-da81-4272-85cf-31c8731c65e8","ios":"levelo://app?vid=602e51f2-da81-4272-85cf-31c8731c65e8"},"vehicle_type_id":"4","last_reported":1744182650,"current_range_meters":10800,"station_id":"ce4bhpp2rcd13ifvqhfg","pricing_plan_id":"cebpf4jnsgd1na2vs0mg"},{"bike_id":"2f4a4258-c3db-45ac-8fba-a4a3a6e4653d","system_id":"levelo_inurba_marseille","lat":43.31375,"lon":5.36696,"is_reserved":false,"is_disabled":false,"rental_uris":{"android":"levelo://app?vid=2f4a4258-c3db-45ac-8fba-a4a3a6e4653d","ios":"levelo://app?vid=2f4a4258-c3db-45ac-8fba-a4a3a6e4653d"},"vehicle_type_id":"4","last_reported":1744182650,"current_range_meters":11200,"station_id":"ce4bgr92rcd13ifvqc6g","pricing_plan_id":"cebpf4jnsgd1na2vs0mg"},{"bike_id":"e24c6fd3-f9cb-40c7-9e57-dd2c20540e9b","system_id":"levelo_inurba_marseille","lat":43.31724,"lon":5.42395,"is_reserved":false,"is_disabled":false,"rental_uris":{"android":"levelo://app?vid=e24c6fd3-f9cb-40c7-9e57-dd2c20540e9b","ios":"levelo://app?vid=e24c6fd3-f9cb-40c7-9e57-dd2c20540e9b"},"vehicle_type_id":"4","last_reported":1744182650,"current_range_meters":11200,"station_id":"ce4bhp92rcd13ifvqhbg","pricing_plan_id":"cebpf4jnsgd1na2vs0mg"},{"bike_id":"25f3c748-fa73-4af0-99ce-766d7733ec18","system_id":"levelo_inurba_marseille","lat":43.31727,"lon":5.42446,"is_reserved":false,"is_disabled":false,"rental_uris":{"android":"levelo://app?vid=25f3c748-fa73-4af0-99ce-766d7733ec18","ios":"levelo://app?vid=25f3c748-fa73-4af0-99ce-766d7733ec18"},"vehicle_type_id":"4","last_reported":1744182650,"current_range_meters":11200,"station_id":"ce4bhp92rcd13ifvqhbg","pricing_plan_id":"cebpf4jnsgd1na2vs0mg"},{"bike_id":"3e75566c-deb3-4ec7-8c52-1a4ab3d46c50","system_id":"levelo_inurba_marseille","lat":43.28847,"lon":5.3931,"is_reserved":false,"is_disabled":false,"rental_uris":{"android":"levelo://app?vid=3e75566c-deb3-4ec7-8c52-1a4ab3d46c50","ios":"levelo://app?vid=3e75566c-deb3-4ec7-8c52-1a4ab3d46c50"},"vehicle_type_id":"4","last_reported":1744182650,"current_range_meters":11600,"station_id":"ce4bh2p2rcd13ifvqdi0","pricing_plan_id":"cebpf4jnsgd1na2vs0mg"},{"bike_id":"75ce6aac-0c64-439b-bfff-705ea259870c","system_id":"levelo_inurba_marseille","lat":43.30312,"lon":5.36909,"is_reserved":false,"is_disabled":false,"rental_uris":{"android":"levelo://app?vid=75ce6aac-0c64-439b-bfff-705ea259870c","ios":"levelo://app?vid=75ce6aac-0c64-439b-bfff-705ea259870c"},"vehicle_type_id":"4","last_reported":1744182650,"current_range_meters":11600,"station_id":"ce4bgqh2rcd13ifvqc5g","pricing_plan_id":"cebpf4jnsgd1na2vs0mg"},{"bike_id":"b017ebc6-d7dd-4033-92d3-402da65e69e0","system_id":"levelo_inurba_marseille","lat":43.309543,"lon":5.390393,"is_reserved":false,"is_disabled":false,"rental_uris":{"android":"levelo://app?vid=b017ebc6-d7dd-4033-92d3-402da65e69e0","ios":"levelo://app?vid=b017ebc6-d7dd-4033-92d3-402da65e69e0"},"vehicle_type_id":"4","last_reported":1744182650,"current_range_meters":11600,"station_id":"ce4bgup2rcd13ifvqco0","pricing_plan_id":"cebpf4jnsgd1na2vs0mg"},{"bike_id":"acbc8b2e-1ec5-41ec-91db-0def88f3f86b","system_id":"levelo_inurba_marseille","lat":43.307961,"lon":5.381532,"is_reserved":false,"is_disabled":false,"rental_uris":{"android":"levelo://app?vid=acbc8b2e-1ec5-41ec-91db-0def88f3f86b","ios":"levelo://app?vid=acbc8b2e-1ec5-41ec-91db-0def88f3f86b"},"vehicle_type_id":"4","last_reported":1744182650,"current_range_meters":11600,"station_id":"ce4bgrh2rcd13ifvqc8g","pricing_plan_id":"cebpf4jnsgd1na2vs0mg"},{"bike_id":"d58a3dc4-7a27-4171-8167-2a6f75ef2c9f","system_id":"levelo_inurba_marseille","lat":43.26686,"lon":5.38277,"is_reserved":false,"is_disabled":false,"rental_uris":{"android":"levelo://app?vid=d58a3dc4-7a27-4171-8167-2a6f75ef2c9f","ios":"levelo://app?vid=d58a3dc4-7a27-4171-8167-2a6f75ef2c9f"},"vehicle_type_id":"4","last_reported":1744182650,"current_range_meters":12000,"station_id":"ce4bhg92rcd13ifvqf90","pricing_plan_id":"cebpf4jnsgd1na2vs0mg"},{"bike_id":"ce0fd5b8-478f-4f08-869c-935a7a4c659f","system_id":"levelo_inurba_marseille","lat":43.33123,"lon":5.38526,"is_reserved":false,"is_disabled":false,"rental_uris":{"android":"levelo://app?vid=ce0fd5b8-478f-4f08-869c-935a7a4c659f","ios":"levelo://app?vid=ce0fd5b8-478f-4f08-869c-935a7a4c659f"},"vehicle_type_id":"4","last_reported":1744182650,"current_range_meters":12000,"station_id":"","pricing_plan_id":"cebpf4jnsgd1na2vs0mg"},{"bike_id":"1e099cf5-9456-4ac3-8d36-9153ce8a87f2","system_id":"levelo_inurba_marseille","lat":43.29564,"lon":5.39993,"is_reserved":false,"is_disabled":true,"rental_uris":{"android":"levelo://app?vid=1e099cf5-9456-4ac3-8d36-9153ce8a87f2","ios":"levelo://app?vid=1e099cf5-9456-4ac3-8d36-9153ce8a87f2"},"vehicle_type_id":"4","last_reported":1744182650,"current_range_meters":12400,"station_id":"ce4bh312rcd13ifvqdj0","pricing_plan_id":"cebpf4jnsgd1na2vs0mg"},{"bike_id":"6460fd42-0183-4182-862c-e77bdd1a5688","system_id":"levelo_inurba_marseille","lat":43.2962,"lon":5.37154,"is_reserved":false,"is_disabled":false,"rental_uris":{"android":"levelo://app?vid=6460fd42-0183-4182-862c-e77bdd1a5688","ios":"levelo://app?vid=6460fd42-0183-4182-862c-e77bdd1a5688"},"vehicle_type_id":"4","last_reported":1744182650,"current_range_meters":12400,"station_id":"ce4bgnh2rcd13ifvqc0g","pricing_plan_id":"cebpf4jnsgd1na2vs0mg"},{"bike_id":"aa6306d2-65ab-42a2-9b0d-ef5604f971de","system_id":"levelo_inurba_marseille","lat":43.30473,"lon":5.37925,"is_reserved":false,"is_disabled":false,"rental_uris":{"android":"levelo://app?vid=aa6306d2-65ab-42a2-9b0d-ef5604f971de","ios":"levelo://app?vid=aa6306d2-65ab-42a2-9b0d-ef5604f971de"},"vehicle_type_id":"4","last_reported":1744182650,"current_range_meters":12400,"station_id":"ce4bgup2rcd13ifvqcn0","pricing_plan_id":"cebpf4jnsgd1na2vs0mg"},{"bike_id":"b228f500-ea8a-40c7-811e-b1d8d2c907f6","system_id":"levelo_inurba_marseille","lat":43.26944,"lon":5.38669,"is_reserved":false,"is_disabled":false,"rental_uris":{"android":"levelo://app?vid=b228f500-ea8a-40c7-811e-b1d8d2c907f6","ios":"levelo://app?vid=b228f500-ea8a-40c7-811e-b1d8d2c907f6"},"vehicle_type_id":"4","last_reported":1744182650,"current_range_meters":12400,"station_id":"ce4bhh92rcd13ifvqfh0","pricing_plan_id":"cebpf4jnsgd1na2vs0mg"},{"bike_id":"5233450e-bb8c-471e-8d5b-19a271ba0305","system_id":"levelo_inurba_marseille","lat":43.28853,"lon":5.3585,"is_reserved":false,"is_disabled":false,"rental_uris":{"android":"levelo://app?vid=5233450e-bb8c-471e-8d5b-19a271ba0305","ios":"levelo://app?vid=5233450e-bb8c-471e-8d5b-19a271ba0305"},"vehicle_type_id":"4","last_reported":1744182650,"current_range_meters":12400,"station_id":"ce4bhb12rcd13ifvqem0","pricing_plan_id":"cebpf4jnsgd1na2vs0mg"},{"bike_id":"7a638306-e7fe-48ac-b879-9218eaf98eaf","system_id":"levelo_inurba_marseille","lat":43.26787,"lon":5.39415,"is_reserved":false,"is_disabled":false,"rental_uris":{"android":"levelo://app?vid=7a638306-e7fe-48ac-b879-9218eaf98eaf","ios":"levelo://app?vid=7a638306-e7fe-48ac-b879-9218eaf98eaf"},"vehicle_type_id":"4","last_reported":1744182650,"current_range_meters":12800,"station_id":"ce4bhh12rcd13ifvqfg0","pricing_plan_id":"cebpf4jnsgd1na2vs0mg"},{"bike_id":"1e3c5725-7996-4c37-98a9-1a6c71715af8","system_id":"levelo_inurba_marseille","lat":43.29278,"lon":5.40123,"is_reserved":false,"is_disabled":false,"rental_uris":{"android":"levelo://app?vid=1e3c5725-7996-4c37-98a9-1a6c71715af8","ios":"levelo://app?vid=1e3c5725-7996-4c37-98a9-1a6c71715af8"},"vehicle_type_id":"4","last_reported":1744182650,"current_range_meters":12800,"station_id":"ce4bh312rcd13ifvqdk0","pricing_plan_id":"cebpf4jnsgd1na2vs0mg"},{"bike_id":"e82d3cbf-6990-4eca-9743-6a7db542c284","system_id":"levelo_inurba_marseille","lat":43.32342,"lon":5.4063,"is_reserved":false,"is_disabled":false,"rental_uris":{"android":"levelo://app?vid=e82d3cbf-6990-4eca-9743-6a7db542c284","ios":"levelo://app?vid=e82d3cbf-6990-4eca-9743-6a7db542c284"},"vehicle_type_id":"4","last_reported":1744182650,"current_range_meters":12800,"station_id":"ce4bhq92rcd13ifvqhjg","pricing_plan_id":"cebpf4jnsgd1na2vs0mg"},{"bike_id":"b2ab7a9b-ab6f-40c3-9641-ca257733fa28","system_id":"levelo_inurba_marseille","lat":43.30789,"lon":5.38154,"is_reserved":false,"is_disabled":false,"rental_uris":{"android":"levelo://app?vid=b2ab7a9b-ab6f-40c3-9641-ca257733fa28","ios":"levelo://app?vid=b2ab7a9b-ab6f-40c3-9641-ca257733fa28"},"vehicle_type_id":"4","last_reported":1744182650,"current_range_meters":12800,"station_id":"ce4bgt12rcd13ifvqce0","pricing_plan_id":"cebpf4jnsgd1na2vs0mg"},{"bike_id":"5273534c-3473-4abd-9c4b-e677a5c1499a","system_id":"levelo_inurba_marseille","lat":43.29059,"lon":5.36971,"is_reserved":false,"is_disabled":false,"rental_uris":{"android":"levelo://app?vid=5273534c-3473-4abd-9c4b-e677a5c1499a","ios":"levelo://app?vid=5273534c-3473-4abd-9c4b-e677a5c1499a"},"vehicle_type_id":"4","last_reported":1744182650,"current_range_meters":12800,"station_id":"","pricing_plan_id":"cebpf4jnsgd1na2vs0mg"},{"bike_id":"02eeea38-8c1e-49c5-8702-9f2d72f6b71f","system_id":"levelo_inurba_marseille","lat":43.25924,"lon":5.40904,"is_reserved":false,"is_disabled":false,"rental_uris":{"android":"levelo://app?vid=02eeea38-8c1e-49c5-8702-9f2d72f6b71f","ios":"levelo://app?vid=02eeea38-8c1e-49c5-8702-9f2d72f6b71f"},"vehicle_type_id":"4","last_reported":1744182650,"current_range_meters":13600,"station_id":"ce4bhm92rcd13ifvqglg","pricing_plan_id":"cebpf4jnsgd1na2vs0mg"},{"bike_id":"75f59def-7d4a-4852-b419-ba3121fedb54","system_id":"levelo_inurba_marseille","lat":43.29629,"lon":5.40593,"is_reserved":false,"is_disabled":false,"rental_uris":{"android":"levelo://app?vid=75f59def-7d4a-4852-b419-ba3121fedb54","ios":"levelo://app?vid=75f59def-7d4a-4852-b419-ba3121fedb54"},"vehicle_type_id":"4","last_reported":1744182650,"current_range_meters":14000,"station_id":"ce4bh0h2rcd13ifvqd60","pricing_plan_id":"cebpf4jnsgd1na2vs0mg"},{"bike_id":"5f30a5a4-de9f-499e-b151-b811ebb3b43a","system_id":"levelo_inurba_marseille","lat":43.3107,"lon":5.38353,"is_reserved":false,"is_disabled":true,"rental_uris":{"android":"levelo://app?vid=5f30a5a4-de9f-499e-b151-b811ebb3b43a","ios":"levelo://app?vid=5f30a5a4-de9f-499e-b151-b811ebb3b43a"},"vehicle_type_id":"4","last_reported":1744182650,"current_range_meters":14000,"station_id":"ce4bgv92rcd13ifvqcr0","pricing_plan_id":"cebpf4jnsgd1na2vs0mg"},{"bike_id":"f59c962d-e3aa-411f-b6eb-24802869fd2c","system_id":"levelo_inurba_marseille","lat":43.21755,"lon":5.34629,"is_reserved":false,"is_disabled":false,"rental_uris":{"android":"levelo://app?vid=f59c962d-e3aa-411f-b6eb-24802869fd2c","ios":"levelo://app?vid=f59c962d-e3aa-411f-b6eb-24802869fd2c"},"vehicle_type_id":"4","last_reported":1744182650,"current_range_meters":14000,"station_id":"st_cvj6r9ubvosntc0bgbag","pricing_plan_id":"cebpf4jnsgd1na2vs0mg"},{"bike_id":"8eccc3d9-19cb-4c1d-b27f-e3b5feee92ea","system_id":"levelo_inurba_marseille","lat":43.2294,"lon":5.35385,"is_reserved":false,"is_disabled":false,"rental_uris":{"android":"levelo://app?vid=8eccc3d9-19cb-4c1d-b27f-e3b5feee92ea","ios":"levelo://app?vid=8eccc3d9-19cb-4c1d-b27f-e3b5feee92ea"},"vehicle_type_id":"4","last_reported":1744182650,"current_range_meters":14400,"station_id":"cpo3532slgdg3j2ikp40","pricing_plan_id":"cebpf4jnsgd1na2vs0mg"},{"bike_id":"8aca47b8-dcba-4e10-a490-7acd73bde0df","system_id":"levelo_inurba_marseille","lat":43.295401,"lon":5.390394,"is_reserved":false,"is_disabled":false,"rental_uris":{"android":"levelo://app?vid=8aca47b8-dcba-4e10-a490-7acd73bde0df","ios":"levelo://app?vid=8aca47b8-dcba-4e10-a490-7acd73bde0df"},"vehicle_type_id":"4","last_reported":1744182650,"current_range_meters":14400,"station_id":"ce4bgs12rcd13ifvqcag","pricing_plan_id":"cebpf4jnsgd1na2vs0mg"},{"bike_id":"b37944fb-f9c1-4c8e-ac3a-9da227afb433","system_id":"levelo_inurba_marseille","lat":43.308,"lon":5.38169,"is_reserved":false,"is_disabled":true,"rental_uris":{"android":"levelo://app?vid=b37944fb-f9c1-4c8e-ac3a-9da227afb433","ios":"levelo://app?vid=b37944fb-f9c1-4c8e-ac3a-9da227afb433"},"vehicle_type_id":"4","last_reported":1744182650,"current_range_meters":14400,"station_id":"ce4bgt12rcd13ifvqce0","pricing_plan_id":"cebpf4jnsgd1na2vs0mg"},{"bike_id":"edf92683-0c32-4b77-9509-d6f3456c71e1","system_id":"levelo_inurba_marseille","lat":43.30614,"lon":5.39363,"is_reserved":false,"is_disabled":true,"rental_uris":{"android":"levelo://app?vid=edf92683-0c32-4b77-9509-d6f3456c71e1","ios":"levelo://app?vid=edf92683-0c32-4b77-9509-d6f3456c71e1"},"vehicle_type_id":"4","last_reported":1744182650,"current_range_meters":14800,"station_id":"ce4bh0p2rcd13ifvqd80","pricing_plan_id":"cebpf4jnsgd1na2vs0mg"},{"bike_id":"c544d325-934c-4c69-b6c8-9836fe365abc","system_id":"levelo_inurba_marseille","lat":43.33598,"lon":5.41031,"is_reserved":false,"is_disabled":false,"rental_uris":{"android":"levelo://app?vid=c544d325-934c-4c69-b6c8-9836fe365abc","ios":"levelo://app?vid=c544d325-934c-4c69-b6c8-9836fe365abc"},"vehicle_type_id":"4","last_reported":1744182650,"current_range_meters":17600,"station_id":"ce4bhqh2rcd13ifvqhmg","pricing_plan_id":"cebpf4jnsgd1na2vs0mg"},{"bike_id":"b3014d67-1beb-4a0f-a0f5-829e0d2a4492","system_id":"levelo_inurba_marseille","lat":43.217386,"lon":5.346285,"is_reserved":false,"is_disabled":false,"rental_uris":{"android":"levelo://app?vid=b3014d67-1beb-4a0f-a0f5-829e0d2a4492","ios":"levelo://app?vid=b3014d67-1beb-4a0f-a0f5-829e0d2a4492"},"vehicle_type_id":"4","last_reported":1744182650,"current_range_meters":14800,"station_id":"ce4bhu92rcd13ifvqi70","pricing_plan_id":"cebpf4jnsgd1na2vs0mg"},{"bike_id":"e914dcdd-d94a-4740-a60a-12cbabf43179","system_id":"levelo_inurba_marseille","lat":43.2593,"lon":5.40911,"is_reserved":false,"is_disabled":false,"rental_uris":{"android":"levelo://app?vid=e914dcdd-d94a-4740-a60a-12cbabf43179","ios":"levelo://app?vid=e914dcdd-d94a-4740-a60a-12cbabf43179"},"vehicle_type_id":"4","last_reported":1744182650,"current_range_meters":15200,"station_id":"ce4bhm92rcd13ifvqglg","pricing_plan_id":"cebpf4jnsgd1na2vs0mg"},{"bike_id":"d44ff2b9-417e-4368-bebb-1fc974db3122","system_id":"levelo_inurba_marseille","lat":43.336316,"lon":5.39749,"is_reserved":false,"is_disabled":false,"rental_uris":{"android":"levelo://app?vid=d44ff2b9-417e-4368-bebb-1fc974db3122","ios":"levelo://app?vid=d44ff2b9-417e-4368-bebb-1fc974db3122"},"vehicle_type_id":"4","last_reported":1744182650,"current_range_meters":15200,"station_id":"","pricing_plan_id":"cebpf4jnsgd1na2vs0mg"},{"bike_id":"c606e198-e00e-4dad-af52-bfdcce00a366","system_id":"levelo_inurba_marseille","lat":43.29569,"lon":5.37517,"is_reserved":false,"is_disabled":false,"rental_uris":{"android":"levelo://app?vid=c606e198-e00e-4dad-af52-bfdcce00a366","ios":"levelo://app?vid=c606e198-e00e-4dad-af52-bfdcce00a366"},"vehicle_type_id":"4","last_reported":1744182650,"current_range_meters":15200,"station_id":"ce4bgh92rcd13ifvqb50","pricing_plan_id":"cebpf4jnsgd1na2vs0mg"},{"bike_id":"0c0682ef-602c-4853-944b-e80ee191e508","system_id":"levelo_inurba_marseille","lat":43.30533,"lon":5.36709,"is_reserved":false,"is_disabled":false,"rental_uris":{"android":"levelo://app?vid=0c0682ef-602c-4853-944b-e80ee191e508","ios":"levelo://app?vid=0c0682ef-602c-4853-944b-e80ee191e508"},"vehicle_type_id":"4","last_reported":1744182650,"current_range_meters":15200,"station_id":"ce4bgrp2rcd13ifvqc9g","pricing_plan_id":"cebpf4jnsgd1na2vs0mg"},{"bike_id":"53fb0077-3a65-43ca-a501-d7c36dc0627d","system_id":"levelo_inurba_marseille","lat":43.317652,"lon":5.388061,"is_reserved":false,"is_disabled":false,"rental_uris":{"android":"levelo://app?vid=53fb0077-3a65-43ca-a501-d7c36dc0627d","ios":"levelo://app?vid=53fb0077-3a65-43ca-a501-d7c36dc0627d"},"vehicle_type_id":"4","last_reported":1744182650,"current_range_meters":16000,"station_id":"","pricing_plan_id":"cebpf4jnsgd1na2vs0mg"},{"bike_id":"f8fd05f6-b019-4162-a9df-dc82b614e530","system_id":"levelo_inurba_marseille","lat":43.28437,"lon":5.39193,"is_reserved":false,"is_disabled":false,"rental_uris":{"android":"levelo://app?vid=f8fd05f6-b019-4162-a9df-dc82b614e530","ios":"levelo://app?vid=f8fd05f6-b019-4162-a9df-dc82b614e530"},"vehicle_type_id":"4","last_reported":1744182650,"current_range_meters":16000,"station_id":"ce4bhoh2rcd13ifvqh5g","pricing_plan_id":"cebpf4jnsgd1na2vs0mg"},{"bike_id":"b4b93a64-d083-4ab2-bbd0-53609c602fb5","system_id":"levelo_inurba_marseille","lat":43.30918,"lon":5.40147,"is_reserved":false,"is_disabled":true,"rental_uris":{"android":"levelo://app?vid=b4b93a64-d083-4ab2-bbd0-53609c602fb5","ios":"levelo://app?vid=b4b93a64-d083-4ab2-bbd0-53609c602fb5"},"vehicle_type_id":"4","last_reported":1744182650,"current_range_meters":16000,"station_id":"ce4bgvp2rcd13ifvqct0","pricing_plan_id":"cebpf4jnsgd1na2vs0mg"},{"bike_id":"62a01926-6933-46cf-a545-45ef8eedb22d","system_id":"levelo_inurba_marseille","lat":43.29254,"lon":5.40907,"is_reserved":false,"is_disabled":false,"rental_uris":{"android":"levelo://app?vid=62a01926-6933-46cf-a545-45ef8eedb22d","ios":"levelo://app?vid=62a01926-6933-46cf-a545-45ef8eedb22d"},"vehicle_type_id":"4","last_reported":1744182650,"current_range_meters":16000,"station_id":"ce4bh192rcd13ifvqdc0","pricing_plan_id":"cebpf4jnsgd1na2vs0mg"},{"bike_id":"52dfef30-eef0-4dd6-a138-a48c8dcc2c3a","system_id":"levelo_inurba_marseille","lat":43.30357,"lon":5.42776,"is_reserved":false,"is_disabled":true,"rental_uris":{"android":"levelo://app?vid=52dfef30-eef0-4dd6-a138-a48c8dcc2c3a","ios":"levelo://app?vid=52dfef30-eef0-4dd6-a138-a48c8dcc2c3a"},"vehicle_type_id":"4","last_reported":1744182650,"current_range_meters":16000,"station_id":"","pricing_plan_id":"cebpf4jnsgd1na2vs0mg"},{"bike_id":"8d29c6f3-97bf-4577-8844-066d6065b7aa","system_id":"levelo_inurba_marseille","lat":43.30357,"lon":5.42493,"is_reserved":false,"is_disabled":false,"rental_uris":{"android":"levelo://app?vid=8d29c6f3-97bf-4577-8844-066d6065b7aa","ios":"levelo://app?vid=8d29c6f3-97bf-4577-8844-066d6065b7aa"},"vehicle_type_id":"4","last_reported":1744182650,"current_range_meters":16000,"station_id":"ce4bhoh2rcd13ifvqh6g","pricing_plan_id":"cebpf4jnsgd1na2vs0mg"},{"bike_id":"f147c6df-27ae-4e7a-90c0-6893ba89129c","system_id":"levelo_inurba_marseille","lat":43.30552,"lon":5.36568,"is_reserved":false,"is_disabled":false,"rental_uris":{"android":"levelo://app?vid=f147c6df-27ae-4e7a-90c0-6893ba89129c","ios":"levelo://app?vid=f147c6df-27ae-4e7a-90c0-6893ba89129c"},"vehicle_type_id":"4","last_reported":1744182650,"current_range_meters":16000,"station_id":"ce4bgs12rcd13ifvqcag","pricing_plan_id":"cebpf4jnsgd1na2vs0mg"},{"bike_id":"002366e1-5351-44da-9f29-3f681fd2c5ad","system_id":"levelo_inurba_marseille","lat":43.32476,"lon":5.36571,"is_reserved":false,"is_disabled":false,"rental_uris":{"android":"levelo://app?vid=002366e1-5351-44da-9f29-3f681fd2c5ad","ios":"levelo://app?vid=002366e1-5351-44da-9f29-3f681fd2c5ad"},"vehicle_type_id":"4","last_reported":1744182650,"current_range_meters":16000,"station_id":"ce4bhs12rcd13ifvqhvg","pricing_plan_id":"cebpf4jnsgd1na2vs0mg"},{"bike_id":"6278194a-3064-41bd-8565-b8ff44b1552d","system_id":"levelo_inurba_marseille","lat":43.29555,"lon":5.38559,"is_reserved":false,"is_disabled":true,"rental_uris":{"android":"levelo://app?vid=6278194a-3064-41bd-8565-b8ff44b1552d","ios":"levelo://app?vid=6278194a-3064-41bd-8565-b8ff44b1552d"},"vehicle_type_id":"4","last_reported":1744182650,"current_range_meters":16000,"station_id":"ce4bgih2rcd13ifvqba0","pricing_plan_id":"cebpf4jnsgd1na2vs0mg"},{"bike_id":"d7b2134e-575c-40f1-9b3b-0ad40ab4b220","system_id":"levelo_inurba_marseille","lat":43.29843,"lon":5.43685,"is_reserved":false,"is_disabled":false,"rental_uris":{"android":"levelo://app?vid=d7b2134e-575c-40f1-9b3b-0ad40ab4b220","ios":"levelo://app?vid=d7b2134e-575c-40f1-9b3b-0ad40ab4b220"},"vehicle_type_id":"4","last_reported":1744182650,"current_range_meters":16000,"station_id":"","pricing_plan_id":"cebpf4jnsgd1na2vs0mg"},{"bike_id":"2e51817e-de6e-4257-a7ba-062b7771d4b1","system_id":"levelo_inurba_marseille","lat":43.26193,"lon":5.37453,"is_reserved":false,"is_disabled":false,"rental_uris":{"android":"levelo://app?vid=2e51817e-de6e-4257-a7ba-062b7771d4b1","ios":"levelo://app?vid=2e51817e-de6e-4257-a7ba-062b7771d4b1"},"vehicle_type_id":"4","last_reported":1744182650,"current_range_meters":16000,"station_id":"ce4bhgp2rcd13ifvqfc0","pricing_plan_id":"cebpf4jnsgd1na2vs0mg"},{"bike_id":"693077cd-be9b-4576-98de-e1df5bd57bc7","system_id":"levelo_inurba_marseille","lat":43.31351,"lon":5.36719,"is_reserved":false,"is_disabled":false,"rental_uris":{"android":"levelo://app?vid=693077cd-be9b-4576-98de-e1df5bd57bc7","ios":"levelo://app?vid=693077cd-be9b-4576-98de-e1df5bd57bc7"},"vehicle_type_id":"4","last_reported":1744182650,"current_range_meters":16000,"station_id":"ce4bgr92rcd13ifvqc6g","pricing_plan_id":"cebpf4jnsgd1na2vs0mg"},{"bike_id":"0ad9ee3e-0832-46df-b474-10ed8a5a0c97","system_id":"levelo_inurba_marseille","lat":43.21214,"lon":5.35078,"is_reserved":false,"is_disabled":false,"rental_uris":{"android":"levelo://app?vid=0ad9ee3e-0832-46df-b474-10ed8a5a0c97","ios":"levelo://app?vid=0ad9ee3e-0832-46df-b474-10ed8a5a0c97"},"vehicle_type_id":"4","last_reported":1744182650,"current_range_meters":16400,"station_id":"st_cvj6sg6p6f1abm77japg","pricing_plan_id":"cebpf4jnsgd1na2vs0mg"},{"bike_id":"855f3c91-ae63-41fc-81d6-ed7e85d8490f","system_id":"levelo_inurba_marseille","lat":43.29193,"lon":5.35811,"is_reserved":false,"is_disabled":false,"rental_uris":{"android":"levelo://app?vid=855f3c91-ae63-41fc-81d6-ed7e85d8490f","ios":"levelo://app?vid=855f3c91-ae63-41fc-81d6-ed7e85d8490f"},"vehicle_type_id":"4","last_reported":1744182650,"current_range_meters":16400,"station_id":"ce4bhb12rcd13ifvqel0","pricing_plan_id":"cebpf4jnsgd1na2vs0mg"},{"bike_id":"7bd3f7de-3a74-4fff-b4c6-181d8b119e52","system_id":"levelo_inurba_marseille","lat":43.298011,"lon":5.404139,"is_reserved":false,"is_disabled":true,"rental_uris":{"android":"levelo://app?vid=7bd3f7de-3a74-4fff-b4c6-181d8b119e52","ios":"levelo://app?vid=7bd3f7de-3a74-4fff-b4c6-181d8b119e52"},"vehicle_type_id":"4","last_reported":1744182650,"current_range_meters":16400,"station_id":"ce4bh112rcd13ifvqd90","pricing_plan_id":"cebpf4jnsgd1na2vs0mg"},{"bike_id":"b7141633-2495-494c-8f4f-d74ab27ec5bf","system_id":"levelo_inurba_marseille","lat":43.30948,"lon":5.39023,"is_reserved":false,"is_disabled":false,"rental_uris":{"android":"levelo://app?vid=b7141633-2495-494c-8f4f-d74ab27ec5bf","ios":"levelo://app?vid=b7141633-2495-494c-8f4f-d74ab27ec5bf"},"vehicle_type_id":"4","last_reported":1744182650,"current_range_meters":16400,"station_id":"ce4bgup2rcd13ifvqco0","pricing_plan_id":"cebpf4jnsgd1na2vs0mg"},{"bike_id":"5a68c324-2d40-4ecf-b1d2-dabc0a2f2519","system_id":"levelo_inurba_marseille","lat":43.29031,"lon":5.37572,"is_reserved":false,"is_disabled":false,"rental_uris":{"android":"levelo://app?vid=5a68c324-2d40-4ecf-b1d2-dabc0a2f2519","ios":"levelo://app?vid=5a68c324-2d40-4ecf-b1d2-dabc0a2f2519"},"vehicle_type_id":"4","last_reported":1744182650,"current_range_meters":16400,"station_id":"ce4bh692rcd13ifvqe90","pricing_plan_id":"cebpf4jnsgd1na2vs0mg"},{"bike_id":"c1c63035-c83b-4419-8cbf-133778d95125","system_id":"levelo_inurba_marseille","lat":43.297869,"lon":5.39356,"is_reserved":false,"is_disabled":true,"rental_uris":{"android":"levelo://app?vid=c1c63035-c83b-4419-8cbf-133778d95125","ios":"levelo://app?vid=c1c63035-c83b-4419-8cbf-133778d95125"},"vehicle_type_id":"4","last_reported":1744182650,"current_range_meters":16400,"station_id":"chh1huq6cuj3fo74tm60","pricing_plan_id":"cebpf4jnsgd1na2vs0mg"},{"bike_id":"68b2b97c-dfa2-455e-98c0-2b19e9ad3657","system_id":"levelo_inurba_marseille","lat":43.29251,"lon":5.40922,"is_reserved":false,"is_disabled":false,"rental_uris":{"android":"levelo://app?vid=68b2b97c-dfa2-455e-98c0-2b19e9ad3657","ios":"levelo://app?vid=68b2b97c-dfa2-455e-98c0-2b19e9ad3657"},"vehicle_type_id":"4","last_reported":1744182650,"current_range_meters":16400,"station_id":"ce4bh192rcd13ifvqdc0","pricing_plan_id":"cebpf4jnsgd1na2vs0mg"},{"bike_id":"875883da-a830-4c1a-8530-93fae3774448","system_id":"levelo_inurba_marseille","lat":43.30535,"lon":5.36553,"is_reserved":false,"is_disabled":false,"rental_uris":{"android":"levelo://app?vid=875883da-a830-4c1a-8530-93fae3774448","ios":"levelo://app?vid=875883da-a830-4c1a-8530-93fae3774448"},"vehicle_type_id":"4","last_reported":1744182650,"current_range_meters":16800,"station_id":"ce4bgs12rcd13ifvqcag","pricing_plan_id":"cebpf4jnsgd1na2vs0mg"},{"bike_id":"548b5db1-6db1-450e-b5ac-22a57f5bc265","system_id":"levelo_inurba_marseille","lat":43.28999,"lon":5.37862,"is_reserved":false,"is_disabled":true,"rental_uris":{"android":"levelo://app?vid=548b5db1-6db1-450e-b5ac-22a57f5bc265","ios":"levelo://app?vid=548b5db1-6db1-450e-b5ac-22a57f5bc265"},"vehicle_type_id":"4","last_reported":1744182650,"current_range_meters":16800,"station_id":"ce4bh9p2rcd13ifvqed0","pricing_plan_id":"cebpf4jnsgd1na2vs0mg"},{"bike_id":"b84b1d45-729e-47db-8c7e-e88abe2948fb","system_id":"levelo_inurba_marseille","lat":43.31708,"lon":5.4241,"is_reserved":false,"is_disabled":false,"rental_uris":{"android":"levelo://app?vid=b84b1d45-729e-47db-8c7e-e88abe2948fb","ios":"levelo://app?vid=b84b1d45-729e-47db-8c7e-e88abe2948fb"},"vehicle_type_id":"4","last_reported":1744182650,"current_range_meters":16800,"station_id":"ce4bhp92rcd13ifvqhbg","pricing_plan_id":"cebpf4jnsgd1na2vs0mg"},{"bike_id":"38023325-341f-417a-970e-05a585c66aee","system_id":"levelo_inurba_marseille","lat":43.29771,"lon":5.37111,"is_reserved":false,"is_disabled":false,"rental_uris":{"android":"levelo://app?vid=38023325-341f-417a-970e-05a585c66aee","ios":"levelo://app?vid=38023325-341f-417a-970e-05a585c66aee"},"vehicle_type_id":"4","last_reported":1744182650,"current_range_meters":14800,"station_id":"ce4bgop2rcd13ifvqc1g","pricing_plan_id":"cebpf4jnsgd1na2vs0mg"},{"bike_id":"7172472e-8ba3-48fd-9f15-197348a66433","system_id":"levelo_inurba_marseille","lat":43.33597,"lon":5.41033,"is_reserved":false,"is_disabled":false,"rental_uris":{"android":"levelo://app?vid=7172472e-8ba3-48fd-9f15-197348a66433","ios":"levelo://app?vid=7172472e-8ba3-48fd-9f15-197348a66433"},"vehicle_type_id":"4","last_reported":1744182650,"current_range_meters":16800,"station_id":"ce4bhqh2rcd13ifvqhmg","pricing_plan_id":"cebpf4jnsgd1na2vs0mg"},{"bike_id":"71a3919b-8525-4f47-a6df-5e0d6eec871b","system_id":"levelo_inurba_marseille","lat":43.32337,"lon":5.40623,"is_reserved":false,"is_disabled":false,"rental_uris":{"android":"levelo://app?vid=71a3919b-8525-4f47-a6df-5e0d6eec871b","ios":"levelo://app?vid=71a3919b-8525-4f47-a6df-5e0d6eec871b"},"vehicle_type_id":"4","last_reported":1744182650,"current_range_meters":16800,"station_id":"ce4bhq92rcd13ifvqhjg","pricing_plan_id":"cebpf4jnsgd1na2vs0mg"},{"bike_id":"800e3e3c-6ab6-48d8-8a69-3938eb1aed86","system_id":"levelo_inurba_marseille","lat":43.31297,"lon":5.37407,"is_reserved":false,"is_disabled":false,"rental_uris":{"android":"levelo://app?vid=800e3e3c-6ab6-48d8-8a69-3938eb1aed86","ios":"levelo://app?vid=800e3e3c-6ab6-48d8-8a69-3938eb1aed86"},"vehicle_type_id":"4","last_reported":1744182650,"current_range_meters":16800,"station_id":"","pricing_plan_id":"cebpf4jnsgd1na2vs0mg"},{"bike_id":"dfdc8419-8f83-4b81-a64d-e6f436c6016c","system_id":"levelo_inurba_marseille","lat":43.25909,"lon":5.40869,"is_reserved":false,"is_disabled":false,"rental_uris":{"android":"levelo://app?vid=dfdc8419-8f83-4b81-a64d-e6f436c6016c","ios":"levelo://app?vid=dfdc8419-8f83-4b81-a64d-e6f436c6016c"},"vehicle_type_id":"4","last_reported":1744182650,"current_range_meters":17200,"station_id":"ce4bhm92rcd13ifvqglg","pricing_plan_id":"cebpf4jnsgd1na2vs0mg"},{"bike_id":"54525f9c-6729-406c-8f5a-fce95e931823","system_id":"levelo_inurba_marseille","lat":43.30439,"lon":5.37862,"is_reserved":false,"is_disabled":false,"rental_uris":{"android":"levelo://app?vid=54525f9c-6729-406c-8f5a-fce95e931823","ios":"levelo://app?vid=54525f9c-6729-406c-8f5a-fce95e931823"},"vehicle_type_id":"4","last_reported":1744182650,"current_range_meters":17200,"station_id":"ce4bgup2rcd13ifvqcn0","pricing_plan_id":"cebpf4jnsgd1na2vs0mg"},{"bike_id":"d3a30278-1fc8-438b-a6b9-b6523acb13c6","system_id":"levelo_inurba_marseille","lat":43.31211,"lon":5.36839,"is_reserved":false,"is_disabled":false,"rental_uris":{"android":"levelo://app?vid=d3a30278-1fc8-438b-a6b9-b6523acb13c6","ios":"levelo://app?vid=d3a30278-1fc8-438b-a6b9-b6523acb13c6"},"vehicle_type_id":"4","last_reported":1744182650,"current_range_meters":17200,"station_id":"ce4bgl92rcd13ifvqbq0","pricing_plan_id":"cebpf4jnsgd1na2vs0mg"},{"bike_id":"9b707f39-8a91-47a1-afe5-0c6d90ae57f5","system_id":"levelo_inurba_marseille","lat":43.30539,"lon":5.36554,"is_reserved":false,"is_disabled":false,"rental_uris":{"android":"levelo://app?vid=9b707f39-8a91-47a1-afe5-0c6d90ae57f5","ios":"levelo://app?vid=9b707f39-8a91-47a1-afe5-0c6d90ae57f5"},"vehicle_type_id":"4","last_reported":1744182650,"current_range_meters":17200,"station_id":"ce4bgs12rcd13ifvqcag","pricing_plan_id":"cebpf4jnsgd1na2vs0mg"},{"bike_id":"33c6f353-0166-4c8c-af82-a2e0d1d8c75d","system_id":"levelo_inurba_marseille","lat":43.330028,"lon":5.438524,"is_reserved":false,"is_disabled":false,"rental_uris":{"android":"levelo://app?vid=33c6f353-0166-4c8c-af82-a2e0d1d8c75d","ios":"levelo://app?vid=33c6f353-0166-4c8c-af82-a2e0d1d8c75d"},"vehicle_type_id":"4","last_reported":1744182650,"current_range_meters":17200,"station_id":"","pricing_plan_id":"cebpf4jnsgd1na2vs0mg"},{"bike_id":"09bddc24-4c9d-460f-8967-e90ee5c88b43","system_id":"levelo_inurba_marseille","lat":43.31338,"lon":5.39724,"is_reserved":false,"is_disabled":true,"rental_uris":{"android":"levelo://app?vid=09bddc24-4c9d-460f-8967-e90ee5c88b43","ios":"levelo://app?vid=09bddc24-4c9d-460f-8967-e90ee5c88b43"},"vehicle_type_id":"4","last_reported":1744182650,"current_range_meters":17200,"station_id":"ce4bgvp2rcd13ifvqcu0","pricing_plan_id":"cebpf4jnsgd1na2vs0mg"},{"bike_id":"dbe3829c-87de-4dcb-ae68-51210399e327","system_id":"levelo_inurba_marseille","lat":43.26706,"lon":5.38274,"is_reserved":false,"is_disabled":false,"rental_uris":{"android":"levelo://app?vid=dbe3829c-87de-4dcb-ae68-51210399e327","ios":"levelo://app?vid=dbe3829c-87de-4dcb-ae68-51210399e327"},"vehicle_type_id":"4","last_reported":1744182650,"current_range_meters":17600,"station_id":"ce4bhg92rcd13ifvqf90","pricing_plan_id":"cebpf4jnsgd1na2vs0mg"},{"bike_id":"42c1fdc6-38af-4ea1-a910-702e15d5a9b4","system_id":"levelo_inurba_marseille","lat":43.30928,"lon":5.40145,"is_reserved":false,"is_disabled":true,"rental_uris":{"android":"levelo://app?vid=42c1fdc6-38af-4ea1-a910-702e15d5a9b4","ios":"levelo://app?vid=42c1fdc6-38af-4ea1-a910-702e15d5a9b4"},"vehicle_type_id":"4","last_reported":1744182650,"current_range_meters":17600,"station_id":"ce4bgvp2rcd13ifvqct0","pricing_plan_id":"cebpf4jnsgd1na2vs0mg"},{"bike_id":"7d26dd58-fa81-459e-8f81-a55b8206dea7","system_id":"levelo_inurba_marseille","lat":43.26222,"lon":5.4046,"is_reserved":false,"is_disabled":false,"rental_uris":{"android":"levelo://app?vid=7d26dd58-fa81-459e-8f81-a55b8206dea7","ios":"levelo://app?vid=7d26dd58-fa81-459e-8f81-a55b8206dea7"},"vehicle_type_id":"4","last_reported":1744182650,"current_range_meters":17600,"station_id":"ce4bhmh2rcd13ifvqgmg","pricing_plan_id":"cebpf4jnsgd1na2vs0mg"},{"bike_id":"c55184d3-fbbd-4f0a-a6fc-c4d88e36e900","system_id":"levelo_inurba_marseille","lat":43.30521,"lon":5.3654,"is_reserved":false,"is_disabled":false,"rental_uris":{"android":"levelo://app?vid=c55184d3-fbbd-4f0a-a6fc-c4d88e36e900","ios":"levelo://app?vid=c55184d3-fbbd-4f0a-a6fc-c4d88e36e900"},"vehicle_type_id":"4","last_reported":1744182650,"current_range_meters":17600,"station_id":"ce4bgs12rcd13ifvqcag","pricing_plan_id":"cebpf4jnsgd1na2vs0mg"},{"bike_id":"29fa4859-90f2-49bc-b9c2-fc4f3f694348","system_id":"levelo_inurba_marseille","lat":43.28144,"lon":5.42645,"is_reserved":false,"is_disabled":false,"rental_uris":{"android":"levelo://app?vid=29fa4859-90f2-49bc-b9c2-fc4f3f694348","ios":"levelo://app?vid=29fa4859-90f2-49bc-b9c2-fc4f3f694348"},"vehicle_type_id":"4","last_reported":1744182650,"current_range_meters":18000,"station_id":"ce4bhnh2rcd13ifvqgug","pricing_plan_id":"cebpf4jnsgd1na2vs0mg"},{"bike_id":"1a3cd0ab-ec77-41b3-982c-74e5093499a8","system_id":"levelo_inurba_marseille","lat":43.30444,"lon":5.38912,"is_reserved":false,"is_disabled":true,"rental_uris":{"android":"levelo://app?vid=1a3cd0ab-ec77-41b3-982c-74e5093499a8","ios":"levelo://app?vid=1a3cd0ab-ec77-41b3-982c-74e5093499a8"},"vehicle_type_id":"4","last_reported":1744182650,"current_range_meters":18000,"station_id":"ce4bgk12rcd13ifvqbi0","pricing_plan_id":"cebpf4jnsgd1na2vs0mg"},{"bike_id":"1ead5282-198c-45a7-8b5a-420af1a90397","system_id":"levelo_inurba_marseille","lat":43.2648,"lon":5.39564,"is_reserved":false,"is_disabled":false,"rental_uris":{"android":"levelo://app?vid=1ead5282-198c-45a7-8b5a-420af1a90397","ios":"levelo://app?vid=1ead5282-198c-45a7-8b5a-420af1a90397"},"vehicle_type_id":"4","last_reported":1744182650,"current_range_meters":18000,"station_id":"ce4bhi12rcd13ifvqfq0","pricing_plan_id":"cebpf4jnsgd1na2vs0mg"},{"bike_id":"279f34e3-d8a3-4e44-9a92-e9057a9e5436","system_id":"levelo_inurba_marseille","lat":43.281528,"lon":5.426487,"is_reserved":false,"is_disabled":false,"rental_uris":{"android":"levelo://app?vid=279f34e3-d8a3-4e44-9a92-e9057a9e5436","ios":"levelo://app?vid=279f34e3-d8a3-4e44-9a92-e9057a9e5436"},"vehicle_type_id":"4","last_reported":1744182650,"current_range_meters":18000,"station_id":"ce4bhnh2rcd13ifvqgug","pricing_plan_id":"cebpf4jnsgd1na2vs0mg"},{"bike_id":"af2f1370-6ca4-41f1-acda-09dc04497331","system_id":"levelo_inurba_marseille","lat":43.30947,"lon":5.39045,"is_reserved":false,"is_disabled":false,"rental_uris":{"android":"levelo://app?vid=af2f1370-6ca4-41f1-acda-09dc04497331","ios":"levelo://app?vid=af2f1370-6ca4-41f1-acda-09dc04497331"},"vehicle_type_id":"4","last_reported":1744182650,"current_range_meters":18000,"station_id":"ce4bgup2rcd13ifvqco0","pricing_plan_id":"cebpf4jnsgd1na2vs0mg"},{"bike_id":"db99b5ef-9997-42f8-9da0-7b34570f55ad","system_id":"levelo_inurba_marseille","lat":43.29509,"lon":5.39044,"is_reserved":false,"is_disabled":false,"rental_uris":{"android":"levelo://app?vid=db99b5ef-9997-42f8-9da0-7b34570f55ad","ios":"levelo://app?vid=db99b5ef-9997-42f8-9da0-7b34570f55ad"},"vehicle_type_id":"4","last_reported":1744182650,"current_range_meters":18000,"station_id":"ce4bh3p2rcd13ifvqdp0","pricing_plan_id":"cebpf4jnsgd1na2vs0mg"},{"bike_id":"49ed977d-4520-4b90-b36a-e0d0ae893a6d","system_id":"levelo_inurba_marseille","lat":43.25933,"lon":5.40912,"is_reserved":false,"is_disabled":false,"rental_uris":{"android":"levelo://app?vid=49ed977d-4520-4b90-b36a-e0d0ae893a6d","ios":"levelo://app?vid=49ed977d-4520-4b90-b36a-e0d0ae893a6d"},"vehicle_type_id":"4","last_reported":1744182650,"current_range_meters":18800,"station_id":"ce4bhm92rcd13ifvqglg","pricing_plan_id":"cebpf4jnsgd1na2vs0mg"},{"bike_id":"aa2c077b-94a8-4ca8-a1bd-72df56270d30","system_id":"levelo_inurba_marseille","lat":43.25572,"lon":5.38241,"is_reserved":false,"is_disabled":false,"rental_uris":{"android":"levelo://app?vid=aa2c077b-94a8-4ca8-a1bd-72df56270d30","ios":"levelo://app?vid=aa2c077b-94a8-4ca8-a1bd-72df56270d30"},"vehicle_type_id":"4","last_reported":1744182650,"current_range_meters":18800,"station_id":"ce4bhih2rcd13ifvqfs0","pricing_plan_id":"cebpf4jnsgd1na2vs0mg"},{"bike_id":"fa477fc6-79dd-4e99-aaec-50469d223987","system_id":"levelo_inurba_marseille","lat":43.32057,"lon":5.41572,"is_reserved":false,"is_disabled":false,"rental_uris":{"android":"levelo://app?vid=fa477fc6-79dd-4e99-aaec-50469d223987","ios":"levelo://app?vid=fa477fc6-79dd-4e99-aaec-50469d223987"},"vehicle_type_id":"4","last_reported":1744182650,"current_range_meters":18800,"station_id":"ce4bhq92rcd13ifvqhkg","pricing_plan_id":"cebpf4jnsgd1na2vs0mg"},{"bike_id":"fc7351d1-c511-4235-af03-bbf58aab542a","system_id":"levelo_inurba_marseille","lat":43.30792,"lon":5.38186,"is_reserved":false,"is_disabled":false,"rental_uris":{"android":"levelo://app?vid=fc7351d1-c511-4235-af03-bbf58aab542a","ios":"levelo://app?vid=fc7351d1-c511-4235-af03-bbf58aab542a"},"vehicle_type_id":"4","last_reported":1744182650,"current_range_meters":18800,"station_id":"ce4bgt12rcd13ifvqce0","pricing_plan_id":"cebpf4jnsgd1na2vs0mg"},{"bike_id":"19a78bfc-d7ad-4762-aec6-4c599c037b06","system_id":"levelo_inurba_marseille","lat":43.24181,"lon":5.39741,"is_reserved":false,"is_disabled":false,"rental_uris":{"android":"levelo://app?vid=19a78bfc-d7ad-4762-aec6-4c599c037b06","ios":"levelo://app?vid=19a78bfc-d7ad-4762-aec6-4c599c037b06"},"vehicle_type_id":"4","last_reported":1744182650,"current_range_meters":18800,"station_id":"ce4bhn12rcd13ifvqgpg","pricing_plan_id":"cebpf4jnsgd1na2vs0mg"},{"bike_id":"87ab692f-7e6c-44e0-9ec5-fabf3fa42fc1","system_id":"levelo_inurba_marseille","lat":43.292847,"lon":5.368424,"is_reserved":false,"is_disabled":false,"rental_uris":{"android":"levelo://app?vid=87ab692f-7e6c-44e0-9ec5-fabf3fa42fc1","ios":"levelo://app?vid=87ab692f-7e6c-44e0-9ec5-fabf3fa42fc1"},"vehicle_type_id":"4","last_reported":1744182650,"current_range_meters":20000,"station_id":"ce4bh192rcd13ifvqdd0","pricing_plan_id":"cebpf4jnsgd1na2vs0mg"},{"bike_id":"2ab54020-df93-4f6b-8cd1-9b0e84795bda","system_id":"levelo_inurba_marseille","lat":43.3052,"lon":5.36563,"is_reserved":false,"is_disabled":false,"rental_uris":{"android":"levelo://app?vid=2ab54020-df93-4f6b-8cd1-9b0e84795bda","ios":"levelo://app?vid=2ab54020-df93-4f6b-8cd1-9b0e84795bda"},"vehicle_type_id":"4","last_reported":1744182650,"current_range_meters":19200,"station_id":"ce4bgs12rcd13ifvqcag","pricing_plan_id":"cebpf4jnsgd1na2vs0mg"},{"bike_id":"4991589d-bcb1-4bfb-8d3e-5c59c6458a3d","system_id":"levelo_inurba_marseille","lat":43.344079,"lon":5.380586,"is_reserved":false,"is_disabled":false,"rental_uris":{"android":"levelo://app?vid=4991589d-bcb1-4bfb-8d3e-5c59c6458a3d","ios":"levelo://app?vid=4991589d-bcb1-4bfb-8d3e-5c59c6458a3d"},"vehicle_type_id":"4","last_reported":1744182650,"current_range_meters":19200,"station_id":"","pricing_plan_id":"cebpf4jnsgd1na2vs0mg"},{"bike_id":"9dd4623a-1856-4da1-b6f2-575f4b7a0640","system_id":"levelo_inurba_marseille","lat":43.23147,"lon":5.43722,"is_reserved":false,"is_disabled":false,"rental_uris":{"android":"levelo://app?vid=9dd4623a-1856-4da1-b6f2-575f4b7a0640","ios":"levelo://app?vid=9dd4623a-1856-4da1-b6f2-575f4b7a0640"},"vehicle_type_id":"4","last_reported":1744182650,"current_range_meters":19200,"station_id":"ce4bhmp2rcd13ifvqgog","pricing_plan_id":"cebpf4jnsgd1na2vs0mg"},{"bike_id":"d5c484d7-66b4-4edf-90a8-f79958784e4a","system_id":"levelo_inurba_marseille","lat":43.30118,"lon":5.37409,"is_reserved":false,"is_disabled":false,"rental_uris":{"android":"levelo://app?vid=d5c484d7-66b4-4edf-90a8-f79958784e4a","ios":"levelo://app?vid=d5c484d7-66b4-4edf-90a8-f79958784e4a"},"vehicle_type_id":"4","last_reported":1744182650,"current_range_meters":19200,"station_id":"ce4bgs92rcd13ifvqcc0","pricing_plan_id":"cebpf4jnsgd1na2vs0mg"},{"bike_id":"ee3c03b2-9a4c-4654-a28e-7388f571d9cb","system_id":"levelo_inurba_marseille","lat":43.32004,"lon":5.3817,"is_reserved":false,"is_disabled":true,"rental_uris":{"android":"levelo://app?vid=ee3c03b2-9a4c-4654-a28e-7388f571d9cb","ios":"levelo://app?vid=ee3c03b2-9a4c-4654-a28e-7388f571d9cb"},"vehicle_type_id":"4","last_reported":1744182650,"current_range_meters":19600,"station_id":"ce4bhr12rcd13ifvqhpg","pricing_plan_id":"cebpf4jnsgd1na2vs0mg"},{"bike_id":"fa60a937-6c91-4585-a028-8394b67693ff","system_id":"levelo_inurba_marseille","lat":43.28151,"lon":5.42671,"is_reserved":false,"is_disabled":false,"rental_uris":{"android":"levelo://app?vid=fa60a937-6c91-4585-a028-8394b67693ff","ios":"levelo://app?vid=fa60a937-6c91-4585-a028-8394b67693ff"},"vehicle_type_id":"4","last_reported":1744182650,"current_range_meters":19600,"station_id":"ce4bhnh2rcd13ifvqgug","pricing_plan_id":"cebpf4jnsgd1na2vs0mg"},{"bike_id":"200e8968-e526-4430-89c8-a797c26eb8d5","system_id":"levelo_inurba_marseille","lat":43.29348,"lon":5.37866,"is_reserved":false,"is_disabled":false,"rental_uris":{"android":"levelo://app?vid=200e8968-e526-4430-89c8-a797c26eb8d5","ios":"levelo://app?vid=200e8968-e526-4430-89c8-a797c26eb8d5"},"vehicle_type_id":"4","last_reported":1744182650,"current_range_meters":19200,"station_id":"ce4bgjh2rcd13ifvqbf0","pricing_plan_id":"cebpf4jnsgd1na2vs0mg"},{"bike_id":"ed32de37-66e8-4fe8-b613-74f9e5810cd6","system_id":"levelo_inurba_marseille","lat":43.31147,"lon":5.37355,"is_reserved":false,"is_disabled":false,"rental_uris":{"android":"levelo://app?vid=ed32de37-66e8-4fe8-b613-74f9e5810cd6","ios":"levelo://app?vid=ed32de37-66e8-4fe8-b613-74f9e5810cd6"},"vehicle_type_id":"4","last_reported":1744182650,"current_range_meters":19600,"station_id":"","pricing_plan_id":"cebpf4jnsgd1na2vs0mg"},{"bike_id":"600aff3c-d6d9-47d1-a6ea-813390aae2ad","system_id":"levelo_inurba_marseille","lat":43.30861,"lon":5.37191,"is_reserved":false,"is_disabled":true,"rental_uris":{"android":"levelo://app?vid=600aff3c-d6d9-47d1-a6ea-813390aae2ad","ios":"levelo://app?vid=600aff3c-d6d9-47d1-a6ea-813390aae2ad"},"vehicle_type_id":"4","last_reported":1744182650,"current_range_meters":19600,"station_id":"ce4bguh2rcd13ifvqckg","pricing_plan_id":"cebpf4jnsgd1na2vs0mg"},{"bike_id":"f610d6ec-450f-424a-92a9-d6c866c2cf50","system_id":"levelo_inurba_marseille","lat":43.2903,"lon":5.39969,"is_reserved":false,"is_disabled":false,"rental_uris":{"android":"levelo://app?vid=f610d6ec-450f-424a-92a9-d6c866c2cf50","ios":"levelo://app?vid=f610d6ec-450f-424a-92a9-d6c866c2cf50"},"vehicle_type_id":"4","last_reported":1744182650,"current_range_meters":19600,"station_id":"ce4bh392rcd13ifvqdm0","pricing_plan_id":"cebpf4jnsgd1na2vs0mg"},{"bike_id":"363de5a6-cf4b-4f5e-ad44-58029820d432","system_id":"levelo_inurba_marseille","lat":43.305389,"lon":5.367208,"is_reserved":false,"is_disabled":false,"rental_uris":{"android":"levelo://app?vid=363de5a6-cf4b-4f5e-ad44-58029820d432","ios":"levelo://app?vid=363de5a6-cf4b-4f5e-ad44-58029820d432"},"vehicle_type_id":"4","last_reported":1744182650,"current_range_meters":19600,"station_id":"ce4bgrp2rcd13ifvqc9g","pricing_plan_id":"cebpf4jnsgd1na2vs0mg"},{"bike_id":"7fdabec5-a302-4325-baf7-e267db476a4f","system_id":"levelo_inurba_marseille","lat":43.298789,"lon":5.397416,"is_reserved":false,"is_disabled":true,"rental_uris":{"android":"levelo://app?vid=7fdabec5-a302-4325-baf7-e267db476a4f","ios":"levelo://app?vid=7fdabec5-a302-4325-baf7-e267db476a4f"},"vehicle_type_id":"4","last_reported":1744182650,"current_range_meters":20000,"station_id":"ce4bh0h2rcd13ifvqd50","pricing_plan_id":"cebpf4jnsgd1na2vs0mg"},{"bike_id":"6d9c2bf1-717f-4ecf-a8f5-17799735139b","system_id":"levelo_inurba_marseille","lat":43.26494,"lon":5.39551,"is_reserved":false,"is_disabled":false,"rental_uris":{"android":"levelo://app?vid=6d9c2bf1-717f-4ecf-a8f5-17799735139b","ios":"levelo://app?vid=6d9c2bf1-717f-4ecf-a8f5-17799735139b"},"vehicle_type_id":"4","last_reported":1744182650,"current_range_meters":20000,"station_id":"ce4bhi12rcd13ifvqfq0","pricing_plan_id":"cebpf4jnsgd1na2vs0mg"},{"bike_id":"b7371aeb-5a31-4914-bd4b-08fd8cbfda5b","system_id":"levelo_inurba_marseille","lat":43.30277,"lon":5.37718,"is_reserved":false,"is_disabled":false,"rental_uris":{"android":"levelo://app?vid=b7371aeb-5a31-4914-bd4b-08fd8cbfda5b","ios":"levelo://app?vid=b7371aeb-5a31-4914-bd4b-08fd8cbfda5b"},"vehicle_type_id":"4","last_reported":1744182650,"current_range_meters":20000,"station_id":"ce4bguh2rcd13ifvqcj0","pricing_plan_id":"cebpf4jnsgd1na2vs0mg"},{"bike_id":"ca10140c-af68-4b30-8284-fec34283cd98","system_id":"levelo_inurba_marseille","lat":43.307968,"lon":5.381582,"is_reserved":false,"is_disabled":false,"rental_uris":{"android":"levelo://app?vid=ca10140c-af68-4b30-8284-fec34283cd98","ios":"levelo://app?vid=ca10140c-af68-4b30-8284-fec34283cd98"},"vehicle_type_id":"4","last_reported":1744182650,"current_range_meters":20000,"station_id":"ce4bgt12rcd13ifvqce0","pricing_plan_id":"cebpf4jnsgd1na2vs0mg"},{"bike_id":"0af41378-490b-4082-a76f-6598e96ab451","system_id":"levelo_inurba_marseille","lat":43.24175,"lon":5.39729,"is_reserved":false,"is_disabled":false,"rental_uris":{"android":"levelo://app?vid=0af41378-490b-4082-a76f-6598e96ab451","ios":"levelo://app?vid=0af41378-490b-4082-a76f-6598e96ab451"},"vehicle_type_id":"4","last_reported":1744182650,"current_range_meters":20400,"station_id":"ce4bhn12rcd13ifvqgpg","pricing_plan_id":"cebpf4jnsgd1na2vs0mg"},{"bike_id":"1006b375-f33b-4d86-9c2d-a03b2c58365f","system_id":"levelo_inurba_marseille","lat":43.29259,"lon":5.37632,"is_reserved":false,"is_disabled":false,"rental_uris":{"android":"levelo://app?vid=1006b375-f33b-4d86-9c2d-a03b2c58365f","ios":"levelo://app?vid=1006b375-f33b-4d86-9c2d-a03b2c58365f"},"vehicle_type_id":"4","last_reported":1744182650,"current_range_meters":20400,"station_id":"ce4bgi12rcd13ifvqb80","pricing_plan_id":"cebpf4jnsgd1na2vs0mg"},{"bike_id":"b740f97e-a841-4ae8-af39-381c98bceb83","system_id":"levelo_inurba_marseille","lat":43.30908,"lon":5.36848,"is_reserved":false,"is_disabled":false,"rental_uris":{"android":"levelo://app?vid=b740f97e-a841-4ae8-af39-381c98bceb83","ios":"levelo://app?vid=b740f97e-a841-4ae8-af39-381c98bceb83"},"vehicle_type_id":"4","last_reported":1744182650,"current_range_meters":20400,"station_id":"ce4bgn92rcd13ifvqbvg","pricing_plan_id":"cebpf4jnsgd1na2vs0mg"},{"bike_id":"ef291804-1477-432e-b153-82ea15725418","system_id":"levelo_inurba_marseille","lat":43.33774,"lon":5.37471,"is_reserved":false,"is_disabled":false,"rental_uris":{"android":"levelo://app?vid=ef291804-1477-432e-b153-82ea15725418","ios":"levelo://app?vid=ef291804-1477-432e-b153-82ea15725418"},"vehicle_type_id":"4","last_reported":1744182650,"current_range_meters":20400,"station_id":"","pricing_plan_id":"cebpf4jnsgd1na2vs0mg"},{"bike_id":"322304d1-7d02-4c63-ab56-b472942145f1","system_id":"levelo_inurba_marseille","lat":43.32664,"lon":5.40997,"is_reserved":false,"is_disabled":false,"rental_uris":{"android":"levelo://app?vid=322304d1-7d02-4c63-ab56-b472942145f1","ios":"levelo://app?vid=322304d1-7d02-4c63-ab56-b472942145f1"},"vehicle_type_id":"4","last_reported":1744182650,"current_range_meters":20400,"station_id":"ce4bhpp2rcd13ifvqhgg","pricing_plan_id":"cebpf4jnsgd1na2vs0mg"},{"bike_id":"c51ff168-1417-4963-901e-87fddeb1f856","system_id":"levelo_inurba_marseille","lat":43.33791,"lon":5.37456,"is_reserved":false,"is_disabled":false,"rental_uris":{"android":"levelo://app?vid=c51ff168-1417-4963-901e-87fddeb1f856","ios":"levelo://app?vid=c51ff168-1417-4963-901e-87fddeb1f856"},"vehicle_type_id":"4","last_reported":1744182650,"current_range_meters":20400,"station_id":"","pricing_plan_id":"cebpf4jnsgd1na2vs0mg"},{"bike_id":"afa27456-5821-4afc-b36e-dc5b5eba31a3","system_id":"levelo_inurba_marseille","lat":43.28482,"lon":5.38557,"is_reserved":false,"is_disabled":false,"rental_uris":{"android":"levelo://app?vid=afa27456-5821-4afc-b36e-dc5b5eba31a3","ios":"levelo://app?vid=afa27456-5821-4afc-b36e-dc5b5eba31a3"},"vehicle_type_id":"4","last_reported":1744182650,"current_range_meters":20400,"station_id":"ce4bh8p2rcd13ifvqeb0","pricing_plan_id":"cebpf4jnsgd1na2vs0mg"},{"bike_id":"0654064b-f9d2-43bf-bdea-da165d4b2e3a","system_id":"levelo_inurba_marseille","lat":43.26062,"lon":5.39402,"is_reserved":false,"is_disabled":false,"rental_uris":{"android":"levelo://app?vid=0654064b-f9d2-43bf-bdea-da165d4b2e3a","ios":"levelo://app?vid=0654064b-f9d2-43bf-bdea-da165d4b2e3a"},"vehicle_type_id":"4","last_reported":1744182650,"current_range_meters":20400,"station_id":"ce4bhh92rcd13ifvqfj0","pricing_plan_id":"cebpf4jnsgd1na2vs0mg"},{"bike_id":"0ffbce88-4600-4815-925f-bea12cc7806b","system_id":"levelo_inurba_marseille","lat":43.25723,"lon":5.41113,"is_reserved":false,"is_disabled":false,"rental_uris":{"android":"levelo://app?vid=0ffbce88-4600-4815-925f-bea12cc7806b","ios":"levelo://app?vid=0ffbce88-4600-4815-925f-bea12cc7806b"},"vehicle_type_id":"4","last_reported":1744182650,"current_range_meters":20400,"station_id":"ce4bhkp2rcd13ifvqgd0","pricing_plan_id":"cebpf4jnsgd1na2vs0mg"},{"bike_id":"39d569f2-804d-4c1f-93cb-ffdd8bba0563","system_id":"levelo_inurba_marseille","lat":43.30561,"lon":5.38441,"is_reserved":false,"is_disabled":true,"rental_uris":{"android":"levelo://app?vid=39d569f2-804d-4c1f-93cb-ffdd8bba0563","ios":"levelo://app?vid=39d569f2-804d-4c1f-93cb-ffdd8bba0563"},"vehicle_type_id":"4","last_reported":1744182650,"current_range_meters":20800,"station_id":"ce4bgg92rcd13ifvqb30","pricing_plan_id":"cebpf4jnsgd1na2vs0mg"},{"bike_id":"9f53001e-d7cf-46a4-818a-0cf840590556","system_id":"levelo_inurba_marseille","lat":43.27961,"lon":5.38722,"is_reserved":false,"is_disabled":false,"rental_uris":{"android":"levelo://app?vid=9f53001e-d7cf-46a4-818a-0cf840590556","ios":"levelo://app?vid=9f53001e-d7cf-46a4-818a-0cf840590556"},"vehicle_type_id":"4","last_reported":1744182650,"current_range_meters":22000,"station_id":"ce4bhg12rcd13ifvqf80","pricing_plan_id":"cebpf4jnsgd1na2vs0mg"},{"bike_id":"87070a76-8d9a-4bee-8346-3ec803fc4d2d","system_id":"levelo_inurba_marseille","lat":43.31504,"lon":5.37287,"is_reserved":false,"is_disabled":false,"rental_uris":{"android":"levelo://app?vid=87070a76-8d9a-4bee-8346-3ec803fc4d2d","ios":"levelo://app?vid=87070a76-8d9a-4bee-8346-3ec803fc4d2d"},"vehicle_type_id":"4","last_reported":1744182650,"current_range_meters":21600,"station_id":"ce4bgt12rcd13ifvqcd0","pricing_plan_id":"cebpf4jnsgd1na2vs0mg"},{"bike_id":"d34074d4-a342-4962-82cd-16a539a91b15","system_id":"levelo_inurba_marseille","lat":43.30797,"lon":5.38164,"is_reserved":false,"is_disabled":false,"rental_uris":{"android":"levelo://app?vid=d34074d4-a342-4962-82cd-16a539a91b15","ios":"levelo://app?vid=d34074d4-a342-4962-82cd-16a539a91b15"},"vehicle_type_id":"4","last_reported":1744182650,"current_range_meters":20800,"station_id":"ce4bgt12rcd13ifvqce0","pricing_plan_id":"cebpf4jnsgd1na2vs0mg"},{"bike_id":"231aaa88-1e79-4a74-a543-651d8fd5a027","system_id":"levelo_inurba_marseille","lat":43.33081,"lon":5.40503,"is_reserved":false,"is_disabled":false,"rental_uris":{"android":"levelo://app?vid=231aaa88-1e79-4a74-a543-651d8fd5a027","ios":"levelo://app?vid=231aaa88-1e79-4a74-a543-651d8fd5a027"},"vehicle_type_id":"4","last_reported":1744182650,"current_range_meters":20800,"station_id":"","pricing_plan_id":"cebpf4jnsgd1na2vs0mg"},{"bike_id":"24da7256-b387-456a-bef4-db9262008e97","system_id":"levelo_inurba_marseille","lat":43.32328,"lon":5.40625,"is_reserved":false,"is_disabled":false,"rental_uris":{"android":"levelo://app?vid=24da7256-b387-456a-bef4-db9262008e97","ios":"levelo://app?vid=24da7256-b387-456a-bef4-db9262008e97"},"vehicle_type_id":"4","last_reported":1744182650,"current_range_meters":20800,"station_id":"ce4bhq92rcd13ifvqhjg","pricing_plan_id":"cebpf4jnsgd1na2vs0mg"},{"bike_id":"2b0005cd-0321-495f-85c3-6f071287759d","system_id":"levelo_inurba_marseille","lat":43.27616,"lon":5.36112,"is_reserved":false,"is_disabled":false,"rental_uris":{"android":"levelo://app?vid=2b0005cd-0321-495f-85c3-6f071287759d","ios":"levelo://app?vid=2b0005cd-0321-495f-85c3-6f071287759d"},"vehicle_type_id":"4","last_reported":1744182650,"current_range_meters":20800,"station_id":"ce4bgj92rcd13ifvqbe0","pricing_plan_id":"cebpf4jnsgd1na2vs0mg"},{"bike_id":"2b54a496-5bb2-42c4-bb01-6f1e5c2215a7","system_id":"levelo_inurba_marseille","lat":43.30794,"lon":5.37712,"is_reserved":false,"is_disabled":true,"rental_uris":{"android":"levelo://app?vid=2b54a496-5bb2-42c4-bb01-6f1e5c2215a7","ios":"levelo://app?vid=2b54a496-5bb2-42c4-bb01-6f1e5c2215a7"},"vehicle_type_id":"4","last_reported":1744182650,"current_range_meters":20800,"station_id":"","pricing_plan_id":"cebpf4jnsgd1na2vs0mg"},{"bike_id":"95c89bf5-9bd1-4544-8009-53cea032ab95","system_id":"levelo_inurba_marseille","lat":43.308005,"lon":5.381576,"is_reserved":false,"is_disabled":false,"rental_uris":{"android":"levelo://app?vid=95c89bf5-9bd1-4544-8009-53cea032ab95","ios":"levelo://app?vid=95c89bf5-9bd1-4544-8009-53cea032ab95"},"vehicle_type_id":"4","last_reported":1744182650,"current_range_meters":20800,"station_id":"ce4bgt12rcd13ifvqce0","pricing_plan_id":"cebpf4jnsgd1na2vs0mg"},{"bike_id":"6c63e1cd-38d4-4380-9c7d-06de55597b25","system_id":"levelo_inurba_marseille","lat":43.23147,"lon":5.43718,"is_reserved":false,"is_disabled":false,"rental_uris":{"android":"levelo://app?vid=6c63e1cd-38d4-4380-9c7d-06de55597b25","ios":"levelo://app?vid=6c63e1cd-38d4-4380-9c7d-06de55597b25"},"vehicle_type_id":"4","last_reported":1744182650,"current_range_meters":21600,"station_id":"ce4bhmp2rcd13ifvqgog","pricing_plan_id":"cebpf4jnsgd1na2vs0mg"},{"bike_id":"30988a79-2f38-4010-963e-f37ee8bc05e6","system_id":"levelo_inurba_marseille","lat":43.29575,"lon":5.37511,"is_reserved":false,"is_disabled":false,"rental_uris":{"android":"levelo://app?vid=30988a79-2f38-4010-963e-f37ee8bc05e6","ios":"levelo://app?vid=30988a79-2f38-4010-963e-f37ee8bc05e6"},"vehicle_type_id":"4","last_reported":1744182650,"current_range_meters":21600,"station_id":"ce4bgh92rcd13ifvqb50","pricing_plan_id":"cebpf4jnsgd1na2vs0mg"},{"bike_id":"837be582-9839-41e8-99cf-e4080b26b76d","system_id":"levelo_inurba_marseille","lat":43.31827,"lon":5.43527,"is_reserved":false,"is_disabled":true,"rental_uris":{"android":"levelo://app?vid=837be582-9839-41e8-99cf-e4080b26b76d","ios":"levelo://app?vid=837be582-9839-41e8-99cf-e4080b26b76d"},"vehicle_type_id":"4","last_reported":1744182650,"current_range_meters":21600,"station_id":"","pricing_plan_id":"cebpf4jnsgd1na2vs0mg"},{"bike_id":"f70a340f-a06b-484a-a258-14c533857355","system_id":"levelo_inurba_marseille","lat":43.25937,"lon":5.40903,"is_reserved":false,"is_disabled":false,"rental_uris":{"android":"levelo://app?vid=f70a340f-a06b-484a-a258-14c533857355","ios":"levelo://app?vid=f70a340f-a06b-484a-a258-14c533857355"},"vehicle_type_id":"4","last_reported":1744182650,"current_range_meters":21600,"station_id":"ce4bhm92rcd13ifvqglg","pricing_plan_id":"cebpf4jnsgd1na2vs0mg"},{"bike_id":"7329d2e7-569f-446a-843d-cf46f7af0446","system_id":"levelo_inurba_marseille","lat":43.27939,"lon":5.41043,"is_reserved":false,"is_disabled":false,"rental_uris":{"android":"levelo://app?vid=7329d2e7-569f-446a-843d-cf46f7af0446","ios":"levelo://app?vid=7329d2e7-569f-446a-843d-cf46f7af0446"},"vehicle_type_id":"4","last_reported":1744182650,"current_range_meters":21600,"station_id":"ce4bhnp2rcd13ifvqh0g","pricing_plan_id":"cebpf4jnsgd1na2vs0mg"},{"bike_id":"509b175b-3c7c-49aa-9e2c-ce922a8006af","system_id":"levelo_inurba_marseille","lat":43.23149,"lon":5.43717,"is_reserved":false,"is_disabled":false,"rental_uris":{"android":"levelo://app?vid=509b175b-3c7c-49aa-9e2c-ce922a8006af","ios":"levelo://app?vid=509b175b-3c7c-49aa-9e2c-ce922a8006af"},"vehicle_type_id":"4","last_reported":1744182650,"current_range_meters":21600,"station_id":"ce4bhmp2rcd13ifvqgog","pricing_plan_id":"cebpf4jnsgd1na2vs0mg"},{"bike_id":"0ce0317b-4600-4219-b71c-6b0d5ae3a6ef","system_id":"levelo_inurba_marseille","lat":43.259126,"lon":5.409419,"is_reserved":false,"is_disabled":false,"rental_uris":{"android":"levelo://app?vid=0ce0317b-4600-4219-b71c-6b0d5ae3a6ef","ios":"levelo://app?vid=0ce0317b-4600-4219-b71c-6b0d5ae3a6ef"},"vehicle_type_id":"4","last_reported":1744182650,"current_range_meters":21600,"station_id":"ce4bhm92rcd13ifvqglg","pricing_plan_id":"cebpf4jnsgd1na2vs0mg"},{"bike_id":"7527df61-7f8c-4c27-a819-64faba231ba2","system_id":"levelo_inurba_marseille","lat":43.29521,"lon":5.39037,"is_reserved":false,"is_disabled":false,"rental_uris":{"android":"levelo://app?vid=7527df61-7f8c-4c27-a819-64faba231ba2","ios":"levelo://app?vid=7527df61-7f8c-4c27-a819-64faba231ba2"},"vehicle_type_id":"4","last_reported":1744182650,"current_range_meters":21600,"station_id":"ce4bh3p2rcd13ifvqdp0","pricing_plan_id":"cebpf4jnsgd1na2vs0mg"},{"bike_id":"1c6758df-1dec-402b-8cbf-a82c76304e5d","system_id":"levelo_inurba_marseille","lat":43.24179,"lon":5.39726,"is_reserved":false,"is_disabled":false,"rental_uris":{"android":"levelo://app?vid=1c6758df-1dec-402b-8cbf-a82c76304e5d","ios":"levelo://app?vid=1c6758df-1dec-402b-8cbf-a82c76304e5d"},"vehicle_type_id":"4","last_reported":1744182650,"current_range_meters":21600,"station_id":"ce4bhn12rcd13ifvqgpg","pricing_plan_id":"cebpf4jnsgd1na2vs0mg"},{"bike_id":"8c34266e-d14b-42b9-bdf9-400ba4c89c1a","system_id":"levelo_inurba_marseille","lat":43.30124,"lon":5.37417,"is_reserved":false,"is_disabled":false,"rental_uris":{"android":"levelo://app?vid=8c34266e-d14b-42b9-bdf9-400ba4c89c1a","ios":"levelo://app?vid=8c34266e-d14b-42b9-bdf9-400ba4c89c1a"},"vehicle_type_id":"4","last_reported":1744182650,"current_range_meters":21600,"station_id":"ce4bgs92rcd13ifvqcc0","pricing_plan_id":"cebpf4jnsgd1na2vs0mg"},{"bike_id":"72a00ed5-0598-41be-ac79-894149e24468","system_id":"levelo_inurba_marseille","lat":43.24999,"lon":5.38934,"is_reserved":false,"is_disabled":false,"rental_uris":{"android":"levelo://app?vid=72a00ed5-0598-41be-ac79-894149e24468","ios":"levelo://app?vid=72a00ed5-0598-41be-ac79-894149e24468"},"vehicle_type_id":"4","last_reported":1744182650,"current_range_meters":22000,"station_id":"ce4bhgp2rcd13ifvqfd0","pricing_plan_id":"cebpf4jnsgd1na2vs0mg"},{"bike_id":"d64648ad-988e-4859-9e47-00782dbc6c22","system_id":"levelo_inurba_marseille","lat":43.2314,"lon":5.43721,"is_reserved":false,"is_disabled":false,"rental_uris":{"android":"levelo://app?vid=d64648ad-988e-4859-9e47-00782dbc6c22","ios":"levelo://app?vid=d64648ad-988e-4859-9e47-00782dbc6c22"},"vehicle_type_id":"4","last_reported":1744182650,"current_range_meters":22000,"station_id":"ce4bhmp2rcd13ifvqgog","pricing_plan_id":"cebpf4jnsgd1na2vs0mg"},{"bike_id":"93926733-e394-4408-8d7e-a006f0dcb115","system_id":"levelo_inurba_marseille","lat":43.30269,"lon":5.37706,"is_reserved":false,"is_disabled":false,"rental_uris":{"android":"levelo://app?vid=93926733-e394-4408-8d7e-a006f0dcb115","ios":"levelo://app?vid=93926733-e394-4408-8d7e-a006f0dcb115"},"vehicle_type_id":"4","last_reported":1744182650,"current_range_meters":22000,"station_id":"ce4bguh2rcd13ifvqcj0","pricing_plan_id":"cebpf4jnsgd1na2vs0mg"},