{"last_updated":1750093781,"ttl":60,"version":"2.2","data":{"bikes":[{"bike_id":"3da29fb8-fc97-44c6-b9ac-31dd456b2fd4","system_id":"levelo_inurba_marseille","lat":43.33771,"lon":5.37424,"is_reserved":false,"is_disabled":true,"rental_uris":{"android":"levelo://app?vid=3da29fb8-fc97-44c6-b9ac-31dd456b2fd4","ios":"levelo://app?vid=3da29fb8-fc97-44c6-b9ac-31dd456b2fd4"},"vehicle_type_id":"4","last_reported":1750093781,"current_range_meters":0,"station_id":"","pricing_plan_id":"cebpf4jnsgd1na2vs0mg"},{"bike_id":"01861ad8-a8d7-4be6-816e-651927c87584","system_id":"levelo_inurba_marseille","lat":43.33751,"lon":5.37456,"is_reserved":false,"is_disabled":true,"rental_uris":{"android":"levelo://app?vid=01861ad8-a8d7-4be6-816e-651927c87584","ios":"levelo://app?vid=01861ad8-a8d7-4be6-816e-651927c87584"},"vehicle_type_id":"4","last_reported":1750093781,"current_range_meters":0,"station_id":"","pricing_plan_id":"cebpf4jnsgd1na2vs0mg"},{"bike_id":"d2bd57c8-6b64-48db-ad24-5398eb3fd9d6","system_id":"levelo_inurba_marseille","lat":43.337444,"lon":5.374475,"is_reserved":false,"is_disabled":true,"rental_uris":{"android":"levelo://app?vid=d2bd57c8-6b64-48db-ad24-5398eb3fd9d6","ios":"levelo://app?vid=d2bd57c8-6b64-48db-ad24-5398eb3fd9d6"},"vehicle_type_id":"4","last_reported":1750093781,"current_range_meters":0,"station_id":"","pricing_plan_id":"cebpf4jnsgd1na2vs0mg"},{"bike_id":"31efc9ba-0c74-4af5-9228-1de18fc992e3","system_id":"levelo_inurba_marseille","lat":43.30001,"lon":5.3701,"is_reserved":false,"is_disabled":true,"rental_uris":{"android":"levelo://app?vid=31efc9ba-0c74-4af5-9228-1de18fc992e3","ios":"levelo://app?vid=31efc9ba-0c74-4af5-9228-1de18fc992e3"},"vehicle_type_id":"4","last_reported":1750093781,"current_range_meters":0,"station_id":"","pricing_plan_id":"cebpf4jnsgd1na2vs0mg"},{"bike_id":"62a493c7-4534-4419-ad43-0582de34a72a","system_id":"levelo_inurba_marseille","lat":43.21366,"lon":5.355183,"is_reserved":false,"is_disabled":true,"rental_uris":{"android":"levelo://app?vid=62a493c7-4534-4419-ad43-0582de34a72a","ios":"levelo://app?vid=62a493c7-4534-4419-ad43-0582de34a72a"},"vehicle_type_id":"4","last_reported":1750093781,"current_range_meters":0,"station_id":"","pricing_plan_id":"cebpf4jnsgd1na2vs0mg"},{"bike_id":"12716e0d-b552-4605-a894-cc7cfa8ee0c5","system_id":"levelo_inurba_marseille","lat":43.309311,"lon":5.378827,"is_reserved":false,"is_disabled":true,"rental_uris":{"android":"levelo://app?vid=12716e0d-b552-4605-a894-cc7cfa8ee0c5","ios":"levelo://app?vid=12716e0d-b552-4605-a894-cc7cfa8ee0c5"},"vehicle_type_id":"4","last_reported":1750093781,"current_range_meters":0,"station_id":"","pricing_plan_id":"cebpf4jnsgd1na2vs0mg"},{"bike_id":"c62a3532-5b9b-4775-9c30-3af76a7d3009","system_id":"levelo_inurba_marseille","lat":43.27251,"lon":5.36266,"is_reserved":false,"is_disabled":true,"rental_uris":{"android":"levelo://app?vid=c62a3532-5b9b-4775-9c30-3af76a7d3009","ios":"levelo://app?vid=c62a3532-5b9b-4775-9c30-3af76a7d3009"},"vehicle_type_id":"4","last_reported":1750093781,"current_range_meters":0,"station_id":"","pricing_plan_id":"cebpf4jnsgd1na2vs0mg"},{"bike_id":"117f24b3-d6ce-455f-99fd-f28a795c0458","system_id":"levelo_inurba_marseille","lat":43.279575,"lon":5.38477,"is_reserved":false,"is_disabled":true,"rental_uris":{"android":"levelo://app?vid=117f24b3-d6ce-455f-99fd-f28a795c0458","ios":"levelo://app?vid=117f24b3-d6ce-455f-99fd-f28a795c0458"},"vehicle_type_id":"4","last_reported":1750093781,"current_range_meters":0,"station_id":"","pricing_plan_id":"cebpf4jnsgd1na2vs0mg"},{"bike_id":"946f5633-31c1-46bf-ab81-23560e476e56","system_id":"levelo_inurba_marseille","lat":43.26052,"lon":5.38735,"is_reserved":false,"is_disabled":true,"rental_uris":{"android":"levelo://app?vid=946f5633-31c1-46bf-ab81-23560e476e56","ios":"levelo://app?vid=946f5633-31c1-46bf-ab81-23560e476e56"},"vehicle_type_id":"4","last_reported":1750093781,"current_range_meters":0,"station_id":"","pricing_plan_id":"cebpf4jnsgd1na2vs0mg"},{"bike_id":"caca20da-18e0-443e-a3dc-04ab1bbad8db","system_id":"levelo_inurba_marseille","lat":43.271223,"lon":5.363939,"is_reserved":false,"is_disabled":true,"rental_uris":{"android":"levelo://app?vid=caca20da-18e0-443e-a3dc-04ab1bbad8db","ios":"levelo://app?vid=caca20da-18e0-443e-a3dc-04ab1bbad8db"},"vehicle_type_id":"4","last_reported":1750093781,"current_range_meters":0,"station_id":"","pricing_plan_id":"cebpf4jnsgd1na2vs0mg"},{"bike_id":"93af304b-67b5-47b8-a3fd-e0775f7cde8c","system_id":"levelo_inurba_marseille","lat":43.21555,"lon":5.34745,"is_reserved":false,"is_disabled":true,"rental_uris":{"android":"levelo://app?vid=93af304b-67b5-47b8-a3fd-e0775f7cde8c","ios":"levelo://app?vid=93af304b-67b5-47b8-a3fd-e0775f7cde8c"},"vehicle_type_id":"4","last_reported":1750093781,"current_range_meters":0,"station_id":"","pricing_plan_id":"cebpf4jnsgd1na2vs0mg"},{"bike_id":"d6609b4f-333b-43c1-9ebe-8726f5e76e88","system_id":"levelo_inurba_marseille","lat":43.337444,"lon":5.374475,"is_reserved":false,"is_disabled":true,"rental_uris":{"android":"levelo://app?vid=d6609b4f-333b-43c1-9ebe-8726f5e76e88","ios":"levelo://app?vid=d6609b4f-333b-43c1-9ebe-8726f5e76e88"},"vehicle_type_id":"4","last_reported":1750093781,"current_range_meters":0,"station_id":"","pricing_plan_id":"cebpf4jnsgd1na2vs0mg"},{"bike_id":"a354a693-87cc-4bf2-b99d-b0ea81e88075","system_id":"levelo_inurba_marseille","lat":43.26166,"lon":5.38827,"is_reserved":false,"is_disabled":true,"rental_uris":{"android":"levelo://app?vid=a354a693-87cc-4bf2-b99d-b0ea81e88075","ios":"levelo://app?vid=a354a693-87cc-4bf2-b99d-b0ea81e88075"},"vehicle_type_id":"4","last_reported":1750093781,"current_range_meters":0,"station_id":"","pricing_plan_id":"cebpf4jnsgd1na2vs0mg"},{"bike_id":"6cf18fe1-ffdd-420d-8766-32399051e8b0","system_id":"levelo_inurba_marseille","lat":43.29531,"lon":5.38558,"is_reserved":false,"is_disabled":true,"rental_uris":{"android":"levelo://app?vid=6cf18fe1-ffdd-420d-8766-32399051e8b0","ios":"levelo://app?vid=6cf18fe1-ffdd-420d-8766-32399051e8b0"},"vehicle_type_id":"4","last_reported":1750093781,"current_range_meters":0,"station_id":"ce4bgih2rcd13ifvqba0","pricing_plan_id":"cebpf4jnsgd1na2vs0mg"},{"bike_id":"0dab7d54-efe7-4953-b384-8d2079fc70a3","system_id":"levelo_inurba_marseille","lat":43.29964,"lon":5.38504,"is_reserved":false,"is_disabled":true,"rental_uris":{"android":"levelo://app?vid=0dab7d54-efe7-4953-b384-8d2079fc70a3","ios":"levelo://app?vid=0dab7d54-efe7-4953-b384-8d2079fc70a3"},"vehicle_type_id":"4","last_reported":1750093781,"current_range_meters":0,"station_id":"ce4bgj92rcd13ifvqbd0","pricing_plan_id":"cebpf4jnsgd1na2vs0mg"},{"bike_id":"6071f46a-c8cc-4b5c-86f0-6edc21c687ec","system_id":"levelo_inurba_marseille","lat":43.29984,"lon":5.38488,"is_reserved":false,"is_disabled":true,"rental_uris":{"android":"levelo://app?vid=6071f46a-c8cc-4b5c-86f0-6edc21c687ec","ios":"levelo://app?vid=6071f46a-c8cc-4b5c-86f0-6edc21c687ec"},"vehicle_type_id":"4","last_reported":1750093781,"current_range_meters":0,"station_id":"ce4bgj92rcd13ifvqbd0","pricing_plan_id":"cebpf4jnsgd1na2vs0mg"},{"bike_id":"0c66f409-321a-4c09-9366-c401c7058d9c","system_id":"levelo_inurba_marseille","lat":43.29975,"lon":5.38492,"is_reserved":false,"is_disabled":true,"rental_uris":{"android":"levelo://app?vid=0c66f409-321a-4c09-9366-c401c7058d9c","ios":"levelo://app?vid=0c66f409-321a-4c09-9366-c401c7058d9c"},"vehicle_type_id":"4","last_reported":1750093781,"current_range_meters":0,"station_id":"ce4bgj92rcd13ifvqbd0","pricing_plan_id":"cebpf4jnsgd1na2vs0mg"},{"bike_id":"35f86619-8813-485d-a227-c514f826fa47","system_id":"levelo_inurba_marseille","lat":43.30439,"lon":5.38902,"is_reserved":false,"is_disabled":true,"rental_uris":{"android":"levelo://app?vid=35f86619-8813-485d-a227-c514f826fa47","ios":"levelo://app?vid=35f86619-8813-485d-a227-c514f826fa47"},"vehicle_type_id":"4","last_reported":1750093781,"current_range_meters":0,"station_id":"ce4bgk12rcd13ifvqbi0","pricing_plan_id":"cebpf4jnsgd1na2vs0mg"},{"bike_id":"a38c26ab-acd7-4df2-b521-d1ead259e3c2","system_id":"levelo_inurba_marseille","lat":43.30129,"lon":5.39876,"is_reserved":false,"is_disabled":true,"rental_uris":{"android":"levelo://app?vid=a38c26ab-acd7-4df2-b521-d1ead259e3c2","ios":"levelo://app?vid=a38c26ab-acd7-4df2-b521-d1ead259e3c2"},"vehicle_type_id":"4","last_reported":1750093781,"current_range_meters":0,"station_id":"ce4bh0h2rcd13ifvqd40","pricing_plan_id":"cebpf4jnsgd1na2vs0mg"},{"bike_id":"10e31598-9941-46bb-8c6f-ac724893c379","system_id":"levelo_inurba_marseille","lat":43.30097,"lon":5.39074,"is_reserved":false,"is_disabled":true,"rental_uris":{"android":"levelo://app?vid=10e31598-9941-46bb-8c6f-ac724893c379","ios":"levelo://app?vid=10e31598-9941-46bb-8c6f-ac724893c379"},"vehicle_type_id":"4","last_reported":1750093781,"current_range_meters":0,"station_id":"ce4bh192rcd13ifvqdb0","pricing_plan_id":"cebpf4jnsgd1na2vs0mg"},{"bike_id":"8edd6e6a-4bd6-482d-8f41-9a878437d927","system_id":"levelo_inurba_marseille","lat":43.292576,"lon":5.409034,"is_reserved":false,"is_disabled":true,"rental_uris":{"android":"levelo://app?vid=8edd6e6a-4bd6-482d-8f41-9a878437d927","ios":"levelo://app?vid=8edd6e6a-4bd6-482d-8f41-9a878437d927"},"vehicle_type_id":"4","last_reported":1750093781,"current_range_meters":0,"station_id":"ce4bh192rcd13ifvqdc0","pricing_plan_id":"cebpf4jnsgd1na2vs0mg"},{"bike_id":"8f3c5d48-cae1-42b0-ab71-7e45f1dd24da","system_id":"levelo_inurba_marseille","lat":43.28856,"lon":5.39301,"is_reserved":false,"is_disabled":true,"rental_uris":{"android":"levelo://app?vid=8f3c5d48-cae1-42b0-ab71-7e45f1dd24da","ios":"levelo://app?vid=8f3c5d48-cae1-42b0-ab71-7e45f1dd24da"},"vehicle_type_id":"4","last_reported":1750093781,"current_range_meters":0,"station_id":"ce4bh2p2rcd13ifvqdi0","pricing_plan_id":"cebpf4jnsgd1na2vs0mg"},{"bike_id":"c9ad67c3-3953-4d8a-9183-081a04077848","system_id":"levelo_inurba_marseille","lat":43.29432,"lon":5.39755,"is_reserved":false,"is_disabled":true,"rental_uris":{"android":"levelo://app?vid=c9ad67c3-3953-4d8a-9183-081a04077848","ios":"levelo://app?vid=c9ad67c3-3953-4d8a-9183-081a04077848"},"vehicle_type_id":"4","last_reported":1750093781,"current_range_meters":0,"station_id":"ce4bh3h2rcd13ifvqdo0","pricing_plan_id":"cebpf4jnsgd1na2vs0mg"},{"bike_id":"2f07be8a-adbb-4ae0-968b-4c206128b5ec","system_id":"levelo_inurba_marseille","lat":43.28486,"lon":5.3842,"is_reserved":false,"is_disabled":true,"rental_uris":{"android":"levelo://app?vid=2f07be8a-adbb-4ae0-968b-4c206128b5ec","ios":"levelo://app?vid=2f07be8a-adbb-4ae0-968b-4c206128b5ec"},"vehicle_type_id":"4","last_reported":1750093781,"current_range_meters":0,"station_id":"ce4bh512rcd13ifvqe3g","pricing_plan_id":"cebpf4jnsgd1na2vs0mg"},{"bike_id":"64939840-ed96-43ae-897a-a45c6d7d9a35","system_id":"levelo_inurba_marseille","lat":43.29262,"lon":5.38461,"is_reserved":false,"is_disabled":true,"rental_uris":{"android":"levelo://app?vid=64939840-ed96-43ae-897a-a45c6d7d9a35","ios":"levelo://app?vid=64939840-ed96-43ae-897a-a45c6d7d9a35"},"vehicle_type_id":"4","last_reported":1750093781,"current_range_meters":0,"station_id":"ce4bh692rcd13ifvqea0","pricing_plan_id":"cebpf4jnsgd1na2vs0mg"},{"bike_id":"1dda1701-8b38-4553-b2c3-c72867d5f9da","system_id":"levelo_inurba_marseille","lat":43.28494,"lon":5.38585,"is_reserved":false,"is_disabled":true,"rental_uris":{"android":"levelo://app?vid=1dda1701-8b38-4553-b2c3-c72867d5f9da","ios":"levelo://app?vid=1dda1701-8b38-4553-b2c3-c72867d5f9da"},"vehicle_type_id":"4","last_reported":1750093781,"current_range_meters":0,"station_id":"ce4bh8p2rcd13ifvqeb0","pricing_plan_id":"cebpf4jnsgd1na2vs0mg"},{"bike_id":"9cb1ca65-aad4-4f57-883e-908e2b2a6784","system_id":"levelo_inurba_marseille","lat":43.28857,"lon":5.35856,"is_reserved":false,"is_disabled":true,"rental_uris":{"android":"levelo://app?vid=9cb1ca65-aad4-4f57-883e-908e2b2a6784","ios":"levelo://app?vid=9cb1ca65-aad4-4f57-883e-908e2b2a6784"},"vehicle_type_id":"4","last_reported":1750093781,"current_range_meters":0,"station_id":"ce4bhb12rcd13ifvqem0","pricing_plan_id":"cebpf4jnsgd1na2vs0mg"},{"bike_id":"2ef235e7-1a6a-424e-a486-89891006d87e","system_id":"levelo_inurba_marseille","lat":43.28267,"lon":5.35061,"is_reserved":false,"is_disabled":true,"rental_uris":{"android":"levelo://app?vid=2ef235e7-1a6a-424e-a486-89891006d87e","ios":"levelo://app?vid=2ef235e7-1a6a-424e-a486-89891006d87e"},"vehicle_type_id":"4","last_reported":1750093781,"current_range_meters":0,"station_id":"ce4bhbp2rcd13ifvqerg","pricing_plan_id":"cebpf4jnsgd1na2vs0mg"},{"bike_id":"a7d55688-320f-4d67-a6df-4c3f285c24a4","system_id":"levelo_inurba_marseille","lat":43.28613,"lon":5.351168,"is_reserved":false,"is_disabled":true,"rental_uris":{"android":"levelo://app?vid=a7d55688-320f-4d67-a6df-4c3f285c24a4","ios":"levelo://app?vid=a7d55688-320f-4d67-a6df-4c3f285c24a4"},"vehicle_type_id":"4","last_reported":1750093781,"current_range_meters":0,"station_id":"ce4bhch2rcd13ifvqeug","pricing_plan_id":"cebpf4jnsgd1na2vs0mg"},{"bike_id":"be31c018-a618-42b2-b862-ca04e9b43973","system_id":"levelo_inurba_marseille","lat":43.24387,"lon":5.37065,"is_reserved":false,"is_disabled":true,"rental_uris":{"android":"levelo://app?vid=be31c018-a618-42b2-b862-ca04e9b43973","ios":"levelo://app?vid=be31c018-a618-42b2-b862-ca04e9b43973"},"vehicle_type_id":"4","last_reported":1750093781,"current_range_meters":0,"station_id":"ce4bhhh2rcd13ifvqfk0","pricing_plan_id":"cebpf4jnsgd1na2vs0mg"},{"bike_id":"644f5ba6-a58a-4bc0-a2b2-97947b381c89","system_id":"levelo_inurba_marseille","lat":43.25582,"lon":5.38218,"is_reserved":false,"is_disabled":true,"rental_uris":{"android":"levelo://app?vid=644f5ba6-a58a-4bc0-a2b2-97947b381c89","ios":"levelo://app?vid=644f5ba6-a58a-4bc0-a2b2-97947b381c89"},"vehicle_type_id":"4","last_reported":1750093781,"current_range_meters":0,"station_id":"ce4bhih2rcd13ifvqfs0","pricing_plan_id":"cebpf4jnsgd1na2vs0mg"},{"bike_id":"b2c2ef7d-51b9-4bf1-8117-27396b5e1be5","system_id":"levelo_inurba_marseille","lat":43.25685,"lon":5.41073,"is_reserved":false,"is_disabled":true,"rental_uris":{"android":"levelo://app?vid=b2c2ef7d-51b9-4bf1-8117-27396b5e1be5","ios":"levelo://app?vid=b2c2ef7d-51b9-4bf1-8117-27396b5e1be5"},"vehicle_type_id":"4","last_reported":1750093781,"current_range_meters":0,"station_id":"ce4bhkp2rcd13ifvqgd0","pricing_plan_id":"cebpf4jnsgd1na2vs0mg"},{"bike_id":"bdf959be-ba57-43db-ae79-a0ff232caaab","system_id":"levelo_inurba_marseille","lat":43.30733,"lon":5.42455,"is_reserved":false,"is_disabled":true,"rental_uris":{"android":"levelo://app?vid=bdf959be-ba57-43db-ae79-a0ff232caaab","ios":"levelo://app?vid=bdf959be-ba57-43db-ae79-a0ff232caaab"},"vehicle_type_id":"4","last_reported":1750093781,"current_range_meters":0,"station_id":"st_cvj6ca6bvosntc0bfgr0","pricing_plan_id":"cebpf4jnsgd1na2vs0mg"},{"bike_id":"24fdc843-f44c-4767-95e6-d185326dc284","system_id":"levelo_inurba_marseille","lat":43.31326,"lon":5.397,"is_reserved":false,"is_disabled":true,"rental_uris":{"android":"levelo://app?vid=24fdc843-f44c-4767-95e6-d185326dc284","ios":"levelo://app?vid=24fdc843-f44c-4767-95e6-d185326dc284"},"vehicle_type_id":"4","last_reported":1750093781,"current_range_meters":400,"station_id":"ce4bgvp2rcd13ifvqcu0","pricing_plan_id":"cebpf4jnsgd1na2vs0mg"},{"bike_id":"c88774c7-346c-4a03-bc08-f3aa64b37a56","system_id":"levelo_inurba_marseille","lat":43.3065,"lon":5.40102,"is_reserved":false,"is_disabled":true,"rental_uris":{"android":"levelo://app?vid=c88774c7-346c-4a03-bc08-f3aa64b37a56","ios":"levelo://app?vid=c88774c7-346c-4a03-bc08-f3aa64b37a56"},"vehicle_type_id":"4","last_reported":1750093781,"current_range_meters":400,"station_id":"ce4bh112rcd13ifvqda0","pricing_plan_id":"cebpf4jnsgd1na2vs0mg"},{"bike_id":"83e81c72-f41a-4e60-b649-6558eda982a7","system_id":"levelo_inurba_marseille","lat":43.2593,"lon":5.40895,"is_reserved":false,"is_disabled":true,"rental_uris":{"android":"levelo://app?vid=83e81c72-f41a-4e60-b649-6558eda982a7","ios":"levelo://app?vid=83e81c72-f41a-4e60-b649-6558eda982a7"},"vehicle_type_id":"4","last_reported":1750093781,"current_range_meters":400,"station_id":"ce4bhm92rcd13ifvqglg","pricing_plan_id":"cebpf4jnsgd1na2vs0mg"},{"bike_id":"d1ff4cb9-9ed6-4d52-a8e1-12389c6551b8","system_id":"levelo_inurba_marseille","lat":43.32361,"lon":5.36759,"is_reserved":false,"is_disabled":true,"rental_uris":{"android":"levelo://app?vid=d1ff4cb9-9ed6-4d52-a8e1-12389c6551b8","ios":"levelo://app?vid=d1ff4cb9-9ed6-4d52-a8e1-12389c6551b8"},"vehicle_type_id":"4","last_reported":1750093781,"current_range_meters":400,"station_id":"ce4bhsh2rcd13ifvqi2g","pricing_plan_id":"cebpf4jnsgd1na2vs0mg"},{"bike_id":"0364df17-4839-4305-8a07-1e9bc033310c","system_id":"levelo_inurba_marseille","lat":43.30789,"lon":5.37633,"is_reserved":false,"is_disabled":false,"rental_uris":{"android":"levelo://app?vid=0364df17-4839-4305-8a07-1e9bc033310c","ios":"levelo://app?vid=0364df17-4839-4305-8a07-1e9bc033310c"},"vehicle_type_id":"4","last_reported":1750093781,"current_range_meters":800,"station_id":"ce4bgv92rcd13ifvqcq0","pricing_plan_id":"cebpf4jnsgd1na2vs0mg"},{"bike_id":"44f05d9d-e95b-44b3-816e-484799cf8776","system_id":"levelo_inurba_marseille","lat":43.28694,"lon":5.37396,"is_reserved":false,"is_disabled":true,"rental_uris":{"android":"levelo://app?vid=44f05d9d-e95b-44b3-816e-484799cf8776","ios":"levelo://app?vid=44f05d9d-e95b-44b3-816e-484799cf8776"},"vehicle_type_id":"4","last_reported":1750093781,"current_range_meters":800,"station_id":"ce4bh3p2rcd13ifvqdq0","pricing_plan_id":"cebpf4jnsgd1na2vs0mg"},{"bike_id":"f2681666-7641-4527-a932-f4f4de929cbb","system_id":"levelo_inurba_marseille","lat":43.29534,"lon":5.38546,"is_reserved":false,"is_disabled":true,"rental_uris":{"android":"levelo://app?vid=f2681666-7641-4527-a932-f4f4de929cbb","ios":"levelo://app?vid=f2681666-7641-4527-a932-f4f4de929cbb"},"vehicle_type_id":"4","last_reported":1750093781,"current_range_meters":1200,"station_id":"ce4bgih2rcd13ifvqba0","pricing_plan_id":"cebpf4jnsgd1na2vs0mg"},{"bike_id":"7c88a1e6-a431-49c3-b8f6-840b604a10c4","system_id":"levelo_inurba_marseille","lat":43.30533,"lon":5.36723,"is_reserved":false,"is_disabled":true,"rental_uris":{"android":"levelo://app?vid=7c88a1e6-a431-49c3-b8f6-840b604a10c4","ios":"levelo://app?vid=7c88a1e6-a431-49c3-b8f6-840b604a10c4"},"vehicle_type_id":"4","last_reported":1750093781,"current_range_meters":1200,"station_id":"ce4bgrp2rcd13ifvqc9g","pricing_plan_id":"cebpf4jnsgd1na2vs0mg"},{"bike_id":"61cf2667-eab3-4e37-a45f-635940e4777f","system_id":"levelo_inurba_marseille","lat":43.31493,"lon":5.37271,"is_reserved":false,"is_disabled":true,"rental_uris":{"android":"levelo://app?vid=61cf2667-eab3-4e37-a45f-635940e4777f","ios":"levelo://app?vid=61cf2667-eab3-4e37-a45f-635940e4777f"},"vehicle_type_id":"4","last_reported":1750093781,"current_range_meters":1200,"station_id":"ce4bgt12rcd13ifvqcd0","pricing_plan_id":"cebpf4jnsgd1na2vs0mg"},{"bike_id":"29bf6206-a1be-496c-b31c-aab9af86a9c2","system_id":"levelo_inurba_marseille","lat":43.28461,"lon":5.35889,"is_reserved":false,"is_disabled":true,"rental_uris":{"android":"levelo://app?vid=29bf6206-a1be-496c-b31c-aab9af86a9c2","ios":"levelo://app?vid=29bf6206-a1be-496c-b31c-aab9af86a9c2"},"vehicle_type_id":"4","last_reported":1750093781,"current_range_meters":1200,"station_id":"ce4bhah2rcd13ifvqei0","pricing_plan_id":"cebpf4jnsgd1na2vs0mg"},{"bike_id":"c77dcc4e-fbb1-425b-99c7-3414f4ca8123","system_id":"levelo_inurba_marseille","lat":43.297913,"lon":5.380966,"is_reserved":false,"is_disabled":true,"rental_uris":{"android":"levelo://app?vid=c77dcc4e-fbb1-425b-99c7-3414f4ca8123","ios":"levelo://app?vid=c77dcc4e-fbb1-425b-99c7-3414f4ca8123"},"vehicle_type_id":"4","last_reported":1750093781,"current_range_meters":1600,"station_id":"ce4bgip2rcd13ifvqbb0","pricing_plan_id":"cebpf4jnsgd1na2vs0mg"},{"bike_id":"87d25b5d-6c4b-44ee-8a35-0a44816b4bb8","system_id":"levelo_inurba_marseille","lat":43.30815,"lon":5.38127,"is_reserved":false,"is_disabled":true,"rental_uris":{"android":"levelo://app?vid=87d25b5d-6c4b-44ee-8a35-0a44816b4bb8","ios":"levelo://app?vid=87d25b5d-6c4b-44ee-8a35-0a44816b4bb8"},"vehicle_type_id":"4","last_reported":1750093781,"current_range_meters":1600,"station_id":"ce4bgt12rcd13ifvqce0","pricing_plan_id":"cebpf4jnsgd1na2vs0mg"},{"bike_id":"b58ccb49-75fb-4235-af43-f3344da6f0eb","system_id":"levelo_inurba_marseille","lat":43.23179,"lon":5.39995,"is_reserved":false,"is_disabled":true,"rental_uris":{"android":"levelo://app?vid=b58ccb49-75fb-4235-af43-f3344da6f0eb","ios":"levelo://app?vid=b58ccb49-75fb-4235-af43-f3344da6f0eb"},"vehicle_type_id":"4","last_reported":1750093781,"current_range_meters":1600,"station_id":"ce4bhn12rcd13ifvqgqg","pricing_plan_id":"cebpf4jnsgd1na2vs0mg"},{"bike_id":"2bdb2817-57d9-4e4d-bacc-d4f376ce7075","system_id":"levelo_inurba_marseille","lat":43.23193,"lon":5.35553,"is_reserved":false,"is_disabled":true,"rental_uris":{"android":"levelo://app?vid=2bdb2817-57d9-4e4d-bacc-d4f376ce7075","ios":"levelo://app?vid=2bdb2817-57d9-4e4d-bacc-d4f376ce7075"},"vehicle_type_id":"4","last_reported":1750093781,"current_range_meters":1600,"station_id":"ce4bhu92rcd13ifvqi70","pricing_plan_id":"cebpf4jnsgd1na2vs0mg"},{"bike_id":"34d3fdd2-6ed2-497e-a984-dc716a44b265","system_id":"levelo_inurba_marseille","lat":43.290746,"lon":5.400009,"is_reserved":false,"is_disabled":true,"rental_uris":{"android":"levelo://app?vid=34d3fdd2-6ed2-497e-a984-dc716a44b265","ios":"levelo://app?vid=34d3fdd2-6ed2-497e-a984-dc716a44b265"},"vehicle_type_id":"4","last_reported":1750093781,"current_range_meters":2000,"station_id":"ce4bh392rcd13ifvqdm0","pricing_plan_id":"cebpf4jnsgd1na2vs0mg"},{"bike_id":"db29efec-6baf-42c3-9a19-0ef8d7db15bd","system_id":"levelo_inurba_marseille","lat":43.24392,"lon":5.37065,"is_reserved":false,"is_disabled":true,"rental_uris":{"android":"levelo://app?vid=db29efec-6baf-42c3-9a19-0ef8d7db15bd","ios":"levelo://app?vid=db29efec-6baf-42c3-9a19-0ef8d7db15bd"},"vehicle_type_id":"4","last_reported":1750093781,"current_range_meters":2000,"station_id":"ce4bhhh2rcd13ifvqfk0","pricing_plan_id":"cebpf4jnsgd1na2vs0mg"},{"bike_id":"8081d0c5-0763-47ae-a8a6-6e1cc02cc1f8","system_id":"levelo_inurba_marseille","lat":43.28845,"lon":5.35859,"is_reserved":false,"is_disabled":false,"rental_uris":{"android":"levelo://app?vid=8081d0c5-0763-47ae-a8a6-6e1cc02cc1f8","ios":"levelo://app?vid=8081d0c5-0763-47ae-a8a6-6e1cc02cc1f8"},"vehicle_type_id":"4","last_reported":1750093781,"current_range_meters":2800,"station_id":"ce4bhb12rcd13ifvqem0","pricing_plan_id":"cebpf4jnsgd1na2vs0mg"},{"bike_id":"270b005e-db09-4ca5-bf4c-1040f2677a8c","system_id":"levelo_inurba_marseille","lat":43.27998,"lon":5.40009,"is_reserved":false,"is_disabled":false,"rental_uris":{"android":"levelo://app?vid=270b005e-db09-4ca5-bf4c-1040f2677a8c","ios":"levelo://app?vid=270b005e-db09-4ca5-bf4c-1040f2677a8c"},"vehicle_type_id":"4","last_reported":1750093781,"current_range_meters":2800,"station_id":"ce4bho92rcd13ifvqh4g","pricing_plan_id":"cebpf4jnsgd1na2vs0mg"},{"bike_id":"285a17bf-941a-457d-8aeb-d78990db63b4","system_id":"levelo_inurba_marseille","lat":43.29788,"lon":5.39342,"is_reserved":false,"is_disabled":false,"rental_uris":{"android":"levelo://app?vid=285a17bf-941a-457d-8aeb-d78990db63b4","ios":"levelo://app?vid=285a17bf-941a-457d-8aeb-d78990db63b4"},"vehicle_type_id":"4","last_reported":1750093781,"current_range_meters":2800,"station_id":"chh1huq6cuj3fo74tm60","pricing_plan_id":"cebpf4jnsgd1na2vs0mg"},{"bike_id":"e905d6f2-f2b0-487a-9709-ccfdac9baee4","system_id":"levelo_inurba_marseille","lat":43.308385,"lon":5.370483,"is_reserved":false,"is_disabled":false,"rental_uris":{"android":"levelo://app?vid=e905d6f2-f2b0-487a-9709-ccfdac9baee4","ios":"levelo://app?vid=e905d6f2-f2b0-487a-9709-ccfdac9baee4"},"vehicle_type_id":"4","last_reported":1750093781,"current_range_meters":3200,"station_id":"","pricing_plan_id":"cebpf4jnsgd1na2vs0mg"},{"bike_id":"937014ad-7ca8-44b7-8b26-d4af5c28e8bb","system_id":"levelo_inurba_marseille","lat":43.29524,"lon":5.39398,"is_reserved":false,"is_disabled":false,"rental_uris":{"android":"levelo://app?vid=937014ad-7ca8-44b7-8b26-d4af5c28e8bb","ios":"levelo://app?vid=937014ad-7ca8-44b7-8b26-d4af5c28e8bb"},"vehicle_type_id":"4","last_reported":1750093781,"current_range_meters":3200,"station_id":"ce4bh292rcd13ifvqdf0","pricing_plan_id":"cebpf4jnsgd1na2vs0mg"},{"bike_id":"5b74ee20-5147-443a-9c2f-6827df261a1d","system_id":"levelo_inurba_marseille","lat":43.28412,"lon":5.37511,"is_reserved":false,"is_disabled":false,"rental_uris":{"android":"levelo://app?vid=5b74ee20-5147-443a-9c2f-6827df261a1d","ios":"levelo://app?vid=5b74ee20-5147-443a-9c2f-6827df261a1d"},"vehicle_type_id":"4","last_reported":1750093781,"current_range_meters":3200,"station_id":"ce4bh412rcd13ifvqds0","pricing_plan_id":"cebpf4jnsgd1na2vs0mg"},{"bike_id":"90994f74-2408-4689-8b2d-f896390b070e","system_id":"levelo_inurba_marseille","lat":43.28409,"lon":5.34982,"is_reserved":false,"is_disabled":false,"rental_uris":{"android":"levelo://app?vid=90994f74-2408-4689-8b2d-f896390b070e","ios":"levelo://app?vid=90994f74-2408-4689-8b2d-f896390b070e"},"vehicle_type_id":"4","last_reported":1750093781,"current_range_meters":3200,"station_id":"ce4bhbh2rcd13ifvqepg","pricing_plan_id":"cebpf4jnsgd1na2vs0mg"},{"bike_id":"dffffd4b-5520-4c0e-9737-0274e5997b68","system_id":"levelo_inurba_marseille","lat":43.255,"lon":5.37651,"is_reserved":false,"is_disabled":false,"rental_uris":{"android":"levelo://app?vid=dffffd4b-5520-4c0e-9737-0274e5997b68","ios":"levelo://app?vid=dffffd4b-5520-4c0e-9737-0274e5997b68"},"vehicle_type_id":"4","last_reported":1750093781,"current_range_meters":3200,"station_id":"ce4bhh12rcd13ifvqff0","pricing_plan_id":"cebpf4jnsgd1na2vs0mg"},{"bike_id":"1827d622-e20d-4be6-99ac-0d1e0724dbb6","system_id":"levelo_inurba_marseille","lat":43.337444,"lon":5.374475,"is_reserved":false,"is_disabled":false,"rental_uris":{"android":"levelo://app?vid=1827d622-e20d-4be6-99ac-0d1e0724dbb6","ios":"levelo://app?vid=1827d622-e20d-4be6-99ac-0d1e0724dbb6"},"vehicle_type_id":"4","last_reported":1750093781,"current_range_meters":3600,"station_id":"","pricing_plan_id":"cebpf4jnsgd1na2vs0mg"},{"bike_id":"21cb65f2-bcdf-433a-8501-7291d74ee449","system_id":"levelo_inurba_marseille","lat":43.28849,"lon":5.35885,"is_reserved":false,"is_disabled":false,"rental_uris":{"android":"levelo://app?vid=21cb65f2-bcdf-433a-8501-7291d74ee449","ios":"levelo://app?vid=21cb65f2-bcdf-433a-8501-7291d74ee449"},"vehicle_type_id":"4","last_reported":1750093781,"current_range_meters":3600,"station_id":"ce4bhb12rcd13ifvqem0","pricing_plan_id":"cebpf4jnsgd1na2vs0mg"},{"bike_id":"c847a787-e637-49e8-bb6e-2e09c9b1103e","system_id":"levelo_inurba_marseille","lat":43.24997,"lon":5.38933,"is_reserved":false,"is_disabled":false,"rental_uris":{"android":"levelo://app?vid=c847a787-e637-49e8-bb6e-2e09c9b1103e","ios":"levelo://app?vid=c847a787-e637-49e8-bb6e-2e09c9b1103e"},"vehicle_type_id":"4","last_reported":1750093781,"current_range_meters":3600,"station_id":"ce4bhgp2rcd13ifvqfd0","pricing_plan_id":"cebpf4jnsgd1na2vs0mg"},{"bike_id":"c5714544-f1bf-4d38-8382-589a9fa66494","system_id":"levelo_inurba_marseille","lat":43.29712,"lon":5.36589,"is_reserved":false,"is_disabled":false,"rental_uris":{"android":"levelo://app?vid=c5714544-f1bf-4d38-8382-589a9fa66494","ios":"levelo://app?vid=c5714544-f1bf-4d38-8382-589a9fa66494"},"vehicle_type_id":"4","last_reported":1750093781,"current_range_meters":4000,"station_id":"ce4bgn12rcd13ifvqbt0","pricing_plan_id":"cebpf4jnsgd1na2vs0mg"},{"bike_id":"d88e4b51-e2a6-46ea-ab72-5424894b1b90","system_id":"levelo_inurba_marseille","lat":43.29863,"lon":5.397494,"is_reserved":false,"is_disabled":false,"rental_uris":{"android":"levelo://app?vid=d88e4b51-e2a6-46ea-ab72-5424894b1b90","ios":"levelo://app?vid=d88e4b51-e2a6-46ea-ab72-5424894b1b90"},"vehicle_type_id":"4","last_reported":1750093781,"current_range_meters":4000,"station_id":"ce4bh0h2rcd13ifvqd50","pricing_plan_id":"cebpf4jnsgd1na2vs0mg"},{"bike_id":"4a33fbac-3d1e-4ec2-9854-442130e30d80","system_id":"levelo_inurba_marseille","lat":43.29418,"lon":5.38623,"is_reserved":false,"is_disabled":false,"rental_uris":{"android":"levelo://app?vid=4a33fbac-3d1e-4ec2-9854-442130e30d80","ios":"levelo://app?vid=4a33fbac-3d1e-4ec2-9854-442130e30d80"},"vehicle_type_id":"4","last_reported":1750093781,"current_range_meters":4000,"station_id":"ce4bh2h2rcd13ifvqdh0","pricing_plan_id":"cebpf4jnsgd1na2vs0mg"},{"bike_id":"80181c64-6ad1-420e-9283-cf79982e7b58","system_id":"levelo_inurba_marseille","lat":43.306702,"lon":5.400375,"is_reserved":false,"is_disabled":false,"rental_uris":{"android":"levelo://app?vid=80181c64-6ad1-420e-9283-cf79982e7b58","ios":"levelo://app?vid=80181c64-6ad1-420e-9283-cf79982e7b58"},"vehicle_type_id":"4","last_reported":1750093781,"current_range_meters":4000,"station_id":"ce4bhbh2rcd13ifvqepg","pricing_plan_id":"cebpf4jnsgd1na2vs0mg"},{"bike_id":"ec4c75ec-c76d-42f8-b556-b0d723b867ae","system_id":"levelo_inurba_marseille","lat":43.30408,"lon":5.41288,"is_reserved":false,"is_disabled":false,"rental_uris":{"android":"levelo://app?vid=ec4c75ec-c76d-42f8-b556-b0d723b867ae","ios":"levelo://app?vid=ec4c75ec-c76d-42f8-b556-b0d723b867ae"},"vehicle_type_id":"4","last_reported":1750093781,"current_range_meters":4000,"station_id":"ce4bhop2rcd13ifvqh8g","pricing_plan_id":"cebpf4jnsgd1na2vs0mg"},{"bike_id":"f7d61edd-3d98-4317-ac93-00130fdb72f9","system_id":"levelo_inurba_marseille","lat":43.3356,"lon":5.39874,"is_reserved":false,"is_disabled":false,"rental_uris":{"android":"levelo://app?vid=f7d61edd-3d98-4317-ac93-00130fdb72f9","ios":"levelo://app?vid=f7d61edd-3d98-4317-ac93-00130fdb72f9"},"vehicle_type_id":"4","last_reported":1750093781,"current_range_meters":4400,"station_id":"","pricing_plan_id":"cebpf4jnsgd1na2vs0mg"},{"bike_id":"994188e4-0810-4b40-9615-b225d903bd47","system_id":"levelo_inurba_marseille","lat":43.30881,"lon":5.3965,"is_reserved":false,"is_disabled":false,"rental_uris":{"android":"levelo://app?vid=994188e4-0810-4b40-9615-b225d903bd47","ios":"levelo://app?vid=994188e4-0810-4b40-9615-b225d903bd47"},"vehicle_type_id":"4","last_reported":1750093781,"current_range_meters":4400,"station_id":"ce4bh012rcd13ifvqcv0","pricing_plan_id":"cebpf4jnsgd1na2vs0mg"},{"bike_id":"ce150a60-f9d8-4fee-9de4-918d0baaab20","system_id":"levelo_inurba_marseille","lat":43.28462,"lon":5.35898,"is_reserved":false,"is_disabled":false,"rental_uris":{"android":"levelo://app?vid=ce150a60-f9d8-4fee-9de4-918d0baaab20","ios":"levelo://app?vid=ce150a60-f9d8-4fee-9de4-918d0baaab20"},"vehicle_type_id":"4","last_reported":1750093781,"current_range_meters":4400,"station_id":"ce4bhah2rcd13ifvqei0","pricing_plan_id":"cebpf4jnsgd1na2vs0mg"},{"bike_id":"85cd463e-d4ed-45f1-94bf-1cce16b99ad6","system_id":"levelo_inurba_marseille","lat":43.28615,"lon":5.35108,"is_reserved":false,"is_disabled":false,"rental_uris":{"android":"levelo://app?vid=85cd463e-d4ed-45f1-94bf-1cce16b99ad6","ios":"levelo://app?vid=85cd463e-d4ed-45f1-94bf-1cce16b99ad6"},"vehicle_type_id":"4","last_reported":1750093781,"current_range_meters":4400,"station_id":"ce4bhch2rcd13ifvqeug","pricing_plan_id":"cebpf4jnsgd1na2vs0mg"},{"bike_id":"3feefee1-e333-42a9-9991-97817a017bf6","system_id":"levelo_inurba_marseille","lat":43.29607,"lon":5.37721,"is_reserved":false,"is_disabled":false,"rental_uris":{"android":"levelo://app?vid=3feefee1-e333-42a9-9991-97817a017bf6","ios":"levelo://app?vid=3feefee1-e333-42a9-9991-97817a017bf6"},"vehicle_type_id":"4","last_reported":1750093781,"current_range_meters":4800,"station_id":"ce4bgi92rcd13ifvqb90","pricing_plan_id":"cebpf4jnsgd1na2vs0mg"},{"bike_id":"9f96fd5c-b605-4802-a50f-bf965bbadabe","system_id":"levelo_inurba_marseille","lat":43.28262,"lon":5.35074,"is_reserved":false,"is_disabled":false,"rental_uris":{"android":"levelo://app?vid=9f96fd5c-b605-4802-a50f-bf965bbadabe","ios":"levelo://app?vid=9f96fd5c-b605-4802-a50f-bf965bbadabe"},"vehicle_type_id":"4","last_reported":1750093781,"current_range_meters":4800,"station_id":"ce4bhbp2rcd13ifvqerg","pricing_plan_id":"cebpf4jnsgd1na2vs0mg"},{"bike_id":"94bf93b0-7da0-4a2c-8284-904eed063e02","system_id":"levelo_inurba_marseille","lat":43.24179,"lon":5.39733,"is_reserved":false,"is_disabled":false,"rental_uris":{"android":"levelo://app?vid=94bf93b0-7da0-4a2c-8284-904eed063e02","ios":"levelo://app?vid=94bf93b0-7da0-4a2c-8284-904eed063e02"},"vehicle_type_id":"4","last_reported":1750093781,"current_range_meters":4800,"station_id":"ce4bhn12rcd13ifvqgpg","pricing_plan_id":"cebpf4jnsgd1na2vs0mg"},{"bike_id":"dbfce7a3-3423-4296-b193-a177dea644ac","system_id":"levelo_inurba_marseille","lat":43.27255,"lon":5.41642,"is_reserved":false,"is_disabled":false,"rental_uris":{"android":"levelo://app?vid=dbfce7a3-3423-4296-b193-a177dea644ac","ios":"levelo://app?vid=dbfce7a3-3423-4296-b193-a177dea644ac"},"vehicle_type_id":"4","last_reported":1750093781,"current_range_meters":5600,"station_id":"","pricing_plan_id":"cebpf4jnsgd1na2vs0mg"},{"bike_id":"7758b58c-b434-4071-a44a-ac5120a81ecb","system_id":"levelo_inurba_marseille","lat":43.2928,"lon":5.40115,"is_reserved":false,"is_disabled":false,"rental_uris":{"android":"levelo://app?vid=7758b58c-b434-4071-a44a-ac5120a81ecb","ios":"levelo://app?vid=7758b58c-b434-4071-a44a-ac5120a81ecb"},"vehicle_type_id":"4","last_reported":1750093781,"current_range_meters":5600,"station_id":"ce4bh312rcd13ifvqdk0","pricing_plan_id":"cebpf4jnsgd1na2vs0mg"},{"bike_id":"be42d937-d1c4-475d-a7cf-5d3a9389d107","system_id":"levelo_inurba_marseille","lat":43.30415,"lon":5.42502,"is_reserved":false,"is_disabled":false,"rental_uris":{"android":"levelo://app?vid=be42d937-d1c4-475d-a7cf-5d3a9389d107","ios":"levelo://app?vid=be42d937-d1c4-475d-a7cf-5d3a9389d107"},"vehicle_type_id":"4","last_reported":1750093781,"current_range_meters":5600,"station_id":"ce4bhoh2rcd13ifvqh6g","pricing_plan_id":"cebpf4jnsgd1na2vs0mg"},{"bike_id":"f16a5698-ddc2-4e59-97f5-5526424b5a60","system_id":"levelo_inurba_marseille","lat":43.21192,"lon":5.35079,"is_reserved":false,"is_disabled":false,"rental_uris":{"android":"levelo://app?vid=f16a5698-ddc2-4e59-97f5-5526424b5a60","ios":"levelo://app?vid=f16a5698-ddc2-4e59-97f5-5526424b5a60"},"vehicle_type_id":"4","last_reported":1750093781,"current_range_meters":5600,"station_id":"st_cvj6sg6p6f1abm77japg","pricing_plan_id":"cebpf4jnsgd1na2vs0mg"},{"bike_id":"e251c932-9204-44f9-ab27-b4ce5874b1d0","system_id":"levelo_inurba_marseille","lat":43.31054,"lon":5.38351,"is_reserved":false,"is_disabled":false,"rental_uris":{"android":"levelo://app?vid=e251c932-9204-44f9-ab27-b4ce5874b1d0","ios":"levelo://app?vid=e251c932-9204-44f9-ab27-b4ce5874b1d0"},"vehicle_type_id":"4","last_reported":1750093781,"current_range_meters":6000,"station_id":"ce4bgv92rcd13ifvqcr0","pricing_plan_id":"cebpf4jnsgd1na2vs0mg"},{"bike_id":"6044516f-9c0e-42c0-af95-04fd5e402668","system_id":"levelo_inurba_marseille","lat":43.29526,"lon":5.39038,"is_reserved":false,"is_disabled":false,"rental_uris":{"android":"levelo://app?vid=6044516f-9c0e-42c0-af95-04fd5e402668","ios":"levelo://app?vid=6044516f-9c0e-42c0-af95-04fd5e402668"},"vehicle_type_id":"4","last_reported":1750093781,"current_range_meters":6000,"station_id":"ce4bh3p2rcd13ifvqdp0","pricing_plan_id":"cebpf4jnsgd1na2vs0mg"},{"bike_id":"370d240d-758a-4161-a498-16a7813afd78","system_id":"levelo_inurba_marseille","lat":43.28487,"lon":5.35853,"is_reserved":false,"is_disabled":false,"rental_uris":{"android":"levelo://app?vid=370d240d-758a-4161-a498-16a7813afd78","ios":"levelo://app?vid=370d240d-758a-4161-a498-16a7813afd78"},"vehicle_type_id":"4","last_reported":1750093781,"current_range_meters":6000,"station_id":"ce4bhah2rcd13ifvqei0","pricing_plan_id":"cebpf4jnsgd1na2vs0mg"},{"bike_id":"03c9c88a-3802-4714-86e9-d4c62994e0c1","system_id":"levelo_inurba_marseille","lat":43.28941,"lon":5.36635,"is_reserved":false,"is_disabled":false,"rental_uris":{"android":"levelo://app?vid=03c9c88a-3802-4714-86e9-d4c62994e0c1","ios":"levelo://app?vid=03c9c88a-3802-4714-86e9-d4c62994e0c1"},"vehicle_type_id":"4","last_reported":1750093781,"current_range_meters":6000,"station_id":"ce4bhap2rcd13ifvqek0","pricing_plan_id":"cebpf4jnsgd1na2vs0mg"},{"bike_id":"dbfca594-3761-41f6-991a-e43e1017d609","system_id":"levelo_inurba_marseille","lat":43.24126,"lon":5.36782,"is_reserved":false,"is_disabled":false,"rental_uris":{"android":"levelo://app?vid=dbfca594-3761-41f6-991a-e43e1017d609","ios":"levelo://app?vid=dbfca594-3761-41f6-991a-e43e1017d609"},"vehicle_type_id":"4","last_reported":1750093781,"current_range_meters":6400,"station_id":"","pricing_plan_id":"cebpf4jnsgd1na2vs0mg"},{"bike_id":"ad4809fa-2cbd-41cf-88dc-d86990962d16","system_id":"levelo_inurba_marseille","lat":43.2968,"lon":5.37302,"is_reserved":false,"is_disabled":false,"rental_uris":{"android":"levelo://app?vid=ad4809fa-2cbd-41cf-88dc-d86990962d16","ios":"levelo://app?vid=ad4809fa-2cbd-41cf-88dc-d86990962d16"},"vehicle_type_id":"4","last_reported":1750093781,"current_range_meters":6400,"station_id":"ce4bgk12rcd13ifvqbj0","pricing_plan_id":"cebpf4jnsgd1na2vs0mg"},{"bike_id":"31a503e4-05a0-4af0-bac8-65df19ee1e4d","system_id":"levelo_inurba_marseille","lat":43.29582,"lon":5.3999,"is_reserved":false,"is_disabled":false,"rental_uris":{"android":"levelo://app?vid=31a503e4-05a0-4af0-bac8-65df19ee1e4d","ios":"levelo://app?vid=31a503e4-05a0-4af0-bac8-65df19ee1e4d"},"vehicle_type_id":"4","last_reported":1750093781,"current_range_meters":6400,"station_id":"ce4bh312rcd13ifvqdj0","pricing_plan_id":"cebpf4jnsgd1na2vs0mg"},{"bike_id":"f2c67444-501f-4dcf-aae1-658be75c9ea4","system_id":"levelo_inurba_marseille","lat":43.29165,"lon":5.37156,"is_reserved":false,"is_disabled":false,"rental_uris":{"android":"levelo://app?vid=f2c67444-501f-4dcf-aae1-658be75c9ea4","ios":"levelo://app?vid=f2c67444-501f-4dcf-aae1-658be75c9ea4"},"vehicle_type_id":"4","last_reported":1750093781,"current_range_meters":6400,"station_id":"ce4bha92rcd13ifvqeh0","pricing_plan_id":"cebpf4jnsgd1na2vs0mg"},{"bike_id":"07fff424-2cb0-4aab-a807-3ff2ec901723","system_id":"levelo_inurba_marseille","lat":43.24073,"lon":5.37761,"is_reserved":false,"is_disabled":false,"rental_uris":{"android":"levelo://app?vid=07fff424-2cb0-4aab-a807-3ff2ec901723","ios":"levelo://app?vid=07fff424-2cb0-4aab-a807-3ff2ec901723"},"vehicle_type_id":"4","last_reported":1750093781,"current_range_meters":6400,"station_id":"ce4bhnp2rcd13ifvqgvg","pricing_plan_id":"cebpf4jnsgd1na2vs0mg"},{"bike_id":"47f571e1-1d55-48d2-be65-a6a5f1f6e7ed","system_id":"levelo_inurba_marseille","lat":43.28,"lon":5.41668,"is_reserved":false,"is_disabled":false,"rental_uris":{"android":"levelo://app?vid=47f571e1-1d55-48d2-be65-a6a5f1f6e7ed","ios":"levelo://app?vid=47f571e1-1d55-48d2-be65-a6a5f1f6e7ed"},"vehicle_type_id":"4","last_reported":1750093781,"current_range_meters":6400,"station_id":"ce4bho12rcd13ifvqh1g","pricing_plan_id":"cebpf4jnsgd1na2vs0mg"},{"bike_id":"49f12802-d823-4cb5-903c-1c17fbf5b903","system_id":"levelo_inurba_marseille","lat":43.27836,"lon":5.41446,"is_reserved":false,"is_disabled":false,"rental_uris":{"android":"levelo://app?vid=49f12802-d823-4cb5-903c-1c17fbf5b903","ios":"levelo://app?vid=49f12802-d823-4cb5-903c-1c17fbf5b903"},"vehicle_type_id":"4","last_reported":1750093781,"current_range_meters":6800,"station_id":"","pricing_plan_id":"cebpf4jnsgd1na2vs0mg"},{"bike_id":"05e56e51-6682-4418-8a12-3b8138207b0b","system_id":"levelo_inurba_marseille","lat":43.229287,"lon":5.353771,"is_reserved":false,"is_disabled":false,"rental_uris":{"android":"levelo://app?vid=05e56e51-6682-4418-8a12-3b8138207b0b","ios":"levelo://app?vid=05e56e51-6682-4418-8a12-3b8138207b0b"},"vehicle_type_id":"4","last_reported":1750093781,"current_range_meters":6800,"station_id":"","pricing_plan_id":"cebpf4jnsgd1na2vs0mg"},{"bike_id":"a00c16a4-bcd4-4340-a067-e27dffb69892","system_id":"levelo_inurba_marseille","lat":43.28088,"lon":5.39656,"is_reserved":false,"is_disabled":false,"rental_uris":{"android":"levelo://app?vid=a00c16a4-bcd4-4340-a067-e27dffb69892","ios":"levelo://app?vid=a00c16a4-bcd4-4340-a067-e27dffb69892"},"vehicle_type_id":"4","last_reported":1750093781,"current_range_meters":6800,"station_id":"ce4bho12rcd13ifvqh2g","pricing_plan_id":"cebpf4jnsgd1na2vs0mg"},{"bike_id":"04e8aefd-f2ce-40ac-9e66-98c297ec0b88","system_id":"levelo_inurba_marseille","lat":43.32346,"lon":5.40608,"is_reserved":false,"is_disabled":false,"rental_uris":{"android":"levelo://app?vid=04e8aefd-f2ce-40ac-9e66-98c297ec0b88","ios":"levelo://app?vid=04e8aefd-f2ce-40ac-9e66-98c297ec0b88"},"vehicle_type_id":"4","last_reported":1750093781,"current_range_meters":6800,"station_id":"ce4bhq92rcd13ifvqhjg","pricing_plan_id":"cebpf4jnsgd1na2vs0mg"},{"bike_id":"5b711611-83d5-46a8-9a25-d5b67c3343bb","system_id":"levelo_inurba_marseille","lat":43.29768,"lon":5.37105,"is_reserved":false,"is_disabled":false,"rental_uris":{"android":"levelo://app?vid=5b711611-83d5-46a8-9a25-d5b67c3343bb","ios":"levelo://app?vid=5b711611-83d5-46a8-9a25-d5b67c3343bb"},"vehicle_type_id":"4","last_reported":1750093781,"current_range_meters":7200,"station_id":"ce4bgop2rcd13ifvqc1g","pricing_plan_id":"cebpf4jnsgd1na2vs0mg"},{"bike_id":"c12b0aa0-a7bd-406b-b604-6152332ae014","system_id":"levelo_inurba_marseille","lat":43.30253,"lon":5.40069,"is_reserved":false,"is_disabled":false,"rental_uris":{"android":"levelo://app?vid=c12b0aa0-a7bd-406b-b604-6152332ae014","ios":"levelo://app?vid=c12b0aa0-a7bd-406b-b604-6152332ae014"},"vehicle_type_id":"4","last_reported":1750093781,"current_range_meters":7200,"station_id":"ce4bgvh2rcd13ifvqcs0","pricing_plan_id":"cebpf4jnsgd1na2vs0mg"},{"bike_id":"c80e47da-cec7-45c7-a78a-7bf12fee5212","system_id":"levelo_inurba_marseille","lat":43.29205,"lon":5.39319,"is_reserved":false,"is_disabled":false,"rental_uris":{"android":"levelo://app?vid=c80e47da-cec7-45c7-a78a-7bf12fee5212","ios":"levelo://app?vid=c80e47da-cec7-45c7-a78a-7bf12fee5212"},"vehicle_type_id":"4","last_reported":1750093781,"current_range_meters":7200,"station_id":"ce4bh192rcd13ifvqdd0","pricing_plan_id":"cebpf4jnsgd1na2vs0mg"},{"bike_id":"66ec6806-ead2-4175-ab9d-8d5cf4167684","system_id":"levelo_inurba_marseille","lat":43.29006,"lon":5.35613,"is_reserved":false,"is_disabled":false,"rental_uris":{"android":"levelo://app?vid=66ec6806-ead2-4175-ab9d-8d5cf4167684","ios":"levelo://app?vid=66ec6806-ead2-4175-ab9d-8d5cf4167684"},"vehicle_type_id":"4","last_reported":1750093781,"current_range_meters":7200,"station_id":"ce4bhb92rcd13ifvqen0","pricing_plan_id":"cebpf4jnsgd1na2vs0mg"},{"bike_id":"5fc05ce5-e86b-4f26-a224-e6deae61e32f","system_id":"levelo_inurba_marseille","lat":43.26183,"lon":5.37444,"is_reserved":false,"is_disabled":false,"rental_uris":{"android":"levelo://app?vid=5fc05ce5-e86b-4f26-a224-e6deae61e32f","ios":"levelo://app?vid=5fc05ce5-e86b-4f26-a224-e6deae61e32f"},"vehicle_type_id":"4","last_reported":1750093781,"current_range_meters":7200,"station_id":"ce4bhgp2rcd13ifvqfc0","pricing_plan_id":"cebpf4jnsgd1na2vs0mg"},{"bike_id":"8435daef-bf99-47e6-923f-18c8a5d70dec","system_id":"levelo_inurba_marseille","lat":43.25572,"lon":5.38272,"is_reserved":false,"is_disabled":false,"rental_uris":{"android":"levelo://app?vid=8435daef-bf99-47e6-923f-18c8a5d70dec","ios":"levelo://app?vid=8435daef-bf99-47e6-923f-18c8a5d70dec"},"vehicle_type_id":"4","last_reported":1750093781,"current_range_meters":7200,"station_id":"ce4bhih2rcd13ifvqfs0","pricing_plan_id":"cebpf4jnsgd1na2vs0mg"},{"bike_id":"3042c9e5-c5a5-4a11-94d1-8e536b5e25f7","system_id":"levelo_inurba_marseille","lat":43.21194,"lon":5.35072,"is_reserved":false,"is_disabled":false,"rental_uris":{"android":"levelo://app?vid=3042c9e5-c5a5-4a11-94d1-8e536b5e25f7","ios":"levelo://app?vid=3042c9e5-c5a5-4a11-94d1-8e536b5e25f7"},"vehicle_type_id":"4","last_reported":1750093781,"current_range_meters":7200,"station_id":"st_cvj6sg6p6f1abm77japg","pricing_plan_id":"cebpf4jnsgd1na2vs0mg"},{"bike_id":"8d297b38-f666-4a46-9dee-0132f800019c","system_id":"levelo_inurba_marseille","lat":43.32196,"lon":5.38551,"is_reserved":false,"is_disabled":false,"rental_uris":{"android":"levelo://app?vid=8d297b38-f666-4a46-9dee-0132f800019c","ios":"levelo://app?vid=8d297b38-f666-4a46-9dee-0132f800019c"},"vehicle_type_id":"4","last_reported":1750093781,"current_range_meters":8000,"station_id":"","pricing_plan_id":"cebpf4jnsgd1na2vs0mg"},{"bike_id":"09d8aee5-2823-4c43-9457-747575252211","system_id":"levelo_inurba_marseille","lat":43.29003,"lon":5.35617,"is_reserved":false,"is_disabled":false,"rental_uris":{"android":"levelo://app?vid=09d8aee5-2823-4c43-9457-747575252211","ios":"levelo://app?vid=09d8aee5-2823-4c43-9457-747575252211"},"vehicle_type_id":"4","last_reported":1750093781,"current_range_meters":8000,"station_id":"ce4bhb92rcd13ifvqen0","pricing_plan_id":"cebpf4jnsgd1na2vs0mg"},{"bike_id":"0d077a9a-b4e7-4cf2-a264-d8ad3e18ed07","system_id":"levelo_inurba_marseille","lat":43.25585,"lon":5.38236,"is_reserved":false,"is_disabled":false,"rental_uris":{"android":"levelo://app?vid=0d077a9a-b4e7-4cf2-a264-d8ad3e18ed07","ios":"levelo://app?vid=0d077a9a-b4e7-4cf2-a264-d8ad3e18ed07"},"vehicle_type_id":"4","last_reported":1750093781,"current_range_meters":8000,"station_id":"ce4bhih2rcd13ifvqfs0","pricing_plan_id":"cebpf4jnsgd1na2vs0mg"},{"bike_id":"a530d777-e70b-40e3-bb04-aa7ab9b80fe5","system_id":"levelo_inurba_marseille","lat":43.2816,"lon":5.42644,"is_reserved":false,"is_disabled":false,"rental_uris":{"android":"levelo://app?vid=a530d777-e70b-40e3-bb04-aa7ab9b80fe5","ios":"levelo://app?vid=a530d777-e70b-40e3-bb04-aa7ab9b80fe5"},"vehicle_type_id":"4","last_reported":1750093781,"current_range_meters":8000,"station_id":"ce4bhnh2rcd13ifvqgug","pricing_plan_id":"cebpf4jnsgd1na2vs0mg"},{"bike_id":"59ebea85-86d7-44cf-8e27-1c208a2ff220","system_id":"levelo_inurba_marseille","lat":43.32111,"lon":5.36799,"is_reserved":false,"is_disabled":false,"rental_uris":{"android":"levelo://app?vid=59ebea85-86d7-44cf-8e27-1c208a2ff220","ios":"levelo://app?vid=59ebea85-86d7-44cf-8e27-1c208a2ff220"},"vehicle_type_id":"4","last_reported":1750093781,"current_range_meters":8000,"station_id":"ce4bhrh2rcd13ifvqhug","pricing_plan_id":"cebpf4jnsgd1na2vs0mg"},{"bike_id":"5b42d044-a3e6-4aa9-bfae-33a738a7be05","system_id":"levelo_inurba_marseille","lat":43.28927,"lon":5.38406,"is_reserved":false,"is_disabled":false,"rental_uris":{"android":"levelo://app?vid=5b42d044-a3e6-4aa9-bfae-33a738a7be05","ios":"levelo://app?vid=5b42d044-a3e6-4aa9-bfae-33a738a7be05"},"vehicle_type_id":"4","last_reported":1750093781,"current_range_meters":8400,"station_id":"ce4bh612rcd13ifvqe6g","pricing_plan_id":"cebpf4jnsgd1na2vs0mg"},{"bike_id":"0a2edf7d-f7d7-41da-9d1c-d25dc899c71e","system_id":"levelo_inurba_marseille","lat":43.28454,"lon":5.35893,"is_reserved":false,"is_disabled":false,"rental_uris":{"android":"levelo://app?vid=0a2edf7d-f7d7-41da-9d1c-d25dc899c71e","ios":"levelo://app?vid=0a2edf7d-f7d7-41da-9d1c-d25dc899c71e"},"vehicle_type_id":"4","last_reported":1750093781,"current_range_meters":8400,"station_id":"ce4bhah2rcd13ifvqei0","pricing_plan_id":"cebpf4jnsgd1na2vs0mg"},{"bike_id":"91589396-d97f-46d7-b285-751307f9e3da","system_id":"levelo_inurba_marseille","lat":43.25003,"lon":5.38918,"is_reserved":false,"is_disabled":false,"rental_uris":{"android":"levelo://app?vid=91589396-d97f-46d7-b285-751307f9e3da","ios":"levelo://app?vid=91589396-d97f-46d7-b285-751307f9e3da"},"vehicle_type_id":"4","last_reported":1750093781,"current_range_meters":8400,"station_id":"ce4bhgp2rcd13ifvqfd0","pricing_plan_id":"cebpf4jnsgd1na2vs0mg"},{"bike_id":"79eeb666-d8d8-469a-94d3-68222c812a1d","system_id":"levelo_inurba_marseille","lat":43.3179,"lon":5.37462,"is_reserved":false,"is_disabled":false,"rental_uris":{"android":"levelo://app?vid=79eeb666-d8d8-469a-94d3-68222c812a1d","ios":"levelo://app?vid=79eeb666-d8d8-469a-94d3-68222c812a1d"},"vehicle_type_id":"4","last_reported":1750093781,"current_range_meters":8800,"station_id":"","pricing_plan_id":"cebpf4jnsgd1na2vs0mg"},{"bike_id":"dcb87a9a-18f8-41c6-9134-949f31e21b42","system_id":"levelo_inurba_marseille","lat":43.26999,"lon":5.39958,"is_reserved":false,"is_disabled":false,"rental_uris":{"android":"levelo://app?vid=dcb87a9a-18f8-41c6-9134-949f31e21b42","ios":"levelo://app?vid=dcb87a9a-18f8-41c6-9134-949f31e21b42"},"vehicle_type_id":"4","last_reported":1750093781,"current_range_meters":8800,"station_id":"","pricing_plan_id":"cebpf4jnsgd1na2vs0mg"},{"bike_id":"2f7825ba-7ca7-47da-9246-b525c7006020","system_id":"levelo_inurba_marseille","lat":43.306075,"lon":5.372229,"is_reserved":false,"is_disabled":false,"rental_uris":{"android":"levelo://app?vid=2f7825ba-7ca7-47da-9246-b525c7006020","ios":"levelo://app?vid=2f7825ba-7ca7-47da-9246-b525c7006020"},"vehicle_type_id":"4","last_reported":1750093781,"current_range_meters":8800,"station_id":"ce4bgqh2rcd13ifvqc4g","pricing_plan_id":"cebpf4jnsgd1na2vs0mg"},{"bike_id":"65993229-9777-4e41-a72e-51cfa087b6db","system_id":"levelo_inurba_marseille","lat":43.29196,"lon":5.35822,"is_reserved":false,"is_disabled":false,"rental_uris":{"android":"levelo://app?vid=65993229-9777-4e41-a72e-51cfa087b6db","ios":"levelo://app?vid=65993229-9777-4e41-a72e-51cfa087b6db"},"vehicle_type_id":"4","last_reported":1750093781,"current_range_meters":8800,"station_id":"ce4bhb12rcd13ifvqel0","pricing_plan_id":"cebpf4jnsgd1na2vs0mg"},{"bike_id":"8a1a529e-ae46-40c9-94a6-d98f71acdb4b","system_id":"levelo_inurba_marseille","lat":43.26013,"lon":5.3752,"is_reserved":false,"is_disabled":false,"rental_uris":{"android":"levelo://app?vid=8a1a529e-ae46-40c9-94a6-d98f71acdb4b","ios":"levelo://app?vid=8a1a529e-ae46-40c9-94a6-d98f71acdb4b"},"vehicle_type_id":"4","last_reported":1750093781,"current_range_meters":8800,"station_id":"ce4bhgh2rcd13ifvqfa0","pricing_plan_id":"cebpf4jnsgd1na2vs0mg"},{"bike_id":"c12b423b-781a-4da6-af36-d811dbb32f45","system_id":"levelo_inurba_marseille","lat":43.25084,"lon":5.39527,"is_reserved":false,"is_disabled":false,"rental_uris":{"android":"levelo://app?vid=c12b423b-781a-4da6-af36-d811dbb32f45","ios":"levelo://app?vid=c12b423b-781a-4da6-af36-d811dbb32f45"},"vehicle_type_id":"4","last_reported":1750093781,"current_range_meters":8800,"station_id":"ce4bhm12rcd13ifvqgkg","pricing_plan_id":"cebpf4jnsgd1na2vs0mg"},{"bike_id":"f91a9bbc-b4fa-4034-a21b-f21e594ff5a6","system_id":"levelo_inurba_marseille","lat":43.21187,"lon":5.35079,"is_reserved":false,"is_disabled":false,"rental_uris":{"android":"levelo://app?vid=f91a9bbc-b4fa-4034-a21b-f21e594ff5a6","ios":"levelo://app?vid=f91a9bbc-b4fa-4034-a21b-f21e594ff5a6"},"vehicle_type_id":"4","last_reported":1750093781,"current_range_meters":8800,"station_id":"st_cvj6sg6p6f1abm77japg","pricing_plan_id":"cebpf4jnsgd1na2vs0mg"},{"bike_id":"96f28763-58d8-41d3-90ae-00e2aae7e5cc","system_id":"levelo_inurba_marseille","lat":43.29668,"lon":5.37991,"is_reserved":false,"is_disabled":false,"rental_uris":{"android":"levelo://app?vid=96f28763-58d8-41d3-90ae-00e2aae7e5cc","ios":"levelo://app?vid=96f28763-58d8-41d3-90ae-00e2aae7e5cc"},"vehicle_type_id":"4","last_reported":1750093781,"current_range_meters":9200,"station_id":"","pricing_plan_id":"cebpf4jnsgd1na2vs0mg"},{"bike_id":"10d8703f-8168-48d3-b44c-9eaaf686e239","system_id":"levelo_inurba_marseille","lat":43.30609,"lon":5.37253,"is_reserved":false,"is_disabled":false,"rental_uris":{"android":"levelo://app?vid=10d8703f-8168-48d3-b44c-9eaaf686e239","ios":"levelo://app?vid=10d8703f-8168-48d3-b44c-9eaaf686e239"},"vehicle_type_id":"4","last_reported":1750093781,"current_range_meters":9200,"station_id":"ce4bgqh2rcd13ifvqc4g","pricing_plan_id":"cebpf4jnsgd1na2vs0mg"},{"bike_id":"ebbe2777-b3c4-4790-aca6-8c5579413c5a","system_id":"levelo_inurba_marseille","lat":43.3014,"lon":5.39884,"is_reserved":false,"is_disabled":false,"rental_uris":{"android":"levelo://app?vid=ebbe2777-b3c4-4790-aca6-8c5579413c5a","ios":"levelo://app?vid=ebbe2777-b3c4-4790-aca6-8c5579413c5a"},"vehicle_type_id":"4","last_reported":1750093781,"current_range_meters":9200,"station_id":"ce4bh0h2rcd13ifvqd40","pricing_plan_id":"cebpf4jnsgd1na2vs0mg"},{"bike_id":"ccfcfc43-47d4-4f28-8d02-e21c60446a78","system_id":"levelo_inurba_marseille","lat":43.29208,"lon":5.36043,"is_reserved":false,"is_disabled":false,"rental_uris":{"android":"levelo://app?vid=ccfcfc43-47d4-4f28-8d02-e21c60446a78","ios":"levelo://app?vid=ccfcfc43-47d4-4f28-8d02-e21c60446a78"},"vehicle_type_id":"4","last_reported":1750093781,"current_range_meters":9200,"station_id":"ce4bhbh2rcd13ifvqeqg","pricing_plan_id":"cebpf4jnsgd1na2vs0mg"},{"bike_id":"7a87d93d-591f-4192-baaa-5f631abf730c","system_id":"levelo_inurba_marseille","lat":43.24389,"lon":5.37061,"is_reserved":false,"is_disabled":false,"rental_uris":{"android":"levelo://app?vid=7a87d93d-591f-4192-baaa-5f631abf730c","ios":"levelo://app?vid=7a87d93d-591f-4192-baaa-5f631abf730c"},"vehicle_type_id":"4","last_reported":1750093781,"current_range_meters":9200,"station_id":"ce4bhhh2rcd13ifvqfk0","pricing_plan_id":"cebpf4jnsgd1na2vs0mg"},{"bike_id":"6912304c-1f96-422d-8b7b-a4439b25fd54","system_id":"levelo_inurba_marseille","lat":43.27979,"lon":5.4166,"is_reserved":false,"is_disabled":false,"rental_uris":{"android":"levelo://app?vid=6912304c-1f96-422d-8b7b-a4439b25fd54","ios":"levelo://app?vid=6912304c-1f96-422d-8b7b-a4439b25fd54"},"vehicle_type_id":"4","last_reported":1750093781,"current_range_meters":9200,"station_id":"ce4bho12rcd13ifvqh1g","pricing_plan_id":"cebpf4jnsgd1na2vs0mg"},{"bike_id":"4f6feacf-02c9-49e4-8395-844e9bb60fc6","system_id":"levelo_inurba_marseille","lat":43.276221,"lon":5.361044,"is_reserved":false,"is_disabled":false,"rental_uris":{"android":"levelo://app?vid=4f6feacf-02c9-49e4-8395-844e9bb60fc6","ios":"levelo://app?vid=4f6feacf-02c9-49e4-8395-844e9bb60fc6"},"vehicle_type_id":"4","last_reported":1750093781,"current_range_meters":9600,"station_id":"ce4bgj92rcd13ifvqbe0","pricing_plan_id":"cebpf4jnsgd1na2vs0mg"},{"bike_id":"02ef792c-7d88-407e-9702-3d9b9bc3002e","system_id":"levelo_inurba_marseille","lat":43.29261,"lon":5.3844,"is_reserved":false,"is_disabled":false,"rental_uris":{"android":"levelo://app?vid=02ef792c-7d88-407e-9702-3d9b9bc3002e","ios":"levelo://app?vid=02ef792c-7d88-407e-9702-3d9b9bc3002e"},"vehicle_type_id":"4","last_reported":1750093781,"current_range_meters":9600,"station_id":"ce4bh692rcd13ifvqea0","pricing_plan_id":"cebpf4jnsgd1na2vs0mg"},{"bike_id":"a8998dc8-4952-46f2-96ea-2a75527316e0","system_id":"levelo_inurba_marseille","lat":43.29181,"lon":5.37169,"is_reserved":false,"is_disabled":false,"rental_uris":{"android":"levelo://app?vid=a8998dc8-4952-46f2-96ea-2a75527316e0","ios":"levelo://app?vid=a8998dc8-4952-46f2-96ea-2a75527316e0"},"vehicle_type_id":"4","last_reported":1750093781,"current_range_meters":9600,"station_id":"ce4bha92rcd13ifvqeh0","pricing_plan_id":"cebpf4jnsgd1na2vs0mg"},{"bike_id":"2ee814a5-4054-4fbd-aeb6-e30813100c3b","system_id":"levelo_inurba_marseille","lat":43.23193,"lon":5.40004,"is_reserved":false,"is_disabled":false,"rental_uris":{"android":"levelo://app?vid=2ee814a5-4054-4fbd-aeb6-e30813100c3b","ios":"levelo://app?vid=2ee814a5-4054-4fbd-aeb6-e30813100c3b"},"vehicle_type_id":"4","last_reported":1750093781,"current_range_meters":9600,"station_id":"ce4bhn12rcd13ifvqgqg","pricing_plan_id":"cebpf4jnsgd1na2vs0mg"},{"bike_id":"87a73488-390c-4e28-a3b3-5d6b7a9184c3","system_id":"levelo_inurba_marseille","lat":43.337444,"lon":5.374475,"is_reserved":false,"is_disabled":false,"rental_uris":{"android":"levelo://app?vid=87a73488-390c-4e28-a3b3-5d6b7a9184c3","ios":"levelo://app?vid=87a73488-390c-4e28-a3b3-5d6b7a9184c3"},"vehicle_type_id":"4","last_reported":1750093781,"current_range_meters":10000,"station_id":"","pricing_plan_id":"cebpf4jnsgd1na2vs0mg"},{"bike_id":"93408b2e-ce07-49da-83d2-44f5999e9db8","system_id":"levelo_inurba_marseille","lat":43.2953,"lon":5.38544,"is_reserved":false,"is_disabled":false,"rental_uris":{"android":"levelo://app?vid=93408b2e-ce07-49da-83d2-44f5999e9db8","ios":"levelo://app?vid=93408b2e-ce07-49da-83d2-44f5999e9db8"},"vehicle_type_id":"4","last_reported":1750093781,"current_range_meters":10000,"station_id":"ce4bgih2rcd13ifvqba0","pricing_plan_id":"cebpf4jnsgd1na2vs0mg"},{"bike_id":"872acb3e-4bfb-4ce0-9c42-ac4457d8cba6","system_id":"levelo_inurba_marseille","lat":43.31365,"lon":5.38494,"is_reserved":false,"is_disabled":false,"rental_uris":{"android":"levelo://app?vid=872acb3e-4bfb-4ce0-9c42-ac4457d8cba6","ios":"levelo://app?vid=872acb3e-4bfb-4ce0-9c42-ac4457d8cba6"},"vehicle_type_id":"4","last_reported":1750093781,"current_range_meters":10000,"station_id":"ce4bgt92rcd13ifvqcf0","pricing_plan_id":"cebpf4jnsgd1na2vs0mg"},{"bike_id":"90f9c9de-e0ff-4789-bcb3-1464418d3bee","system_id":"levelo_inurba_marseille","lat":43.29263,"lon":5.38457,"is_reserved":false,"is_disabled":false,"rental_uris":{"android":"levelo://app?vid=90f9c9de-e0ff-4789-bcb3-1464418d3bee","ios":"levelo://app?vid=90f9c9de-e0ff-4789-bcb3-1464418d3bee"},"vehicle_type_id":"4","last_reported":1750093781,"current_range_meters":10000,"station_id":"ce4bh692rcd13ifvqea0","pricing_plan_id":"cebpf4jnsgd1na2vs0mg"},{"bike_id":"8700d13f-a57c-4101-8eb2-59dd8653db90","system_id":"levelo_inurba_marseille","lat":43.26497,"lon":5.39537,"is_reserved":false,"is_disabled":false,"rental_uris":{"android":"levelo://app?vid=8700d13f-a57c-4101-8eb2-59dd8653db90","ios":"levelo://app?vid=8700d13f-a57c-4101-8eb2-59dd8653db90"},"vehicle_type_id":"4","last_reported":1750093781,"current_range_meters":10000,"station_id":"ce4bhi12rcd13ifvqfq0","pricing_plan_id":"cebpf4jnsgd1na2vs0mg"},{"bike_id":"20a80f6a-a952-4c9e-b705-662baa9b8eed","system_id":"levelo_inurba_marseille","lat":43.25585,"lon":5.38232,"is_reserved":false,"is_disabled":false,"rental_uris":{"android":"levelo://app?vid=20a80f6a-a952-4c9e-b705-662baa9b8eed","ios":"levelo://app?vid=20a80f6a-a952-4c9e-b705-662baa9b8eed"},"vehicle_type_id":"4","last_reported":1750093781,"current_range_meters":10000,"station_id":"ce4bhih2rcd13ifvqfs0","pricing_plan_id":"cebpf4jnsgd1na2vs0mg"},{"bike_id":"4ab5207d-2be3-436e-bd9e-9882a21911ee","system_id":"levelo_inurba_marseille","lat":43.21191,"lon":5.35077,"is_reserved":false,"is_disabled":false,"rental_uris":{"android":"levelo://app?vid=4ab5207d-2be3-436e-bd9e-9882a21911ee","ios":"levelo://app?vid=4ab5207d-2be3-436e-bd9e-9882a21911ee"},"vehicle_type_id":"4","last_reported":1750093781,"current_range_meters":10000,"station_id":"st_cvj6sg6p6f1abm77japg","pricing_plan_id":"cebpf4jnsgd1na2vs0mg"},{"bike_id":"d7db84eb-a103-4722-9f80-59285db5d112","system_id":"levelo_inurba_marseille","lat":43.28373,"lon":5.35071,"is_reserved":false,"is_disabled":false,"rental_uris":{"android":"levelo://app?vid=d7db84eb-a103-4722-9f80-59285db5d112","ios":"levelo://app?vid=d7db84eb-a103-4722-9f80-59285db5d112"},"vehicle_type_id":"4","last_reported":1750093781,"current_range_meters":10800,"station_id":"","pricing_plan_id":"cebpf4jnsgd1na2vs0mg"},{"bike_id":"b6e9cbe8-359c-4c2b-a4ad-846afa8fe8ed","system_id":"levelo_inurba_marseille","lat":43.29602,"lon":5.38102,"is_reserved":false,"is_disabled":false,"rental_uris":{"android":"levelo://app?vid=b6e9cbe8-359c-4c2b-a4ad-846afa8fe8ed","ios":"levelo://app?vid=b6e9cbe8-359c-4c2b-a4ad-846afa8fe8ed"},"vehicle_type_id":"4","last_reported":1750093781,"current_range_meters":10800,"station_id":"ce4bgl12rcd13ifvqbo0","pricing_plan_id":"cebpf4jnsgd1na2vs0mg"},{"bike_id":"40fe9ef5-bce5-4867-873f-894747d76148","system_id":"levelo_inurba_marseille","lat":43.287098,"lon":5.400027,"is_reserved":false,"is_disabled":false,"rental_uris":{"android":"levelo://app?vid=40fe9ef5-bce5-4867-873f-894747d76148","ios":"levelo://app?vid=40fe9ef5-bce5-4867-873f-894747d76148"},"vehicle_type_id":"4","last_reported":1750093781,"current_range_meters":10800,"station_id":"ce4bho92rcd13ifvqh3g","pricing_plan_id":"cebpf4jnsgd1na2vs0mg"},{"bike_id":"6afc644c-08c3-42de-8619-3f94e2ba41cd","system_id":"levelo_inurba_marseille","lat":43.29912,"lon":5.4365,"is_reserved":false,"is_disabled":false,"rental_uris":{"android":"levelo://app?vid=6afc644c-08c3-42de-8619-3f94e2ba41cd","ios":"levelo://app?vid=6afc644c-08c3-42de-8619-3f94e2ba41cd"},"vehicle_type_id":"4","last_reported":1750093781,"current_range_meters":10800,"station_id":"ce4bhpp2rcd13ifvqhfg","pricing_plan_id":"cebpf4jnsgd1na2vs0mg"},{"bike_id":"bd6c18fd-9a57-46ad-b3ec-19f01982a448","system_id":"levelo_inurba_marseille","lat":43.32337,"lon":5.40624,"is_reserved":false,"is_disabled":false,"rental_uris":{"android":"levelo://app?vid=bd6c18fd-9a57-46ad-b3ec-19f01982a448","ios":"levelo://app?vid=bd6c18fd-9a57-46ad-b3ec-19f01982a448"},"vehicle_type_id":"4","last_reported":1750093781,"current_range_meters":10800,"station_id":"ce4bhq92rcd13ifvqhjg","pricing_plan_id":"cebpf4jnsgd1na2vs0mg"},{"bike_id":"6bed16c8-fe11-44a8-9d8c-6d5bf94f3d9d","system_id":"levelo_inurba_marseille","lat":43.32089,"lon":5.36751,"is_reserved":false,"is_disabled":false,"rental_uris":{"android":"levelo://app?vid=6bed16c8-fe11-44a8-9d8c-6d5bf94f3d9d","ios":"levelo://app?vid=6bed16c8-fe11-44a8-9d8c-6d5bf94f3d9d"},"vehicle_type_id":"4","last_reported":1750093781,"current_range_meters":10800,"station_id":"ce4bhrh2rcd13ifvqhug","pricing_plan_id":"cebpf4jnsgd1na2vs0mg"},{"bike_id":"25be301b-e50b-4f31-a209-462aec1b4ce5","system_id":"levelo_inurba_marseille","lat":43.21198,"lon":5.35079,"is_reserved":false,"is_disabled":false,"rental_uris":{"android":"levelo://app?vid=25be301b-e50b-4f31-a209-462aec1b4ce5","ios":"levelo://app?vid=25be301b-e50b-4f31-a209-462aec1b4ce5"},"vehicle_type_id":"4","last_reported":1750093781,"current_range_meters":10800,"station_id":"st_cvj6sg6p6f1abm77japg","pricing_plan_id":"cebpf4jnsgd1na2vs0mg"},{"bike_id":"1707390f-a7eb-477b-9e27-0a9e8f69e09d","system_id":"levelo_inurba_marseille","lat":43.299301,"lon":5.365354,"is_reserved":false,"is_disabled":false,"rental_uris":{"android":"levelo://app?vid=1707390f-a7eb-477b-9e27-0a9e8f69e09d","ios":"levelo://app?vid=1707390f-a7eb-477b-9e27-0a9e8f69e09d"},"vehicle_type_id":"4","last_reported":1750093781,"current_range_meters":11200,"station_id":"ce4bgm92rcd13ifvqbr0","pricing_plan_id":"cebpf4jnsgd1na2vs0mg"},{"bike_id":"18c9012e-8796-4d62-a640-56799a026540","system_id":"levelo_inurba_marseille","lat":43.29694,"lon":5.36599,"is_reserved":false,"is_disabled":false,"rental_uris":{"android":"levelo://app?vid=18c9012e-8796-4d62-a640-56799a026540","ios":"levelo://app?vid=18c9012e-8796-4d62-a640-56799a026540"},"vehicle_type_id":"4","last_reported":1750093781,"current_range_meters":11200,"station_id":"ce4bgn12rcd13ifvqbt0","pricing_plan_id":"cebpf4jnsgd1na2vs0mg"},{"bike_id":"9d355176-d818-4f9b-8a4f-54cdc847fd55","system_id":"levelo_inurba_marseille","lat":43.28409,"lon":5.34987,"is_reserved":false,"is_disabled":false,"rental_uris":{"android":"levelo://app?vid=9d355176-d818-4f9b-8a4f-54cdc847fd55","ios":"levelo://app?vid=9d355176-d818-4f9b-8a4f-54cdc847fd55"},"vehicle_type_id":"4","last_reported":1750093781,"current_range_meters":11200,"station_id":"ce4bhbh2rcd13ifvqepg","pricing_plan_id":"cebpf4jnsgd1na2vs0mg"},{"bike_id":"3f3dd1fc-c3e1-4907-b16b-2e42996ca50d","system_id":"levelo_inurba_marseille","lat":43.27198,"lon":5.40988,"is_reserved":false,"is_disabled":false,"rental_uris":{"android":"levelo://app?vid=3f3dd1fc-c3e1-4907-b16b-2e42996ca50d","ios":"levelo://app?vid=3f3dd1fc-c3e1-4907-b16b-2e42996ca50d"},"vehicle_type_id":"4","last_reported":1750093781,"current_range_meters":11200,"station_id":"ce4bhl12rcd13ifvqgf0","pricing_plan_id":"cebpf4jnsgd1na2vs0mg"},{"bike_id":"a66728c4-f2e7-428e-b872-e7406fb70732","system_id":"levelo_inurba_marseille","lat":43.21229,"lon":5.35063,"is_reserved":false,"is_disabled":false,"rental_uris":{"android":"levelo://app?vid=a66728c4-f2e7-428e-b872-e7406fb70732","ios":"levelo://app?vid=a66728c4-f2e7-428e-b872-e7406fb70732"},"vehicle_type_id":"4","last_reported":1750093781,"current_range_meters":11600,"station_id":"","pricing_plan_id":"cebpf4jnsgd1na2vs0mg"},{"bike_id":"9387093e-9963-47b8-a9b0-fc27e50d58af","system_id":"levelo_inurba_marseille","lat":43.29443,"lon":5.39743,"is_reserved":false,"is_disabled":false,"rental_uris":{"android":"levelo://app?vid=9387093e-9963-47b8-a9b0-fc27e50d58af","ios":"levelo://app?vid=9387093e-9963-47b8-a9b0-fc27e50d58af"},"vehicle_type_id":"4","last_reported":1750093781,"current_range_meters":11600,"station_id":"ce4bh3h2rcd13ifvqdo0","pricing_plan_id":"cebpf4jnsgd1na2vs0mg"},{"bike_id":"737273cf-8823-454e-a22b-b569b48bfa19","system_id":"levelo_inurba_marseille","lat":43.27393,"lon":5.3626,"is_reserved":false,"is_disabled":false,"rental_uris":{"android":"levelo://app?vid=737273cf-8823-454e-a22b-b569b48bfa19","ios":"levelo://app?vid=737273cf-8823-454e-a22b-b569b48bfa19"},"vehicle_type_id":"4","last_reported":1750093781,"current_range_meters":11600,"station_id":"ce4bhbh2rcd13ifvqeo0","pricing_plan_id":"cebpf4jnsgd1na2vs0mg"},{"bike_id":"4a84802c-4a48-4a81-8d95-25767c5ebeb0","system_id":"levelo_inurba_marseille","lat":43.28429,"lon":5.35011,"is_reserved":false,"is_disabled":false,"rental_uris":{"android":"levelo://app?vid=4a84802c-4a48-4a81-8d95-25767c5ebeb0","ios":"levelo://app?vid=4a84802c-4a48-4a81-8d95-25767c5ebeb0"},"vehicle_type_id":"4","last_reported":1750093781,"current_range_meters":11600,"station_id":"ce4bhbh2rcd13ifvqepg","pricing_plan_id":"cebpf4jnsgd1na2vs0mg"},{"bike_id":"06213fd4-3ac9-41fd-91fd-9202d4c13793","system_id":"levelo_inurba_marseille","lat":43.28399,"lon":5.35004,"is_reserved":false,"is_disabled":false,"rental_uris":{"android":"levelo://app?vid=06213fd4-3ac9-41fd-91fd-9202d4c13793","ios":"levelo://app?vid=06213fd4-3ac9-41fd-91fd-9202d4c13793"},"vehicle_type_id":"4","last_reported":1750093781,"current_range_meters":11600,"station_id":"ce4bhbh2rcd13ifvqepg","pricing_plan_id":"cebpf4jnsgd1na2vs0mg"},{"bike_id":"6b811b95-48f7-425c-85e8-f30606cb0332","system_id":"levelo_inurba_marseille","lat":43.28626,"lon":5.35112,"is_reserved":false,"is_disabled":false,"rental_uris":{"android":"levelo://app?vid=6b811b95-48f7-425c-85e8-f30606cb0332","ios":"levelo://app?vid=6b811b95-48f7-425c-85e8-f30606cb0332"},"vehicle_type_id":"4","last_reported":1750093781,"current_range_meters":11600,"station_id":"ce4bhch2rcd13ifvqeug","pricing_plan_id":"cebpf4jnsgd1na2vs0mg"},{"bike_id":"96b6957b-9065-43ca-aec5-03a99aaacd73","system_id":"levelo_inurba_marseille","lat":43.23938,"lon":5.3669,"is_reserved":false,"is_disabled":false,"rental_uris":{"android":"levelo://app?vid=96b6957b-9065-43ca-aec5-03a99aaacd73","ios":"levelo://app?vid=96b6957b-9065-43ca-aec5-03a99aaacd73"},"vehicle_type_id":"4","last_reported":1750093781,"current_range_meters":12000,"station_id":"","pricing_plan_id":"cebpf4jnsgd1na2vs0mg"},{"bike_id":"105003d9-6fa9-43f0-8f39-c42ca6ea9dc8","system_id":"levelo_inurba_marseille","lat":43.28412,"lon":5.37544,"is_reserved":false,"is_disabled":false,"rental_uris":{"android":"levelo://app?vid=105003d9-6fa9-43f0-8f39-c42ca6ea9dc8","ios":"levelo://app?vid=105003d9-6fa9-43f0-8f39-c42ca6ea9dc8"},"vehicle_type_id":"4","last_reported":1750093781,"current_range_meters":12000,"station_id":"ce4bh412rcd13ifvqds0","pricing_plan_id":"cebpf4jnsgd1na2vs0mg"},{"bike_id":"23a48cac-fc81-4e2b-9000-fe1e34ba8793","system_id":"levelo_inurba_marseille","lat":43.28462,"lon":5.35889,"is_reserved":false,"is_disabled":false,"rental_uris":{"android":"levelo://app?vid=23a48cac-fc81-4e2b-9000-fe1e34ba8793","ios":"levelo://app?vid=23a48cac-fc81-4e2b-9000-fe1e34ba8793"},"vehicle_type_id":"4","last_reported":1750093781,"current_range_meters":12000,"station_id":"ce4bhah2rcd13ifvqei0","pricing_plan_id":"cebpf4jnsgd1na2vs0mg"},{"bike_id":"d0c6b551-4765-4114-aa10-e8fbbdc1a4a7","system_id":"levelo_inurba_marseille","lat":43.27402,"lon":5.36311,"is_reserved":false,"is_disabled":false,"rental_uris":{"android":"levelo://app?vid=d0c6b551-4765-4114-aa10-e8fbbdc1a4a7","ios":"levelo://app?vid=d0c6b551-4765-4114-aa10-e8fbbdc1a4a7"},"vehicle_type_id":"4","last_reported":1750093781,"current_range_meters":12400,"station_id":"","pricing_plan_id":"cebpf4jnsgd1na2vs0mg"},{"bike_id":"da3e1724-606c-4f9a-9130-d56dd48e22e0","system_id":"levelo_inurba_marseille","lat":43.32908,"lon":5.40583,"is_reserved":false,"is_disabled":false,"rental_uris":{"android":"levelo://app?vid=da3e1724-606c-4f9a-9130-d56dd48e22e0","ios":"levelo://app?vid=da3e1724-606c-4f9a-9130-d56dd48e22e0"},"vehicle_type_id":"4","last_reported":1750093781,"current_range_meters":12400,"station_id":"","pricing_plan_id":"cebpf4jnsgd1na2vs0mg"},{"bike_id":"64c6d212-acc6-47e3-9e04-fbaf04a7ed4e","system_id":"levelo_inurba_marseille","lat":43.27007,"lon":5.38776,"is_reserved":false,"is_disabled":false,"rental_uris":{"android":"levelo://app?vid=64c6d212-acc6-47e3-9e04-fbaf04a7ed4e","ios":"levelo://app?vid=64c6d212-acc6-47e3-9e04-fbaf04a7ed4e"},"vehicle_type_id":"4","last_reported":1750093781,"current_range_meters":12400,"station_id":"","pricing_plan_id":"cebpf4jnsgd1na2vs0mg"},{"bike_id":"df927316-2fec-499d-9f63-d6f3bd67ef96","system_id":"levelo_inurba_marseille","lat":43.29055,"lon":5.37127,"is_reserved":false,"is_disabled":false,"rental_uris":{"android":"levelo://app?vid=df927316-2fec-499d-9f63-d6f3bd67ef96","ios":"levelo://app?vid=df927316-2fec-499d-9f63-d6f3bd67ef96"},"vehicle_type_id":"4","last_reported":1750093781,"current_range_meters":12400,"station_id":"ce4bh5p2rcd13ifvqe4g","pricing_plan_id":"cebpf4jnsgd1na2vs0mg"},{"bike_id":"e8814067-578b-48e1-9c17-aa96a1ef53a9","system_id":"levelo_inurba_marseille","lat":43.26563,"lon":5.39041,"is_reserved":false,"is_disabled":false,"rental_uris":{"android":"levelo://app?vid=e8814067-578b-48e1-9c17-aa96a1ef53a9","ios":"levelo://app?vid=e8814067-578b-48e1-9c17-aa96a1ef53a9"},"vehicle_type_id":"4","last_reported":1750093781,"current_range_meters":12400,"station_id":"ce4bhe12rcd13ifvqf30","pricing_plan_id":"cebpf4jnsgd1na2vs0mg"},{"bike_id":"c1fe837b-4172-45a6-ae4a-1994637ce174","system_id":"levelo_inurba_marseille","lat":43.24397,"lon":5.37056,"is_reserved":false,"is_disabled":false,"rental_uris":{"android":"levelo://app?vid=c1fe837b-4172-45a6-ae4a-1994637ce174","ios":"levelo://app?vid=c1fe837b-4172-45a6-ae4a-1994637ce174"},"vehicle_type_id":"4","last_reported":1750093781,"current_range_meters":12400,"station_id":"ce4bhhh2rcd13ifvqfk0","pricing_plan_id":"cebpf4jnsgd1na2vs0mg"},{"bike_id":"d0d627d7-c90f-40c6-b4f6-a5af26aeb2ef","system_id":"levelo_inurba_marseille","lat":43.30139,"lon":5.39878,"is_reserved":false,"is_disabled":false,"rental_uris":{"android":"levelo://app?vid=d0d627d7-c90f-40c6-b4f6-a5af26aeb2ef","ios":"levelo://app?vid=d0d627d7-c90f-40c6-b4f6-a5af26aeb2ef"},"vehicle_type_id":"4","last_reported":1750093781,"current_range_meters":12800,"station_id":"ce4bh0h2rcd13ifvqd40","pricing_plan_id":"cebpf4jnsgd1na2vs0mg"},{"bike_id":"f26b7403-fb9b-4b87-b984-4b12931fe3ed","system_id":"levelo_inurba_marseille","lat":43.29033,"lon":5.39982,"is_reserved":false,"is_disabled":false,"rental_uris":{"android":"levelo://app?vid=f26b7403-fb9b-4b87-b984-4b12931fe3ed","ios":"levelo://app?vid=f26b7403-fb9b-4b87-b984-4b12931fe3ed"},"vehicle_type_id":"4","last_reported":1750093781,"current_range_meters":12800,"station_id":"ce4bh392rcd13ifvqdm0","pricing_plan_id":"cebpf4jnsgd1na2vs0mg"},{"bike_id":"36eeb858-56d7-415e-a056-5a92580a063d","system_id":"levelo_inurba_marseille","lat":43.2869,"lon":5.37398,"is_reserved":false,"is_disabled":false,"rental_uris":{"android":"levelo://app?vid=36eeb858-56d7-415e-a056-5a92580a063d","ios":"levelo://app?vid=36eeb858-56d7-415e-a056-5a92580a063d"},"vehicle_type_id":"4","last_reported":1750093781,"current_range_meters":12800,"station_id":"ce4bh3p2rcd13ifvqdq0","pricing_plan_id":"cebpf4jnsgd1na2vs0mg"},{"bike_id":"88d4fd99-6294-4e6d-a1d4-ea2437f96cef","system_id":"levelo_inurba_marseille","lat":43.27376,"lon":5.36256,"is_reserved":false,"is_disabled":false,"rental_uris":{"android":"levelo://app?vid=88d4fd99-6294-4e6d-a1d4-ea2437f96cef","ios":"levelo://app?vid=88d4fd99-6294-4e6d-a1d4-ea2437f96cef"},"vehicle_type_id":"4","last_reported":1750093781,"current_range_meters":12800,"station_id":"ce4bhbh2rcd13ifvqeo0","pricing_plan_id":"cebpf4jnsgd1na2vs0mg"},{"bike_id":"48e98c35-6eaf-4651-a68c-7876f7d82eba","system_id":"levelo_inurba_marseille","lat":43.2482,"lon":5.37478,"is_reserved":false,"is_disabled":false,"rental_uris":{"android":"levelo://app?vid=48e98c35-6eaf-4651-a68c-7876f7d82eba","ios":"levelo://app?vid=48e98c35-6eaf-4651-a68c-7876f7d82eba"},"vehicle_type_id":"4","last_reported":1750093781,"current_range_meters":12800,"station_id":"ce4bhgh2rcd13ifvqfb0","pricing_plan_id":"cebpf4jnsgd1na2vs0mg"},{"bike_id":"398a0bbf-4f1e-4b6e-a4e1-0e8ceb1b1dbe","system_id":"levelo_inurba_marseille","lat":43.23966,"lon":5.36639,"is_reserved":false,"is_disabled":false,"rental_uris":{"android":"levelo://app?vid=398a0bbf-4f1e-4b6e-a4e1-0e8ceb1b1dbe","ios":"levelo://app?vid=398a0bbf-4f1e-4b6e-a4e1-0e8ceb1b1dbe"},"vehicle_type_id":"4","last_reported":1750093781,"current_range_meters":12800,"station_id":"ce4bhi12rcd13ifvqfp0","pricing_plan_id":"cebpf4jnsgd1na2vs0mg"},{"bike_id":"f267c5b5-bb9f-4a0d-9384-d8618a723782","system_id":"levelo_inurba_marseille","lat":43.251158,"lon":5.40324,"is_reserved":false,"is_disabled":false,"rental_uris":{"android":"levelo://app?vid=f267c5b5-bb9f-4a0d-9384-d8618a723782","ios":"levelo://app?vid=f267c5b5-bb9f-4a0d-9384-d8618a723782"},"vehicle_type_id":"4","last_reported":1750093781,"current_range_meters":12800,"station_id":"ce4bhlh2rcd13ifvqgig","pricing_plan_id":"cebpf4jnsgd1na2vs0mg"},{"bike_id":"356258c8-0ad6-493b-b5a4-77e865070f65","system_id":"levelo_inurba_marseille","lat":43.3262,"lon":5.41969,"is_reserved":false,"is_disabled":false,"rental_uris":{"android":"levelo://app?vid=356258c8-0ad6-493b-b5a4-77e865070f65","ios":"levelo://app?vid=356258c8-0ad6-493b-b5a4-77e865070f65"},"vehicle_type_id":"4","last_reported":1750093781,"current_range_meters":13600,"station_id":"","pricing_plan_id":"cebpf4jnsgd1na2vs0mg"},{"bike_id":"58d9cb1a-9e0c-4030-85bd-78dc1193ffba","system_id":"levelo_inurba_marseille","lat":43.29912,"lon":5.38146,"is_reserved":false,"is_disabled":false,"rental_uris":{"android":"levelo://app?vid=58d9cb1a-9e0c-4030-85bd-78dc1193ffba","ios":"levelo://app?vid=58d9cb1a-9e0c-4030-85bd-78dc1193ffba"},"vehicle_type_id":"4","last_reported":1750093781,"current_range_meters":13600,"station_id":"ce4bgj12rcd13ifvqbc0","pricing_plan_id":"cebpf4jnsgd1na2vs0mg"},{"bike_id":"5fb479d1-47ba-4102-b244-e84ad3ff1ae2","system_id":"levelo_inurba_marseille","lat":43.3079,"lon":5.37638,"is_reserved":false,"is_disabled":false,"rental_uris":{"android":"levelo://app?vid=5fb479d1-47ba-4102-b244-e84ad3ff1ae2","ios":"levelo://app?vid=5fb479d1-47ba-4102-b244-e84ad3ff1ae2"},"vehicle_type_id":"4","last_reported":1750093781,"current_range_meters":13600,"station_id":"ce4bgv92rcd13ifvqcq0","pricing_plan_id":"cebpf4jnsgd1na2vs0mg"},{"bike_id":"587e3277-443e-4556-be4c-0115d18dcf63","system_id":"levelo_inurba_marseille","lat":43.286174,"lon":5.351092,"is_reserved":false,"is_disabled":false,"rental_uris":{"android":"levelo://app?vid=587e3277-443e-4556-be4c-0115d18dcf63","ios":"levelo://app?vid=587e3277-443e-4556-be4c-0115d18dcf63"},"vehicle_type_id":"4","last_reported":1750093781,"current_range_meters":13600,"station_id":"ce4bhch2rcd13ifvqeug","pricing_plan_id":"cebpf4jnsgd1na2vs0mg"},{"bike_id":"64bc6087-cb9b-4714-9a07-286a603d7f29","system_id":"levelo_inurba_marseille","lat":43.32486,"lon":5.36557,"is_reserved":false,"is_disabled":false,"rental_uris":{"android":"levelo://app?vid=64bc6087-cb9b-4714-9a07-286a603d7f29","ios":"levelo://app?vid=64bc6087-cb9b-4714-9a07-286a603d7f29"},"vehicle_type_id":"4","last_reported":1750093781,"current_range_meters":13600,"station_id":"ce4bhs12rcd13ifvqhvg","pricing_plan_id":"cebpf4jnsgd1na2vs0mg"},{"bike_id":"d2868572-6fee-4690-8a81-283adbeec80c","system_id":"levelo_inurba_marseille","lat":43.2122,"lon":5.35077,"is_reserved":false,"is_disabled":false,"rental_uris":{"android":"levelo://app?vid=d2868572-6fee-4690-8a81-283adbeec80c","ios":"levelo://app?vid=d2868572-6fee-4690-8a81-283adbeec80c"},"vehicle_type_id":"4","last_reported":1750093781,"current_range_meters":13600,"station_id":"st_cvj6sg6p6f1abm77japg","pricing_plan_id":"cebpf4jnsgd1na2vs0mg"},{"bike_id":"3c14e89d-e905-43fb-8fcb-572c61da03e3","system_id":"levelo_inurba_marseille","lat":43.30297,"lon":5.39218,"is_reserved":false,"is_disabled":false,"rental_uris":{"android":"levelo://app?vid=3c14e89d-e905-43fb-8fcb-572c61da03e3","ios":"levelo://app?vid=3c14e89d-e905-43fb-8fcb-572c61da03e3"},"vehicle_type_id":"4","last_reported":1750093781,"current_range_meters":14000,"station_id":"ce4bgkh2rcd13ifvqbk0","pricing_plan_id":"cebpf4jnsgd1na2vs0mg"},{"bike_id":"df7fb3df-5234-4972-8bb2-efccec9ee9a6","system_id":"levelo_inurba_marseille","lat":43.31111,"lon":5.37771,"is_reserved":false,"is_disabled":false,"rental_uris":{"android":"levelo://app?vid=df7fb3df-5234-4972-8bb2-efccec9ee9a6","ios":"levelo://app?vid=df7fb3df-5234-4972-8bb2-efccec9ee9a6"},"vehicle_type_id":"4","last_reported":1750093781,"current_range_meters":14000,"station_id":"ce4bgt92rcd13ifvqcg0","pricing_plan_id":"cebpf4jnsgd1na2vs0mg"},{"bike_id":"e9307d5b-81f6-412e-ab0e-5f6acb32333c","system_id":"levelo_inurba_marseille","lat":43.27374,"lon":5.36272,"is_reserved":false,"is_disabled":false,"rental_uris":{"android":"levelo://app?vid=e9307d5b-81f6-412e-ab0e-5f6acb32333c","ios":"levelo://app?vid=e9307d5b-81f6-412e-ab0e-5f6acb32333c"},"vehicle_type_id":"4","last_reported":1750093781,"current_range_meters":14000,"station_id":"ce4bhbh2rcd13ifvqeo0","pricing_plan_id":"cebpf4jnsgd1na2vs0mg"},{"bike_id":"7c7160a5-cf44-4137-822d-c88eca1871ed","system_id":"levelo_inurba_marseille","lat":43.27387,"lon":5.36254,"is_reserved":false,"is_disabled":false,"rental_uris":{"android":"levelo://app?vid=7c7160a5-cf44-4137-822d-c88eca1871ed","ios":"levelo://app?vid=7c7160a5-cf44-4137-822d-c88eca1871ed"},"vehicle_type_id":"4","last_reported":1750093781,"current_range_meters":14000,"station_id":"ce4bhbh2rcd13ifvqeo0","pricing_plan_id":"cebpf4jnsgd1na2vs0mg"},{"bike_id":"8234c3d1-6475-4597-89d1-b7e75a0f4dc3","system_id":"levelo_inurba_marseille","lat":43.2481,"lon":5.37456,"is_reserved":false,"is_disabled":false,"rental_uris":{"android":"levelo://app?vid=8234c3d1-6475-4597-89d1-b7e75a0f4dc3","ios":"levelo://app?vid=8234c3d1-6475-4597-89d1-b7e75a0f4dc3"},"vehicle_type_id":"4","last_reported":1750093781,"current_range_meters":14000,"station_id":"ce4bhgh2rcd13ifvqfb0","pricing_plan_id":"cebpf4jnsgd1na2vs0mg"},{"bike_id":"c1ba07ad-731d-49d8-9fd6-a826431f3438","system_id":"levelo_inurba_marseille","lat":43.299033,"lon":5.436676,"is_reserved":false,"is_disabled":false,"rental_uris":{"android":"levelo://app?vid=c1ba07ad-731d-49d8-9fd6-a826431f3438","ios":"levelo://app?vid=c1ba07ad-731d-49d8-9fd6-a826431f3438"},"vehicle_type_id":"4","last_reported":1750093781,"current_range_meters":14000,"station_id":"ce4bhpp2rcd13ifvqhfg","pricing_plan_id":"cebpf4jnsgd1na2vs0mg"},{"bike_id":"083b526b-ec62-44c7-98f3-21273baded99","system_id":"levelo_inurba_marseille","lat":43.27654,"lon":5.38935,"is_reserved":false,"is_disabled":false,"rental_uris":{"android":"levelo://app?vid=083b526b-ec62-44c7-98f3-21273baded99","ios":"levelo://app?vid=083b526b-ec62-44c7-98f3-21273baded99"},"vehicle_type_id":"4","last_reported":1750093781,"current_range_meters":14400,"station_id":"","pricing_plan_id":"cebpf4jnsgd1na2vs0mg"},{"bike_id":"757906b4-eb86-4ed8-a0a5-7f582bcde75a","system_id":"levelo_inurba_marseille","lat":43.265332,"lon":5.395246,"is_reserved":false,"is_disabled":false,"rental_uris":{"android":"levelo://app?vid=757906b4-eb86-4ed8-a0a5-7f582bcde75a","ios":"levelo://app?vid=757906b4-eb86-4ed8-a0a5-7f582bcde75a"},"vehicle_type_id":"4","last_reported":1750093781,"current_range_meters":14400,"station_id":"","pricing_plan_id":"cebpf4jnsgd1na2vs0mg"},{"bike_id":"0be1fe4d-62db-4261-a645-0612f6c28e8b","system_id":"levelo_inurba_marseille","lat":43.29263,"lon":5.38444,"is_reserved":false,"is_disabled":false,"rental_uris":{"android":"levelo://app?vid=0be1fe4d-62db-4261-a645-0612f6c28e8b","ios":"levelo://app?vid=0be1fe4d-62db-4261-a645-0612f6c28e8b"},"vehicle_type_id":"4","last_reported":1750093781,"current_range_meters":14400,"station_id":"ce4bh692rcd13ifvqea0","pricing_plan_id":"cebpf4jnsgd1na2vs0mg"},{"bike_id":"34580055-a967-4c42-b414-8fd719e9084e","system_id":"levelo_inurba_marseille","lat":43.29004,"lon":5.35599,"is_reserved":false,"is_disabled":false,"rental_uris":{"android":"levelo://app?vid=34580055-a967-4c42-b414-8fd719e9084e","ios":"levelo://app?vid=34580055-a967-4c42-b414-8fd719e9084e"},"vehicle_type_id":"4","last_reported":1750093781,"current_range_meters":14400,"station_id":"ce4bhb92rcd13ifvqen0","pricing_plan_id":"cebpf4jnsgd1na2vs0mg"},{"bike_id":"e50f3c5d-e3b4-48a5-b3f3-6939ed3a6e1f","system_id":"levelo_inurba_marseille","lat":43.27374,"lon":5.36259,"is_reserved":false,"is_disabled":false,"rental_uris":{"android":"levelo://app?vid=e50f3c5d-e3b4-48a5-b3f3-6939ed3a6e1f","ios":"levelo://app?vid=e50f3c5d-e3b4-48a5-b3f3-6939ed3a6e1f"},"vehicle_type_id":"4","last_reported":1750093781,"current_range_meters":14400,"station_id":"ce4bhbh2rcd13ifvqeo0","pricing_plan_id":"cebpf4jnsgd1na2vs0mg"},{"bike_id":"4dc27560-c76e-477d-9e78-cd5f8653b397","system_id":"levelo_inurba_marseille","lat":43.2757,"lon":5.38441,"is_reserved":false,"is_disabled":false,"rental_uris":{"android":"levelo://app?vid=4dc27560-c76e-477d-9e78-cd5f8653b397","ios":"levelo://app?vid=4dc27560-c76e-477d-9e78-cd5f8653b397"},"vehicle_type_id":"4","last_reported":1750093781,"current_range_meters":14400,"station_id":"ce4bhh92rcd13ifvqfi0","pricing_plan_id":"cebpf4jnsgd1na2vs0mg"},{"bike_id":"ff3e1354-47e0-4719-87c5-08dbc5c733f5","system_id":"levelo_inurba_marseille","lat":43.23954,"lon":5.366276,"is_reserved":false,"is_disabled":false,"rental_uris":{"android":"levelo://app?vid=ff3e1354-47e0-4719-87c5-08dbc5c733f5","ios":"levelo://app?vid=ff3e1354-47e0-4719-87c5-08dbc5c733f5"},"vehicle_type_id":"4","last_reported":1750093781,"current_range_meters":14400,"station_id":"ce4bhi12rcd13ifvqfp0","pricing_plan_id":"cebpf4jnsgd1na2vs0mg"},{"bike_id":"6b4f7e8e-f866-491a-9a06-0b67f69fd7be","system_id":"levelo_inurba_marseille","lat":43.28078,"lon":5.39662,"is_reserved":false,"is_disabled":false,"rental_uris":{"android":"levelo://app?vid=6b4f7e8e-f866-491a-9a06-0b67f69fd7be","ios":"levelo://app?vid=6b4f7e8e-f866-491a-9a06-0b67f69fd7be"},"vehicle_type_id":"4","last_reported":1750093781,"current_range_meters":14400,"station_id":"ce4bho12rcd13ifvqh2g","pricing_plan_id":"cebpf4jnsgd1na2vs0mg"},{"bike_id":"6b75a80e-12fa-4bd0-b8db-b509b9abce19","system_id":"levelo_inurba_marseille","lat":43.21186,"lon":5.35082,"is_reserved":false,"is_disabled":false,"rental_uris":{"android":"levelo://app?vid=6b75a80e-12fa-4bd0-b8db-b509b9abce19","ios":"levelo://app?vid=6b75a80e-12fa-4bd0-b8db-b509b9abce19"},"vehicle_type_id":"4","last_reported":1750093781,"current_range_meters":14400,"station_id":"st_cvj6sg6p6f1abm77japg","pricing_plan_id":"cebpf4jnsgd1na2vs0mg"},{"bike_id":"d247f4ab-211a-407b-9290-4f185f6cd66a","system_id":"levelo_inurba_marseille","lat":43.21193,"lon":5.35077,"is_reserved":false,"is_disabled":false,"rental_uris":{"android":"levelo://app?vid=d247f4ab-211a-407b-9290-4f185f6cd66a","ios":"levelo://app?vid=d247f4ab-211a-407b-9290-4f185f6cd66a"},"vehicle_type_id":"4","last_reported":1750093781,"current_range_meters":14400,"station_id":"st_cvj6sg6p6f1abm77japg","pricing_plan_id":"cebpf4jnsgd1na2vs0mg"},{"bike_id":"2ae80011-f8d5-43f5-b5c8-9e65a89521ca","system_id":"levelo_inurba_marseille","lat":43.2955,"lon":5.37455,"is_reserved":false,"is_disabled":false,"rental_uris":{"android":"levelo://app?vid=2ae80011-f8d5-43f5-b5c8-9e65a89521ca","ios":"levelo://app?vid=2ae80011-f8d5-43f5-b5c8-9e65a89521ca"},"vehicle_type_id":"4","last_reported":1750093781,"current_range_meters":14800,"station_id":"ce4bgkp2rcd13ifvqbmg","pricing_plan_id":"cebpf4jnsgd1na2vs0mg"},{"bike_id":"b5126619-b06f-4595-a8d7-32a7312af27f","system_id":"levelo_inurba_marseille","lat":43.30089,"lon":5.39868,"is_reserved":false,"is_disabled":false,"rental_uris":{"android":"levelo://app?vid=b5126619-b06f-4595-a8d7-32a7312af27f","ios":"levelo://app?vid=b5126619-b06f-4595-a8d7-32a7312af27f"},"vehicle_type_id":"4","last_reported":1750093781,"current_range_meters":14800,"station_id":"ce4bh0h2rcd13ifvqd40","pricing_plan_id":"cebpf4jnsgd1na2vs0mg"},{"bike_id":"c70f2948-35aa-4931-91a0-30f51b3792de","system_id":"levelo_inurba_marseille","lat":43.27379,"lon":5.36259,"is_reserved":false,"is_disabled":false,"rental_uris":{"android":"levelo://app?vid=c70f2948-35aa-4931-91a0-30f51b3792de","ios":"levelo://app?vid=c70f2948-35aa-4931-91a0-30f51b3792de"},"vehicle_type_id":"4","last_reported":1750093781,"current_range_meters":14800,"station_id":"ce4bhbh2rcd13ifvqeo0","pricing_plan_id":"cebpf4jnsgd1na2vs0mg"},{"bike_id":"cb9cf34d-e81d-4e93-b448-d64732d642a6","system_id":"levelo_inurba_marseille","lat":43.28409,"lon":5.35,"is_reserved":false,"is_disabled":false,"rental_uris":{"android":"levelo://app?vid=cb9cf34d-e81d-4e93-b448-d64732d642a6","ios":"levelo://app?vid=cb9cf34d-e81d-4e93-b448-d64732d642a6"},"vehicle_type_id":"4","last_reported":1750093781,"current_range_meters":14800,"station_id":"ce4bhbh2rcd13ifvqepg","pricing_plan_id":"cebpf4jnsgd1na2vs0mg"},{"bike_id":"fbeda6c7-9834-4caa-aac0-bdd569d54d10","system_id":"levelo_inurba_marseille","lat":43.25105,"lon":5.40307,"is_reserved":false,"is_disabled":false,"rental_uris":{"android":"levelo://app?vid=fbeda6c7-9834-4caa-aac0-bdd569d54d10","ios":"levelo://app?vid=fbeda6c7-9834-4caa-aac0-bdd569d54d10"},"vehicle_type_id":"4","last_reported":1750093781,"current_range_meters":14800,"station_id":"ce4bhlh2rcd13ifvqgig","pricing_plan_id":"cebpf4jnsgd1na2vs0mg"},{"bike_id":"b16ea546-3f93-4a19-aa1d-b24b6cf5b95e","system_id":"levelo_inurba_marseille","lat":43.23143,"lon":5.43723,"is_reserved":false,"is_disabled":false,"rental_uris":{"android":"levelo://app?vid=b16ea546-3f93-4a19-aa1d-b24b6cf5b95e","ios":"levelo://app?vid=b16ea546-3f93-4a19-aa1d-b24b6cf5b95e"},"vehicle_type_id":"4","last_reported":1750093781,"current_range_meters":14800,"station_id":"ce4bhmp2rcd13ifvqgog","pricing_plan_id":"cebpf4jnsgd1na2vs0mg"},{"bike_id":"d05c512f-ecf8-4d54-8646-fa719dc17ab7","system_id":"levelo_inurba_marseille","lat":43.27579,"lon":5.41759,"is_reserved":false,"is_disabled":false,"rental_uris":{"android":"levelo://app?vid=d05c512f-ecf8-4d54-8646-fa719dc17ab7","ios":"levelo://app?vid=d05c512f-ecf8-4d54-8646-fa719dc17ab7"},"vehicle_type_id":"4","last_reported":1750093781,"current_range_meters":15200,"station_id":"","pricing_plan_id":"cebpf4jnsgd1na2vs0mg"},{"bike_id":"f562f8bc-a606-481b-85a5-e9ccccdb52e0","system_id":"levelo_inurba_marseille","lat":43.29712,"lon":5.3661,"is_reserved":false,"is_disabled":false,"rental_uris":{"android":"levelo://app?vid=f562f8bc-a606-481b-85a5-e9ccccdb52e0","ios":"levelo://app?vid=f562f8bc-a606-481b-85a5-e9ccccdb52e0"},"vehicle_type_id":"4","last_reported":1750093781,"current_range_meters":15200,"station_id":"ce4bgn12rcd13ifvqbt0","pricing_plan_id":"cebpf4jnsgd1na2vs0mg"},{"bike_id":"416d6f7f-0434-43e5-9f81-17970dc0c6f3","system_id":"levelo_inurba_marseille","lat":43.30789,"lon":5.37644,"is_reserved":false,"is_disabled":false,"rental_uris":{"android":"levelo://app?vid=416d6f7f-0434-43e5-9f81-17970dc0c6f3","ios":"levelo://app?vid=416d6f7f-0434-43e5-9f81-17970dc0c6f3"},"vehicle_type_id":"4","last_reported":1750093781,"current_range_meters":15200,"station_id":"ce4bgv92rcd13ifvqcq0","pricing_plan_id":"cebpf4jnsgd1na2vs0mg"},{"bike_id":"2e7fdedf-75bf-4561-9462-fb4bedcdfb44","system_id":"levelo_inurba_marseille","lat":43.30641,"lon":5.40079,"is_reserved":false,"is_disabled":false,"rental_uris":{"android":"levelo://app?vid=2e7fdedf-75bf-4561-9462-fb4bedcdfb44","ios":"levelo://app?vid=2e7fdedf-75bf-4561-9462-fb4bedcdfb44"},"vehicle_type_id":"4","last_reported":1750093781,"current_range_meters":15200,"station_id":"ce4bh112rcd13ifvqda0","pricing_plan_id":"cebpf4jnsgd1na2vs0mg"},{"bike_id":"29afb4e0-768a-47ad-8412-11274ed5292b","system_id":"levelo_inurba_marseille","lat":43.28263,"lon":5.35072,"is_reserved":false,"is_disabled":false,"rental_uris":{"android":"levelo://app?vid=29afb4e0-768a-47ad-8412-11274ed5292b","ios":"levelo://app?vid=29afb4e0-768a-47ad-8412-11274ed5292b"},"vehicle_type_id":"4","last_reported":1750093781,"current_range_meters":15200,"station_id":"ce4bhbp2rcd13ifvqerg","pricing_plan_id":"cebpf4jnsgd1na2vs0mg"},{"bike_id":"fa5c687e-c52e-4b16-931d-6e2b47699e9f","system_id":"levelo_inurba_marseille","lat":43.26563,"lon":5.37284,"is_reserved":false,"is_disabled":false,"rental_uris":{"android":"levelo://app?vid=fa5c687e-c52e-4b16-931d-6e2b47699e9f","ios":"levelo://app?vid=fa5c687e-c52e-4b16-931d-6e2b47699e9f"},"vehicle_type_id":"4","last_reported":1750093781,"current_range_meters":15200,"station_id":"ce4bhg12rcd13ifvqf70","pricing_plan_id":"cebpf4jnsgd1na2vs0mg"},{"bike_id":"f25ff58b-eb19-4b4d-94cc-7f6eb3573c38","system_id":"levelo_inurba_marseille","lat":43.30729,"lon":5.42442,"is_reserved":false,"is_disabled":false,"rental_uris":{"android":"levelo://app?vid=f25ff58b-eb19-4b4d-94cc-7f6eb3573c38","ios":"levelo://app?vid=f25ff58b-eb19-4b4d-94cc-7f6eb3573c38"},"vehicle_type_id":"4","last_reported":1750093781,"current_range_meters":15200,"station_id":"st_cvj6ca6bvosntc0bfgr0","pricing_plan_id":"cebpf4jnsgd1na2vs0mg"},{"bike_id":"25960fd9-8509-4555-9b23-fa4fae1e21d0","system_id":"levelo_inurba_marseille","lat":43.29017,"lon":5.38203,"is_reserved":false,"is_disabled":false,"rental_uris":{"android":"levelo://app?vid=25960fd9-8509-4555-9b23-fa4fae1e21d0","ios":"levelo://app?vid=25960fd9-8509-4555-9b23-fa4fae1e21d0"},"vehicle_type_id":"4","last_reported":1750093781,"current_range_meters":16000,"station_id":"","pricing_plan_id":"cebpf4jnsgd1na2vs0mg"},{"bike_id":"e4393142-f4d9-42df-a782-a7e56bbed06a","system_id":"levelo_inurba_marseille","lat":43.29475,"lon":5.38614,"is_reserved":false,"is_disabled":false,"rental_uris":{"android":"levelo://app?vid=e4393142-f4d9-42df-a782-a7e56bbed06a","ios":"levelo://app?vid=e4393142-f4d9-42df-a782-a7e56bbed06a"},"vehicle_type_id":"4","last_reported":1750093781,"current_range_meters":16000,"station_id":"","pricing_plan_id":"cebpf4jnsgd1na2vs0mg"},{"bike_id":"a5829ee6-f343-4196-9958-767ccccb2abe","system_id":"levelo_inurba_marseille","lat":43.27619,"lon":5.36116,"is_reserved":false,"is_disabled":false,"rental_uris":{"android":"levelo://app?vid=a5829ee6-f343-4196-9958-767ccccb2abe","ios":"levelo://app?vid=a5829ee6-f343-4196-9958-767ccccb2abe"},"vehicle_type_id":"4","last_reported":1750093781,"current_range_meters":16000,"station_id":"ce4bgj92rcd13ifvqbe0","pricing_plan_id":"cebpf4jnsgd1na2vs0mg"},{"bike_id":"c6e11e18-206f-4bff-84da-d0aa44e03a49","system_id":"levelo_inurba_marseille","lat":43.27391,"lon":5.36243,"is_reserved":false,"is_disabled":false,"rental_uris":{"android":"levelo://app?vid=c6e11e18-206f-4bff-84da-d0aa44e03a49","ios":"levelo://app?vid=c6e11e18-206f-4bff-84da-d0aa44e03a49"},"vehicle_type_id":"4","last_reported":1750093781,"current_range_meters":16000,"station_id":"ce4bhbh2rcd13ifvqeo0","pricing_plan_id":"cebpf4jnsgd1na2vs0mg"},{"bike_id":"4e1941d7-35af-4681-a414-7fde334ea697","system_id":"levelo_inurba_marseille","lat":43.289398,"lon":5.363782,"is_reserved":false,"is_disabled":false,"rental_uris":{"android":"levelo://app?vid=4e1941d7-35af-4681-a414-7fde334ea697","ios":"levelo://app?vid=4e1941d7-35af-4681-a414-7fde334ea697"},"vehicle_type_id":"4","last_reported":1750093781,"current_range_meters":16000,"station_id":"ce4bhc92rcd13ifvqetg","pricing_plan_id":"cebpf4jnsgd1na2vs0mg"},{"bike_id":"15afdd65-a399-4dfb-98bd-be8323f7882c","system_id":"levelo_inurba_marseille","lat":43.24173,"lon":5.397977,"is_reserved":false,"is_disabled":false,"rental_uris":{"android":"levelo://app?vid=15afdd65-a399-4dfb-98bd-be8323f7882c","ios":"levelo://app?vid=15afdd65-a399-4dfb-98bd-be8323f7882c"},"vehicle_type_id":"4","last_reported":1750093781,"current_range_meters":16400,"station_id":"","pricing_plan_id":"cebpf4jnsgd1na2vs0mg"},{"bike_id":"9ca4474d-50d3-4613-90fd-fa8476250cd0","system_id":"levelo_inurba_marseille","lat":43.26697,"lon":5.38291,"is_reserved":false,"is_disabled":false,"rental_uris":{"android":"levelo://app?vid=9ca4474d-50d3-4613-90fd-fa8476250cd0","ios":"levelo://app?vid=9ca4474d-50d3-4613-90fd-fa8476250cd0"},"vehicle_type_id":"4","last_reported":1750093781,"current_range_meters":16400,"station_id":"ce4bhg92rcd13ifvqf90","pricing_plan_id":"cebpf4jnsgd1na2vs0mg"},{"bike_id":"d98d4cfd-bc30-45f2-9c73-19a064b6a1fe","system_id":"levelo_inurba_marseille","lat":43.241,"lon":5.37752,"is_reserved":false,"is_disabled":false,"rental_uris":{"android":"levelo://app?vid=d98d4cfd-bc30-45f2-9c73-19a064b6a1fe","ios":"levelo://app?vid=d98d4cfd-bc30-45f2-9c73-19a064b6a1fe"},"vehicle_type_id":"4","last_reported":1750093781,"current_range_meters":16400,"station_id":"ce4bhnp2rcd13ifvqgvg","pricing_plan_id":"cebpf4jnsgd1na2vs0mg"},{"bike_id":"1e373418-986e-4d3c-9ff7-c37dd7c7a214","system_id":"levelo_inurba_marseille","lat":43.29907,"lon":5.43654,"is_reserved":false,"is_disabled":false,"rental_uris":{"android":"levelo://app?vid=1e373418-986e-4d3c-9ff7-c37dd7c7a214","ios":"levelo://app?vid=1e373418-986e-4d3c-9ff7-c37dd7c7a214"},"vehicle_type_id":"4","last_reported":1750093781,"current_range_meters":16400,"station_id":"ce4bhpp2rcd13ifvqhfg","pricing_plan_id":"cebpf4jnsgd1na2vs0mg"},{"bike_id":"0e27dafc-21df-4fb1-bd36-2450a7866702","system_id":"levelo_inurba_marseille","lat":43.27167,"lon":5.40004,"is_reserved":false,"is_disabled":false,"rental_uris":{"android":"levelo://app?vid=0e27dafc-21df-4fb1-bd36-2450a7866702","ios":"levelo://app?vid=0e27dafc-21df-4fb1-bd36-2450a7866702"},"vehicle_type_id":"4","last_reported":1750093781,"current_range_meters":16800,"station_id":"","pricing_plan_id":"cebpf4jnsgd1na2vs0mg"},{"bike_id":"d62f0fa4-a080-4d12-bb85-cdc397b2a76b","system_id":"levelo_inurba_marseille","lat":43.29265,"lon":5.38445,"is_reserved":false,"is_disabled":false,"rental_uris":{"android":"levelo://app?vid=d62f0fa4-a080-4d12-bb85-cdc397b2a76b","ios":"levelo://app?vid=d62f0fa4-a080-4d12-bb85-cdc397b2a76b"},"vehicle_type_id":"4","last_reported":1750093781,"current_range_meters":16800,"station_id":"ce4bh692rcd13ifvqea0","pricing_plan_id":"cebpf4jnsgd1na2vs0mg"},{"bike_id":"f8d1e557-c806-403e-b093-89a899d624dd","system_id":"levelo_inurba_marseille","lat":43.28636,"lon":5.3508,"is_reserved":false,"is_disabled":false,"rental_uris":{"android":"levelo://app?vid=f8d1e557-c806-403e-b093-89a899d624dd","ios":"levelo://app?vid=f8d1e557-c806-403e-b093-89a899d624dd"},"vehicle_type_id":"4","last_reported":1750093781,"current_range_meters":16800,"station_id":"ce4bhch2rcd13ifvqeug","pricing_plan_id":"cebpf4jnsgd1na2vs0mg"},{"bike_id":"f1c51b49-2723-4952-968b-ca0c8a907afc","system_id":"levelo_inurba_marseille","lat":43.28611,"lon":5.37064,"is_reserved":false,"is_disabled":false,"rental_uris":{"android":"levelo://app?vid=f1c51b49-2723-4952-968b-ca0c8a907afc","ios":"levelo://app?vid=f1c51b49-2723-4952-968b-ca0c8a907afc"},"vehicle_type_id":"4","last_reported":1750093781,"current_range_meters":16800,"station_id":"ce4bht12rcd13ifvqi60","pricing_plan_id":"cebpf4jnsgd1na2vs0mg"},{"bike_id":"8d8216b7-70be-4e0e-b02f-ed276d5ecd5f","system_id":"levelo_inurba_marseille","lat":43.23081,"lon":5.35512,"is_reserved":false,"is_disabled":false,"rental_uris":{"android":"levelo://app?vid=8d8216b7-70be-4e0e-b02f-ed276d5ecd5f","ios":"levelo://app?vid=8d8216b7-70be-4e0e-b02f-ed276d5ecd5f"},"vehicle_type_id":"4","last_reported":1750093781,"current_range_meters":16800,"station_id":"cpo3342slgdg3j2ifvpg","pricing_plan_id":"cebpf4jnsgd1na2vs0mg"},{"bike_id":"a1a41cf7-27e5-4e04-a882-fcdbd618f04d","system_id":"levelo_inurba_marseille","lat":43.22939,"lon":5.35382,"is_reserved":false,"is_disabled":false,"rental_uris":{"android":"levelo://app?vid=a1a41cf7-27e5-4e04-a882-fcdbd618f04d","ios":"levelo://app?vid=a1a41cf7-27e5-4e04-a882-fcdbd618f04d"},"vehicle_type_id":"4","last_reported":1750093781,"current_range_meters":16800,"station_id":"cpo3532slgdg3j2ikp40","pricing_plan_id":"cebpf4jnsgd1na2vs0mg"},{"bike_id":"d29ae4c8-bc7a-4ad5-928d-63e2cd50e3dc","system_id":"levelo_inurba_marseille","lat":43.30135,"lon":5.38781,"is_reserved":false,"is_disabled":false,"rental_uris":{"android":"levelo://app?vid=d29ae4c8-bc7a-4ad5-928d-63e2cd50e3dc","ios":"levelo://app?vid=d29ae4c8-bc7a-4ad5-928d-63e2cd50e3dc"},"vehicle_type_id":"4","last_reported":1750093781,"current_range_meters":17200,"station_id":"ce4bghh2rcd13ifvqb60","pricing_plan_id":"cebpf4jnsgd1na2vs0mg"},{"bike_id":"b0595a7d-af80-40bb-bffa-14faeec5f16c","system_id":"levelo_inurba_marseille","lat":43.29779,"lon":5.37091,"is_reserved":false,"is_disabled":false,"rental_uris":{"android":"levelo://app?vid=b0595a7d-af80-40bb-bffa-14faeec5f16c","ios":"levelo://app?vid=b0595a7d-af80-40bb-bffa-14faeec5f16c"},"vehicle_type_id":"4","last_reported":1750093781,"current_range_meters":17200,"station_id":"ce4bgop2rcd13ifvqc1g","pricing_plan_id":"cebpf4jnsgd1na2vs0mg"},{"bike_id":"5c45584a-4c5d-4273-b589-568a5c828e6b","system_id":"levelo_inurba_marseille","lat":43.30122,"lon":5.39891,"is_reserved":false,"is_disabled":false,"rental_uris":{"android":"levelo://app?vid=5c45584a-4c5d-4273-b589-568a5c828e6b","ios":"levelo://app?vid=5c45584a-4c5d-4273-b589-568a5c828e6b"},"vehicle_type_id":"4","last_reported":1750093781,"current_range_meters":17200,"station_id":"ce4bh0h2rcd13ifvqd40","pricing_plan_id":"cebpf4jnsgd1na2vs0mg"},{"bike_id":"fab68ab6-03a3-40f0-aba9-2ff28de689e5","system_id":"levelo_inurba_marseille","lat":43.28265,"lon":5.3507,"is_reserved":false,"is_disabled":false,"rental_uris":{"android":"levelo://app?vid=fab68ab6-03a3-40f0-aba9-2ff28de689e5","ios":"levelo://app?vid=fab68ab6-03a3-40f0-aba9-2ff28de689e5"},"vehicle_type_id":"4","last_reported":1750093781,"current_range_meters":17200,"station_id":"ce4bhbp2rcd13ifvqerg","pricing_plan_id":"cebpf4jnsgd1na2vs0mg"},{"bike_id":"be64cc57-7a27-4c2f-9192-fc35ed9d5339","system_id":"levelo_inurba_marseille","lat":43.254943,"lon":5.376435,"is_reserved":false,"is_disabled":false,"rental_uris":{"android":"levelo://app?vid=be64cc57-7a27-4c2f-9192-fc35ed9d5339","ios":"levelo://app?vid=be64cc57-7a27-4c2f-9192-fc35ed9d5339"},"vehicle_type_id":"4","last_reported":1750093781,"current_range_meters":17200,"station_id":"ce4bhh12rcd13ifvqff0","pricing_plan_id":"cebpf4jnsgd1na2vs0mg"},{"bike_id":"5535612e-45e3-447d-a27f-ccc754e838a0","system_id":"levelo_inurba_marseille","lat":43.27944,"lon":5.41053,"is_reserved":false,"is_disabled":false,"rental_uris":{"android":"levelo://app?vid=5535612e-45e3-447d-a27f-ccc754e838a0","ios":"levelo://app?vid=5535612e-45e3-447d-a27f-ccc754e838a0"},"vehicle_type_id":"4","last_reported":1750093781,"current_range_meters":17200,"station_id":"ce4bhnp2rcd13ifvqh0g","pricing_plan_id":"cebpf4jnsgd1na2vs0mg"},{"bike_id":"404b450f-6352-4674-9a2a-f51c6591d8da","system_id":"levelo_inurba_marseille","lat":43.29879,"lon":5.43684,"is_reserved":false,"is_disabled":false,"rental_uris":{"android":"levelo://app?vid=404b450f-6352-4674-9a2a-f51c6591d8da","ios":"levelo://app?vid=404b450f-6352-4674-9a2a-f51c6591d8da"},"vehicle_type_id":"4","last_reported":1750093781,"current_range_meters":17200,"station_id":"ce4bhpp2rcd13ifvqhfg","pricing_plan_id":"cebpf4jnsgd1na2vs0mg"},{"bike_id":"0af7f3a2-e0f5-46f4-a4dd-2ab41fe2d0ff","system_id":"levelo_inurba_marseille","lat":43.23177,"lon":5.35562,"is_reserved":false,"is_disabled":false,"rental_uris":{"android":"levelo://app?vid=0af7f3a2-e0f5-46f4-a4dd-2ab41fe2d0ff","ios":"levelo://app?vid=0af7f3a2-e0f5-46f4-a4dd-2ab41fe2d0ff"},"vehicle_type_id":"4","last_reported":1750093781,"current_range_meters":17200,"station_id":"ce4bhu92rcd13ifvqi70","pricing_plan_id":"cebpf4jnsgd1na2vs0mg"},{"bike_id":"3416a707-2d70-496d-9def-98dfa1a8af2c","system_id":"levelo_inurba_marseille","lat":43.23084,"lon":5.35501,"is_reserved":false,"is_disabled":false,"rental_uris":{"android":"levelo://app?vid=3416a707-2d70-496d-9def-98dfa1a8af2c","ios":"levelo://app?vid=3416a707-2d70-496d-9def-98dfa1a8af2c"},