{"last_updated":1704578777,"ttl":30,"version":"2.2","data":{"bikes":[{"bike_id":"c425a59a-6e2e-4cf3-a83a-9195f97464e2","system_id":"levelo_inurba_marseille","lat":43.31341,"lon":5.367098,"is_reserved":false,"is_disabled":false,"rental_uris":{"android":"levelo://app?vid=c425a59a-6e2e-4cf3-a83a-9195f97464e2","ios":"levelo://app?vid=c425a59a-6e2e-4cf3-a83a-9195f97464e2"},"vehicle_type_id":"4","last_reported":1704578777,"current_range_meters":29200,"station_id":"ce4bgr92rcd13ifvqc6g","pricing_plan_id":"free"},{"bike_id":"3deaca11-03d9-4cd4-9f60-9878320a68a8","system_id":"levelo_inurba_marseille","lat":43.312239,"lon":5.368562,"is_reserved":false,"is_disabled":false,"rental_uris":{"android":"levelo://app?vid=3deaca11-03d9-4cd4-9f60-9878320a68a8","ios":"levelo://app?vid=3deaca11-03d9-4cd4-9f60-9878320a68a8"},"vehicle_type_id":"4","last_reported":1704578777,"current_range_meters":10800,"station_id":"ce4bgl92rcd13ifvqbq0","pricing_plan_id":"free"},{"bike_id":"7ea19914-3280-4e35-aeca-654f9917a297","system_id":"levelo_inurba_marseille","lat":43.309076,"lon":5.368465,"is_reserved":false,"is_disabled":false,"rental_uris":{"android":"levelo://app?vid=7ea19914-3280-4e35-aeca-654f9917a297","ios":"levelo://app?vid=7ea19914-3280-4e35-aeca-654f9917a297"},"vehicle_type_id":"4","last_reported":1704578777,"current_range_meters":18800,"station_id":"ce4bgn92rcd13ifvqbvg","pricing_plan_id":"free"},{"bike_id":"a14ffc2c-aaf7-4a0c-974c-fb0eff055e8f","system_id":"levelo_inurba_marseille","lat":43.314811,"lon":5.373104,"is_reserved":false,"is_disabled":false,"rental_uris":{"android":"levelo://app?vid=a14ffc2c-aaf7-4a0c-974c-fb0eff055e8f","ios":"levelo://app?vid=a14ffc2c-aaf7-4a0c-974c-fb0eff055e8f"},"vehicle_type_id":"4","last_reported":1704578777,"current_range_meters":13200,"station_id":"ce4bgt12rcd13ifvqcd0","pricing_plan_id":"free"},{"bike_id":"aa90e863-5d05-45aa-9a02-68ea466a9fda","system_id":"levelo_inurba_marseille","lat":43.314811,"lon":5.373104,"is_reserved":false,"is_disabled":false,"rental_uris":{"android":"levelo://app?vid=aa90e863-5d05-45aa-9a02-68ea466a9fda","ios":"levelo://app?vid=aa90e863-5d05-45aa-9a02-68ea466a9fda"},"vehicle_type_id":"4","last_reported":1704578777,"current_range_meters":24400,"station_id":"ce4bgt12rcd13ifvqcd0","pricing_plan_id":"free"},{"bike_id":"a1d8cad3-fabd-4b0f-be3d-2f7f3e4b8cd2","system_id":"levelo_inurba_marseille","lat":43.309039,"lon":5.371797,"is_reserved":false,"is_disabled":false,"rental_uris":{"android":"levelo://app?vid=a1d8cad3-fabd-4b0f-be3d-2f7f3e4b8cd2","ios":"levelo://app?vid=a1d8cad3-fabd-4b0f-be3d-2f7f3e4b8cd2"},"vehicle_type_id":"4","last_reported":1704578777,"current_range_meters":29200,"station_id":"ce4bguh2rcd13ifvqckg","pricing_plan_id":"free"},{"bike_id":"b3cce754-093a-482e-a05d-1152ff4a51ea","system_id":"levelo_inurba_marseille","lat":43.316763,"lon":5.372693,"is_reserved":false,"is_disabled":false,"rental_uris":{"android":"levelo://app?vid=b3cce754-093a-482e-a05d-1152ff4a51ea","ios":"levelo://app?vid=b3cce754-093a-482e-a05d-1152ff4a51ea"},"vehicle_type_id":"4","last_reported":1704578777,"current_range_meters":6800,"station_id":"","pricing_plan_id":"free"},{"bike_id":"d6de3a91-d4aa-436e-9f53-33c60416afc7","system_id":"levelo_inurba_marseille","lat":43.305706,"lon":5.365654,"is_reserved":false,"is_disabled":false,"rental_uris":{"android":"levelo://app?vid=d6de3a91-d4aa-436e-9f53-33c60416afc7","ios":"levelo://app?vid=d6de3a91-d4aa-436e-9f53-33c60416afc7"},"vehicle_type_id":"4","last_reported":1704578777,"current_range_meters":20000,"station_id":"ce4bgs12rcd13ifvqcag","pricing_plan_id":"free"},{"bike_id":"095ec02d-442d-446d-9143-c93605a77858","system_id":"levelo_inurba_marseille","lat":43.305368,"lon":5.367343,"is_reserved":false,"is_disabled":false,"rental_uris":{"android":"levelo://app?vid=095ec02d-442d-446d-9143-c93605a77858","ios":"levelo://app?vid=095ec02d-442d-446d-9143-c93605a77858"},"vehicle_type_id":"4","last_reported":1704578777,"current_range_meters":26800,"station_id":"ce4bgrp2rcd13ifvqc9g","pricing_plan_id":"free"},{"bike_id":"20bbe7dc-3534-4e32-8b3b-69759adfc252","system_id":"levelo_inurba_marseille","lat":43.305989,"lon":5.37225,"is_reserved":false,"is_disabled":false,"rental_uris":{"android":"levelo://app?vid=20bbe7dc-3534-4e32-8b3b-69759adfc252","ios":"levelo://app?vid=20bbe7dc-3534-4e32-8b3b-69759adfc252"},"vehicle_type_id":"4","last_reported":1704578777,"current_range_meters":22800,"station_id":"ce4bgqh2rcd13ifvqc4g","pricing_plan_id":"free"},{"bike_id":"9ca78cb0-72cb-4e88-8e3c-ad1d933d1dd3","system_id":"levelo_inurba_marseille","lat":43.311131,"lon":5.377651,"is_reserved":false,"is_disabled":false,"rental_uris":{"android":"levelo://app?vid=9ca78cb0-72cb-4e88-8e3c-ad1d933d1dd3","ios":"levelo://app?vid=9ca78cb0-72cb-4e88-8e3c-ad1d933d1dd3"},"vehicle_type_id":"4","last_reported":1704578777,"current_range_meters":3600,"station_id":"ce4bgt92rcd13ifvqcg0","pricing_plan_id":"free"},{"bike_id":"68382ad2-6338-4a04-a17c-3729445bfc02","system_id":"levelo_inurba_marseille","lat":43.311131,"lon":5.377651,"is_reserved":false,"is_disabled":false,"rental_uris":{"android":"levelo://app?vid=68382ad2-6338-4a04-a17c-3729445bfc02","ios":"levelo://app?vid=68382ad2-6338-4a04-a17c-3729445bfc02"},"vehicle_type_id":"4","last_reported":1704578777,"current_range_meters":3200,"station_id":"ce4bgt92rcd13ifvqcg0","pricing_plan_id":"free"},{"bike_id":"fd6fcfb3-9c97-4bac-95fd-383a8efb2000","system_id":"levelo_inurba_marseille","lat":43.311125,"lon":5.377624,"is_reserved":false,"is_disabled":false,"rental_uris":{"android":"levelo://app?vid=fd6fcfb3-9c97-4bac-95fd-383a8efb2000","ios":"levelo://app?vid=fd6fcfb3-9c97-4bac-95fd-383a8efb2000"},"vehicle_type_id":"4","last_reported":1704578777,"current_range_meters":30000,"station_id":"ce4bgt92rcd13ifvqcg0","pricing_plan_id":"free"},{"bike_id":"f02e2a8d-e921-416f-810f-4aadd5da4dab","system_id":"levelo_inurba_marseille","lat":43.307945,"lon":5.376487,"is_reserved":false,"is_disabled":false,"rental_uris":{"android":"levelo://app?vid=f02e2a8d-e921-416f-810f-4aadd5da4dab","ios":"levelo://app?vid=f02e2a8d-e921-416f-810f-4aadd5da4dab"},"vehicle_type_id":"4","last_reported":1704578777,"current_range_meters":25600,"station_id":"ce4bgv92rcd13ifvqcq0","pricing_plan_id":"free"},{"bike_id":"89bffd9f-80ae-48ac-8282-961ba54a130e","system_id":"levelo_inurba_marseille","lat":43.317075,"lon":5.377367,"is_reserved":false,"is_disabled":false,"rental_uris":{"android":"levelo://app?vid=89bffd9f-80ae-48ac-8282-961ba54a130e","ios":"levelo://app?vid=89bffd9f-80ae-48ac-8282-961ba54a130e"},"vehicle_type_id":"4","last_reported":1704578777,"current_range_meters":28000,"station_id":"ce4bgth2rcd13ifvqch0","pricing_plan_id":"free"},{"bike_id":"c4e90871-bb94-4085-82dc-ccbd997a22ca","system_id":"levelo_inurba_marseille","lat":43.315329,"lon":5.379134,"is_reserved":false,"is_disabled":false,"rental_uris":{"android":"levelo://app?vid=c4e90871-bb94-4085-82dc-ccbd997a22ca","ios":"levelo://app?vid=c4e90871-bb94-4085-82dc-ccbd997a22ca"},"vehicle_type_id":"4","last_reported":1704578777,"current_range_meters":8400,"station_id":"","pricing_plan_id":"free"},{"bike_id":"a00cbe38-3108-4bf1-bc55-d1e1a2e7eefc","system_id":"levelo_inurba_marseille","lat":43.30312,"lon":5.36894,"is_reserved":false,"is_disabled":false,"rental_uris":{"android":"levelo://app?vid=a00cbe38-3108-4bf1-bc55-d1e1a2e7eefc","ios":"levelo://app?vid=a00cbe38-3108-4bf1-bc55-d1e1a2e7eefc"},"vehicle_type_id":"4","last_reported":1704578777,"current_range_meters":21600,"station_id":"ce4bgqh2rcd13ifvqc5g","pricing_plan_id":"free"},{"bike_id":"2e5aa7ae-3184-4798-a19c-e72c15563022","system_id":"levelo_inurba_marseille","lat":43.30304,"lon":5.368987,"is_reserved":false,"is_disabled":false,"rental_uris":{"android":"levelo://app?vid=2e5aa7ae-3184-4798-a19c-e72c15563022","ios":"levelo://app?vid=2e5aa7ae-3184-4798-a19c-e72c15563022"},"vehicle_type_id":"4","last_reported":1704578777,"current_range_meters":4400,"station_id":"ce4bgqh2rcd13ifvqc5g","pricing_plan_id":"free"},{"bike_id":"27df14bd-41fe-4913-9083-072cb87b50e6","system_id":"levelo_inurba_marseille","lat":43.30304,"lon":5.368987,"is_reserved":false,"is_disabled":false,"rental_uris":{"android":"levelo://app?vid=27df14bd-41fe-4913-9083-072cb87b50e6","ios":"levelo://app?vid=27df14bd-41fe-4913-9083-072cb87b50e6"},"vehicle_type_id":"4","last_reported":1704578777,"current_range_meters":5200,"station_id":"ce4bgqh2rcd13ifvqc5g","pricing_plan_id":"free"},{"bike_id":"29c6a7a9-f07d-4030-ab86-adb0c59b6223","system_id":"levelo_inurba_marseille","lat":43.315243,"lon":5.380315,"is_reserved":false,"is_disabled":false,"rental_uris":{"android":"levelo://app?vid=29c6a7a9-f07d-4030-ab86-adb0c59b6223","ios":"levelo://app?vid=29c6a7a9-f07d-4030-ab86-adb0c59b6223"},"vehicle_type_id":"4","last_reported":1704578777,"current_range_meters":15200,"station_id":"ce4bhsp2rcd13ifvqi50","pricing_plan_id":"free"},{"bike_id":"8ef1a586-cc29-4bb1-a1d4-de2934bfeac9","system_id":"levelo_inurba_marseille","lat":43.315293,"lon":5.380349,"is_reserved":false,"is_disabled":false,"rental_uris":{"android":"levelo://app?vid=8ef1a586-cc29-4bb1-a1d4-de2934bfeac9","ios":"levelo://app?vid=8ef1a586-cc29-4bb1-a1d4-de2934bfeac9"},"vehicle_type_id":"4","last_reported":1704578777,"current_range_meters":4800,"station_id":"ce4bhsp2rcd13ifvqi50","pricing_plan_id":"free"},{"bike_id":"410d56b4-8422-4bc5-a962-9b4ea6b59eab","system_id":"levelo_inurba_marseille","lat":43.301939,"lon":5.366286,"is_reserved":false,"is_disabled":false,"rental_uris":{"android":"levelo://app?vid=410d56b4-8422-4bc5-a962-9b4ea6b59eab","ios":"levelo://app?vid=410d56b4-8422-4bc5-a962-9b4ea6b59eab"},"vehicle_type_id":"4","last_reported":1704578777,"current_range_meters":31200,"station_id":"ce4bgrh2rcd13ifvqc8g","pricing_plan_id":"free"},{"bike_id":"65299ed0-39be-4339-99c8-f819dc7e5d34","system_id":"levelo_inurba_marseille","lat":43.301939,"lon":5.366286,"is_reserved":false,"is_disabled":false,"rental_uris":{"android":"levelo://app?vid=65299ed0-39be-4339-99c8-f819dc7e5d34","ios":"levelo://app?vid=65299ed0-39be-4339-99c8-f819dc7e5d34"},"vehicle_type_id":"4","last_reported":1704578777,"current_range_meters":29200,"station_id":"ce4bgrh2rcd13ifvqc8g","pricing_plan_id":"free"},{"bike_id":"f7ddd563-9d2c-413f-9af2-1f0725d18915","system_id":"levelo_inurba_marseille","lat":43.308012,"lon":5.381511,"is_reserved":false,"is_disabled":false,"rental_uris":{"android":"levelo://app?vid=f7ddd563-9d2c-413f-9af2-1f0725d18915","ios":"levelo://app?vid=f7ddd563-9d2c-413f-9af2-1f0725d18915"},"vehicle_type_id":"4","last_reported":1704578777,"current_range_meters":23200,"station_id":"ce4bgt12rcd13ifvqce0","pricing_plan_id":"free"},{"bike_id":"0ee61950-b4be-4001-90e8-ad50d61942f3","system_id":"levelo_inurba_marseille","lat":43.304606,"lon":5.379026,"is_reserved":false,"is_disabled":false,"rental_uris":{"android":"levelo://app?vid=0ee61950-b4be-4001-90e8-ad50d61942f3","ios":"levelo://app?vid=0ee61950-b4be-4001-90e8-ad50d61942f3"},"vehicle_type_id":"4","last_reported":1704578777,"current_range_meters":12000,"station_id":"ce4bgup2rcd13ifvqcn0","pricing_plan_id":"free"},{"bike_id":"488a3ed8-55f0-45c8-9e5a-4f7011f5cff1","system_id":"levelo_inurba_marseille","lat":43.304606,"lon":5.379026,"is_reserved":false,"is_disabled":false,"rental_uris":{"android":"levelo://app?vid=488a3ed8-55f0-45c8-9e5a-4f7011f5cff1","ios":"levelo://app?vid=488a3ed8-55f0-45c8-9e5a-4f7011f5cff1"},"vehicle_type_id":"4","last_reported":1704578777,"current_range_meters":14800,"station_id":"ce4bgup2rcd13ifvqcn0","pricing_plan_id":"free"},{"bike_id":"f9fe576d-f714-4c6f-afb1-8be6160b6d90","system_id":"levelo_inurba_marseille","lat":43.324771,"lon":5.36557,"is_reserved":false,"is_disabled":false,"rental_uris":{"android":"levelo://app?vid=f9fe576d-f714-4c6f-afb1-8be6160b6d90","ios":"levelo://app?vid=f9fe576d-f714-4c6f-afb1-8be6160b6d90"},"vehicle_type_id":"4","last_reported":1704578777,"current_range_meters":24800,"station_id":"ce4bhs12rcd13ifvqhvg","pricing_plan_id":"free"},{"bike_id":"2aa100e7-2671-4c1b-a1f0-ab7832afcbad","system_id":"levelo_inurba_marseille","lat":43.324771,"lon":5.36557,"is_reserved":false,"is_disabled":false,"rental_uris":{"android":"levelo://app?vid=2aa100e7-2671-4c1b-a1f0-ab7832afcbad","ios":"levelo://app?vid=2aa100e7-2671-4c1b-a1f0-ab7832afcbad"},"vehicle_type_id":"4","last_reported":1704578777,"current_range_meters":4000,"station_id":"ce4bhs12rcd13ifvqhvg","pricing_plan_id":"free"},{"bike_id":"9a5d20fc-5739-4188-aece-a966211e1333","system_id":"levelo_inurba_marseille","lat":43.324771,"lon":5.36557,"is_reserved":false,"is_disabled":false,"rental_uris":{"android":"levelo://app?vid=9a5d20fc-5739-4188-aece-a966211e1333","ios":"levelo://app?vid=9a5d20fc-5739-4188-aece-a966211e1333"},"vehicle_type_id":"4","last_reported":1704578777,"current_range_meters":18400,"station_id":"ce4bhs12rcd13ifvqhvg","pricing_plan_id":"free"},{"bike_id":"f92ec925-15ef-4f91-8a42-f43d19a0f82d","system_id":"levelo_inurba_marseille","lat":43.313571,"lon":5.384829,"is_reserved":false,"is_disabled":false,"rental_uris":{"android":"levelo://app?vid=f92ec925-15ef-4f91-8a42-f43d19a0f82d","ios":"levelo://app?vid=f92ec925-15ef-4f91-8a42-f43d19a0f82d"},"vehicle_type_id":"4","last_reported":1704578777,"current_range_meters":30000,"station_id":"ce4bgt92rcd13ifvqcf0","pricing_plan_id":"free"},{"bike_id":"e3b9ae65-acd7-4b41-ab6d-1121cea568da","system_id":"levelo_inurba_marseille","lat":43.313571,"lon":5.384829,"is_reserved":false,"is_disabled":false,"rental_uris":{"android":"levelo://app?vid=e3b9ae65-acd7-4b41-ab6d-1121cea568da","ios":"levelo://app?vid=e3b9ae65-acd7-4b41-ab6d-1121cea568da"},"vehicle_type_id":"4","last_reported":1704578777,"current_range_meters":25600,"station_id":"ce4bgt92rcd13ifvqcf0","pricing_plan_id":"free"},{"bike_id":"764f3dcc-5d52-4fa8-879d-a2ab43aa6892","system_id":"levelo_inurba_marseille","lat":43.313571,"lon":5.384829,"is_reserved":false,"is_disabled":false,"rental_uris":{"android":"levelo://app?vid=764f3dcc-5d52-4fa8-879d-a2ab43aa6892","ios":"levelo://app?vid=764f3dcc-5d52-4fa8-879d-a2ab43aa6892"},"vehicle_type_id":"4","last_reported":1704578777,"current_range_meters":26800,"station_id":"ce4bgt92rcd13ifvqcf0","pricing_plan_id":"free"},{"bike_id":"6d84ffbc-6218-44d8-9874-49e022ee5ef5","system_id":"levelo_inurba_marseille","lat":43.313571,"lon":5.384829,"is_reserved":false,"is_disabled":false,"rental_uris":{"android":"levelo://app?vid=6d84ffbc-6218-44d8-9874-49e022ee5ef5","ios":"levelo://app?vid=6d84ffbc-6218-44d8-9874-49e022ee5ef5"},"vehicle_type_id":"4","last_reported":1704578777,"current_range_meters":26800,"station_id":"ce4bgt92rcd13ifvqcf0","pricing_plan_id":"free"},{"bike_id":"17504bde-947a-4cd6-98b3-9a4c66aca99b","system_id":"levelo_inurba_marseille","lat":43.313827,"lon":5.385007,"is_reserved":false,"is_disabled":false,"rental_uris":{"android":"levelo://app?vid=17504bde-947a-4cd6-98b3-9a4c66aca99b","ios":"levelo://app?vid=17504bde-947a-4cd6-98b3-9a4c66aca99b"},"vehicle_type_id":"4","last_reported":1704578777,"current_range_meters":4400,"station_id":"","pricing_plan_id":"free"},{"bike_id":"c4da0e16-fac7-48e1-ac65-4c983694b7ad","system_id":"levelo_inurba_marseille","lat":43.299222,"lon":5.365554,"is_reserved":false,"is_disabled":false,"rental_uris":{"android":"levelo://app?vid=c4da0e16-fac7-48e1-ac65-4c983694b7ad","ios":"levelo://app?vid=c4da0e16-fac7-48e1-ac65-4c983694b7ad"},"vehicle_type_id":"4","last_reported":1704578777,"current_range_meters":28000,"station_id":"ce4bgm92rcd13ifvqbr0","pricing_plan_id":"free"},{"bike_id":"c2970ff6-cb8f-4948-b740-3819f93fd944","system_id":"levelo_inurba_marseille","lat":43.299724,"lon":5.371829,"is_reserved":false,"is_disabled":false,"rental_uris":{"android":"levelo://app?vid=c2970ff6-cb8f-4948-b740-3819f93fd944","ios":"levelo://app?vid=c2970ff6-cb8f-4948-b740-3819f93fd944"},"vehicle_type_id":"4","last_reported":1704578777,"current_range_meters":800,"station_id":"ce4bgr92rcd13ifvqc7g","pricing_plan_id":"free"},{"bike_id":"69de95c2-76a5-4a02-b519-cf5e0d49bfad","system_id":"levelo_inurba_marseille","lat":43.299222,"lon":5.365554,"is_reserved":false,"is_disabled":false,"rental_uris":{"android":"levelo://app?vid=69de95c2-76a5-4a02-b519-cf5e0d49bfad","ios":"levelo://app?vid=69de95c2-76a5-4a02-b519-cf5e0d49bfad"},"vehicle_type_id":"4","last_reported":1704578777,"current_range_meters":11600,"station_id":"ce4bgm92rcd13ifvqbr0","pricing_plan_id":"free"},{"bike_id":"a51e5b63-ef4d-4660-8d90-f2f10ca2f607","system_id":"levelo_inurba_marseille","lat":43.299724,"lon":5.371829,"is_reserved":false,"is_disabled":false,"rental_uris":{"android":"levelo://app?vid=a51e5b63-ef4d-4660-8d90-f2f10ca2f607","ios":"levelo://app?vid=a51e5b63-ef4d-4660-8d90-f2f10ca2f607"},"vehicle_type_id":"4","last_reported":1704578777,"current_range_meters":0,"station_id":"ce4bgr92rcd13ifvqc7g","pricing_plan_id":"free"},{"bike_id":"ce0040e2-8a1f-4882-922d-ea15a02d1ba4","system_id":"levelo_inurba_marseille","lat":43.300838,"lon":5.376963,"is_reserved":false,"is_disabled":false,"rental_uris":{"android":"levelo://app?vid=ce0040e2-8a1f-4882-922d-ea15a02d1ba4","ios":"levelo://app?vid=ce0040e2-8a1f-4882-922d-ea15a02d1ba4"},"vehicle_type_id":"4","last_reported":1704578777,"current_range_meters":4800,"station_id":"","pricing_plan_id":"free"},{"bike_id":"3c69489c-925b-4888-a83b-5a2156f1e4a8","system_id":"levelo_inurba_marseille","lat":43.299892,"lon":5.374478,"is_reserved":false,"is_disabled":false,"rental_uris":{"android":"levelo://app?vid=3c69489c-925b-4888-a83b-5a2156f1e4a8","ios":"levelo://app?vid=3c69489c-925b-4888-a83b-5a2156f1e4a8"},"vehicle_type_id":"4","last_reported":1704578777,"current_range_meters":24800,"station_id":"","pricing_plan_id":"free"},{"bike_id":"b22604ec-0c4b-41b4-a20e-38add68f7682","system_id":"levelo_inurba_marseille","lat":43.32561,"lon":5.37484,"is_reserved":false,"is_disabled":false,"rental_uris":{"android":"levelo://app?vid=b22604ec-0c4b-41b4-a20e-38add68f7682","ios":"levelo://app?vid=b22604ec-0c4b-41b4-a20e-38add68f7682"},"vehicle_type_id":"4","last_reported":1704578777,"current_range_meters":12400,"station_id":"","pricing_plan_id":"free"},{"bike_id":"6bcfd9fd-d8c9-4f06-b5b3-324f7e0bfd56","system_id":"levelo_inurba_marseille","lat":43.305364,"lon":5.384119,"is_reserved":false,"is_disabled":false,"rental_uris":{"android":"levelo://app?vid=6bcfd9fd-d8c9-4f06-b5b3-324f7e0bfd56","ios":"levelo://app?vid=6bcfd9fd-d8c9-4f06-b5b3-324f7e0bfd56"},"vehicle_type_id":"4","last_reported":1704578777,"current_range_meters":4400,"station_id":"ce4bgg92rcd13ifvqb30","pricing_plan_id":"free"},{"bike_id":"d024de3c-ad13-4647-b388-d395a3b0145c","system_id":"levelo_inurba_marseille","lat":43.297163,"lon":5.365866,"is_reserved":false,"is_disabled":false,"rental_uris":{"android":"levelo://app?vid=d024de3c-ad13-4647-b388-d395a3b0145c","ios":"levelo://app?vid=d024de3c-ad13-4647-b388-d395a3b0145c"},"vehicle_type_id":"4","last_reported":1704578777,"current_range_meters":24800,"station_id":"ce4bgn12rcd13ifvqbt0","pricing_plan_id":"free"},{"bike_id":"555af77a-60c6-45fa-a0c9-3fd2ebf0c7fc","system_id":"levelo_inurba_marseille","lat":43.305364,"lon":5.384119,"is_reserved":false,"is_disabled":false,"rental_uris":{"android":"levelo://app?vid=555af77a-60c6-45fa-a0c9-3fd2ebf0c7fc","ios":"levelo://app?vid=555af77a-60c6-45fa-a0c9-3fd2ebf0c7fc"},"vehicle_type_id":"4","last_reported":1704578777,"current_range_meters":16000,"station_id":"ce4bgg92rcd13ifvqb30","pricing_plan_id":"free"},{"bike_id":"90f624c9-e920-42f0-bdb2-c7157855cdc0","system_id":"levelo_inurba_marseille","lat":43.311605,"lon":5.386854,"is_reserved":false,"is_disabled":false,"rental_uris":{"android":"levelo://app?vid=90f624c9-e920-42f0-bdb2-c7157855cdc0","ios":"levelo://app?vid=90f624c9-e920-42f0-bdb2-c7157855cdc0"},"vehicle_type_id":"4","last_reported":1704578777,"current_range_meters":11600,"station_id":"","pricing_plan_id":"free"},{"bike_id":"fc92aa80-5b62-488e-b074-57b92494f5ed","system_id":"levelo_inurba_marseille","lat":43.305364,"lon":5.384119,"is_reserved":false,"is_disabled":false,"rental_uris":{"android":"levelo://app?vid=fc92aa80-5b62-488e-b074-57b92494f5ed","ios":"levelo://app?vid=fc92aa80-5b62-488e-b074-57b92494f5ed"},"vehicle_type_id":"4","last_reported":1704578777,"current_range_meters":27200,"station_id":"ce4bgg92rcd13ifvqb30","pricing_plan_id":"free"},{"bike_id":"6ebb6f8f-c2b1-4f68-8170-7c2d4b33c9da","system_id":"levelo_inurba_marseille","lat":43.311722,"lon":5.387247,"is_reserved":false,"is_disabled":false,"rental_uris":{"android":"levelo://app?vid=6ebb6f8f-c2b1-4f68-8170-7c2d4b33c9da","ios":"levelo://app?vid=6ebb6f8f-c2b1-4f68-8170-7c2d4b33c9da"},"vehicle_type_id":"4","last_reported":1704578777,"current_range_meters":30000,"station_id":"ce4bgv12rcd13ifvqcp0","pricing_plan_id":"free"},{"bike_id":"1e803025-1f09-466a-8d3d-f9f6386a6109","system_id":"levelo_inurba_marseille","lat":43.311722,"lon":5.387247,"is_reserved":false,"is_disabled":false,"rental_uris":{"android":"levelo://app?vid=1e803025-1f09-466a-8d3d-f9f6386a6109","ios":"levelo://app?vid=1e803025-1f09-466a-8d3d-f9f6386a6109"},"vehicle_type_id":"4","last_reported":1704578777,"current_range_meters":20400,"station_id":"ce4bgv12rcd13ifvqcp0","pricing_plan_id":"free"},{"bike_id":"f364d752-3786-4f67-89f0-85951ec57294","system_id":"levelo_inurba_marseille","lat":43.297774,"lon":5.370875,"is_reserved":false,"is_disabled":false,"rental_uris":{"android":"levelo://app?vid=f364d752-3786-4f67-89f0-85951ec57294","ios":"levelo://app?vid=f364d752-3786-4f67-89f0-85951ec57294"},"vehicle_type_id":"4","last_reported":1704578777,"current_range_meters":24800,"station_id":"ce4bgop2rcd13ifvqc1g","pricing_plan_id":"free"},{"bike_id":"276c91d7-6ca9-48bc-bf75-acd9920b9ec2","system_id":"levelo_inurba_marseille","lat":43.322872,"lon":5.382756,"is_reserved":false,"is_disabled":false,"rental_uris":{"android":"levelo://app?vid=276c91d7-6ca9-48bc-bf75-acd9920b9ec2","ios":"levelo://app?vid=276c91d7-6ca9-48bc-bf75-acd9920b9ec2"},"vehicle_type_id":"4","last_reported":1704578777,"current_range_meters":26000,"station_id":"ce4bhr12rcd13ifvqhqg","pricing_plan_id":"free"},{"bike_id":"297a7823-4b34-45b3-8282-c78d31cc9f05","system_id":"levelo_inurba_marseille","lat":43.322872,"lon":5.382756,"is_reserved":false,"is_disabled":false,"rental_uris":{"android":"levelo://app?vid=297a7823-4b34-45b3-8282-c78d31cc9f05","ios":"levelo://app?vid=297a7823-4b34-45b3-8282-c78d31cc9f05"},"vehicle_type_id":"4","last_reported":1704578777,"current_range_meters":28000,"station_id":"ce4bhr12rcd13ifvqhqg","pricing_plan_id":"free"},{"bike_id":"3bb7c7dd-5eca-4a2d-a889-98c939c30e62","system_id":"levelo_inurba_marseille","lat":43.32288,"lon":5.38266,"is_reserved":false,"is_disabled":false,"rental_uris":{"android":"levelo://app?vid=3bb7c7dd-5eca-4a2d-a889-98c939c30e62","ios":"levelo://app?vid=3bb7c7dd-5eca-4a2d-a889-98c939c30e62"},"vehicle_type_id":"4","last_reported":1704578777,"current_range_meters":29600,"station_id":"ce4bhr12rcd13ifvqhqg","pricing_plan_id":"free"},{"bike_id":"73070882-b5a6-4152-83a2-c3c87b3fd394","system_id":"levelo_inurba_marseille","lat":43.297794,"lon":5.370888,"is_reserved":false,"is_disabled":false,"rental_uris":{"android":"levelo://app?vid=73070882-b5a6-4152-83a2-c3c87b3fd394","ios":"levelo://app?vid=73070882-b5a6-4152-83a2-c3c87b3fd394"},"vehicle_type_id":"4","last_reported":1704578777,"current_range_meters":29600,"station_id":"ce4bgop2rcd13ifvqc1g","pricing_plan_id":"free"},{"bike_id":"09da622d-5ec6-4261-a95d-695d32c570ab","system_id":"levelo_inurba_marseille","lat":43.32287,"lon":5.38273,"is_reserved":false,"is_disabled":false,"rental_uris":{"android":"levelo://app?vid=09da622d-5ec6-4261-a95d-695d32c570ab","ios":"levelo://app?vid=09da622d-5ec6-4261-a95d-695d32c570ab"},"vehicle_type_id":"4","last_reported":1704578777,"current_range_meters":13600,"station_id":"ce4bhr12rcd13ifvqhqg","pricing_plan_id":"free"},{"bike_id":"cc495013-a9b7-4492-a4e4-0f0aca4a9939","system_id":"levelo_inurba_marseille","lat":43.322872,"lon":5.382756,"is_reserved":false,"is_disabled":false,"rental_uris":{"android":"levelo://app?vid=cc495013-a9b7-4492-a4e4-0f0aca4a9939","ios":"levelo://app?vid=cc495013-a9b7-4492-a4e4-0f0aca4a9939"},"vehicle_type_id":"4","last_reported":1704578777,"current_range_meters":10000,"station_id":"ce4bhr12rcd13ifvqhqg","pricing_plan_id":"free"},{"bike_id":"f07edcf5-52fe-4a1b-9254-de59afcd4f1e","system_id":"levelo_inurba_marseille","lat":43.297774,"lon":5.370875,"is_reserved":false,"is_disabled":false,"rental_uris":{"android":"levelo://app?vid=f07edcf5-52fe-4a1b-9254-de59afcd4f1e","ios":"levelo://app?vid=f07edcf5-52fe-4a1b-9254-de59afcd4f1e"},"vehicle_type_id":"4","last_reported":1704578777,"current_range_meters":5600,"station_id":"ce4bgop2rcd13ifvqc1g","pricing_plan_id":"free"},{"bike_id":"d0aaa14f-1070-4a80-a2f2-78508dd9f6bd","system_id":"levelo_inurba_marseille","lat":43.322872,"lon":5.382756,"is_reserved":false,"is_disabled":false,"rental_uris":{"android":"levelo://app?vid=d0aaa14f-1070-4a80-a2f2-78508dd9f6bd","ios":"levelo://app?vid=d0aaa14f-1070-4a80-a2f2-78508dd9f6bd"},"vehicle_type_id":"4","last_reported":1704578777,"current_range_meters":31200,"station_id":"ce4bhr12rcd13ifvqhqg","pricing_plan_id":"free"},{"bike_id":"f661f6de-13d0-42ff-819f-05ad69d6ac0a","system_id":"levelo_inurba_marseille","lat":43.32817,"lon":5.36688,"is_reserved":false,"is_disabled":false,"rental_uris":{"android":"levelo://app?vid=f661f6de-13d0-42ff-819f-05ad69d6ac0a","ios":"levelo://app?vid=f661f6de-13d0-42ff-819f-05ad69d6ac0a"},"vehicle_type_id":"4","last_reported":1704578777,"current_range_meters":26800,"station_id":"ce4bhs92rcd13ifvqi0g","pricing_plan_id":"free"},{"bike_id":"387c1dff-fb7e-4547-838e-1af3f69c4219","system_id":"levelo_inurba_marseille","lat":43.328239,"lon":5.366848,"is_reserved":false,"is_disabled":false,"rental_uris":{"android":"levelo://app?vid=387c1dff-fb7e-4547-838e-1af3f69c4219","ios":"levelo://app?vid=387c1dff-fb7e-4547-838e-1af3f69c4219"},"vehicle_type_id":"4","last_reported":1704578777,"current_range_meters":26000,"station_id":"ce4bhs92rcd13ifvqi0g","pricing_plan_id":"free"},{"bike_id":"66addf4b-70b7-4ac4-8e17-37956e9ecfbb","system_id":"levelo_inurba_marseille","lat":43.32824,"lon":5.36677,"is_reserved":false,"is_disabled":false,"rental_uris":{"android":"levelo://app?vid=66addf4b-70b7-4ac4-8e17-37956e9ecfbb","ios":"levelo://app?vid=66addf4b-70b7-4ac4-8e17-37956e9ecfbb"},"vehicle_type_id":"4","last_reported":1704578777,"current_range_meters":22400,"station_id":"ce4bhs92rcd13ifvqi0g","pricing_plan_id":"free"},{"bike_id":"ca02ca89-8dd5-4fc4-9a30-db37a36b7ff7","system_id":"levelo_inurba_marseille","lat":43.32825,"lon":5.3668,"is_reserved":false,"is_disabled":false,"rental_uris":{"android":"levelo://app?vid=ca02ca89-8dd5-4fc4-9a30-db37a36b7ff7","ios":"levelo://app?vid=ca02ca89-8dd5-4fc4-9a30-db37a36b7ff7"},"vehicle_type_id":"4","last_reported":1704578777,"current_range_meters":30800,"station_id":"ce4bhs92rcd13ifvqi0g","pricing_plan_id":"free"},{"bike_id":"c224ea64-7bb8-45be-8a3a-d137d9e17684","system_id":"levelo_inurba_marseille","lat":43.328255,"lon":5.366832,"is_reserved":false,"is_disabled":false,"rental_uris":{"android":"levelo://app?vid=c224ea64-7bb8-45be-8a3a-d137d9e17684","ios":"levelo://app?vid=c224ea64-7bb8-45be-8a3a-d137d9e17684"},"vehicle_type_id":"4","last_reported":1704578777,"current_range_meters":17200,"station_id":"ce4bhs92rcd13ifvqi0g","pricing_plan_id":"free"},{"bike_id":"0f4d3e9a-7c47-4898-8890-89e08c97b864","system_id":"levelo_inurba_marseille","lat":43.328258,"lon":5.366861,"is_reserved":false,"is_disabled":false,"rental_uris":{"android":"levelo://app?vid=0f4d3e9a-7c47-4898-8890-89e08c97b864","ios":"levelo://app?vid=0f4d3e9a-7c47-4898-8890-89e08c97b864"},"vehicle_type_id":"4","last_reported":1704578777,"current_range_meters":23600,"station_id":"ce4bhs92rcd13ifvqi0g","pricing_plan_id":"free"},{"bike_id":"43f47c35-ec23-411b-b2fa-7957e35eab11","system_id":"levelo_inurba_marseille","lat":43.328371,"lon":5.366909,"is_reserved":false,"is_disabled":false,"rental_uris":{"android":"levelo://app?vid=43f47c35-ec23-411b-b2fa-7957e35eab11","ios":"levelo://app?vid=43f47c35-ec23-411b-b2fa-7957e35eab11"},"vehicle_type_id":"4","last_reported":1704578777,"current_range_meters":14000,"station_id":"ce4bhs92rcd13ifvqi0g","pricing_plan_id":"free"},{"bike_id":"5021f406-3153-4a9e-a450-00a19314acbe","system_id":"levelo_inurba_marseille","lat":43.328371,"lon":5.366909,"is_reserved":false,"is_disabled":false,"rental_uris":{"android":"levelo://app?vid=5021f406-3153-4a9e-a450-00a19314acbe","ios":"levelo://app?vid=5021f406-3153-4a9e-a450-00a19314acbe"},"vehicle_type_id":"4","last_reported":1704578777,"current_range_meters":5600,"station_id":"ce4bhs92rcd13ifvqi0g","pricing_plan_id":"free"},{"bike_id":"0725f2a6-de18-43ea-a245-f699ddc19b55","system_id":"levelo_inurba_marseille","lat":43.328371,"lon":5.366909,"is_reserved":false,"is_disabled":false,"rental_uris":{"android":"levelo://app?vid=0725f2a6-de18-43ea-a245-f699ddc19b55","ios":"levelo://app?vid=0725f2a6-de18-43ea-a245-f699ddc19b55"},"vehicle_type_id":"4","last_reported":1704578777,"current_range_meters":11200,"station_id":"ce4bhs92rcd13ifvqi0g","pricing_plan_id":"free"},{"bike_id":"064b14d2-f3e9-43be-a725-c95d6c66fd15","system_id":"levelo_inurba_marseille","lat":43.328371,"lon":5.366909,"is_reserved":false,"is_disabled":false,"rental_uris":{"android":"levelo://app?vid=064b14d2-f3e9-43be-a725-c95d6c66fd15","ios":"levelo://app?vid=064b14d2-f3e9-43be-a725-c95d6c66fd15"},"vehicle_type_id":"4","last_reported":1704578777,"current_range_meters":24800,"station_id":"ce4bhs92rcd13ifvqi0g","pricing_plan_id":"free"},{"bike_id":"ee966a52-c4f3-4b5b-b8b2-c85b17eb5fb4","system_id":"levelo_inurba_marseille","lat":43.328371,"lon":5.366909,"is_reserved":false,"is_disabled":false,"rental_uris":{"android":"levelo://app?vid=ee966a52-c4f3-4b5b-b8b2-c85b17eb5fb4","ios":"levelo://app?vid=ee966a52-c4f3-4b5b-b8b2-c85b17eb5fb4"},"vehicle_type_id":"4","last_reported":1704578777,"current_range_meters":18800,"station_id":"ce4bhs92rcd13ifvqi0g","pricing_plan_id":"free"},{"bike_id":"72905f78-9c33-4138-8385-d331d9223abd","system_id":"levelo_inurba_marseille","lat":43.32832,"lon":5.36681,"is_reserved":false,"is_disabled":false,"rental_uris":{"android":"levelo://app?vid=72905f78-9c33-4138-8385-d331d9223abd","ios":"levelo://app?vid=72905f78-9c33-4138-8385-d331d9223abd"},"vehicle_type_id":"4","last_reported":1704578777,"current_range_meters":17600,"station_id":"ce4bhs92rcd13ifvqi0g","pricing_plan_id":"free"},{"bike_id":"42895378-a21e-445b-8e89-325727904609","system_id":"levelo_inurba_marseille","lat":43.328371,"lon":5.366909,"is_reserved":false,"is_disabled":false,"rental_uris":{"android":"levelo://app?vid=42895378-a21e-445b-8e89-325727904609","ios":"levelo://app?vid=42895378-a21e-445b-8e89-325727904609"},"vehicle_type_id":"4","last_reported":1704578777,"current_range_meters":24800,"station_id":"ce4bhs92rcd13ifvqi0g","pricing_plan_id":"free"},{"bike_id":"126e4c69-ead8-48d7-bd32-839ee650c744","system_id":"levelo_inurba_marseille","lat":43.297163,"lon":5.365866,"is_reserved":false,"is_disabled":false,"rental_uris":{"android":"levelo://app?vid=126e4c69-ead8-48d7-bd32-839ee650c744","ios":"levelo://app?vid=126e4c69-ead8-48d7-bd32-839ee650c744"},"vehicle_type_id":"4","last_reported":1704578777,"current_range_meters":24000,"station_id":"ce4bgn12rcd13ifvqbt0","pricing_plan_id":"free"},{"bike_id":"20ee9ffc-dea6-4ee0-aa5b-7f51a0c56576","system_id":"levelo_inurba_marseille","lat":43.298922,"lon":5.378931,"is_reserved":false,"is_disabled":false,"rental_uris":{"android":"levelo://app?vid=20ee9ffc-dea6-4ee0-aa5b-7f51a0c56576","ios":"levelo://app?vid=20ee9ffc-dea6-4ee0-aa5b-7f51a0c56576"},"vehicle_type_id":"4","last_reported":1704578777,"current_range_meters":17600,"station_id":"","pricing_plan_id":"free"},{"bike_id":"bcb5166a-247a-4bea-b27e-4beff96946a7","system_id":"levelo_inurba_marseille","lat":43.295802,"lon":5.367529,"is_reserved":false,"is_disabled":false,"rental_uris":{"android":"levelo://app?vid=bcb5166a-247a-4bea-b27e-4beff96946a7","ios":"levelo://app?vid=bcb5166a-247a-4bea-b27e-4beff96946a7"},"vehicle_type_id":"4","last_reported":1704578777,"current_range_meters":24800,"station_id":"","pricing_plan_id":"free"},{"bike_id":"9e3366e4-2231-4d03-84ba-1d96ab438d96","system_id":"levelo_inurba_marseille","lat":43.309589,"lon":5.390258,"is_reserved":false,"is_disabled":false,"rental_uris":{"android":"levelo://app?vid=9e3366e4-2231-4d03-84ba-1d96ab438d96","ios":"levelo://app?vid=9e3366e4-2231-4d03-84ba-1d96ab438d96"},"vehicle_type_id":"4","last_reported":1704578777,"current_range_meters":28800,"station_id":"ce4bgup2rcd13ifvqco0","pricing_plan_id":"free"},{"bike_id":"712bc03c-4301-4f23-a402-31c4a3f6ea54","system_id":"levelo_inurba_marseille","lat":43.317539,"lon":5.390137,"is_reserved":false,"is_disabled":false,"rental_uris":{"android":"levelo://app?vid=712bc03c-4301-4f23-a402-31c4a3f6ea54","ios":"levelo://app?vid=712bc03c-4301-4f23-a402-31c4a3f6ea54"},"vehicle_type_id":"4","last_reported":1704578777,"current_range_meters":6400,"station_id":"ce4bhqp2rcd13ifvqhng","pricing_plan_id":"free"},{"bike_id":"e37c395a-9586-41ec-a7f6-e0ff510c2fd8","system_id":"levelo_inurba_marseille","lat":43.317583,"lon":5.390232,"is_reserved":false,"is_disabled":false,"rental_uris":{"android":"levelo://app?vid=e37c395a-9586-41ec-a7f6-e0ff510c2fd8","ios":"levelo://app?vid=e37c395a-9586-41ec-a7f6-e0ff510c2fd8"},"vehicle_type_id":"4","last_reported":1704578777,"current_range_meters":31200,"station_id":"ce4bhqp2rcd13ifvqhng","pricing_plan_id":"free"},{"bike_id":"b1766360-b6b4-4548-8322-527e14199a19","system_id":"levelo_inurba_marseille","lat":43.295759,"lon":5.375097,"is_reserved":false,"is_disabled":false,"rental_uris":{"android":"levelo://app?vid=b1766360-b6b4-4548-8322-527e14199a19","ios":"levelo://app?vid=b1766360-b6b4-4548-8322-527e14199a19"},"vehicle_type_id":"4","last_reported":1704578777,"current_range_meters":0,"station_id":"ce4bgh92rcd13ifvqb50","pricing_plan_id":"free"},{"bike_id":"d60802d6-4f47-444a-b234-883690eec05b","system_id":"levelo_inurba_marseille","lat":43.33062,"lon":5.3627,"is_reserved":false,"is_disabled":false,"rental_uris":{"android":"levelo://app?vid=d60802d6-4f47-444a-b234-883690eec05b","ios":"levelo://app?vid=d60802d6-4f47-444a-b234-883690eec05b"},"vehicle_type_id":"4","last_reported":1704578777,"current_range_meters":0,"station_id":"","pricing_plan_id":"free"},{"bike_id":"58ac3f0f-e60b-4c7e-af29-5edf73309e0c","system_id":"levelo_inurba_marseille","lat":43.295279,"lon":5.375048,"is_reserved":false,"is_disabled":false,"rental_uris":{"android":"levelo://app?vid=58ac3f0f-e60b-4c7e-af29-5edf73309e0c","ios":"levelo://app?vid=58ac3f0f-e60b-4c7e-af29-5edf73309e0c"},"vehicle_type_id":"4","last_reported":1704578777,"current_range_meters":23600,"station_id":"ce4bgkp2rcd13ifvqbmg","pricing_plan_id":"free"},{"bike_id":"b8575a77-181b-4717-a4d7-1a29f0331a78","system_id":"levelo_inurba_marseille","lat":43.299717,"lon":5.384845,"is_reserved":false,"is_disabled":false,"rental_uris":{"android":"levelo://app?vid=b8575a77-181b-4717-a4d7-1a29f0331a78","ios":"levelo://app?vid=b8575a77-181b-4717-a4d7-1a29f0331a78"},"vehicle_type_id":"4","last_reported":1704578777,"current_range_meters":10000,"station_id":"ce4bgj92rcd13ifvqbd0","pricing_plan_id":"free"},{"bike_id":"115d4e74-21a9-4879-9dfd-15f6e4b126d2","system_id":"levelo_inurba_marseille","lat":43.299717,"lon":5.384845,"is_reserved":false,"is_disabled":false,"rental_uris":{"android":"levelo://app?vid=115d4e74-21a9-4879-9dfd-15f6e4b126d2","ios":"levelo://app?vid=115d4e74-21a9-4879-9dfd-15f6e4b126d2"},"vehicle_type_id":"4","last_reported":1704578777,"current_range_meters":21600,"station_id":"ce4bgj92rcd13ifvqbd0","pricing_plan_id":"free"},{"bike_id":"c0d51f33-1c3b-49fa-abf6-47c3fd9f7876","system_id":"levelo_inurba_marseille","lat":43.299724,"lon":5.384848,"is_reserved":false,"is_disabled":false,"rental_uris":{"android":"levelo://app?vid=c0d51f33-1c3b-49fa-abf6-47c3fd9f7876","ios":"levelo://app?vid=c0d51f33-1c3b-49fa-abf6-47c3fd9f7876"},"vehicle_type_id":"4","last_reported":1704578777,"current_range_meters":0,"station_id":"ce4bgj92rcd13ifvqbd0","pricing_plan_id":"free"},{"bike_id":"02aa4543-9459-4b30-937e-e4c4b637cebe","system_id":"levelo_inurba_marseille","lat":43.299724,"lon":5.384848,"is_reserved":false,"is_disabled":false,"rental_uris":{"android":"levelo://app?vid=02aa4543-9459-4b30-937e-e4c4b637cebe","ios":"levelo://app?vid=02aa4543-9459-4b30-937e-e4c4b637cebe"},"vehicle_type_id":"4","last_reported":1704578777,"current_range_meters":22800,"station_id":"ce4bgj92rcd13ifvqbd0","pricing_plan_id":"free"},{"bike_id":"204dea3f-87e7-4326-9f54-6cdab23e9e5a","system_id":"levelo_inurba_marseille","lat":43.323657,"lon":5.3888,"is_reserved":false,"is_disabled":false,"rental_uris":{"android":"levelo://app?vid=204dea3f-87e7-4326-9f54-6cdab23e9e5a","ios":"levelo://app?vid=204dea3f-87e7-4326-9f54-6cdab23e9e5a"},"vehicle_type_id":"4","last_reported":1704578777,"current_range_meters":6000,"station_id":"ce4bhqp2rcd13ifvqhog","pricing_plan_id":"free"},{"bike_id":"a18c9f18-dd23-4fa3-ae4c-750a813ec2dd","system_id":"levelo_inurba_marseille","lat":43.314225,"lon":5.393768,"is_reserved":false,"is_disabled":false,"rental_uris":{"android":"levelo://app?vid=a18c9f18-dd23-4fa3-ae4c-750a813ec2dd","ios":"levelo://app?vid=a18c9f18-dd23-4fa3-ae4c-750a813ec2dd"},"vehicle_type_id":"4","last_reported":1704578777,"current_range_meters":17200,"station_id":"","pricing_plan_id":"free"},{"bike_id":"f4a2cf71-d775-409e-a41d-4055d020dfd7","system_id":"levelo_inurba_marseille","lat":43.29601,"lon":5.381084,"is_reserved":false,"is_disabled":false,"rental_uris":{"android":"levelo://app?vid=f4a2cf71-d775-409e-a41d-4055d020dfd7","ios":"levelo://app?vid=f4a2cf71-d775-409e-a41d-4055d020dfd7"},"vehicle_type_id":"4","last_reported":1704578777,"current_range_meters":24800,"station_id":"ce4bgl12rcd13ifvqbo0","pricing_plan_id":"free"},{"bike_id":"3915bec1-1d49-438b-9d4e-cd749eada0b6","system_id":"levelo_inurba_marseille","lat":43.293094,"lon":5.374236,"is_reserved":false,"is_disabled":false,"rental_uris":{"android":"levelo://app?vid=3915bec1-1d49-438b-9d4e-cd749eada0b6","ios":"levelo://app?vid=3915bec1-1d49-438b-9d4e-cd749eada0b6"},"vehicle_type_id":"4","last_reported":1704578777,"current_range_meters":18000,"station_id":"ce4bgi12rcd13ifvqb70","pricing_plan_id":"free"},{"bike_id":"dde66372-7098-492b-b7cc-3b07754137f8","system_id":"levelo_inurba_marseille","lat":43.293086,"lon":5.374216,"is_reserved":false,"is_disabled":false,"rental_uris":{"android":"levelo://app?vid=dde66372-7098-492b-b7cc-3b07754137f8","ios":"levelo://app?vid=dde66372-7098-492b-b7cc-3b07754137f8"},"vehicle_type_id":"4","last_reported":1704578777,"current_range_meters":7600,"station_id":"ce4bgi12rcd13ifvqb70","pricing_plan_id":"free"},{"bike_id":"05d5d0c6-4f15-448c-89b2-5b06f361dd24","system_id":"levelo_inurba_marseille","lat":43.293009,"lon":5.374584,"is_reserved":false,"is_disabled":false,"rental_uris":{"android":"levelo://app?vid=05d5d0c6-4f15-448c-89b2-5b06f361dd24","ios":"levelo://app?vid=05d5d0c6-4f15-448c-89b2-5b06f361dd24"},"vehicle_type_id":"4","last_reported":1704578777,"current_range_meters":26400,"station_id":"ce4bgi12rcd13ifvqb70","pricing_plan_id":"free"},{"bike_id":"567804f0-199d-44c2-ae38-40ae65721a56","system_id":"levelo_inurba_marseille","lat":43.2936,"lon":5.37835,"is_reserved":false,"is_disabled":false,"rental_uris":{"android":"levelo://app?vid=567804f0-199d-44c2-ae38-40ae65721a56","ios":"levelo://app?vid=567804f0-199d-44c2-ae38-40ae65721a56"},"vehicle_type_id":"4","last_reported":1704578777,"current_range_meters":25200,"station_id":"ce4bgjh2rcd13ifvqbf0","pricing_plan_id":"free"},{"bike_id":"4e505e77-999f-43bb-9d77-0ac39c8c4f34","system_id":"levelo_inurba_marseille","lat":43.2936,"lon":5.37835,"is_reserved":false,"is_disabled":false,"rental_uris":{"android":"levelo://app?vid=4e505e77-999f-43bb-9d77-0ac39c8c4f34","ios":"levelo://app?vid=4e505e77-999f-43bb-9d77-0ac39c8c4f34"},"vehicle_type_id":"4","last_reported":1704578777,"current_range_meters":28000,"station_id":"ce4bgjh2rcd13ifvqbf0","pricing_plan_id":"free"},{"bike_id":"ad47f50c-223d-4cf2-aacc-7b8069cbe08d","system_id":"levelo_inurba_marseille","lat":43.300852,"lon":5.390859,"is_reserved":false,"is_disabled":false,"rental_uris":{"android":"levelo://app?vid=ad47f50c-223d-4cf2-aacc-7b8069cbe08d","ios":"levelo://app?vid=ad47f50c-223d-4cf2-aacc-7b8069cbe08d"},"vehicle_type_id":"4","last_reported":1704578777,"current_range_meters":4800,"station_id":"ce4bh192rcd13ifvqdb0","pricing_plan_id":"free"},{"bike_id":"f3398a27-e63f-48af-9ca2-057bd9f0ef43","system_id":"levelo_inurba_marseille","lat":43.29831,"lon":5.38779,"is_reserved":false,"is_disabled":false,"rental_uris":{"android":"levelo://app?vid=f3398a27-e63f-48af-9ca2-057bd9f0ef43","ios":"levelo://app?vid=f3398a27-e63f-48af-9ca2-057bd9f0ef43"},"vehicle_type_id":"4","last_reported":1704578777,"current_range_meters":15200,"station_id":"","pricing_plan_id":"free"},{"bike_id":"1259bef1-c440-4af0-93be-9956b769e2fb","system_id":"levelo_inurba_marseille","lat":43.291675,"lon":5.371583,"is_reserved":false,"is_disabled":false,"rental_uris":{"android":"levelo://app?vid=1259bef1-c440-4af0-93be-9956b769e2fb","ios":"levelo://app?vid=1259bef1-c440-4af0-93be-9956b769e2fb"},"vehicle_type_id":"4","last_reported":1704578777,"current_range_meters":0,"station_id":"ce4bha92rcd13ifvqeh0","pricing_plan_id":"free"},{"bike_id":"8166ef2d-52af-45fe-a191-fc82b6d920b2","system_id":"levelo_inurba_marseille","lat":43.291675,"lon":5.371583,"is_reserved":false,"is_disabled":false,"rental_uris":{"android":"levelo://app?vid=8166ef2d-52af-45fe-a191-fc82b6d920b2","ios":"levelo://app?vid=8166ef2d-52af-45fe-a191-fc82b6d920b2"},"vehicle_type_id":"4","last_reported":1704578777,"current_range_meters":25600,"station_id":"ce4bha92rcd13ifvqeh0","pricing_plan_id":"free"},{"bike_id":"a32a7746-144b-4831-b829-ba30a3ecf321","system_id":"levelo_inurba_marseille","lat":43.313291,"lon":5.396838,"is_reserved":false,"is_disabled":false,"rental_uris":{"android":"levelo://app?vid=a32a7746-144b-4831-b829-ba30a3ecf321","ios":"levelo://app?vid=a32a7746-144b-4831-b829-ba30a3ecf321"},"vehicle_type_id":"4","last_reported":1704578777,"current_range_meters":17600,"station_id":"ce4bgvp2rcd13ifvqcu0","pricing_plan_id":"free"},{"bike_id":"176b842c-679b-4151-a3ce-940a8089a349","system_id":"levelo_inurba_marseille","lat":43.291994,"lon":5.357886,"is_reserved":false,"is_disabled":false,"rental_uris":{"android":"levelo://app?vid=176b842c-679b-4151-a3ce-940a8089a349","ios":"levelo://app?vid=176b842c-679b-4151-a3ce-940a8089a349"},"vehicle_type_id":"4","last_reported":1704578777,"current_range_meters":19600,"station_id":"ce4bhb12rcd13ifvqel0","pricing_plan_id":"free"},{"bike_id":"dc3be267-30a9-4b81-9e85-72f7701a88fe","system_id":"levelo_inurba_marseille","lat":43.313291,"lon":5.396838,"is_reserved":false,"is_disabled":false,"rental_uris":{"android":"levelo://app?vid=dc3be267-30a9-4b81-9e85-72f7701a88fe","ios":"levelo://app?vid=dc3be267-30a9-4b81-9e85-72f7701a88fe"},"vehicle_type_id":"4","last_reported":1704578777,"current_range_meters":0,"station_id":"ce4bgvp2rcd13ifvqcu0","pricing_plan_id":"free"},{"bike_id":"61e637f3-a9fe-4aca-a004-03b67c3f48f8","system_id":"levelo_inurba_marseille","lat":43.29529,"lon":5.385581,"is_reserved":false,"is_disabled":false,"rental_uris":{"android":"levelo://app?vid=61e637f3-a9fe-4aca-a004-03b67c3f48f8","ios":"levelo://app?vid=61e637f3-a9fe-4aca-a004-03b67c3f48f8"},"vehicle_type_id":"4","last_reported":1704578777,"current_range_meters":6800,"station_id":"ce4bgih2rcd13ifvqba0","pricing_plan_id":"free"},{"bike_id":"9d76e22a-326c-4357-928a-f088b9921618","system_id":"levelo_inurba_marseille","lat":43.29529,"lon":5.385581,"is_reserved":false,"is_disabled":false,"rental_uris":{"android":"levelo://app?vid=9d76e22a-326c-4357-928a-f088b9921618","ios":"levelo://app?vid=9d76e22a-326c-4357-928a-f088b9921618"},"vehicle_type_id":"4","last_reported":1704578777,"current_range_meters":26000,"station_id":"ce4bgih2rcd13ifvqba0","pricing_plan_id":"free"},{"bike_id":"2938ca00-360f-4acf-8127-16ed89ca1e51","system_id":"levelo_inurba_marseille","lat":43.29529,"lon":5.385581,"is_reserved":false,"is_disabled":false,"rental_uris":{"android":"levelo://app?vid=2938ca00-360f-4acf-8127-16ed89ca1e51","ios":"levelo://app?vid=2938ca00-360f-4acf-8127-16ed89ca1e51"},"vehicle_type_id":"4","last_reported":1704578777,"current_range_meters":27200,"station_id":"ce4bgih2rcd13ifvqba0","pricing_plan_id":"free"},{"bike_id":"dc28d37a-7dd1-4f43-adcc-4337224beb3d","system_id":"levelo_inurba_marseille","lat":43.302008,"lon":5.394694,"is_reserved":false,"is_disabled":false,"rental_uris":{"android":"levelo://app?vid=dc28d37a-7dd1-4f43-adcc-4337224beb3d","ios":"levelo://app?vid=dc28d37a-7dd1-4f43-adcc-4337224beb3d"},"vehicle_type_id":"4","last_reported":1704578777,"current_range_meters":22800,"station_id":"ce4bh0p2rcd13ifvqd70","pricing_plan_id":"free"},{"bike_id":"4c06385c-fac9-448a-a0f6-f43ddfe59f28","system_id":"levelo_inurba_marseille","lat":43.290624,"lon":5.359245,"is_reserved":false,"is_disabled":false,"rental_uris":{"android":"levelo://app?vid=4c06385c-fac9-448a-a0f6-f43ddfe59f28","ios":"levelo://app?vid=4c06385c-fac9-448a-a0f6-f43ddfe59f28"},"vehicle_type_id":"4","last_reported":1704578777,"current_range_meters":12800,"station_id":"ce4bha92rcd13ifvqeg0","pricing_plan_id":"free"},{"bike_id":"265d3b73-21b8-43d5-afca-9c201217a3ba","system_id":"levelo_inurba_marseille","lat":43.290327,"lon":5.375711,"is_reserved":false,"is_disabled":false,"rental_uris":{"android":"levelo://app?vid=265d3b73-21b8-43d5-afca-9c201217a3ba","ios":"levelo://app?vid=265d3b73-21b8-43d5-afca-9c201217a3ba"},"vehicle_type_id":"4","last_reported":1704578777,"current_range_meters":12000,"station_id":"ce4bh692rcd13ifvqe90","pricing_plan_id":"free"},{"bike_id":"11ef9378-23ff-4e9f-bebf-8975c706f5e1","system_id":"levelo_inurba_marseille","lat":43.294153,"lon":5.386305,"is_reserved":false,"is_disabled":false,"rental_uris":{"android":"levelo://app?vid=11ef9378-23ff-4e9f-bebf-8975c706f5e1","ios":"levelo://app?vid=11ef9378-23ff-4e9f-bebf-8975c706f5e1"},"vehicle_type_id":"4","last_reported":1704578777,"current_range_meters":0,"station_id":"ce4bh2h2rcd13ifvqdh0","pricing_plan_id":"free"},{"bike_id":"42c4bc69-6755-41f5-b958-8587c77e1e17","system_id":"levelo_inurba_marseille","lat":43.289184,"lon":5.366408,"is_reserved":false,"is_disabled":false,"rental_uris":{"android":"levelo://app?vid=42c4bc69-6755-41f5-b958-8587c77e1e17","ios":"levelo://app?vid=42c4bc69-6755-41f5-b958-8587c77e1e17"},"vehicle_type_id":"4","last_reported":1704578777,"current_range_meters":20400,"station_id":"ce4bhap2rcd13ifvqek0","pricing_plan_id":"free"},{"bike_id":"af2c81c4-2101-4b62-bd05-53c7940e0cb8","system_id":"levelo_inurba_marseille","lat":43.294162,"lon":5.386292,"is_reserved":false,"is_disabled":false,"rental_uris":{"android":"levelo://app?vid=af2c81c4-2101-4b62-bd05-53c7940e0cb8","ios":"levelo://app?vid=af2c81c4-2101-4b62-bd05-53c7940e0cb8"},"vehicle_type_id":"4","last_reported":1704578777,"current_range_meters":29600,"station_id":"ce4bh2h2rcd13ifvqdh0","pricing_plan_id":"free"},{"bike_id":"a8a2005a-93cb-47e1-bbdd-09b70f1a2cfc","system_id":"levelo_inurba_marseille","lat":43.28941,"lon":5.36633,"is_reserved":false,"is_disabled":false,"rental_uris":{"android":"levelo://app?vid=a8a2005a-93cb-47e1-bbdd-09b70f1a2cfc","ios":"levelo://app?vid=a8a2005a-93cb-47e1-bbdd-09b70f1a2cfc"},"vehicle_type_id":"4","last_reported":1704578777,"current_range_meters":25200,"station_id":"ce4bhap2rcd13ifvqek0","pricing_plan_id":"free"},{"bike_id":"527fe92c-5a2a-4e81-939e-0687eade67e6","system_id":"levelo_inurba_marseille","lat":43.289184,"lon":5.366408,"is_reserved":false,"is_disabled":false,"rental_uris":{"android":"levelo://app?vid=527fe92c-5a2a-4e81-939e-0687eade67e6","ios":"levelo://app?vid=527fe92c-5a2a-4e81-939e-0687eade67e6"},"vehicle_type_id":"4","last_reported":1704578777,"current_range_meters":5200,"station_id":"ce4bhap2rcd13ifvqek0","pricing_plan_id":"free"},{"bike_id":"fc6ad390-90f4-4082-b8bf-70ce0dcef1d2","system_id":"levelo_inurba_marseille","lat":43.289184,"lon":5.366408,"is_reserved":false,"is_disabled":false,"rental_uris":{"android":"levelo://app?vid=fc6ad390-90f4-4082-b8bf-70ce0dcef1d2","ios":"levelo://app?vid=fc6ad390-90f4-4082-b8bf-70ce0dcef1d2"},"vehicle_type_id":"4","last_reported":1704578777,"current_range_meters":19200,"station_id":"ce4bhap2rcd13ifvqek0","pricing_plan_id":"free"},{"bike_id":"621659f5-5ff2-4eba-a4cb-3e5963e3eeb7","system_id":"levelo_inurba_marseille","lat":43.289441,"lon":5.364029,"is_reserved":false,"is_disabled":false,"rental_uris":{"android":"levelo://app?vid=621659f5-5ff2-4eba-a4cb-3e5963e3eeb7","ios":"levelo://app?vid=621659f5-5ff2-4eba-a4cb-3e5963e3eeb7"},"vehicle_type_id":"4","last_reported":1704578777,"current_range_meters":7200,"station_id":"ce4bhc92rcd13ifvqetg","pricing_plan_id":"free"},{"bike_id":"0c12d915-cfe7-4c5f-96ca-488714f09b4e","system_id":"levelo_inurba_marseille","lat":43.292644,"lon":5.384257,"is_reserved":false,"is_disabled":false,"rental_uris":{"android":"levelo://app?vid=0c12d915-cfe7-4c5f-96ca-488714f09b4e","ios":"levelo://app?vid=0c12d915-cfe7-4c5f-96ca-488714f09b4e"},"vehicle_type_id":"4","last_reported":1704578777,"current_range_meters":18800,"station_id":"ce4bh692rcd13ifvqea0","pricing_plan_id":"free"},{"bike_id":"f45769b5-5367-4cc1-8ff0-788060a67779","system_id":"levelo_inurba_marseille","lat":43.304274,"lon":5.397513,"is_reserved":false,"is_disabled":false,"rental_uris":{"android":"levelo://app?vid=f45769b5-5367-4cc1-8ff0-788060a67779","ios":"levelo://app?vid=f45769b5-5367-4cc1-8ff0-788060a67779"},"vehicle_type_id":"4","last_reported":1704578777,"current_range_meters":12400,"station_id":"ce4bh092rcd13ifvqd20","pricing_plan_id":"free"},{"bike_id":"6c3d2550-0868-475b-9269-f919384b02dd","system_id":"levelo_inurba_marseille","lat":43.292642,"lon":5.384254,"is_reserved":false,"is_disabled":false,"rental_uris":{"android":"levelo://app?vid=6c3d2550-0868-475b-9269-f919384b02dd","ios":"levelo://app?vid=6c3d2550-0868-475b-9269-f919384b02dd"},"vehicle_type_id":"4","last_reported":1704578777,"current_range_meters":30000,"station_id":"ce4bh692rcd13ifvqea0","pricing_plan_id":"free"},{"bike_id":"d50c2f26-cb95-4a9e-bea9-cab1c06893ca","system_id":"levelo_inurba_marseille","lat":43.292644,"lon":5.384257,"is_reserved":false,"is_disabled":false,"rental_uris":{"android":"levelo://app?vid=d50c2f26-cb95-4a9e-bea9-cab1c06893ca","ios":"levelo://app?vid=d50c2f26-cb95-4a9e-bea9-cab1c06893ca"},"vehicle_type_id":"4","last_reported":1704578777,"current_range_meters":400,"station_id":"ce4bh692rcd13ifvqea0","pricing_plan_id":"free"},{"bike_id":"36e56312-f873-4040-b3fb-1b2a0a475562","system_id":"levelo_inurba_marseille","lat":43.292644,"lon":5.384257,"is_reserved":false,"is_disabled":false,"rental_uris":{"android":"levelo://app?vid=36e56312-f873-4040-b3fb-1b2a0a475562","ios":"levelo://app?vid=36e56312-f873-4040-b3fb-1b2a0a475562"},"vehicle_type_id":"4","last_reported":1704578777,"current_range_meters":14800,"station_id":"ce4bh692rcd13ifvqea0","pricing_plan_id":"free"},{"bike_id":"4a26aebe-3b37-409d-83f7-3dd07221ba46","system_id":"levelo_inurba_marseille","lat":43.292644,"lon":5.384257,"is_reserved":false,"is_disabled":false,"rental_uris":{"android":"levelo://app?vid=4a26aebe-3b37-409d-83f7-3dd07221ba46","ios":"levelo://app?vid=4a26aebe-3b37-409d-83f7-3dd07221ba46"},"vehicle_type_id":"4","last_reported":1704578777,"current_range_meters":30800,"station_id":"ce4bh692rcd13ifvqea0","pricing_plan_id":"free"},{"bike_id":"10e6b78e-b484-4918-ac83-f1f096ceacbb","system_id":"levelo_inurba_marseille","lat":43.304274,"lon":5.397513,"is_reserved":false,"is_disabled":false,"rental_uris":{"android":"levelo://app?vid=10e6b78e-b484-4918-ac83-f1f096ceacbb","ios":"levelo://app?vid=10e6b78e-b484-4918-ac83-f1f096ceacbb"},"vehicle_type_id":"4","last_reported":1704578777,"current_range_meters":28000,"station_id":"ce4bh092rcd13ifvqd20","pricing_plan_id":"free"},{"bike_id":"e18b8c30-06ba-49de-a8c6-b8557b798d6b","system_id":"levelo_inurba_marseille","lat":43.290995,"lon":5.381361,"is_reserved":false,"is_disabled":false,"rental_uris":{"android":"levelo://app?vid=e18b8c30-06ba-49de-a8c6-b8557b798d6b","ios":"levelo://app?vid=e18b8c30-06ba-49de-a8c6-b8557b798d6b"},"vehicle_type_id":"4","last_reported":1704578777,"current_range_meters":3200,"station_id":"ce4bh512rcd13ifvqe2g","pricing_plan_id":"free"},{"bike_id":"68feabed-15ab-4e7c-8a47-69c8f9142d86","system_id":"levelo_inurba_marseille","lat":43.290995,"lon":5.381361,"is_reserved":false,"is_disabled":false,"rental_uris":{"android":"levelo://app?vid=68feabed-15ab-4e7c-8a47-69c8f9142d86","ios":"levelo://app?vid=68feabed-15ab-4e7c-8a47-69c8f9142d86"},"vehicle_type_id":"4","last_reported":1704578777,"current_range_meters":20000,"station_id":"ce4bh512rcd13ifvqe2g","pricing_plan_id":"free"},{"bike_id":"c8f1c66d-517e-47cd-8c74-1fbdb664b117","system_id":"levelo_inurba_marseille","lat":43.33024,"lon":5.39031,"is_reserved":false,"is_disabled":false,"rental_uris":{"android":"levelo://app?vid=c8f1c66d-517e-47cd-8c74-1fbdb664b117","ios":"levelo://app?vid=c8f1c66d-517e-47cd-8c74-1fbdb664b117"},"vehicle_type_id":"4","last_reported":1704578777,"current_range_meters":2000,"station_id":"","pricing_plan_id":"free"},{"bike_id":"5c0e221b-54dc-4307-a6ad-cc1692cf4df3","system_id":"levelo_inurba_marseille","lat":43.33018,"lon":5.39043,"is_reserved":false,"is_disabled":false,"rental_uris":{"android":"levelo://app?vid=5c0e221b-54dc-4307-a6ad-cc1692cf4df3","ios":"levelo://app?vid=5c0e221b-54dc-4307-a6ad-cc1692cf4df3"},"vehicle_type_id":"4","last_reported":1704578777,"current_range_meters":18000,"station_id":"","pricing_plan_id":"free"},{"bike_id":"04ec1a46-291d-4424-964d-42cfee126bb8","system_id":"levelo_inurba_marseille","lat":43.33023,"lon":5.39036,"is_reserved":false,"is_disabled":false,"rental_uris":{"android":"levelo://app?vid=04ec1a46-291d-4424-964d-42cfee126bb8","ios":"levelo://app?vid=04ec1a46-291d-4424-964d-42cfee126bb8"},"vehicle_type_id":"4","last_reported":1704578777,"current_range_meters":23200,"station_id":"","pricing_plan_id":"free"},{"bike_id":"d353198f-eb6b-4a1e-b7b6-607985da16e3","system_id":"levelo_inurba_marseille","lat":43.330442,"lon":5.389148,"is_reserved":false,"is_disabled":false,"rental_uris":{"android":"levelo://app?vid=d353198f-eb6b-4a1e-b7b6-607985da16e3","ios":"levelo://app?vid=d353198f-eb6b-4a1e-b7b6-607985da16e3"},"vehicle_type_id":"4","last_reported":1704578777,"current_range_meters":21200,"station_id":"ce4bhr92rcd13ifvqhrg","pricing_plan_id":"free"},{"bike_id":"7c7a6206-545f-4749-ace7-a0c9f17d3062","system_id":"levelo_inurba_marseille","lat":43.330442,"lon":5.389148,"is_reserved":false,"is_disabled":false,"rental_uris":{"android":"levelo://app?vid=7c7a6206-545f-4749-ace7-a0c9f17d3062","ios":"levelo://app?vid=7c7a6206-545f-4749-ace7-a0c9f17d3062"},"vehicle_type_id":"4","last_reported":1704578777,"current_range_meters":18000,"station_id":"ce4bhr92rcd13ifvqhrg","pricing_plan_id":"free"},{"bike_id":"604d70e1-4bfc-4c1a-ad50-5c45b428d61e","system_id":"levelo_inurba_marseille","lat":43.330442,"lon":5.389148,"is_reserved":false,"is_disabled":false,"rental_uris":{"android":"levelo://app?vid=604d70e1-4bfc-4c1a-ad50-5c45b428d61e","ios":"levelo://app?vid=604d70e1-4bfc-4c1a-ad50-5c45b428d61e"},"vehicle_type_id":"4","last_reported":1704578777,"current_range_meters":22000,"station_id":"ce4bhr92rcd13ifvqhrg","pricing_plan_id":"free"},{"bike_id":"42a2d22f-ce67-446d-ab38-453f93bc49fa","system_id":"levelo_inurba_marseille","lat":43.330442,"lon":5.389148,"is_reserved":false,"is_disabled":false,"rental_uris":{"android":"levelo://app?vid=42a2d22f-ce67-446d-ab38-453f93bc49fa","ios":"levelo://app?vid=42a2d22f-ce67-446d-ab38-453f93bc49fa"},"vehicle_type_id":"4","last_reported":1704578777,"current_range_meters":15600,"station_id":"ce4bhr92rcd13ifvqhrg","pricing_plan_id":"free"},{"bike_id":"6c5eebbe-3606-40f4-b51a-cdf8266c0074","system_id":"levelo_inurba_marseille","lat":43.33024,"lon":5.3904,"is_reserved":false,"is_disabled":false,"rental_uris":{"android":"levelo://app?vid=6c5eebbe-3606-40f4-b51a-cdf8266c0074","ios":"levelo://app?vid=6c5eebbe-3606-40f4-b51a-cdf8266c0074"},"vehicle_type_id":"4","last_reported":1704578777,"current_range_meters":11200,"station_id":"","pricing_plan_id":"free"},{"bike_id":"50a06571-ee32-4006-8417-dd8ead2ab8e4","system_id":"levelo_inurba_marseille","lat":43.3302,"lon":5.39047,"is_reserved":false,"is_disabled":false,"rental_uris":{"android":"levelo://app?vid=50a06571-ee32-4006-8417-dd8ead2ab8e4","ios":"levelo://app?vid=50a06571-ee32-4006-8417-dd8ead2ab8e4"},"vehicle_type_id":"4","last_reported":1704578777,"current_range_meters":27600,"station_id":"","pricing_plan_id":"free"},{"bike_id":"8625464e-66d0-4621-bd34-1a2874fb7a19","system_id":"levelo_inurba_marseille","lat":43.330442,"lon":5.389148,"is_reserved":false,"is_disabled":false,"rental_uris":{"android":"levelo://app?vid=8625464e-66d0-4621-bd34-1a2874fb7a19","ios":"levelo://app?vid=8625464e-66d0-4621-bd34-1a2874fb7a19"},"vehicle_type_id":"4","last_reported":1704578777,"current_range_meters":9600,"station_id":"ce4bhr92rcd13ifvqhrg","pricing_plan_id":"free"},{"bike_id":"57a59c67-703f-4a83-aae5-f27109cb99b9","system_id":"levelo_inurba_marseille","lat":43.330442,"lon":5.389148,"is_reserved":false,"is_disabled":false,"rental_uris":{"android":"levelo://app?vid=57a59c67-703f-4a83-aae5-f27109cb99b9","ios":"levelo://app?vid=57a59c67-703f-4a83-aae5-f27109cb99b9"},"vehicle_type_id":"4","last_reported":1704578777,"current_range_meters":21600,"station_id":"ce4bhr92rcd13ifvqhrg","pricing_plan_id":"free"},{"bike_id":"86fd9470-4701-4500-b97d-63a8d113059a","system_id":"levelo_inurba_marseille","lat":43.28856,"lon":5.358371,"is_reserved":false,"is_disabled":false,"rental_uris":{"android":"levelo://app?vid=86fd9470-4701-4500-b97d-63a8d113059a","ios":"levelo://app?vid=86fd9470-4701-4500-b97d-63a8d113059a"},"vehicle_type_id":"4","last_reported":1704578777,"current_range_meters":26000,"station_id":"ce4bhb12rcd13ifvqem0","pricing_plan_id":"free"},{"bike_id":"79880bce-d32e-4636-9493-e11747d49352","system_id":"levelo_inurba_marseille","lat":43.309371,"lon":5.401449,"is_reserved":false,"is_disabled":false,"rental_uris":{"android":"levelo://app?vid=79880bce-d32e-4636-9493-e11747d49352","ios":"levelo://app?vid=79880bce-d32e-4636-9493-e11747d49352"},"vehicle_type_id":"4","last_reported":1704578777,"current_range_meters":10000,"station_id":"ce4bgvp2rcd13ifvqct0","pricing_plan_id":"free"},{"bike_id":"8a426083-d925-4221-b0bc-1cf82a72291b","system_id":"levelo_inurba_marseille","lat":43.309371,"lon":5.401449,"is_reserved":false,"is_disabled":false,"rental_uris":{"android":"levelo://app?vid=8a426083-d925-4221-b0bc-1cf82a72291b","ios":"levelo://app?vid=8a426083-d925-4221-b0bc-1cf82a72291b"},"vehicle_type_id":"4","last_reported":1704578777,"current_range_meters":19200,"station_id":"ce4bgvp2rcd13ifvqct0","pricing_plan_id":"free"},{"bike_id":"c8150c2e-9fca-4c4a-8d6c-895c5f80e74a","system_id":"levelo_inurba_marseille","lat":43.309371,"lon":5.401449,"is_reserved":false,"is_disabled":false,"rental_uris":{"android":"levelo://app?vid=c8150c2e-9fca-4c4a-8d6c-895c5f80e74a","ios":"levelo://app?vid=c8150c2e-9fca-4c4a-8d6c-895c5f80e74a"},"vehicle_type_id":"4","last_reported":1704578777,"current_range_meters":11200,"station_id":"ce4bgvp2rcd13ifvqct0","pricing_plan_id":"free"},{"bike_id":"c5527485-3bbb-4ad9-ac15-0be0dadc774a","system_id":"levelo_inurba_marseille","lat":43.309371,"lon":5.401449,"is_reserved":false,"is_disabled":false,"rental_uris":{"android":"levelo://app?vid=c5527485-3bbb-4ad9-ac15-0be0dadc774a","ios":"levelo://app?vid=c5527485-3bbb-4ad9-ac15-0be0dadc774a"},"vehicle_type_id":"4","last_reported":1704578777,"current_range_meters":20800,"station_id":"ce4bgvp2rcd13ifvqct0","pricing_plan_id":"free"},{"bike_id":"5c53de44-99cc-4112-ab13-0c2ed9659f54","system_id":"levelo_inurba_marseille","lat":43.286961,"lon":5.373785,"is_reserved":false,"is_disabled":false,"rental_uris":{"android":"levelo://app?vid=5c53de44-99cc-4112-ab13-0c2ed9659f54","ios":"levelo://app?vid=5c53de44-99cc-4112-ab13-0c2ed9659f54"},"vehicle_type_id":"4","last_reported":1704578777,"current_range_meters":31200,"station_id":"ce4bh3p2rcd13ifvqdq0","pricing_plan_id":"free"},{"bike_id":"accc40e1-9258-4b2d-9d83-2cbcfb368755","system_id":"levelo_inurba_marseille","lat":43.286593,"lon":5.363346,"is_reserved":false,"is_disabled":false,"rental_uris":{"android":"levelo://app?vid=accc40e1-9258-4b2d-9d83-2cbcfb368755","ios":"levelo://app?vid=accc40e1-9258-4b2d-9d83-2cbcfb368755"},"vehicle_type_id":"4","last_reported":1704578777,"current_range_meters":28000,"station_id":"ce4bhah2rcd13ifvqej0","pricing_plan_id":"free"},{"bike_id":"34423b89-f49d-4fd0-9c39-8df1f13c1c92","system_id":"levelo_inurba_marseille","lat":43.286961,"lon":5.373785,"is_reserved":false,"is_disabled":false,"rental_uris":{"android":"levelo://app?vid=34423b89-f49d-4fd0-9c39-8df1f13c1c92","ios":"levelo://app?vid=34423b89-f49d-4fd0-9c39-8df1f13c1c92"},"vehicle_type_id":"4","last_reported":1704578777,"current_range_meters":800,"station_id":"ce4bh3p2rcd13ifvqdq0","pricing_plan_id":"free"},{"bike_id":"b486c10c-e0ff-4786-9101-87268acb72b3","system_id":"levelo_inurba_marseille","lat":43.295196,"lon":5.39397,"is_reserved":false,"is_disabled":false,"rental_uris":{"android":"levelo://app?vid=b486c10c-e0ff-4786-9101-87268acb72b3","ios":"levelo://app?vid=b486c10c-e0ff-4786-9101-87268acb72b3"},"vehicle_type_id":"4","last_reported":1704578777,"current_range_meters":20400,"station_id":"ce4bh292rcd13ifvqdf0","pricing_plan_id":"free"},{"bike_id":"30708b7d-eefc-40f9-8577-a1f8f1cfdf3e","system_id":"levelo_inurba_marseille","lat":43.289307,"lon":5.38406,"is_reserved":false,"is_disabled":false,"rental_uris":{"android":"levelo://app?vid=30708b7d-eefc-40f9-8577-a1f8f1cfdf3e","ios":"levelo://app?vid=30708b7d-eefc-40f9-8577-a1f8f1cfdf3e"},"vehicle_type_id":"4","last_reported":1704578777,"current_range_meters":28400,"station_id":"ce4bh612rcd13ifvqe6g","pricing_plan_id":"free"},{"bike_id":"72fbb32c-f55b-4106-a161-be5945d50258","system_id":"levelo_inurba_marseille","lat":43.290345,"lon":5.38646,"is_reserved":false,"is_disabled":false,"rental_uris":{"android":"levelo://app?vid=72fbb32c-f55b-4106-a161-be5945d50258","ios":"levelo://app?vid=72fbb32c-f55b-4106-a161-be5945d50258"},"vehicle_type_id":"4","last_reported":1704578777,"current_range_meters":8400,"station_id":"ce4bh4p2rcd13ifvqe0g","pricing_plan_id":"free"},{"bike_id":"6c976029-5e7e-4dd8-bfaa-4c5c5ee6fad0","system_id":"levelo_inurba_marseille","lat":43.286039,"lon":5.370679,"is_reserved":false,"is_disabled":false,"rental_uris":{"android":"levelo://app?vid=6c976029-5e7e-4dd8-bfaa-4c5c5ee6fad0","ios":"levelo://app?vid=6c976029-5e7e-4dd8-bfaa-4c5c5ee6fad0"},"vehicle_type_id":"4","last_reported":1704578777,"current_range_meters":26800,"station_id":"ce4bht12rcd13ifvqi60","pricing_plan_id":"free"},{"bike_id":"3d586703-e7c7-4c93-820c-cc285dc4e8ac","system_id":"levelo_inurba_marseille","lat":43.286039,"lon":5.370681,"is_reserved":false,"is_disabled":false,"rental_uris":{"android":"levelo://app?vid=3d586703-e7c7-4c93-820c-cc285dc4e8ac","ios":"levelo://app?vid=3d586703-e7c7-4c93-820c-cc285dc4e8ac"},"vehicle_type_id":"4","last_reported":1704578777,"current_range_meters":9200,"station_id":"ce4bht12rcd13ifvqi60","pricing_plan_id":"free"},{"bike_id":"6755f6d1-da7d-4b00-83cd-ada6114509ae","system_id":"levelo_inurba_marseille","lat":43.287185,"lon":5.379373,"is_reserved":false,"is_disabled":false,"rental_uris":{"android":"levelo://app?vid=6755f6d1-da7d-4b00-83cd-ada6114509ae","ios":"levelo://app?vid=6755f6d1-da7d-4b00-83cd-ada6114509ae"},"vehicle_type_id":"4","last_reported":1704578777,"current_range_meters":11200,"station_id":"ce4bh9p2rcd13ifvqec0","pricing_plan_id":"free"},{"bike_id":"103fee8d-d576-4560-a3bb-1c6c7a60b117","system_id":"levelo_inurba_marseille","lat":43.316828,"lon":5.404723,"is_reserved":false,"is_disabled":false,"rental_uris":{"android":"levelo://app?vid=103fee8d-d576-4560-a3bb-1c6c7a60b117","ios":"levelo://app?vid=103fee8d-d576-4560-a3bb-1c6c7a60b117"},"vehicle_type_id":"4","last_reported":1704578777,"current_range_meters":10400,"station_id":"ce4bh012rcd13ifvqd00","pricing_plan_id":"free"},{"bike_id":"dc904c4f-032c-4c41-afb9-db003ae57db5","system_id":"levelo_inurba_marseille","lat":43.316828,"lon":5.404723,"is_reserved":false,"is_disabled":false,"rental_uris":{"android":"levelo://app?vid=dc904c4f-032c-4c41-afb9-db003ae57db5","ios":"levelo://app?vid=dc904c4f-032c-4c41-afb9-db003ae57db5"},"vehicle_type_id":"4","last_reported":1704578777,"current_range_meters":12400,"station_id":"ce4bh012rcd13ifvqd00","pricing_plan_id":"free"},{"bike_id":"ecc718c0-b93d-4766-9287-bf8f4f71c467","system_id":"levelo_inurba_marseille","lat":43.316821,"lon":5.404737,"is_reserved":false,"is_disabled":false,"rental_uris":{"android":"levelo://app?vid=ecc718c0-b93d-4766-9287-bf8f4f71c467","ios":"levelo://app?vid=ecc718c0-b93d-4766-9287-bf8f4f71c467"},"vehicle_type_id":"4","last_reported":1704578777,"current_range_meters":20000,"station_id":"ce4bh012rcd13ifvqd00","pricing_plan_id":"free"},{"bike_id":"7c725a1a-e162-4f90-b9ab-605d5eb03c6f","system_id":"levelo_inurba_marseille","lat":43.291994,"lon":5.392907,"is_reserved":false,"is_disabled":false,"rental_uris":{"android":"levelo://app?vid=7c725a1a-e162-4f90-b9ab-605d5eb03c6f","ios":"levelo://app?vid=7c725a1a-e162-4f90-b9ab-605d5eb03c6f"},"vehicle_type_id":"4","last_reported":1704578777,"current_range_meters":31600,"station_id":"ce4bh192rcd13ifvqdd0","pricing_plan_id":"free"},{"bike_id":"8c3692d6-4ee3-47b5-acba-4d2fb43f4a38","system_id":"levelo_inurba_marseille","lat":43.291994,"lon":5.392907,"is_reserved":false,"is_disabled":false,"rental_uris":{"android":"levelo://app?vid=8c3692d6-4ee3-47b5-acba-4d2fb43f4a38","ios":"levelo://app?vid=8c3692d6-4ee3-47b5-acba-4d2fb43f4a38"},"vehicle_type_id":"4","last_reported":1704578777,"current_range_meters":27200,"station_id":"ce4bh192rcd13ifvqdd0","pricing_plan_id":"free"},{"bike_id":"733e0c96-b6fb-4506-aa18-1e9626ef7df1","system_id":"levelo_inurba_marseille","lat":43.291994,"lon":5.392907,"is_reserved":false,"is_disabled":false,"rental_uris":{"android":"levelo://app?vid=733e0c96-b6fb-4506-aa18-1e9626ef7df1","ios":"levelo://app?vid=733e0c96-b6fb-4506-aa18-1e9626ef7df1"},"vehicle_type_id":"4","last_reported":1704578777,"current_range_meters":22000,"station_id":"ce4bh192rcd13ifvqdd0","pricing_plan_id":"free"},{"bike_id":"58fa22a6-6d94-4e91-b572-fc1fa4ff79b1","system_id":"levelo_inurba_marseille","lat":43.284538,"lon":5.358657,"is_reserved":false,"is_disabled":false,"rental_uris":{"android":"levelo://app?vid=58fa22a6-6d94-4e91-b572-fc1fa4ff79b1","ios":"levelo://app?vid=58fa22a6-6d94-4e91-b572-fc1fa4ff79b1"},"vehicle_type_id":"4","last_reported":1704578777,"current_range_meters":0,"station_id":"ce4bhah2rcd13ifvqei0","pricing_plan_id":"free"},{"bike_id":"9aa9c4cc-f4d7-468d-af2c-12a6b45ba393","system_id":"levelo_inurba_marseille","lat":43.284538,"lon":5.358657,"is_reserved":false,"is_disabled":false,"rental_uris":{"android":"levelo://app?vid=9aa9c4cc-f4d7-468d-af2c-12a6b45ba393","ios":"levelo://app?vid=9aa9c4cc-f4d7-468d-af2c-12a6b45ba393"},"vehicle_type_id":"4","last_reported":1704578777,"current_range_meters":25600,"station_id":"ce4bhah2rcd13ifvqei0","pricing_plan_id":"free"},{"bike_id":"fb57a4ce-b80e-4e72-9b44-0357d82d3002","system_id":"levelo_inurba_marseille","lat":43.285848,"lon":5.350787,"is_reserved":false,"is_disabled":false,"rental_uris":{"android":"levelo://app?vid=fb57a4ce-b80e-4e72-9b44-0357d82d3002","ios":"levelo://app?vid=fb57a4ce-b80e-4e72-9b44-0357d82d3002"},"vehicle_type_id":"4","last_reported":1704578777,"current_range_meters":22400,"station_id":"ce4bhch2rcd13ifvqeug","pricing_plan_id":"free"},{"bike_id":"96910b03-f01f-4ccf-9e76-9a065bfbbec5","system_id":"levelo_inurba_marseille","lat":43.285856,"lon":5.350771,"is_reserved":false,"is_disabled":false,"rental_uris":{"android":"levelo://app?vid=96910b03-f01f-4ccf-9e76-9a065bfbbec5","ios":"levelo://app?vid=96910b03-f01f-4ccf-9e76-9a065bfbbec5"},"vehicle_type_id":"4","last_reported":1704578777,"current_range_meters":30400,"station_id":"ce4bhch2rcd13ifvqeug","pricing_plan_id":"free"},{"bike_id":"b0d9c37a-12b7-4fcf-b2cc-70034df7a04b","system_id":"levelo_inurba_marseille","lat":43.29831,"lon":5.40146,"is_reserved":false,"is_disabled":false,"rental_uris":{"android":"levelo://app?vid=b0d9c37a-12b7-4fcf-b2cc-70034df7a04b","ios":"levelo://app?vid=b0d9c37a-12b7-4fcf-b2cc-70034df7a04b"},"vehicle_type_id":"4","last_reported":1704578777,"current_range_meters":2400,"station_id":"","pricing_plan_id":"free"},{"bike_id":"77dcd9db-8541-482e-80ea-3465701dc93c","system_id":"levelo_inurba_marseille","lat":43.285856,"lon":5.350771,"is_reserved":false,"is_disabled":false,"rental_uris":{"android":"levelo://app?vid=77dcd9db-8541-482e-80ea-3465701dc93c","ios":"levelo://app?vid=77dcd9db-8541-482e-80ea-3465701dc93c"},"vehicle_type_id":"4","last_reported":1704578777,"current_range_meters":17600,"station_id":"ce4bhch2rcd13ifvqeug","pricing_plan_id":"free"},{"bike_id":"e7e08145-4601-41a4-9b39-d7f05b7c27b0","system_id":"levelo_inurba_marseille","lat":43.285856,"lon":5.350771,"is_reserved":false,"is_disabled":false,"rental_uris":{"android":"levelo://app?vid=e7e08145-4601-41a4-9b39-d7f05b7c27b0","ios":"levelo://app?vid=e7e08145-4601-41a4-9b39-d7f05b7c27b0"},"vehicle_type_id":"4","last_reported":1704578777,"current_range_meters":9200,"station_id":"ce4bhch2rcd13ifvqeug","pricing_plan_id":"free"},{"bike_id":"f6d84242-536a-4227-995d-300e54eb18f6","system_id":"levelo_inurba_marseille","lat":43.285856,"lon":5.350771,"is_reserved":false,"is_disabled":false,"rental_uris":{"android":"levelo://app?vid=f6d84242-536a-4227-995d-300e54eb18f6","ios":"levelo://app?vid=f6d84242-536a-4227-995d-300e54eb18f6"},"vehicle_type_id":"4","last_reported":1704578777,"current_range_meters":11600,"station_id":"ce4bhch2rcd13ifvqeug","pricing_plan_id":"free"},{"bike_id":"8ae8fd29-973b-477c-9463-de857e7f5178","system_id":"levelo_inurba_marseille","lat":43.285856,"lon":5.350771,"is_reserved":false,"is_disabled":false,"rental_uris":{"android":"levelo://app?vid=8ae8fd29-973b-477c-9463-de857e7f5178","ios":"levelo://app?vid=8ae8fd29-973b-477c-9463-de857e7f5178"},"vehicle_type_id":"4","last_reported":1704578777,"current_range_meters":24800,"station_id":"ce4bhch2rcd13ifvqeug","pricing_plan_id":"free"},{"bike_id":"6dba823a-7470-468c-beea-8f25015feb1d","system_id":"levelo_inurba_marseille","lat":43.285856,"lon":5.350771,"is_reserved":false,"is_disabled":false,"rental_uris":{"android":"levelo://app?vid=6dba823a-7470-468c-beea-8f25015feb1d","ios":"levelo://app?vid=6dba823a-7470-468c-beea-8f25015feb1d"},"vehicle_type_id":"4","last_reported":1704578777,"current_range_meters":14000,"station_id":"ce4bhch2rcd13ifvqeug","pricing_plan_id":"free"},{"bike_id":"154efb84-26fc-49e6-ada6-5bf0c44dd6f0","system_id":"levelo_inurba_marseille","lat":43.285856,"lon":5.350771,"is_reserved":false,"is_disabled":false,"rental_uris":{"android":"levelo://app?vid=154efb84-26fc-49e6-ada6-5bf0c44dd6f0","ios":"levelo://app?vid=154efb84-26fc-49e6-ada6-5bf0c44dd6f0"},"vehicle_type_id":"4","last_reported":1704578777,"current_range_meters":12400,"station_id":"ce4bhch2rcd13ifvqeug","pricing_plan_id":"free"},{"bike_id":"01e59b64-29e9-4e48-86ad-7a3b4b582e04","system_id":"levelo_inurba_marseille","lat":43.285856,"lon":5.350771,"is_reserved":false,"is_disabled":false,"rental_uris":{"android":"levelo://app?vid=01e59b64-29e9-4e48-86ad-7a3b4b582e04","ios":"levelo://app?vid=01e59b64-29e9-4e48-86ad-7a3b4b582e04"},"vehicle_type_id":"4","last_reported":1704578777,"current_range_meters":29600,"station_id":"ce4bhch2rcd13ifvqeug","pricing_plan_id":"free"},{"bike_id":"43b3ea92-a636-409a-a2bf-2cfcdf83346d","system_id":"levelo_inurba_marseille","lat":43.285856,"lon":5.350771,"is_reserved":false,"is_disabled":false,"rental_uris":{"android":"levelo://app?vid=43b3ea92-a636-409a-a2bf-2cfcdf83346d","ios":"levelo://app?vid=43b3ea92-a636-409a-a2bf-2cfcdf83346d"},"vehicle_type_id":"4","last_reported":1704578777,"current_range_meters":27200,"station_id":"ce4bhch2rcd13ifvqeug","pricing_plan_id":"free"},{"bike_id":"5688a380-9bf4-41fc-824e-d906fd2a2179","system_id":"levelo_inurba_marseille","lat":43.285856,"lon":5.350771,"is_reserved":false,"is_disabled":false,"rental_uris":{"android":"levelo://app?vid=5688a380-9bf4-41fc-824e-d906fd2a2179","ios":"levelo://app?vid=5688a380-9bf4-41fc-824e-d906fd2a2179"},"vehicle_type_id":"4","last_reported":1704578777,"current_range_meters":16000,"station_id":"ce4bhch2rcd13ifvqeug","pricing_plan_id":"free"},{"bike_id":"a8a5a961-0292-4b80-81a4-a594170f711e","system_id":"levelo_inurba_marseille","lat":43.285856,"lon":5.350771,"is_reserved":false,"is_disabled":false,"rental_uris":{"android":"levelo://app?vid=a8a5a961-0292-4b80-81a4-a594170f711e","ios":"levelo://app?vid=a8a5a961-0292-4b80-81a4-a594170f711e"},"vehicle_type_id":"4","last_reported":1704578777,"current_range_meters":21200,"station_id":"ce4bhch2rcd13ifvqeug","pricing_plan_id":"free"},{"bike_id":"e7d08906-0d87-4715-8ffa-bdb9be03abd3","system_id":"levelo_inurba_marseille","lat":43.285856,"lon":5.350771,"is_reserved":false,"is_disabled":false,"rental_uris":{"android":"levelo://app?vid=e7d08906-0d87-4715-8ffa-bdb9be03abd3","ios":"levelo://app?vid=e7d08906-0d87-4715-8ffa-bdb9be03abd3"},"vehicle_type_id":"4","last_reported":1704578777,"current_range_meters":20000,"station_id":"ce4bhch2rcd13ifvqeug","pricing_plan_id":"free"},{"bike_id":"38e7a5b3-9d1e-4c27-9424-19673725fc98","system_id":"levelo_inurba_marseille","lat":43.28414,"lon":5.37518,"is_reserved":false,"is_disabled":false,"rental_uris":{"android":"levelo://app?vid=38e7a5b3-9d1e-4c27-9424-19673725fc98","ios":"levelo://app?vid=38e7a5b3-9d1e-4c27-9424-19673725fc98"},"vehicle_type_id":"4","last_reported":1704578777,"current_range_meters":29600,"station_id":"ce4bh412rcd13ifvqds0","pricing_plan_id":"free"},{"bike_id":"b3721e83-4cd8-4326-bc59-8c0ed4f50f7e","system_id":"levelo_inurba_marseille","lat":43.284115,"lon":5.375295,"is_reserved":false,"is_disabled":false,"rental_uris":{"android":"levelo://app?vid=b3721e83-4cd8-4326-bc59-8c0ed4f50f7e","ios":"levelo://app?vid=b3721e83-4cd8-4326-bc59-8c0ed4f50f7e"},"vehicle_type_id":"4","last_reported":1704578777,"current_range_meters":31200,"station_id":"ce4bh412rcd13ifvqds0","pricing_plan_id":"free"},{"bike_id":"fbad2125-fac4-47af-8aef-bb952a3b5438","system_id":"levelo_inurba_marseille","lat":43.284047,"lon":5.375227,"is_reserved":false,"is_disabled":false,"rental_uris":{"android":"levelo://app?vid=fbad2125-fac4-47af-8aef-bb952a3b5438","ios":"levelo://app?vid=fbad2125-fac4-47af-8aef-bb952a3b5438"},"vehicle_type_id":"4","last_reported":1704578777,"current_range_meters":26800,"station_id":"ce4bh412rcd13ifvqds0","pricing_plan_id":"free"},{"bike_id":"33b5cad4-74c8-451a-8822-f57a3fae057e","system_id":"levelo_inurba_marseille","lat":43.319179,"lon":5.407725,"is_reserved":false,"is_disabled":false,"rental_uris":{"android":"levelo://app?vid=33b5cad4-74c8-451a-8822-f57a3fae057e","ios":"levelo://app?vid=33b5cad4-74c8-451a-8822-f57a3fae057e"},"vehicle_type_id":"4","last_reported":1704578777,"current_range_meters":28400,"station_id":"ce4bhq12rcd13ifvqhig","pricing_plan_id":"free"},{"bike_id":"214e1163-0343-4eea-a78a-897b0e8e97bd","system_id":"levelo_inurba_marseille","lat":43.319179,"lon":5.407725,"is_reserved":false,"is_disabled":false,"rental_uris":{"android":"levelo://app?vid=214e1163-0343-4eea-a78a-897b0e8e97bd","ios":"levelo://app?vid=214e1163-0343-4eea-a78a-897b0e8e97bd"},"vehicle_type_id":"4","last_reported":1704578777,"current_range_meters":22400,"station_id":"ce4bhq12rcd13ifvqhig","pricing_plan_id":"free"},{"bike_id":"002b4379-69d7-41c9-ab53-4de44a1e07fa","system_id":"levelo_inurba_marseille","lat":43.33717,"lon":5.39184,"is_reserved":false,"is_disabled":false,"rental_uris":{"android":"levelo://app?vid=002b4379-69d7-41c9-ab53-4de44a1e07fa","ios":"levelo://app?vid=002b4379-69d7-41c9-ab53-4de44a1e07fa"},"vehicle_type_id":"4","last_reported":1704578777,"current_range_meters":10400,"station_id":"ce4bhr92rcd13ifvqhsg","pricing_plan_id":"free"},{"bike_id":"747b4a07-a8db-40b3-a2bf-387b48385f47","system_id":"levelo_inurba_marseille","lat":43.323464,"lon":5.406297,"is_reserved":false,"is_disabled":false,"rental_uris":{"android":"levelo://app?vid=747b4a07-a8db-40b3-a2bf-387b48385f47","ios":"levelo://app?vid=747b4a07-a8db-40b3-a2bf-387b48385f47"},"vehicle_type_id":"4","last_reported":1704578777,"current_range_meters":23600,"station_id":"ce4bhq92rcd13ifvqhjg","pricing_plan_id":"free"},{"bike_id":"54bec85a-3ad1-4ccc-9cab-e86a90c0ca6c","system_id":"levelo_inurba_marseille","lat":43.323464,"lon":5.406297,"is_reserved":false,"is_disabled":false,"rental_uris":{"android":"levelo://app?vid=54bec85a-3ad1-4ccc-9cab-e86a90c0ca6c","ios":"levelo://app?vid=54bec85a-3ad1-4ccc-9cab-e86a90c0ca6c"},"vehicle_type_id":"4","last_reported":1704578777,"current_range_meters":25600,"station_id":"ce4bhq92rcd13ifvqhjg","pricing_plan_id":"free"},{"bike_id":"e0c88ecc-04f9-4c5b-b32a-6b5648de092c","system_id":"levelo_inurba_marseille","lat":43.288501,"lon":5.393087,"is_reserved":false,"is_disabled":false,"rental_uris":{"android":"levelo://app?vid=e0c88ecc-04f9-4c5b-b32a-6b5648de092c","ios":"levelo://app?vid=e0c88ecc-04f9-4c5b-b32a-6b5648de092c"},"vehicle_type_id":"4","last_reported":1704578777,"current_range_meters":9600,"station_id":"ce4bh2p2rcd13ifvqdi0","pricing_plan_id":"free"},{"bike_id":"e66c389e-ba6a-49c3-b899-b81ccb7d73d0","system_id":"levelo_inurba_marseille","lat":43.283498,"lon":5.380948,"is_reserved":false,"is_disabled":false,"rental_uris":{"android":"levelo://app?vid=e66c389e-ba6a-49c3-b899-b81ccb7d73d0","ios":"levelo://app?vid=e66c389e-ba6a-49c3-b899-b81ccb7d73d0"},"vehicle_type_id":"4","last_reported":1704578777,"current_range_meters":14400,"station_id":"ce4bh412rcd13ifvqdr0","pricing_plan_id":"free"},{"bike_id":"4714bef9-5f38-4c26-b888-7b40cc11f281","system_id":"levelo_inurba_marseille","lat":43.284219,"lon":5.3497,"is_reserved":false,"is_disabled":false,"rental_uris":{"android":"levelo://app?vid=4714bef9-5f38-4c26-b888-7b40cc11f281","ios":"levelo://app?vid=4714bef9-5f38-4c26-b888-7b40cc11f281"},"vehicle_type_id":"4","last_reported":1704578777,"current_range_meters":30400,"station_id":"ce4bhbh2rcd13ifvqepg","pricing_plan_id":"free"},{"bike_id":"74c757a3-57f5-43bc-9cbd-c0caf045d565","system_id":"levelo_inurba_marseille","lat":43.284219,"lon":5.3497,"is_reserved":false,"is_disabled":false,"rental_uris":{"android":"levelo://app?vid=74c757a3-57f5-43bc-9cbd-c0caf045d565","ios":"levelo://app?vid=74c757a3-57f5-43bc-9cbd-c0caf045d565"},"vehicle_type_id":"4","last_reported":1704578777,"current_range_meters":28000,"station_id":"ce4bhbh2rcd13ifvqepg","pricing_plan_id":"free"},{"bike_id":"089fd505-dace-46fe-a5f8-d3c86a685bad","system_id":"levelo_inurba_marseille","lat":43.28424,"lon":5.34993,"is_reserved":false,"is_disabled":false,"rental_uris":{"android":"levelo://app?vid=089fd505-dace-46fe-a5f8-d3c86a685bad","ios":"levelo://app?vid=089fd505-dace-46fe-a5f8-d3c86a685bad"},"vehicle_type_id":"4","last_reported":1704578777,"current_range_meters":22400,"station_id":"ce4bhbh2rcd13ifvqepg","pricing_plan_id":"free"},{"bike_id":"c3f119c8-a2c3-48cd-a23a-407567ed222b","system_id":"levelo_inurba_marseille","lat":43.284217,"lon":5.349697,"is_reserved":false,"is_disabled":false,"rental_uris":{"android":"levelo://app?vid=c3f119c8-a2c3-48cd-a23a-407567ed222b","ios":"levelo://app?vid=c3f119c8-a2c3-48cd-a23a-407567ed222b"},"vehicle_type_id":"4","last_reported":1704578777,"current_range_meters":31200,"station_id":"ce4bhbh2rcd13ifvqepg","pricing_plan_id":"free"},{"bike_id":"a2b2319c-8302-4c6c-8e3d-f0397969e6f4","system_id":"levelo_inurba_marseille","lat":43.284217,"lon":5.349697,"is_reserved":false,"is_disabled":false,"rental_uris":{"android":"levelo://app?vid=a2b2319c-8302-4c6c-8e3d-f0397969e6f4","ios":"levelo://app?vid=a2b2319c-8302-4c6c-8e3d-f0397969e6f4"},"vehicle_type_id":"4","last_reported":1704578777,"current_range_meters":13200,"station_id":"ce4bhbh2rcd13ifvqepg","pricing_plan_id":"free"},{"bike_id":"5d724bc6-af52-4d46-8d06-42885fe6618d","system_id":"levelo_inurba_marseille","lat":43.284217,"lon":5.349697,"is_reserved":false,"is_disabled":false,"rental_uris":{"android":"levelo://app?vid=5d724bc6-af52-4d46-8d06-42885fe6618d","ios":"levelo://app?vid=5d724bc6-af52-4d46-8d06-42885fe6618d"},"vehicle_type_id":"4","last_reported":1704578777,"current_range_meters":31200,"station_id":"ce4bhbh2rcd13ifvqepg","pricing_plan_id":"free"},{"bike_id":"f504af7c-df2b-40ed-b292-73fc5838a0d1","system_id":"levelo_inurba_marseille","lat":43.282744,"lon":5.350533,"is_reserved":false,"is_disabled":false,"rental_uris":{"android":"levelo://app?vid=f504af7c-df2b-40ed-b292-73fc5838a0d1","ios":"levelo://app?vid=f504af7c-df2b-40ed-b292-73fc5838a0d1"},"vehicle_type_id":"4","last_reported":1704578777,"current_range_meters":23200,"station_id":"ce4bhbp2rcd13ifvqerg","pricing_plan_id":"free"},{"bike_id":"52596233-efe2-42f7-a154-9ab226054d49","system_id":"levelo_inurba_marseille","lat":43.282744,"lon":5.350533,"is_reserved":false,"is_disabled":false,"rental_uris":{"android":"levelo://app?vid=52596233-efe2-42f7-a154-9ab226054d49","ios":"levelo://app?vid=52596233-efe2-42f7-a154-9ab226054d49"},"vehicle_type_id":"4","last_reported":1704578777,"current_range_meters":31200,"station_id":"ce4bhbp2rcd13ifvqerg","pricing_plan_id":"free"},{"bike_id":"f8dd31ec-fac5-40aa-bf57-1849aadae574","system_id":"levelo_inurba_marseille","lat":43.282744,"lon":5.350533,"is_reserved":false,"is_disabled":false,"rental_uris":{"android":"levelo://app?vid=f8dd31ec-fac5-40aa-bf57-1849aadae574","ios":"levelo://app?vid=f8dd31ec-fac5-40aa-bf57-1849aadae574"},"vehicle_type_id":"4","last_reported":1704578777,"current_range_meters":26400,"station_id":"ce4bhbp2rcd13ifvqerg","pricing_plan_id":"free"},{"bike_id":"fd817817-289b-4ac7-a1d1-8ad432f14ee3","system_id":"levelo_inurba_marseille","lat":43.282744,"lon":5.350533,"is_reserved":false,"is_disabled":false,"rental_uris":{"android":"levelo://app?vid=fd817817-289b-4ac7-a1d1-8ad432f14ee3","ios":"levelo://app?vid=fd817817-289b-4ac7-a1d1-8ad432f14ee3"},"vehicle_type_id":"4","last_reported":1704578777,"current_range_meters":19600,"station_id":"ce4bhbp2rcd13ifvqerg","pricing_plan_id":"free"},{"bike_id":"64a3722c-d7b1-4c03-a920-a75f2903e4ba","system_id":"levelo_inurba_marseille","lat":43.282744,"lon":5.350533,"is_reserved":false,"is_disabled":false,"rental_uris":{"android":"levelo://app?vid=64a3722c-d7b1-4c03-a920-a75f2903e4ba","ios":"levelo://app?vid=64a3722c-d7b1-4c03-a920-a75f2903e4ba"},"vehicle_type_id":"4","last_reported":1704578777,"current_range_meters":31200,"station_id":"ce4bhbp2rcd13ifvqerg","pricing_plan_id":"free"},{"bike_id":"c7170c0f-4192-424d-a41c-9fb0826c97a7","system_id":"levelo_inurba_marseille","lat":43.28039,"lon":5.369297,"is_reserved":false,"is_disabled":false,"rental_uris":{"android":"levelo://app?vid=c7170c0f-4192-424d-a41c-9fb0826c97a7","ios":"levelo://app?vid=c7170c0f-4192-424d-a41c-9fb0826c97a7"},"vehicle_type_id":"4","last_reported":1704578777,"current_range_meters":25200,"station_id":"ce4bha12rcd13ifvqef0","pricing_plan_id":"free"},{"bike_id":"cf6b5a4c-566d-4307-a0f1-2d578aaebffa","system_id":"levelo_inurba_marseille","lat":43.28038,"lon":5.36943,"is_reserved":false,"is_disabled":false,"rental_uris":{"android":"levelo://app?vid=cf6b5a4c-566d-4307-a0f1-2d578aaebffa","ios":"levelo://app?vid=cf6b5a4c-566d-4307-a0f1-2d578aaebffa"},"vehicle_type_id":"4","last_reported":1704578777,"current_range_meters":5200,"station_id":"ce4bha12rcd13ifvqef0","pricing_plan_id":"free"},{"bike_id":"21804342-5a63-4a0e-ad51-7b719089cba5","system_id":"levelo_inurba_marseille","lat":43.28039,"lon":5.369297,"is_reserved":false,"is_disabled":false,"rental_uris":{"android":"levelo://app?vid=21804342-5a63-4a0e-ad51-7b719089cba5","ios":"levelo://app?vid=21804342-5a63-4a0e-ad51-7b719089cba5"},"vehicle_type_id":"4","last_reported":1704578777,"current_range_meters":28400,"station_id":"ce4bha12rcd13ifvqef0","pricing_plan_id":"free"},{"bike_id":"2a90d7f7-599b-47f7-9e7b-93c608e973cb","system_id":"levelo_inurba_marseille","lat":43.29041,"lon":5.399634,"is_reserved":false,"is_disabled":false,"rental_uris":{"android":"levelo://app?vid=2a90d7f7-599b-47f7-9e7b-93c608e973cb","ios":"levelo://app?vid=2a90d7f7-599b-47f7-9e7b-93c608e973cb"},"vehicle_type_id":"4","last_reported":1704578777,"current_range_meters":6400,"station_id":"ce4bh392rcd13ifvqdm0","pricing_plan_id":"free"},{"bike_id":"14acf763-d3d0-4928-9e27-ba6d03a9beb6","system_id":"levelo_inurba_marseille","lat":43.296263,"lon":5.40601,"is_reserved":false,"is_disabled":false,"rental_uris":{"android":"levelo://app?vid=14acf763-d3d0-4928-9e27-ba6d03a9beb6","ios":"levelo://app?vid=14acf763-d3d0-4928-9e27-ba6d03a9beb6"},"vehicle_type_id":"4","last_reported":1704578777,"current_range_meters":25200,"station_id":"ce4bh0h2rcd13ifvqd60","pricing_plan_id":"free"},{"bike_id":"b8a1237f-fa5e-4e7d-91fc-20954cd1bc9e","system_id":"levelo_inurba_marseille","lat":43.296263,"lon":5.40601,"is_reserved":false,"is_disabled":false,"rental_uris":{"android":"levelo://app?vid=b8a1237f-fa5e-4e7d-91fc-20954cd1bc9e","ios":"levelo://app?vid=b8a1237f-fa5e-4e7d-91fc-20954cd1bc9e"},"vehicle_type_id":"4","last_reported":1704578777,"current_range_meters":26400,"station_id":"ce4bh0h2rcd13ifvqd60","pricing_plan_id":"free"},{"bike_id":"044496cc-6e0a-4070-8db2-3481ec2f2469","system_id":"levelo_inurba_marseille","lat":43.28573,"lon":5.394992,"is_reserved":false,"is_disabled":false,"rental_uris":{"android":"levelo://app?vid=044496cc-6e0a-4070-8db2-3481ec2f2469","ios":"levelo://app?vid=044496cc-6e0a-4070-8db2-3481ec2f2469"},"vehicle_type_id":"4","last_reported":1704578777,"current_range_meters":16000,"station_id":"ce4bh292rcd13ifvqdg0","pricing_plan_id":"free"},{"bike_id":"b6a0a937-1496-447e-8edd-e58a4ce3de24","system_id":"levelo_inurba_marseille","lat":43.285742,"lon":5.395004,"is_reserved":false,"is_disabled":false,"rental_uris":{"android":"levelo://app?vid=b6a0a937-1496-447e-8edd-e58a4ce3de24","ios":"levelo://app?vid=b6a0a937-1496-447e-8edd-e58a4ce3de24"},"vehicle_type_id":"4","last_reported":1704578777,"current_range_meters":21600,"station_id":"ce4bh292rcd13ifvqdg0","pricing_plan_id":"free"},{"bike_id":"a6faecf3-116a-4e63-9a7d-a0405b58bcd9","system_id":"levelo_inurba_marseille","lat":43.285742,"lon":5.395004,"is_reserved":false,"is_disabled":false,"rental_uris":{"android":"levelo://app?vid=a6faecf3-116a-4e63-9a7d-a0405b58bcd9","ios":"levelo://app?vid=a6faecf3-116a-4e63-9a7d-a0405b58bcd9"},"vehicle_type_id":"4","last_reported":1704578777,"current_range_meters":26800,"station_id":"ce4bh292rcd13ifvqdg0","pricing_plan_id":"free"},{"bike_id":"73b7c303-bb17-492e-9d0f-94d5ac695eac","system_id":"levelo_inurba_marseille","lat":43.32664,"lon":5.40983,"is_reserved":false,"is_disabled":false,"rental_uris":{"android":"levelo://app?vid=73b7c303-bb17-492e-9d0f-94d5ac695eac","ios":"levelo://app?vid=73b7c303-bb17-492e-9d0f-94d5ac695eac"},"vehicle_type_id":"4","last_reported":1704578777,"current_range_meters":19600,"station_id":"ce4bhpp2rcd13ifvqhgg","pricing_plan_id":"free"},{"bike_id":"a0d20dd8-a3b3-4fa3-a6e9-2896226abf35","system_id":"levelo_inurba_marseille","lat":43.326605,"lon":5.409903,"is_reserved":false,"is_disabled":false,"rental_uris":{"android":"levelo://app?vid=a0d20dd8-a3b3-4fa3-a6e9-2896226abf35","ios":"levelo://app?vid=a0d20dd8-a3b3-4fa3-a6e9-2896226abf35"},"vehicle_type_id":"4","last_reported":1704578777,"current_range_meters":9600,"station_id":"ce4bhpp2rcd13ifvqhgg","pricing_plan_id":"free"},{"bike_id":"804748a1-919c-4286-95e2-023037287763","system_id":"levelo_inurba_marseille","lat":43.326605,"lon":5.409903,"is_reserved":false,"is_disabled":false,"rental_uris":{"android":"levelo://app?vid=804748a1-919c-4286-95e2-023037287763","ios":"levelo://app?vid=804748a1-919c-4286-95e2-023037287763"},"vehicle_type_id":"4","last_reported":1704578777,"current_range_meters":30400,"station_id":"ce4bhpp2rcd13ifvqhgg","pricing_plan_id":"free"},{"bike_id":"6bcc2d9f-ce8b-4eda-944e-d3d8c9887e44","system_id":"levelo_inurba_marseille","lat":43.304188,"lon":5.412904,"is_reserved":false,"is_disabled":false,"rental_uris":{"android":"levelo://app?vid=6bcc2d9f-ce8b-4eda-944e-d3d8c9887e44","ios":"levelo://app?vid=6bcc2d9f-ce8b-4eda-944e-d3d8c9887e44"},"vehicle_type_id":"4","last_reported":1704578777,"current_range_meters":19600,"station_id":"ce4bhop2rcd13ifvqh8g","pricing_plan_id":"free"},{"bike_id":"1629d957-45c5-442b-80d3-d8f389f845e9","system_id":"levelo_inurba_marseille","lat":43.30413,"lon":5.41284,"is_reserved":false,"is_disabled":false,"rental_uris":{"android":"levelo://app?vid=1629d957-45c5-442b-80d3-d8f389f845e9","ios":"levelo://app?vid=1629d957-45c5-442b-80d3-d8f389f845e9"},"vehicle_type_id":"4","last_reported":1704578777,"current_range_meters":23200,"station_id":"ce4bhop2rcd13ifvqh8g","pricing_plan_id":"free"},{"bike_id":"6b32fc1f-04a9-4fe2-b9d5-f7ed7bb851d8","system_id":"levelo_inurba_marseille","lat":43.30414,"lon":5.41286,"is_reserved":false,"is_disabled":false,"rental_uris":{"android":"levelo://app?vid=6b32fc1f-04a9-4fe2-b9d5-f7ed7bb851d8","ios":"levelo://app?vid=6b32fc1f-04a9-4fe2-b9d5-f7ed7bb851d8"},"vehicle_type_id":"4","last_reported":1704578777,"current_range_meters":6000,"station_id":"ce4bhop2rcd13ifvqh8g","pricing_plan_id":"free"},{"bike_id":"de20d667-0342-4dd6-80aa-fc923ac7a4b9","system_id":"levelo_inurba_marseille","lat":43.30414,"lon":5.4129,"is_reserved":false,"is_disabled":false,"rental_uris":{"android":"levelo://app?vid=de20d667-0342-4dd6-80aa-fc923ac7a4b9","ios":"levelo://app?vid=de20d667-0342-4dd6-80aa-fc923ac7a4b9"},"vehicle_type_id":"4","last_reported":1704578777,"current_range_meters":15600,"station_id":"ce4bhop2rcd13ifvqh8g","pricing_plan_id":"free"},{"bike_id":"3d351d06-0266-45af-8adb-554012353f4c","system_id":"levelo_inurba_marseille","lat":43.30421,"lon":5.41295,"is_reserved":false,"is_disabled":false,"rental_uris":{"android":"levelo://app?vid=3d351d06-0266-45af-8adb-554012353f4c","ios":"levelo://app?vid=3d351d06-0266-45af-8adb-554012353f4c"},"vehicle_type_id":"4","last_reported":1704578777,"current_range_meters":29200,"station_id":"ce4bhop2rcd13ifvqh8g","pricing_plan_id":"free"},{"bike_id":"42cbd23f-a351-4504-8913-fdf670468387","system_id":"levelo_inurba_marseille","lat":43.304136,"lon":5.412934,"is_reserved":false,"is_disabled":false,"rental_uris":{"android":"levelo://app?vid=42cbd23f-a351-4504-8913-fdf670468387","ios":"levelo://app?vid=42cbd23f-a351-4504-8913-fdf670468387"},"vehicle_type_id":"4","last_reported":1704578777,"current_range_meters":800,"station_id":"ce4bhop2rcd13ifvqh8g","pricing_plan_id":"free"},{"bike_id":"34d0ac35-3ac7-4b8b-a1c5-105fd039b867","system_id":"levelo_inurba_marseille","lat":43.30412,"lon":5.41295,"is_reserved":false,"is_disabled":false,"rental_uris":{"android":"levelo://app?vid=34d0ac35-3ac7-4b8b-a1c5-105fd039b867","ios":"levelo://app?vid=34d0ac35-3ac7-4b8b-a1c5-105fd039b867"},"vehicle_type_id":"4","last_reported":1704578777,"current_range_meters":12000,"station_id":"ce4bhop2rcd13ifvqh8g","pricing_plan_id":"free"},{"bike_id":"e8742fff-3141-4a75-a555-585253c6281c","system_id":"levelo_inurba_marseille","lat":43.299579,"lon":5.413255,"is_reserved":false,"is_disabled":false,"rental_uris":{"android":"levelo://app?vid=e8742fff-3141-4a75-a555-585253c6281c","ios":"levelo://app?vid=e8742fff-3141-4a75-a555-585253c6281c"},"vehicle_type_id":"4","last_reported":1704578777,"current_range_meters":30000,"station_id":"ce4bhp12rcd13ifvqh9g","pricing_plan_id":"free"},{"bike_id":"c091dd33-318a-4a7a-b50f-997c9e30af63","system_id":"levelo_inurba_marseille","lat":43.29955,"lon":5.41336,"is_reserved":false,"is_disabled":false,"rental_uris":{"android":"levelo://app?vid=c091dd33-318a-4a7a-b50f-997c9e30af63","ios":"levelo://app?vid=c091dd33-318a-4a7a-b50f-997c9e30af63"},"vehicle_type_id":"4","last_reported":1704578777,"current_range_meters":29600,"station_id":"ce4bhp12rcd13ifvqh9g","pricing_plan_id":"free"},{"bike_id":"bfe62fd4-e6ac-489a-bda6-042163168087","system_id":"levelo_inurba_marseille","lat":43.292569,"lon":5.409107,"is_reserved":false,"is_disabled":false,"rental_uris":{"android":"levelo://app?vid=bfe62fd4-e6ac-489a-bda6-042163168087","ios":"levelo://app?vid=bfe62fd4-e6ac-489a-bda6-042163168087"},"vehicle_type_id":"4","last_reported":1704578777,"current_range_meters":22000,"station_id":"ce4bh192rcd13ifvqdc0","pricing_plan_id":"free"},{"bike_id":"141d8f62-d431-4979-8358-54f524263357","system_id":"levelo_inurba_marseille","lat":43.32535,"lon":5.41455,"is_reserved":false,"is_disabled":false,"rental_uris":{"android":"levelo://app?vid=141d8f62-d431-4979-8358-54f524263357","ios":"levelo://app?vid=141d8f62-d431-4979-8358-54f524263357"},"vehicle_type_id":"4","last_reported":1704578777,"current_range_meters":21200,"station_id":"ce4bhq12rcd13ifvqhhg","pricing_plan_id":"free"},{"bike_id":"744c1b87-e61d-498e-9fd0-fec4514aae2a","system_id":"levelo_inurba_marseille","lat":43.280784,"lon":5.396622,"is_reserved":false,"is_disabled":false,"rental_uris":{"android":"levelo://app?vid=744c1b87-e61d-498e-9fd0-fec4514aae2a","ios":"levelo://app?vid=744c1b87-e61d-498e-9fd0-fec4514aae2a"},"vehicle_type_id":"4","last_reported":1704578777,"current_range_meters":15600,"station_id":"ce4bho12rcd13ifvqh2g","pricing_plan_id":"free"},{"bike_id":"29a481a7-2edc-4a0f-8037-745cf30cfd87","system_id":"levelo_inurba_marseille","lat":43.27981,"lon":5.39467,"is_reserved":false,"is_disabled":false,"rental_uris":{"android":"levelo://app?vid=29a481a7-2edc-4a0f-8037-745cf30cfd87","ios":"levelo://app?vid=29a481a7-2edc-4a0f-8037-745cf30cfd87"},"vehicle_type_id":"4","last_reported":1704578777,"current_range_meters":14400,"station_id":"","pricing_plan_id":"free"},{"bike_id":"9c283331-e35c-4907-bc1d-05046942f50d","system_id":"levelo_inurba_marseille","lat":43.303837,"lon":5.418724,"is_reserved":false,"is_disabled":false,"rental_uris":{"android":"levelo://app?vid=9c283331-e35c-4907-bc1d-05046942f50d","ios":"levelo://app?vid=9c283331-e35c-4907-bc1d-05046942f50d"},"vehicle_type_id":"4","last_reported":1704578777,"current_range_meters":18800,"station_id":"ce4bhop2rcd13ifvqh7g","pricing_plan_id":"free"},{"bike_id":"65dffadf-43e6-4e86-87fa-ee2c73e6a3f8","system_id":"levelo_inurba_marseille","lat":43.278401,"lon":5.392152,"is_reserved":false,"is_disabled":false,"rental_uris":{"android":"levelo://app?vid=65dffadf-43e6-4e86-87fa-ee2c73e6a3f8","ios":"levelo://app?vid=65dffadf-43e6-4e86-87fa-ee2c73e6a3f8"},"vehicle_type_id":"4","last_reported":1704578777,"current_range_meters":6800,"station_id":"ce4bhjp2rcd13ifvqga0","pricing_plan_id":"free"},{"bike_id":"f8d6d231-360c-41e0-8ff9-938a1009ecda","system_id":"levelo_inurba_marseille","lat":43.278401,"lon":5.392152,"is_reserved":false,"is_disabled":false,"rental_uris":{"android":"levelo://app?vid=f8d6d231-360c-41e0-8ff9-938a1009ecda","ios":"levelo://app?vid=f8d6d231-360c-41e0-8ff9-938a1009ecda"},"vehicle_type_id":"4","last_reported":1704578777,"current_range_meters":26400,"station_id":"ce4bhjp2rcd13ifvqga0","pricing_plan_id":"free"},{"bike_id":"31008af1-011a-429b-a4c8-c4f8d8d213c9","system_id":"levelo_inurba_marseille","lat":43.336134,"lon":5.410341,"is_reserved":false,"is_disabled":false,"rental_uris":{"android":"levelo://app?vid=31008af1-011a-429b-a4c8-c4f8d8d213c9","ios":"levelo://app?vid=31008af1-011a-429b-a4c8-c4f8d8d213c9"},"vehicle_type_id":"4","last_reported":1704578777,"current_range_meters":12800,"station_id":"ce4bhqh2rcd13ifvqhmg","pricing_plan_id":"free"},{"bike_id":"37a9c23a-99d3-4b9d-bafd-8aa90e266549","system_id":"levelo_inurba_marseille","lat":43.27999,"lon":5.40005,"is_reserved":false,"is_disabled":false,"rental_uris":{"android":"levelo://app?vid=37a9c23a-99d3-4b9d-bafd-8aa90e266549","ios":"levelo://app?vid=37a9c23a-99d3-4b9d-bafd-8aa90e266549"},"vehicle_type_id":"4","last_reported":1704578777,"current_range_meters":18800,"station_id":"ce4bho92rcd13ifvqh4g","pricing_plan_id":"free"},{"bike_id":"e7a411eb-84b4-4951-b315-a348e176a550","system_id":"levelo_inurba_marseille","lat":43.28,"lon":5.40017,"is_reserved":false,"is_disabled":false,"rental_uris":{"android":"levelo://app?vid=e7a411eb-84b4-4951-b315-a348e176a550","ios":"levelo://app?vid=e7a411eb-84b4-4951-b315-a348e176a550"},"vehicle_type_id":"4","last_reported":1704578777,"current_range_meters":31200,"station_id":"ce4bho92rcd13ifvqh4g","pricing_plan_id":"free"},{"bike_id":"b64097b7-cafd-40c8-9192-664316f67849","system_id":"levelo_inurba_marseille","lat":43.317121,"lon":5.423936,"is_reserved":false,"is_disabled":false,"rental_uris":{"android":"levelo://app?vid=b64097b7-cafd-40c8-9192-664316f67849","ios":"levelo://app?vid=b64097b7-cafd-40c8-9192-664316f67849"},"vehicle_type_id":"4","last_reported":1704578777,"current_range_meters":28800,"station_id":"ce4bhp92rcd13ifvqhbg","pricing_plan_id":"free"},{"bike_id":"464b252f-4a0d-4ecb-9f59-3d1a072c4274","system_id":"levelo_inurba_marseille","lat":43.317121,"lon":5.423936,"is_reserved":false,"is_disabled":false,"rental_uris":{"android":"levelo://app?vid=464b252f-4a0d-4ecb-9f59-3d1a072c4274","ios":"levelo://app?vid=464b252f-4a0d-4ecb-9f59-3d1a072c4274"},"vehicle_type_id":"4","last_reported":1704578777,"current_range_meters":31200,"station_id":"ce4bhp92rcd13ifvqhbg","pricing_plan_id":"free"},{"bike_id":"add79ccb-d238-4b0b-9447-1ee9e99bc8fe","system_id":"levelo_inurba_marseille","lat":43.310785,"lon":5.424305,"is_reserved":false,"is_disabled":false,"rental_uris":{"android":"levelo://app?vid=add79ccb-d238-4b0b-9447-1ee9e99bc8fe","ios":"levelo://app?vid=add79ccb-d238-4b0b-9447-1ee9e99bc8fe"},"vehicle_type_id":"4","last_reported":1704578777,"current_range_meters":30000,"station_id":"ce4bhp92rcd13ifvqhag","pricing_plan_id":"free"},{"bike_id":"11fe76d6-576f-4af1-b59f-34c2a58c871a","system_id":"levelo_inurba_marseille","lat":43.340804,"lon":5.410219,"is_reserved":false,"is_disabled":false,"rental_uris":{"android":"levelo://app?vid=11fe76d6-576f-4af1-b59f-34c2a58c871a","ios":"levelo://app?vid=11fe76d6-576f-4af1-b59f-34c2a58c871a"},"vehicle_type_id":"4","last_reported":1704578777,"current_range_meters":30400,"station_id":"ce4bhqh2rcd13ifvqhlg","pricing_plan_id":"free"},{"bike_id":"461657c9-e33a-46b1-991e-8729539ba8aa","system_id":"levelo_inurba_marseille","lat":43.340804,"lon":5.410219,"is_reserved":false,"is_disabled":false,"rental_uris":{"android":"levelo://app?vid=461657c9-e33a-46b1-991e-8729539ba8aa","ios":"levelo://app?vid=461657c9-e33a-46b1-991e-8729539ba8aa"},"vehicle_type_id":"4","last_reported":1704578777,"current_range_meters":14400,"station_id":"ce4bhqh2rcd13ifvqhlg","pricing_plan_id":"free"},{"bike_id":"d85b142e-78ff-4c76-9cf3-dbadc64f8d50","system_id":"levelo_inurba_marseille","lat":43.274099,"lon":5.394019,"is_reserved":false,"is_disabled":false,"rental_uris":{"android":"levelo://app?vid=d85b142e-78ff-4c76-9cf3-dbadc64f8d50","ios":"levelo://app?vid=d85b142e-78ff-4c76-9cf3-dbadc64f8d50"},"vehicle_type_id":"4","last_reported":1704578777,"current_range_meters":26400,"station_id":"ce4bhdp2rcd13ifvqf20","pricing_plan_id":"free"},{"bike_id":"7a938103-036d-4fc6-952f-3cc0022f881a","system_id":"levelo_inurba_marseille","lat":43.304096,"lon":5.425385,"is_reserved":false,"is_disabled":false,"rental_uris":{"android":"levelo://app?vid=7a938103-036d-4fc6-952f-3cc0022f881a","ios":"levelo://app?vid=7a938103-036d-4fc6-952f-3cc0022f881a"},"vehicle_type_id":"4","last_reported":1704578777,"current_range_meters":16000,"station_id":"ce4bhoh2rcd13ifvqh6g","pricing_plan_id":"free"},{"bike_id":"e00711d7-b267-4b08-8263-42102b024784","system_id":"levelo_inurba_marseille","lat":43.304096,"lon":5.425385,"is_reserved":false,"is_disabled":false,"rental_uris":{"android":"levelo://app?vid=e00711d7-b267-4b08-8263-42102b024784","ios":"levelo://app?vid=e00711d7-b267-4b08-8263-42102b024784"},