{"last_updated":1714911150,"ttl":30,"version":"2.2","data":{"bikes":[{"bike_id":"9d6d3851-d855-41a8-b87f-cc929b06ace8","system_id":"levelo_inurba_marseille","lat":43.313391,"lon":5.36706,"is_reserved":false,"is_disabled":false,"rental_uris":{"android":"levelo://app?vid=9d6d3851-d855-41a8-b87f-cc929b06ace8","ios":"levelo://app?vid=9d6d3851-d855-41a8-b87f-cc929b06ace8"},"vehicle_type_id":"4","last_reported":1714911150,"current_range_meters":31200,"station_id":"ce4bgr92rcd13ifvqc6g","pricing_plan_id":"cebpf4jnsgd1na2vs0mg"},{"bike_id":"47a7ff74-e7a7-4e5d-9e3e-92ca478dbb9e","system_id":"levelo_inurba_marseille","lat":43.312239,"lon":5.368562,"is_reserved":false,"is_disabled":false,"rental_uris":{"android":"levelo://app?vid=47a7ff74-e7a7-4e5d-9e3e-92ca478dbb9e","ios":"levelo://app?vid=47a7ff74-e7a7-4e5d-9e3e-92ca478dbb9e"},"vehicle_type_id":"4","last_reported":1714911150,"current_range_meters":27600,"station_id":"ce4bgl92rcd13ifvqbq0","pricing_plan_id":"cebpf4jnsgd1na2vs0mg"},{"bike_id":"23a5c1aa-3dfe-43d4-93d3-f2a66f3933eb","system_id":"levelo_inurba_marseille","lat":43.312239,"lon":5.368562,"is_reserved":false,"is_disabled":false,"rental_uris":{"android":"levelo://app?vid=23a5c1aa-3dfe-43d4-93d3-f2a66f3933eb","ios":"levelo://app?vid=23a5c1aa-3dfe-43d4-93d3-f2a66f3933eb"},"vehicle_type_id":"4","last_reported":1714911150,"current_range_meters":22400,"station_id":"ce4bgl92rcd13ifvqbq0","pricing_plan_id":"cebpf4jnsgd1na2vs0mg"},{"bike_id":"824839aa-bd6d-4275-83d1-71cb1c743838","system_id":"levelo_inurba_marseille","lat":43.309076,"lon":5.368465,"is_reserved":false,"is_disabled":false,"rental_uris":{"android":"levelo://app?vid=824839aa-bd6d-4275-83d1-71cb1c743838","ios":"levelo://app?vid=824839aa-bd6d-4275-83d1-71cb1c743838"},"vehicle_type_id":"4","last_reported":1714911150,"current_range_meters":15200,"station_id":"ce4bgn92rcd13ifvqbvg","pricing_plan_id":"cebpf4jnsgd1na2vs0mg"},{"bike_id":"846f44c1-469d-45b6-b51e-50e73b0a6def","system_id":"levelo_inurba_marseille","lat":43.309076,"lon":5.368465,"is_reserved":false,"is_disabled":false,"rental_uris":{"android":"levelo://app?vid=846f44c1-469d-45b6-b51e-50e73b0a6def","ios":"levelo://app?vid=846f44c1-469d-45b6-b51e-50e73b0a6def"},"vehicle_type_id":"4","last_reported":1714911150,"current_range_meters":26400,"station_id":"ce4bgn92rcd13ifvqbvg","pricing_plan_id":"cebpf4jnsgd1na2vs0mg"},{"bike_id":"49d09821-b852-4744-b2c6-ec4eaa8a5fa1","system_id":"levelo_inurba_marseille","lat":43.309076,"lon":5.368465,"is_reserved":false,"is_disabled":false,"rental_uris":{"android":"levelo://app?vid=49d09821-b852-4744-b2c6-ec4eaa8a5fa1","ios":"levelo://app?vid=49d09821-b852-4744-b2c6-ec4eaa8a5fa1"},"vehicle_type_id":"4","last_reported":1714911150,"current_range_meters":24400,"station_id":"ce4bgn92rcd13ifvqbvg","pricing_plan_id":"cebpf4jnsgd1na2vs0mg"},{"bike_id":"351d08a9-d035-41fb-800b-281ce4d05b92","system_id":"levelo_inurba_marseille","lat":43.309076,"lon":5.368465,"is_reserved":false,"is_disabled":false,"rental_uris":{"android":"levelo://app?vid=351d08a9-d035-41fb-800b-281ce4d05b92","ios":"levelo://app?vid=351d08a9-d035-41fb-800b-281ce4d05b92"},"vehicle_type_id":"4","last_reported":1714911150,"current_range_meters":31600,"station_id":"ce4bgn92rcd13ifvqbvg","pricing_plan_id":"cebpf4jnsgd1na2vs0mg"},{"bike_id":"e268f587-a92d-4371-9c1b-35153c8a6f64","system_id":"levelo_inurba_marseille","lat":43.309076,"lon":5.368465,"is_reserved":false,"is_disabled":false,"rental_uris":{"android":"levelo://app?vid=e268f587-a92d-4371-9c1b-35153c8a6f64","ios":"levelo://app?vid=e268f587-a92d-4371-9c1b-35153c8a6f64"},"vehicle_type_id":"4","last_reported":1714911150,"current_range_meters":24000,"station_id":"ce4bgn92rcd13ifvqbvg","pricing_plan_id":"cebpf4jnsgd1na2vs0mg"},{"bike_id":"a96b713f-cc57-4244-8afe-a8c99d75127b","system_id":"levelo_inurba_marseille","lat":43.314811,"lon":5.373104,"is_reserved":false,"is_disabled":false,"rental_uris":{"android":"levelo://app?vid=a96b713f-cc57-4244-8afe-a8c99d75127b","ios":"levelo://app?vid=a96b713f-cc57-4244-8afe-a8c99d75127b"},"vehicle_type_id":"4","last_reported":1714911150,"current_range_meters":4400,"station_id":"ce4bgt12rcd13ifvqcd0","pricing_plan_id":"cebpf4jnsgd1na2vs0mg"},{"bike_id":"d9d990db-99b1-44f0-b31f-3a6244327994","system_id":"levelo_inurba_marseille","lat":43.31483,"lon":5.37308,"is_reserved":false,"is_disabled":false,"rental_uris":{"android":"levelo://app?vid=d9d990db-99b1-44f0-b31f-3a6244327994","ios":"levelo://app?vid=d9d990db-99b1-44f0-b31f-3a6244327994"},"vehicle_type_id":"4","last_reported":1714911150,"current_range_meters":27600,"station_id":"ce4bgt12rcd13ifvqcd0","pricing_plan_id":"cebpf4jnsgd1na2vs0mg"},{"bike_id":"f37b6a0b-f8a3-4303-89bc-a712b27d0d14","system_id":"levelo_inurba_marseille","lat":43.31488,"lon":5.37306,"is_reserved":false,"is_disabled":false,"rental_uris":{"android":"levelo://app?vid=f37b6a0b-f8a3-4303-89bc-a712b27d0d14","ios":"levelo://app?vid=f37b6a0b-f8a3-4303-89bc-a712b27d0d14"},"vehicle_type_id":"4","last_reported":1714911150,"current_range_meters":21200,"station_id":"ce4bgt12rcd13ifvqcd0","pricing_plan_id":"cebpf4jnsgd1na2vs0mg"},{"bike_id":"2d5ff0ce-8f36-43be-a58c-fa1cf0b2e917","system_id":"levelo_inurba_marseille","lat":43.31497,"lon":5.373,"is_reserved":false,"is_disabled":false,"rental_uris":{"android":"levelo://app?vid=2d5ff0ce-8f36-43be-a58c-fa1cf0b2e917","ios":"levelo://app?vid=2d5ff0ce-8f36-43be-a58c-fa1cf0b2e917"},"vehicle_type_id":"4","last_reported":1714911150,"current_range_meters":0,"station_id":"ce4bgt12rcd13ifvqcd0","pricing_plan_id":"cebpf4jnsgd1na2vs0mg"},{"bike_id":"6c270854-b66a-4192-ae12-cfaa198f5b8c","system_id":"levelo_inurba_marseille","lat":43.3149,"lon":5.37307,"is_reserved":false,"is_disabled":false,"rental_uris":{"android":"levelo://app?vid=6c270854-b66a-4192-ae12-cfaa198f5b8c","ios":"levelo://app?vid=6c270854-b66a-4192-ae12-cfaa198f5b8c"},"vehicle_type_id":"4","last_reported":1714911150,"current_range_meters":13600,"station_id":"ce4bgt12rcd13ifvqcd0","pricing_plan_id":"cebpf4jnsgd1na2vs0mg"},{"bike_id":"e86f8a67-10d7-4577-a1aa-8771047b9f3e","system_id":"levelo_inurba_marseille","lat":43.305368,"lon":5.367343,"is_reserved":false,"is_disabled":false,"rental_uris":{"android":"levelo://app?vid=e86f8a67-10d7-4577-a1aa-8771047b9f3e","ios":"levelo://app?vid=e86f8a67-10d7-4577-a1aa-8771047b9f3e"},"vehicle_type_id":"4","last_reported":1714911150,"current_range_meters":31200,"station_id":"ce4bgrp2rcd13ifvqc9g","pricing_plan_id":"cebpf4jnsgd1na2vs0mg"},{"bike_id":"e97774c1-d5e6-4099-bacc-1491f74652f9","system_id":"levelo_inurba_marseille","lat":43.305368,"lon":5.367343,"is_reserved":false,"is_disabled":false,"rental_uris":{"android":"levelo://app?vid=e97774c1-d5e6-4099-bacc-1491f74652f9","ios":"levelo://app?vid=e97774c1-d5e6-4099-bacc-1491f74652f9"},"vehicle_type_id":"4","last_reported":1714911150,"current_range_meters":12000,"station_id":"ce4bgrp2rcd13ifvqc9g","pricing_plan_id":"cebpf4jnsgd1na2vs0mg"},{"bike_id":"b90c7663-c289-4074-b703-15dcd1a2ebcc","system_id":"levelo_inurba_marseille","lat":43.30537,"lon":5.367345,"is_reserved":false,"is_disabled":false,"rental_uris":{"android":"levelo://app?vid=b90c7663-c289-4074-b703-15dcd1a2ebcc","ios":"levelo://app?vid=b90c7663-c289-4074-b703-15dcd1a2ebcc"},"vehicle_type_id":"4","last_reported":1714911150,"current_range_meters":12000,"station_id":"ce4bgrp2rcd13ifvqc9g","pricing_plan_id":"cebpf4jnsgd1na2vs0mg"},{"bike_id":"52833f75-fa9c-4a89-b5e6-8128491506b1","system_id":"levelo_inurba_marseille","lat":43.305714,"lon":5.365633,"is_reserved":false,"is_disabled":false,"rental_uris":{"android":"levelo://app?vid=52833f75-fa9c-4a89-b5e6-8128491506b1","ios":"levelo://app?vid=52833f75-fa9c-4a89-b5e6-8128491506b1"},"vehicle_type_id":"4","last_reported":1714911150,"current_range_meters":0,"station_id":"ce4bgs12rcd13ifvqcag","pricing_plan_id":"cebpf4jnsgd1na2vs0mg"},{"bike_id":"5f3793f7-403b-4630-85ef-6c490f59cf19","system_id":"levelo_inurba_marseille","lat":43.30548,"lon":5.3654,"is_reserved":false,"is_disabled":false,"rental_uris":{"android":"levelo://app?vid=5f3793f7-403b-4630-85ef-6c490f59cf19","ios":"levelo://app?vid=5f3793f7-403b-4630-85ef-6c490f59cf19"},"vehicle_type_id":"4","last_reported":1714911150,"current_range_meters":6800,"station_id":"ce4bgs12rcd13ifvqcag","pricing_plan_id":"cebpf4jnsgd1na2vs0mg"},{"bike_id":"c58ed7bc-5e2e-46bd-b63b-c60a8d89998e","system_id":"levelo_inurba_marseille","lat":43.305368,"lon":5.367343,"is_reserved":false,"is_disabled":false,"rental_uris":{"android":"levelo://app?vid=c58ed7bc-5e2e-46bd-b63b-c60a8d89998e","ios":"levelo://app?vid=c58ed7bc-5e2e-46bd-b63b-c60a8d89998e"},"vehicle_type_id":"4","last_reported":1714911150,"current_range_meters":15600,"station_id":"ce4bgrp2rcd13ifvqc9g","pricing_plan_id":"cebpf4jnsgd1na2vs0mg"},{"bike_id":"09c4cf65-7125-4960-97ec-18a863d7cf7e","system_id":"levelo_inurba_marseille","lat":43.305706,"lon":5.365654,"is_reserved":false,"is_disabled":false,"rental_uris":{"android":"levelo://app?vid=09c4cf65-7125-4960-97ec-18a863d7cf7e","ios":"levelo://app?vid=09c4cf65-7125-4960-97ec-18a863d7cf7e"},"vehicle_type_id":"4","last_reported":1714911150,"current_range_meters":25200,"station_id":"ce4bgs12rcd13ifvqcag","pricing_plan_id":"cebpf4jnsgd1na2vs0mg"},{"bike_id":"098ca026-98f8-4ec7-973e-5c9f2d0abd15","system_id":"levelo_inurba_marseille","lat":43.32006,"lon":5.36547,"is_reserved":false,"is_disabled":false,"rental_uris":{"android":"levelo://app?vid=098ca026-98f8-4ec7-973e-5c9f2d0abd15","ios":"levelo://app?vid=098ca026-98f8-4ec7-973e-5c9f2d0abd15"},"vehicle_type_id":"4","last_reported":1714911150,"current_range_meters":16400,"station_id":"","pricing_plan_id":"cebpf4jnsgd1na2vs0mg"},{"bike_id":"f0120ac3-6800-413a-b299-f522215ac34f","system_id":"levelo_inurba_marseille","lat":43.305714,"lon":5.365633,"is_reserved":false,"is_disabled":false,"rental_uris":{"android":"levelo://app?vid=f0120ac3-6800-413a-b299-f522215ac34f","ios":"levelo://app?vid=f0120ac3-6800-413a-b299-f522215ac34f"},"vehicle_type_id":"4","last_reported":1714911150,"current_range_meters":31600,"station_id":"ce4bgs12rcd13ifvqcag","pricing_plan_id":"cebpf4jnsgd1na2vs0mg"},{"bike_id":"08f21a81-1041-4fa1-826a-6de46e131346","system_id":"levelo_inurba_marseille","lat":43.305989,"lon":5.37225,"is_reserved":false,"is_disabled":false,"rental_uris":{"android":"levelo://app?vid=08f21a81-1041-4fa1-826a-6de46e131346","ios":"levelo://app?vid=08f21a81-1041-4fa1-826a-6de46e131346"},"vehicle_type_id":"4","last_reported":1714911150,"current_range_meters":25200,"station_id":"ce4bgqh2rcd13ifvqc4g","pricing_plan_id":"cebpf4jnsgd1na2vs0mg"},{"bike_id":"cc734e21-2242-482f-a4fa-3b4522abc6e4","system_id":"levelo_inurba_marseille","lat":43.311131,"lon":5.377651,"is_reserved":false,"is_disabled":false,"rental_uris":{"android":"levelo://app?vid=cc734e21-2242-482f-a4fa-3b4522abc6e4","ios":"levelo://app?vid=cc734e21-2242-482f-a4fa-3b4522abc6e4"},"vehicle_type_id":"4","last_reported":1714911150,"current_range_meters":26800,"station_id":"ce4bgt92rcd13ifvqcg0","pricing_plan_id":"cebpf4jnsgd1na2vs0mg"},{"bike_id":"e636b2b3-e47d-4f68-acfc-c4c92139bfee","system_id":"levelo_inurba_marseille","lat":43.305712,"lon":5.365641,"is_reserved":false,"is_disabled":false,"rental_uris":{"android":"levelo://app?vid=e636b2b3-e47d-4f68-acfc-c4c92139bfee","ios":"levelo://app?vid=e636b2b3-e47d-4f68-acfc-c4c92139bfee"},"vehicle_type_id":"4","last_reported":1714911150,"current_range_meters":0,"station_id":"ce4bgs12rcd13ifvqcag","pricing_plan_id":"cebpf4jnsgd1na2vs0mg"},{"bike_id":"4fbecc65-290a-4595-93cc-de1f62927f61","system_id":"levelo_inurba_marseille","lat":43.307945,"lon":5.376487,"is_reserved":false,"is_disabled":false,"rental_uris":{"android":"levelo://app?vid=4fbecc65-290a-4595-93cc-de1f62927f61","ios":"levelo://app?vid=4fbecc65-290a-4595-93cc-de1f62927f61"},"vehicle_type_id":"4","last_reported":1714911150,"current_range_meters":1600,"station_id":"ce4bgv92rcd13ifvqcq0","pricing_plan_id":"cebpf4jnsgd1na2vs0mg"},{"bike_id":"a5bbab5b-6278-4635-9666-2d18657fe469","system_id":"levelo_inurba_marseille","lat":43.307945,"lon":5.376487,"is_reserved":false,"is_disabled":false,"rental_uris":{"android":"levelo://app?vid=a5bbab5b-6278-4635-9666-2d18657fe469","ios":"levelo://app?vid=a5bbab5b-6278-4635-9666-2d18657fe469"},"vehicle_type_id":"4","last_reported":1714911150,"current_range_meters":26000,"station_id":"ce4bgv92rcd13ifvqcq0","pricing_plan_id":"cebpf4jnsgd1na2vs0mg"},{"bike_id":"0a77ca22-02dc-4955-aa84-16c121e1039b","system_id":"levelo_inurba_marseille","lat":43.30787,"lon":5.37661,"is_reserved":false,"is_disabled":false,"rental_uris":{"android":"levelo://app?vid=0a77ca22-02dc-4955-aa84-16c121e1039b","ios":"levelo://app?vid=0a77ca22-02dc-4955-aa84-16c121e1039b"},"vehicle_type_id":"4","last_reported":1714911150,"current_range_meters":0,"station_id":"ce4bgv92rcd13ifvqcq0","pricing_plan_id":"cebpf4jnsgd1na2vs0mg"},{"bike_id":"e91f9266-7627-453f-9d48-6adf6493256b","system_id":"levelo_inurba_marseille","lat":43.317075,"lon":5.377367,"is_reserved":false,"is_disabled":false,"rental_uris":{"android":"levelo://app?vid=e91f9266-7627-453f-9d48-6adf6493256b","ios":"levelo://app?vid=e91f9266-7627-453f-9d48-6adf6493256b"},"vehicle_type_id":"4","last_reported":1714911150,"current_range_meters":11200,"station_id":"ce4bgth2rcd13ifvqch0","pricing_plan_id":"cebpf4jnsgd1na2vs0mg"},{"bike_id":"6f32f720-8952-4191-8f95-2b3f5de41e17","system_id":"levelo_inurba_marseille","lat":43.317075,"lon":5.377367,"is_reserved":false,"is_disabled":false,"rental_uris":{"android":"levelo://app?vid=6f32f720-8952-4191-8f95-2b3f5de41e17","ios":"levelo://app?vid=6f32f720-8952-4191-8f95-2b3f5de41e17"},"vehicle_type_id":"4","last_reported":1714911150,"current_range_meters":31600,"station_id":"ce4bgth2rcd13ifvqch0","pricing_plan_id":"cebpf4jnsgd1na2vs0mg"},{"bike_id":"2c7a1916-afec-4f5b-8339-b889a3477dcc","system_id":"levelo_inurba_marseille","lat":43.31712,"lon":5.37755,"is_reserved":false,"is_disabled":false,"rental_uris":{"android":"levelo://app?vid=2c7a1916-afec-4f5b-8339-b889a3477dcc","ios":"levelo://app?vid=2c7a1916-afec-4f5b-8339-b889a3477dcc"},"vehicle_type_id":"4","last_reported":1714911150,"current_range_meters":0,"station_id":"ce4bgth2rcd13ifvqch0","pricing_plan_id":"cebpf4jnsgd1na2vs0mg"},{"bike_id":"99e868c0-7b59-439b-b0f5-d685b850c670","system_id":"levelo_inurba_marseille","lat":43.30489,"lon":5.37371,"is_reserved":false,"is_disabled":false,"rental_uris":{"android":"levelo://app?vid=99e868c0-7b59-439b-b0f5-d685b850c670","ios":"levelo://app?vid=99e868c0-7b59-439b-b0f5-d685b850c670"},"vehicle_type_id":"4","last_reported":1714911150,"current_range_meters":26000,"station_id":"","pricing_plan_id":"cebpf4jnsgd1na2vs0mg"},{"bike_id":"4ab5672d-b6a8-4cf0-8451-386f2f7f2b6a","system_id":"levelo_inurba_marseille","lat":43.312498,"lon":5.37975,"is_reserved":false,"is_disabled":false,"rental_uris":{"android":"levelo://app?vid=4ab5672d-b6a8-4cf0-8451-386f2f7f2b6a","ios":"levelo://app?vid=4ab5672d-b6a8-4cf0-8451-386f2f7f2b6a"},"vehicle_type_id":"4","last_reported":1714911150,"current_range_meters":4000,"station_id":"","pricing_plan_id":"cebpf4jnsgd1na2vs0mg"},{"bike_id":"1e999e1d-d869-422e-8f78-6edb5e60f5cd","system_id":"levelo_inurba_marseille","lat":43.30304,"lon":5.368987,"is_reserved":false,"is_disabled":false,"rental_uris":{"android":"levelo://app?vid=1e999e1d-d869-422e-8f78-6edb5e60f5cd","ios":"levelo://app?vid=1e999e1d-d869-422e-8f78-6edb5e60f5cd"},"vehicle_type_id":"4","last_reported":1714911150,"current_range_meters":22400,"station_id":"ce4bgqh2rcd13ifvqc5g","pricing_plan_id":"cebpf4jnsgd1na2vs0mg"},{"bike_id":"6309d3a6-d6d3-4d63-a2a0-1d82ec902231","system_id":"levelo_inurba_marseille","lat":43.315289,"lon":5.380349,"is_reserved":false,"is_disabled":false,"rental_uris":{"android":"levelo://app?vid=6309d3a6-d6d3-4d63-a2a0-1d82ec902231","ios":"levelo://app?vid=6309d3a6-d6d3-4d63-a2a0-1d82ec902231"},"vehicle_type_id":"4","last_reported":1714911150,"current_range_meters":2000,"station_id":"ce4bhsp2rcd13ifvqi50","pricing_plan_id":"cebpf4jnsgd1na2vs0mg"},{"bike_id":"36f1a0f7-db0e-418d-a42f-fe24b432bca6","system_id":"levelo_inurba_marseille","lat":43.315293,"lon":5.380349,"is_reserved":false,"is_disabled":false,"rental_uris":{"android":"levelo://app?vid=36f1a0f7-db0e-418d-a42f-fe24b432bca6","ios":"levelo://app?vid=36f1a0f7-db0e-418d-a42f-fe24b432bca6"},"vehicle_type_id":"4","last_reported":1714911150,"current_range_meters":12800,"station_id":"ce4bhsp2rcd13ifvqi50","pricing_plan_id":"cebpf4jnsgd1na2vs0mg"},{"bike_id":"7ba1853f-f6f2-4c4f-8e82-ee00e9b62840","system_id":"levelo_inurba_marseille","lat":43.301939,"lon":5.366286,"is_reserved":false,"is_disabled":false,"rental_uris":{"android":"levelo://app?vid=7ba1853f-f6f2-4c4f-8e82-ee00e9b62840","ios":"levelo://app?vid=7ba1853f-f6f2-4c4f-8e82-ee00e9b62840"},"vehicle_type_id":"4","last_reported":1714911150,"current_range_meters":10400,"station_id":"ce4bgrh2rcd13ifvqc8g","pricing_plan_id":"cebpf4jnsgd1na2vs0mg"},{"bike_id":"2acf405e-24e0-4088-a209-46377716e7df","system_id":"levelo_inurba_marseille","lat":43.301939,"lon":5.366286,"is_reserved":false,"is_disabled":false,"rental_uris":{"android":"levelo://app?vid=2acf405e-24e0-4088-a209-46377716e7df","ios":"levelo://app?vid=2acf405e-24e0-4088-a209-46377716e7df"},"vehicle_type_id":"4","last_reported":1714911150,"current_range_meters":28800,"station_id":"ce4bgrh2rcd13ifvqc8g","pricing_plan_id":"cebpf4jnsgd1na2vs0mg"},{"bike_id":"4823e2c6-3b63-4fed-aa31-9bf68de0e541","system_id":"levelo_inurba_marseille","lat":43.308012,"lon":5.381511,"is_reserved":false,"is_disabled":false,"rental_uris":{"android":"levelo://app?vid=4823e2c6-3b63-4fed-aa31-9bf68de0e541","ios":"levelo://app?vid=4823e2c6-3b63-4fed-aa31-9bf68de0e541"},"vehicle_type_id":"4","last_reported":1714911150,"current_range_meters":30000,"station_id":"ce4bgt12rcd13ifvqce0","pricing_plan_id":"cebpf4jnsgd1na2vs0mg"},{"bike_id":"36e65a32-aad8-4bf7-b005-2405f4fdccbb","system_id":"levelo_inurba_marseille","lat":43.308012,"lon":5.381511,"is_reserved":false,"is_disabled":false,"rental_uris":{"android":"levelo://app?vid=36e65a32-aad8-4bf7-b005-2405f4fdccbb","ios":"levelo://app?vid=36e65a32-aad8-4bf7-b005-2405f4fdccbb"},"vehicle_type_id":"4","last_reported":1714911150,"current_range_meters":15600,"station_id":"ce4bgt12rcd13ifvqce0","pricing_plan_id":"cebpf4jnsgd1na2vs0mg"},{"bike_id":"f3100dfc-8159-4580-b81f-5b06f0175277","system_id":"levelo_inurba_marseille","lat":43.308012,"lon":5.381511,"is_reserved":false,"is_disabled":false,"rental_uris":{"android":"levelo://app?vid=f3100dfc-8159-4580-b81f-5b06f0175277","ios":"levelo://app?vid=f3100dfc-8159-4580-b81f-5b06f0175277"},"vehicle_type_id":"4","last_reported":1714911150,"current_range_meters":8800,"station_id":"ce4bgt12rcd13ifvqce0","pricing_plan_id":"cebpf4jnsgd1na2vs0mg"},{"bike_id":"1b198503-083c-4461-b12b-df181e20b125","system_id":"levelo_inurba_marseille","lat":43.304606,"lon":5.379026,"is_reserved":false,"is_disabled":false,"rental_uris":{"android":"levelo://app?vid=1b198503-083c-4461-b12b-df181e20b125","ios":"levelo://app?vid=1b198503-083c-4461-b12b-df181e20b125"},"vehicle_type_id":"4","last_reported":1714911150,"current_range_meters":6800,"station_id":"ce4bgup2rcd13ifvqcn0","pricing_plan_id":"cebpf4jnsgd1na2vs0mg"},{"bike_id":"6b2a0dc3-1a26-435d-85c1-96ea8ed73a83","system_id":"levelo_inurba_marseille","lat":43.304606,"lon":5.379026,"is_reserved":false,"is_disabled":false,"rental_uris":{"android":"levelo://app?vid=6b2a0dc3-1a26-435d-85c1-96ea8ed73a83","ios":"levelo://app?vid=6b2a0dc3-1a26-435d-85c1-96ea8ed73a83"},"vehicle_type_id":"4","last_reported":1714911150,"current_range_meters":6800,"station_id":"ce4bgup2rcd13ifvqcn0","pricing_plan_id":"cebpf4jnsgd1na2vs0mg"},{"bike_id":"1c3dca0f-b871-48f5-b07f-eeca77227f4a","system_id":"levelo_inurba_marseille","lat":43.304606,"lon":5.379026,"is_reserved":false,"is_disabled":false,"rental_uris":{"android":"levelo://app?vid=1c3dca0f-b871-48f5-b07f-eeca77227f4a","ios":"levelo://app?vid=1c3dca0f-b871-48f5-b07f-eeca77227f4a"},"vehicle_type_id":"4","last_reported":1714911150,"current_range_meters":7200,"station_id":"ce4bgup2rcd13ifvqcn0","pricing_plan_id":"cebpf4jnsgd1na2vs0mg"},{"bike_id":"59f3de79-cd96-41db-88fb-30d09629dd88","system_id":"levelo_inurba_marseille","lat":43.304606,"lon":5.379026,"is_reserved":false,"is_disabled":false,"rental_uris":{"android":"levelo://app?vid=59f3de79-cd96-41db-88fb-30d09629dd88","ios":"levelo://app?vid=59f3de79-cd96-41db-88fb-30d09629dd88"},"vehicle_type_id":"4","last_reported":1714911150,"current_range_meters":20800,"station_id":"ce4bgup2rcd13ifvqcn0","pricing_plan_id":"cebpf4jnsgd1na2vs0mg"},{"bike_id":"93b90c23-2ad0-4562-a828-3757c36e5ede","system_id":"levelo_inurba_marseille","lat":43.304606,"lon":5.379026,"is_reserved":false,"is_disabled":false,"rental_uris":{"android":"levelo://app?vid=93b90c23-2ad0-4562-a828-3757c36e5ede","ios":"levelo://app?vid=93b90c23-2ad0-4562-a828-3757c36e5ede"},"vehicle_type_id":"4","last_reported":1714911150,"current_range_meters":24400,"station_id":"ce4bgup2rcd13ifvqcn0","pricing_plan_id":"cebpf4jnsgd1na2vs0mg"},{"bike_id":"8909905b-9e5a-4374-b2f5-fb360420b558","system_id":"levelo_inurba_marseille","lat":43.324771,"lon":5.36557,"is_reserved":false,"is_disabled":false,"rental_uris":{"android":"levelo://app?vid=8909905b-9e5a-4374-b2f5-fb360420b558","ios":"levelo://app?vid=8909905b-9e5a-4374-b2f5-fb360420b558"},"vehicle_type_id":"4","last_reported":1714911150,"current_range_meters":10400,"station_id":"ce4bhs12rcd13ifvqhvg","pricing_plan_id":"cebpf4jnsgd1na2vs0mg"},{"bike_id":"4169d657-2087-43e8-a0f2-c64f813b9ef4","system_id":"levelo_inurba_marseille","lat":43.324771,"lon":5.36557,"is_reserved":false,"is_disabled":false,"rental_uris":{"android":"levelo://app?vid=4169d657-2087-43e8-a0f2-c64f813b9ef4","ios":"levelo://app?vid=4169d657-2087-43e8-a0f2-c64f813b9ef4"},"vehicle_type_id":"4","last_reported":1714911150,"current_range_meters":28400,"station_id":"ce4bhs12rcd13ifvqhvg","pricing_plan_id":"cebpf4jnsgd1na2vs0mg"},{"bike_id":"8a8b0ccb-ec4d-4b68-b8e2-9254ae8e32f3","system_id":"levelo_inurba_marseille","lat":43.32484,"lon":5.36572,"is_reserved":false,"is_disabled":false,"rental_uris":{"android":"levelo://app?vid=8a8b0ccb-ec4d-4b68-b8e2-9254ae8e32f3","ios":"levelo://app?vid=8a8b0ccb-ec4d-4b68-b8e2-9254ae8e32f3"},"vehicle_type_id":"4","last_reported":1714911150,"current_range_meters":0,"station_id":"ce4bhs12rcd13ifvqhvg","pricing_plan_id":"cebpf4jnsgd1na2vs0mg"},{"bike_id":"ad5a7e99-eee5-4951-a12a-1422d09a38b4","system_id":"levelo_inurba_marseille","lat":43.302784,"lon":5.377158,"is_reserved":false,"is_disabled":false,"rental_uris":{"android":"levelo://app?vid=ad5a7e99-eee5-4951-a12a-1422d09a38b4","ios":"levelo://app?vid=ad5a7e99-eee5-4951-a12a-1422d09a38b4"},"vehicle_type_id":"4","last_reported":1714911150,"current_range_meters":20800,"station_id":"ce4bguh2rcd13ifvqcj0","pricing_plan_id":"cebpf4jnsgd1na2vs0mg"},{"bike_id":"8a246bd7-3aa6-438a-99bb-811c92062b72","system_id":"levelo_inurba_marseille","lat":43.30143,"lon":5.37413,"is_reserved":false,"is_disabled":false,"rental_uris":{"android":"levelo://app?vid=8a246bd7-3aa6-438a-99bb-811c92062b72","ios":"levelo://app?vid=8a246bd7-3aa6-438a-99bb-811c92062b72"},"vehicle_type_id":"4","last_reported":1714911150,"current_range_meters":24800,"station_id":"ce4bgs92rcd13ifvqcc0","pricing_plan_id":"cebpf4jnsgd1na2vs0mg"},{"bike_id":"1e5be0c8-41fe-4359-95be-1190ee00c1ba","system_id":"levelo_inurba_marseille","lat":43.302784,"lon":5.377158,"is_reserved":false,"is_disabled":false,"rental_uris":{"android":"levelo://app?vid=1e5be0c8-41fe-4359-95be-1190ee00c1ba","ios":"levelo://app?vid=1e5be0c8-41fe-4359-95be-1190ee00c1ba"},"vehicle_type_id":"4","last_reported":1714911150,"current_range_meters":0,"station_id":"ce4bguh2rcd13ifvqcj0","pricing_plan_id":"cebpf4jnsgd1na2vs0mg"},{"bike_id":"3624f451-cbdc-485a-b727-179631087998","system_id":"levelo_inurba_marseille","lat":43.313571,"lon":5.384829,"is_reserved":false,"is_disabled":false,"rental_uris":{"android":"levelo://app?vid=3624f451-cbdc-485a-b727-179631087998","ios":"levelo://app?vid=3624f451-cbdc-485a-b727-179631087998"},"vehicle_type_id":"4","last_reported":1714911150,"current_range_meters":29600,"station_id":"ce4bgt92rcd13ifvqcf0","pricing_plan_id":"cebpf4jnsgd1na2vs0mg"},{"bike_id":"edf75cdb-0e75-441c-ba1d-8e0820fc4fd2","system_id":"levelo_inurba_marseille","lat":43.313571,"lon":5.384829,"is_reserved":false,"is_disabled":false,"rental_uris":{"android":"levelo://app?vid=edf75cdb-0e75-441c-ba1d-8e0820fc4fd2","ios":"levelo://app?vid=edf75cdb-0e75-441c-ba1d-8e0820fc4fd2"},"vehicle_type_id":"4","last_reported":1714911150,"current_range_meters":26000,"station_id":"ce4bgt92rcd13ifvqcf0","pricing_plan_id":"cebpf4jnsgd1na2vs0mg"},{"bike_id":"8a3ad619-195a-4d59-b03b-48ecefa7a3a8","system_id":"levelo_inurba_marseille","lat":43.313571,"lon":5.384829,"is_reserved":false,"is_disabled":false,"rental_uris":{"android":"levelo://app?vid=8a3ad619-195a-4d59-b03b-48ecefa7a3a8","ios":"levelo://app?vid=8a3ad619-195a-4d59-b03b-48ecefa7a3a8"},"vehicle_type_id":"4","last_reported":1714911150,"current_range_meters":5600,"station_id":"ce4bgt92rcd13ifvqcf0","pricing_plan_id":"cebpf4jnsgd1na2vs0mg"},{"bike_id":"58874808-ca3d-4aab-8865-eb9014e53fb4","system_id":"levelo_inurba_marseille","lat":43.299222,"lon":5.365554,"is_reserved":false,"is_disabled":false,"rental_uris":{"android":"levelo://app?vid=58874808-ca3d-4aab-8865-eb9014e53fb4","ios":"levelo://app?vid=58874808-ca3d-4aab-8865-eb9014e53fb4"},"vehicle_type_id":"4","last_reported":1714911150,"current_range_meters":20800,"station_id":"ce4bgm92rcd13ifvqbr0","pricing_plan_id":"cebpf4jnsgd1na2vs0mg"},{"bike_id":"78982f67-2e5f-4225-87be-30da742a6fa4","system_id":"levelo_inurba_marseille","lat":43.299222,"lon":5.365554,"is_reserved":false,"is_disabled":false,"rental_uris":{"android":"levelo://app?vid=78982f67-2e5f-4225-87be-30da742a6fa4","ios":"levelo://app?vid=78982f67-2e5f-4225-87be-30da742a6fa4"},"vehicle_type_id":"4","last_reported":1714911150,"current_range_meters":18800,"station_id":"ce4bgm92rcd13ifvqbr0","pricing_plan_id":"cebpf4jnsgd1na2vs0mg"},{"bike_id":"dcb64fa3-3d2a-42e3-8efe-74e17d032d2c","system_id":"levelo_inurba_marseille","lat":43.299222,"lon":5.365554,"is_reserved":false,"is_disabled":false,"rental_uris":{"android":"levelo://app?vid=dcb64fa3-3d2a-42e3-8efe-74e17d032d2c","ios":"levelo://app?vid=dcb64fa3-3d2a-42e3-8efe-74e17d032d2c"},"vehicle_type_id":"4","last_reported":1714911150,"current_range_meters":15600,"station_id":"ce4bgm92rcd13ifvqbr0","pricing_plan_id":"cebpf4jnsgd1na2vs0mg"},{"bike_id":"6843c2c2-6999-4fe8-b140-37c07a7b7a65","system_id":"levelo_inurba_marseille","lat":43.29854,"lon":5.362843,"is_reserved":false,"is_disabled":false,"rental_uris":{"android":"levelo://app?vid=6843c2c2-6999-4fe8-b140-37c07a7b7a65","ios":"levelo://app?vid=6843c2c2-6999-4fe8-b140-37c07a7b7a65"},"vehicle_type_id":"4","last_reported":1714911150,"current_range_meters":12800,"station_id":"ce4bgpp2rcd13ifvqc3g","pricing_plan_id":"cebpf4jnsgd1na2vs0mg"},{"bike_id":"adbde1a5-550e-44b3-baa4-e55b9e2c7246","system_id":"levelo_inurba_marseille","lat":43.2985,"lon":5.36281,"is_reserved":false,"is_disabled":false,"rental_uris":{"android":"levelo://app?vid=adbde1a5-550e-44b3-baa4-e55b9e2c7246","ios":"levelo://app?vid=adbde1a5-550e-44b3-baa4-e55b9e2c7246"},"vehicle_type_id":"4","last_reported":1714911150,"current_range_meters":8400,"station_id":"ce4bgpp2rcd13ifvqc3g","pricing_plan_id":"cebpf4jnsgd1na2vs0mg"},{"bike_id":"f44d1534-5782-491c-b622-ea2f17575bcf","system_id":"levelo_inurba_marseille","lat":43.29849,"lon":5.36285,"is_reserved":false,"is_disabled":false,"rental_uris":{"android":"levelo://app?vid=f44d1534-5782-491c-b622-ea2f17575bcf","ios":"levelo://app?vid=f44d1534-5782-491c-b622-ea2f17575bcf"},"vehicle_type_id":"4","last_reported":1714911150,"current_range_meters":28400,"station_id":"ce4bgpp2rcd13ifvqc3g","pricing_plan_id":"cebpf4jnsgd1na2vs0mg"},{"bike_id":"38f6113e-788b-49ba-93f9-a89f57a90668","system_id":"levelo_inurba_marseille","lat":43.29849,"lon":5.36285,"is_reserved":false,"is_disabled":false,"rental_uris":{"android":"levelo://app?vid=38f6113e-788b-49ba-93f9-a89f57a90668","ios":"levelo://app?vid=38f6113e-788b-49ba-93f9-a89f57a90668"},"vehicle_type_id":"4","last_reported":1714911150,"current_range_meters":8000,"station_id":"ce4bgpp2rcd13ifvqc3g","pricing_plan_id":"cebpf4jnsgd1na2vs0mg"},{"bike_id":"ff769fa2-8a06-4a33-8262-f8f3ebef77c5","system_id":"levelo_inurba_marseille","lat":43.29845,"lon":5.36286,"is_reserved":false,"is_disabled":false,"rental_uris":{"android":"levelo://app?vid=ff769fa2-8a06-4a33-8262-f8f3ebef77c5","ios":"levelo://app?vid=ff769fa2-8a06-4a33-8262-f8f3ebef77c5"},"vehicle_type_id":"4","last_reported":1714911150,"current_range_meters":31200,"station_id":"ce4bgpp2rcd13ifvqc3g","pricing_plan_id":"cebpf4jnsgd1na2vs0mg"},{"bike_id":"511939a0-b888-4328-b638-2b9ae473654e","system_id":"levelo_inurba_marseille","lat":43.29845,"lon":5.36275,"is_reserved":false,"is_disabled":false,"rental_uris":{"android":"levelo://app?vid=511939a0-b888-4328-b638-2b9ae473654e","ios":"levelo://app?vid=511939a0-b888-4328-b638-2b9ae473654e"},"vehicle_type_id":"4","last_reported":1714911150,"current_range_meters":31200,"station_id":"ce4bgpp2rcd13ifvqc3g","pricing_plan_id":"cebpf4jnsgd1na2vs0mg"},{"bike_id":"f7bce734-f1ec-4d5d-948f-4c902e0b4cc7","system_id":"levelo_inurba_marseille","lat":43.29842,"lon":5.36278,"is_reserved":false,"is_disabled":false,"rental_uris":{"android":"levelo://app?vid=f7bce734-f1ec-4d5d-948f-4c902e0b4cc7","ios":"levelo://app?vid=f7bce734-f1ec-4d5d-948f-4c902e0b4cc7"},"vehicle_type_id":"4","last_reported":1714911150,"current_range_meters":25600,"station_id":"ce4bgpp2rcd13ifvqc3g","pricing_plan_id":"cebpf4jnsgd1na2vs0mg"},{"bike_id":"4eb80c13-68eb-4a89-aa81-765334a56231","system_id":"levelo_inurba_marseille","lat":43.29842,"lon":5.36271,"is_reserved":false,"is_disabled":false,"rental_uris":{"android":"levelo://app?vid=4eb80c13-68eb-4a89-aa81-765334a56231","ios":"levelo://app?vid=4eb80c13-68eb-4a89-aa81-765334a56231"},"vehicle_type_id":"4","last_reported":1714911150,"current_range_meters":20400,"station_id":"ce4bgpp2rcd13ifvqc3g","pricing_plan_id":"cebpf4jnsgd1na2vs0mg"},{"bike_id":"394ddc92-b27c-4439-8b5a-bd2bc38d39d3","system_id":"levelo_inurba_marseille","lat":43.298433,"lon":5.362774,"is_reserved":false,"is_disabled":false,"rental_uris":{"android":"levelo://app?vid=394ddc92-b27c-4439-8b5a-bd2bc38d39d3","ios":"levelo://app?vid=394ddc92-b27c-4439-8b5a-bd2bc38d39d3"},"vehicle_type_id":"4","last_reported":1714911150,"current_range_meters":1200,"station_id":"ce4bgpp2rcd13ifvqc3g","pricing_plan_id":"cebpf4jnsgd1na2vs0mg"},{"bike_id":"f4b81c11-0175-4821-9903-42f6019fccd3","system_id":"levelo_inurba_marseille","lat":43.298433,"lon":5.362774,"is_reserved":false,"is_disabled":false,"rental_uris":{"android":"levelo://app?vid=f4b81c11-0175-4821-9903-42f6019fccd3","ios":"levelo://app?vid=f4b81c11-0175-4821-9903-42f6019fccd3"},"vehicle_type_id":"4","last_reported":1714911150,"current_range_meters":27200,"station_id":"ce4bgpp2rcd13ifvqc3g","pricing_plan_id":"cebpf4jnsgd1na2vs0mg"},{"bike_id":"c5416255-807e-42e7-b40b-c9988d103b9b","system_id":"levelo_inurba_marseille","lat":43.299243,"lon":5.374807,"is_reserved":false,"is_disabled":false,"rental_uris":{"android":"levelo://app?vid=c5416255-807e-42e7-b40b-c9988d103b9b","ios":"levelo://app?vid=c5416255-807e-42e7-b40b-c9988d103b9b"},"vehicle_type_id":"4","last_reported":1714911150,"current_range_meters":0,"station_id":"ce4bgjh2rcd13ifvqbg0","pricing_plan_id":"cebpf4jnsgd1na2vs0mg"},{"bike_id":"baee97b1-9140-48ed-a5fc-1a94f25dc8c1","system_id":"levelo_inurba_marseille","lat":43.311722,"lon":5.387247,"is_reserved":false,"is_disabled":false,"rental_uris":{"android":"levelo://app?vid=baee97b1-9140-48ed-a5fc-1a94f25dc8c1","ios":"levelo://app?vid=baee97b1-9140-48ed-a5fc-1a94f25dc8c1"},"vehicle_type_id":"4","last_reported":1714911150,"current_range_meters":5600,"station_id":"ce4bgv12rcd13ifvqcp0","pricing_plan_id":"cebpf4jnsgd1na2vs0mg"},{"bike_id":"2d18849e-032d-4d81-b5a4-9ad147339139","system_id":"levelo_inurba_marseille","lat":43.29824,"lon":5.36244,"is_reserved":false,"is_disabled":false,"rental_uris":{"android":"levelo://app?vid=2d18849e-032d-4d81-b5a4-9ad147339139","ios":"levelo://app?vid=2d18849e-032d-4d81-b5a4-9ad147339139"},"vehicle_type_id":"4","last_reported":1714911150,"current_range_meters":13600,"station_id":"ce4bgpp2rcd13ifvqc3g","pricing_plan_id":"cebpf4jnsgd1na2vs0mg"},{"bike_id":"a5d151a4-4e28-4433-a27b-544ded128b2a","system_id":"levelo_inurba_marseille","lat":43.31511,"lon":5.38948,"is_reserved":false,"is_disabled":false,"rental_uris":{"android":"levelo://app?vid=a5d151a4-4e28-4433-a27b-544ded128b2a","ios":"levelo://app?vid=a5d151a4-4e28-4433-a27b-544ded128b2a"},"vehicle_type_id":"4","last_reported":1714911150,"current_range_meters":7200,"station_id":"","pricing_plan_id":"cebpf4jnsgd1na2vs0mg"},{"bike_id":"026dcdd3-fbd2-4553-ada0-8e6c37d44753","system_id":"levelo_inurba_marseille","lat":43.29573,"lon":5.367355,"is_reserved":false,"is_disabled":false,"rental_uris":{"android":"levelo://app?vid=026dcdd3-fbd2-4553-ada0-8e6c37d44753","ios":"levelo://app?vid=026dcdd3-fbd2-4553-ada0-8e6c37d44753"},"vehicle_type_id":"4","last_reported":1714911150,"current_range_meters":27600,"station_id":"ce4bgph2rcd13ifvqc2g","pricing_plan_id":"cebpf4jnsgd1na2vs0mg"},{"bike_id":"40520c53-2e7d-4557-8c3a-2274bf8edcac","system_id":"levelo_inurba_marseille","lat":43.29573,"lon":5.367355,"is_reserved":false,"is_disabled":false,"rental_uris":{"android":"levelo://app?vid=40520c53-2e7d-4557-8c3a-2274bf8edcac","ios":"levelo://app?vid=40520c53-2e7d-4557-8c3a-2274bf8edcac"},"vehicle_type_id":"4","last_reported":1714911150,"current_range_meters":24800,"station_id":"ce4bgph2rcd13ifvqc2g","pricing_plan_id":"cebpf4jnsgd1na2vs0mg"},{"bike_id":"ba399405-9a98-418d-9ad4-c18e87d07b1d","system_id":"levelo_inurba_marseille","lat":43.29573,"lon":5.367355,"is_reserved":false,"is_disabled":false,"rental_uris":{"android":"levelo://app?vid=ba399405-9a98-418d-9ad4-c18e87d07b1d","ios":"levelo://app?vid=ba399405-9a98-418d-9ad4-c18e87d07b1d"},"vehicle_type_id":"4","last_reported":1714911150,"current_range_meters":28000,"station_id":"ce4bgph2rcd13ifvqc2g","pricing_plan_id":"cebpf4jnsgd1na2vs0mg"},{"bike_id":"67e12af6-f233-47a5-aca5-5fb4062f2436","system_id":"levelo_inurba_marseille","lat":43.29573,"lon":5.367355,"is_reserved":false,"is_disabled":false,"rental_uris":{"android":"levelo://app?vid=67e12af6-f233-47a5-aca5-5fb4062f2436","ios":"levelo://app?vid=67e12af6-f233-47a5-aca5-5fb4062f2436"},"vehicle_type_id":"4","last_reported":1714911150,"current_range_meters":28400,"station_id":"ce4bgph2rcd13ifvqc2g","pricing_plan_id":"cebpf4jnsgd1na2vs0mg"},{"bike_id":"549f1603-ae58-4591-a68c-01de1d03b3f3","system_id":"levelo_inurba_marseille","lat":43.29573,"lon":5.367355,"is_reserved":false,"is_disabled":false,"rental_uris":{"android":"levelo://app?vid=549f1603-ae58-4591-a68c-01de1d03b3f3","ios":"levelo://app?vid=549f1603-ae58-4591-a68c-01de1d03b3f3"},"vehicle_type_id":"4","last_reported":1714911150,"current_range_meters":31200,"station_id":"ce4bgph2rcd13ifvqc2g","pricing_plan_id":"cebpf4jnsgd1na2vs0mg"},{"bike_id":"88fcc298-9ed7-48e0-bba8-421252c3d41a","system_id":"levelo_inurba_marseille","lat":43.29573,"lon":5.367355,"is_reserved":false,"is_disabled":false,"rental_uris":{"android":"levelo://app?vid=88fcc298-9ed7-48e0-bba8-421252c3d41a","ios":"levelo://app?vid=88fcc298-9ed7-48e0-bba8-421252c3d41a"},"vehicle_type_id":"4","last_reported":1714911150,"current_range_meters":19600,"station_id":"ce4bgph2rcd13ifvqc2g","pricing_plan_id":"cebpf4jnsgd1na2vs0mg"},{"bike_id":"ed71304c-0c23-4c8b-a29b-9d9143970309","system_id":"levelo_inurba_marseille","lat":43.29573,"lon":5.367355,"is_reserved":false,"is_disabled":false,"rental_uris":{"android":"levelo://app?vid=ed71304c-0c23-4c8b-a29b-9d9143970309","ios":"levelo://app?vid=ed71304c-0c23-4c8b-a29b-9d9143970309"},"vehicle_type_id":"4","last_reported":1714911150,"current_range_meters":26400,"station_id":"ce4bgph2rcd13ifvqc2g","pricing_plan_id":"cebpf4jnsgd1na2vs0mg"},{"bike_id":"07bdbe1a-ffbb-49dc-9afc-3b7a14a6e92e","system_id":"levelo_inurba_marseille","lat":43.29573,"lon":5.367355,"is_reserved":false,"is_disabled":false,"rental_uris":{"android":"levelo://app?vid=07bdbe1a-ffbb-49dc-9afc-3b7a14a6e92e","ios":"levelo://app?vid=07bdbe1a-ffbb-49dc-9afc-3b7a14a6e92e"},"vehicle_type_id":"4","last_reported":1714911150,"current_range_meters":16400,"station_id":"ce4bgph2rcd13ifvqc2g","pricing_plan_id":"cebpf4jnsgd1na2vs0mg"},{"bike_id":"280e3650-6bdb-42da-b0f8-2a772e247f30","system_id":"levelo_inurba_marseille","lat":43.299028,"lon":5.381509,"is_reserved":false,"is_disabled":false,"rental_uris":{"android":"levelo://app?vid=280e3650-6bdb-42da-b0f8-2a772e247f30","ios":"levelo://app?vid=280e3650-6bdb-42da-b0f8-2a772e247f30"},"vehicle_type_id":"4","last_reported":1714911150,"current_range_meters":18000,"station_id":"ce4bgj12rcd13ifvqbc0","pricing_plan_id":"cebpf4jnsgd1na2vs0mg"},{"bike_id":"0e4e9bc8-2937-42e0-8157-565483de565c","system_id":"levelo_inurba_marseille","lat":43.299028,"lon":5.381509,"is_reserved":false,"is_disabled":false,"rental_uris":{"android":"levelo://app?vid=0e4e9bc8-2937-42e0-8157-565483de565c","ios":"levelo://app?vid=0e4e9bc8-2937-42e0-8157-565483de565c"},"vehicle_type_id":"4","last_reported":1714911150,"current_range_meters":8800,"station_id":"ce4bgj12rcd13ifvqbc0","pricing_plan_id":"cebpf4jnsgd1na2vs0mg"},{"bike_id":"c3b3661f-0b81-4c3f-ba2f-aa7662ecb131","system_id":"levelo_inurba_marseille","lat":43.309589,"lon":5.390258,"is_reserved":false,"is_disabled":false,"rental_uris":{"android":"levelo://app?vid=c3b3661f-0b81-4c3f-ba2f-aa7662ecb131","ios":"levelo://app?vid=c3b3661f-0b81-4c3f-ba2f-aa7662ecb131"},"vehicle_type_id":"4","last_reported":1714911150,"current_range_meters":31200,"station_id":"ce4bgup2rcd13ifvqco0","pricing_plan_id":"cebpf4jnsgd1na2vs0mg"},{"bike_id":"b12c4ad5-5150-47ef-b577-add0d2c84f6d","system_id":"levelo_inurba_marseille","lat":43.299028,"lon":5.381509,"is_reserved":false,"is_disabled":false,"rental_uris":{"android":"levelo://app?vid=b12c4ad5-5150-47ef-b577-add0d2c84f6d","ios":"levelo://app?vid=b12c4ad5-5150-47ef-b577-add0d2c84f6d"},"vehicle_type_id":"4","last_reported":1714911150,"current_range_meters":0,"station_id":"ce4bgj12rcd13ifvqbc0","pricing_plan_id":"cebpf4jnsgd1na2vs0mg"},{"bike_id":"25f5f3e4-6f82-4178-ae2b-adb23ce2b0b8","system_id":"levelo_inurba_marseille","lat":43.309589,"lon":5.390258,"is_reserved":false,"is_disabled":false,"rental_uris":{"android":"levelo://app?vid=25f5f3e4-6f82-4178-ae2b-adb23ce2b0b8","ios":"levelo://app?vid=25f5f3e4-6f82-4178-ae2b-adb23ce2b0b8"},"vehicle_type_id":"4","last_reported":1714911150,"current_range_meters":21200,"station_id":"ce4bgup2rcd13ifvqco0","pricing_plan_id":"cebpf4jnsgd1na2vs0mg"},{"bike_id":"d695273a-8a48-4b4f-937b-bb278ec11783","system_id":"levelo_inurba_marseille","lat":43.309589,"lon":5.390258,"is_reserved":false,"is_disabled":false,"rental_uris":{"android":"levelo://app?vid=d695273a-8a48-4b4f-937b-bb278ec11783","ios":"levelo://app?vid=d695273a-8a48-4b4f-937b-bb278ec11783"},"vehicle_type_id":"4","last_reported":1714911150,"current_range_meters":0,"station_id":"ce4bgup2rcd13ifvqco0","pricing_plan_id":"cebpf4jnsgd1na2vs0mg"},{"bike_id":"f9ae0ee5-3881-487d-b8fe-61b21423bebe","system_id":"levelo_inurba_marseille","lat":43.296921,"lon":5.376579,"is_reserved":false,"is_disabled":false,"rental_uris":{"android":"levelo://app?vid=f9ae0ee5-3881-487d-b8fe-61b21423bebe","ios":"levelo://app?vid=f9ae0ee5-3881-487d-b8fe-61b21423bebe"},"vehicle_type_id":"4","last_reported":1714911150,"current_range_meters":2000,"station_id":"ce4bgkh2rcd13ifvqbl0","pricing_plan_id":"cebpf4jnsgd1na2vs0mg"},{"bike_id":"49144b57-230e-4bcc-b1fc-88e68bb37e85","system_id":"levelo_inurba_marseille","lat":43.309589,"lon":5.390258,"is_reserved":false,"is_disabled":false,"rental_uris":{"android":"levelo://app?vid=49144b57-230e-4bcc-b1fc-88e68bb37e85","ios":"levelo://app?vid=49144b57-230e-4bcc-b1fc-88e68bb37e85"},"vehicle_type_id":"4","last_reported":1714911150,"current_range_meters":26800,"station_id":"ce4bgup2rcd13ifvqco0","pricing_plan_id":"cebpf4jnsgd1na2vs0mg"},{"bike_id":"31f2409a-c307-485b-a504-d78d58ea6aea","system_id":"levelo_inurba_marseille","lat":43.309589,"lon":5.390258,"is_reserved":false,"is_disabled":false,"rental_uris":{"android":"levelo://app?vid=31f2409a-c307-485b-a504-d78d58ea6aea","ios":"levelo://app?vid=31f2409a-c307-485b-a504-d78d58ea6aea"},"vehicle_type_id":"4","last_reported":1714911150,"current_range_meters":21600,"station_id":"ce4bgup2rcd13ifvqco0","pricing_plan_id":"cebpf4jnsgd1na2vs0mg"},{"bike_id":"ab7c7da5-3730-45f5-b0f0-4b31086221cb","system_id":"levelo_inurba_marseille","lat":43.309589,"lon":5.390258,"is_reserved":false,"is_disabled":false,"rental_uris":{"android":"levelo://app?vid=ab7c7da5-3730-45f5-b0f0-4b31086221cb","ios":"levelo://app?vid=ab7c7da5-3730-45f5-b0f0-4b31086221cb"},"vehicle_type_id":"4","last_reported":1714911150,"current_range_meters":0,"station_id":"ce4bgup2rcd13ifvqco0","pricing_plan_id":"cebpf4jnsgd1na2vs0mg"},{"bike_id":"3d315f48-dcba-402c-8802-9154e15291fb","system_id":"levelo_inurba_marseille","lat":43.309589,"lon":5.390258,"is_reserved":false,"is_disabled":false,"rental_uris":{"android":"levelo://app?vid=3d315f48-dcba-402c-8802-9154e15291fb","ios":"levelo://app?vid=3d315f48-dcba-402c-8802-9154e15291fb"},"vehicle_type_id":"4","last_reported":1714911150,"current_range_meters":0,"station_id":"ce4bgup2rcd13ifvqco0","pricing_plan_id":"cebpf4jnsgd1na2vs0mg"},{"bike_id":"3a57ef19-b2a4-4c2e-a6ba-f602554b5a29","system_id":"levelo_inurba_marseille","lat":43.309589,"lon":5.390258,"is_reserved":false,"is_disabled":false,"rental_uris":{"android":"levelo://app?vid=3a57ef19-b2a4-4c2e-a6ba-f602554b5a29","ios":"levelo://app?vid=3a57ef19-b2a4-4c2e-a6ba-f602554b5a29"},"vehicle_type_id":"4","last_reported":1714911150,"current_range_meters":17200,"station_id":"ce4bgup2rcd13ifvqco0","pricing_plan_id":"cebpf4jnsgd1na2vs0mg"},{"bike_id":"4e55dc77-a61f-4deb-87d5-558b1574e467","system_id":"levelo_inurba_marseille","lat":43.309589,"lon":5.390258,"is_reserved":false,"is_disabled":false,"rental_uris":{"android":"levelo://app?vid=4e55dc77-a61f-4deb-87d5-558b1574e467","ios":"levelo://app?vid=4e55dc77-a61f-4deb-87d5-558b1574e467"},"vehicle_type_id":"4","last_reported":1714911150,"current_range_meters":12800,"station_id":"ce4bgup2rcd13ifvqco0","pricing_plan_id":"cebpf4jnsgd1na2vs0mg"},{"bike_id":"f54a5e58-4d1d-433f-88da-a0e2116648cf","system_id":"levelo_inurba_marseille","lat":43.309589,"lon":5.390258,"is_reserved":false,"is_disabled":false,"rental_uris":{"android":"levelo://app?vid=f54a5e58-4d1d-433f-88da-a0e2116648cf","ios":"levelo://app?vid=f54a5e58-4d1d-433f-88da-a0e2116648cf"},"vehicle_type_id":"4","last_reported":1714911150,"current_range_meters":21600,"station_id":"ce4bgup2rcd13ifvqco0","pricing_plan_id":"cebpf4jnsgd1na2vs0mg"},{"bike_id":"047fdbbd-b55a-459a-8bb2-d0fd4014d970","system_id":"levelo_inurba_marseille","lat":43.309589,"lon":5.390258,"is_reserved":false,"is_disabled":false,"rental_uris":{"android":"levelo://app?vid=047fdbbd-b55a-459a-8bb2-d0fd4014d970","ios":"levelo://app?vid=047fdbbd-b55a-459a-8bb2-d0fd4014d970"},"vehicle_type_id":"4","last_reported":1714911150,"current_range_meters":2800,"station_id":"ce4bgup2rcd13ifvqco0","pricing_plan_id":"cebpf4jnsgd1na2vs0mg"},{"bike_id":"f1e0669a-159f-4430-a911-4b6b63c9f108","system_id":"levelo_inurba_marseille","lat":43.309589,"lon":5.390258,"is_reserved":false,"is_disabled":false,"rental_uris":{"android":"levelo://app?vid=f1e0669a-159f-4430-a911-4b6b63c9f108","ios":"levelo://app?vid=f1e0669a-159f-4430-a911-4b6b63c9f108"},"vehicle_type_id":"4","last_reported":1714911150,"current_range_meters":20400,"station_id":"ce4bgup2rcd13ifvqco0","pricing_plan_id":"cebpf4jnsgd1na2vs0mg"},{"bike_id":"491008a8-c641-4bd8-af7c-530256ffc7bb","system_id":"levelo_inurba_marseille","lat":43.317557,"lon":5.390173,"is_reserved":false,"is_disabled":false,"rental_uris":{"android":"levelo://app?vid=491008a8-c641-4bd8-af7c-530256ffc7bb","ios":"levelo://app?vid=491008a8-c641-4bd8-af7c-530256ffc7bb"},"vehicle_type_id":"4","last_reported":1714911150,"current_range_meters":27600,"station_id":"ce4bhqp2rcd13ifvqhng","pricing_plan_id":"cebpf4jnsgd1na2vs0mg"},{"bike_id":"35b70ffc-51ea-402e-93f7-932f466d751f","system_id":"levelo_inurba_marseille","lat":43.317557,"lon":5.390173,"is_reserved":false,"is_disabled":false,"rental_uris":{"android":"levelo://app?vid=35b70ffc-51ea-402e-93f7-932f466d751f","ios":"levelo://app?vid=35b70ffc-51ea-402e-93f7-932f466d751f"},"vehicle_type_id":"4","last_reported":1714911150,"current_range_meters":31600,"station_id":"ce4bhqp2rcd13ifvqhng","pricing_plan_id":"cebpf4jnsgd1na2vs0mg"},{"bike_id":"6e97d336-6219-4ae8-ace7-c6a8698d8451","system_id":"levelo_inurba_marseille","lat":43.295748,"lon":5.37522,"is_reserved":false,"is_disabled":false,"rental_uris":{"android":"levelo://app?vid=6e97d336-6219-4ae8-ace7-c6a8698d8451","ios":"levelo://app?vid=6e97d336-6219-4ae8-ace7-c6a8698d8451"},"vehicle_type_id":"4","last_reported":1714911150,"current_range_meters":0,"station_id":"ce4bgh92rcd13ifvqb50","pricing_plan_id":"cebpf4jnsgd1na2vs0mg"},{"bike_id":"2b4bdf7e-0537-4a49-8d97-c3ce3188dc02","system_id":"levelo_inurba_marseille","lat":43.295748,"lon":5.37522,"is_reserved":false,"is_disabled":false,"rental_uris":{"android":"levelo://app?vid=2b4bdf7e-0537-4a49-8d97-c3ce3188dc02","ios":"levelo://app?vid=2b4bdf7e-0537-4a49-8d97-c3ce3188dc02"},"vehicle_type_id":"4","last_reported":1714911150,"current_range_meters":9200,"station_id":"ce4bgh92rcd13ifvqb50","pricing_plan_id":"cebpf4jnsgd1na2vs0mg"},{"bike_id":"eb0e0348-e366-440d-bd32-8759050b8649","system_id":"levelo_inurba_marseille","lat":43.295748,"lon":5.37522,"is_reserved":false,"is_disabled":false,"rental_uris":{"android":"levelo://app?vid=eb0e0348-e366-440d-bd32-8759050b8649","ios":"levelo://app?vid=eb0e0348-e366-440d-bd32-8759050b8649"},"vehicle_type_id":"4","last_reported":1714911150,"current_range_meters":0,"station_id":"ce4bgh92rcd13ifvqb50","pricing_plan_id":"cebpf4jnsgd1na2vs0mg"},{"bike_id":"d4cdf9fc-0846-4c80-9327-ff8ad1575b3a","system_id":"levelo_inurba_marseille","lat":43.304274,"lon":5.388873,"is_reserved":false,"is_disabled":false,"rental_uris":{"android":"levelo://app?vid=d4cdf9fc-0846-4c80-9327-ff8ad1575b3a","ios":"levelo://app?vid=d4cdf9fc-0846-4c80-9327-ff8ad1575b3a"},"vehicle_type_id":"4","last_reported":1714911150,"current_range_meters":16400,"station_id":"ce4bgk12rcd13ifvqbi0","pricing_plan_id":"cebpf4jnsgd1na2vs0mg"},{"bike_id":"5a450c04-7228-459b-bcfa-ab80d0ceff5a","system_id":"levelo_inurba_marseille","lat":43.29615,"lon":5.37727,"is_reserved":false,"is_disabled":false,"rental_uris":{"android":"levelo://app?vid=5a450c04-7228-459b-bcfa-ab80d0ceff5a","ios":"levelo://app?vid=5a450c04-7228-459b-bcfa-ab80d0ceff5a"},"vehicle_type_id":"4","last_reported":1714911150,"current_range_meters":0,"station_id":"ce4bgi92rcd13ifvqb90","pricing_plan_id":"cebpf4jnsgd1na2vs0mg"},{"bike_id":"c84b263f-7d0f-4038-86ec-ec109c95f4e1","system_id":"levelo_inurba_marseille","lat":43.29547,"lon":5.37514,"is_reserved":false,"is_disabled":false,"rental_uris":{"android":"levelo://app?vid=c84b263f-7d0f-4038-86ec-ec109c95f4e1","ios":"levelo://app?vid=c84b263f-7d0f-4038-86ec-ec109c95f4e1"},"vehicle_type_id":"4","last_reported":1714911150,"current_range_meters":23200,"station_id":"ce4bgkp2rcd13ifvqbmg","pricing_plan_id":"cebpf4jnsgd1na2vs0mg"},{"bike_id":"b484a4f9-1ecd-466e-b6ec-84234f5e6c19","system_id":"levelo_inurba_marseille","lat":43.29595,"lon":5.37718,"is_reserved":false,"is_disabled":false,"rental_uris":{"android":"levelo://app?vid=b484a4f9-1ecd-466e-b6ec-84234f5e6c19","ios":"levelo://app?vid=b484a4f9-1ecd-466e-b6ec-84234f5e6c19"},"vehicle_type_id":"4","last_reported":1714911150,"current_range_meters":0,"station_id":"ce4bgi92rcd13ifvqb90","pricing_plan_id":"cebpf4jnsgd1na2vs0mg"},{"bike_id":"f91015ff-39f2-4a5e-8597-44085cd12baf","system_id":"levelo_inurba_marseille","lat":43.29529,"lon":5.37501,"is_reserved":false,"is_disabled":false,"rental_uris":{"android":"levelo://app?vid=f91015ff-39f2-4a5e-8597-44085cd12baf","ios":"levelo://app?vid=f91015ff-39f2-4a5e-8597-44085cd12baf"},"vehicle_type_id":"4","last_reported":1714911150,"current_range_meters":0,"station_id":"ce4bgkp2rcd13ifvqbmg","pricing_plan_id":"cebpf4jnsgd1na2vs0mg"},{"bike_id":"4073d24a-e8f9-41f7-b5d0-869c216807b2","system_id":"levelo_inurba_marseille","lat":43.295274,"lon":5.375049,"is_reserved":false,"is_disabled":false,"rental_uris":{"android":"levelo://app?vid=4073d24a-e8f9-41f7-b5d0-869c216807b2","ios":"levelo://app?vid=4073d24a-e8f9-41f7-b5d0-869c216807b2"},"vehicle_type_id":"4","last_reported":1714911150,"current_range_meters":31200,"station_id":"ce4bgkp2rcd13ifvqbmg","pricing_plan_id":"cebpf4jnsgd1na2vs0mg"},{"bike_id":"0875537d-4279-461c-9d5a-6f15cc8cc48a","system_id":"levelo_inurba_marseille","lat":43.295283,"lon":5.375159,"is_reserved":false,"is_disabled":false,"rental_uris":{"android":"levelo://app?vid=0875537d-4279-461c-9d5a-6f15cc8cc48a","ios":"levelo://app?vid=0875537d-4279-461c-9d5a-6f15cc8cc48a"},"vehicle_type_id":"4","last_reported":1714911150,"current_range_meters":12000,"station_id":"ce4bgkp2rcd13ifvqbmg","pricing_plan_id":"cebpf4jnsgd1na2vs0mg"},{"bike_id":"ef7f7091-0a40-44a0-a059-f9c2cb0f2313","system_id":"levelo_inurba_marseille","lat":43.295279,"lon":5.375048,"is_reserved":false,"is_disabled":false,"rental_uris":{"android":"levelo://app?vid=ef7f7091-0a40-44a0-a059-f9c2cb0f2313","ios":"levelo://app?vid=ef7f7091-0a40-44a0-a059-f9c2cb0f2313"},"vehicle_type_id":"4","last_reported":1714911150,"current_range_meters":22800,"station_id":"ce4bgkp2rcd13ifvqbmg","pricing_plan_id":"cebpf4jnsgd1na2vs0mg"},{"bike_id":"d16629ba-fd4f-4a7b-801c-724f57b91c8f","system_id":"levelo_inurba_marseille","lat":43.299707,"lon":5.384859,"is_reserved":false,"is_disabled":false,"rental_uris":{"android":"levelo://app?vid=d16629ba-fd4f-4a7b-801c-724f57b91c8f","ios":"levelo://app?vid=d16629ba-fd4f-4a7b-801c-724f57b91c8f"},"vehicle_type_id":"4","last_reported":1714911150,"current_range_meters":28400,"station_id":"ce4bgj92rcd13ifvqbd0","pricing_plan_id":"cebpf4jnsgd1na2vs0mg"},{"bike_id":"386eb539-fce3-474e-927e-864fbbed4a70","system_id":"levelo_inurba_marseille","lat":43.299717,"lon":5.384845,"is_reserved":false,"is_disabled":false,"rental_uris":{"android":"levelo://app?vid=386eb539-fce3-474e-927e-864fbbed4a70","ios":"levelo://app?vid=386eb539-fce3-474e-927e-864fbbed4a70"},"vehicle_type_id":"4","last_reported":1714911150,"current_range_meters":400,"station_id":"ce4bgj92rcd13ifvqbd0","pricing_plan_id":"cebpf4jnsgd1na2vs0mg"},{"bike_id":"5a1e840c-16d1-4135-b3c9-5fc4f702e466","system_id":"levelo_inurba_marseille","lat":43.295279,"lon":5.375048,"is_reserved":false,"is_disabled":false,"rental_uris":{"android":"levelo://app?vid=5a1e840c-16d1-4135-b3c9-5fc4f702e466","ios":"levelo://app?vid=5a1e840c-16d1-4135-b3c9-5fc4f702e466"},"vehicle_type_id":"4","last_reported":1714911150,"current_range_meters":3600,"station_id":"ce4bgkp2rcd13ifvqbmg","pricing_plan_id":"cebpf4jnsgd1na2vs0mg"},{"bike_id":"6aaabb0f-0774-47ca-9aa4-f53315c64dfb","system_id":"levelo_inurba_marseille","lat":43.32364,"lon":5.38878,"is_reserved":false,"is_disabled":false,"rental_uris":{"android":"levelo://app?vid=6aaabb0f-0774-47ca-9aa4-f53315c64dfb","ios":"levelo://app?vid=6aaabb0f-0774-47ca-9aa4-f53315c64dfb"},"vehicle_type_id":"4","last_reported":1714911150,"current_range_meters":26000,"station_id":"ce4bhqp2rcd13ifvqhog","pricing_plan_id":"cebpf4jnsgd1na2vs0mg"},{"bike_id":"4176ad1d-d0ba-4624-b243-38b4c50f7116","system_id":"levelo_inurba_marseille","lat":43.32361,"lon":5.38881,"is_reserved":false,"is_disabled":false,"rental_uris":{"android":"levelo://app?vid=4176ad1d-d0ba-4624-b243-38b4c50f7116","ios":"levelo://app?vid=4176ad1d-d0ba-4624-b243-38b4c50f7116"},"vehicle_type_id":"4","last_reported":1714911150,"current_range_meters":1200,"station_id":"ce4bhqp2rcd13ifvqhog","pricing_plan_id":"cebpf4jnsgd1na2vs0mg"},{"bike_id":"4d13baf3-5537-4de4-849c-1bfc5b652b2e","system_id":"levelo_inurba_marseille","lat":43.32365,"lon":5.38881,"is_reserved":false,"is_disabled":false,"rental_uris":{"android":"levelo://app?vid=4d13baf3-5537-4de4-849c-1bfc5b652b2e","ios":"levelo://app?vid=4d13baf3-5537-4de4-849c-1bfc5b652b2e"},"vehicle_type_id":"4","last_reported":1714911150,"current_range_meters":31200,"station_id":"ce4bhqp2rcd13ifvqhog","pricing_plan_id":"cebpf4jnsgd1na2vs0mg"},{"bike_id":"4c5dc4ba-112a-4986-9167-50ad9f5302ae","system_id":"levelo_inurba_marseille","lat":43.32366,"lon":5.38882,"is_reserved":false,"is_disabled":false,"rental_uris":{"android":"levelo://app?vid=4c5dc4ba-112a-4986-9167-50ad9f5302ae","ios":"levelo://app?vid=4c5dc4ba-112a-4986-9167-50ad9f5302ae"},"vehicle_type_id":"4","last_reported":1714911150,"current_range_meters":13600,"station_id":"ce4bhqp2rcd13ifvqhog","pricing_plan_id":"cebpf4jnsgd1na2vs0mg"},{"bike_id":"b11db906-28de-42cd-b6c4-7a2b7a5989ab","system_id":"levelo_inurba_marseille","lat":43.32366,"lon":5.38884,"is_reserved":false,"is_disabled":false,"rental_uris":{"android":"levelo://app?vid=b11db906-28de-42cd-b6c4-7a2b7a5989ab","ios":"levelo://app?vid=b11db906-28de-42cd-b6c4-7a2b7a5989ab"},"vehicle_type_id":"4","last_reported":1714911150,"current_range_meters":0,"station_id":"ce4bhqp2rcd13ifvqhog","pricing_plan_id":"cebpf4jnsgd1na2vs0mg"},{"bike_id":"aa338cf5-8be0-45db-8732-a80ac32e310e","system_id":"levelo_inurba_marseille","lat":43.32367,"lon":5.388836,"is_reserved":false,"is_disabled":false,"rental_uris":{"android":"levelo://app?vid=aa338cf5-8be0-45db-8732-a80ac32e310e","ios":"levelo://app?vid=aa338cf5-8be0-45db-8732-a80ac32e310e"},"vehicle_type_id":"4","last_reported":1714911150,"current_range_meters":26800,"station_id":"ce4bhqp2rcd13ifvqhog","pricing_plan_id":"cebpf4jnsgd1na2vs0mg"},{"bike_id":"b33dfd30-62c1-4245-ac29-f3d4d7da3d1f","system_id":"levelo_inurba_marseille","lat":43.32368,"lon":5.38886,"is_reserved":false,"is_disabled":false,"rental_uris":{"android":"levelo://app?vid=b33dfd30-62c1-4245-ac29-f3d4d7da3d1f","ios":"levelo://app?vid=b33dfd30-62c1-4245-ac29-f3d4d7da3d1f"},"vehicle_type_id":"4","last_reported":1714911150,"current_range_meters":13600,"station_id":"ce4bhqp2rcd13ifvqhog","pricing_plan_id":"cebpf4jnsgd1na2vs0mg"},{"bike_id":"1804da54-e1dc-419b-b151-7c8da01cb26c","system_id":"levelo_inurba_marseille","lat":43.3237,"lon":5.38885,"is_reserved":false,"is_disabled":false,"rental_uris":{"android":"levelo://app?vid=1804da54-e1dc-419b-b151-7c8da01cb26c","ios":"levelo://app?vid=1804da54-e1dc-419b-b151-7c8da01cb26c"},"vehicle_type_id":"4","last_reported":1714911150,"current_range_meters":0,"station_id":"ce4bhqp2rcd13ifvqhog","pricing_plan_id":"cebpf4jnsgd1na2vs0mg"},{"bike_id":"3072117c-e4b5-4077-a853-21f5ff45bd7c","system_id":"levelo_inurba_marseille","lat":43.296349,"lon":5.381107,"is_reserved":false,"is_disabled":false,"rental_uris":{"android":"levelo://app?vid=3072117c-e4b5-4077-a853-21f5ff45bd7c","ios":"levelo://app?vid=3072117c-e4b5-4077-a853-21f5ff45bd7c"},"vehicle_type_id":"4","last_reported":1714911150,"current_range_meters":22800,"station_id":"","pricing_plan_id":"cebpf4jnsgd1na2vs0mg"},{"bike_id":"55cb142b-1da9-46ae-a1ea-cecda90e660d","system_id":"levelo_inurba_marseille","lat":43.32367,"lon":5.388836,"is_reserved":false,"is_disabled":false,"rental_uris":{"android":"levelo://app?vid=55cb142b-1da9-46ae-a1ea-cecda90e660d","ios":"levelo://app?vid=55cb142b-1da9-46ae-a1ea-cecda90e660d"},"vehicle_type_id":"4","last_reported":1714911150,"current_range_meters":11200,"station_id":"ce4bhqp2rcd13ifvqhog","pricing_plan_id":"cebpf4jnsgd1na2vs0mg"},{"bike_id":"66838fc6-77e1-45de-a8a6-cbcd3608fc8f","system_id":"levelo_inurba_marseille","lat":43.295279,"lon":5.375048,"is_reserved":false,"is_disabled":false,"rental_uris":{"android":"levelo://app?vid=66838fc6-77e1-45de-a8a6-cbcd3608fc8f","ios":"levelo://app?vid=66838fc6-77e1-45de-a8a6-cbcd3608fc8f"},"vehicle_type_id":"4","last_reported":1714911150,"current_range_meters":21600,"station_id":"ce4bgkp2rcd13ifvqbmg","pricing_plan_id":"cebpf4jnsgd1na2vs0mg"},{"bike_id":"b70d98ae-a19e-4906-9a1a-27a041e76899","system_id":"levelo_inurba_marseille","lat":43.296236,"lon":5.381174,"is_reserved":false,"is_disabled":false,"rental_uris":{"android":"levelo://app?vid=b70d98ae-a19e-4906-9a1a-27a041e76899","ios":"levelo://app?vid=b70d98ae-a19e-4906-9a1a-27a041e76899"},"vehicle_type_id":"4","last_reported":1714911150,"current_range_meters":14800,"station_id":"","pricing_plan_id":"cebpf4jnsgd1na2vs0mg"},{"bike_id":"d8a45fdf-747d-452f-8444-cc46d82986c2","system_id":"levelo_inurba_marseille","lat":43.29602,"lon":5.381084,"is_reserved":false,"is_disabled":false,"rental_uris":{"android":"levelo://app?vid=d8a45fdf-747d-452f-8444-cc46d82986c2","ios":"levelo://app?vid=d8a45fdf-747d-452f-8444-cc46d82986c2"},"vehicle_type_id":"4","last_reported":1714911150,"current_range_meters":0,"station_id":"ce4bgl12rcd13ifvqbo0","pricing_plan_id":"cebpf4jnsgd1na2vs0mg"},{"bike_id":"0d5bf672-85da-49bd-a8c4-6d855d7c9e27","system_id":"levelo_inurba_marseille","lat":43.293259,"lon":5.371586,"is_reserved":false,"is_disabled":false,"rental_uris":{"android":"levelo://app?vid=0d5bf672-85da-49bd-a8c4-6d855d7c9e27","ios":"levelo://app?vid=0d5bf672-85da-49bd-a8c4-6d855d7c9e27"},"vehicle_type_id":"4","last_reported":1714911150,"current_range_meters":15600,"station_id":"ce4bgh92rcd13ifvqb40","pricing_plan_id":"cebpf4jnsgd1na2vs0mg"},{"bike_id":"09f7cb5d-9edd-47d2-a04e-f1b90dc48fc4","system_id":"levelo_inurba_marseille","lat":43.29275,"lon":5.36842,"is_reserved":false,"is_disabled":false,"rental_uris":{"android":"levelo://app?vid=09f7cb5d-9edd-47d2-a04e-f1b90dc48fc4","ios":"levelo://app?vid=09f7cb5d-9edd-47d2-a04e-f1b90dc48fc4"},"vehicle_type_id":"4","last_reported":1714911150,"current_range_meters":21600,"station_id":"ce4bhbp2rcd13ifvqesg","pricing_plan_id":"cebpf4jnsgd1na2vs0mg"},{"bike_id":"534d6ce5-3140-4e41-9dd2-338c40cb9703","system_id":"levelo_inurba_marseille","lat":43.29275,"lon":5.36846,"is_reserved":false,"is_disabled":false,"rental_uris":{"android":"levelo://app?vid=534d6ce5-3140-4e41-9dd2-338c40cb9703","ios":"levelo://app?vid=534d6ce5-3140-4e41-9dd2-338c40cb9703"},"vehicle_type_id":"4","last_reported":1714911150,"current_range_meters":25600,"station_id":"ce4bhbp2rcd13ifvqesg","pricing_plan_id":"cebpf4jnsgd1na2vs0mg"},{"bike_id":"75098608-83b3-418a-ae8e-ebef59a496c5","system_id":"levelo_inurba_marseille","lat":43.29304,"lon":5.37467,"is_reserved":false,"is_disabled":false,"rental_uris":{"android":"levelo://app?vid=75098608-83b3-418a-ae8e-ebef59a496c5","ios":"levelo://app?vid=75098608-83b3-418a-ae8e-ebef59a496c5"},"vehicle_type_id":"4","last_reported":1714911150,"current_range_meters":0,"station_id":"ce4bgi12rcd13ifvqb70","pricing_plan_id":"cebpf4jnsgd1na2vs0mg"},{"bike_id":"084cac52-3ce3-4409-8a41-f75924786e9d","system_id":"levelo_inurba_marseille","lat":43.29303,"lon":5.37464,"is_reserved":false,"is_disabled":false,"rental_uris":{"android":"levelo://app?vid=084cac52-3ce3-4409-8a41-f75924786e9d","ios":"levelo://app?vid=084cac52-3ce3-4409-8a41-f75924786e9d"},"vehicle_type_id":"4","last_reported":1714911150,"current_range_meters":0,"station_id":"ce4bgi12rcd13ifvqb70","pricing_plan_id":"cebpf4jnsgd1na2vs0mg"},{"bike_id":"ee08270b-052c-48ef-9952-127973eab5f4","system_id":"levelo_inurba_marseille","lat":43.293009,"lon":5.374584,"is_reserved":false,"is_disabled":false,"rental_uris":{"android":"levelo://app?vid=ee08270b-052c-48ef-9952-127973eab5f4","ios":"levelo://app?vid=ee08270b-052c-48ef-9952-127973eab5f4"},"vehicle_type_id":"4","last_reported":1714911150,"current_range_meters":4000,"station_id":"ce4bgi12rcd13ifvqb70","pricing_plan_id":"cebpf4jnsgd1na2vs0mg"},{"bike_id":"f2fd4a3e-facc-4c9f-9d09-cd236a64fbc1","system_id":"levelo_inurba_marseille","lat":43.305994,"lon":5.393687,"is_reserved":false,"is_disabled":false,"rental_uris":{"android":"levelo://app?vid=f2fd4a3e-facc-4c9f-9d09-cd236a64fbc1","ios":"levelo://app?vid=f2fd4a3e-facc-4c9f-9d09-cd236a64fbc1"},"vehicle_type_id":"4","last_reported":1714911150,"current_range_meters":13200,"station_id":"ce4bh0p2rcd13ifvqd80","pricing_plan_id":"cebpf4jnsgd1na2vs0mg"},{"bike_id":"4055ce2b-15a9-4ae8-94d7-6f2de5c386e2","system_id":"levelo_inurba_marseille","lat":43.303002,"lon":5.392142,"is_reserved":false,"is_disabled":false,"rental_uris":{"android":"levelo://app?vid=4055ce2b-15a9-4ae8-94d7-6f2de5c386e2","ios":"levelo://app?vid=4055ce2b-15a9-4ae8-94d7-6f2de5c386e2"},"vehicle_type_id":"4","last_reported":1714911150,"current_range_meters":400,"station_id":"ce4bgkh2rcd13ifvqbk0","pricing_plan_id":"cebpf4jnsgd1na2vs0mg"},{"bike_id":"120edb2f-318c-4d3e-83b8-0cd491d4260c","system_id":"levelo_inurba_marseille","lat":43.29374,"lon":5.378656,"is_reserved":false,"is_disabled":false,"rental_uris":{"android":"levelo://app?vid=120edb2f-318c-4d3e-83b8-0cd491d4260c","ios":"levelo://app?vid=120edb2f-318c-4d3e-83b8-0cd491d4260c"},"vehicle_type_id":"4","last_reported":1714911150,"current_range_meters":20000,"station_id":"ce4bgjh2rcd13ifvqbf0","pricing_plan_id":"cebpf4jnsgd1na2vs0mg"},{"bike_id":"3ab35447-736b-4bda-bd9a-2ddfe4d1f103","system_id":"levelo_inurba_marseille","lat":43.292311,"lon":5.360731,"is_reserved":false,"is_disabled":false,"rental_uris":{"android":"levelo://app?vid=3ab35447-736b-4bda-bd9a-2ddfe4d1f103","ios":"levelo://app?vid=3ab35447-736b-4bda-bd9a-2ddfe4d1f103"},"vehicle_type_id":"4","last_reported":1714911150,"current_range_meters":25200,"station_id":"ce4bhbh2rcd13ifvqeqg","pricing_plan_id":"cebpf4jnsgd1na2vs0mg"},{"bike_id":"edafedd0-b7be-44df-b3f4-ccb641f3d24f","system_id":"levelo_inurba_marseille","lat":43.292311,"lon":5.360731,"is_reserved":false,"is_disabled":false,"rental_uris":{"android":"levelo://app?vid=edafedd0-b7be-44df-b3f4-ccb641f3d24f","ios":"levelo://app?vid=edafedd0-b7be-44df-b3f4-ccb641f3d24f"},"vehicle_type_id":"4","last_reported":1714911150,"current_range_meters":27600,"station_id":"ce4bhbh2rcd13ifvqeqg","pricing_plan_id":"cebpf4jnsgd1na2vs0mg"},{"bike_id":"024882ca-7ac8-47aa-9543-cf0d237bf28b","system_id":"levelo_inurba_marseille","lat":43.29231,"lon":5.36053,"is_reserved":false,"is_disabled":false,"rental_uris":{"android":"levelo://app?vid=024882ca-7ac8-47aa-9543-cf0d237bf28b","ios":"levelo://app?vid=024882ca-7ac8-47aa-9543-cf0d237bf28b"},"vehicle_type_id":"4","last_reported":1714911150,"current_range_meters":18800,"station_id":"ce4bhbh2rcd13ifvqeqg","pricing_plan_id":"cebpf4jnsgd1na2vs0mg"},{"bike_id":"1c49310d-a1c0-440c-bd6c-63de4e74f250","system_id":"levelo_inurba_marseille","lat":43.292311,"lon":5.360731,"is_reserved":false,"is_disabled":false,"rental_uris":{"android":"levelo://app?vid=1c49310d-a1c0-440c-bd6c-63de4e74f250","ios":"levelo://app?vid=1c49310d-a1c0-440c-bd6c-63de4e74f250"},"vehicle_type_id":"4","last_reported":1714911150,"current_range_meters":18400,"station_id":"ce4bhbh2rcd13ifvqeqg","pricing_plan_id":"cebpf4jnsgd1na2vs0mg"},{"bike_id":"50f41edc-5865-4417-bbd3-a37859154c0e","system_id":"levelo_inurba_marseille","lat":43.292311,"lon":5.360731,"is_reserved":false,"is_disabled":false,"rental_uris":{"android":"levelo://app?vid=50f41edc-5865-4417-bbd3-a37859154c0e","ios":"levelo://app?vid=50f41edc-5865-4417-bbd3-a37859154c0e"},"vehicle_type_id":"4","last_reported":1714911150,"current_range_meters":25600,"station_id":"ce4bhbh2rcd13ifvqeqg","pricing_plan_id":"cebpf4jnsgd1na2vs0mg"},{"bike_id":"e5c59af3-2831-4e88-a289-c84d5280581f","system_id":"levelo_inurba_marseille","lat":43.292311,"lon":5.360731,"is_reserved":false,"is_disabled":false,"rental_uris":{"android":"levelo://app?vid=e5c59af3-2831-4e88-a289-c84d5280581f","ios":"levelo://app?vid=e5c59af3-2831-4e88-a289-c84d5280581f"},"vehicle_type_id":"4","last_reported":1714911150,"current_range_meters":29200,"station_id":"ce4bhbh2rcd13ifvqeqg","pricing_plan_id":"cebpf4jnsgd1na2vs0mg"},{"bike_id":"cbbf2e38-fc67-4aaa-90a5-b3833046acff","system_id":"levelo_inurba_marseille","lat":43.29226,"lon":5.36066,"is_reserved":false,"is_disabled":false,"rental_uris":{"android":"levelo://app?vid=cbbf2e38-fc67-4aaa-90a5-b3833046acff","ios":"levelo://app?vid=cbbf2e38-fc67-4aaa-90a5-b3833046acff"},"vehicle_type_id":"4","last_reported":1714911150,"current_range_meters":15600,"station_id":"ce4bhbh2rcd13ifvqeqg","pricing_plan_id":"cebpf4jnsgd1na2vs0mg"},{"bike_id":"2c4823e5-babf-47dc-a215-b09b522aef46","system_id":"levelo_inurba_marseille","lat":43.29228,"lon":5.36053,"is_reserved":false,"is_disabled":false,"rental_uris":{"android":"levelo://app?vid=2c4823e5-babf-47dc-a215-b09b522aef46","ios":"levelo://app?vid=2c4823e5-babf-47dc-a215-b09b522aef46"},"vehicle_type_id":"4","last_reported":1714911150,"current_range_meters":14000,"station_id":"ce4bhbh2rcd13ifvqeqg","pricing_plan_id":"cebpf4jnsgd1na2vs0mg"},{"bike_id":"2105e20e-b564-4ac0-a245-fa5dfb574a4f","system_id":"levelo_inurba_marseille","lat":43.292311,"lon":5.360731,"is_reserved":false,"is_disabled":false,"rental_uris":{"android":"levelo://app?vid=2105e20e-b564-4ac0-a245-fa5dfb574a4f","ios":"levelo://app?vid=2105e20e-b564-4ac0-a245-fa5dfb574a4f"},"vehicle_type_id":"4","last_reported":1714911150,"current_range_meters":22400,"station_id":"ce4bhbh2rcd13ifvqeqg","pricing_plan_id":"cebpf4jnsgd1na2vs0mg"},{"bike_id":"aff80167-d076-436d-8795-06acaba3b37c","system_id":"levelo_inurba_marseille","lat":43.292247,"lon":5.360711,"is_reserved":false,"is_disabled":false,"rental_uris":{"android":"levelo://app?vid=aff80167-d076-436d-8795-06acaba3b37c","ios":"levelo://app?vid=aff80167-d076-436d-8795-06acaba3b37c"},"vehicle_type_id":"4","last_reported":1714911150,"current_range_meters":10000,"station_id":"ce4bhbh2rcd13ifvqeqg","pricing_plan_id":"cebpf4jnsgd1na2vs0mg"},{"bike_id":"3d2faf0b-89a1-4356-9f14-65c5cbc57437","system_id":"levelo_inurba_marseille","lat":43.292311,"lon":5.360731,"is_reserved":false,"is_disabled":false,"rental_uris":{"android":"levelo://app?vid=3d2faf0b-89a1-4356-9f14-65c5cbc57437","ios":"levelo://app?vid=3d2faf0b-89a1-4356-9f14-65c5cbc57437"},"vehicle_type_id":"4","last_reported":1714911150,"current_range_meters":800,"station_id":"ce4bhbh2rcd13ifvqeqg","pricing_plan_id":"cebpf4jnsgd1na2vs0mg"},{"bike_id":"1e831a25-795a-4d9f-96bc-ec977f7c1652","system_id":"levelo_inurba_marseille","lat":43.29224,"lon":5.36056,"is_reserved":false,"is_disabled":false,"rental_uris":{"android":"levelo://app?vid=1e831a25-795a-4d9f-96bc-ec977f7c1652","ios":"levelo://app?vid=1e831a25-795a-4d9f-96bc-ec977f7c1652"},"vehicle_type_id":"4","last_reported":1714911150,"current_range_meters":0,"station_id":"ce4bhbh2rcd13ifvqeqg","pricing_plan_id":"cebpf4jnsgd1na2vs0mg"},{"bike_id":"e07f07de-aaad-4bcb-855c-dd955590f0d6","system_id":"levelo_inurba_marseille","lat":43.2922,"lon":5.360767,"is_reserved":false,"is_disabled":false,"rental_uris":{"android":"levelo://app?vid=e07f07de-aaad-4bcb-855c-dd955590f0d6","ios":"levelo://app?vid=e07f07de-aaad-4bcb-855c-dd955590f0d6"},"vehicle_type_id":"4","last_reported":1714911150,"current_range_meters":30400,"station_id":"ce4bhbh2rcd13ifvqeqg","pricing_plan_id":"cebpf4jnsgd1na2vs0mg"},{"bike_id":"b219026a-b6e8-42d8-9117-1fb32c61f771","system_id":"levelo_inurba_marseille","lat":43.29218,"lon":5.360733,"is_reserved":false,"is_disabled":false,"rental_uris":{"android":"levelo://app?vid=b219026a-b6e8-42d8-9117-1fb32c61f771","ios":"levelo://app?vid=b219026a-b6e8-42d8-9117-1fb32c61f771"},"vehicle_type_id":"4","last_reported":1714911150,"current_range_meters":20000,"station_id":"ce4bhbh2rcd13ifvqeqg","pricing_plan_id":"cebpf4jnsgd1na2vs0mg"},{"bike_id":"4728f5ef-43cf-4050-86b9-1f1a03fe00b3","system_id":"levelo_inurba_marseille","lat":43.29221,"lon":5.3605,"is_reserved":false,"is_disabled":false,"rental_uris":{"android":"levelo://app?vid=4728f5ef-43cf-4050-86b9-1f1a03fe00b3","ios":"levelo://app?vid=4728f5ef-43cf-4050-86b9-1f1a03fe00b3"},"vehicle_type_id":"4","last_reported":1714911150,"current_range_meters":26800,"station_id":"ce4bhbh2rcd13ifvqeqg","pricing_plan_id":"cebpf4jnsgd1na2vs0mg"},{"bike_id":"fd5d6575-6b80-4b6b-b1b3-402e63c9fb12","system_id":"levelo_inurba_marseille","lat":43.29215,"lon":5.36058,"is_reserved":false,"is_disabled":false,"rental_uris":{"android":"levelo://app?vid=fd5d6575-6b80-4b6b-b1b3-402e63c9fb12","ios":"levelo://app?vid=fd5d6575-6b80-4b6b-b1b3-402e63c9fb12"},"vehicle_type_id":"4","last_reported":1714911150,"current_range_meters":4000,"station_id":"ce4bhbh2rcd13ifvqeqg","pricing_plan_id":"cebpf4jnsgd1na2vs0mg"},{"bike_id":"ba603a1c-1a7c-41a2-9b07-7a254f9e0799","system_id":"levelo_inurba_marseille","lat":43.29216,"lon":5.36044,"is_reserved":false,"is_disabled":false,"rental_uris":{"android":"levelo://app?vid=ba603a1c-1a7c-41a2-9b07-7a254f9e0799","ios":"levelo://app?vid=ba603a1c-1a7c-41a2-9b07-7a254f9e0799"},"vehicle_type_id":"4","last_reported":1714911150,"current_range_meters":26400,"station_id":"ce4bhbh2rcd13ifvqeqg","pricing_plan_id":"cebpf4jnsgd1na2vs0mg"},{"bike_id":"c8254cce-3c39-40cd-94e1-40cf8ceaca34","system_id":"levelo_inurba_marseille","lat":43.31323,"lon":5.39686,"is_reserved":false,"is_disabled":false,"rental_uris":{"android":"levelo://app?vid=c8254cce-3c39-40cd-94e1-40cf8ceaca34","ios":"levelo://app?vid=c8254cce-3c39-40cd-94e1-40cf8ceaca34"},"vehicle_type_id":"4","last_reported":1714911150,"current_range_meters":31200,"station_id":"ce4bgvp2rcd13ifvqcu0","pricing_plan_id":"cebpf4jnsgd1na2vs0mg"},{"bike_id":"58e19ca6-86af-4cc4-960e-eca456207049","system_id":"levelo_inurba_marseille","lat":43.291994,"lon":5.357886,"is_reserved":false,"is_disabled":false,"rental_uris":{"android":"levelo://app?vid=58e19ca6-86af-4cc4-960e-eca456207049","ios":"levelo://app?vid=58e19ca6-86af-4cc4-960e-eca456207049"},"vehicle_type_id":"4","last_reported":1714911150,"current_range_meters":20400,"station_id":"ce4bhb12rcd13ifvqel0","pricing_plan_id":"cebpf4jnsgd1na2vs0mg"},{"bike_id":"661cde4f-6c43-4b3a-a06a-6c98cbfe2fcf","system_id":"levelo_inurba_marseille","lat":43.31334,"lon":5.39697,"is_reserved":false,"is_disabled":false,"rental_uris":{"android":"levelo://app?vid=661cde4f-6c43-4b3a-a06a-6c98cbfe2fcf","ios":"levelo://app?vid=661cde4f-6c43-4b3a-a06a-6c98cbfe2fcf"},"vehicle_type_id":"4","last_reported":1714911150,"current_range_meters":21600,"station_id":"ce4bgvp2rcd13ifvqcu0","pricing_plan_id":"cebpf4jnsgd1na2vs0mg"},{"bike_id":"e3fb06e3-7586-40f3-b24d-ecb7b2eda322","system_id":"levelo_inurba_marseille","lat":43.309038,"lon":5.396546,"is_reserved":false,"is_disabled":false,"rental_uris":{"android":"levelo://app?vid=e3fb06e3-7586-40f3-b24d-ecb7b2eda322","ios":"levelo://app?vid=e3fb06e3-7586-40f3-b24d-ecb7b2eda322"},"vehicle_type_id":"4","last_reported":1714911150,"current_range_meters":0,"station_id":"ce4bh012rcd13ifvqcv0","pricing_plan_id":"cebpf4jnsgd1na2vs0mg"},{"bike_id":"47d7daef-2639-45ad-838a-65954fe0e043","system_id":"levelo_inurba_marseille","lat":43.31323,"lon":5.39706,"is_reserved":false,"is_disabled":false,"rental_uris":{"android":"levelo://app?vid=47d7daef-2639-45ad-838a-65954fe0e043","ios":"levelo://app?vid=47d7daef-2639-45ad-838a-65954fe0e043"},"vehicle_type_id":"4","last_reported":1714911150,"current_range_meters":25600,"station_id":"ce4bgvp2rcd13ifvqcu0","pricing_plan_id":"cebpf4jnsgd1na2vs0mg"},{"bike_id":"0b90443b-1c14-45db-9fc0-38e8cba0d0ec","system_id":"levelo_inurba_marseille","lat":43.30883,"lon":5.3966,"is_reserved":false,"is_disabled":false,"rental_uris":{"android":"levelo://app?vid=0b90443b-1c14-45db-9fc0-38e8cba0d0ec","ios":"levelo://app?vid=0b90443b-1c14-45db-9fc0-38e8cba0d0ec"},"vehicle_type_id":"4","last_reported":1714911150,"current_range_meters":0,"station_id":"ce4bh012rcd13ifvqcv0","pricing_plan_id":"cebpf4jnsgd1na2vs0mg"},{"bike_id":"576b7e02-336c-46eb-bbdd-4e78e545789d","system_id":"levelo_inurba_marseille","lat":43.302008,"lon":5.394694,"is_reserved":false,"is_disabled":false,"rental_uris":{"android":"levelo://app?vid=576b7e02-336c-46eb-bbdd-4e78e545789d","ios":"levelo://app?vid=576b7e02-336c-46eb-bbdd-4e78e545789d"},"vehicle_type_id":"4","last_reported":1714911150,"current_range_meters":2400,"station_id":"ce4bh0p2rcd13ifvqd70","pricing_plan_id":"cebpf4jnsgd1na2vs0mg"},{"bike_id":"27a262f0-9175-476b-826c-ab3a1e2bed56","system_id":"levelo_inurba_marseille","lat":43.290624,"lon":5.359245,"is_reserved":false,"is_disabled":false,"rental_uris":{"android":"levelo://app?vid=27a262f0-9175-476b-826c-ab3a1e2bed56","ios":"levelo://app?vid=27a262f0-9175-476b-826c-ab3a1e2bed56"},"vehicle_type_id":"4","last_reported":1714911150,"current_range_meters":31200,"station_id":"ce4bha92rcd13ifvqeg0","pricing_plan_id":"cebpf4jnsgd1na2vs0mg"},{"bike_id":"faa4b455-6c83-4e73-a432-79cfdd81fd9d","system_id":"levelo_inurba_marseille","lat":43.289184,"lon":5.366408,"is_reserved":false,"is_disabled":false,"rental_uris":{"android":"levelo://app?vid=faa4b455-6c83-4e73-a432-79cfdd81fd9d","ios":"levelo://app?vid=faa4b455-6c83-4e73-a432-79cfdd81fd9d"},"vehicle_type_id":"4","last_reported":1714911150,"current_range_meters":8000,"station_id":"ce4bhap2rcd13ifvqek0","pricing_plan_id":"cebpf4jnsgd1na2vs0mg"},{"bike_id":"4adc805e-e1cc-445c-9535-5162d2f9a674","system_id":"levelo_inurba_marseille","lat":43.290631,"lon":5.359244,"is_reserved":false,"is_disabled":false,"rental_uris":{"android":"levelo://app?vid=4adc805e-e1cc-445c-9535-5162d2f9a674","ios":"levelo://app?vid=4adc805e-e1cc-445c-9535-5162d2f9a674"},"vehicle_type_id":"4","last_reported":1714911150,"current_range_meters":23600,"station_id":"ce4bha92rcd13ifvqeg0","pricing_plan_id":"cebpf4jnsgd1na2vs0mg"},{"bike_id":"f8ea10b1-d25c-4588-ba54-c71f0652fe4a","system_id":"levelo_inurba_marseille","lat":43.290624,"lon":5.359245,"is_reserved":false,"is_disabled":false,"rental_uris":{"android":"levelo://app?vid=f8ea10b1-d25c-4588-ba54-c71f0652fe4a","ios":"levelo://app?vid=f8ea10b1-d25c-4588-ba54-c71f0652fe4a"},"vehicle_type_id":"4","last_reported":1714911150,"current_range_meters":30000,"station_id":"ce4bha92rcd13ifvqeg0","pricing_plan_id":"cebpf4jnsgd1na2vs0mg"},{"bike_id":"49db9a99-0d32-41ba-8914-72474a32c4eb","system_id":"levelo_inurba_marseille","lat":43.290103,"lon":5.372473,"is_reserved":false,"is_disabled":false,"rental_uris":{"android":"levelo://app?vid=49db9a99-0d32-41ba-8914-72474a32c4eb","ios":"levelo://app?vid=49db9a99-0d32-41ba-8914-72474a32c4eb"},"vehicle_type_id":"4","last_reported":1714911150,"current_range_meters":25200,"station_id":"","pricing_plan_id":"cebpf4jnsgd1na2vs0mg"},{"bike_id":"d608af47-7df7-44ec-8f4b-579e11738c36","system_id":"levelo_inurba_marseille","lat":43.290631,"lon":5.359244,"is_reserved":false,"is_disabled":false,"rental_uris":{"android":"levelo://app?vid=d608af47-7df7-44ec-8f4b-579e11738c36","ios":"levelo://app?vid=d608af47-7df7-44ec-8f4b-579e11738c36"},"vehicle_type_id":"4","last_reported":1714911150,"current_range_meters":27600,"station_id":"ce4bha92rcd13ifvqeg0","pricing_plan_id":"cebpf4jnsgd1na2vs0mg"},{"bike_id":"5a417f17-6e4a-4e4a-b21c-29a428a53c11","system_id":"levelo_inurba_marseille","lat":43.290631,"lon":5.359244,"is_reserved":false,"is_disabled":false,"rental_uris":{"android":"levelo://app?vid=5a417f17-6e4a-4e4a-b21c-29a428a53c11","ios":"levelo://app?vid=5a417f17-6e4a-4e4a-b21c-29a428a53c11"},"vehicle_type_id":"4","last_reported":1714911150,"current_range_meters":28400,"station_id":"ce4bha92rcd13ifvqeg0","pricing_plan_id":"cebpf4jnsgd1na2vs0mg"},{"bike_id":"0021845c-e190-48ba-a6d5-c87522967253","system_id":"levelo_inurba_marseille","lat":43.290319,"lon":5.375732,"is_reserved":false,"is_disabled":false,"rental_uris":{"android":"levelo://app?vid=0021845c-e190-48ba-a6d5-c87522967253","ios":"levelo://app?vid=0021845c-e190-48ba-a6d5-c87522967253"},"vehicle_type_id":"4","last_reported":1714911150,"current_range_meters":19200,"station_id":"ce4bh692rcd13ifvqe90","pricing_plan_id":"cebpf4jnsgd1na2vs0mg"},{"bike_id":"e66389ab-1c02-4aeb-babb-ff7fff85d166","system_id":"levelo_inurba_marseille","lat":43.294162,"lon":5.386292,"is_reserved":false,"is_disabled":false,"rental_uris":{"android":"levelo://app?vid=e66389ab-1c02-4aeb-babb-ff7fff85d166","ios":"levelo://app?vid=e66389ab-1c02-4aeb-babb-ff7fff85d166"},"vehicle_type_id":"4","last_reported":1714911150,"current_range_meters":22000,"station_id":"ce4bh2h2rcd13ifvqdh0","pricing_plan_id":"cebpf4jnsgd1na2vs0mg"},{"bike_id":"c1fe59f9-500c-4f9d-b9f8-87b9a380803a","system_id":"levelo_inurba_marseille","lat":43.28946,"lon":5.36628,"is_reserved":false,"is_disabled":false,"rental_uris":{"android":"levelo://app?vid=c1fe59f9-500c-4f9d-b9f8-87b9a380803a","ios":"levelo://app?vid=c1fe59f9-500c-4f9d-b9f8-87b9a380803a"},"vehicle_type_id":"4","last_reported":1714911150,"current_range_meters":12800,"station_id":"ce4bhap2rcd13ifvqek0","pricing_plan_id":"cebpf4jnsgd1na2vs0mg"},{"bike_id":"9f0f963e-e4d3-470c-b9f0-d49a4f5d5c38","system_id":"levelo_inurba_marseille","lat":43.28943,"lon":5.36642,"is_reserved":false,"is_disabled":false,"rental_uris":{"android":"levelo://app?vid=9f0f963e-e4d3-470c-b9f0-d49a4f5d5c38","ios":"levelo://app?vid=9f0f963e-e4d3-470c-b9f0-d49a4f5d5c38"},"vehicle_type_id":"4","last_reported":1714911150,"current_range_meters":0,"station_id":"ce4bhap2rcd13ifvqek0","pricing_plan_id":"cebpf4jnsgd1na2vs0mg"},{"bike_id":"51a1f588-ca70-4f47-abca-17cd4de691cf","system_id":"levelo_inurba_marseille","lat":43.289184,"lon":5.366408,"is_reserved":false,"is_disabled":false,"rental_uris":{"android":"levelo://app?vid=51a1f588-ca70-4f47-abca-17cd4de691cf","ios":"levelo://app?vid=51a1f588-ca70-4f47-abca-17cd4de691cf"},"vehicle_type_id":"4","last_reported":1714911150,"current_range_meters":26400,"station_id":"ce4bhap2rcd13ifvqek0","pricing_plan_id":"cebpf4jnsgd1na2vs0mg"},{"bike_id":"c7169b86-a770-44e1-9e69-1c5987739078","system_id":"levelo_inurba_marseille","lat":43.290319,"lon":5.375732,"is_reserved":false,"is_disabled":false,"rental_uris":{"android":"levelo://app?vid=c7169b86-a770-44e1-9e69-1c5987739078","ios":"levelo://app?vid=c7169b86-a770-44e1-9e69-1c5987739078"},"vehicle_type_id":"4","last_reported":1714911150,"current_range_meters":26800,"station_id":"ce4bh692rcd13ifvqe90","pricing_plan_id":"cebpf4jnsgd1na2vs0mg"},{"bike_id":"a773f4ff-2198-427a-8d55-b10bcdc0592d","system_id":"levelo_inurba_marseille","lat":43.289184,"lon":5.366408,"is_reserved":false,"is_disabled":false,"rental_uris":{"android":"levelo://app?vid=a773f4ff-2198-427a-8d55-b10bcdc0592d","ios":"levelo://app?vid=a773f4ff-2198-427a-8d55-b10bcdc0592d"},"vehicle_type_id":"4","last_reported":1714911150,"current_range_meters":5600,"station_id":"ce4bhap2rcd13ifvqek0","pricing_plan_id":"cebpf4jnsgd1na2vs0mg"},{"bike_id":"1a69219b-1b1c-4bf6-8047-0b0abbab9137","system_id":"levelo_inurba_marseille","lat":43.289184,"lon":5.366408,"is_reserved":false,"is_disabled":false,"rental_uris":{"android":"levelo://app?vid=1a69219b-1b1c-4bf6-8047-0b0abbab9137","ios":"levelo://app?vid=1a69219b-1b1c-4bf6-8047-0b0abbab9137"},"vehicle_type_id":"4","last_reported":1714911150,"current_range_meters":23600,"station_id":"ce4bhap2rcd13ifvqek0","pricing_plan_id":"cebpf4jnsgd1na2vs0mg"},{"bike_id":"18659ab3-07ec-48ef-859a-c4a77b78c50f","system_id":"levelo_inurba_marseille","lat":43.289468,"lon":5.363719,"is_reserved":false,"is_disabled":false,"rental_uris":{"android":"levelo://app?vid=18659ab3-07ec-48ef-859a-c4a77b78c50f","ios":"levelo://app?vid=18659ab3-07ec-48ef-859a-c4a77b78c50f"},"vehicle_type_id":"4","last_reported":1714911150,"current_range_meters":0,"station_id":"ce4bhc92rcd13ifvqetg","pricing_plan_id":"cebpf4jnsgd1na2vs0mg"},{"bike_id":"3fd791a7-e3c7-42e7-9c2e-f3015d8a4c6a","system_id":"levelo_inurba_marseille","lat":43.289468,"lon":5.363719,"is_reserved":false,"is_disabled":false,"rental_uris":{"android":"levelo://app?vid=3fd791a7-e3c7-42e7-9c2e-f3015d8a4c6a","ios":"levelo://app?vid=3fd791a7-e3c7-42e7-9c2e-f3015d8a4c6a"},"vehicle_type_id":"4","last_reported":1714911150,"current_range_meters":26000,"station_id":"ce4bhc92rcd13ifvqetg","pricing_plan_id":"cebpf4jnsgd1na2vs0mg"},{"bike_id":"85968208-e41d-4d2d-991f-0216425a81e1","system_id":"levelo_inurba_marseille","lat":43.289468,"lon":5.363719,"is_reserved":false,"is_disabled":false,"rental_uris":{"android":"levelo://app?vid=85968208-e41d-4d2d-991f-0216425a81e1","ios":"levelo://app?vid=85968208-e41d-4d2d-991f-0216425a81e1"},"vehicle_type_id":"4","last_reported":1714911150,"current_range_meters":22400,"station_id":"ce4bhc92rcd13ifvqetg","pricing_plan_id":"cebpf4jnsgd1na2vs0mg"},{"bike_id":"aca26eb7-1603-446f-b4c8-c1e7e7d0f2cb","system_id":"levelo_inurba_marseille","lat":43.289468,"lon":5.363719,"is_reserved":false,"is_disabled":false,"rental_uris":{"android":"levelo://app?vid=aca26eb7-1603-446f-b4c8-c1e7e7d0f2cb","ios":"levelo://app?vid=aca26eb7-1603-446f-b4c8-c1e7e7d0f2cb"},"vehicle_type_id":"4","last_reported":1714911150,"current_range_meters":17200,"station_id":"ce4bhc92rcd13ifvqetg","pricing_plan_id":"cebpf4jnsgd1na2vs0mg"},{"bike_id":"66e3c699-9298-4bcb-bd78-279eb1729d41","system_id":"levelo_inurba_marseille","lat":43.289468,"lon":5.363719,"is_reserved":false,"is_disabled":false,"rental_uris":{"android":"levelo://app?vid=66e3c699-9298-4bcb-bd78-279eb1729d41","ios":"levelo://app?vid=66e3c699-9298-4bcb-bd78-279eb1729d41"},"vehicle_type_id":"4","last_reported":1714911150,"current_range_meters":2000,"station_id":"ce4bhc92rcd13ifvqetg","pricing_plan_id":"cebpf4jnsgd1na2vs0mg"},{"bike_id":"3204287d-3ec5-4f32-b899-9048d76d2b0e","system_id":"levelo_inurba_marseille","lat":43.292644,"lon":5.384257,"is_reserved":false,"is_disabled":false,"rental_uris":{"android":"levelo://app?vid=3204287d-3ec5-4f32-b899-9048d76d2b0e","ios":"levelo://app?vid=3204287d-3ec5-4f32-b899-9048d76d2b0e"},"vehicle_type_id":"4","last_reported":1714911150,"current_range_meters":26800,"station_id":"ce4bh692rcd13ifvqea0","pricing_plan_id":"cebpf4jnsgd1na2vs0mg"},{"bike_id":"bcc493fb-66ae-47d0-a555-98be92fb603f","system_id":"levelo_inurba_marseille","lat":43.29263,"lon":5.38449,"is_reserved":false,"is_disabled":false,"rental_uris":{"android":"levelo://app?vid=bcc493fb-66ae-47d0-a555-98be92fb603f","ios":"levelo://app?vid=bcc493fb-66ae-47d0-a555-98be92fb603f"},"vehicle_type_id":"4","last_reported":1714911150,"current_range_meters":0,"station_id":"ce4bh692rcd13ifvqea0","pricing_plan_id":"cebpf4jnsgd1na2vs0mg"},{"bike_id":"24e2042d-e2e7-4e40-8d26-7bb553e4ae42","system_id":"levelo_inurba_marseille","lat":43.29262,"lon":5.38447,"is_reserved":false,"is_disabled":false,"rental_uris":{"android":"levelo://app?vid=24e2042d-e2e7-4e40-8d26-7bb553e4ae42","ios":"levelo://app?vid=24e2042d-e2e7-4e40-8d26-7bb553e4ae42"},"vehicle_type_id":"4","last_reported":1714911150,"current_range_meters":0,"station_id":"ce4bh692rcd13ifvqea0","pricing_plan_id":"cebpf4jnsgd1na2vs0mg"},{"bike_id":"52966865-6806-466c-9c70-92a774218b79","system_id":"levelo_inurba_marseille","lat":43.290104,"lon":5.356111,"is_reserved":false,"is_disabled":false,"rental_uris":{"android":"levelo://app?vid=52966865-6806-466c-9c70-92a774218b79","ios":"levelo://app?vid=52966865-6806-466c-9c70-92a774218b79"},"vehicle_type_id":"4","last_reported":1714911150,"current_range_meters":22800,"station_id":"ce4bhb92rcd13ifvqen0","pricing_plan_id":"cebpf4jnsgd1na2vs0mg"},{"bike_id":"8f9bf2e8-9f79-4143-aee0-98246f7b25fb","system_id":"levelo_inurba_marseille","lat":43.290104,"lon":5.356111,"is_reserved":false,"is_disabled":false,"rental_uris":{"android":"levelo://app?vid=8f9bf2e8-9f79-4143-aee0-98246f7b25fb","ios":"levelo://app?vid=8f9bf2e8-9f79-4143-aee0-98246f7b25fb"},"vehicle_type_id":"4","last_reported":1714911150,"current_range_meters":16800,"station_id":"ce4bhb92rcd13ifvqen0","pricing_plan_id":"cebpf4jnsgd1na2vs0mg"},{"bike_id":"3b3606a3-cc67-4c78-905a-35e34d5a1f29","system_id":"levelo_inurba_marseille","lat":43.290104,"lon":5.356111,"is_reserved":false,"is_disabled":false,"rental_uris":{"android":"levelo://app?vid=3b3606a3-cc67-4c78-905a-35e34d5a1f29","ios":"levelo://app?vid=3b3606a3-cc67-4c78-905a-35e34d5a1f29"},"vehicle_type_id":"4","last_reported":1714911150,"current_range_meters":26000,"station_id":"ce4bhb92rcd13ifvqen0","pricing_plan_id":"cebpf4jnsgd1na2vs0mg"},{"bike_id":"2bacd75f-2e43-4046-9e8d-515af341f147","system_id":"levelo_inurba_marseille","lat":43.29004,"lon":5.35616,"is_reserved":false,"is_disabled":false,"rental_uris":{"android":"levelo://app?vid=2bacd75f-2e43-4046-9e8d-515af341f147","ios":"levelo://app?vid=2bacd75f-2e43-4046-9e8d-515af341f147"},"vehicle_type_id":"4","last_reported":1714911150,"current_range_meters":8800,"station_id":"ce4bhb92rcd13ifvqen0","pricing_plan_id":"cebpf4jnsgd1na2vs0mg"},{"bike_id":"c6310c55-2a14-49b3-8d28-385b03a96856","system_id":"levelo_inurba_marseille","lat":43.290103,"lon":5.356114,"is_reserved":false,"is_disabled":false,"rental_uris":{"android":"levelo://app?vid=c6310c55-2a14-49b3-8d28-385b03a96856","ios":"levelo://app?vid=c6310c55-2a14-49b3-8d28-385b03a96856"},"vehicle_type_id":"4","last_reported":1714911150,"current_range_meters":8400,"station_id":"ce4bhb92rcd13ifvqen0","pricing_plan_id":"cebpf4jnsgd1na2vs0mg"},{"bike_id":"7a3bd2b9-85f5-4698-ac9a-f7b39ba5c65e","system_id":"levelo_inurba_marseille","lat":43.290995,"lon":5.381361,"is_reserved":false,"is_disabled":false,"rental_uris":{"android":"levelo://app?vid=7a3bd2b9-85f5-4698-ac9a-f7b39ba5c65e","ios":"levelo://app?vid=7a3bd2b9-85f5-4698-ac9a-f7b39ba5c65e"},"vehicle_type_id":"4","last_reported":1714911150,"current_range_meters":30000,"station_id":"ce4bh512rcd13ifvqe2g","pricing_plan_id":"cebpf4jnsgd1na2vs0mg"},{"bike_id":"5a9899d7-dfb2-4f40-9e52-310d75c9423a","system_id":"levelo_inurba_marseille","lat":43.289184,"lon":5.366408,"is_reserved":false,"is_disabled":false,"rental_uris":{"android":"levelo://app?vid=5a9899d7-dfb2-4f40-9e52-310d75c9423a","ios":"levelo://app?vid=5a9899d7-dfb2-4f40-9e52-310d75c9423a"},"vehicle_type_id":"4","last_reported":1714911150,"current_range_meters":26400,"station_id":"ce4bhap2rcd13ifvqek0","pricing_plan_id":"cebpf4jnsgd1na2vs0mg"},{"bike_id":"e67a479b-83c4-473f-9af9-6cfaf73dcba4","system_id":"levelo_inurba_marseille","lat":43.290995,"lon":5.381361,"is_reserved":false,"is_disabled":false,"rental_uris":{"android":"levelo://app?vid=e67a479b-83c4-473f-9af9-6cfaf73dcba4","ios":"levelo://app?vid=e67a479b-83c4-473f-9af9-6cfaf73dcba4"},"vehicle_type_id":"4","last_reported":1714911150,"current_range_meters":12000,"station_id":"ce4bh512rcd13ifvqe2g","pricing_plan_id":"cebpf4jnsgd1na2vs0mg"},{"bike_id":"35f86c37-f8ed-4e9b-a5d1-6c032de14145","system_id":"levelo_inurba_marseille","lat":43.330442,"lon":5.389148,"is_reserved":false,"is_disabled":false,"rental_uris":{"android":"levelo://app?vid=35f86c37-f8ed-4e9b-a5d1-6c032de14145","ios":"levelo://app?vid=35f86c37-f8ed-4e9b-a5d1-6c032de14145"},"vehicle_type_id":"4","last_reported":1714911150,"current_range_meters":18000,"station_id":"ce4bhr92rcd13ifvqhrg","pricing_plan_id":"cebpf4jnsgd1na2vs0mg"},{"bike_id":"014bcaf9-7ad8-4fc7-8d1a-e3a7fcd980c7","system_id":"levelo_inurba_marseille","lat":43.330442,"lon":5.389148,"is_reserved":false,"is_disabled":false,"rental_uris":{"android":"levelo://app?vid=014bcaf9-7ad8-4fc7-8d1a-e3a7fcd980c7","ios":"levelo://app?vid=014bcaf9-7ad8-4fc7-8d1a-e3a7fcd980c7"},"vehicle_type_id":"4","last_reported":1714911150,"current_range_meters":31600,"station_id":"ce4bhr92rcd13ifvqhrg","pricing_plan_id":"cebpf4jnsgd1na2vs0mg"},{"bike_id":"605a23a4-5cd4-47ee-ba8b-2827a960c08a","system_id":"levelo_inurba_marseille","lat":43.330442,"lon":5.389148,"is_reserved":false,"is_disabled":false,"rental_uris":{"android":"levelo://app?vid=605a23a4-5cd4-47ee-ba8b-2827a960c08a","ios":"levelo://app?vid=605a23a4-5cd4-47ee-ba8b-2827a960c08a"},"vehicle_type_id":"4","last_reported":1714911150,"current_range_meters":19600,"station_id":"ce4bhr92rcd13ifvqhrg","pricing_plan_id":"cebpf4jnsgd1na2vs0mg"},{"bike_id":"3519bf32-9908-40a2-a8fe-7f84476ba260","system_id":"levelo_inurba_marseille","lat":43.330442,"lon":5.389148,"is_reserved":false,"is_disabled":false,"rental_uris":{"android":"levelo://app?vid=3519bf32-9908-40a2-a8fe-7f84476ba260","ios":"levelo://app?vid=3519bf32-9908-40a2-a8fe-7f84476ba260"},"vehicle_type_id":"4","last_reported":1714911150,"current_range_meters":15200,"station_id":"ce4bhr92rcd13ifvqhrg","pricing_plan_id":"cebpf4jnsgd1na2vs0mg"},{"bike_id":"22cf14a4-f3a1-429f-ad5d-16b162b67729","system_id":"levelo_inurba_marseille","lat":43.3375,"lon":5.37453,"is_reserved":false,"is_disabled":false,"rental_uris":{"android":"levelo://app?vid=22cf14a4-f3a1-429f-ad5d-16b162b67729","ios":"levelo://app?vid=22cf14a4-f3a1-429f-ad5d-16b162b67729"},"vehicle_type_id":"4","last_reported":1714911150,"current_range_meters":4800,"station_id":"","pricing_plan_id":"cebpf4jnsgd1na2vs0mg"},{"bike_id":"01b1b7bd-5dbd-4411-9455-bdf092035ec7","system_id":"levelo_inurba_marseille","lat":43.33747,"lon":5.3748,"is_reserved":false,"is_disabled":false,"rental_uris":{"android":"levelo://app?vid=01b1b7bd-5dbd-4411-9455-bdf092035ec7","ios":"levelo://app?vid=01b1b7bd-5dbd-4411-9455-bdf092035ec7"},"vehicle_type_id":"4","last_reported":1714911150,"current_range_meters":21200,"station_id":"","pricing_plan_id":"cebpf4jnsgd1na2vs0mg"},{"bike_id":"c2965c40-030a-407b-a472-fca5d0db2691","system_id":"levelo_inurba_marseille","lat":43.33747,"lon":5.37484,"is_reserved":false,"is_disabled":false,"rental_uris":{"android":"levelo://app?vid=c2965c40-030a-407b-a472-fca5d0db2691","ios":"levelo://app?vid=c2965c40-030a-407b-a472-fca5d0db2691"},"vehicle_type_id":"4","last_reported":1714911150,"current_range_meters":21200,"station_id":"","pricing_plan_id":"cebpf4jnsgd1na2vs0mg"},{"bike_id":"b7173264-767a-4600-82d6-2fe1ae1d4552","system_id":"levelo_inurba_marseille","lat":43.33755,"lon":5.37485,"is_reserved":false,"is_disabled":false,"rental_uris":{"android":"levelo://app?vid=b7173264-767a-4600-82d6-2fe1ae1d4552","ios":"levelo://app?vid=b7173264-767a-4600-82d6-2fe1ae1d4552"},"vehicle_type_id":"4","last_reported":1714911150,"current_range_meters":30000,"station_id":"","pricing_plan_id":"cebpf4jnsgd1na2vs0mg"},{"bike_id":"ca8ccd4d-487c-497a-8708-408020f6855c","system_id":"levelo_inurba_marseille","lat":43.337669,"lon":5.374325,"is_reserved":false,"is_disabled":false,"rental_uris":{"android":"levelo://app?vid=ca8ccd4d-487c-497a-8708-408020f6855c","ios":"levelo://app?vid=ca8ccd4d-487c-497a-8708-408020f6855c"},"vehicle_type_id":"4","last_reported":1714911150,"current_range_meters":19200,"station_id":"","pricing_plan_id":"cebpf4jnsgd1na2vs0mg"},{"bike_id":"9fa7e43a-e533-4ab6-825c-ced5df24beb9","system_id":"levelo_inurba_marseille","lat":43.301117,"lon":5.398795,"is_reserved":false,"is_disabled":false,"rental_uris":{"android":"levelo://app?vid=9fa7e43a-e533-4ab6-825c-ced5df24beb9","ios":"levelo://app?vid=9fa7e43a-e533-4ab6-825c-ced5df24beb9"},"vehicle_type_id":"4","last_reported":1714911150,"current_range_meters":17600,"station_id":"ce4bh0h2rcd13ifvqd40","pricing_plan_id":"cebpf4jnsgd1na2vs0mg"},{"bike_id":"8f3866d0-4681-406f-b6c4-098b59faa3a4","system_id":"levelo_inurba_marseille","lat":43.301117,"lon":5.398795,"is_reserved":false,"is_disabled":false,"rental_uris":{"android":"levelo://app?vid=8f3866d0-4681-406f-b6c4-098b59faa3a4","ios":"levelo://app?vid=8f3866d0-4681-406f-b6c4-098b59faa3a4"},"vehicle_type_id":"4","last_reported":1714911150,"current_range_meters":2000,"station_id":"ce4bh0h2rcd13ifvqd40","pricing_plan_id":"cebpf4jnsgd1na2vs0mg"},{"bike_id":"699e15ca-f693-4d79-8ab7-0e5720c17ced","system_id":"levelo_inurba_marseille","lat":43.28727,"lon":5.36078,"is_reserved":false,"is_disabled":false,"rental_uris":{"android":"levelo://app?vid=699e15ca-f693-4d79-8ab7-0e5720c17ced","ios":"levelo://app?vid=699e15ca-f693-4d79-8ab7-0e5720c17ced"},"vehicle_type_id":"4","last_reported":1714911150,"current_range_meters":28800,"station_id":"cki0cbj6b192h4jlfktg","pricing_plan_id":"cebpf4jnsgd1na2vs0mg"},{"bike_id":"3451f8bb-8187-4117-8eee-a9d95bfa5d9d","system_id":"levelo_inurba_marseille","lat":43.295194,"lon":5.39397,"is_reserved":false,"is_disabled":false,"rental_uris":{"android":"levelo://app?vid=3451f8bb-8187-4117-8eee-a9d95bfa5d9d","ios":"levelo://app?vid=3451f8bb-8187-4117-8eee-a9d95bfa5d9d"},"vehicle_type_id":"4","last_reported":1714911150,"current_range_meters":18400,"station_id":"ce4bh292rcd13ifvqdf0","pricing_plan_id":"cebpf4jnsgd1na2vs0mg"},{"bike_id":"9277ac42-d05e-473e-9882-85afd4ea785e","system_id":"levelo_inurba_marseille","lat":43.286591,"lon":5.363346,"is_reserved":false,"is_disabled":false,"rental_uris":{"android":"levelo://app?vid=9277ac42-d05e-473e-9882-85afd4ea785e","ios":"levelo://app?vid=9277ac42-d05e-473e-9882-85afd4ea785e"},"vehicle_type_id":"4","last_reported":1714911150,"current_range_meters":25200,"station_id":"ce4bhah2rcd13ifvqej0","pricing_plan_id":"cebpf4jnsgd1na2vs0mg"},{"bike_id":"54302110-19c5-4fb9-bcca-45210d7fe5ea","system_id":"levelo_inurba_marseille","lat":43.290336,"lon":5.386425,"is_reserved":false,"is_disabled":false,"rental_uris":{"android":"levelo://app?vid=54302110-19c5-4fb9-bcca-45210d7fe5ea","ios":"levelo://app?vid=54302110-19c5-4fb9-bcca-45210d7fe5ea"},"vehicle_type_id":"4","last_reported":1714911150,"current_range_meters":16800,"station_id":"ce4bh4p2rcd13ifvqe0g","pricing_plan_id":"cebpf4jnsgd1na2vs0mg"},{"bike_id":"73301b07-d885-4285-94b0-01f7408b6ca2","system_id":"levelo_inurba_marseille","lat":43.302759,"lon":5.400793,"is_reserved":false,"is_disabled":false,"rental_uris":{"android":"levelo://app?vid=73301b07-d885-4285-94b0-01f7408b6ca2","ios":"levelo://app?vid=73301b07-d885-4285-94b0-01f7408b6ca2"},"vehicle_type_id":"4","last_reported":1714911150,"current_range_meters":24800,"station_id":"ce4bgvh2rcd13ifvqcs0","pricing_plan_id":"cebpf4jnsgd1na2vs0mg"},{"bike_id":"055c68d2-cf0f-4ac6-be5b-7c0d5c331cb9","system_id":"levelo_inurba_marseille","lat":43.302759,"lon":5.400793,"is_reserved":false,"is_disabled":false,"rental_uris":{"android":"levelo://app?vid=055c68d2-cf0f-4ac6-be5b-7c0d5c331cb9","ios":"levelo://app?vid=055c68d2-cf0f-4ac6-be5b-7c0d5c331cb9"},"vehicle_type_id":"4","last_reported":1714911150,"current_range_meters":6400,"station_id":"ce4bgvh2rcd13ifvqcs0","pricing_plan_id":"cebpf4jnsgd1na2vs0mg"},{"bike_id":"e65910c3-ebde-4dda-a7fe-d5b79045cd58","system_id":"levelo_inurba_marseille","lat":43.302759,"lon":5.400793,"is_reserved":false,"is_disabled":false,"rental_uris":{"android":"levelo://app?vid=e65910c3-ebde-4dda-a7fe-d5b79045cd58","ios":"levelo://app?vid=e65910c3-ebde-4dda-a7fe-d5b79045cd58"},"vehicle_type_id":"4","last_reported":1714911150,"current_range_meters":7600,"station_id":"ce4bgvh2rcd13ifvqcs0","pricing_plan_id":"cebpf4jnsgd1na2vs0mg"},{"bike_id":"5d7f9ff1-be44-443a-9fd3-47cfeb0abc7b","system_id":"levelo_inurba_marseille","lat":43.286039,"lon":5.370681,"is_reserved":false,"is_disabled":false,"rental_uris":{"android":"levelo://app?vid=5d7f9ff1-be44-443a-9fd3-47cfeb0abc7b","ios":"levelo://app?vid=5d7f9ff1-be44-443a-9fd3-47cfeb0abc7b"},"vehicle_type_id":"4","last_reported":1714911150,"current_range_meters":12400,"station_id":"ce4bht12rcd13ifvqi60","pricing_plan_id":"cebpf4jnsgd1na2vs0mg"},{"bike_id":"330b0f18-a050-4d54-a9e4-af5791afee87","system_id":"levelo_inurba_marseille","lat":43.286039,"lon":5.370681,"is_reserved":false,"is_disabled":false,"rental_uris":{"android":"levelo://app?vid=330b0f18-a050-4d54-a9e4-af5791afee87","ios":"levelo://app?vid=330b0f18-a050-4d54-a9e4-af5791afee87"},"vehicle_type_id":"4","last_reported":1714911150,"current_range_meters":19600,"station_id":"ce4bht12rcd13ifvqi60","pricing_plan_id":"cebpf4jnsgd1na2vs0mg"},{"bike_id":"65a353ca-d68a-4857-b367-e09cdda408f8","system_id":"levelo_inurba_marseille","lat":43.287184,"lon":5.37937,"is_reserved":false,"is_disabled":false,"rental_uris":{"android":"levelo://app?vid=65a353ca-d68a-4857-b367-e09cdda408f8","ios":"levelo://app?vid=65a353ca-d68a-4857-b367-e09cdda408f8"},"vehicle_type_id":"4","last_reported":1714911150,"current_range_meters":10000,"station_id":"ce4bh9p2rcd13ifvqec0","pricing_plan_id":"cebpf4jnsgd1na2vs0mg"},{"bike_id":"26b1e7f6-c8b4-4233-92e9-56454ae76888","system_id":"levelo_inurba_marseille","lat":43.287184,"lon":5.37937,"is_reserved":false,"is_disabled":false,"rental_uris":{"android":"levelo://app?vid=26b1e7f6-c8b4-4233-92e9-56454ae76888","ios":"levelo://app?vid=26b1e7f6-c8b4-4233-92e9-56454ae76888"},"vehicle_type_id":"4","last_reported":1714911150,"current_range_meters":18800,"station_id":"ce4bh9p2rcd13ifvqec0","pricing_plan_id":"cebpf4jnsgd1na2vs0mg"},{"bike_id":"ac19dea2-60f1-4f3a-a06a-fcb22265daef","system_id":"levelo_inurba_marseille","lat":43.287993,"lon":5.38271,"is_reserved":false,"is_disabled":false,"rental_uris":{"android":"levelo://app?vid=ac19dea2-60f1-4f3a-a06a-fcb22265daef","ios":"levelo://app?vid=ac19dea2-60f1-4f3a-a06a-fcb22265daef"},"vehicle_type_id":"4","last_reported":1714911150,"current_range_meters":15600,"station_id":"","pricing_plan_id":"cebpf4jnsgd1na2vs0mg"},{"bike_id":"a9529a76-dfe7-4bec-ad38-5b58036f04e5","system_id":"levelo_inurba_marseille","lat":43.316828,"lon":5.404723,"is_reserved":false,"is_disabled":false,"rental_uris":{"android":"levelo://app?vid=a9529a76-dfe7-4bec-ad38-5b58036f04e5","ios":"levelo://app?vid=a9529a76-dfe7-4bec-ad38-5b58036f04e5"},"vehicle_type_id":"4","last_reported":1714911150,"current_range_meters":29600,"station_id":"ce4bh012rcd13ifvqd00","pricing_plan_id":"cebpf4jnsgd1na2vs0mg"},{"bike_id":"6eb56cd0-90f7-4f8f-85c1-edf75a10b5d6","system_id":"levelo_inurba_marseille","lat":43.316828,"lon":5.404723,"is_reserved":false,"is_disabled":false,"rental_uris":{"android":"levelo://app?vid=6eb56cd0-90f7-4f8f-85c1-edf75a10b5d6","ios":"levelo://app?vid=6eb56cd0-90f7-4f8f-85c1-edf75a10b5d6"},"vehicle_type_id":"4","last_reported":1714911150,"current_range_meters":14800,"station_id":"ce4bh012rcd13ifvqd00","pricing_plan_id":"cebpf4jnsgd1na2vs0mg"},{"bike_id":"4149e6b6-215e-4d62-867a-0d85e997b879","system_id":"levelo_inurba_marseille","lat":43.316821,"lon":5.404737,"is_reserved":false,"is_disabled":false,"rental_uris":{"android":"levelo://app?vid=4149e6b6-215e-4d62-867a-0d85e997b879","ios":"levelo://app?vid=4149e6b6-215e-4d62-867a-0d85e997b879"},"vehicle_type_id":"4","last_reported":1714911150,"current_range_meters":30400,"station_id":"ce4bh012rcd13ifvqd00","pricing_plan_id":"cebpf4jnsgd1na2vs0mg"},{"bike_id":"8d4e9ec6-9fbe-4b07-a862-1d9d0c8e9420","system_id":"levelo_inurba_marseille","lat":43.316828,"lon":5.404723,"is_reserved":false,"is_disabled":false,"rental_uris":{"android":"levelo://app?vid=8d4e9ec6-9fbe-4b07-a862-1d9d0c8e9420","ios":"levelo://app?vid=8d4e9ec6-9fbe-4b07-a862-1d9d0c8e9420"},"vehicle_type_id":"4","last_reported":1714911150,"current_range_meters":6000,"station_id":"ce4bh012rcd13ifvqd00","pricing_plan_id":"cebpf4jnsgd1na2vs0mg"},{"bike_id":"b0935d2b-a00a-485f-a947-340e63a0bebe","system_id":"levelo_inurba_marseille","lat":43.316828,"lon":5.404723,"is_reserved":false,"is_disabled":false,"rental_uris":{"android":"levelo://app?vid=b0935d2b-a00a-485f-a947-340e63a0bebe","ios":"levelo://app?vid=b0935d2b-a00a-485f-a947-340e63a0bebe"},"vehicle_type_id":"4","last_reported":1714911150,"current_range_meters":18800,"station_id":"ce4bh012rcd13ifvqd00","pricing_plan_id":"cebpf4jnsgd1na2vs0mg"},{"bike_id":"99683e69-9825-4781-8f84-fe09fc161bb4","system_id":"levelo_inurba_marseille","lat":43.316828,"lon":5.404723,"is_reserved":false,"is_disabled":false,"rental_uris":{"android":"levelo://app?vid=99683e69-9825-4781-8f84-fe09fc161bb4","ios":"levelo://app?vid=99683e69-9825-4781-8f84-fe09fc161bb4"},"vehicle_type_id":"4","last_reported":1714911150,"current_range_meters":31200,"station_id":"ce4bh012rcd13ifvqd00","pricing_plan_id":"cebpf4jnsgd1na2vs0mg"},{"bike_id":"4f6c1d35-39e2-4e76-9228-44b7bb6b324e","system_id":"levelo_inurba_marseille","lat":43.316821,"lon":5.404737,"is_reserved":false,"is_disabled":false,"rental_uris":{"android":"levelo://app?vid=4f6c1d35-39e2-4e76-9228-44b7bb6b324e","ios":"levelo://app?vid=4f6c1d35-39e2-4e76-9228-44b7bb6b324e"},