{"last_updated":1701209211,"ttl":30,"version":"2.2","data":{"bikes":[{"bike_id":"6a78dc6b-bd89-4971-8aa2-eb52196ff78d","system_id":"levelo_inurba_marseille","lat":43.309076,"lon":5.368465,"is_reserved":false,"is_disabled":false,"rental_uris":{"android":"levelo://app?vid=6a78dc6b-bd89-4971-8aa2-eb52196ff78d","ios":"levelo://app?vid=6a78dc6b-bd89-4971-8aa2-eb52196ff78d"},"vehicle_type_id":"4","last_reported":1701209211,"current_range_meters":2000,"station_id":"ce4bgn92rcd13ifvqbvg","pricing_plan_id":"free"},{"bike_id":"d58f65ab-cd7f-47e8-a377-14c73a06b08e","system_id":"levelo_inurba_marseille","lat":43.309076,"lon":5.368465,"is_reserved":false,"is_disabled":false,"rental_uris":{"android":"levelo://app?vid=d58f65ab-cd7f-47e8-a377-14c73a06b08e","ios":"levelo://app?vid=d58f65ab-cd7f-47e8-a377-14c73a06b08e"},"vehicle_type_id":"4","last_reported":1701209211,"current_range_meters":9200,"station_id":"ce4bgn92rcd13ifvqbvg","pricing_plan_id":"free"},{"bike_id":"e5930290-4de9-4592-b0ff-1380d2b4e48e","system_id":"levelo_inurba_marseille","lat":43.31346,"lon":5.37635,"is_reserved":false,"is_disabled":false,"rental_uris":{"android":"levelo://app?vid=e5930290-4de9-4592-b0ff-1380d2b4e48e","ios":"levelo://app?vid=e5930290-4de9-4592-b0ff-1380d2b4e48e"},"vehicle_type_id":"4","last_reported":1701209211,"current_range_meters":26000,"station_id":"","pricing_plan_id":"free"},{"bike_id":"1f3ac414-ce46-4010-b946-2357ae3ea287","system_id":"levelo_inurba_marseille","lat":43.305989,"lon":5.37225,"is_reserved":false,"is_disabled":false,"rental_uris":{"android":"levelo://app?vid=1f3ac414-ce46-4010-b946-2357ae3ea287","ios":"levelo://app?vid=1f3ac414-ce46-4010-b946-2357ae3ea287"},"vehicle_type_id":"4","last_reported":1701209211,"current_range_meters":17600,"station_id":"ce4bgqh2rcd13ifvqc4g","pricing_plan_id":"free"},{"bike_id":"693434c5-6ab8-4013-8bbb-6d413c22db57","system_id":"levelo_inurba_marseille","lat":43.311133,"lon":5.377637,"is_reserved":false,"is_disabled":false,"rental_uris":{"android":"levelo://app?vid=693434c5-6ab8-4013-8bbb-6d413c22db57","ios":"levelo://app?vid=693434c5-6ab8-4013-8bbb-6d413c22db57"},"vehicle_type_id":"4","last_reported":1701209211,"current_range_meters":26000,"station_id":"ce4bgt92rcd13ifvqcg0","pricing_plan_id":"free"},{"bike_id":"3b7e1955-a9ed-4748-b4e1-a6dd908a36fe","system_id":"levelo_inurba_marseille","lat":43.311131,"lon":5.377651,"is_reserved":false,"is_disabled":false,"rental_uris":{"android":"levelo://app?vid=3b7e1955-a9ed-4748-b4e1-a6dd908a36fe","ios":"levelo://app?vid=3b7e1955-a9ed-4748-b4e1-a6dd908a36fe"},"vehicle_type_id":"4","last_reported":1701209211,"current_range_meters":13200,"station_id":"ce4bgt92rcd13ifvqcg0","pricing_plan_id":"free"},{"bike_id":"a9589584-f17d-45b3-af4b-f41df50b74f6","system_id":"levelo_inurba_marseille","lat":43.311131,"lon":5.377651,"is_reserved":false,"is_disabled":false,"rental_uris":{"android":"levelo://app?vid=a9589584-f17d-45b3-af4b-f41df50b74f6","ios":"levelo://app?vid=a9589584-f17d-45b3-af4b-f41df50b74f6"},"vehicle_type_id":"4","last_reported":1701209211,"current_range_meters":18000,"station_id":"ce4bgt92rcd13ifvqcg0","pricing_plan_id":"free"},{"bike_id":"45b3ff23-a937-45d9-9f96-088c308c0189","system_id":"levelo_inurba_marseille","lat":43.30819,"lon":5.376584,"is_reserved":false,"is_disabled":false,"rental_uris":{"android":"levelo://app?vid=45b3ff23-a937-45d9-9f96-088c308c0189","ios":"levelo://app?vid=45b3ff23-a937-45d9-9f96-088c308c0189"},"vehicle_type_id":"4","last_reported":1701209211,"current_range_meters":12400,"station_id":"ce4bgv92rcd13ifvqcq0","pricing_plan_id":"free"},{"bike_id":"f427a2c3-6e4a-446b-ae2f-9be8aa7f4122","system_id":"levelo_inurba_marseille","lat":43.31719,"lon":5.376813,"is_reserved":false,"is_disabled":false,"rental_uris":{"android":"levelo://app?vid=f427a2c3-6e4a-446b-ae2f-9be8aa7f4122","ios":"levelo://app?vid=f427a2c3-6e4a-446b-ae2f-9be8aa7f4122"},"vehicle_type_id":"4","last_reported":1701209211,"current_range_meters":12000,"station_id":"ce4bgth2rcd13ifvqch0","pricing_plan_id":"free"},{"bike_id":"e913f328-1e31-4c22-bd87-f809ea246de4","system_id":"levelo_inurba_marseille","lat":43.317168,"lon":5.376883,"is_reserved":false,"is_disabled":false,"rental_uris":{"android":"levelo://app?vid=e913f328-1e31-4c22-bd87-f809ea246de4","ios":"levelo://app?vid=e913f328-1e31-4c22-bd87-f809ea246de4"},"vehicle_type_id":"4","last_reported":1701209211,"current_range_meters":14400,"station_id":"ce4bgth2rcd13ifvqch0","pricing_plan_id":"free"},{"bike_id":"65efaea0-45e5-4ea1-8d1b-e52a0f544898","system_id":"levelo_inurba_marseille","lat":43.31526,"lon":5.38037,"is_reserved":false,"is_disabled":false,"rental_uris":{"android":"levelo://app?vid=65efaea0-45e5-4ea1-8d1b-e52a0f544898","ios":"levelo://app?vid=65efaea0-45e5-4ea1-8d1b-e52a0f544898"},"vehicle_type_id":"4","last_reported":1701209211,"current_range_meters":13600,"station_id":"ce4bhsp2rcd13ifvqi50","pricing_plan_id":"free"},{"bike_id":"3e09080e-9db5-4c48-951f-c5f672a60264","system_id":"levelo_inurba_marseille","lat":43.321653,"lon":5.374611,"is_reserved":false,"is_disabled":false,"rental_uris":{"android":"levelo://app?vid=3e09080e-9db5-4c48-951f-c5f672a60264","ios":"levelo://app?vid=3e09080e-9db5-4c48-951f-c5f672a60264"},"vehicle_type_id":"4","last_reported":1701209211,"current_range_meters":11200,"station_id":"","pricing_plan_id":"free"},{"bike_id":"8b1d4c1e-ce31-46e4-9c7f-64e98f26a61b","system_id":"levelo_inurba_marseille","lat":43.301939,"lon":5.366286,"is_reserved":false,"is_disabled":false,"rental_uris":{"android":"levelo://app?vid=8b1d4c1e-ce31-46e4-9c7f-64e98f26a61b","ios":"levelo://app?vid=8b1d4c1e-ce31-46e4-9c7f-64e98f26a61b"},"vehicle_type_id":"4","last_reported":1701209211,"current_range_meters":20000,"station_id":"ce4bgrh2rcd13ifvqc8g","pricing_plan_id":"free"},{"bike_id":"5536d231-5ae3-4067-9b17-6c2a4250041e","system_id":"levelo_inurba_marseille","lat":43.301939,"lon":5.366286,"is_reserved":false,"is_disabled":false,"rental_uris":{"android":"levelo://app?vid=5536d231-5ae3-4067-9b17-6c2a4250041e","ios":"levelo://app?vid=5536d231-5ae3-4067-9b17-6c2a4250041e"},"vehicle_type_id":"4","last_reported":1701209211,"current_range_meters":18000,"station_id":"ce4bgrh2rcd13ifvqc8g","pricing_plan_id":"free"},{"bike_id":"99806532-4f3c-43f1-aa27-7b16871be399","system_id":"levelo_inurba_marseille","lat":43.308012,"lon":5.381511,"is_reserved":false,"is_disabled":false,"rental_uris":{"android":"levelo://app?vid=99806532-4f3c-43f1-aa27-7b16871be399","ios":"levelo://app?vid=99806532-4f3c-43f1-aa27-7b16871be399"},"vehicle_type_id":"4","last_reported":1701209211,"current_range_meters":10400,"station_id":"ce4bgt12rcd13ifvqce0","pricing_plan_id":"free"},{"bike_id":"affd89ff-8a62-4420-80cf-4139d187ca2b","system_id":"levelo_inurba_marseille","lat":43.308012,"lon":5.381511,"is_reserved":false,"is_disabled":false,"rental_uris":{"android":"levelo://app?vid=affd89ff-8a62-4420-80cf-4139d187ca2b","ios":"levelo://app?vid=affd89ff-8a62-4420-80cf-4139d187ca2b"},"vehicle_type_id":"4","last_reported":1701209211,"current_range_meters":28400,"station_id":"ce4bgt12rcd13ifvqce0","pricing_plan_id":"free"},{"bike_id":"a69fd2f5-7eec-4306-9fec-2ec11c64aaa3","system_id":"levelo_inurba_marseille","lat":43.304606,"lon":5.379026,"is_reserved":false,"is_disabled":false,"rental_uris":{"android":"levelo://app?vid=a69fd2f5-7eec-4306-9fec-2ec11c64aaa3","ios":"levelo://app?vid=a69fd2f5-7eec-4306-9fec-2ec11c64aaa3"},"vehicle_type_id":"4","last_reported":1701209211,"current_range_meters":1200,"station_id":"ce4bgup2rcd13ifvqcn0","pricing_plan_id":"free"},{"bike_id":"5715a9c8-9d8f-4eaf-82a9-ce48688f7ea1","system_id":"levelo_inurba_marseille","lat":43.324771,"lon":5.36557,"is_reserved":false,"is_disabled":false,"rental_uris":{"android":"levelo://app?vid=5715a9c8-9d8f-4eaf-82a9-ce48688f7ea1","ios":"levelo://app?vid=5715a9c8-9d8f-4eaf-82a9-ce48688f7ea1"},"vehicle_type_id":"4","last_reported":1701209211,"current_range_meters":22800,"station_id":"ce4bhs12rcd13ifvqhvg","pricing_plan_id":"free"},{"bike_id":"d68ff592-86e3-4859-947a-8e3e5c81913c","system_id":"levelo_inurba_marseille","lat":43.31998,"lon":5.38146,"is_reserved":false,"is_disabled":false,"rental_uris":{"android":"levelo://app?vid=d68ff592-86e3-4859-947a-8e3e5c81913c","ios":"levelo://app?vid=d68ff592-86e3-4859-947a-8e3e5c81913c"},"vehicle_type_id":"4","last_reported":1701209211,"current_range_meters":28000,"station_id":"ce4bhr12rcd13ifvqhpg","pricing_plan_id":"free"},{"bike_id":"fe400203-0e74-4ac8-be23-aae1cfb55c86","system_id":"levelo_inurba_marseille","lat":43.31997,"lon":5.38165,"is_reserved":false,"is_disabled":false,"rental_uris":{"android":"levelo://app?vid=fe400203-0e74-4ac8-be23-aae1cfb55c86","ios":"levelo://app?vid=fe400203-0e74-4ac8-be23-aae1cfb55c86"},"vehicle_type_id":"4","last_reported":1701209211,"current_range_meters":4000,"station_id":"ce4bhr12rcd13ifvqhpg","pricing_plan_id":"free"},{"bike_id":"c3add042-f7ec-4c84-9c66-c895e1a6e483","system_id":"levelo_inurba_marseille","lat":43.313571,"lon":5.384829,"is_reserved":false,"is_disabled":false,"rental_uris":{"android":"levelo://app?vid=c3add042-f7ec-4c84-9c66-c895e1a6e483","ios":"levelo://app?vid=c3add042-f7ec-4c84-9c66-c895e1a6e483"},"vehicle_type_id":"4","last_reported":1701209211,"current_range_meters":20400,"station_id":"ce4bgt92rcd13ifvqcf0","pricing_plan_id":"free"},{"bike_id":"4ef2de5b-130e-42dd-8287-b03daacbc3fc","system_id":"levelo_inurba_marseille","lat":43.313571,"lon":5.384829,"is_reserved":false,"is_disabled":false,"rental_uris":{"android":"levelo://app?vid=4ef2de5b-130e-42dd-8287-b03daacbc3fc","ios":"levelo://app?vid=4ef2de5b-130e-42dd-8287-b03daacbc3fc"},"vehicle_type_id":"4","last_reported":1701209211,"current_range_meters":20000,"station_id":"ce4bgt92rcd13ifvqcf0","pricing_plan_id":"free"},{"bike_id":"48a116e6-ed22-47cd-b8c6-45fd21f826c7","system_id":"levelo_inurba_marseille","lat":43.313571,"lon":5.384829,"is_reserved":false,"is_disabled":false,"rental_uris":{"android":"levelo://app?vid=48a116e6-ed22-47cd-b8c6-45fd21f826c7","ios":"levelo://app?vid=48a116e6-ed22-47cd-b8c6-45fd21f826c7"},"vehicle_type_id":"4","last_reported":1701209211,"current_range_meters":30000,"station_id":"ce4bgt92rcd13ifvqcf0","pricing_plan_id":"free"},{"bike_id":"1dcc2ec7-4594-4040-bc23-6e799cb21a38","system_id":"levelo_inurba_marseille","lat":43.31166,"lon":5.3871,"is_reserved":false,"is_disabled":false,"rental_uris":{"android":"levelo://app?vid=1dcc2ec7-4594-4040-bc23-6e799cb21a38","ios":"levelo://app?vid=1dcc2ec7-4594-4040-bc23-6e799cb21a38"},"vehicle_type_id":"4","last_reported":1701209211,"current_range_meters":0,"station_id":"ce4bgv12rcd13ifvqcp0","pricing_plan_id":"free"},{"bike_id":"68c5792c-3743-46b0-ba80-ead5661e1a6c","system_id":"levelo_inurba_marseille","lat":43.311722,"lon":5.387247,"is_reserved":false,"is_disabled":false,"rental_uris":{"android":"levelo://app?vid=68c5792c-3743-46b0-ba80-ead5661e1a6c","ios":"levelo://app?vid=68c5792c-3743-46b0-ba80-ead5661e1a6c"},"vehicle_type_id":"4","last_reported":1701209211,"current_range_meters":27200,"station_id":"ce4bgv12rcd13ifvqcp0","pricing_plan_id":"free"},{"bike_id":"dde9573c-4814-4f74-b8b9-833c95159df4","system_id":"levelo_inurba_marseille","lat":43.305364,"lon":5.384119,"is_reserved":false,"is_disabled":false,"rental_uris":{"android":"levelo://app?vid=dde9573c-4814-4f74-b8b9-833c95159df4","ios":"levelo://app?vid=dde9573c-4814-4f74-b8b9-833c95159df4"},"vehicle_type_id":"4","last_reported":1701209211,"current_range_meters":22000,"station_id":"ce4bgg92rcd13ifvqb30","pricing_plan_id":"free"},{"bike_id":"9804742e-51ba-40e4-b6e4-2bc503553944","system_id":"levelo_inurba_marseille","lat":43.311722,"lon":5.387247,"is_reserved":false,"is_disabled":false,"rental_uris":{"android":"levelo://app?vid=9804742e-51ba-40e4-b6e4-2bc503553944","ios":"levelo://app?vid=9804742e-51ba-40e4-b6e4-2bc503553944"},"vehicle_type_id":"4","last_reported":1701209211,"current_range_meters":23200,"station_id":"ce4bgv12rcd13ifvqcp0","pricing_plan_id":"free"},{"bike_id":"9346bbfa-61ae-460c-bf8b-bd4460ad5997","system_id":"levelo_inurba_marseille","lat":43.299243,"lon":5.37481,"is_reserved":false,"is_disabled":false,"rental_uris":{"android":"levelo://app?vid=9346bbfa-61ae-460c-bf8b-bd4460ad5997","ios":"levelo://app?vid=9346bbfa-61ae-460c-bf8b-bd4460ad5997"},"vehicle_type_id":"4","last_reported":1701209211,"current_range_meters":25200,"station_id":"ce4bgjh2rcd13ifvqbg0","pricing_plan_id":"free"},{"bike_id":"a71b2f34-318b-4592-88f6-64cd41f77214","system_id":"levelo_inurba_marseille","lat":43.311722,"lon":5.387247,"is_reserved":false,"is_disabled":false,"rental_uris":{"android":"levelo://app?vid=a71b2f34-318b-4592-88f6-64cd41f77214","ios":"levelo://app?vid=a71b2f34-318b-4592-88f6-64cd41f77214"},"vehicle_type_id":"4","last_reported":1701209211,"current_range_meters":22400,"station_id":"ce4bgv12rcd13ifvqcp0","pricing_plan_id":"free"},{"bike_id":"e4a9c53c-a5c4-40f8-8bc7-660fa7ff6c7b","system_id":"levelo_inurba_marseille","lat":43.31164,"lon":5.38722,"is_reserved":false,"is_disabled":false,"rental_uris":{"android":"levelo://app?vid=e4a9c53c-a5c4-40f8-8bc7-660fa7ff6c7b","ios":"levelo://app?vid=e4a9c53c-a5c4-40f8-8bc7-660fa7ff6c7b"},"vehicle_type_id":"4","last_reported":1701209211,"current_range_meters":28400,"station_id":"ce4bgv12rcd13ifvqcp0","pricing_plan_id":"free"},{"bike_id":"f89c1227-8f76-44ce-9200-4881f1b223d0","system_id":"levelo_inurba_marseille","lat":43.297926,"lon":5.371092,"is_reserved":false,"is_disabled":false,"rental_uris":{"android":"levelo://app?vid=f89c1227-8f76-44ce-9200-4881f1b223d0","ios":"levelo://app?vid=f89c1227-8f76-44ce-9200-4881f1b223d0"},"vehicle_type_id":"4","last_reported":1701209211,"current_range_meters":0,"station_id":"ce4bgop2rcd13ifvqc1g","pricing_plan_id":"free"},{"bike_id":"8081422b-eb2a-4176-bcd7-b5a29f16164d","system_id":"levelo_inurba_marseille","lat":43.322872,"lon":5.382756,"is_reserved":false,"is_disabled":false,"rental_uris":{"android":"levelo://app?vid=8081422b-eb2a-4176-bcd7-b5a29f16164d","ios":"levelo://app?vid=8081422b-eb2a-4176-bcd7-b5a29f16164d"},"vehicle_type_id":"4","last_reported":1701209211,"current_range_meters":3600,"station_id":"ce4bhr12rcd13ifvqhqg","pricing_plan_id":"free"},{"bike_id":"cb54d4b8-7480-4085-b908-47a3fdf1a7c6","system_id":"levelo_inurba_marseille","lat":43.328371,"lon":5.366909,"is_reserved":false,"is_disabled":false,"rental_uris":{"android":"levelo://app?vid=cb54d4b8-7480-4085-b908-47a3fdf1a7c6","ios":"levelo://app?vid=cb54d4b8-7480-4085-b908-47a3fdf1a7c6"},"vehicle_type_id":"4","last_reported":1701209211,"current_range_meters":20800,"station_id":"ce4bhs92rcd13ifvqi0g","pricing_plan_id":"free"},{"bike_id":"c63a7a0a-77c8-431f-918b-d1d42950431e","system_id":"levelo_inurba_marseille","lat":43.297163,"lon":5.365866,"is_reserved":false,"is_disabled":false,"rental_uris":{"android":"levelo://app?vid=c63a7a0a-77c8-431f-918b-d1d42950431e","ios":"levelo://app?vid=c63a7a0a-77c8-431f-918b-d1d42950431e"},"vehicle_type_id":"4","last_reported":1701209211,"current_range_meters":24800,"station_id":"ce4bgn12rcd13ifvqbt0","pricing_plan_id":"free"},{"bike_id":"7dc02b47-8d61-4206-bac7-38260c1d3db5","system_id":"levelo_inurba_marseille","lat":43.297163,"lon":5.365866,"is_reserved":false,"is_disabled":false,"rental_uris":{"android":"levelo://app?vid=7dc02b47-8d61-4206-bac7-38260c1d3db5","ios":"levelo://app?vid=7dc02b47-8d61-4206-bac7-38260c1d3db5"},"vehicle_type_id":"4","last_reported":1701209211,"current_range_meters":22800,"station_id":"ce4bgn12rcd13ifvqbt0","pricing_plan_id":"free"},{"bike_id":"fe23aa38-58ce-4796-afb0-951db9fd75db","system_id":"levelo_inurba_marseille","lat":43.2968,"lon":5.37291,"is_reserved":false,"is_disabled":false,"rental_uris":{"android":"levelo://app?vid=fe23aa38-58ce-4796-afb0-951db9fd75db","ios":"levelo://app?vid=fe23aa38-58ce-4796-afb0-951db9fd75db"},"vehicle_type_id":"4","last_reported":1701209211,"current_range_meters":21600,"station_id":"ce4bgk12rcd13ifvqbj0","pricing_plan_id":"free"},{"bike_id":"e1930370-40c8-4259-9c88-837b9b67a8a5","system_id":"levelo_inurba_marseille","lat":43.2968,"lon":5.37291,"is_reserved":false,"is_disabled":false,"rental_uris":{"android":"levelo://app?vid=e1930370-40c8-4259-9c88-837b9b67a8a5","ios":"levelo://app?vid=e1930370-40c8-4259-9c88-837b9b67a8a5"},"vehicle_type_id":"4","last_reported":1701209211,"current_range_meters":27200,"station_id":"ce4bgk12rcd13ifvqbj0","pricing_plan_id":"free"},{"bike_id":"9f0f067c-4570-4779-9fe7-642e24984182","system_id":"levelo_inurba_marseille","lat":43.296196,"lon":5.365416,"is_reserved":false,"is_disabled":false,"rental_uris":{"android":"levelo://app?vid=9f0f067c-4570-4779-9fe7-642e24984182","ios":"levelo://app?vid=9f0f067c-4570-4779-9fe7-642e24984182"},"vehicle_type_id":"4","last_reported":1701209211,"current_range_meters":18000,"station_id":"","pricing_plan_id":"free"},{"bike_id":"a6f1295c-9587-4400-8f91-1ca806a0cbc6","system_id":"levelo_inurba_marseille","lat":43.295953,"lon":5.367907,"is_reserved":false,"is_disabled":false,"rental_uris":{"android":"levelo://app?vid=a6f1295c-9587-4400-8f91-1ca806a0cbc6","ios":"levelo://app?vid=a6f1295c-9587-4400-8f91-1ca806a0cbc6"},"vehicle_type_id":"4","last_reported":1701209211,"current_range_meters":12800,"station_id":"ce4bgph2rcd13ifvqc2g","pricing_plan_id":"free"},{"bike_id":"f18bc88e-e450-409b-be07-7c88c3ef7fe7","system_id":"levelo_inurba_marseille","lat":43.299028,"lon":5.381509,"is_reserved":false,"is_disabled":false,"rental_uris":{"android":"levelo://app?vid=f18bc88e-e450-409b-be07-7c88c3ef7fe7","ios":"levelo://app?vid=f18bc88e-e450-409b-be07-7c88c3ef7fe7"},"vehicle_type_id":"4","last_reported":1701209211,"current_range_meters":25600,"station_id":"ce4bgj12rcd13ifvqbc0","pricing_plan_id":"free"},{"bike_id":"e14efa79-e933-4b26-9270-81100cc3b221","system_id":"levelo_inurba_marseille","lat":43.309589,"lon":5.390258,"is_reserved":false,"is_disabled":false,"rental_uris":{"android":"levelo://app?vid=e14efa79-e933-4b26-9270-81100cc3b221","ios":"levelo://app?vid=e14efa79-e933-4b26-9270-81100cc3b221"},"vehicle_type_id":"4","last_reported":1701209211,"current_range_meters":22800,"station_id":"ce4bgup2rcd13ifvqco0","pricing_plan_id":"free"},{"bike_id":"a4ae3bec-e25e-46a9-b2a7-6bd8fd58629c","system_id":"levelo_inurba_marseille","lat":43.309589,"lon":5.390258,"is_reserved":false,"is_disabled":false,"rental_uris":{"android":"levelo://app?vid=a4ae3bec-e25e-46a9-b2a7-6bd8fd58629c","ios":"levelo://app?vid=a4ae3bec-e25e-46a9-b2a7-6bd8fd58629c"},"vehicle_type_id":"4","last_reported":1701209211,"current_range_meters":18800,"station_id":"ce4bgup2rcd13ifvqco0","pricing_plan_id":"free"},{"bike_id":"8f299497-70a8-401f-93be-170e16cf8bed","system_id":"levelo_inurba_marseille","lat":43.298037,"lon":5.381066,"is_reserved":false,"is_disabled":false,"rental_uris":{"android":"levelo://app?vid=8f299497-70a8-401f-93be-170e16cf8bed","ios":"levelo://app?vid=8f299497-70a8-401f-93be-170e16cf8bed"},"vehicle_type_id":"4","last_reported":1701209211,"current_range_meters":16800,"station_id":"ce4bgip2rcd13ifvqbb0","pricing_plan_id":"free"},{"bike_id":"deed4d43-28f2-4d1d-8bf8-dda5b349a92c","system_id":"levelo_inurba_marseille","lat":43.295405,"lon":5.374385,"is_reserved":false,"is_disabled":false,"rental_uris":{"android":"levelo://app?vid=deed4d43-28f2-4d1d-8bf8-dda5b349a92c","ios":"levelo://app?vid=deed4d43-28f2-4d1d-8bf8-dda5b349a92c"},"vehicle_type_id":"4","last_reported":1701209211,"current_range_meters":17200,"station_id":"","pricing_plan_id":"free"},{"bike_id":"f989f32f-c0b2-41f4-8072-11700ae25251","system_id":"levelo_inurba_marseille","lat":43.29611,"lon":5.3772,"is_reserved":false,"is_disabled":false,"rental_uris":{"android":"levelo://app?vid=f989f32f-c0b2-41f4-8072-11700ae25251","ios":"levelo://app?vid=f989f32f-c0b2-41f4-8072-11700ae25251"},"vehicle_type_id":"4","last_reported":1701209211,"current_range_meters":0,"station_id":"ce4bgi92rcd13ifvqb90","pricing_plan_id":"free"},{"bike_id":"3d419e9d-b8c6-45cd-ab11-2df46924ca6f","system_id":"levelo_inurba_marseille","lat":43.29524,"lon":5.375,"is_reserved":false,"is_disabled":false,"rental_uris":{"android":"levelo://app?vid=3d419e9d-b8c6-45cd-ab11-2df46924ca6f","ios":"levelo://app?vid=3d419e9d-b8c6-45cd-ab11-2df46924ca6f"},"vehicle_type_id":"4","last_reported":1701209211,"current_range_meters":12400,"station_id":"ce4bgkp2rcd13ifvqbmg","pricing_plan_id":"free"},{"bike_id":"b6c6bb59-1d9b-444a-a833-0a76a1ad2e3d","system_id":"levelo_inurba_marseille","lat":43.299724,"lon":5.384848,"is_reserved":false,"is_disabled":false,"rental_uris":{"android":"levelo://app?vid=b6c6bb59-1d9b-444a-a833-0a76a1ad2e3d","ios":"levelo://app?vid=b6c6bb59-1d9b-444a-a833-0a76a1ad2e3d"},"vehicle_type_id":"4","last_reported":1701209211,"current_range_meters":800,"station_id":"ce4bgj92rcd13ifvqbd0","pricing_plan_id":"free"},{"bike_id":"654cb503-31ae-4c28-95f5-504790df9112","system_id":"levelo_inurba_marseille","lat":43.293249,"lon":5.371578,"is_reserved":false,"is_disabled":false,"rental_uris":{"android":"levelo://app?vid=654cb503-31ae-4c28-95f5-504790df9112","ios":"levelo://app?vid=654cb503-31ae-4c28-95f5-504790df9112"},"vehicle_type_id":"4","last_reported":1701209211,"current_range_meters":28000,"station_id":"ce4bgh92rcd13ifvqb40","pricing_plan_id":"free"},{"bike_id":"79d2d864-7cdb-4ffd-92e7-8d4a93da6a85","system_id":"levelo_inurba_marseille","lat":43.29279,"lon":5.36837,"is_reserved":false,"is_disabled":false,"rental_uris":{"android":"levelo://app?vid=79d2d864-7cdb-4ffd-92e7-8d4a93da6a85","ios":"levelo://app?vid=79d2d864-7cdb-4ffd-92e7-8d4a93da6a85"},"vehicle_type_id":"4","last_reported":1701209211,"current_range_meters":22400,"station_id":"ce4bhbp2rcd13ifvqesg","pricing_plan_id":"free"},{"bike_id":"98a0d279-845e-4a3d-8246-1963f1e58b62","system_id":"levelo_inurba_marseille","lat":43.29277,"lon":5.36839,"is_reserved":false,"is_disabled":false,"rental_uris":{"android":"levelo://app?vid=98a0d279-845e-4a3d-8246-1963f1e58b62","ios":"levelo://app?vid=98a0d279-845e-4a3d-8246-1963f1e58b62"},"vehicle_type_id":"4","last_reported":1701209211,"current_range_meters":12400,"station_id":"ce4bhbp2rcd13ifvqesg","pricing_plan_id":"free"},{"bike_id":"c9864a09-4e20-4bb4-a1d7-73aacd94f84d","system_id":"levelo_inurba_marseille","lat":43.292749,"lon":5.368402,"is_reserved":false,"is_disabled":false,"rental_uris":{"android":"levelo://app?vid=c9864a09-4e20-4bb4-a1d7-73aacd94f84d","ios":"levelo://app?vid=c9864a09-4e20-4bb4-a1d7-73aacd94f84d"},"vehicle_type_id":"4","last_reported":1701209211,"current_range_meters":2000,"station_id":"ce4bhbp2rcd13ifvqesg","pricing_plan_id":"free"},{"bike_id":"0ced8749-6999-48d8-8a13-25945247925e","system_id":"levelo_inurba_marseille","lat":43.302992,"lon":5.392136,"is_reserved":false,"is_disabled":false,"rental_uris":{"android":"levelo://app?vid=0ced8749-6999-48d8-8a13-25945247925e","ios":"levelo://app?vid=0ced8749-6999-48d8-8a13-25945247925e"},"vehicle_type_id":"4","last_reported":1701209211,"current_range_meters":4800,"station_id":"ce4bgkh2rcd13ifvqbk0","pricing_plan_id":"free"},{"bike_id":"b3f35058-66f7-4291-b2f5-9f81d8cd2104","system_id":"levelo_inurba_marseille","lat":43.303002,"lon":5.392142,"is_reserved":false,"is_disabled":false,"rental_uris":{"android":"levelo://app?vid=b3f35058-66f7-4291-b2f5-9f81d8cd2104","ios":"levelo://app?vid=b3f35058-66f7-4291-b2f5-9f81d8cd2104"},"vehicle_type_id":"4","last_reported":1701209211,"current_range_meters":20800,"station_id":"ce4bgkh2rcd13ifvqbk0","pricing_plan_id":"free"},{"bike_id":"cae874b0-8510-421c-99f6-9817777a942a","system_id":"levelo_inurba_marseille","lat":43.2936,"lon":5.37835,"is_reserved":false,"is_disabled":false,"rental_uris":{"android":"levelo://app?vid=cae874b0-8510-421c-99f6-9817777a942a","ios":"levelo://app?vid=cae874b0-8510-421c-99f6-9817777a942a"},"vehicle_type_id":"4","last_reported":1701209211,"current_range_meters":28400,"station_id":"ce4bgjh2rcd13ifvqbf0","pricing_plan_id":"free"},{"bike_id":"8d55da18-4ec4-4e3f-a4c0-a6f6e72e0d2d","system_id":"levelo_inurba_marseille","lat":43.298764,"lon":5.388973,"is_reserved":false,"is_disabled":false,"rental_uris":{"android":"levelo://app?vid=8d55da18-4ec4-4e3f-a4c0-a6f6e72e0d2d","ios":"levelo://app?vid=8d55da18-4ec4-4e3f-a4c0-a6f6e72e0d2d"},"vehicle_type_id":"4","last_reported":1701209211,"current_range_meters":25200,"station_id":"ce4bh392rcd13ifvqdl0","pricing_plan_id":"free"},{"bike_id":"464c462d-d556-4fbb-a60a-bd8981e4208e","system_id":"levelo_inurba_marseille","lat":43.298764,"lon":5.388973,"is_reserved":false,"is_disabled":false,"rental_uris":{"android":"levelo://app?vid=464c462d-d556-4fbb-a60a-bd8981e4208e","ios":"levelo://app?vid=464c462d-d556-4fbb-a60a-bd8981e4208e"},"vehicle_type_id":"4","last_reported":1701209211,"current_range_meters":14000,"station_id":"ce4bh392rcd13ifvqdl0","pricing_plan_id":"free"},{"bike_id":"40389081-d4a4-4bca-8281-a39b3e88a068","system_id":"levelo_inurba_marseille","lat":43.298764,"lon":5.388973,"is_reserved":false,"is_disabled":false,"rental_uris":{"android":"levelo://app?vid=40389081-d4a4-4bca-8281-a39b3e88a068","ios":"levelo://app?vid=40389081-d4a4-4bca-8281-a39b3e88a068"},"vehicle_type_id":"4","last_reported":1701209211,"current_range_meters":18000,"station_id":"ce4bh392rcd13ifvqdl0","pricing_plan_id":"free"},{"bike_id":"5b9a1653-c24e-4a18-b86c-c37e53a4bd66","system_id":"levelo_inurba_marseille","lat":43.291671,"lon":5.371575,"is_reserved":false,"is_disabled":false,"rental_uris":{"android":"levelo://app?vid=5b9a1653-c24e-4a18-b86c-c37e53a4bd66","ios":"levelo://app?vid=5b9a1653-c24e-4a18-b86c-c37e53a4bd66"},"vehicle_type_id":"4","last_reported":1701209211,"current_range_meters":16800,"station_id":"ce4bha92rcd13ifvqeh0","pricing_plan_id":"free"},{"bike_id":"2ff2a6e1-b8d1-4c6b-b55d-0c829e5aecf9","system_id":"levelo_inurba_marseille","lat":43.291675,"lon":5.371583,"is_reserved":false,"is_disabled":false,"rental_uris":{"android":"levelo://app?vid=2ff2a6e1-b8d1-4c6b-b55d-0c829e5aecf9","ios":"levelo://app?vid=2ff2a6e1-b8d1-4c6b-b55d-0c829e5aecf9"},"vehicle_type_id":"4","last_reported":1701209211,"current_range_meters":26000,"station_id":"ce4bha92rcd13ifvqeh0","pricing_plan_id":"free"},{"bike_id":"3061db86-e3bc-4c09-b284-888a9af39789","system_id":"levelo_inurba_marseille","lat":43.30883,"lon":5.39627,"is_reserved":false,"is_disabled":false,"rental_uris":{"android":"levelo://app?vid=3061db86-e3bc-4c09-b284-888a9af39789","ios":"levelo://app?vid=3061db86-e3bc-4c09-b284-888a9af39789"},"vehicle_type_id":"4","last_reported":1701209211,"current_range_meters":30800,"station_id":"ce4bh012rcd13ifvqcv0","pricing_plan_id":"free"},{"bike_id":"192f24b5-d688-48b4-a0ac-81a0c10f9f0e","system_id":"levelo_inurba_marseille","lat":43.30889,"lon":5.39632,"is_reserved":false,"is_disabled":false,"rental_uris":{"android":"levelo://app?vid=192f24b5-d688-48b4-a0ac-81a0c10f9f0e","ios":"levelo://app?vid=192f24b5-d688-48b4-a0ac-81a0c10f9f0e"},"vehicle_type_id":"4","last_reported":1701209211,"current_range_meters":30800,"station_id":"ce4bh012rcd13ifvqcv0","pricing_plan_id":"free"},{"bike_id":"de22a175-8d72-4272-9522-88c8b3371a0b","system_id":"levelo_inurba_marseille","lat":43.30891,"lon":5.39636,"is_reserved":false,"is_disabled":false,"rental_uris":{"android":"levelo://app?vid=de22a175-8d72-4272-9522-88c8b3371a0b","ios":"levelo://app?vid=de22a175-8d72-4272-9522-88c8b3371a0b"},"vehicle_type_id":"4","last_reported":1701209211,"current_range_meters":31200,"station_id":"ce4bh012rcd13ifvqcv0","pricing_plan_id":"free"},{"bike_id":"9ccbe679-5489-4a12-8575-469752b4dbd4","system_id":"levelo_inurba_marseille","lat":43.291994,"lon":5.357886,"is_reserved":false,"is_disabled":false,"rental_uris":{"android":"levelo://app?vid=9ccbe679-5489-4a12-8575-469752b4dbd4","ios":"levelo://app?vid=9ccbe679-5489-4a12-8575-469752b4dbd4"},"vehicle_type_id":"4","last_reported":1701209211,"current_range_meters":17600,"station_id":"ce4bhb12rcd13ifvqel0","pricing_plan_id":"free"},{"bike_id":"beaeac11-0c1d-4aa4-805e-76f096f07c0e","system_id":"levelo_inurba_marseille","lat":43.30891,"lon":5.3964,"is_reserved":false,"is_disabled":false,"rental_uris":{"android":"levelo://app?vid=beaeac11-0c1d-4aa4-805e-76f096f07c0e","ios":"levelo://app?vid=beaeac11-0c1d-4aa4-805e-76f096f07c0e"},"vehicle_type_id":"4","last_reported":1701209211,"current_range_meters":0,"station_id":"ce4bh012rcd13ifvqcv0","pricing_plan_id":"free"},{"bike_id":"48b098ef-f732-4e52-98f6-fb2279f59078","system_id":"levelo_inurba_marseille","lat":43.30888,"lon":5.3964,"is_reserved":false,"is_disabled":false,"rental_uris":{"android":"levelo://app?vid=48b098ef-f732-4e52-98f6-fb2279f59078","ios":"levelo://app?vid=48b098ef-f732-4e52-98f6-fb2279f59078"},"vehicle_type_id":"4","last_reported":1701209211,"current_range_meters":30400,"station_id":"ce4bh012rcd13ifvqcv0","pricing_plan_id":"free"},{"bike_id":"00f782b6-4b18-433b-bc0a-644ef2fb3594","system_id":"levelo_inurba_marseille","lat":43.313291,"lon":5.396838,"is_reserved":false,"is_disabled":false,"rental_uris":{"android":"levelo://app?vid=00f782b6-4b18-433b-bc0a-644ef2fb3594","ios":"levelo://app?vid=00f782b6-4b18-433b-bc0a-644ef2fb3594"},"vehicle_type_id":"4","last_reported":1701209211,"current_range_meters":26400,"station_id":"ce4bgvp2rcd13ifvqcu0","pricing_plan_id":"free"},{"bike_id":"07dfef92-904f-4c33-8c14-53a178d7ae6f","system_id":"levelo_inurba_marseille","lat":43.31323,"lon":5.39692,"is_reserved":false,"is_disabled":false,"rental_uris":{"android":"levelo://app?vid=07dfef92-904f-4c33-8c14-53a178d7ae6f","ios":"levelo://app?vid=07dfef92-904f-4c33-8c14-53a178d7ae6f"},"vehicle_type_id":"4","last_reported":1701209211,"current_range_meters":27600,"station_id":"ce4bgvp2rcd13ifvqcu0","pricing_plan_id":"free"},{"bike_id":"8cdb4370-8586-4238-9b29-a3c35d971c39","system_id":"levelo_inurba_marseille","lat":43.308852,"lon":5.396455,"is_reserved":false,"is_disabled":false,"rental_uris":{"android":"levelo://app?vid=8cdb4370-8586-4238-9b29-a3c35d971c39","ios":"levelo://app?vid=8cdb4370-8586-4238-9b29-a3c35d971c39"},"vehicle_type_id":"4","last_reported":1701209211,"current_range_meters":31200,"station_id":"ce4bh012rcd13ifvqcv0","pricing_plan_id":"free"},{"bike_id":"a431f85e-aab0-4d1e-978a-1b1ee1d4e8ee","system_id":"levelo_inurba_marseille","lat":43.313291,"lon":5.396838,"is_reserved":false,"is_disabled":false,"rental_uris":{"android":"levelo://app?vid=a431f85e-aab0-4d1e-978a-1b1ee1d4e8ee","ios":"levelo://app?vid=a431f85e-aab0-4d1e-978a-1b1ee1d4e8ee"},"vehicle_type_id":"4","last_reported":1701209211,"current_range_meters":12000,"station_id":"ce4bgvp2rcd13ifvqcu0","pricing_plan_id":"free"},{"bike_id":"f44aac3d-c57b-4aa5-b8e1-495822828b73","system_id":"levelo_inurba_marseille","lat":43.29188,"lon":5.358,"is_reserved":false,"is_disabled":false,"rental_uris":{"android":"levelo://app?vid=f44aac3d-c57b-4aa5-b8e1-495822828b73","ios":"levelo://app?vid=f44aac3d-c57b-4aa5-b8e1-495822828b73"},"vehicle_type_id":"4","last_reported":1701209211,"current_range_meters":28000,"station_id":"ce4bhb12rcd13ifvqel0","pricing_plan_id":"free"},{"bike_id":"0f3db77d-e619-4bec-822b-52fedc7db269","system_id":"levelo_inurba_marseille","lat":43.291994,"lon":5.357886,"is_reserved":false,"is_disabled":false,"rental_uris":{"android":"levelo://app?vid=0f3db77d-e619-4bec-822b-52fedc7db269","ios":"levelo://app?vid=0f3db77d-e619-4bec-822b-52fedc7db269"},"vehicle_type_id":"4","last_reported":1701209211,"current_range_meters":16000,"station_id":"ce4bhb12rcd13ifvqel0","pricing_plan_id":"free"},{"bike_id":"e9305fe5-70e7-41f7-9c5f-60b3b1782c29","system_id":"levelo_inurba_marseille","lat":43.30884,"lon":5.396485,"is_reserved":false,"is_disabled":false,"rental_uris":{"android":"levelo://app?vid=e9305fe5-70e7-41f7-9c5f-60b3b1782c29","ios":"levelo://app?vid=e9305fe5-70e7-41f7-9c5f-60b3b1782c29"},"vehicle_type_id":"4","last_reported":1701209211,"current_range_meters":21200,"station_id":"ce4bh012rcd13ifvqcv0","pricing_plan_id":"free"},{"bike_id":"77621d6b-8990-4544-be4b-ead551752d29","system_id":"levelo_inurba_marseille","lat":43.31327,"lon":5.39704,"is_reserved":false,"is_disabled":false,"rental_uris":{"android":"levelo://app?vid=77621d6b-8990-4544-be4b-ead551752d29","ios":"levelo://app?vid=77621d6b-8990-4544-be4b-ead551752d29"},"vehicle_type_id":"4","last_reported":1701209211,"current_range_meters":25200,"station_id":"ce4bgvp2rcd13ifvqcu0","pricing_plan_id":"free"},{"bike_id":"6d682541-e303-48f1-a51f-1a3e63d669b4","system_id":"levelo_inurba_marseille","lat":43.329258,"lon":5.388199,"is_reserved":false,"is_disabled":false,"rental_uris":{"android":"levelo://app?vid=6d682541-e303-48f1-a51f-1a3e63d669b4","ios":"levelo://app?vid=6d682541-e303-48f1-a51f-1a3e63d669b4"},"vehicle_type_id":"4","last_reported":1701209211,"current_range_meters":26400,"station_id":"","pricing_plan_id":"free"},{"bike_id":"c4dcd4f7-f2cb-4af3-bdef-c1e1691770a0","system_id":"levelo_inurba_marseille","lat":43.290631,"lon":5.359244,"is_reserved":false,"is_disabled":false,"rental_uris":{"android":"levelo://app?vid=c4dcd4f7-f2cb-4af3-bdef-c1e1691770a0","ios":"levelo://app?vid=c4dcd4f7-f2cb-4af3-bdef-c1e1691770a0"},"vehicle_type_id":"4","last_reported":1701209211,"current_range_meters":18000,"station_id":"ce4bha92rcd13ifvqeg0","pricing_plan_id":"free"},{"bike_id":"efec9118-b02e-4411-95da-23dc835965b2","system_id":"levelo_inurba_marseille","lat":43.290624,"lon":5.359245,"is_reserved":false,"is_disabled":false,"rental_uris":{"android":"levelo://app?vid=efec9118-b02e-4411-95da-23dc835965b2","ios":"levelo://app?vid=efec9118-b02e-4411-95da-23dc835965b2"},"vehicle_type_id":"4","last_reported":1701209211,"current_range_meters":0,"station_id":"ce4bha92rcd13ifvqeg0","pricing_plan_id":"free"},{"bike_id":"d330530f-c130-4105-aea7-8cef8d6635c7","system_id":"levelo_inurba_marseille","lat":43.290624,"lon":5.359245,"is_reserved":false,"is_disabled":false,"rental_uris":{"android":"levelo://app?vid=d330530f-c130-4105-aea7-8cef8d6635c7","ios":"levelo://app?vid=d330530f-c130-4105-aea7-8cef8d6635c7"},"vehicle_type_id":"4","last_reported":1701209211,"current_range_meters":30000,"station_id":"ce4bha92rcd13ifvqeg0","pricing_plan_id":"free"},{"bike_id":"c80ff3fc-20e2-4a8e-803b-88a06705d9d1","system_id":"levelo_inurba_marseille","lat":43.289397,"lon":5.363906,"is_reserved":false,"is_disabled":false,"rental_uris":{"android":"levelo://app?vid=c80ff3fc-20e2-4a8e-803b-88a06705d9d1","ios":"levelo://app?vid=c80ff3fc-20e2-4a8e-803b-88a06705d9d1"},"vehicle_type_id":"4","last_reported":1701209211,"current_range_meters":28000,"station_id":"ce4bhc92rcd13ifvqetg","pricing_plan_id":"free"},{"bike_id":"65a8c888-aae9-4de8-bb2f-81acb72375a9","system_id":"levelo_inurba_marseille","lat":43.304296,"lon":5.397513,"is_reserved":false,"is_disabled":false,"rental_uris":{"android":"levelo://app?vid=65a8c888-aae9-4de8-bb2f-81acb72375a9","ios":"levelo://app?vid=65a8c888-aae9-4de8-bb2f-81acb72375a9"},"vehicle_type_id":"4","last_reported":1701209211,"current_range_meters":24800,"station_id":"ce4bh092rcd13ifvqd20","pricing_plan_id":"free"},{"bike_id":"04bf2921-4e87-45c0-9bbd-3202969925c7","system_id":"levelo_inurba_marseille","lat":43.290104,"lon":5.356111,"is_reserved":false,"is_disabled":false,"rental_uris":{"android":"levelo://app?vid=04bf2921-4e87-45c0-9bbd-3202969925c7","ios":"levelo://app?vid=04bf2921-4e87-45c0-9bbd-3202969925c7"},"vehicle_type_id":"4","last_reported":1701209211,"current_range_meters":400,"station_id":"ce4bhb92rcd13ifvqen0","pricing_plan_id":"free"},{"bike_id":"f96bd614-22f2-4bad-bb25-012a5223e7ea","system_id":"levelo_inurba_marseille","lat":43.330442,"lon":5.389148,"is_reserved":false,"is_disabled":false,"rental_uris":{"android":"levelo://app?vid=f96bd614-22f2-4bad-bb25-012a5223e7ea","ios":"levelo://app?vid=f96bd614-22f2-4bad-bb25-012a5223e7ea"},"vehicle_type_id":"4","last_reported":1701209211,"current_range_meters":0,"station_id":"ce4bhr92rcd13ifvqhrg","pricing_plan_id":"free"},{"bike_id":"67810528-fb28-41e8-a8bc-9f1e263f753e","system_id":"levelo_inurba_marseille","lat":43.290104,"lon":5.356111,"is_reserved":false,"is_disabled":false,"rental_uris":{"android":"levelo://app?vid=67810528-fb28-41e8-a8bc-9f1e263f753e","ios":"levelo://app?vid=67810528-fb28-41e8-a8bc-9f1e263f753e"},"vehicle_type_id":"4","last_reported":1701209211,"current_range_meters":30000,"station_id":"ce4bhb92rcd13ifvqen0","pricing_plan_id":"free"},{"bike_id":"fc8fcf9f-c687-4daa-87e8-dcdafa5fa665","system_id":"levelo_inurba_marseille","lat":43.29002,"lon":5.35615,"is_reserved":false,"is_disabled":false,"rental_uris":{"android":"levelo://app?vid=fc8fcf9f-c687-4daa-87e8-dcdafa5fa665","ios":"levelo://app?vid=fc8fcf9f-c687-4daa-87e8-dcdafa5fa665"},"vehicle_type_id":"4","last_reported":1701209211,"current_range_meters":31200,"station_id":"ce4bhb92rcd13ifvqen0","pricing_plan_id":"free"},{"bike_id":"e1c7750b-7867-475f-bc65-5c9e541c9931","system_id":"levelo_inurba_marseille","lat":43.29787,"lon":5.39335,"is_reserved":false,"is_disabled":false,"rental_uris":{"android":"levelo://app?vid=e1c7750b-7867-475f-bc65-5c9e541c9931","ios":"levelo://app?vid=e1c7750b-7867-475f-bc65-5c9e541c9931"},"vehicle_type_id":"4","last_reported":1701209211,"current_range_meters":14400,"station_id":"chh1huq6cuj3fo74tm60","pricing_plan_id":"free"},{"bike_id":"e07757d2-abd0-4722-a674-11ae5d0bb077","system_id":"levelo_inurba_marseille","lat":43.297815,"lon":5.393548,"is_reserved":false,"is_disabled":false,"rental_uris":{"android":"levelo://app?vid=e07757d2-abd0-4722-a674-11ae5d0bb077","ios":"levelo://app?vid=e07757d2-abd0-4722-a674-11ae5d0bb077"},"vehicle_type_id":"4","last_reported":1701209211,"current_range_meters":28000,"station_id":"chh1huq6cuj3fo74tm60","pricing_plan_id":"free"},{"bike_id":"19044ca1-968f-451f-a7f3-7efb44a0708f","system_id":"levelo_inurba_marseille","lat":43.28856,"lon":5.358371,"is_reserved":false,"is_disabled":false,"rental_uris":{"android":"levelo://app?vid=19044ca1-968f-451f-a7f3-7efb44a0708f","ios":"levelo://app?vid=19044ca1-968f-451f-a7f3-7efb44a0708f"},"vehicle_type_id":"4","last_reported":1701209211,"current_range_meters":19600,"station_id":"ce4bhb12rcd13ifvqem0","pricing_plan_id":"free"},{"bike_id":"e1ea4410-abaf-48c3-bfac-109caf57fcc9","system_id":"levelo_inurba_marseille","lat":43.28856,"lon":5.358371,"is_reserved":false,"is_disabled":false,"rental_uris":{"android":"levelo://app?vid=e1ea4410-abaf-48c3-bfac-109caf57fcc9","ios":"levelo://app?vid=e1ea4410-abaf-48c3-bfac-109caf57fcc9"},"vehicle_type_id":"4","last_reported":1701209211,"current_range_meters":25200,"station_id":"ce4bhb12rcd13ifvqem0","pricing_plan_id":"free"},{"bike_id":"77b088cb-35f9-460a-9f79-0c93b2db5ec1","system_id":"levelo_inurba_marseille","lat":43.28856,"lon":5.358371,"is_reserved":false,"is_disabled":false,"rental_uris":{"android":"levelo://app?vid=77b088cb-35f9-460a-9f79-0c93b2db5ec1","ios":"levelo://app?vid=77b088cb-35f9-460a-9f79-0c93b2db5ec1"},"vehicle_type_id":"4","last_reported":1701209211,"current_range_meters":10400,"station_id":"ce4bhb12rcd13ifvqem0","pricing_plan_id":"free"},{"bike_id":"ccf3a924-b88a-4ef9-ab2f-2b221c8e50b1","system_id":"levelo_inurba_marseille","lat":43.28856,"lon":5.358371,"is_reserved":false,"is_disabled":false,"rental_uris":{"android":"levelo://app?vid=ccf3a924-b88a-4ef9-ab2f-2b221c8e50b1","ios":"levelo://app?vid=ccf3a924-b88a-4ef9-ab2f-2b221c8e50b1"},"vehicle_type_id":"4","last_reported":1701209211,"current_range_meters":30800,"station_id":"ce4bhb12rcd13ifvqem0","pricing_plan_id":"free"},{"bike_id":"ddf26704-29af-4137-b10b-b42944575399","system_id":"levelo_inurba_marseille","lat":43.28856,"lon":5.358371,"is_reserved":false,"is_disabled":false,"rental_uris":{"android":"levelo://app?vid=ddf26704-29af-4137-b10b-b42944575399","ios":"levelo://app?vid=ddf26704-29af-4137-b10b-b42944575399"},"vehicle_type_id":"4","last_reported":1701209211,"current_range_meters":30000,"station_id":"ce4bhb12rcd13ifvqem0","pricing_plan_id":"free"},{"bike_id":"80003ba4-a760-41f4-941e-70dd3e093dcd","system_id":"levelo_inurba_marseille","lat":43.30085,"lon":5.390856,"is_reserved":false,"is_disabled":false,"rental_uris":{"android":"levelo://app?vid=80003ba4-a760-41f4-941e-70dd3e093dcd","ios":"levelo://app?vid=80003ba4-a760-41f4-941e-70dd3e093dcd"},"vehicle_type_id":"4","last_reported":1701209211,"current_range_meters":21200,"station_id":"ce4bh192rcd13ifvqdb0","pricing_plan_id":"free"},{"bike_id":"1c5cc5d7-140c-4712-84c3-eab4b233cdd7","system_id":"levelo_inurba_marseille","lat":43.31279,"lon":5.401685,"is_reserved":false,"is_disabled":false,"rental_uris":{"android":"levelo://app?vid=1c5cc5d7-140c-4712-84c3-eab4b233cdd7","ios":"levelo://app?vid=1c5cc5d7-140c-4712-84c3-eab4b233cdd7"},"vehicle_type_id":"4","last_reported":1701209211,"current_range_meters":11600,"station_id":"ce4bh092rcd13ifvqd30","pricing_plan_id":"free"},{"bike_id":"c676974d-3d90-40ba-80fe-f46a28fd0516","system_id":"levelo_inurba_marseille","lat":43.309371,"lon":5.401449,"is_reserved":false,"is_disabled":false,"rental_uris":{"android":"levelo://app?vid=c676974d-3d90-40ba-80fe-f46a28fd0516","ios":"levelo://app?vid=c676974d-3d90-40ba-80fe-f46a28fd0516"},"vehicle_type_id":"4","last_reported":1701209211,"current_range_meters":29600,"station_id":"ce4bgvp2rcd13ifvqct0","pricing_plan_id":"free"},{"bike_id":"9342acb8-c439-4936-b729-a82e1f6c08f7","system_id":"levelo_inurba_marseille","lat":43.30642,"lon":5.401031,"is_reserved":false,"is_disabled":false,"rental_uris":{"android":"levelo://app?vid=9342acb8-c439-4936-b729-a82e1f6c08f7","ios":"levelo://app?vid=9342acb8-c439-4936-b729-a82e1f6c08f7"},"vehicle_type_id":"4","last_reported":1701209211,"current_range_meters":28000,"station_id":"ce4bh112rcd13ifvqda0","pricing_plan_id":"free"},{"bike_id":"1c3beea7-a8aa-4f52-a371-ccfdcddb15e1","system_id":"levelo_inurba_marseille","lat":43.33754,"lon":5.37464,"is_reserved":false,"is_disabled":false,"rental_uris":{"android":"levelo://app?vid=1c3beea7-a8aa-4f52-a371-ccfdcddb15e1","ios":"levelo://app?vid=1c3beea7-a8aa-4f52-a371-ccfdcddb15e1"},"vehicle_type_id":"4","last_reported":1701209211,"current_range_meters":23200,"station_id":"","pricing_plan_id":"free"},{"bike_id":"0df8b6ec-6d32-475e-90dd-e684f9a8df9d","system_id":"levelo_inurba_marseille","lat":43.30642,"lon":5.401031,"is_reserved":false,"is_disabled":false,"rental_uris":{"android":"levelo://app?vid=0df8b6ec-6d32-475e-90dd-e684f9a8df9d","ios":"levelo://app?vid=0df8b6ec-6d32-475e-90dd-e684f9a8df9d"},"vehicle_type_id":"4","last_reported":1701209211,"current_range_meters":0,"station_id":"ce4bh112rcd13ifvqda0","pricing_plan_id":"free"},{"bike_id":"d520d2a1-254d-47b7-a9e9-abbeb69b906a","system_id":"levelo_inurba_marseille","lat":43.306412,"lon":5.401035,"is_reserved":false,"is_disabled":false,"rental_uris":{"android":"levelo://app?vid=d520d2a1-254d-47b7-a9e9-abbeb69b906a","ios":"levelo://app?vid=d520d2a1-254d-47b7-a9e9-abbeb69b906a"},"vehicle_type_id":"4","last_reported":1701209211,"current_range_meters":17200,"station_id":"ce4bh112rcd13ifvqda0","pricing_plan_id":"free"},{"bike_id":"838ac1e7-d0f1-42cd-b961-a14daa5cb6fd","system_id":"levelo_inurba_marseille","lat":43.30642,"lon":5.401031,"is_reserved":false,"is_disabled":false,"rental_uris":{"android":"levelo://app?vid=838ac1e7-d0f1-42cd-b961-a14daa5cb6fd","ios":"levelo://app?vid=838ac1e7-d0f1-42cd-b961-a14daa5cb6fd"},"vehicle_type_id":"4","last_reported":1701209211,"current_range_meters":26400,"station_id":"ce4bh112rcd13ifvqda0","pricing_plan_id":"free"},{"bike_id":"b601dd69-d851-46b5-a22a-2632343f3491","system_id":"levelo_inurba_marseille","lat":43.31035,"lon":5.40207,"is_reserved":false,"is_disabled":false,"rental_uris":{"android":"levelo://app?vid=b601dd69-d851-46b5-a22a-2632343f3491","ios":"levelo://app?vid=b601dd69-d851-46b5-a22a-2632343f3491"},"vehicle_type_id":"4","last_reported":1701209211,"current_range_meters":20000,"station_id":"","pricing_plan_id":"free"},{"bike_id":"13a39a0e-08cf-4107-8d5b-a35794c19404","system_id":"levelo_inurba_marseille","lat":43.28727,"lon":5.36078,"is_reserved":false,"is_disabled":false,"rental_uris":{"android":"levelo://app?vid=13a39a0e-08cf-4107-8d5b-a35794c19404","ios":"levelo://app?vid=13a39a0e-08cf-4107-8d5b-a35794c19404"},"vehicle_type_id":"4","last_reported":1701209211,"current_range_meters":28000,"station_id":"cki0cbj6b192h4jlfktg","pricing_plan_id":"free"},{"bike_id":"f53f6587-547a-454c-8f46-beebf264c4ef","system_id":"levelo_inurba_marseille","lat":43.298681,"lon":5.397225,"is_reserved":false,"is_disabled":false,"rental_uris":{"android":"levelo://app?vid=f53f6587-547a-454c-8f46-beebf264c4ef","ios":"levelo://app?vid=f53f6587-547a-454c-8f46-beebf264c4ef"},"vehicle_type_id":"4","last_reported":1701209211,"current_range_meters":25600,"station_id":"ce4bh0h2rcd13ifvqd50","pricing_plan_id":"free"},{"bike_id":"7b53bd3c-5c33-481c-bea3-85b151a9777f","system_id":"levelo_inurba_marseille","lat":43.298681,"lon":5.397225,"is_reserved":false,"is_disabled":false,"rental_uris":{"android":"levelo://app?vid=7b53bd3c-5c33-481c-bea3-85b151a9777f","ios":"levelo://app?vid=7b53bd3c-5c33-481c-bea3-85b151a9777f"},"vehicle_type_id":"4","last_reported":1701209211,"current_range_meters":12400,"station_id":"ce4bh0h2rcd13ifvqd50","pricing_plan_id":"free"},{"bike_id":"4c583723-ddf3-463d-afff-20205cc787f8","system_id":"levelo_inurba_marseille","lat":43.286591,"lon":5.363346,"is_reserved":false,"is_disabled":false,"rental_uris":{"android":"levelo://app?vid=4c583723-ddf3-463d-afff-20205cc787f8","ios":"levelo://app?vid=4c583723-ddf3-463d-afff-20205cc787f8"},"vehicle_type_id":"4","last_reported":1701209211,"current_range_meters":20000,"station_id":"ce4bhah2rcd13ifvqej0","pricing_plan_id":"free"},{"bike_id":"0835f735-fbc4-40ca-b02a-112ff61ff6d1","system_id":"levelo_inurba_marseille","lat":43.286591,"lon":5.363346,"is_reserved":false,"is_disabled":false,"rental_uris":{"android":"levelo://app?vid=0835f735-fbc4-40ca-b02a-112ff61ff6d1","ios":"levelo://app?vid=0835f735-fbc4-40ca-b02a-112ff61ff6d1"},"vehicle_type_id":"4","last_reported":1701209211,"current_range_meters":27200,"station_id":"ce4bhah2rcd13ifvqej0","pricing_plan_id":"free"},{"bike_id":"00badb3d-21f6-427b-a43c-c7e91b23a2b5","system_id":"levelo_inurba_marseille","lat":43.286961,"lon":5.373785,"is_reserved":false,"is_disabled":false,"rental_uris":{"android":"levelo://app?vid=00badb3d-21f6-427b-a43c-c7e91b23a2b5","ios":"levelo://app?vid=00badb3d-21f6-427b-a43c-c7e91b23a2b5"},"vehicle_type_id":"4","last_reported":1701209211,"current_range_meters":20800,"station_id":"ce4bh3p2rcd13ifvqdq0","pricing_plan_id":"free"},{"bike_id":"3a445392-6308-45bc-b76b-15a63e619af3","system_id":"levelo_inurba_marseille","lat":43.286591,"lon":5.363346,"is_reserved":false,"is_disabled":false,"rental_uris":{"android":"levelo://app?vid=3a445392-6308-45bc-b76b-15a63e619af3","ios":"levelo://app?vid=3a445392-6308-45bc-b76b-15a63e619af3"},"vehicle_type_id":"4","last_reported":1701209211,"current_range_meters":17600,"station_id":"ce4bhah2rcd13ifvqej0","pricing_plan_id":"free"},{"bike_id":"50bada01-5851-437c-9dbf-0054c2a582d8","system_id":"levelo_inurba_marseille","lat":43.286647,"lon":5.363551,"is_reserved":false,"is_disabled":false,"rental_uris":{"android":"levelo://app?vid=50bada01-5851-437c-9dbf-0054c2a582d8","ios":"levelo://app?vid=50bada01-5851-437c-9dbf-0054c2a582d8"},"vehicle_type_id":"4","last_reported":1701209211,"current_range_meters":30800,"station_id":"ce4bhah2rcd13ifvqej0","pricing_plan_id":"free"},{"bike_id":"c3a078ae-8dad-4093-86e2-7aafca424107","system_id":"levelo_inurba_marseille","lat":43.28663,"lon":5.36348,"is_reserved":false,"is_disabled":false,"rental_uris":{"android":"levelo://app?vid=c3a078ae-8dad-4093-86e2-7aafca424107","ios":"levelo://app?vid=c3a078ae-8dad-4093-86e2-7aafca424107"},"vehicle_type_id":"4","last_reported":1701209211,"current_range_meters":7600,"station_id":"ce4bhah2rcd13ifvqej0","pricing_plan_id":"free"},{"bike_id":"c07f0312-a415-4cc2-81a0-38436b7503c9","system_id":"levelo_inurba_marseille","lat":43.286593,"lon":5.363346,"is_reserved":false,"is_disabled":false,"rental_uris":{"android":"levelo://app?vid=c07f0312-a415-4cc2-81a0-38436b7503c9","ios":"levelo://app?vid=c07f0312-a415-4cc2-81a0-38436b7503c9"},"vehicle_type_id":"4","last_reported":1701209211,"current_range_meters":30800,"station_id":"ce4bhah2rcd13ifvqej0","pricing_plan_id":"free"},{"bike_id":"dbd26251-fadf-421d-9592-7616fbb041dd","system_id":"levelo_inurba_marseille","lat":43.286593,"lon":5.363346,"is_reserved":false,"is_disabled":false,"rental_uris":{"android":"levelo://app?vid=dbd26251-fadf-421d-9592-7616fbb041dd","ios":"levelo://app?vid=dbd26251-fadf-421d-9592-7616fbb041dd"},"vehicle_type_id":"4","last_reported":1701209211,"current_range_meters":18000,"station_id":"ce4bhah2rcd13ifvqej0","pricing_plan_id":"free"},{"bike_id":"ccf8a658-8d23-44ae-bcfe-8ae5037717c5","system_id":"levelo_inurba_marseille","lat":43.286591,"lon":5.363346,"is_reserved":false,"is_disabled":false,"rental_uris":{"android":"levelo://app?vid=ccf8a658-8d23-44ae-bcfe-8ae5037717c5","ios":"levelo://app?vid=ccf8a658-8d23-44ae-bcfe-8ae5037717c5"},"vehicle_type_id":"4","last_reported":1701209211,"current_range_meters":20800,"station_id":"ce4bhah2rcd13ifvqej0","pricing_plan_id":"free"},{"bike_id":"e5723a22-18b0-4bba-944e-f4d0788972cf","system_id":"levelo_inurba_marseille","lat":43.286591,"lon":5.363346,"is_reserved":false,"is_disabled":false,"rental_uris":{"android":"levelo://app?vid=e5723a22-18b0-4bba-944e-f4d0788972cf","ios":"levelo://app?vid=e5723a22-18b0-4bba-944e-f4d0788972cf"},"vehicle_type_id":"4","last_reported":1701209211,"current_range_meters":9600,"station_id":"ce4bhah2rcd13ifvqej0","pricing_plan_id":"free"},{"bike_id":"5f3a261a-b688-44e6-b5df-fc68fca49725","system_id":"levelo_inurba_marseille","lat":43.286961,"lon":5.373785,"is_reserved":false,"is_disabled":false,"rental_uris":{"android":"levelo://app?vid=5f3a261a-b688-44e6-b5df-fc68fca49725","ios":"levelo://app?vid=5f3a261a-b688-44e6-b5df-fc68fca49725"},"vehicle_type_id":"4","last_reported":1701209211,"current_range_meters":2000,"station_id":"ce4bh3p2rcd13ifvqdq0","pricing_plan_id":"free"},{"bike_id":"a62aa425-ba60-4dd7-be67-7fcb8766d4fc","system_id":"levelo_inurba_marseille","lat":43.295196,"lon":5.39397,"is_reserved":false,"is_disabled":false,"rental_uris":{"android":"levelo://app?vid=a62aa425-ba60-4dd7-be67-7fcb8766d4fc","ios":"levelo://app?vid=a62aa425-ba60-4dd7-be67-7fcb8766d4fc"},"vehicle_type_id":"4","last_reported":1701209211,"current_range_meters":20800,"station_id":"ce4bh292rcd13ifvqdf0","pricing_plan_id":"free"},{"bike_id":"910b0632-74d1-4458-bd82-5c82a3b73883","system_id":"levelo_inurba_marseille","lat":43.286593,"lon":5.363346,"is_reserved":false,"is_disabled":false,"rental_uris":{"android":"levelo://app?vid=910b0632-74d1-4458-bd82-5c82a3b73883","ios":"levelo://app?vid=910b0632-74d1-4458-bd82-5c82a3b73883"},"vehicle_type_id":"4","last_reported":1701209211,"current_range_meters":14800,"station_id":"ce4bhah2rcd13ifvqej0","pricing_plan_id":"free"},{"bike_id":"fe6119e7-c38b-40bb-9fc5-279548e896a2","system_id":"levelo_inurba_marseille","lat":43.286593,"lon":5.363346,"is_reserved":false,"is_disabled":false,"rental_uris":{"android":"levelo://app?vid=fe6119e7-c38b-40bb-9fc5-279548e896a2","ios":"levelo://app?vid=fe6119e7-c38b-40bb-9fc5-279548e896a2"},"vehicle_type_id":"4","last_reported":1701209211,"current_range_meters":30800,"station_id":"ce4bhah2rcd13ifvqej0","pricing_plan_id":"free"},{"bike_id":"e8fbd6f9-3385-4ff0-9458-f24fa3b5bad7","system_id":"levelo_inurba_marseille","lat":43.295196,"lon":5.39397,"is_reserved":false,"is_disabled":false,"rental_uris":{"android":"levelo://app?vid=e8fbd6f9-3385-4ff0-9458-f24fa3b5bad7","ios":"levelo://app?vid=e8fbd6f9-3385-4ff0-9458-f24fa3b5bad7"},"vehicle_type_id":"4","last_reported":1701209211,"current_range_meters":25600,"station_id":"ce4bh292rcd13ifvqdf0","pricing_plan_id":"free"},{"bike_id":"c53518ea-c4b1-43b5-9b04-6932890a68cf","system_id":"levelo_inurba_marseille","lat":43.290343,"lon":5.386512,"is_reserved":false,"is_disabled":false,"rental_uris":{"android":"levelo://app?vid=c53518ea-c4b1-43b5-9b04-6932890a68cf","ios":"levelo://app?vid=c53518ea-c4b1-43b5-9b04-6932890a68cf"},"vehicle_type_id":"4","last_reported":1701209211,"current_range_meters":18000,"station_id":"ce4bh4p2rcd13ifvqe0g","pricing_plan_id":"free"},{"bike_id":"deb7b72f-a2ee-43b9-88c7-954579d7e9fa","system_id":"levelo_inurba_marseille","lat":43.290338,"lon":5.386559,"is_reserved":false,"is_disabled":false,"rental_uris":{"android":"levelo://app?vid=deb7b72f-a2ee-43b9-88c7-954579d7e9fa","ios":"levelo://app?vid=deb7b72f-a2ee-43b9-88c7-954579d7e9fa"},"vehicle_type_id":"4","last_reported":1701209211,"current_range_meters":10000,"station_id":"ce4bh4p2rcd13ifvqe0g","pricing_plan_id":"free"},{"bike_id":"c3bffbd7-e403-4fd0-9f69-701906b3e943","system_id":"levelo_inurba_marseille","lat":43.290317,"lon":5.386544,"is_reserved":false,"is_disabled":false,"rental_uris":{"android":"levelo://app?vid=c3bffbd7-e403-4fd0-9f69-701906b3e943","ios":"levelo://app?vid=c3bffbd7-e403-4fd0-9f69-701906b3e943"},"vehicle_type_id":"4","last_reported":1701209211,"current_range_meters":16400,"station_id":"ce4bh4p2rcd13ifvqe0g","pricing_plan_id":"free"},{"bike_id":"2f46a048-ec98-478d-a8c0-cc9dd878295d","system_id":"levelo_inurba_marseille","lat":43.290263,"lon":5.386437,"is_reserved":false,"is_disabled":false,"rental_uris":{"android":"levelo://app?vid=2f46a048-ec98-478d-a8c0-cc9dd878295d","ios":"levelo://app?vid=2f46a048-ec98-478d-a8c0-cc9dd878295d"},"vehicle_type_id":"4","last_reported":1701209211,"current_range_meters":0,"station_id":"","pricing_plan_id":"free"},{"bike_id":"bc99b36c-1ffa-47a3-837c-3c49f5a8c66b","system_id":"levelo_inurba_marseille","lat":43.302759,"lon":5.400793,"is_reserved":false,"is_disabled":false,"rental_uris":{"android":"levelo://app?vid=bc99b36c-1ffa-47a3-837c-3c49f5a8c66b","ios":"levelo://app?vid=bc99b36c-1ffa-47a3-837c-3c49f5a8c66b"},"vehicle_type_id":"4","last_reported":1701209211,"current_range_meters":4400,"station_id":"ce4bgvh2rcd13ifvqcs0","pricing_plan_id":"free"},{"bike_id":"958459ca-880b-465e-8bb4-799b198f7041","system_id":"levelo_inurba_marseille","lat":43.290272,"lon":5.38654,"is_reserved":false,"is_disabled":false,"rental_uris":{"android":"levelo://app?vid=958459ca-880b-465e-8bb4-799b198f7041","ios":"levelo://app?vid=958459ca-880b-465e-8bb4-799b198f7041"},"vehicle_type_id":"4","last_reported":1701209211,"current_range_meters":0,"station_id":"","pricing_plan_id":"free"},{"bike_id":"00cedefe-b195-4665-a397-558710350dd2","system_id":"levelo_inurba_marseille","lat":43.302759,"lon":5.400793,"is_reserved":false,"is_disabled":false,"rental_uris":{"android":"levelo://app?vid=00cedefe-b195-4665-a397-558710350dd2","ios":"levelo://app?vid=00cedefe-b195-4665-a397-558710350dd2"},"vehicle_type_id":"4","last_reported":1701209211,"current_range_meters":30000,"station_id":"ce4bgvh2rcd13ifvqcs0","pricing_plan_id":"free"},{"bike_id":"9c170648-b835-4ed8-b22f-974e731efb3e","system_id":"levelo_inurba_marseille","lat":43.286039,"lon":5.370681,"is_reserved":false,"is_disabled":false,"rental_uris":{"android":"levelo://app?vid=9c170648-b835-4ed8-b22f-974e731efb3e","ios":"levelo://app?vid=9c170648-b835-4ed8-b22f-974e731efb3e"},"vehicle_type_id":"4","last_reported":1701209211,"current_range_meters":5200,"station_id":"ce4bht12rcd13ifvqi60","pricing_plan_id":"free"},{"bike_id":"c46bd182-0230-4df4-9a8c-8a69a50593ad","system_id":"levelo_inurba_marseille","lat":43.316517,"lon":5.404375,"is_reserved":false,"is_disabled":false,"rental_uris":{"android":"levelo://app?vid=c46bd182-0230-4df4-9a8c-8a69a50593ad","ios":"levelo://app?vid=c46bd182-0230-4df4-9a8c-8a69a50593ad"},"vehicle_type_id":"4","last_reported":1701209211,"current_range_meters":2000,"station_id":"ce4bh012rcd13ifvqd00","pricing_plan_id":"free"},{"bike_id":"bdf929be-5d77-4e12-84b6-902eac12932d","system_id":"levelo_inurba_marseille","lat":43.291994,"lon":5.392907,"is_reserved":false,"is_disabled":false,"rental_uris":{"android":"levelo://app?vid=bdf929be-5d77-4e12-84b6-902eac12932d","ios":"levelo://app?vid=bdf929be-5d77-4e12-84b6-902eac12932d"},"vehicle_type_id":"4","last_reported":1701209211,"current_range_meters":16000,"station_id":"ce4bh192rcd13ifvqdd0","pricing_plan_id":"free"},{"bike_id":"fd258b51-4b33-4a0a-953f-4cc898e3f8f9","system_id":"levelo_inurba_marseille","lat":43.284534,"lon":5.358662,"is_reserved":false,"is_disabled":false,"rental_uris":{"android":"levelo://app?vid=fd258b51-4b33-4a0a-953f-4cc898e3f8f9","ios":"levelo://app?vid=fd258b51-4b33-4a0a-953f-4cc898e3f8f9"},"vehicle_type_id":"4","last_reported":1701209211,"current_range_meters":12400,"station_id":"ce4bhah2rcd13ifvqei0","pricing_plan_id":"free"},{"bike_id":"736457ac-9954-4414-85f7-0ffdab74d67f","system_id":"levelo_inurba_marseille","lat":43.28461,"lon":5.35893,"is_reserved":false,"is_disabled":false,"rental_uris":{"android":"levelo://app?vid=736457ac-9954-4414-85f7-0ffdab74d67f","ios":"levelo://app?vid=736457ac-9954-4414-85f7-0ffdab74d67f"},"vehicle_type_id":"4","last_reported":1701209211,"current_range_meters":31200,"station_id":"ce4bhah2rcd13ifvqei0","pricing_plan_id":"free"},{"bike_id":"5e43b6eb-37fc-481f-83f6-a4b4faa34f4f","system_id":"levelo_inurba_marseille","lat":43.284538,"lon":5.358657,"is_reserved":false,"is_disabled":false,"rental_uris":{"android":"levelo://app?vid=5e43b6eb-37fc-481f-83f6-a4b4faa34f4f","ios":"levelo://app?vid=5e43b6eb-37fc-481f-83f6-a4b4faa34f4f"},"vehicle_type_id":"4","last_reported":1701209211,"current_range_meters":30400,"station_id":"ce4bhah2rcd13ifvqei0","pricing_plan_id":"free"},{"bike_id":"25c2ec6d-e178-4d2f-88d3-840244cb8ec0","system_id":"levelo_inurba_marseille","lat":43.284534,"lon":5.358662,"is_reserved":false,"is_disabled":false,"rental_uris":{"android":"levelo://app?vid=25c2ec6d-e178-4d2f-88d3-840244cb8ec0","ios":"levelo://app?vid=25c2ec6d-e178-4d2f-88d3-840244cb8ec0"},"vehicle_type_id":"4","last_reported":1701209211,"current_range_meters":31600,"station_id":"ce4bhah2rcd13ifvqei0","pricing_plan_id":"free"},{"bike_id":"38e20aee-0f2e-4b14-beaf-ebce34830f09","system_id":"levelo_inurba_marseille","lat":43.284538,"lon":5.358657,"is_reserved":false,"is_disabled":false,"rental_uris":{"android":"levelo://app?vid=38e20aee-0f2e-4b14-beaf-ebce34830f09","ios":"levelo://app?vid=38e20aee-0f2e-4b14-beaf-ebce34830f09"},"vehicle_type_id":"4","last_reported":1701209211,"current_range_meters":31200,"station_id":"ce4bhah2rcd13ifvqei0","pricing_plan_id":"free"},{"bike_id":"f9d317a2-ff24-41e6-9549-7f0d05f9ec1e","system_id":"levelo_inurba_marseille","lat":43.284534,"lon":5.358662,"is_reserved":false,"is_disabled":false,"rental_uris":{"android":"levelo://app?vid=f9d317a2-ff24-41e6-9549-7f0d05f9ec1e","ios":"levelo://app?vid=f9d317a2-ff24-41e6-9549-7f0d05f9ec1e"},"vehicle_type_id":"4","last_reported":1701209211,"current_range_meters":25200,"station_id":"ce4bhah2rcd13ifvqei0","pricing_plan_id":"free"},{"bike_id":"e4f5a648-844b-4fdf-adea-a3e6c94eb263","system_id":"levelo_inurba_marseille","lat":43.284534,"lon":5.358662,"is_reserved":false,"is_disabled":false,"rental_uris":{"android":"levelo://app?vid=e4f5a648-844b-4fdf-adea-a3e6c94eb263","ios":"levelo://app?vid=e4f5a648-844b-4fdf-adea-a3e6c94eb263"},"vehicle_type_id":"4","last_reported":1701209211,"current_range_meters":11600,"station_id":"ce4bhah2rcd13ifvqei0","pricing_plan_id":"free"},{"bike_id":"14f6f51d-1adc-4f3e-a63e-6c83deb34dd1","system_id":"levelo_inurba_marseille","lat":43.285856,"lon":5.350771,"is_reserved":false,"is_disabled":false,"rental_uris":{"android":"levelo://app?vid=14f6f51d-1adc-4f3e-a63e-6c83deb34dd1","ios":"levelo://app?vid=14f6f51d-1adc-4f3e-a63e-6c83deb34dd1"},"vehicle_type_id":"4","last_reported":1701209211,"current_range_meters":29200,"station_id":"ce4bhch2rcd13ifvqeug","pricing_plan_id":"free"},{"bike_id":"54a0cfc3-0189-4d2f-9bf2-92e16374ced4","system_id":"levelo_inurba_marseille","lat":43.283998,"lon":5.375062,"is_reserved":false,"is_disabled":false,"rental_uris":{"android":"levelo://app?vid=54a0cfc3-0189-4d2f-9bf2-92e16374ced4","ios":"levelo://app?vid=54a0cfc3-0189-4d2f-9bf2-92e16374ced4"},"vehicle_type_id":"4","last_reported":1701209211,"current_range_meters":5200,"station_id":"ce4bh412rcd13ifvqds0","pricing_plan_id":"free"},{"bike_id":"bb08fba1-1d85-49f3-bb19-f02b2f43a564","system_id":"levelo_inurba_marseille","lat":43.283998,"lon":5.375062,"is_reserved":false,"is_disabled":false,"rental_uris":{"android":"levelo://app?vid=bb08fba1-1d85-49f3-bb19-f02b2f43a564","ios":"levelo://app?vid=bb08fba1-1d85-49f3-bb19-f02b2f43a564"},"vehicle_type_id":"4","last_reported":1701209211,"current_range_meters":27200,"station_id":"ce4bh412rcd13ifvqds0","pricing_plan_id":"free"},{"bike_id":"72860c30-41d4-4bc7-8010-479f025df774","system_id":"levelo_inurba_marseille","lat":43.283998,"lon":5.375062,"is_reserved":false,"is_disabled":false,"rental_uris":{"android":"levelo://app?vid=72860c30-41d4-4bc7-8010-479f025df774","ios":"levelo://app?vid=72860c30-41d4-4bc7-8010-479f025df774"},"vehicle_type_id":"4","last_reported":1701209211,"current_range_meters":10800,"station_id":"ce4bh412rcd13ifvqds0","pricing_plan_id":"free"},{"bike_id":"7601045f-9d45-46ee-ac60-4ea59394e47e","system_id":"levelo_inurba_marseille","lat":43.33717,"lon":5.391857,"is_reserved":false,"is_disabled":false,"rental_uris":{"android":"levelo://app?vid=7601045f-9d45-46ee-ac60-4ea59394e47e","ios":"levelo://app?vid=7601045f-9d45-46ee-ac60-4ea59394e47e"},"vehicle_type_id":"4","last_reported":1701209211,"current_range_meters":24000,"station_id":"ce4bhr92rcd13ifvqhsg","pricing_plan_id":"free"},{"bike_id":"c3bf2d53-b0cc-4d41-a634-72976fc395bf","system_id":"levelo_inurba_marseille","lat":43.323464,"lon":5.406297,"is_reserved":false,"is_disabled":false,"rental_uris":{"android":"levelo://app?vid=c3bf2d53-b0cc-4d41-a634-72976fc395bf","ios":"levelo://app?vid=c3bf2d53-b0cc-4d41-a634-72976fc395bf"},"vehicle_type_id":"4","last_reported":1701209211,"current_range_meters":28000,"station_id":"ce4bhq92rcd13ifvqhjg","pricing_plan_id":"free"},{"bike_id":"9c2b0bf1-41c8-4f85-aea0-5272aa18387b","system_id":"levelo_inurba_marseille","lat":43.297946,"lon":5.404063,"is_reserved":false,"is_disabled":false,"rental_uris":{"android":"levelo://app?vid=9c2b0bf1-41c8-4f85-aea0-5272aa18387b","ios":"levelo://app?vid=9c2b0bf1-41c8-4f85-aea0-5272aa18387b"},"vehicle_type_id":"4","last_reported":1701209211,"current_range_meters":30000,"station_id":"ce4bh112rcd13ifvqd90","pricing_plan_id":"free"},{"bike_id":"8843522f-6fc5-46cd-b5ab-6627ea2f93ae","system_id":"levelo_inurba_marseille","lat":43.323464,"lon":5.406297,"is_reserved":false,"is_disabled":false,"rental_uris":{"android":"levelo://app?vid=8843522f-6fc5-46cd-b5ab-6627ea2f93ae","ios":"levelo://app?vid=8843522f-6fc5-46cd-b5ab-6627ea2f93ae"},"vehicle_type_id":"4","last_reported":1701209211,"current_range_meters":29600,"station_id":"ce4bhq92rcd13ifvqhjg","pricing_plan_id":"free"},{"bike_id":"d8b19fce-5560-455c-af99-2de04e870503","system_id":"levelo_inurba_marseille","lat":43.297946,"lon":5.404063,"is_reserved":false,"is_disabled":false,"rental_uris":{"android":"levelo://app?vid=d8b19fce-5560-455c-af99-2de04e870503","ios":"levelo://app?vid=d8b19fce-5560-455c-af99-2de04e870503"},"vehicle_type_id":"4","last_reported":1701209211,"current_range_meters":30400,"station_id":"ce4bh112rcd13ifvqd90","pricing_plan_id":"free"},{"bike_id":"438ea98d-bbf8-4841-a9da-0dd1e60fd016","system_id":"levelo_inurba_marseille","lat":43.297946,"lon":5.404063,"is_reserved":false,"is_disabled":false,"rental_uris":{"android":"levelo://app?vid=438ea98d-bbf8-4841-a9da-0dd1e60fd016","ios":"levelo://app?vid=438ea98d-bbf8-4841-a9da-0dd1e60fd016"},"vehicle_type_id":"4","last_reported":1701209211,"current_range_meters":30400,"station_id":"ce4bh112rcd13ifvqd90","pricing_plan_id":"free"},{"bike_id":"bdaa8949-6df9-428d-81d9-84388bcac42e","system_id":"levelo_inurba_marseille","lat":43.283494,"lon":5.380945,"is_reserved":false,"is_disabled":false,"rental_uris":{"android":"levelo://app?vid=bdaa8949-6df9-428d-81d9-84388bcac42e","ios":"levelo://app?vid=bdaa8949-6df9-428d-81d9-84388bcac42e"},"vehicle_type_id":"4","last_reported":1701209211,"current_range_meters":28400,"station_id":"ce4bh412rcd13ifvqdr0","pricing_plan_id":"free"},{"bike_id":"2c73d258-726b-458a-a17d-5bb59ebe2373","system_id":"levelo_inurba_marseille","lat":43.284217,"lon":5.349697,"is_reserved":false,"is_disabled":false,"rental_uris":{"android":"levelo://app?vid=2c73d258-726b-458a-a17d-5bb59ebe2373","ios":"levelo://app?vid=2c73d258-726b-458a-a17d-5bb59ebe2373"},"vehicle_type_id":"4","last_reported":1701209211,"current_range_meters":22000,"station_id":"ce4bhbh2rcd13ifvqepg","pricing_plan_id":"free"},{"bike_id":"1562f9ac-8fa1-4b1c-a12e-af0ae46032f5","system_id":"levelo_inurba_marseille","lat":43.284217,"lon":5.349697,"is_reserved":false,"is_disabled":false,"rental_uris":{"android":"levelo://app?vid=1562f9ac-8fa1-4b1c-a12e-af0ae46032f5","ios":"levelo://app?vid=1562f9ac-8fa1-4b1c-a12e-af0ae46032f5"},"vehicle_type_id":"4","last_reported":1701209211,"current_range_meters":27600,"station_id":"ce4bhbh2rcd13ifvqepg","pricing_plan_id":"free"},{"bike_id":"ba4279f4-259c-43c1-a09b-c986d02f4e30","system_id":"levelo_inurba_marseille","lat":43.284219,"lon":5.3497,"is_reserved":false,"is_disabled":false,"rental_uris":{"android":"levelo://app?vid=ba4279f4-259c-43c1-a09b-c986d02f4e30","ios":"levelo://app?vid=ba4279f4-259c-43c1-a09b-c986d02f4e30"},"vehicle_type_id":"4","last_reported":1701209211,"current_range_meters":11200,"station_id":"ce4bhbh2rcd13ifvqepg","pricing_plan_id":"free"},{"bike_id":"1fadea86-2ea0-4847-b036-006803003a97","system_id":"levelo_inurba_marseille","lat":43.289363,"lon":5.396322,"is_reserved":false,"is_disabled":false,"rental_uris":{"android":"levelo://app?vid=1fadea86-2ea0-4847-b036-006803003a97","ios":"levelo://app?vid=1fadea86-2ea0-4847-b036-006803003a97"},"vehicle_type_id":"4","last_reported":1701209211,"current_range_meters":23600,"station_id":"ce4bh3h2rcd13ifvqdn0","pricing_plan_id":"free"},{"bike_id":"3202e6e6-3669-45e4-904f-c1b2f84d3559","system_id":"levelo_inurba_marseille","lat":43.292724,"lon":5.401131,"is_reserved":false,"is_disabled":false,"rental_uris":{"android":"levelo://app?vid=3202e6e6-3669-45e4-904f-c1b2f84d3559","ios":"levelo://app?vid=3202e6e6-3669-45e4-904f-c1b2f84d3559"},"vehicle_type_id":"4","last_reported":1701209211,"current_range_meters":16400,"station_id":"ce4bh312rcd13ifvqdk0","pricing_plan_id":"free"},{"bike_id":"d41c1e5b-ff45-4429-813e-731204fbe0a4","system_id":"levelo_inurba_marseille","lat":43.292724,"lon":5.401131,"is_reserved":false,"is_disabled":false,"rental_uris":{"android":"levelo://app?vid=d41c1e5b-ff45-4429-813e-731204fbe0a4","ios":"levelo://app?vid=d41c1e5b-ff45-4429-813e-731204fbe0a4"},"vehicle_type_id":"4","last_reported":1701209211,"current_range_meters":12400,"station_id":"ce4bh312rcd13ifvqdk0","pricing_plan_id":"free"},{"bike_id":"f947ac04-b32d-4416-b67f-d60000149146","system_id":"levelo_inurba_marseille","lat":43.282743,"lon":5.350813,"is_reserved":false,"is_disabled":false,"rental_uris":{"android":"levelo://app?vid=f947ac04-b32d-4416-b67f-d60000149146","ios":"levelo://app?vid=f947ac04-b32d-4416-b67f-d60000149146"},"vehicle_type_id":"4","last_reported":1701209211,"current_range_meters":31200,"station_id":"ce4bhbp2rcd13ifvqerg","pricing_plan_id":"free"},{"bike_id":"67af646b-0905-4a95-bbdc-393054868a64","system_id":"levelo_inurba_marseille","lat":43.28274,"lon":5.35073,"is_reserved":false,"is_disabled":false,"rental_uris":{"android":"levelo://app?vid=67af646b-0905-4a95-bbdc-393054868a64","ios":"levelo://app?vid=67af646b-0905-4a95-bbdc-393054868a64"},"vehicle_type_id":"4","last_reported":1701209211,"current_range_meters":0,"station_id":"ce4bhbp2rcd13ifvqerg","pricing_plan_id":"free"},{"bike_id":"e4aeb4f8-feae-40be-9dd8-4f8912d79314","system_id":"levelo_inurba_marseille","lat":43.282744,"lon":5.350533,"is_reserved":false,"is_disabled":false,"rental_uris":{"android":"levelo://app?vid=e4aeb4f8-feae-40be-9dd8-4f8912d79314","ios":"levelo://app?vid=e4aeb4f8-feae-40be-9dd8-4f8912d79314"},"vehicle_type_id":"4","last_reported":1701209211,"current_range_meters":29200,"station_id":"ce4bhbp2rcd13ifvqerg","pricing_plan_id":"free"},{"bike_id":"f8e93a5f-b85d-4c01-8630-1453bb55b231","system_id":"levelo_inurba_marseille","lat":43.282696,"lon":5.350763,"is_reserved":false,"is_disabled":false,"rental_uris":{"android":"levelo://app?vid=f8e93a5f-b85d-4c01-8630-1453bb55b231","ios":"levelo://app?vid=f8e93a5f-b85d-4c01-8630-1453bb55b231"},"vehicle_type_id":"4","last_reported":1701209211,"current_range_meters":31200,"station_id":"ce4bhbp2rcd13ifvqerg","pricing_plan_id":"free"},{"bike_id":"7cab3f8d-f8d9-4c6f-9940-3a2d51219c66","system_id":"levelo_inurba_marseille","lat":43.282754,"lon":5.350519,"is_reserved":false,"is_disabled":false,"rental_uris":{"android":"levelo://app?vid=7cab3f8d-f8d9-4c6f-9940-3a2d51219c66","ios":"levelo://app?vid=7cab3f8d-f8d9-4c6f-9940-3a2d51219c66"},"vehicle_type_id":"4","last_reported":1701209211,"current_range_meters":29600,"station_id":"ce4bhbp2rcd13ifvqerg","pricing_plan_id":"free"},{"bike_id":"d5956e3d-d3de-48b3-9bec-2beb921f893f","system_id":"levelo_inurba_marseille","lat":43.282744,"lon":5.350533,"is_reserved":false,"is_disabled":false,"rental_uris":{"android":"levelo://app?vid=d5956e3d-d3de-48b3-9bec-2beb921f893f","ios":"levelo://app?vid=d5956e3d-d3de-48b3-9bec-2beb921f893f"},"vehicle_type_id":"4","last_reported":1701209211,"current_range_meters":20800,"station_id":"ce4bhbp2rcd13ifvqerg","pricing_plan_id":"free"},{"bike_id":"53008cbd-893a-41ff-9e9c-c6fbc92fd032","system_id":"levelo_inurba_marseille","lat":43.282627,"lon":5.350594,"is_reserved":false,"is_disabled":false,"rental_uris":{"android":"levelo://app?vid=53008cbd-893a-41ff-9e9c-c6fbc92fd032","ios":"levelo://app?vid=53008cbd-893a-41ff-9e9c-c6fbc92fd032"},"vehicle_type_id":"4","last_reported":1701209211,"current_range_meters":18400,"station_id":"ce4bhbp2rcd13ifvqerg","pricing_plan_id":"free"},{"bike_id":"90bb93de-60c6-45f1-8989-bac32159e22e","system_id":"levelo_inurba_marseille","lat":43.280403,"lon":5.369464,"is_reserved":false,"is_disabled":false,"rental_uris":{"android":"levelo://app?vid=90bb93de-60c6-45f1-8989-bac32159e22e","ios":"levelo://app?vid=90bb93de-60c6-45f1-8989-bac32159e22e"},"vehicle_type_id":"4","last_reported":1701209211,"current_range_meters":0,"station_id":"ce4bha12rcd13ifvqef0","pricing_plan_id":"free"},{"bike_id":"02c5e94d-af4d-4288-85c2-35168750e080","system_id":"levelo_inurba_marseille","lat":43.28039,"lon":5.369297,"is_reserved":false,"is_disabled":false,"rental_uris":{"android":"levelo://app?vid=02c5e94d-af4d-4288-85c2-35168750e080","ios":"levelo://app?vid=02c5e94d-af4d-4288-85c2-35168750e080"},"vehicle_type_id":"4","last_reported":1701209211,"current_range_meters":20400,"station_id":"ce4bha12rcd13ifvqef0","pricing_plan_id":"free"},{"bike_id":"38585a73-ce81-4f9c-b8a8-0ccb9e5fd98a","system_id":"levelo_inurba_marseille","lat":43.2905,"lon":5.39932,"is_reserved":false,"is_disabled":false,"rental_uris":{"android":"levelo://app?vid=38585a73-ce81-4f9c-b8a8-0ccb9e5fd98a","ios":"levelo://app?vid=38585a73-ce81-4f9c-b8a8-0ccb9e5fd98a"},"vehicle_type_id":"4","last_reported":1701209211,"current_range_meters":24400,"station_id":"ce4bh392rcd13ifvqdm0","pricing_plan_id":"free"},{"bike_id":"52247a62-d59f-4d74-bea3-d9131cb788c0","system_id":"levelo_inurba_marseille","lat":43.28039,"lon":5.369297,"is_reserved":false,"is_disabled":false,"rental_uris":{"android":"levelo://app?vid=52247a62-d59f-4d74-bea3-d9131cb788c0","ios":"levelo://app?vid=52247a62-d59f-4d74-bea3-d9131cb788c0"},"vehicle_type_id":"4","last_reported":1701209211,"current_range_meters":28000,"station_id":"ce4bha12rcd13ifvqef0","pricing_plan_id":"free"},{"bike_id":"773ca394-fcab-445f-b2a4-280dda36fd39","system_id":"levelo_inurba_marseille","lat":43.29056,"lon":5.39943,"is_reserved":false,"is_disabled":false,"rental_uris":{"android":"levelo://app?vid=773ca394-fcab-445f-b2a4-280dda36fd39","ios":"levelo://app?vid=773ca394-fcab-445f-b2a4-280dda36fd39"},"vehicle_type_id":"4","last_reported":1701209211,"current_range_meters":30000,"station_id":"ce4bh392rcd13ifvqdm0","pricing_plan_id":"free"},{"bike_id":"ea61e59d-173d-4855-886e-4b2324edbd6c","system_id":"levelo_inurba_marseille","lat":43.29052,"lon":5.399425,"is_reserved":false,"is_disabled":false,"rental_uris":{"android":"levelo://app?vid=ea61e59d-173d-4855-886e-4b2324edbd6c","ios":"levelo://app?vid=ea61e59d-173d-4855-886e-4b2324edbd6c"},"vehicle_type_id":"4","last_reported":1701209211,"current_range_meters":20800,"station_id":"ce4bh392rcd13ifvqdm0","pricing_plan_id":"free"},{"bike_id":"4b5b5b9a-04c9-4c9b-9f27-7f62860aeb4d","system_id":"levelo_inurba_marseille","lat":43.28032,"lon":5.36952,"is_reserved":false,"is_disabled":false,"rental_uris":{"android":"levelo://app?vid=4b5b5b9a-04c9-4c9b-9f27-7f62860aeb4d","ios":"levelo://app?vid=4b5b5b9a-04c9-4c9b-9f27-7f62860aeb4d"},"vehicle_type_id":"4","last_reported":1701209211,"current_range_meters":25600,"station_id":"ce4bha12rcd13ifvqef0","pricing_plan_id":"free"},{"bike_id":"29db712a-87f3-4276-ac46-3ea18a2fdb6a","system_id":"levelo_inurba_marseille","lat":43.29059,"lon":5.39963,"is_reserved":false,"is_disabled":false,"rental_uris":{"android":"levelo://app?vid=29db712a-87f3-4276-ac46-3ea18a2fdb6a","ios":"levelo://app?vid=29db712a-87f3-4276-ac46-3ea18a2fdb6a"},"vehicle_type_id":"4","last_reported":1701209211,"current_range_meters":24000,"station_id":"ce4bh392rcd13ifvqdm0","pricing_plan_id":"free"},{"bike_id":"cce2c0f3-e79e-4ebd-92d9-a413229f2414","system_id":"levelo_inurba_marseille","lat":43.29039,"lon":5.39945,"is_reserved":false,"is_disabled":false,"rental_uris":{"android":"levelo://app?vid=cce2c0f3-e79e-4ebd-92d9-a413229f2414","ios":"levelo://app?vid=cce2c0f3-e79e-4ebd-92d9-a413229f2414"},"vehicle_type_id":"4","last_reported":1701209211,"current_range_meters":29600,"station_id":"ce4bh392rcd13ifvqdm0","pricing_plan_id":"free"},{"bike_id":"5a95eec4-f745-4a28-ae27-36568b024172","system_id":"levelo_inurba_marseille","lat":43.290408,"lon":5.399513,"is_reserved":false,"is_disabled":false,"rental_uris":{"android":"levelo://app?vid=5a95eec4-f745-4a28-ae27-36568b024172","ios":"levelo://app?vid=5a95eec4-f745-4a28-ae27-36568b024172"},"vehicle_type_id":"4","last_reported":1701209211,"current_range_meters":26400,"station_id":"ce4bh392rcd13ifvqdm0","pricing_plan_id":"free"},{"bike_id":"51e075a1-0ad5-411f-8dc9-58bef3b92207","system_id":"levelo_inurba_marseille","lat":43.290388,"lon":5.399551,"is_reserved":false,"is_disabled":false,"rental_uris":{"android":"levelo://app?vid=51e075a1-0ad5-411f-8dc9-58bef3b92207","ios":"levelo://app?vid=51e075a1-0ad5-411f-8dc9-58bef3b92207"},"vehicle_type_id":"4","last_reported":1701209211,"current_range_meters":28400,"station_id":"ce4bh392rcd13ifvqdm0","pricing_plan_id":"free"},{"bike_id":"077537b0-311d-4f9a-9b20-40bc96e859a5","system_id":"levelo_inurba_marseille","lat":43.290382,"lon":5.399554,"is_reserved":false,"is_disabled":false,"rental_uris":{"android":"levelo://app?vid=077537b0-311d-4f9a-9b20-40bc96e859a5","ios":"levelo://app?vid=077537b0-311d-4f9a-9b20-40bc96e859a5"},"vehicle_type_id":"4","last_reported":1701209211,"current_range_meters":8400,"station_id":"ce4bh392rcd13ifvqdm0","pricing_plan_id":"free"},{"bike_id":"620ab1f4-9cc1-4831-a87d-33af1943f07a","system_id":"levelo_inurba_marseille","lat":43.281044,"lon":5.378308,"is_reserved":false,"is_disabled":false,"rental_uris":{"android":"levelo://app?vid=620ab1f4-9cc1-4831-a87d-33af1943f07a","ios":"levelo://app?vid=620ab1f4-9cc1-4831-a87d-33af1943f07a"},"vehicle_type_id":"4","last_reported":1701209211,"current_range_meters":28400,"station_id":"ce4bha12rcd13ifvqee0","pricing_plan_id":"free"},{"bike_id":"131497f2-a4b2-47ed-9000-d44279ea2c17","system_id":"levelo_inurba_marseille","lat":43.29041,"lon":5.399634,"is_reserved":false,"is_disabled":false,"rental_uris":{"android":"levelo://app?vid=131497f2-a4b2-47ed-9000-d44279ea2c17","ios":"levelo://app?vid=131497f2-a4b2-47ed-9000-d44279ea2c17"},"vehicle_type_id":"4","last_reported":1701209211,"current_range_meters":31200,"station_id":"ce4bh392rcd13ifvqdm0","pricing_plan_id":"free"},{"bike_id":"88844d8c-363b-4d03-a0bc-24ba22360bbe","system_id":"levelo_inurba_marseille","lat":43.284462,"lon":5.392121,"is_reserved":false,"is_disabled":false,"rental_uris":{"android":"levelo://app?vid=88844d8c-363b-4d03-a0bc-24ba22360bbe","ios":"levelo://app?vid=88844d8c-363b-4d03-a0bc-24ba22360bbe"},"vehicle_type_id":"4","last_reported":1701209211,"current_range_meters":21200,"station_id":"ce4bhoh2rcd13ifvqh5g","pricing_plan_id":"free"},{"bike_id":"48a41a7c-9063-4177-be08-61690862859d","system_id":"levelo_inurba_marseille","lat":43.304188,"lon":5.412904,"is_reserved":false,"is_disabled":false,"rental_uris":{"android":"levelo://app?vid=48a41a7c-9063-4177-be08-61690862859d","ios":"levelo://app?vid=48a41a7c-9063-4177-be08-61690862859d"},"vehicle_type_id":"4","last_reported":1701209211,"current_range_meters":20800,"station_id":"ce4bhop2rcd13ifvqh8g","pricing_plan_id":"free"},{"bike_id":"3e492f28-b62d-4c0f-a2b0-70e837f8e1e5","system_id":"levelo_inurba_marseille","lat":43.287154,"lon":5.399979,"is_reserved":false,"is_disabled":false,"rental_uris":{"android":"levelo://app?vid=3e492f28-b62d-4c0f-a2b0-70e837f8e1e5","ios":"levelo://app?vid=3e492f28-b62d-4c0f-a2b0-70e837f8e1e5"},"vehicle_type_id":"4","last_reported":1701209211,"current_range_meters":5200,"station_id":"ce4bho92rcd13ifvqh3g","pricing_plan_id":"free"},{"bike_id":"1e52b1ce-4e03-479b-b074-efaff2ea3d0e","system_id":"levelo_inurba_marseille","lat":43.287154,"lon":5.399979,"is_reserved":false,"is_disabled":false,"rental_uris":{"android":"levelo://app?vid=1e52b1ce-4e03-479b-b074-efaff2ea3d0e","ios":"levelo://app?vid=1e52b1ce-4e03-479b-b074-efaff2ea3d0e"},"vehicle_type_id":"4","last_reported":1701209211,"current_range_meters":20000,"station_id":"ce4bho92rcd13ifvqh3g","pricing_plan_id":"free"},{"bike_id":"71d49d15-72a1-4ce0-a668-e881f5d81bfc","system_id":"levelo_inurba_marseille","lat":43.28045,"lon":5.38672,"is_reserved":false,"is_disabled":false,"rental_uris":{"android":"levelo://app?vid=71d49d15-72a1-4ce0-a668-e881f5d81bfc","ios":"levelo://app?vid=71d49d15-72a1-4ce0-a668-e881f5d81bfc"},"vehicle_type_id":"4","last_reported":1701209211,"current_range_meters":9600,"station_id":"","pricing_plan_id":"free"},{"bike_id":"dbf086ac-e997-402b-9695-eb18bb37ae88","system_id":"levelo_inurba_marseille","lat":43.320045,"lon":5.415048,"is_reserved":false,"is_disabled":false,"rental_uris":{"android":"levelo://app?vid=dbf086ac-e997-402b-9695-eb18bb37ae88","ios":"levelo://app?vid=dbf086ac-e997-402b-9695-eb18bb37ae88"},"vehicle_type_id":"4","last_reported":1701209211,"current_range_meters":1200,"station_id":"ce4bhq92rcd13ifvqhkg","pricing_plan_id":"free"},{"bike_id":"50289298-ce8a-4ddf-bd57-79e118aafb72","system_id":"levelo_inurba_marseille","lat":43.27964,"lon":5.38716,"is_reserved":false,"is_disabled":false,"rental_uris":{"android":"levelo://app?vid=50289298-ce8a-4ddf-bd57-79e118aafb72","ios":"levelo://app?vid=50289298-ce8a-4ddf-bd57-79e118aafb72"},"vehicle_type_id":"4","last_reported":1701209211,"current_range_meters":0,"station_id":"ce4bhg12rcd13ifvqf80","pricing_plan_id":"free"},{"bike_id":"553703cc-a198-4b7c-b4f7-88e7d2d9a97c","system_id":"levelo_inurba_marseille","lat":43.299579,"lon":5.413255,"is_reserved":false,"is_disabled":false,"rental_uris":{"android":"levelo://app?vid=553703cc-a198-4b7c-b4f7-88e7d2d9a97c","ios":"levelo://app?vid=553703cc-a198-4b7c-b4f7-88e7d2d9a97c"},"vehicle_type_id":"4","last_reported":1701209211,"current_range_meters":17200,"station_id":"ce4bhp12rcd13ifvqh9g","pricing_plan_id":"free"},{"bike_id":"81753472-79e0-4cfa-a233-20c0ecbe4c0a","system_id":"levelo_inurba_marseille","lat":43.320045,"lon":5.415046,"is_reserved":false,"is_disabled":false,"rental_uris":{"android":"levelo://app?vid=81753472-79e0-4cfa-a233-20c0ecbe4c0a","ios":"levelo://app?vid=81753472-79e0-4cfa-a233-20c0ecbe4c0a"},"vehicle_type_id":"4","last_reported":1701209211,"current_range_meters":26400,"station_id":"ce4bhq92rcd13ifvqhkg","pricing_plan_id":"free"},{"bike_id":"40145246-c5e7-463f-87b9-e19982485305","system_id":"levelo_inurba_marseille","lat":43.292571,"lon":5.409107,"is_reserved":false,"is_disabled":false,"rental_uris":{"android":"levelo://app?vid=40145246-c5e7-463f-87b9-e19982485305","ios":"levelo://app?vid=40145246-c5e7-463f-87b9-e19982485305"},"vehicle_type_id":"4","last_reported":1701209211,"current_range_meters":23200,"station_id":"ce4bh192rcd13ifvqdc0","pricing_plan_id":"free"},{"bike_id":"a0db5c6e-d353-4233-a4e0-8917b7ea7604","system_id":"levelo_inurba_marseille","lat":43.292569,"lon":5.409107,"is_reserved":false,"is_disabled":false,"rental_uris":{"android":"levelo://app?vid=a0db5c6e-d353-4233-a4e0-8917b7ea7604","ios":"levelo://app?vid=a0db5c6e-d353-4233-a4e0-8917b7ea7604"},"vehicle_type_id":"4","last_reported":1701209211,"current_range_meters":11200,"station_id":"ce4bh192rcd13ifvqdc0","pricing_plan_id":"free"},{"bike_id":"0d410972-8ed3-4feb-8b85-4fc4b172d7fc","system_id":"levelo_inurba_marseille","lat":43.27618,"lon":5.361009,"is_reserved":false,"is_disabled":false,"rental_uris":{"android":"levelo://app?vid=0d410972-8ed3-4feb-8b85-4fc4b172d7fc","ios":"levelo://app?vid=0d410972-8ed3-4feb-8b85-4fc4b172d7fc"},"vehicle_type_id":"4","last_reported":1701209211,"current_range_meters":18800,"station_id":"ce4bgj92rcd13ifvqbe0","pricing_plan_id":"free"},{"bike_id":"0ae4b498-b77c-4813-af12-4503794660e1","system_id":"levelo_inurba_marseille","lat":43.280784,"lon":5.396622,"is_reserved":false,"is_disabled":false,"rental_uris":{"android":"levelo://app?vid=0ae4b498-b77c-4813-af12-4503794660e1","ios":"levelo://app?vid=0ae4b498-b77c-4813-af12-4503794660e1"},"vehicle_type_id":"4","last_reported":1701209211,"current_range_meters":30800,"station_id":"ce4bho12rcd13ifvqh2g","pricing_plan_id":"free"},{"bike_id":"6ae6cffd-f3fa-4656-ae34-9b09325ffa6a","system_id":"levelo_inurba_marseille","lat":43.303837,"lon":5.418724,"is_reserved":false,"is_disabled":false,"rental_uris":{"android":"levelo://app?vid=6ae6cffd-f3fa-4656-ae34-9b09325ffa6a","ios":"levelo://app?vid=6ae6cffd-f3fa-4656-ae34-9b09325ffa6a"},"vehicle_type_id":"4","last_reported":1701209211,"current_range_meters":29600,"station_id":"ce4bhop2rcd13ifvqh7g","pricing_plan_id":"free"},{"bike_id":"41867646-3764-4a9e-891c-0e999d0ccd0b","system_id":"levelo_inurba_marseille","lat":43.278401,"lon":5.392152,"is_reserved":false,"is_disabled":false,"rental_uris":{"android":"levelo://app?vid=41867646-3764-4a9e-891c-0e999d0ccd0b","ios":"levelo://app?vid=41867646-3764-4a9e-891c-0e999d0ccd0b"},"vehicle_type_id":"4","last_reported":1701209211,"current_range_meters":31200,"station_id":"ce4bhjp2rcd13ifvqga0","pricing_plan_id":"free"},{"bike_id":"91b7625e-2088-47e0-b2ec-5389ac6b3443","system_id":"levelo_inurba_marseille","lat":43.278399,"lon":5.392139,"is_reserved":false,"is_disabled":false,"rental_uris":{"android":"levelo://app?vid=91b7625e-2088-47e0-b2ec-5389ac6b3443","ios":"levelo://app?vid=91b7625e-2088-47e0-b2ec-5389ac6b3443"},"vehicle_type_id":"4","last_reported":1701209211,"current_range_meters":25200,"station_id":"ce4bhjp2rcd13ifvqga0","pricing_plan_id":"free"},{"bike_id":"b36a6119-b72a-44f6-8f8d-fd28b5363e66","system_id":"levelo_inurba_marseille","lat":43.278399,"lon":5.392139,"is_reserved":false,"is_disabled":false,"rental_uris":{"android":"levelo://app?vid=b36a6119-b72a-44f6-8f8d-fd28b5363e66","ios":"levelo://app?vid=b36a6119-b72a-44f6-8f8d-fd28b5363e66"},"vehicle_type_id":"4","last_reported":1701209211,"current_range_meters":24000,"station_id":"ce4bhjp2rcd13ifvqga0","pricing_plan_id":"free"},{"bike_id":"5676556d-60ca-44de-be13-9b40b562fc07","system_id":"levelo_inurba_marseille","lat":43.273613,"lon":5.362705,"is_reserved":false,"is_disabled":false,"rental_uris":{"android":"levelo://app?vid=5676556d-60ca-44de-be13-9b40b562fc07","ios":"levelo://app?vid=5676556d-60ca-44de-be13-9b40b562fc07"},"vehicle_type_id":"4","last_reported":1701209211,"current_range_meters":22000,"station_id":"ce4bhbh2rcd13ifvqeo0","pricing_plan_id":"free"},{"bike_id":"c78d9778-891e-4402-aafb-a0e1da2ab261","system_id":"levelo_inurba_marseille","lat":43.275625,"lon":5.384392,"is_reserved":false,"is_disabled":false,"rental_uris":{"android":"levelo://app?vid=c78d9778-891e-4402-aafb-a0e1da2ab261","ios":"levelo://app?vid=c78d9778-891e-4402-aafb-a0e1da2ab261"},"vehicle_type_id":"4","last_reported":1701209211,"current_range_meters":22400,"station_id":"ce4bhh92rcd13ifvqfi0","pricing_plan_id":"free"},{"bike_id":"99fbda9f-aae8-4f20-a924-2349099c9fc7","system_id":"levelo_inurba_marseille","lat":43.336134,"lon":5.410341,"is_reserved":false,"is_disabled":false,"rental_uris":{"android":"levelo://app?vid=99fbda9f-aae8-4f20-a924-2349099c9fc7","ios":"levelo://app?vid=99fbda9f-aae8-4f20-a924-2349099c9fc7"},"vehicle_type_id":"4","last_reported":1701209211,"current_range_meters":26800,"station_id":"ce4bhqh2rcd13ifvqhmg","pricing_plan_id":"free"},{"bike_id":"b96aa254-24de-41e1-8c05-b7d04ceb4118","system_id":"levelo_inurba_marseille","lat":43.317121,"lon":5.423936,"is_reserved":false,"is_disabled":false,"rental_uris":{"android":"levelo://app?vid=b96aa254-24de-41e1-8c05-b7d04ceb4118","ios":"levelo://app?vid=b96aa254-24de-41e1-8c05-b7d04ceb4118"},"vehicle_type_id":"4","last_reported":1701209211,"current_range_meters":30000,"station_id":"ce4bhp92rcd13ifvqhbg","pricing_plan_id":"free"},{"bike_id":"0d2f8383-0939-4bbd-987a-b05def9a4f03","system_id":"levelo_inurba_marseille","lat":43.31082,"lon":5.42429,"is_reserved":false,"is_disabled":false,"rental_uris":{"android":"levelo://app?vid=0d2f8383-0939-4bbd-987a-b05def9a4f03","ios":"levelo://app?vid=0d2f8383-0939-4bbd-987a-b05def9a4f03"},"vehicle_type_id":"4","last_reported":1701209211,"current_range_meters":28000,"station_id":"ce4bhp92rcd13ifvqhag","pricing_plan_id":"free"},{"bike_id":"62cfa572-51d4-4a04-9e45-ea785883caeb","system_id":"levelo_inurba_marseille","lat":43.27215,"lon":5.39262,"is_reserved":false,"is_disabled":false,"rental_uris":{"android":"levelo://app?vid=62cfa572-51d4-4a04-9e45-ea785883caeb","ios":"levelo://app?vid=62cfa572-51d4-4a04-9e45-ea785883caeb"},"vehicle_type_id":"4","last_reported":1701209211,"current_range_meters":14000,"station_id":"","pricing_plan_id":"free"},{"bike_id":"8b142e0b-7054-49c4-8717-843238b69b39","system_id":"levelo_inurba_marseille","lat":43.278128,"lon":5.407195,"is_reserved":false,"is_disabled":false,"rental_uris":{"android":"levelo://app?vid=8b142e0b-7054-49c4-8717-843238b69b39","ios":"levelo://app?vid=8b142e0b-7054-49c4-8717-843238b69b39"},"vehicle_type_id":"4","last_reported":1701209211,"current_range_meters":31200,"station_id":"ce4bhnh2rcd13ifvqgtg","pricing_plan_id":"free"},{"bike_id":"38f175ae-65e3-4441-bcec-8c3f494df2b3","system_id":"levelo_inurba_marseille","lat":43.278128,"lon":5.407195,"is_reserved":false,"is_disabled":false,"rental_uris":{"android":"levelo://app?vid=38f175ae-65e3-4441-bcec-8c3f494df2b3","ios":"levelo://app?vid=38f175ae-65e3-4441-bcec-8c3f494df2b3"},"vehicle_type_id":"4","last_reported":1701209211,"current_range_meters":30800,"station_id":"ce4bhnh2rcd13ifvqgtg","pricing_plan_id":"free"},{"bike_id":"42e9b9ac-3409-4bd1-9d3c-19eeb06c37c5","system_id":"levelo_inurba_marseille","lat":43.278128,"lon":5.407195,"is_reserved":false,"is_disabled":false,"rental_uris":{"android":"levelo://app?vid=42e9b9ac-3409-4bd1-9d3c-19eeb06c37c5","ios":"levelo://app?vid=42e9b9ac-3409-4bd1-9d3c-19eeb06c37c5"},"vehicle_type_id":"4","last_reported":1701209211,"current_range_meters":29200,"station_id":"ce4bhnh2rcd13ifvqgtg","pricing_plan_id":"free"},{"bike_id":"7a4dcdfc-9a27-49ba-b9fb-f54a01f2d9b2","system_id":"levelo_inurba_marseille","lat":43.278128,"lon":5.407195,"is_reserved":false,"is_disabled":false,"rental_uris":{"android":"levelo://app?vid=7a4dcdfc-9a27-49ba-b9fb-f54a01f2d9b2","ios":"levelo://app?vid=7a4dcdfc-9a27-49ba-b9fb-f54a01f2d9b2"},"vehicle_type_id":"4","last_reported":1701209211,"current_range_meters":31200,"station_id":"ce4bhnh2rcd13ifvqgtg","pricing_plan_id":"free"},{"bike_id":"861ce127-c633-47c4-a541-50848c0dc844","system_id":"levelo_inurba_marseille","lat":43.278128,"lon":5.407195,"is_reserved":false,"is_disabled":false,"rental_uris":{"android":"levelo://app?vid=861ce127-c633-47c4-a541-50848c0dc844","ios":"levelo://app?vid=861ce127-c633-47c4-a541-50848c0dc844"},"vehicle_type_id":"4","last_reported":1701209211,"current_range_meters":25600,"station_id":"ce4bhnh2rcd13ifvqgtg","pricing_plan_id":"free"},{"bike_id":"c9f8a0a6-16e5-4ff4-a061-6028550e1760","system_id":"levelo_inurba_marseille","lat":43.278128,"lon":5.407195,"is_reserved":false,"is_disabled":false,"rental_uris":{"android":"levelo://app?vid=c9f8a0a6-16e5-4ff4-a061-6028550e1760","ios":"levelo://app?vid=c9f8a0a6-16e5-4ff4-a061-6028550e1760"},"vehicle_type_id":"4","last_reported":1701209211,"current_range_meters":13200,"station_id":"ce4bhnh2rcd13ifvqgtg","pricing_plan_id":"free"},{"bike_id":"3225fb83-0680-4e47-b873-e4f092068a31","system_id":"levelo_inurba_marseille","lat":43.27809,"lon":5.40717,"is_reserved":false,"is_disabled":false,"rental_uris":{"android":"levelo://app?vid=3225fb83-0680-4e47-b873-e4f092068a31","ios":"levelo://app?vid=3225fb83-0680-4e47-b873-e4f092068a31"},"vehicle_type_id":"4","last_reported":1701209211,"current_range_meters":31200,"station_id":"ce4bhnh2rcd13ifvqgtg","pricing_plan_id":"free"},{"bike_id":"c7faed10-a6b1-49b6-903c-20f7d23207a5","system_id":"levelo_inurba_marseille","lat":43.279465,"lon":5.410561,"is_reserved":false,"is_disabled":false,"rental_uris":{"android":"levelo://app?vid=c7faed10-a6b1-49b6-903c-20f7d23207a5","ios":"levelo://app?vid=c7faed10-a6b1-49b6-903c-20f7d23207a5"},"vehicle_type_id":"4","last_reported":1701209211,"current_range_meters":31200,"station_id":"ce4bhnp2rcd13ifvqh0g","pricing_plan_id":"free"},{"bike_id":"fd6076a2-900b-45c7-a82d-f0f0875b7fad","system_id":"levelo_inurba_marseille","lat":43.279373,"lon":5.410419,"is_reserved":false,"is_disabled":false,"rental_uris":{"android":"levelo://app?vid=fd6076a2-900b-45c7-a82d-f0f0875b7fad","ios":"levelo://app?vid=fd6076a2-900b-45c7-a82d-f0f0875b7fad"},"vehicle_type_id":"4","last_reported":1701209211,"current_range_meters":23600,"station_id":"ce4bhnp2rcd13ifvqh0g","pricing_plan_id":"free"},{"bike_id":"0e882549-423e-4309-82c6-533baa31a3ef","system_id":"levelo_inurba_marseille","lat":43.269319,"lon":5.389397,"is_reserved":false,"is_disabled":false,"rental_uris":{"android":"levelo://app?vid=0e882549-423e-4309-82c6-533baa31a3ef","ios":"levelo://app?vid=0e882549-423e-4309-82c6-533baa31a3ef"},"vehicle_type_id":"4","last_reported":1701209211,"current_range_meters":17200,"station_id":"ce4bhhh2rcd13ifvqfl0","pricing_plan_id":"free"},{"bike_id":"0cf37fc1-fb17-4753-98b0-f023620b59e4","system_id":"levelo_inurba_marseille","lat":43.27994,"lon":5.4166,"is_reserved":false,"is_disabled":false,"rental_uris":{"android":"levelo://app?vid=0cf37fc1-fb17-4753-98b0-f023620b59e4","ios":"levelo://app?vid=0cf37fc1-fb17-4753-98b0-f023620b59e4"},"vehicle_type_id":"4","last_reported":1701209211,"current_range_meters":23600,"station_id":"ce4bho12rcd13ifvqh1g","pricing_plan_id":"free"},{"bike_id":"8049c51c-069c-4ea1-8b0b-97c2ca8cb022","system_id":"levelo_inurba_marseille","lat":43.27993,"lon":5.41663,"is_reserved":false,"is_disabled":false,"rental_uris":{"android":"levelo://app?vid=8049c51c-069c-4ea1-8b0b-97c2ca8cb022","ios":"levelo://app?vid=8049c51c-069c-4ea1-8b0b-97c2ca8cb022"},"vehicle_type_id":"4","last_reported":1701209211,"current_range_meters":27200,"station_id":"ce4bho12rcd13ifvqh1g","pricing_plan_id":"free"},{"bike_id":"7769d8a6-ace2-4600-bc82-4d6d23aeed77","system_id":"levelo_inurba_marseille","lat":43.284671,"lon":5.422,"is_reserved":false,"is_disabled":false,"rental_uris":{"android":"levelo://app?vid=7769d8a6-ace2-4600-bc82-4d6d23aeed77","ios":"levelo://app?vid=7769d8a6-ace2-4600-bc82-4d6d23aeed77"},"vehicle_type_id":"4","last_reported":1701209211,"current_range_meters":0,"station_id":"","pricing_plan_id":"free"},{"bike_id":"7535fedc-74ac-474b-8a2d-12a425012ada","system_id":"levelo_inurba_marseille","lat":43.308051,"lon":5.43527,"is_reserved":false,"is_disabled":false,"rental_uris":{"android":"levelo://app?vid=7535fedc-74ac-474b-8a2d-12a425012ada","ios":"levelo://app?vid=7535fedc-74ac-474b-8a2d-12a425012ada"},"vehicle_type_id":"4","last_reported":1701209211,"current_range_meters":31200,"station_id":"ce4bhph2rcd13ifvqheg","pricing_plan_id":"free"},{"bike_id":"23989d20-8a3e-42ec-be34-7eae04d446c8","system_id":"levelo_inurba_marseille","lat":43.308051,"lon":5.43527,"is_reserved":false,"is_disabled":false,"rental_uris":{"android":"levelo://app?vid=23989d20-8a3e-42ec-be34-7eae04d446c8","ios":"levelo://app?vid=23989d20-8a3e-42ec-be34-7eae04d446c8"},"vehicle_type_id":"4","last_reported":1701209211,"current_range_meters":27200,"station_id":"ce4bhph2rcd13ifvqheg","pricing_plan_id":"free"},{"bike_id":"5c60cc0f-874d-481f-a9ed-eb4eef028541","system_id":"levelo_inurba_marseille","lat":43.265571,"lon":5.390032,"is_reserved":false,"is_disabled":false,"rental_uris":{"android":"levelo://app?vid=5c60cc0f-874d-481f-a9ed-eb4eef028541","ios":"levelo://app?vid=5c60cc0f-874d-481f-a9ed-eb4eef028541"},"vehicle_type_id":"4","last_reported":1701209211,"current_range_meters":0,"station_id":"ce4bhe12rcd13ifvqf30","pricing_plan_id":"free"},{"bike_id":"15c55536-52f0-4f3a-86dc-582ca752b7e6","system_id":"levelo_inurba_marseille","lat":43.317104,"lon":5.436818,"is_reserved":false,"is_disabled":false,"rental_uris":{"android":"levelo://app?vid=15c55536-52f0-4f3a-86dc-582ca752b7e6","ios":"levelo://app?vid=15c55536-52f0-4f3a-86dc-582ca752b7e6"},"vehicle_type_id":"4","last_reported":1701209211,"current_range_meters":15600,"station_id":"ce4bhp92rcd13ifvqhcg","pricing_plan_id":"free"},{"bike_id":"2cfd894b-595c-4bac-a01a-4d2673d809b1","system_id":"levelo_inurba_marseille","lat":43.261782,"lon":5.374515,"is_reserved":false,"is_disabled":false,"rental_uris":{"android":"levelo://app?vid=2cfd894b-595c-4bac-a01a-4d2673d809b1","ios":"levelo://app?vid=2cfd894b-595c-4bac-a01a-4d2673d809b1"},"vehicle_type_id":"4","last_reported":1701209211,"current_range_meters":31200,"station_id":"ce4bhgp2rcd13ifvqfc0","pricing_plan_id":"free"},{"bike_id":"ebeb7237-be6c-4beb-a89a-e720af5514ba","system_id":"levelo_inurba_marseille","lat":43.261782,"lon":5.374515,"is_reserved":false,"is_disabled":false,"rental_uris":{"android":"levelo://app?vid=ebeb7237-be6c-4beb-a89a-e720af5514ba","ios":"levelo://app?vid=ebeb7237-be6c-4beb-a89a-e720af5514ba"},"vehicle_type_id":"4","last_reported":1701209211,"current_range_meters":18000,"station_id":"ce4bhgp2rcd13ifvqfc0","pricing_plan_id":"free"},{"bike_id":"c54b41ab-b57a-4eed-82bd-fd22f7c60ecf","system_id":"levelo_inurba_marseille","lat":43.317104,"lon":5.436818,"is_reserved":false,"is_disabled":false,"rental_uris":{"android":"levelo://app?vid=c54b41ab-b57a-4eed-82bd-fd22f7c60ecf","ios":"levelo://app?vid=c54b41ab-b57a-4eed-82bd-fd22f7c60ecf"},"vehicle_type_id":"4","last_reported":1701209211,"current_range_meters":0,"station_id":"ce4bhp92rcd13ifvqhcg","pricing_plan_id":"free"},{"bike_id":"3ee6d42b-be43-4558-85e1-d7d39f345c6b","system_id":"levelo_inurba_marseille","lat":43.317104,"lon":5.436818,"is_reserved":false,"is_disabled":false,"rental_uris":{"android":"levelo://app?vid=3ee6d42b-be43-4558-85e1-d7d39f345c6b","ios":"levelo://app?vid=3ee6d42b-be43-4558-85e1-d7d39f345c6b"},"vehicle_type_id":"4","last_reported":1701209211,"current_range_meters":30400,"station_id":"ce4bhp92rcd13ifvqhcg","pricing_plan_id":"free"},{"bike_id":"d1711a6a-dce8-4800-9c2a-741d836b1e8f","system_id":"levelo_inurba_marseille","lat":43.27183,"lon":5.40981,"is_reserved":false,"is_disabled":false,"rental_uris":{"android":"levelo://app?vid=d1711a6a-dce8-4800-9c2a-741d836b1e8f","ios":"levelo://app?vid=d1711a6a-dce8-4800-9c2a-741d836b1e8f"},"vehicle_type_id":"4","last_reported":1701209211,"current_range_meters":17200,"station_id":"ce4bhl12rcd13ifvqgf0","pricing_plan_id":"free"},{"bike_id":"db2e35b6-91ba-4b8a-b10b-c020bac1b56a","system_id":"levelo_inurba_marseille","lat":43.262012,"lon":5.379307,"is_reserved":false,"is_disabled":false,"rental_uris":{"android":"levelo://app?vid=db2e35b6-91ba-4b8a-b10b-c020bac1b56a","ios":"levelo://app?vid=db2e35b6-91ba-4b8a-b10b-c020bac1b56a"},"vehicle_type_id":"4","last_reported":1701209211,"current_range_meters":28000,"station_id":"ce4bhjp2rcd13ifvqg90","pricing_plan_id":"free"},{"bike_id":"5edf4ffd-945c-46ca-853f-f4dc48bf88b7","system_id":"levelo_inurba_marseille","lat":43.26202,"lon":5.379299,"is_reserved":false,"is_disabled":false,"rental_uris":{"android":"levelo://app?vid=5edf4ffd-945c-46ca-853f-f4dc48bf88b7","ios":"levelo://app?vid=5edf4ffd-945c-46ca-853f-f4dc48bf88b7"},"vehicle_type_id":"4","last_reported":1701209211,"current_range_meters":31200,"station_id":"ce4bhjp2rcd13ifvqg90","pricing_plan_id":"free"},{"bike_id":"9d2d7e59-8bbc-4ed8-8840-d27f38a78f26","system_id":"levelo_inurba_marseille","lat":43.27179,"lon":5.40994,"is_reserved":false,"is_disabled":false,"rental_uris":{"android":"levelo://app?vid=9d2d7e59-8bbc-4ed8-8840-d27f38a78f26","ios":"levelo://app?vid=9d2d7e59-8bbc-4ed8-8840-d27f38a78f26"},"vehicle_type_id":"4","last_reported":1701209211,"current_range_meters":31200,"station_id":"ce4bhl12rcd13ifvqgf0","pricing_plan_id":"free"},{"bike_id":"fa7abb30-4346-431c-b1fa-aef86f064968","system_id":"levelo_inurba_marseille","lat":43.26202,"lon":5.379299,"is_reserved":false,"is_disabled":false,"rental_uris":{"android":"levelo://app?vid=fa7abb30-4346-431c-b1fa-aef86f064968","ios":"levelo://app?vid=fa7abb30-4346-431c-b1fa-aef86f064968"},"vehicle_type_id":"4","last_reported":1701209211,"current_range_meters":11600,"station_id":"ce4bhjp2rcd13ifvqg90","pricing_plan_id":"free"},{"bike_id":"446cd8c0-e899-491b-a3a1-821d86a5b153","system_id":"levelo_inurba_marseille","lat":43.26202,"lon":5.379299,"is_reserved":false,"is_disabled":false,"rental_uris":{"android":"levelo://app?vid=446cd8c0-e899-491b-a3a1-821d86a5b153","ios":"levelo://app?vid=446cd8c0-e899-491b-a3a1-821d86a5b153"},"vehicle_type_id":"4","last_reported":1701209211,"current_range_meters":15600,"station_id":"ce4bhjp2rcd13ifvqg90","pricing_plan_id":"free"},{"bike_id":"69bbd975-8852-45b8-b1ac-3047bb1be877","system_id":"levelo_inurba_marseille","lat":43.27176,"lon":5.40992,"is_reserved":false,"is_disabled":false,"rental_uris":{"android":"levelo://app?vid=69bbd975-8852-45b8-b1ac-3047bb1be877","ios":"levelo://app?vid=69bbd975-8852-45b8-b1ac-3047bb1be877"},"vehicle_type_id":"4","last_reported":1701209211,"current_range_meters":28000,"station_id":"ce4bhl12rcd13ifvqgf0","pricing_plan_id":"free"},{"bike_id":"0a411095-3a8a-4221-843c-f3d98b94b3cb","system_id":"levelo_inurba_marseille","lat":43.27177,"lon":5.40995,"is_reserved":false,"is_disabled":false,"rental_uris":{"android":"levelo://app?vid=0a411095-3a8a-4221-843c-f3d98b94b3cb","ios":"levelo://app?vid=0a411095-3a8a-4221-843c-f3d98b94b3cb"},"vehicle_type_id":"4","last_reported":1701209211,"current_range_meters":30000,"station_id":"ce4bhl12rcd13ifvqgf0","pricing_plan_id":"free"},{"bike_id":"75ef75c1-d239-44ee-b568-8f31b3960974","system_id":"levelo_inurba_marseille","lat":43.27173,"lon":5.40991,"is_reserved":false,"is_disabled":false,"rental_uris":{"android":"levelo://app?vid=75ef75c1-d239-44ee-b568-8f31b3960974","ios":"levelo://app?vid=75ef75c1-d239-44ee-b568-8f31b3960974"},"vehicle_type_id":"4","last_reported":1701209211,"current_range_meters":31200,"station_id":"ce4bhl12rcd13ifvqgf0","pricing_plan_id":"free"},{"bike_id":"a16cd1d0-54bc-4ba8-8e9f-1fefeebde8cf","system_id":"levelo_inurba_marseille","lat":43.267959,"lon":5.402687,"is_reserved":false,"is_disabled":false,"rental_uris":{"android":"levelo://app?vid=a16cd1d0-54bc-4ba8-8e9f-1fefeebde8cf","ios":"levelo://app?vid=a16cd1d0-54bc-4ba8-8e9f-1fefeebde8cf"},"vehicle_type_id":"4","last_reported":1701209211,"current_range_meters":13600,"station_id":"ce501612rcd8frsf0b60","pricing_plan_id":"free"},