{"last_updated":1745000011,"ttl":60,"version":"2.2","data":{"bikes":[{"bike_id":"5b7f6d17-41fd-4871-8e93-5f60162d0560","system_id":"levelo_inurba_marseille","lat":43.290047,"lon":5.356106,"is_reserved":false,"is_disabled":true,"rental_uris":{"android":"levelo://app?vid=5b7f6d17-41fd-4871-8e93-5f60162d0560","ios":"levelo://app?vid=5b7f6d17-41fd-4871-8e93-5f60162d0560"},"vehicle_type_id":"4","last_reported":1745000011,"current_range_meters":2800,"station_id":"ce4bhb92rcd13ifvqen0","pricing_plan_id":"cebpf4jnsgd1na2vs0mg"},{"bike_id":"4df0ead0-b402-44d2-8d7c-1364a578ab9e","system_id":"levelo_inurba_marseille","lat":43.27995,"lon":5.40011,"is_reserved":false,"is_disabled":false,"rental_uris":{"android":"levelo://app?vid=4df0ead0-b402-44d2-8d7c-1364a578ab9e","ios":"levelo://app?vid=4df0ead0-b402-44d2-8d7c-1364a578ab9e"},"vehicle_type_id":"4","last_reported":1745000011,"current_range_meters":2800,"station_id":"ce4bho92rcd13ifvqh4g","pricing_plan_id":"cebpf4jnsgd1na2vs0mg"},{"bike_id":"2dd473ea-db31-409d-8c70-93ae9fea95c6","system_id":"levelo_inurba_marseille","lat":43.27311,"lon":5.39156,"is_reserved":false,"is_disabled":false,"rental_uris":{"android":"levelo://app?vid=2dd473ea-db31-409d-8c70-93ae9fea95c6","ios":"levelo://app?vid=2dd473ea-db31-409d-8c70-93ae9fea95c6"},"vehicle_type_id":"4","last_reported":1745000011,"current_range_meters":3200,"station_id":"","pricing_plan_id":"cebpf4jnsgd1na2vs0mg"},{"bike_id":"4992d484-a546-455f-8433-2cde287c477e","system_id":"levelo_inurba_marseille","lat":43.30333,"lon":5.4041,"is_reserved":false,"is_disabled":true,"rental_uris":{"android":"levelo://app?vid=4992d484-a546-455f-8433-2cde287c477e","ios":"levelo://app?vid=4992d484-a546-455f-8433-2cde287c477e"},"vehicle_type_id":"4","last_reported":1745000011,"current_range_meters":2800,"station_id":"ce4bh012rcd13ifvqd10","pricing_plan_id":"cebpf4jnsgd1na2vs0mg"},{"bike_id":"c21046d4-682b-4e71-bec4-f11ef57fc3f0","system_id":"levelo_inurba_marseille","lat":43.28722,"lon":5.37956,"is_reserved":false,"is_disabled":false,"rental_uris":{"android":"levelo://app?vid=c21046d4-682b-4e71-bec4-f11ef57fc3f0","ios":"levelo://app?vid=c21046d4-682b-4e71-bec4-f11ef57fc3f0"},"vehicle_type_id":"4","last_reported":1745000011,"current_range_meters":2800,"station_id":"ce4bh9p2rcd13ifvqec0","pricing_plan_id":"cebpf4jnsgd1na2vs0mg"},{"bike_id":"c754e088-e5dc-4eb1-b005-c223588966bf","system_id":"levelo_inurba_marseille","lat":43.294067,"lon":5.386216,"is_reserved":false,"is_disabled":false,"rental_uris":{"android":"levelo://app?vid=c754e088-e5dc-4eb1-b005-c223588966bf","ios":"levelo://app?vid=c754e088-e5dc-4eb1-b005-c223588966bf"},"vehicle_type_id":"4","last_reported":1745000011,"current_range_meters":2800,"station_id":"ce4bh2h2rcd13ifvqdh0","pricing_plan_id":"cebpf4jnsgd1na2vs0mg"},{"bike_id":"8667981c-e3ee-4fb9-ac63-51a5ded5796f","system_id":"levelo_inurba_marseille","lat":43.29301,"lon":5.37464,"is_reserved":false,"is_disabled":false,"rental_uris":{"android":"levelo://app?vid=8667981c-e3ee-4fb9-ac63-51a5ded5796f","ios":"levelo://app?vid=8667981c-e3ee-4fb9-ac63-51a5ded5796f"},"vehicle_type_id":"4","last_reported":1745000011,"current_range_meters":3200,"station_id":"ce4bgi12rcd13ifvqb70","pricing_plan_id":"cebpf4jnsgd1na2vs0mg"},{"bike_id":"206e6eed-90ee-4177-ab5a-4bcb1810ce02","system_id":"levelo_inurba_marseille","lat":43.32371,"lon":5.36736,"is_reserved":false,"is_disabled":false,"rental_uris":{"android":"levelo://app?vid=206e6eed-90ee-4177-ab5a-4bcb1810ce02","ios":"levelo://app?vid=206e6eed-90ee-4177-ab5a-4bcb1810ce02"},"vehicle_type_id":"4","last_reported":1745000011,"current_range_meters":3200,"station_id":"ce4bhsh2rcd13ifvqi2g","pricing_plan_id":"cebpf4jnsgd1na2vs0mg"},{"bike_id":"78c6d18d-4940-432a-9fa8-419188bc2455","system_id":"levelo_inurba_marseille","lat":43.27622,"lon":5.36125,"is_reserved":false,"is_disabled":false,"rental_uris":{"android":"levelo://app?vid=78c6d18d-4940-432a-9fa8-419188bc2455","ios":"levelo://app?vid=78c6d18d-4940-432a-9fa8-419188bc2455"},"vehicle_type_id":"4","last_reported":1745000011,"current_range_meters":3200,"station_id":"ce4bgj92rcd13ifvqbe0","pricing_plan_id":"cebpf4jnsgd1na2vs0mg"},{"bike_id":"9f90d280-b109-4344-bf36-a8e09fe7e4eb","system_id":"levelo_inurba_marseille","lat":43.26494,"lon":5.39545,"is_reserved":false,"is_disabled":false,"rental_uris":{"android":"levelo://app?vid=9f90d280-b109-4344-bf36-a8e09fe7e4eb","ios":"levelo://app?vid=9f90d280-b109-4344-bf36-a8e09fe7e4eb"},"vehicle_type_id":"4","last_reported":1745000011,"current_range_meters":3200,"station_id":"ce4bhi12rcd13ifvqfq0","pricing_plan_id":"cebpf4jnsgd1na2vs0mg"},{"bike_id":"7023b8cd-2ea9-4092-944f-9a4089268ca9","system_id":"levelo_inurba_marseille","lat":43.25088,"lon":5.39524,"is_reserved":false,"is_disabled":false,"rental_uris":{"android":"levelo://app?vid=7023b8cd-2ea9-4092-944f-9a4089268ca9","ios":"levelo://app?vid=7023b8cd-2ea9-4092-944f-9a4089268ca9"},"vehicle_type_id":"4","last_reported":1745000011,"current_range_meters":3200,"station_id":"ce4bhm12rcd13ifvqgkg","pricing_plan_id":"cebpf4jnsgd1na2vs0mg"},{"bike_id":"658286b1-cabc-4178-b12d-cb843f45de12","system_id":"levelo_inurba_marseille","lat":43.31112,"lon":5.37757,"is_reserved":false,"is_disabled":false,"rental_uris":{"android":"levelo://app?vid=658286b1-cabc-4178-b12d-cb843f45de12","ios":"levelo://app?vid=658286b1-cabc-4178-b12d-cb843f45de12"},"vehicle_type_id":"4","last_reported":1745000011,"current_range_meters":3600,"station_id":"ce4bgt92rcd13ifvqcg0","pricing_plan_id":"cebpf4jnsgd1na2vs0mg"},{"bike_id":"c65a1a0b-51b8-4da7-8f0c-3b504305334d","system_id":"levelo_inurba_marseille","lat":43.26552,"lon":5.37287,"is_reserved":false,"is_disabled":false,"rental_uris":{"android":"levelo://app?vid=c65a1a0b-51b8-4da7-8f0c-3b504305334d","ios":"levelo://app?vid=c65a1a0b-51b8-4da7-8f0c-3b504305334d"},"vehicle_type_id":"4","last_reported":1745000011,"current_range_meters":3600,"station_id":"ce4bhg12rcd13ifvqf70","pricing_plan_id":"cebpf4jnsgd1na2vs0mg"},{"bike_id":"faaece45-65cd-4495-8c6e-881c362a64fa","system_id":"levelo_inurba_marseille","lat":43.2918,"lon":5.38305,"is_reserved":false,"is_disabled":false,"rental_uris":{"android":"levelo://app?vid=faaece45-65cd-4495-8c6e-881c362a64fa","ios":"levelo://app?vid=faaece45-65cd-4495-8c6e-881c362a64fa"},"vehicle_type_id":"4","last_reported":1745000011,"current_range_meters":3600,"station_id":"","pricing_plan_id":"cebpf4jnsgd1na2vs0mg"},{"bike_id":"8048c76e-dea9-453a-9756-19981bfe0566","system_id":"levelo_inurba_marseille","lat":43.29426,"lon":5.38635,"is_reserved":false,"is_disabled":false,"rental_uris":{"android":"levelo://app?vid=8048c76e-dea9-453a-9756-19981bfe0566","ios":"levelo://app?vid=8048c76e-dea9-453a-9756-19981bfe0566"},"vehicle_type_id":"4","last_reported":1745000011,"current_range_meters":3600,"station_id":"ce4bh2h2rcd13ifvqdh0","pricing_plan_id":"cebpf4jnsgd1na2vs0mg"},{"bike_id":"bd73dba0-26d4-4ff6-ac27-f8deedcca9b1","system_id":"levelo_inurba_marseille","lat":43.26927,"lon":5.38922,"is_reserved":false,"is_disabled":false,"rental_uris":{"android":"levelo://app?vid=bd73dba0-26d4-4ff6-ac27-f8deedcca9b1","ios":"levelo://app?vid=bd73dba0-26d4-4ff6-ac27-f8deedcca9b1"},"vehicle_type_id":"4","last_reported":1745000011,"current_range_meters":3200,"station_id":"ce4bhhh2rcd13ifvqfl0","pricing_plan_id":"cebpf4jnsgd1na2vs0mg"},{"bike_id":"b76937d8-ad67-43f5-bfd1-367eef72f747","system_id":"levelo_inurba_marseille","lat":43.28619,"lon":5.35103,"is_reserved":false,"is_disabled":false,"rental_uris":{"android":"levelo://app?vid=b76937d8-ad67-43f5-bfd1-367eef72f747","ios":"levelo://app?vid=b76937d8-ad67-43f5-bfd1-367eef72f747"},"vehicle_type_id":"4","last_reported":1745000011,"current_range_meters":3600,"station_id":"ce4bhch2rcd13ifvqeug","pricing_plan_id":"cebpf4jnsgd1na2vs0mg"},{"bike_id":"4032b418-e7c8-4d7e-bab6-ddd0edf78c3d","system_id":"levelo_inurba_marseille","lat":43.29306,"lon":5.37182,"is_reserved":false,"is_disabled":false,"rental_uris":{"android":"levelo://app?vid=4032b418-e7c8-4d7e-bab6-ddd0edf78c3d","ios":"levelo://app?vid=4032b418-e7c8-4d7e-bab6-ddd0edf78c3d"},"vehicle_type_id":"4","last_reported":1745000011,"current_range_meters":4000,"station_id":"ce4bgh92rcd13ifvqb40","pricing_plan_id":"cebpf4jnsgd1na2vs0mg"},{"bike_id":"32dc4790-468a-4482-9bfb-e93f0faae6ce","system_id":"levelo_inurba_marseille","lat":43.24804,"lon":5.37454,"is_reserved":false,"is_disabled":false,"rental_uris":{"android":"levelo://app?vid=32dc4790-468a-4482-9bfb-e93f0faae6ce","ios":"levelo://app?vid=32dc4790-468a-4482-9bfb-e93f0faae6ce"},"vehicle_type_id":"4","last_reported":1745000011,"current_range_meters":4000,"station_id":"ce4bhgh2rcd13ifvqfb0","pricing_plan_id":"cebpf4jnsgd1na2vs0mg"},{"bike_id":"72444725-814a-431e-b4ff-4ade053106a1","system_id":"levelo_inurba_marseille","lat":43.2937,"lon":5.37847,"is_reserved":false,"is_disabled":false,"rental_uris":{"android":"levelo://app?vid=72444725-814a-431e-b4ff-4ade053106a1","ios":"levelo://app?vid=72444725-814a-431e-b4ff-4ade053106a1"},"vehicle_type_id":"4","last_reported":1745000011,"current_range_meters":4000,"station_id":"ce4bgjh2rcd13ifvqbf0","pricing_plan_id":"cebpf4jnsgd1na2vs0mg"},{"bike_id":"11be1580-d0ba-4f8d-a066-009f09f5042e","system_id":"levelo_inurba_marseille","lat":43.29706,"lon":5.36618,"is_reserved":false,"is_disabled":false,"rental_uris":{"android":"levelo://app?vid=11be1580-d0ba-4f8d-a066-009f09f5042e","ios":"levelo://app?vid=11be1580-d0ba-4f8d-a066-009f09f5042e"},"vehicle_type_id":"4","last_reported":1745000011,"current_range_meters":4000,"station_id":"ce4bgn12rcd13ifvqbt0","pricing_plan_id":"cebpf4jnsgd1na2vs0mg"},{"bike_id":"0cd7448c-170a-48be-bc79-f10bcaf69806","system_id":"levelo_inurba_marseille","lat":43.23058,"lon":5.35502,"is_reserved":false,"is_disabled":true,"rental_uris":{"android":"levelo://app?vid=0cd7448c-170a-48be-bc79-f10bcaf69806","ios":"levelo://app?vid=0cd7448c-170a-48be-bc79-f10bcaf69806"},"vehicle_type_id":"4","last_reported":1745000011,"current_range_meters":4400,"station_id":"cpo3342slgdg3j2ifvpg","pricing_plan_id":"cebpf4jnsgd1na2vs0mg"},{"bike_id":"dafc8a07-fed4-4515-91ce-e2db88c67304","system_id":"levelo_inurba_marseille","lat":43.31484,"lon":5.3731,"is_reserved":false,"is_disabled":false,"rental_uris":{"android":"levelo://app?vid=dafc8a07-fed4-4515-91ce-e2db88c67304","ios":"levelo://app?vid=dafc8a07-fed4-4515-91ce-e2db88c67304"},"vehicle_type_id":"4","last_reported":1745000011,"current_range_meters":6000,"station_id":"ce4bgt12rcd13ifvqcd0","pricing_plan_id":"cebpf4jnsgd1na2vs0mg"},{"bike_id":"74041085-e7a9-419d-9214-26c17d90fc51","system_id":"levelo_inurba_marseille","lat":43.29097,"lon":5.38154,"is_reserved":false,"is_disabled":false,"rental_uris":{"android":"levelo://app?vid=74041085-e7a9-419d-9214-26c17d90fc51","ios":"levelo://app?vid=74041085-e7a9-419d-9214-26c17d90fc51"},"vehicle_type_id":"4","last_reported":1745000011,"current_range_meters":4400,"station_id":"ce4bh512rcd13ifvqe2g","pricing_plan_id":"cebpf4jnsgd1na2vs0mg"},{"bike_id":"0a902f4d-adfa-409c-a9c2-42a426cca2bc","system_id":"levelo_inurba_marseille","lat":43.28267,"lon":5.35086,"is_reserved":false,"is_disabled":false,"rental_uris":{"android":"levelo://app?vid=0a902f4d-adfa-409c-a9c2-42a426cca2bc","ios":"levelo://app?vid=0a902f4d-adfa-409c-a9c2-42a426cca2bc"},"vehicle_type_id":"4","last_reported":1745000011,"current_range_meters":4400,"station_id":"ce4bhbp2rcd13ifvqerg","pricing_plan_id":"cebpf4jnsgd1na2vs0mg"},{"bike_id":"6eaff50d-2089-4fdb-9129-a7fdb61de762","system_id":"levelo_inurba_marseille","lat":43.25579,"lon":5.38278,"is_reserved":false,"is_disabled":false,"rental_uris":{"android":"levelo://app?vid=6eaff50d-2089-4fdb-9129-a7fdb61de762","ios":"levelo://app?vid=6eaff50d-2089-4fdb-9129-a7fdb61de762"},"vehicle_type_id":"4","last_reported":1745000011,"current_range_meters":4800,"station_id":"ce4bhih2rcd13ifvqfs0","pricing_plan_id":"cebpf4jnsgd1na2vs0mg"},{"bike_id":"2df22311-bac1-4b8f-abff-11893969de63","system_id":"levelo_inurba_marseille","lat":43.31083,"lon":5.37826,"is_reserved":false,"is_disabled":false,"rental_uris":{"android":"levelo://app?vid=2df22311-bac1-4b8f-abff-11893969de63","ios":"levelo://app?vid=2df22311-bac1-4b8f-abff-11893969de63"},"vehicle_type_id":"4","last_reported":1745000011,"current_range_meters":4800,"station_id":"","pricing_plan_id":"cebpf4jnsgd1na2vs0mg"},{"bike_id":"ee43d317-be76-4787-a0d9-fa3e0f06f0a4","system_id":"levelo_inurba_marseille","lat":43.28669,"lon":5.36346,"is_reserved":false,"is_disabled":false,"rental_uris":{"android":"levelo://app?vid=ee43d317-be76-4787-a0d9-fa3e0f06f0a4","ios":"levelo://app?vid=ee43d317-be76-4787-a0d9-fa3e0f06f0a4"},"vehicle_type_id":"4","last_reported":1745000011,"current_range_meters":5600,"station_id":"ce4bhah2rcd13ifvqej0","pricing_plan_id":"cebpf4jnsgd1na2vs0mg"},{"bike_id":"93410c26-9fc7-4af0-aeb1-c11277a717f5","system_id":"levelo_inurba_marseille","lat":43.2894,"lon":5.3664,"is_reserved":false,"is_disabled":false,"rental_uris":{"android":"levelo://app?vid=93410c26-9fc7-4af0-aeb1-c11277a717f5","ios":"levelo://app?vid=93410c26-9fc7-4af0-aeb1-c11277a717f5"},"vehicle_type_id":"4","last_reported":1745000011,"current_range_meters":4800,"station_id":"ce4bhap2rcd13ifvqek0","pricing_plan_id":"cebpf4jnsgd1na2vs0mg"},{"bike_id":"2a297b53-e6c9-4a44-8832-a1535085da75","system_id":"levelo_inurba_marseille","lat":43.32002,"lon":5.38136,"is_reserved":false,"is_disabled":true,"rental_uris":{"android":"levelo://app?vid=2a297b53-e6c9-4a44-8832-a1535085da75","ios":"levelo://app?vid=2a297b53-e6c9-4a44-8832-a1535085da75"},"vehicle_type_id":"4","last_reported":1745000011,"current_range_meters":5600,"station_id":"ce4bhr12rcd13ifvqhpg","pricing_plan_id":"cebpf4jnsgd1na2vs0mg"},{"bike_id":"ea4b0a40-5b68-4605-b508-a3a3765ba925","system_id":"levelo_inurba_marseille","lat":43.28419,"lon":5.34977,"is_reserved":false,"is_disabled":false,"rental_uris":{"android":"levelo://app?vid=ea4b0a40-5b68-4605-b508-a3a3765ba925","ios":"levelo://app?vid=ea4b0a40-5b68-4605-b508-a3a3765ba925"},"vehicle_type_id":"4","last_reported":1745000011,"current_range_meters":5600,"station_id":"ce4bhbh2rcd13ifvqepg","pricing_plan_id":"cebpf4jnsgd1na2vs0mg"},{"bike_id":"66d561dc-a38c-4ed5-a094-b9e754795d4a","system_id":"levelo_inurba_marseille","lat":43.31328,"lon":5.39698,"is_reserved":false,"is_disabled":false,"rental_uris":{"android":"levelo://app?vid=66d561dc-a38c-4ed5-a094-b9e754795d4a","ios":"levelo://app?vid=66d561dc-a38c-4ed5-a094-b9e754795d4a"},"vehicle_type_id":"4","last_reported":1745000011,"current_range_meters":5600,"station_id":"ce4bgvp2rcd13ifvqcu0","pricing_plan_id":"cebpf4jnsgd1na2vs0mg"},{"bike_id":"2a45b11c-d300-4853-9784-5471296b9270","system_id":"levelo_inurba_marseille","lat":43.287,"lon":5.38698,"is_reserved":false,"is_disabled":false,"rental_uris":{"android":"levelo://app?vid=2a45b11c-d300-4853-9784-5471296b9270","ios":"levelo://app?vid=2a45b11c-d300-4853-9784-5471296b9270"},"vehicle_type_id":"4","last_reported":1745000011,"current_range_meters":5600,"station_id":"ce4bh492rcd13ifvqdug","pricing_plan_id":"cebpf4jnsgd1na2vs0mg"},{"bike_id":"34bf3188-27b9-4f35-a0e2-aa0ceb9db6a9","system_id":"levelo_inurba_marseille","lat":43.29304,"lon":5.37177,"is_reserved":false,"is_disabled":false,"rental_uris":{"android":"levelo://app?vid=34bf3188-27b9-4f35-a0e2-aa0ceb9db6a9","ios":"levelo://app?vid=34bf3188-27b9-4f35-a0e2-aa0ceb9db6a9"},"vehicle_type_id":"4","last_reported":1745000011,"current_range_meters":5600,"station_id":"ce4bgh92rcd13ifvqb40","pricing_plan_id":"cebpf4jnsgd1na2vs0mg"},{"bike_id":"683727aa-af5c-4a30-b620-923da0da034b","system_id":"levelo_inurba_marseille","lat":43.26838,"lon":5.40485,"is_reserved":false,"is_disabled":false,"rental_uris":{"android":"levelo://app?vid=683727aa-af5c-4a30-b620-923da0da034b","ios":"levelo://app?vid=683727aa-af5c-4a30-b620-923da0da034b"},"vehicle_type_id":"4","last_reported":1745000011,"current_range_meters":5600,"station_id":"cjm6bp8fraef2m0cb0m0","pricing_plan_id":"cebpf4jnsgd1na2vs0mg"},{"bike_id":"d63eb847-3810-4a2e-aa46-9be62b06b6a5","system_id":"levelo_inurba_marseille","lat":43.29319,"lon":5.37469,"is_reserved":false,"is_disabled":true,"rental_uris":{"android":"levelo://app?vid=d63eb847-3810-4a2e-aa46-9be62b06b6a5","ios":"levelo://app?vid=d63eb847-3810-4a2e-aa46-9be62b06b6a5"},"vehicle_type_id":"4","last_reported":1745000011,"current_range_meters":5600,"station_id":"ce4bgi12rcd13ifvqb70","pricing_plan_id":"cebpf4jnsgd1na2vs0mg"},{"bike_id":"b3df2fff-5d79-45ed-b098-a0bcef70f89f","system_id":"levelo_inurba_marseille","lat":43.29279,"lon":5.36854,"is_reserved":false,"is_disabled":false,"rental_uris":{"android":"levelo://app?vid=b3df2fff-5d79-45ed-b098-a0bcef70f89f","ios":"levelo://app?vid=b3df2fff-5d79-45ed-b098-a0bcef70f89f"},"vehicle_type_id":"4","last_reported":1745000011,"current_range_meters":6000,"station_id":"ce4bhbp2rcd13ifvqesg","pricing_plan_id":"cebpf4jnsgd1na2vs0mg"},{"bike_id":"c2814f92-b1ae-423e-bc95-7f777a525f19","system_id":"levelo_inurba_marseille","lat":43.28422,"lon":5.34975,"is_reserved":false,"is_disabled":false,"rental_uris":{"android":"levelo://app?vid=c2814f92-b1ae-423e-bc95-7f777a525f19","ios":"levelo://app?vid=c2814f92-b1ae-423e-bc95-7f777a525f19"},"vehicle_type_id":"4","last_reported":1745000011,"current_range_meters":6000,"station_id":"ce4bhbh2rcd13ifvqepg","pricing_plan_id":"cebpf4jnsgd1na2vs0mg"},{"bike_id":"f88a0323-ca30-4f83-ad11-a1dc0239a7cb","system_id":"levelo_inurba_marseille","lat":43.27924,"lon":5.41046,"is_reserved":false,"is_disabled":false,"rental_uris":{"android":"levelo://app?vid=f88a0323-ca30-4f83-ad11-a1dc0239a7cb","ios":"levelo://app?vid=f88a0323-ca30-4f83-ad11-a1dc0239a7cb"},"vehicle_type_id":"4","last_reported":1745000011,"current_range_meters":6000,"station_id":"ce4bhnp2rcd13ifvqh0g","pricing_plan_id":"cebpf4jnsgd1na2vs0mg"},{"bike_id":"55f27523-afa8-455f-bf4d-5d80da5e2a59","system_id":"levelo_inurba_marseille","lat":43.30887,"lon":5.39667,"is_reserved":false,"is_disabled":false,"rental_uris":{"android":"levelo://app?vid=55f27523-afa8-455f-bf4d-5d80da5e2a59","ios":"levelo://app?vid=55f27523-afa8-455f-bf4d-5d80da5e2a59"},"vehicle_type_id":"4","last_reported":1745000011,"current_range_meters":5600,"station_id":"ce4bh012rcd13ifvqcv0","pricing_plan_id":"cebpf4jnsgd1na2vs0mg"},{"bike_id":"7b2b2cef-c022-4d24-b49c-8c1952b4364c","system_id":"levelo_inurba_marseille","lat":43.23192,"lon":5.35556,"is_reserved":false,"is_disabled":false,"rental_uris":{"android":"levelo://app?vid=7b2b2cef-c022-4d24-b49c-8c1952b4364c","ios":"levelo://app?vid=7b2b2cef-c022-4d24-b49c-8c1952b4364c"},"vehicle_type_id":"4","last_reported":1745000011,"current_range_meters":6400,"station_id":"ce4bhu92rcd13ifvqi70","pricing_plan_id":"cebpf4jnsgd1na2vs0mg"},{"bike_id":"b710fbb1-b765-492e-8cff-58a86822a607","system_id":"levelo_inurba_marseille","lat":43.23198,"lon":5.3557,"is_reserved":false,"is_disabled":true,"rental_uris":{"android":"levelo://app?vid=b710fbb1-b765-492e-8cff-58a86822a607","ios":"levelo://app?vid=b710fbb1-b765-492e-8cff-58a86822a607"},"vehicle_type_id":"4","last_reported":1745000011,"current_range_meters":6400,"station_id":"ce4bhu92rcd13ifvqi70","pricing_plan_id":"cebpf4jnsgd1na2vs0mg"},{"bike_id":"bee0444d-380e-415d-9a66-5d9742a78bb7","system_id":"levelo_inurba_marseille","lat":43.296375,"lon":5.405958,"is_reserved":false,"is_disabled":false,"rental_uris":{"android":"levelo://app?vid=bee0444d-380e-415d-9a66-5d9742a78bb7","ios":"levelo://app?vid=bee0444d-380e-415d-9a66-5d9742a78bb7"},"vehicle_type_id":"4","last_reported":1745000011,"current_range_meters":6000,"station_id":"ce4bhph2rcd13ifvqhdg","pricing_plan_id":"cebpf4jnsgd1na2vs0mg"},{"bike_id":"8e5cd9ba-1883-40ce-ac14-af3541b52232","system_id":"levelo_inurba_marseille","lat":43.2862,"lon":5.35117,"is_reserved":false,"is_disabled":false,"rental_uris":{"android":"levelo://app?vid=8e5cd9ba-1883-40ce-ac14-af3541b52232","ios":"levelo://app?vid=8e5cd9ba-1883-40ce-ac14-af3541b52232"},"vehicle_type_id":"4","last_reported":1745000011,"current_range_meters":6400,"station_id":"ce4bhch2rcd13ifvqeug","pricing_plan_id":"cebpf4jnsgd1na2vs0mg"},{"bike_id":"d4a81327-087b-420b-805e-36808c966b3c","system_id":"levelo_inurba_marseille","lat":43.28934,"lon":5.36636,"is_reserved":false,"is_disabled":false,"rental_uris":{"android":"levelo://app?vid=d4a81327-087b-420b-805e-36808c966b3c","ios":"levelo://app?vid=d4a81327-087b-420b-805e-36808c966b3c"},"vehicle_type_id":"4","last_reported":1745000011,"current_range_meters":6800,"station_id":"ce4bhap2rcd13ifvqek0","pricing_plan_id":"cebpf4jnsgd1na2vs0mg"},{"bike_id":"ac9ebbc7-48bd-480f-92c0-ef9570649848","system_id":"levelo_inurba_marseille","lat":43.248,"lon":5.37451,"is_reserved":false,"is_disabled":false,"rental_uris":{"android":"levelo://app?vid=ac9ebbc7-48bd-480f-92c0-ef9570649848","ios":"levelo://app?vid=ac9ebbc7-48bd-480f-92c0-ef9570649848"},"vehicle_type_id":"4","last_reported":1745000011,"current_range_meters":6800,"station_id":"ce4bhgh2rcd13ifvqfb0","pricing_plan_id":"cebpf4jnsgd1na2vs0mg"},{"bike_id":"e874a00e-cb69-441e-9657-0ec6a28a8057","system_id":"levelo_inurba_marseille","lat":43.2938,"lon":5.37834,"is_reserved":false,"is_disabled":false,"rental_uris":{"android":"levelo://app?vid=e874a00e-cb69-441e-9657-0ec6a28a8057","ios":"levelo://app?vid=e874a00e-cb69-441e-9657-0ec6a28a8057"},"vehicle_type_id":"4","last_reported":1745000011,"current_range_meters":6800,"station_id":"ce4bgjh2rcd13ifvqbf0","pricing_plan_id":"cebpf4jnsgd1na2vs0mg"},{"bike_id":"deabb2f7-9d4e-4c43-b8ef-64f04f1afe8b","system_id":"levelo_inurba_marseille","lat":43.29415,"lon":5.38634,"is_reserved":false,"is_disabled":false,"rental_uris":{"android":"levelo://app?vid=deabb2f7-9d4e-4c43-b8ef-64f04f1afe8b","ios":"levelo://app?vid=deabb2f7-9d4e-4c43-b8ef-64f04f1afe8b"},"vehicle_type_id":"4","last_reported":1745000011,"current_range_meters":6800,"station_id":"ce4bh2h2rcd13ifvqdh0","pricing_plan_id":"cebpf4jnsgd1na2vs0mg"},{"bike_id":"6aa9a782-bbfb-47cc-86a7-e517fe99b809","system_id":"levelo_inurba_marseille","lat":43.290816,"lon":5.38158,"is_reserved":false,"is_disabled":false,"rental_uris":{"android":"levelo://app?vid=6aa9a782-bbfb-47cc-86a7-e517fe99b809","ios":"levelo://app?vid=6aa9a782-bbfb-47cc-86a7-e517fe99b809"},"vehicle_type_id":"4","last_reported":1745000011,"current_range_meters":6400,"station_id":"ce4bh512rcd13ifvqe2g","pricing_plan_id":"cebpf4jnsgd1na2vs0mg"},{"bike_id":"8b72fab8-e369-4e05-900f-2c8978f023c1","system_id":"levelo_inurba_marseille","lat":43.2904,"lon":5.35915,"is_reserved":false,"is_disabled":false,"rental_uris":{"android":"levelo://app?vid=8b72fab8-e369-4e05-900f-2c8978f023c1","ios":"levelo://app?vid=8b72fab8-e369-4e05-900f-2c8978f023c1"},"vehicle_type_id":"4","last_reported":1745000011,"current_range_meters":6800,"station_id":"ce4bha92rcd13ifvqeg0","pricing_plan_id":"cebpf4jnsgd1na2vs0mg"},{"bike_id":"6fba013f-04b8-465e-b5a7-0f4585eaa8ec","system_id":"levelo_inurba_marseille","lat":43.30669,"lon":5.4011,"is_reserved":false,"is_disabled":false,"rental_uris":{"android":"levelo://app?vid=6fba013f-04b8-465e-b5a7-0f4585eaa8ec","ios":"levelo://app?vid=6fba013f-04b8-465e-b5a7-0f4585eaa8ec"},"vehicle_type_id":"4","last_reported":1745000011,"current_range_meters":6800,"station_id":"ce4bh112rcd13ifvqda0","pricing_plan_id":"cebpf4jnsgd1na2vs0mg"},{"bike_id":"53d0978b-d825-436e-a201-162caca96d5d","system_id":"levelo_inurba_marseille","lat":43.27609,"lon":5.36109,"is_reserved":false,"is_disabled":false,"rental_uris":{"android":"levelo://app?vid=53d0978b-d825-436e-a201-162caca96d5d","ios":"levelo://app?vid=53d0978b-d825-436e-a201-162caca96d5d"},"vehicle_type_id":"4","last_reported":1745000011,"current_range_meters":7200,"station_id":"ce4bgj92rcd13ifvqbe0","pricing_plan_id":"cebpf4jnsgd1na2vs0mg"},{"bike_id":"8596df4e-6400-4f36-aad3-769842a5fd42","system_id":"levelo_inurba_marseille","lat":43.28479,"lon":5.35901,"is_reserved":false,"is_disabled":false,"rental_uris":{"android":"levelo://app?vid=8596df4e-6400-4f36-aad3-769842a5fd42","ios":"levelo://app?vid=8596df4e-6400-4f36-aad3-769842a5fd42"},"vehicle_type_id":"4","last_reported":1745000011,"current_range_meters":7200,"station_id":"ce4bhah2rcd13ifvqei0","pricing_plan_id":"cebpf4jnsgd1na2vs0mg"},{"bike_id":"7ecb74f0-1b60-499f-a9b5-a9a623c1b5d2","system_id":"levelo_inurba_marseille","lat":43.29263,"lon":5.38446,"is_reserved":false,"is_disabled":false,"rental_uris":{"android":"levelo://app?vid=7ecb74f0-1b60-499f-a9b5-a9a623c1b5d2","ios":"levelo://app?vid=7ecb74f0-1b60-499f-a9b5-a9a623c1b5d2"},"vehicle_type_id":"4","last_reported":1745000011,"current_range_meters":7200,"station_id":"ce4bh692rcd13ifvqea0","pricing_plan_id":"cebpf4jnsgd1na2vs0mg"},{"bike_id":"a9eb962f-7d8b-4c1e-8c65-8047073e3592","system_id":"levelo_inurba_marseille","lat":43.24168,"lon":5.36391,"is_reserved":false,"is_disabled":false,"rental_uris":{"android":"levelo://app?vid=a9eb962f-7d8b-4c1e-8c65-8047073e3592","ios":"levelo://app?vid=a9eb962f-7d8b-4c1e-8c65-8047073e3592"},"vehicle_type_id":"4","last_reported":1745000011,"current_range_meters":7200,"station_id":"cpo36qri1sfpv3e86is0","pricing_plan_id":"cebpf4jnsgd1na2vs0mg"},{"bike_id":"fafbc126-9ff2-4d92-b0d8-a131448d3834","system_id":"levelo_inurba_marseille","lat":43.32374,"lon":5.38932,"is_reserved":false,"is_disabled":false,"rental_uris":{"android":"levelo://app?vid=fafbc126-9ff2-4d92-b0d8-a131448d3834","ios":"levelo://app?vid=fafbc126-9ff2-4d92-b0d8-a131448d3834"},"vehicle_type_id":"4","last_reported":1745000011,"current_range_meters":7200,"station_id":"ce4bhqp2rcd13ifvqhog","pricing_plan_id":"cebpf4jnsgd1na2vs0mg"},{"bike_id":"a920d981-9732-48d8-9523-99a914ba0872","system_id":"levelo_inurba_marseille","lat":43.29267,"lon":5.38432,"is_reserved":false,"is_disabled":false,"rental_uris":{"android":"levelo://app?vid=a920d981-9732-48d8-9523-99a914ba0872","ios":"levelo://app?vid=a920d981-9732-48d8-9523-99a914ba0872"},"vehicle_type_id":"4","last_reported":1745000011,"current_range_meters":7200,"station_id":"ce4bh692rcd13ifvqea0","pricing_plan_id":"cebpf4jnsgd1na2vs0mg"},{"bike_id":"51eca2dc-321e-4103-ac29-c309d12ca48c","system_id":"levelo_inurba_marseille","lat":43.28608,"lon":5.37062,"is_reserved":false,"is_disabled":false,"rental_uris":{"android":"levelo://app?vid=51eca2dc-321e-4103-ac29-c309d12ca48c","ios":"levelo://app?vid=51eca2dc-321e-4103-ac29-c309d12ca48c"},"vehicle_type_id":"4","last_reported":1745000011,"current_range_meters":7200,"station_id":"ce4bht12rcd13ifvqi60","pricing_plan_id":"cebpf4jnsgd1na2vs0mg"},{"bike_id":"36edb3fd-3796-4ba1-a4a5-e5f81c52e929","system_id":"levelo_inurba_marseille","lat":43.299092,"lon":5.43659,"is_reserved":false,"is_disabled":false,"rental_uris":{"android":"levelo://app?vid=36edb3fd-3796-4ba1-a4a5-e5f81c52e929","ios":"levelo://app?vid=36edb3fd-3796-4ba1-a4a5-e5f81c52e929"},"vehicle_type_id":"4","last_reported":1745000011,"current_range_meters":7200,"station_id":"ce4bhpp2rcd13ifvqhfg","pricing_plan_id":"cebpf4jnsgd1na2vs0mg"},{"bike_id":"a3d637ce-09bd-4611-bd43-8d4c02b429f5","system_id":"levelo_inurba_marseille","lat":43.26492,"lon":5.39558,"is_reserved":false,"is_disabled":false,"rental_uris":{"android":"levelo://app?vid=a3d637ce-09bd-4611-bd43-8d4c02b429f5","ios":"levelo://app?vid=a3d637ce-09bd-4611-bd43-8d4c02b429f5"},"vehicle_type_id":"4","last_reported":1745000011,"current_range_meters":7200,"station_id":"ce4bhi12rcd13ifvqfq0","pricing_plan_id":"cebpf4jnsgd1na2vs0mg"},{"bike_id":"12e61b61-a165-4320-af5e-d9d6c29090fc","system_id":"levelo_inurba_marseille","lat":43.22968,"lon":5.35356,"is_reserved":false,"is_disabled":false,"rental_uris":{"android":"levelo://app?vid=12e61b61-a165-4320-af5e-d9d6c29090fc","ios":"levelo://app?vid=12e61b61-a165-4320-af5e-d9d6c29090fc"},"vehicle_type_id":"4","last_reported":1745000011,"current_range_meters":7200,"station_id":"cpo3532slgdg3j2ikp40","pricing_plan_id":"cebpf4jnsgd1na2vs0mg"},{"bike_id":"061c8ed6-0c68-4f77-a925-14b794f79019","system_id":"levelo_inurba_marseille","lat":43.28712,"lon":5.39975,"is_reserved":false,"is_disabled":false,"rental_uris":{"android":"levelo://app?vid=061c8ed6-0c68-4f77-a925-14b794f79019","ios":"levelo://app?vid=061c8ed6-0c68-4f77-a925-14b794f79019"},"vehicle_type_id":"4","last_reported":1745000011,"current_range_meters":8000,"station_id":"ce4bho92rcd13ifvqh3g","pricing_plan_id":"cebpf4jnsgd1na2vs0mg"},{"bike_id":"c86ec29a-97dd-4782-9524-b6bb13ce8414","system_id":"levelo_inurba_marseille","lat":43.26553,"lon":5.37287,"is_reserved":false,"is_disabled":false,"rental_uris":{"android":"levelo://app?vid=c86ec29a-97dd-4782-9524-b6bb13ce8414","ios":"levelo://app?vid=c86ec29a-97dd-4782-9524-b6bb13ce8414"},"vehicle_type_id":"4","last_reported":1745000011,"current_range_meters":8000,"station_id":"ce4bhg12rcd13ifvqf70","pricing_plan_id":"cebpf4jnsgd1na2vs0mg"},{"bike_id":"bf0297dc-97b6-4363-a1e6-abc0eb0609ee","system_id":"levelo_inurba_marseille","lat":43.30133,"lon":5.38781,"is_reserved":false,"is_disabled":false,"rental_uris":{"android":"levelo://app?vid=bf0297dc-97b6-4363-a1e6-abc0eb0609ee","ios":"levelo://app?vid=bf0297dc-97b6-4363-a1e6-abc0eb0609ee"},"vehicle_type_id":"4","last_reported":1745000011,"current_range_meters":8000,"station_id":"ce4bghh2rcd13ifvqb60","pricing_plan_id":"cebpf4jnsgd1na2vs0mg"},{"bike_id":"a268c0f6-572b-456f-954e-cf21a0b23f10","system_id":"levelo_inurba_marseille","lat":43.24165,"lon":5.3639,"is_reserved":false,"is_disabled":false,"rental_uris":{"android":"levelo://app?vid=a268c0f6-572b-456f-954e-cf21a0b23f10","ios":"levelo://app?vid=a268c0f6-572b-456f-954e-cf21a0b23f10"},"vehicle_type_id":"4","last_reported":1745000011,"current_range_meters":8000,"station_id":"cpo36qri1sfpv3e86is0","pricing_plan_id":"cebpf4jnsgd1na2vs0mg"},{"bike_id":"2774cd11-b448-48c9-b8bb-a258897de624","system_id":"levelo_inurba_marseille","lat":43.29419,"lon":5.3861,"is_reserved":false,"is_disabled":false,"rental_uris":{"android":"levelo://app?vid=2774cd11-b448-48c9-b8bb-a258897de624","ios":"levelo://app?vid=2774cd11-b448-48c9-b8bb-a258897de624"},"vehicle_type_id":"4","last_reported":1745000011,"current_range_meters":8000,"station_id":"ce4bh2h2rcd13ifvqdh0","pricing_plan_id":"cebpf4jnsgd1na2vs0mg"},{"bike_id":"a9379aca-3751-40fb-9d44-ca159a97fff4","system_id":"levelo_inurba_marseille","lat":43.28604,"lon":5.37065,"is_reserved":false,"is_disabled":false,"rental_uris":{"android":"levelo://app?vid=a9379aca-3751-40fb-9d44-ca159a97fff4","ios":"levelo://app?vid=a9379aca-3751-40fb-9d44-ca159a97fff4"},"vehicle_type_id":"4","last_reported":1745000011,"current_range_meters":8000,"station_id":"ce4bht12rcd13ifvqi60","pricing_plan_id":"cebpf4jnsgd1na2vs0mg"},{"bike_id":"c7d20a8a-1de1-45ef-afef-d1d1c9be8361","system_id":"levelo_inurba_marseille","lat":43.28615,"lon":5.35106,"is_reserved":false,"is_disabled":false,"rental_uris":{"android":"levelo://app?vid=c7d20a8a-1de1-45ef-afef-d1d1c9be8361","ios":"levelo://app?vid=c7d20a8a-1de1-45ef-afef-d1d1c9be8361"},"vehicle_type_id":"4","last_reported":1745000011,"current_range_meters":8000,"station_id":"ce4bhch2rcd13ifvqeug","pricing_plan_id":"cebpf4jnsgd1na2vs0mg"},{"bike_id":"8c5e9c3b-aa6f-41d4-9429-698407a36e9d","system_id":"levelo_inurba_marseille","lat":43.28037,"lon":5.36948,"is_reserved":false,"is_disabled":false,"rental_uris":{"android":"levelo://app?vid=8c5e9c3b-aa6f-41d4-9429-698407a36e9d","ios":"levelo://app?vid=8c5e9c3b-aa6f-41d4-9429-698407a36e9d"},"vehicle_type_id":"4","last_reported":1745000011,"current_range_meters":8000,"station_id":"ce4bha12rcd13ifvqef0","pricing_plan_id":"cebpf4jnsgd1na2vs0mg"},{"bike_id":"d8cd90ca-6826-4f0a-86f9-6e74d29eb67f","system_id":"levelo_inurba_marseille","lat":43.23177,"lon":5.39987,"is_reserved":false,"is_disabled":false,"rental_uris":{"android":"levelo://app?vid=d8cd90ca-6826-4f0a-86f9-6e74d29eb67f","ios":"levelo://app?vid=d8cd90ca-6826-4f0a-86f9-6e74d29eb67f"},"vehicle_type_id":"4","last_reported":1745000011,"current_range_meters":8000,"station_id":"ce4bhn12rcd13ifvqgqg","pricing_plan_id":"cebpf4jnsgd1na2vs0mg"},{"bike_id":"bf71340b-9e94-492b-85ca-b4453004b630","system_id":"levelo_inurba_marseille","lat":43.29262,"lon":5.38427,"is_reserved":false,"is_disabled":false,"rental_uris":{"android":"levelo://app?vid=bf71340b-9e94-492b-85ca-b4453004b630","ios":"levelo://app?vid=bf71340b-9e94-492b-85ca-b4453004b630"},"vehicle_type_id":"4","last_reported":1745000011,"current_range_meters":8000,"station_id":"ce4bh692rcd13ifvqea0","pricing_plan_id":"cebpf4jnsgd1na2vs0mg"},{"bike_id":"c04edf20-204d-47bd-9535-c95a09b2317b","system_id":"levelo_inurba_marseille","lat":43.27943,"lon":5.41049,"is_reserved":false,"is_disabled":false,"rental_uris":{"android":"levelo://app?vid=c04edf20-204d-47bd-9535-c95a09b2317b","ios":"levelo://app?vid=c04edf20-204d-47bd-9535-c95a09b2317b"},"vehicle_type_id":"4","last_reported":1745000011,"current_range_meters":8000,"station_id":"ce4bhnp2rcd13ifvqh0g","pricing_plan_id":"cebpf4jnsgd1na2vs0mg"},{"bike_id":"73610281-1e58-487b-83eb-d264f79df8b5","system_id":"levelo_inurba_marseille","lat":43.30434,"lon":5.41295,"is_reserved":false,"is_disabled":false,"rental_uris":{"android":"levelo://app?vid=73610281-1e58-487b-83eb-d264f79df8b5","ios":"levelo://app?vid=73610281-1e58-487b-83eb-d264f79df8b5"},"vehicle_type_id":"4","last_reported":1745000011,"current_range_meters":8000,"station_id":"ce4bhop2rcd13ifvqh8g","pricing_plan_id":"cebpf4jnsgd1na2vs0mg"},{"bike_id":"5583a1cb-ef8e-4930-b38d-8d47fac1b289","system_id":"levelo_inurba_marseille","lat":43.27817,"lon":5.4071,"is_reserved":false,"is_disabled":true,"rental_uris":{"android":"levelo://app?vid=5583a1cb-ef8e-4930-b38d-8d47fac1b289","ios":"levelo://app?vid=5583a1cb-ef8e-4930-b38d-8d47fac1b289"},"vehicle_type_id":"4","last_reported":1745000011,"current_range_meters":8000,"station_id":"ce4bhnh2rcd13ifvqgtg","pricing_plan_id":"cebpf4jnsgd1na2vs0mg"},{"bike_id":"a65bff60-15d9-45ea-adbf-6c4c44601a01","system_id":"levelo_inurba_marseille","lat":43.29418,"lon":5.38625,"is_reserved":false,"is_disabled":false,"rental_uris":{"android":"levelo://app?vid=a65bff60-15d9-45ea-adbf-6c4c44601a01","ios":"levelo://app?vid=a65bff60-15d9-45ea-adbf-6c4c44601a01"},"vehicle_type_id":"4","last_reported":1745000011,"current_range_meters":8000,"station_id":"ce4bh2h2rcd13ifvqdh0","pricing_plan_id":"cebpf4jnsgd1na2vs0mg"},{"bike_id":"5620a254-b906-4872-92a7-46e7a43140f3","system_id":"levelo_inurba_marseille","lat":43.25566,"lon":5.38231,"is_reserved":false,"is_disabled":false,"rental_uris":{"android":"levelo://app?vid=5620a254-b906-4872-92a7-46e7a43140f3","ios":"levelo://app?vid=5620a254-b906-4872-92a7-46e7a43140f3"},"vehicle_type_id":"4","last_reported":1745000011,"current_range_meters":8400,"station_id":"ce4bhih2rcd13ifvqfs0","pricing_plan_id":"cebpf4jnsgd1na2vs0mg"},{"bike_id":"78c61dc2-93e0-4d9f-9dc2-b672cba306ce","system_id":"levelo_inurba_marseille","lat":43.29416,"lon":5.38633,"is_reserved":false,"is_disabled":false,"rental_uris":{"android":"levelo://app?vid=78c61dc2-93e0-4d9f-9dc2-b672cba306ce","ios":"levelo://app?vid=78c61dc2-93e0-4d9f-9dc2-b672cba306ce"},"vehicle_type_id":"4","last_reported":1745000011,"current_range_meters":8400,"station_id":"ce4bh2h2rcd13ifvqdh0","pricing_plan_id":"cebpf4jnsgd1na2vs0mg"},{"bike_id":"36028acb-1986-4460-84fe-b2aca491647c","system_id":"levelo_inurba_marseille","lat":43.26781,"lon":5.39426,"is_reserved":false,"is_disabled":true,"rental_uris":{"android":"levelo://app?vid=36028acb-1986-4460-84fe-b2aca491647c","ios":"levelo://app?vid=36028acb-1986-4460-84fe-b2aca491647c"},"vehicle_type_id":"4","last_reported":1745000011,"current_range_meters":8400,"station_id":"ce4bhh12rcd13ifvqfg0","pricing_plan_id":"cebpf4jnsgd1na2vs0mg"},{"bike_id":"2adc63fd-f304-44b8-8143-5a0fa8b3bb60","system_id":"levelo_inurba_marseille","lat":43.29423,"lon":5.38648,"is_reserved":false,"is_disabled":false,"rental_uris":{"android":"levelo://app?vid=2adc63fd-f304-44b8-8143-5a0fa8b3bb60","ios":"levelo://app?vid=2adc63fd-f304-44b8-8143-5a0fa8b3bb60"},"vehicle_type_id":"4","last_reported":1745000011,"current_range_meters":8400,"station_id":"ce4bh2h2rcd13ifvqdh0","pricing_plan_id":"cebpf4jnsgd1na2vs0mg"},{"bike_id":"aee50bad-d357-4cc6-a41c-9b9606bc64b6","system_id":"levelo_inurba_marseille","lat":43.29188,"lon":5.35808,"is_reserved":false,"is_disabled":false,"rental_uris":{"android":"levelo://app?vid=aee50bad-d357-4cc6-a41c-9b9606bc64b6","ios":"levelo://app?vid=aee50bad-d357-4cc6-a41c-9b9606bc64b6"},"vehicle_type_id":"4","last_reported":1745000011,"current_range_meters":8400,"station_id":"ce4bhb12rcd13ifvqel0","pricing_plan_id":"cebpf4jnsgd1na2vs0mg"},{"bike_id":"a0f700ce-6286-4dc9-b500-992f0a212e9f","system_id":"levelo_inurba_marseille","lat":43.30588,"lon":5.39357,"is_reserved":false,"is_disabled":false,"rental_uris":{"android":"levelo://app?vid=a0f700ce-6286-4dc9-b500-992f0a212e9f","ios":"levelo://app?vid=a0f700ce-6286-4dc9-b500-992f0a212e9f"},"vehicle_type_id":"4","last_reported":1745000011,"current_range_meters":8400,"station_id":"ce4bh0p2rcd13ifvqd80","pricing_plan_id":"cebpf4jnsgd1na2vs0mg"},{"bike_id":"61cae8bc-19bf-4855-a2cd-e8c27ed277ba","system_id":"levelo_inurba_marseille","lat":43.29418,"lon":5.38645,"is_reserved":false,"is_disabled":false,"rental_uris":{"android":"levelo://app?vid=61cae8bc-19bf-4855-a2cd-e8c27ed277ba","ios":"levelo://app?vid=61cae8bc-19bf-4855-a2cd-e8c27ed277ba"},"vehicle_type_id":"4","last_reported":1745000011,"current_range_meters":8400,"station_id":"ce4bh2h2rcd13ifvqdh0","pricing_plan_id":"cebpf4jnsgd1na2vs0mg"},{"bike_id":"3287305e-dc20-444a-9949-00d7352f401a","system_id":"levelo_inurba_marseille","lat":43.24169,"lon":5.36407,"is_reserved":false,"is_disabled":false,"rental_uris":{"android":"levelo://app?vid=3287305e-dc20-444a-9949-00d7352f401a","ios":"levelo://app?vid=3287305e-dc20-444a-9949-00d7352f401a"},"vehicle_type_id":"4","last_reported":1745000011,"current_range_meters":8400,"station_id":"cpo36qri1sfpv3e86is0","pricing_plan_id":"cebpf4jnsgd1na2vs0mg"},{"bike_id":"dc3ac7a9-b5a9-4ac3-aa8f-e58024eedf59","system_id":"levelo_inurba_marseille","lat":43.28614,"lon":5.37069,"is_reserved":false,"is_disabled":false,"rental_uris":{"android":"levelo://app?vid=dc3ac7a9-b5a9-4ac3-aa8f-e58024eedf59","ios":"levelo://app?vid=dc3ac7a9-b5a9-4ac3-aa8f-e58024eedf59"},"vehicle_type_id":"4","last_reported":1745000011,"current_range_meters":8400,"station_id":"ce4bht12rcd13ifvqi60","pricing_plan_id":"cebpf4jnsgd1na2vs0mg"},{"bike_id":"dd59fea3-b8b4-4950-ba9c-903db3e1474e","system_id":"levelo_inurba_marseille","lat":43.28975,"lon":5.37842,"is_reserved":false,"is_disabled":false,"rental_uris":{"android":"levelo://app?vid=dd59fea3-b8b4-4950-ba9c-903db3e1474e","ios":"levelo://app?vid=dd59fea3-b8b4-4950-ba9c-903db3e1474e"},"vehicle_type_id":"4","last_reported":1745000011,"current_range_meters":8400,"station_id":"ce4bh9p2rcd13ifvqed0","pricing_plan_id":"cebpf4jnsgd1na2vs0mg"},{"bike_id":"30365f92-20c2-40bb-9e40-356cd63c5a4a","system_id":"levelo_inurba_marseille","lat":43.2893,"lon":5.36637,"is_reserved":false,"is_disabled":false,"rental_uris":{"android":"levelo://app?vid=30365f92-20c2-40bb-9e40-356cd63c5a4a","ios":"levelo://app?vid=30365f92-20c2-40bb-9e40-356cd63c5a4a"},"vehicle_type_id":"4","last_reported":1745000011,"current_range_meters":6000,"station_id":"ce4bhap2rcd13ifvqek0","pricing_plan_id":"cebpf4jnsgd1na2vs0mg"},{"bike_id":"30423f05-52af-48a1-930f-3eb95844ee09","system_id":"levelo_inurba_marseille","lat":43.29025,"lon":5.37573,"is_reserved":false,"is_disabled":false,"rental_uris":{"android":"levelo://app?vid=30423f05-52af-48a1-930f-3eb95844ee09","ios":"levelo://app?vid=30423f05-52af-48a1-930f-3eb95844ee09"},"vehicle_type_id":"4","last_reported":1745000011,"current_range_meters":8800,"station_id":"ce4bh692rcd13ifvqe90","pricing_plan_id":"cebpf4jnsgd1na2vs0mg"},{"bike_id":"ec8c9ac7-1e95-4171-97f3-226ce1e3c951","system_id":"levelo_inurba_marseille","lat":43.32109,"lon":5.36775,"is_reserved":false,"is_disabled":false,"rental_uris":{"android":"levelo://app?vid=ec8c9ac7-1e95-4171-97f3-226ce1e3c951","ios":"levelo://app?vid=ec8c9ac7-1e95-4171-97f3-226ce1e3c951"},"vehicle_type_id":"4","last_reported":1745000011,"current_range_meters":8800,"station_id":"ce4bhrh2rcd13ifvqhug","pricing_plan_id":"cebpf4jnsgd1na2vs0mg"},{"bike_id":"974ba94c-25e6-4bfc-bc69-2e01d47d858a","system_id":"levelo_inurba_marseille","lat":43.2958,"lon":5.36737,"is_reserved":false,"is_disabled":false,"rental_uris":{"android":"levelo://app?vid=974ba94c-25e6-4bfc-bc69-2e01d47d858a","ios":"levelo://app?vid=974ba94c-25e6-4bfc-bc69-2e01d47d858a"},"vehicle_type_id":"4","last_reported":1745000011,"current_range_meters":8400,"station_id":"ce4bgph2rcd13ifvqc2g","pricing_plan_id":"cebpf4jnsgd1na2vs0mg"},{"bike_id":"ea3421b6-d6d2-4920-a89f-19bb0ecae270","system_id":"levelo_inurba_marseille","lat":43.26558,"lon":5.37283,"is_reserved":false,"is_disabled":false,"rental_uris":{"android":"levelo://app?vid=ea3421b6-d6d2-4920-a89f-19bb0ecae270","ios":"levelo://app?vid=ea3421b6-d6d2-4920-a89f-19bb0ecae270"},"vehicle_type_id":"4","last_reported":1745000011,"current_range_meters":8800,"station_id":"ce4bhg12rcd13ifvqf70","pricing_plan_id":"cebpf4jnsgd1na2vs0mg"},{"bike_id":"9b29d7c1-fe06-4fe4-910e-79bca8b0b91f","system_id":"levelo_inurba_marseille","lat":43.29026,"lon":5.38629,"is_reserved":false,"is_disabled":false,"rental_uris":{"android":"levelo://app?vid=9b29d7c1-fe06-4fe4-910e-79bca8b0b91f","ios":"levelo://app?vid=9b29d7c1-fe06-4fe4-910e-79bca8b0b91f"},"vehicle_type_id":"4","last_reported":1745000011,"current_range_meters":8800,"station_id":"ce4bh4p2rcd13ifvqe0g","pricing_plan_id":"cebpf4jnsgd1na2vs0mg"},{"bike_id":"22209dda-afa5-4a31-9c25-a5d94a331926","system_id":"levelo_inurba_marseille","lat":43.24078,"lon":5.37712,"is_reserved":false,"is_disabled":true,"rental_uris":{"android":"levelo://app?vid=22209dda-afa5-4a31-9c25-a5d94a331926","ios":"levelo://app?vid=22209dda-afa5-4a31-9c25-a5d94a331926"},"vehicle_type_id":"4","last_reported":1745000011,"current_range_meters":8800,"station_id":"ce4bhnp2rcd13ifvqgvg","pricing_plan_id":"cebpf4jnsgd1na2vs0mg"},{"bike_id":"3d14b477-87d9-4556-9bc1-951b3b036ad6","system_id":"levelo_inurba_marseille","lat":43.28615,"lon":5.35105,"is_reserved":false,"is_disabled":false,"rental_uris":{"android":"levelo://app?vid=3d14b477-87d9-4556-9bc1-951b3b036ad6","ios":"levelo://app?vid=3d14b477-87d9-4556-9bc1-951b3b036ad6"},"vehicle_type_id":"4","last_reported":1745000011,"current_range_meters":8800,"station_id":"ce4bhch2rcd13ifvqeug","pricing_plan_id":"cebpf4jnsgd1na2vs0mg"},{"bike_id":"70b6b133-6705-4dfd-b4a7-6e88067904e8","system_id":"levelo_inurba_marseille","lat":43.241828,"lon":5.364405,"is_reserved":false,"is_disabled":false,"rental_uris":{"android":"levelo://app?vid=70b6b133-6705-4dfd-b4a7-6e88067904e8","ios":"levelo://app?vid=70b6b133-6705-4dfd-b4a7-6e88067904e8"},"vehicle_type_id":"4","last_reported":1745000011,"current_range_meters":8800,"station_id":"cpo36qri1sfpv3e86is0","pricing_plan_id":"cebpf4jnsgd1na2vs0mg"},{"bike_id":"084dd57b-f009-46c7-bbc6-9dfc3a81f85b","system_id":"levelo_inurba_marseille","lat":43.29261,"lon":5.38449,"is_reserved":false,"is_disabled":false,"rental_uris":{"android":"levelo://app?vid=084dd57b-f009-46c7-bbc6-9dfc3a81f85b","ios":"levelo://app?vid=084dd57b-f009-46c7-bbc6-9dfc3a81f85b"},"vehicle_type_id":"4","last_reported":1745000011,"current_range_meters":8800,"station_id":"ce4bh692rcd13ifvqea0","pricing_plan_id":"cebpf4jnsgd1na2vs0mg"},{"bike_id":"f869802b-18a3-4053-bdf7-4a684e9e133e","system_id":"levelo_inurba_marseille","lat":43.28932,"lon":5.3664,"is_reserved":false,"is_disabled":false,"rental_uris":{"android":"levelo://app?vid=f869802b-18a3-4053-bdf7-4a684e9e133e","ios":"levelo://app?vid=f869802b-18a3-4053-bdf7-4a684e9e133e"},"vehicle_type_id":"4","last_reported":1745000011,"current_range_meters":8800,"station_id":"ce4bhap2rcd13ifvqek0","pricing_plan_id":"cebpf4jnsgd1na2vs0mg"},{"bike_id":"1d5a29a1-b998-42fa-918a-d98d41fd02bd","system_id":"levelo_inurba_marseille","lat":43.28984,"lon":5.35611,"is_reserved":false,"is_disabled":false,"rental_uris":{"android":"levelo://app?vid=1d5a29a1-b998-42fa-918a-d98d41fd02bd","ios":"levelo://app?vid=1d5a29a1-b998-42fa-918a-d98d41fd02bd"},"vehicle_type_id":"4","last_reported":1745000011,"current_range_meters":8800,"station_id":"ce4bhb92rcd13ifvqen0","pricing_plan_id":"cebpf4jnsgd1na2vs0mg"},{"bike_id":"b603a7b9-29f6-4ca5-b728-a653169ecd8c","system_id":"levelo_inurba_marseille","lat":43.27808,"lon":5.40716,"is_reserved":false,"is_disabled":false,"rental_uris":{"android":"levelo://app?vid=b603a7b9-29f6-4ca5-b728-a653169ecd8c","ios":"levelo://app?vid=b603a7b9-29f6-4ca5-b728-a653169ecd8c"},"vehicle_type_id":"4","last_reported":1745000011,"current_range_meters":8800,"station_id":"ce4bhnh2rcd13ifvqgtg","pricing_plan_id":"cebpf4jnsgd1na2vs0mg"},{"bike_id":"17642069-7989-4aab-a602-6ec6914a863c","system_id":"levelo_inurba_marseille","lat":43.29426,"lon":5.38644,"is_reserved":false,"is_disabled":false,"rental_uris":{"android":"levelo://app?vid=17642069-7989-4aab-a602-6ec6914a863c","ios":"levelo://app?vid=17642069-7989-4aab-a602-6ec6914a863c"},"vehicle_type_id":"4","last_reported":1745000011,"current_range_meters":8800,"station_id":"ce4bh2h2rcd13ifvqdh0","pricing_plan_id":"cebpf4jnsgd1na2vs0mg"},{"bike_id":"271c8c79-7ca6-4367-80fb-8a0efc84181c","system_id":"levelo_inurba_marseille","lat":43.2323,"lon":5.35565,"is_reserved":false,"is_disabled":false,"rental_uris":{"android":"levelo://app?vid=271c8c79-7ca6-4367-80fb-8a0efc84181c","ios":"levelo://app?vid=271c8c79-7ca6-4367-80fb-8a0efc84181c"},"vehicle_type_id":"4","last_reported":1745000011,"current_range_meters":8800,"station_id":"ce4bhu92rcd13ifvqi70","pricing_plan_id":"cebpf4jnsgd1na2vs0mg"},{"bike_id":"6a98cd24-36fc-4b5e-b065-2060fb975f34","system_id":"levelo_inurba_marseille","lat":43.29048,"lon":5.35909,"is_reserved":false,"is_disabled":false,"rental_uris":{"android":"levelo://app?vid=6a98cd24-36fc-4b5e-b065-2060fb975f34","ios":"levelo://app?vid=6a98cd24-36fc-4b5e-b065-2060fb975f34"},"vehicle_type_id":"4","last_reported":1745000011,"current_range_meters":8400,"station_id":"ce4bha92rcd13ifvqeg0","pricing_plan_id":"cebpf4jnsgd1na2vs0mg"},{"bike_id":"8f935e75-5f00-471c-8fe0-b38fe0adf18d","system_id":"levelo_inurba_marseille","lat":43.30141,"lon":5.39878,"is_reserved":false,"is_disabled":false,"rental_uris":{"android":"levelo://app?vid=8f935e75-5f00-471c-8fe0-b38fe0adf18d","ios":"levelo://app?vid=8f935e75-5f00-471c-8fe0-b38fe0adf18d"},"vehicle_type_id":"4","last_reported":1745000011,"current_range_meters":8800,"station_id":"ce4bh0h2rcd13ifvqd40","pricing_plan_id":"cebpf4jnsgd1na2vs0mg"},{"bike_id":"d0693017-3219-4f2c-9252-be27486404d3","system_id":"levelo_inurba_marseille","lat":43.24657,"lon":5.38152,"is_reserved":false,"is_disabled":false,"rental_uris":{"android":"levelo://app?vid=d0693017-3219-4f2c-9252-be27486404d3","ios":"levelo://app?vid=d0693017-3219-4f2c-9252-be27486404d3"},"vehicle_type_id":"4","last_reported":1745000011,"current_range_meters":9200,"station_id":"ce4bhih2rcd13ifvqfr0","pricing_plan_id":"cebpf4jnsgd1na2vs0mg"},{"bike_id":"cf4db056-d3f7-4001-aa54-c43d57090a49","system_id":"levelo_inurba_marseille","lat":43.2319,"lon":5.35566,"is_reserved":false,"is_disabled":false,"rental_uris":{"android":"levelo://app?vid=cf4db056-d3f7-4001-aa54-c43d57090a49","ios":"levelo://app?vid=cf4db056-d3f7-4001-aa54-c43d57090a49"},"vehicle_type_id":"4","last_reported":1745000011,"current_range_meters":9200,"station_id":"ce4bhu92rcd13ifvqi70","pricing_plan_id":"cebpf4jnsgd1na2vs0mg"},{"bike_id":"92ef9b57-ef0f-4670-96c3-49db45d89c4e","system_id":"levelo_inurba_marseille","lat":43.29413,"lon":5.38621,"is_reserved":false,"is_disabled":false,"rental_uris":{"android":"levelo://app?vid=92ef9b57-ef0f-4670-96c3-49db45d89c4e","ios":"levelo://app?vid=92ef9b57-ef0f-4670-96c3-49db45d89c4e"},"vehicle_type_id":"4","last_reported":1745000011,"current_range_meters":9200,"station_id":"ce4bh2h2rcd13ifvqdh0","pricing_plan_id":"cebpf4jnsgd1na2vs0mg"},{"bike_id":"38d71541-39fa-44bc-b9fa-dad7cbdc7434","system_id":"levelo_inurba_marseille","lat":43.28752,"lon":5.38662,"is_reserved":false,"is_disabled":false,"rental_uris":{"android":"levelo://app?vid=38d71541-39fa-44bc-b9fa-dad7cbdc7434","ios":"levelo://app?vid=38d71541-39fa-44bc-b9fa-dad7cbdc7434"},"vehicle_type_id":"4","last_reported":1745000011,"current_range_meters":9200,"station_id":"","pricing_plan_id":"cebpf4jnsgd1na2vs0mg"},{"bike_id":"fa48deae-9179-4abb-96bf-eb9a8be6330c","system_id":"levelo_inurba_marseille","lat":43.30533,"lon":5.36714,"is_reserved":false,"is_disabled":false,"rental_uris":{"android":"levelo://app?vid=fa48deae-9179-4abb-96bf-eb9a8be6330c","ios":"levelo://app?vid=fa48deae-9179-4abb-96bf-eb9a8be6330c"},"vehicle_type_id":"4","last_reported":1745000011,"current_range_meters":8800,"station_id":"ce4bgrp2rcd13ifvqc9g","pricing_plan_id":"cebpf4jnsgd1na2vs0mg"},{"bike_id":"f2d09a49-02ca-41b9-870e-fdff640473d6","system_id":"levelo_inurba_marseille","lat":43.24176,"lon":5.36409,"is_reserved":false,"is_disabled":false,"rental_uris":{"android":"levelo://app?vid=f2d09a49-02ca-41b9-870e-fdff640473d6","ios":"levelo://app?vid=f2d09a49-02ca-41b9-870e-fdff640473d6"},"vehicle_type_id":"4","last_reported":1745000011,"current_range_meters":9600,"station_id":"cpo36qri1sfpv3e86is0","pricing_plan_id":"cebpf4jnsgd1na2vs0mg"},{"bike_id":"5ab4a80e-364b-48b0-a070-906bb9e16755","system_id":"levelo_inurba_marseille","lat":43.31997,"lon":5.38167,"is_reserved":false,"is_disabled":false,"rental_uris":{"android":"levelo://app?vid=5ab4a80e-364b-48b0-a070-906bb9e16755","ios":"levelo://app?vid=5ab4a80e-364b-48b0-a070-906bb9e16755"},"vehicle_type_id":"4","last_reported":1745000011,"current_range_meters":9600,"station_id":"ce4bhr12rcd13ifvqhpg","pricing_plan_id":"cebpf4jnsgd1na2vs0mg"},{"bike_id":"026f68e2-c61d-4eac-bcbc-a8bb3c6b8ef9","system_id":"levelo_inurba_marseille","lat":43.30152,"lon":5.38069,"is_reserved":false,"is_disabled":false,"rental_uris":{"android":"levelo://app?vid=026f68e2-c61d-4eac-bcbc-a8bb3c6b8ef9","ios":"levelo://app?vid=026f68e2-c61d-4eac-bcbc-a8bb3c6b8ef9"},"vehicle_type_id":"4","last_reported":1745000011,"current_range_meters":9200,"station_id":"ce4bgjp2rcd13ifvqbh0","pricing_plan_id":"cebpf4jnsgd1na2vs0mg"},{"bike_id":"8ebce5e5-31ea-42ac-8193-69ee1ed355ec","system_id":"levelo_inurba_marseille","lat":43.28938,"lon":5.36633,"is_reserved":false,"is_disabled":false,"rental_uris":{"android":"levelo://app?vid=8ebce5e5-31ea-42ac-8193-69ee1ed355ec","ios":"levelo://app?vid=8ebce5e5-31ea-42ac-8193-69ee1ed355ec"},"vehicle_type_id":"4","last_reported":1745000011,"current_range_meters":9600,"station_id":"ce4bhap2rcd13ifvqek0","pricing_plan_id":"cebpf4jnsgd1na2vs0mg"},{"bike_id":"5548ffe0-cb1a-45d9-bdce-46f85b3c1ba3","system_id":"levelo_inurba_marseille","lat":43.28155,"lon":5.42638,"is_reserved":false,"is_disabled":false,"rental_uris":{"android":"levelo://app?vid=5548ffe0-cb1a-45d9-bdce-46f85b3c1ba3","ios":"levelo://app?vid=5548ffe0-cb1a-45d9-bdce-46f85b3c1ba3"},"vehicle_type_id":"4","last_reported":1745000011,"current_range_meters":9600,"station_id":"ce4bhnh2rcd13ifvqgug","pricing_plan_id":"cebpf4jnsgd1na2vs0mg"},{"bike_id":"0f0c2c9d-c11a-480f-8137-c5315e4ded3a","system_id":"levelo_inurba_marseille","lat":43.23215,"lon":5.35579,"is_reserved":false,"is_disabled":false,"rental_uris":{"android":"levelo://app?vid=0f0c2c9d-c11a-480f-8137-c5315e4ded3a","ios":"levelo://app?vid=0f0c2c9d-c11a-480f-8137-c5315e4ded3a"},"vehicle_type_id":"4","last_reported":1745000011,"current_range_meters":9600,"station_id":"ce4bhu92rcd13ifvqi70","pricing_plan_id":"cebpf4jnsgd1na2vs0mg"},{"bike_id":"4fe31a1a-47e1-4300-81c1-36feeb12404e","system_id":"levelo_inurba_marseille","lat":43.292693,"lon":5.384539,"is_reserved":false,"is_disabled":false,"rental_uris":{"android":"levelo://app?vid=4fe31a1a-47e1-4300-81c1-36feeb12404e","ios":"levelo://app?vid=4fe31a1a-47e1-4300-81c1-36feeb12404e"},"vehicle_type_id":"4","last_reported":1745000011,"current_range_meters":9600,"station_id":"ce4bh692rcd13ifvqea0","pricing_plan_id":"cebpf4jnsgd1na2vs0mg"},{"bike_id":"50dc23ed-5e19-46ee-92cf-f2ca4c445852","system_id":"levelo_inurba_marseille","lat":43.33747,"lon":5.39156,"is_reserved":false,"is_disabled":false,"rental_uris":{"android":"levelo://app?vid=50dc23ed-5e19-46ee-92cf-f2ca4c445852","ios":"levelo://app?vid=50dc23ed-5e19-46ee-92cf-f2ca4c445852"},"vehicle_type_id":"4","last_reported":1745000011,"current_range_meters":9600,"station_id":"ce4bhr92rcd13ifvqhsg","pricing_plan_id":"cebpf4jnsgd1na2vs0mg"},{"bike_id":"28654726-25ec-4f0a-9a9c-d2417671d9dc","system_id":"levelo_inurba_marseille","lat":43.29425,"lon":5.38616,"is_reserved":false,"is_disabled":false,"rental_uris":{"android":"levelo://app?vid=28654726-25ec-4f0a-9a9c-d2417671d9dc","ios":"levelo://app?vid=28654726-25ec-4f0a-9a9c-d2417671d9dc"},"vehicle_type_id":"4","last_reported":1745000011,"current_range_meters":10000,"station_id":"ce4bh2h2rcd13ifvqdh0","pricing_plan_id":"cebpf4jnsgd1na2vs0mg"},{"bike_id":"1210dc72-37b8-49f7-b249-6faa54daba28","system_id":"levelo_inurba_marseille","lat":43.32391,"lon":5.36767,"is_reserved":false,"is_disabled":false,"rental_uris":{"android":"levelo://app?vid=1210dc72-37b8-49f7-b249-6faa54daba28","ios":"levelo://app?vid=1210dc72-37b8-49f7-b249-6faa54daba28"},"vehicle_type_id":"4","last_reported":1745000011,"current_range_meters":10000,"station_id":"","pricing_plan_id":"cebpf4jnsgd1na2vs0mg"},{"bike_id":"db223af6-c619-480d-a3e5-0f3a5e957ac0","system_id":"levelo_inurba_marseille","lat":43.291931,"lon":5.357953,"is_reserved":false,"is_disabled":false,"rental_uris":{"android":"levelo://app?vid=db223af6-c619-480d-a3e5-0f3a5e957ac0","ios":"levelo://app?vid=db223af6-c619-480d-a3e5-0f3a5e957ac0"},"vehicle_type_id":"4","last_reported":1745000011,"current_range_meters":10000,"station_id":"ce4bhb12rcd13ifvqel0","pricing_plan_id":"cebpf4jnsgd1na2vs0mg"},{"bike_id":"dc59e491-a0c3-442d-a3df-2b42d88b1522","system_id":"levelo_inurba_marseille","lat":43.29524,"lon":5.39042,"is_reserved":false,"is_disabled":false,"rental_uris":{"android":"levelo://app?vid=dc59e491-a0c3-442d-a3df-2b42d88b1522","ios":"levelo://app?vid=dc59e491-a0c3-442d-a3df-2b42d88b1522"},"vehicle_type_id":"4","last_reported":1745000011,"current_range_meters":10000,"station_id":"ce4bh3p2rcd13ifvqdp0","pricing_plan_id":"cebpf4jnsgd1na2vs0mg"},{"bike_id":"f9ca6a4d-bd46-472b-9e76-cb0f86073571","system_id":"levelo_inurba_marseille","lat":43.25404,"lon":5.41901,"is_reserved":false,"is_disabled":false,"rental_uris":{"android":"levelo://app?vid=f9ca6a4d-bd46-472b-9e76-cb0f86073571","ios":"levelo://app?vid=f9ca6a4d-bd46-472b-9e76-cb0f86073571"},"vehicle_type_id":"4","last_reported":1745000011,"current_range_meters":10000,"station_id":"","pricing_plan_id":"cebpf4jnsgd1na2vs0mg"},{"bike_id":"c4bed06f-4b65-4908-b43c-891b8a627075","system_id":"levelo_inurba_marseille","lat":43.29227,"lon":5.36063,"is_reserved":false,"is_disabled":false,"rental_uris":{"android":"levelo://app?vid=c4bed06f-4b65-4908-b43c-891b8a627075","ios":"levelo://app?vid=c4bed06f-4b65-4908-b43c-891b8a627075"},"vehicle_type_id":"4","last_reported":1745000011,"current_range_meters":10000,"station_id":"ce4bhbh2rcd13ifvqeqg","pricing_plan_id":"cebpf4jnsgd1na2vs0mg"},{"bike_id":"91b0f96d-1a6e-4e28-98b9-2c86f2485aee","system_id":"levelo_inurba_marseille","lat":43.32416,"lon":5.39048,"is_reserved":false,"is_disabled":false,"rental_uris":{"android":"levelo://app?vid=91b0f96d-1a6e-4e28-98b9-2c86f2485aee","ios":"levelo://app?vid=91b0f96d-1a6e-4e28-98b9-2c86f2485aee"},"vehicle_type_id":"4","last_reported":1745000011,"current_range_meters":10800,"station_id":"","pricing_plan_id":"cebpf4jnsgd1na2vs0mg"},{"bike_id":"7ed91d22-3d5b-4254-83bf-64eb2a7d5481","system_id":"levelo_inurba_marseille","lat":43.22499,"lon":5.34781,"is_reserved":false,"is_disabled":false,"rental_uris":{"android":"levelo://app?vid=7ed91d22-3d5b-4254-83bf-64eb2a7d5481","ios":"levelo://app?vid=7ed91d22-3d5b-4254-83bf-64eb2a7d5481"},"vehicle_type_id":"4","last_reported":1745000011,"current_range_meters":10800,"station_id":"","pricing_plan_id":"cebpf4jnsgd1na2vs0mg"},{"bike_id":"026998ee-2fc5-4abb-8898-81f2af563a8f","system_id":"levelo_inurba_marseille","lat":43.29756,"lon":5.37681,"is_reserved":false,"is_disabled":true,"rental_uris":{"android":"levelo://app?vid=026998ee-2fc5-4abb-8898-81f2af563a8f","ios":"levelo://app?vid=026998ee-2fc5-4abb-8898-81f2af563a8f"},"vehicle_type_id":"4","last_reported":1745000011,"current_range_meters":10800,"station_id":"","pricing_plan_id":"cebpf4jnsgd1na2vs0mg"},{"bike_id":"db683e79-1939-434e-b081-b9990fd856fe","system_id":"levelo_inurba_marseille","lat":43.22933,"lon":5.35378,"is_reserved":false,"is_disabled":false,"rental_uris":{"android":"levelo://app?vid=db683e79-1939-434e-b081-b9990fd856fe","ios":"levelo://app?vid=db683e79-1939-434e-b081-b9990fd856fe"},"vehicle_type_id":"4","last_reported":1745000011,"current_range_meters":10800,"station_id":"cpo3532slgdg3j2ikp40","pricing_plan_id":"cebpf4jnsgd1na2vs0mg"},{"bike_id":"c64d4256-6fb1-4dd9-a87d-3b374a6a3cef","system_id":"levelo_inurba_marseille","lat":43.28611,"lon":5.35103,"is_reserved":false,"is_disabled":false,"rental_uris":{"android":"levelo://app?vid=c64d4256-6fb1-4dd9-a87d-3b374a6a3cef","ios":"levelo://app?vid=c64d4256-6fb1-4dd9-a87d-3b374a6a3cef"},"vehicle_type_id":"4","last_reported":1745000011,"current_range_meters":10800,"station_id":"ce4bhch2rcd13ifvqeug","pricing_plan_id":"cebpf4jnsgd1na2vs0mg"},{"bike_id":"cff69856-04ff-4a2b-8ae9-354d32591735","system_id":"levelo_inurba_marseille","lat":43.29429,"lon":5.38648,"is_reserved":false,"is_disabled":false,"rental_uris":{"android":"levelo://app?vid=cff69856-04ff-4a2b-8ae9-354d32591735","ios":"levelo://app?vid=cff69856-04ff-4a2b-8ae9-354d32591735"},"vehicle_type_id":"4","last_reported":1745000011,"current_range_meters":10800,"station_id":"ce4bh2h2rcd13ifvqdh0","pricing_plan_id":"cebpf4jnsgd1na2vs0mg"},{"bike_id":"9b4d5e07-bf1a-4418-b544-e78b0d83a1c0","system_id":"levelo_inurba_marseille","lat":43.26236,"lon":5.4046,"is_reserved":false,"is_disabled":false,"rental_uris":{"android":"levelo://app?vid=9b4d5e07-bf1a-4418-b544-e78b0d83a1c0","ios":"levelo://app?vid=9b4d5e07-bf1a-4418-b544-e78b0d83a1c0"},"vehicle_type_id":"4","last_reported":1745000011,"current_range_meters":10800,"station_id":"ce4bhmh2rcd13ifvqgmg","pricing_plan_id":"cebpf4jnsgd1na2vs0mg"},{"bike_id":"b8ced23c-9a34-4beb-a814-83882f549bf3","system_id":"levelo_inurba_marseille","lat":43.28415,"lon":5.34975,"is_reserved":false,"is_disabled":false,"rental_uris":{"android":"levelo://app?vid=b8ced23c-9a34-4beb-a814-83882f549bf3","ios":"levelo://app?vid=b8ced23c-9a34-4beb-a814-83882f549bf3"},"vehicle_type_id":"4","last_reported":1745000011,"current_range_meters":11200,"station_id":"ce4bhbh2rcd13ifvqepg","pricing_plan_id":"cebpf4jnsgd1na2vs0mg"},{"bike_id":"4bcaca61-be58-49cf-89c9-274b98e3c699","system_id":"levelo_inurba_marseille","lat":43.3199,"lon":5.38148,"is_reserved":false,"is_disabled":true,"rental_uris":{"android":"levelo://app?vid=4bcaca61-be58-49cf-89c9-274b98e3c699","ios":"levelo://app?vid=4bcaca61-be58-49cf-89c9-274b98e3c699"},"vehicle_type_id":"4","last_reported":1745000011,"current_range_meters":11200,"station_id":"ce4bhr12rcd13ifvqhpg","pricing_plan_id":"cebpf4jnsgd1na2vs0mg"},{"bike_id":"682aafef-3abf-4b14-b545-4cc1341f10cb","system_id":"levelo_inurba_marseille","lat":43.33737,"lon":5.39181,"is_reserved":false,"is_disabled":false,"rental_uris":{"android":"levelo://app?vid=682aafef-3abf-4b14-b545-4cc1341f10cb","ios":"levelo://app?vid=682aafef-3abf-4b14-b545-4cc1341f10cb"},"vehicle_type_id":"4","last_reported":1745000011,"current_range_meters":11200,"station_id":"ce4bhr92rcd13ifvqhsg","pricing_plan_id":"cebpf4jnsgd1na2vs0mg"},{"bike_id":"36ed5a67-0f48-4180-8190-b0eca2975deb","system_id":"levelo_inurba_marseille","lat":43.29269,"lon":5.38446,"is_reserved":false,"is_disabled":false,"rental_uris":{"android":"levelo://app?vid=36ed5a67-0f48-4180-8190-b0eca2975deb","ios":"levelo://app?vid=36ed5a67-0f48-4180-8190-b0eca2975deb"},"vehicle_type_id":"4","last_reported":1745000011,"current_range_meters":11200,"station_id":"ce4bh692rcd13ifvqea0","pricing_plan_id":"cebpf4jnsgd1na2vs0mg"},{"bike_id":"e9c5ee9f-77a7-4de0-8179-93882aa10d6e","system_id":"levelo_inurba_marseille","lat":43.24809,"lon":5.37457,"is_reserved":false,"is_disabled":false,"rental_uris":{"android":"levelo://app?vid=e9c5ee9f-77a7-4de0-8179-93882aa10d6e","ios":"levelo://app?vid=e9c5ee9f-77a7-4de0-8179-93882aa10d6e"},"vehicle_type_id":"4","last_reported":1745000011,"current_range_meters":11200,"station_id":"ce4bhgh2rcd13ifvqfb0","pricing_plan_id":"cebpf4jnsgd1na2vs0mg"},{"bike_id":"bd234b65-d846-47cb-9c4d-7ee8f5b27f88","system_id":"levelo_inurba_marseille","lat":43.25,"lon":5.38925,"is_reserved":false,"is_disabled":false,"rental_uris":{"android":"levelo://app?vid=bd234b65-d846-47cb-9c4d-7ee8f5b27f88","ios":"levelo://app?vid=bd234b65-d846-47cb-9c4d-7ee8f5b27f88"},"vehicle_type_id":"4","last_reported":1745000011,"current_range_meters":11200,"station_id":"ce4bhgp2rcd13ifvqfd0","pricing_plan_id":"cebpf4jnsgd1na2vs0mg"},{"bike_id":"e3f0616c-c126-46d5-839f-ad84d1cef8a1","system_id":"levelo_inurba_marseille","lat":43.307831,"lon":5.376437,"is_reserved":false,"is_disabled":false,"rental_uris":{"android":"levelo://app?vid=e3f0616c-c126-46d5-839f-ad84d1cef8a1","ios":"levelo://app?vid=e3f0616c-c126-46d5-839f-ad84d1cef8a1"},"vehicle_type_id":"4","last_reported":1745000011,"current_range_meters":11200,"station_id":"ce4bgv92rcd13ifvqcq0","pricing_plan_id":"cebpf4jnsgd1na2vs0mg"},{"bike_id":"151805ab-de3e-4b7b-b29f-4d66529ea29a","system_id":"levelo_inurba_marseille","lat":43.29565,"lon":5.42297,"is_reserved":false,"is_disabled":false,"rental_uris":{"android":"levelo://app?vid=151805ab-de3e-4b7b-b29f-4d66529ea29a","ios":"levelo://app?vid=151805ab-de3e-4b7b-b29f-4d66529ea29a"},"vehicle_type_id":"4","last_reported":1745000011,"current_range_meters":11200,"station_id":"ce4bhph2rcd13ifvqhdg","pricing_plan_id":"cebpf4jnsgd1na2vs0mg"},{"bike_id":"7e5de594-f4e8-4ae5-8d4c-a3076910649f","system_id":"levelo_inurba_marseille","lat":43.28003,"lon":5.4001,"is_reserved":false,"is_disabled":false,"rental_uris":{"android":"levelo://app?vid=7e5de594-f4e8-4ae5-8d4c-a3076910649f","ios":"levelo://app?vid=7e5de594-f4e8-4ae5-8d4c-a3076910649f"},"vehicle_type_id":"4","last_reported":1745000011,"current_range_meters":11600,"station_id":"ce4bho92rcd13ifvqh4g","pricing_plan_id":"cebpf4jnsgd1na2vs0mg"},{"bike_id":"d480d0a4-2614-490a-b65d-a17b031a157f","system_id":"levelo_inurba_marseille","lat":43.29554,"lon":5.38547,"is_reserved":false,"is_disabled":false,"rental_uris":{"android":"levelo://app?vid=d480d0a4-2614-490a-b65d-a17b031a157f","ios":"levelo://app?vid=d480d0a4-2614-490a-b65d-a17b031a157f"},"vehicle_type_id":"4","last_reported":1745000011,"current_range_meters":11600,"station_id":"ce4bgih2rcd13ifvqba0","pricing_plan_id":"cebpf4jnsgd1na2vs0mg"},{"bike_id":"1d68824a-8775-4836-b6c8-1e726e55e897","system_id":"levelo_inurba_marseille","lat":43.26061,"lon":5.394,"is_reserved":false,"is_disabled":false,"rental_uris":{"android":"levelo://app?vid=1d68824a-8775-4836-b6c8-1e726e55e897","ios":"levelo://app?vid=1d68824a-8775-4836-b6c8-1e726e55e897"},"vehicle_type_id":"4","last_reported":1745000011,"current_range_meters":11600,"station_id":"ce4bhh92rcd13ifvqfj0","pricing_plan_id":"cebpf4jnsgd1na2vs0mg"},{"bike_id":"7f6a4a3f-00a7-4973-8811-8b0eccec446f","system_id":"levelo_inurba_marseille","lat":43.29197,"lon":5.35808,"is_reserved":false,"is_disabled":false,"rental_uris":{"android":"levelo://app?vid=7f6a4a3f-00a7-4973-8811-8b0eccec446f","ios":"levelo://app?vid=7f6a4a3f-00a7-4973-8811-8b0eccec446f"},"vehicle_type_id":"4","last_reported":1745000011,"current_range_meters":11600,"station_id":"ce4bhb12rcd13ifvqel0","pricing_plan_id":"cebpf4jnsgd1na2vs0mg"},{"bike_id":"07edbf1c-3eb0-45ef-be0b-6b53731c28c7","system_id":"levelo_inurba_marseille","lat":43.30539,"lon":5.38441,"is_reserved":false,"is_disabled":false,"rental_uris":{"android":"levelo://app?vid=07edbf1c-3eb0-45ef-be0b-6b53731c28c7","ios":"levelo://app?vid=07edbf1c-3eb0-45ef-be0b-6b53731c28c7"},"vehicle_type_id":"4","last_reported":1745000011,"current_range_meters":11200,"station_id":"ce4bgg92rcd13ifvqb30","pricing_plan_id":"cebpf4jnsgd1na2vs0mg"},{"bike_id":"d61db90b-4495-4ac5-8c09-757053b41ca8","system_id":"levelo_inurba_marseille","lat":43.24649,"lon":5.38894,"is_reserved":false,"is_disabled":false,"rental_uris":{"android":"levelo://app?vid=d61db90b-4495-4ac5-8c09-757053b41ca8","ios":"levelo://app?vid=d61db90b-4495-4ac5-8c09-757053b41ca8"},"vehicle_type_id":"4","last_reported":1745000011,"current_range_meters":11600,"station_id":"ce4bhg12rcd13ifvqf60","pricing_plan_id":"cebpf4jnsgd1na2vs0mg"},{"bike_id":"8bb6c584-390a-4a40-b4fa-dcf67f632e48","system_id":"levelo_inurba_marseille","lat":43.24669,"lon":5.38175,"is_reserved":false,"is_disabled":false,"rental_uris":{"android":"levelo://app?vid=8bb6c584-390a-4a40-b4fa-dcf67f632e48","ios":"levelo://app?vid=8bb6c584-390a-4a40-b4fa-dcf67f632e48"},"vehicle_type_id":"4","last_reported":1745000011,"current_range_meters":11200,"station_id":"ce4bhih2rcd13ifvqfr0","pricing_plan_id":"cebpf4jnsgd1na2vs0mg"},{"bike_id":"773e4f31-1b77-4aad-b330-03d6c76954fb","system_id":"levelo_inurba_marseille","lat":43.29421,"lon":5.38627,"is_reserved":false,"is_disabled":false,"rental_uris":{"android":"levelo://app?vid=773e4f31-1b77-4aad-b330-03d6c76954fb","ios":"levelo://app?vid=773e4f31-1b77-4aad-b330-03d6c76954fb"},"vehicle_type_id":"4","last_reported":1745000011,"current_range_meters":11600,"station_id":"ce4bh2h2rcd13ifvqdh0","pricing_plan_id":"cebpf4jnsgd1na2vs0mg"},{"bike_id":"449554c8-fb5b-46a3-a2c1-bb83963657ec","system_id":"levelo_inurba_marseille","lat":43.3015,"lon":5.3878,"is_reserved":false,"is_disabled":false,"rental_uris":{"android":"levelo://app?vid=449554c8-fb5b-46a3-a2c1-bb83963657ec","ios":"levelo://app?vid=449554c8-fb5b-46a3-a2c1-bb83963657ec"},"vehicle_type_id":"4","last_reported":1745000011,"current_range_meters":11200,"station_id":"ce4bghh2rcd13ifvqb60","pricing_plan_id":"cebpf4jnsgd1na2vs0mg"},{"bike_id":"7a794c2b-98cd-4228-bc0a-542fb12b1915","system_id":"levelo_inurba_marseille","lat":43.29518,"lon":5.38563,"is_reserved":false,"is_disabled":false,"rental_uris":{"android":"levelo://app?vid=7a794c2b-98cd-4228-bc0a-542fb12b1915","ios":"levelo://app?vid=7a794c2b-98cd-4228-bc0a-542fb12b1915"},"vehicle_type_id":"4","last_reported":1745000011,"current_range_meters":11600,"station_id":"ce4bgih2rcd13ifvqba0","pricing_plan_id":"cebpf4jnsgd1na2vs0mg"},{"bike_id":"1ba51903-2fd7-471d-8232-e715ab738c77","system_id":"levelo_inurba_marseille","lat":43.29195,"lon":5.39335,"is_reserved":false,"is_disabled":false,"rental_uris":{"android":"levelo://app?vid=1ba51903-2fd7-471d-8232-e715ab738c77","ios":"levelo://app?vid=1ba51903-2fd7-471d-8232-e715ab738c77"},"vehicle_type_id":"4","last_reported":1745000011,"current_range_meters":11600,"station_id":"ce4bh192rcd13ifvqdd0","pricing_plan_id":"cebpf4jnsgd1na2vs0mg"},{"bike_id":"934a8fc0-98f8-4aaf-a145-d485dee937c7","system_id":"levelo_inurba_marseille","lat":43.323704,"lon":5.367726,"is_reserved":false,"is_disabled":false,"rental_uris":{"android":"levelo://app?vid=934a8fc0-98f8-4aaf-a145-d485dee937c7","ios":"levelo://app?vid=934a8fc0-98f8-4aaf-a145-d485dee937c7"},"vehicle_type_id":"4","last_reported":1745000011,"current_range_meters":11600,"station_id":"ce4bhsh2rcd13ifvqi2g","pricing_plan_id":"cebpf4jnsgd1na2vs0mg"},{"bike_id":"c5b87360-017e-4658-a686-d4fa345f43de","system_id":"levelo_inurba_marseille","lat":43.299522,"lon":5.385391,"is_reserved":false,"is_disabled":false,"rental_uris":{"android":"levelo://app?vid=c5b87360-017e-4658-a686-d4fa345f43de","ios":"levelo://app?vid=c5b87360-017e-4658-a686-d4fa345f43de"},"vehicle_type_id":"4","last_reported":1745000011,"current_range_meters":12000,"station_id":"ce4bgj92rcd13ifvqbd0","pricing_plan_id":"cebpf4jnsgd1na2vs0mg"},{"bike_id":"63ea7073-28fc-44a7-bbc2-5ff0877db960","system_id":"levelo_inurba_marseille","lat":43.28352,"lon":5.35775,"is_reserved":false,"is_disabled":false,"rental_uris":{"android":"levelo://app?vid=63ea7073-28fc-44a7-bbc2-5ff0877db960","ios":"levelo://app?vid=63ea7073-28fc-44a7-bbc2-5ff0877db960"},"vehicle_type_id":"4","last_reported":1745000011,"current_range_meters":12000,"station_id":"","pricing_plan_id":"cebpf4jnsgd1na2vs0mg"},{"bike_id":"9fdd504e-9015-4339-9be5-c4a944322fdd","system_id":"levelo_inurba_marseille","lat":43.31755,"lon":5.39018,"is_reserved":false,"is_disabled":false,"rental_uris":{"android":"levelo://app?vid=9fdd504e-9015-4339-9be5-c4a944322fdd","ios":"levelo://app?vid=9fdd504e-9015-4339-9be5-c4a944322fdd"},"vehicle_type_id":"4","last_reported":1745000011,"current_range_meters":12000,"station_id":"ce4bhqp2rcd13ifvqhng","pricing_plan_id":"cebpf4jnsgd1na2vs0mg"},{"bike_id":"016c8560-d952-4675-b2a7-be04584bcd18","system_id":"levelo_inurba_marseille","lat":43.31355,"lon":5.38492,"is_reserved":false,"is_disabled":false,"rental_uris":{"android":"levelo://app?vid=016c8560-d952-4675-b2a7-be04584bcd18","ios":"levelo://app?vid=016c8560-d952-4675-b2a7-be04584bcd18"},"vehicle_type_id":"4","last_reported":1745000011,"current_range_meters":12000,"station_id":"ce4bgt92rcd13ifvqcf0","pricing_plan_id":"cebpf4jnsgd1na2vs0mg"},{"bike_id":"dc8e8b08-311f-4123-bdbc-19651a9dc4f8","system_id":"levelo_inurba_marseille","lat":43.2409,"lon":5.37769,"is_reserved":false,"is_disabled":false,"rental_uris":{"android":"levelo://app?vid=dc8e8b08-311f-4123-bdbc-19651a9dc4f8","ios":"levelo://app?vid=dc8e8b08-311f-4123-bdbc-19651a9dc4f8"},"vehicle_type_id":"4","last_reported":1745000011,"current_range_meters":12000,"station_id":"ce4bhnp2rcd13ifvqgvg","pricing_plan_id":"cebpf4jnsgd1na2vs0mg"},{"bike_id":"2f6661f3-ab55-49fe-ae4b-99dfbb136e90","system_id":"levelo_inurba_marseille","lat":43.29718,"lon":5.37684,"is_reserved":false,"is_disabled":false,"rental_uris":{"android":"levelo://app?vid=2f6661f3-ab55-49fe-ae4b-99dfbb136e90","ios":"levelo://app?vid=2f6661f3-ab55-49fe-ae4b-99dfbb136e90"},"vehicle_type_id":"4","last_reported":1745000011,"current_range_meters":12000,"station_id":"ce4bgkh2rcd13ifvqbl0","pricing_plan_id":"cebpf4jnsgd1na2vs0mg"},{"bike_id":"14bfc94c-bac0-4c65-8a8f-04cdd164cd0e","system_id":"levelo_inurba_marseille","lat":43.29415,"lon":5.38637,"is_reserved":false,"is_disabled":false,"rental_uris":{"android":"levelo://app?vid=14bfc94c-bac0-4c65-8a8f-04cdd164cd0e","ios":"levelo://app?vid=14bfc94c-bac0-4c65-8a8f-04cdd164cd0e"},"vehicle_type_id":"4","last_reported":1745000011,"current_range_meters":12000,"station_id":"ce4bh2h2rcd13ifvqdh0","pricing_plan_id":"cebpf4jnsgd1na2vs0mg"},{"bike_id":"5d4c9cc0-56a3-468c-9bfd-437b9498da8b","system_id":"levelo_inurba_marseille","lat":43.28345,"lon":5.38109,"is_reserved":false,"is_disabled":false,"rental_uris":{"android":"levelo://app?vid=5d4c9cc0-56a3-468c-9bfd-437b9498da8b","ios":"levelo://app?vid=5d4c9cc0-56a3-468c-9bfd-437b9498da8b"},"vehicle_type_id":"4","last_reported":1745000011,"current_range_meters":12000,"station_id":"ce4bh412rcd13ifvqdr0","pricing_plan_id":"cebpf4jnsgd1na2vs0mg"},{"bike_id":"0412a1ca-4def-4ac7-bfaa-effc8cbb5510","system_id":"levelo_inurba_marseille","lat":43.229305,"lon":5.353764,"is_reserved":false,"is_disabled":false,"rental_uris":{"android":"levelo://app?vid=0412a1ca-4def-4ac7-bfaa-effc8cbb5510","ios":"levelo://app?vid=0412a1ca-4def-4ac7-bfaa-effc8cbb5510"},"vehicle_type_id":"4","last_reported":1745000011,"current_range_meters":12000,"station_id":"cpo3532slgdg3j2ikp40","pricing_plan_id":"cebpf4jnsgd1na2vs0mg"},{"bike_id":"a0ddb0a5-f7f0-4281-aa27-9e82747cc573","system_id":"levelo_inurba_marseille","lat":43.33754,"lon":5.37491,"is_reserved":false,"is_disabled":false,"rental_uris":{"android":"levelo://app?vid=a0ddb0a5-f7f0-4281-aa27-9e82747cc573","ios":"levelo://app?vid=a0ddb0a5-f7f0-4281-aa27-9e82747cc573"},"vehicle_type_id":"4","last_reported":1745000011,"current_range_meters":12000,"station_id":"","pricing_plan_id":"cebpf4jnsgd1na2vs0mg"},{"bike_id":"c00e94ae-77c8-4801-83fb-f67efffd20ec","system_id":"levelo_inurba_marseille","lat":43.31116,"lon":5.37762,"is_reserved":false,"is_disabled":false,"rental_uris":{"android":"levelo://app?vid=c00e94ae-77c8-4801-83fb-f67efffd20ec","ios":"levelo://app?vid=c00e94ae-77c8-4801-83fb-f67efffd20ec"},"vehicle_type_id":"4","last_reported":1745000011,"current_range_meters":12400,"station_id":"ce4bgt92rcd13ifvqcg0","pricing_plan_id":"cebpf4jnsgd1na2vs0mg"},{"bike_id":"c09b1ff6-1e1f-4cd6-9ee9-4e1b23955bbc","system_id":"levelo_inurba_marseille","lat":43.231965,"lon":5.355517,"is_reserved":false,"is_disabled":true,"rental_uris":{"android":"levelo://app?vid=c09b1ff6-1e1f-4cd6-9ee9-4e1b23955bbc","ios":"levelo://app?vid=c09b1ff6-1e1f-4cd6-9ee9-4e1b23955bbc"},"vehicle_type_id":"4","last_reported":1745000011,"current_range_meters":12400,"station_id":"ce4bhu92rcd13ifvqi70","pricing_plan_id":"cebpf4jnsgd1na2vs0mg"},{"bike_id":"b548ebe5-1c23-4158-a043-5345beee3847","system_id":"levelo_inurba_marseille","lat":43.29422,"lon":5.38592,"is_reserved":false,"is_disabled":false,"rental_uris":{"android":"levelo://app?vid=b548ebe5-1c23-4158-a043-5345beee3847","ios":"levelo://app?vid=b548ebe5-1c23-4158-a043-5345beee3847"},"vehicle_type_id":"4","last_reported":1745000011,"current_range_meters":12400,"station_id":"ce4bh2h2rcd13ifvqdh0","pricing_plan_id":"cebpf4jnsgd1na2vs0mg"},{"bike_id":"f5d331f9-ec64-4d12-9414-867c48f3aff9","system_id":"levelo_inurba_marseille","lat":43.29307,"lon":5.37175,"is_reserved":false,"is_disabled":false,"rental_uris":{"android":"levelo://app?vid=f5d331f9-ec64-4d12-9414-867c48f3aff9","ios":"levelo://app?vid=f5d331f9-ec64-4d12-9414-867c48f3aff9"},"vehicle_type_id":"4","last_reported":1745000011,"current_range_meters":12400,"station_id":"ce4bgh92rcd13ifvqb40","pricing_plan_id":"cebpf4jnsgd1na2vs0mg"},{"bike_id":"a957eb56-d086-4436-8c74-4f0ca257d8c9","system_id":"levelo_inurba_marseille","lat":43.25726,"lon":5.41108,"is_reserved":false,"is_disabled":false,"rental_uris":{"android":"levelo://app?vid=a957eb56-d086-4436-8c74-4f0ca257d8c9","ios":"levelo://app?vid=a957eb56-d086-4436-8c74-4f0ca257d8c9"},"vehicle_type_id":"4","last_reported":1745000011,"current_range_meters":12000,"station_id":"ce4bhkp2rcd13ifvqgd0","pricing_plan_id":"cebpf4jnsgd1na2vs0mg"},{"bike_id":"33efbe4e-e642-4271-be29-4926b421ca5b","system_id":"levelo_inurba_marseille","lat":43.24164,"lon":5.36394,"is_reserved":false,"is_disabled":false,"rental_uris":{"android":"levelo://app?vid=33efbe4e-e642-4271-be29-4926b421ca5b","ios":"levelo://app?vid=33efbe4e-e642-4271-be29-4926b421ca5b"},"vehicle_type_id":"4","last_reported":1745000011,"current_range_meters":12400,"station_id":"cpo36qri1sfpv3e86is0","pricing_plan_id":"cebpf4jnsgd1na2vs0mg"},{"bike_id":"2816fba1-6718-4e66-aa87-f138e5b5f0b7","system_id":"levelo_inurba_marseille","lat":43.247986,"lon":5.374604,"is_reserved":false,"is_disabled":false,"rental_uris":{"android":"levelo://app?vid=2816fba1-6718-4e66-aa87-f138e5b5f0b7","ios":"levelo://app?vid=2816fba1-6718-4e66-aa87-f138e5b5f0b7"},"vehicle_type_id":"4","last_reported":1745000011,"current_range_meters":12000,"station_id":"ce4bhgh2rcd13ifvqfb0","pricing_plan_id":"cebpf4jnsgd1na2vs0mg"},{"bike_id":"4b168609-d239-4b65-8201-9bb19ebd908c","system_id":"levelo_inurba_marseille","lat":43.29066,"lon":5.37166,"is_reserved":false,"is_disabled":false,"rental_uris":{"android":"levelo://app?vid=4b168609-d239-4b65-8201-9bb19ebd908c","ios":"levelo://app?vid=4b168609-d239-4b65-8201-9bb19ebd908c"},"vehicle_type_id":"4","last_reported":1745000011,"current_range_meters":12000,"station_id":"ce4bh5p2rcd13ifvqe4g","pricing_plan_id":"cebpf4jnsgd1na2vs0mg"},{"bike_id":"c7e0df08-f2ca-49d4-aede-e125ac483b73","system_id":"levelo_inurba_marseille","lat":43.26501,"lon":5.39535,"is_reserved":false,"is_disabled":false,"rental_uris":{"android":"levelo://app?vid=c7e0df08-f2ca-49d4-aede-e125ac483b73","ios":"levelo://app?vid=c7e0df08-f2ca-49d4-aede-e125ac483b73"},"vehicle_type_id":"4","last_reported":1745000011,"current_range_meters":12800,"station_id":"ce4bhi12rcd13ifvqfq0","pricing_plan_id":"cebpf4jnsgd1na2vs0mg"},{"bike_id":"2521a350-ef67-406e-97dd-8e229ac28a69","system_id":"levelo_inurba_marseille","lat":43.28939,"lon":5.36631,"is_reserved":false,"is_disabled":false,"rental_uris":{"android":"levelo://app?vid=2521a350-ef67-406e-97dd-8e229ac28a69","ios":"levelo://app?vid=2521a350-ef67-406e-97dd-8e229ac28a69"},"vehicle_type_id":"4","last_reported":1745000011,"current_range_meters":12400,"station_id":"ce4bhap2rcd13ifvqek0","pricing_plan_id":"cebpf4jnsgd1na2vs0mg"},{"bike_id":"ef6e9c6f-8f69-4fcf-9727-b556a001e5bc","system_id":"levelo_inurba_marseille","lat":43.29559,"lon":5.42289,"is_reserved":false,"is_disabled":false,"rental_uris":{"android":"levelo://app?vid=ef6e9c6f-8f69-4fcf-9727-b556a001e5bc","ios":"levelo://app?vid=ef6e9c6f-8f69-4fcf-9727-b556a001e5bc"},"vehicle_type_id":"4","last_reported":1745000011,"current_range_meters":12800,"station_id":"ce4bhph2rcd13ifvqhdg","pricing_plan_id":"cebpf4jnsgd1na2vs0mg"},{"bike_id":"a28a3f8c-38fc-4308-b382-75c9a725c27e","system_id":"levelo_inurba_marseille","lat":43.29412,"lon":5.38593,"is_reserved":false,"is_disabled":false,"rental_uris":{"android":"levelo://app?vid=a28a3f8c-38fc-4308-b382-75c9a725c27e","ios":"levelo://app?vid=a28a3f8c-38fc-4308-b382-75c9a725c27e"},"vehicle_type_id":"4","last_reported":1745000011,"current_range_meters":12800,"station_id":"ce4bh2h2rcd13ifvqdh0","pricing_plan_id":"cebpf4jnsgd1na2vs0mg"},{"bike_id":"877648fd-443b-431d-83ae-2f50906bad89","system_id":"levelo_inurba_marseille","lat":43.285745,"lon":5.394924,"is_reserved":false,"is_disabled":false,"rental_uris":{"android":"levelo://app?vid=877648fd-443b-431d-83ae-2f50906bad89","ios":"levelo://app?vid=877648fd-443b-431d-83ae-2f50906bad89"},"vehicle_type_id":"4","last_reported":1745000011,"current_range_meters":12800,"station_id":"ce4bhoh2rcd13ifvqh5g","pricing_plan_id":"cebpf4jnsgd1na2vs0mg"},{"bike_id":"68342d9f-f0b6-47e7-b690-b27078e67a77","system_id":"levelo_inurba_marseille","lat":43.24162,"lon":5.36456,"is_reserved":false,"is_disabled":false,"rental_uris":{"android":"levelo://app?vid=68342d9f-f0b6-47e7-b690-b27078e67a77","ios":"levelo://app?vid=68342d9f-f0b6-47e7-b690-b27078e67a77"},"vehicle_type_id":"4","last_reported":1745000011,"current_range_meters":13600,"station_id":"","pricing_plan_id":"cebpf4jnsgd1na2vs0mg"},{"bike_id":"a84c6798-87cc-40f6-ac43-3a8c436bfb21","system_id":"levelo_inurba_marseille","lat":43.28456,"lon":5.35891,"is_reserved":false,"is_disabled":false,"rental_uris":{"android":"levelo://app?vid=a84c6798-87cc-40f6-ac43-3a8c436bfb21","ios":"levelo://app?vid=a84c6798-87cc-40f6-ac43-3a8c436bfb21"},"vehicle_type_id":"4","last_reported":1745000011,"current_range_meters":13600,"station_id":"ce4bhah2rcd13ifvqei0","pricing_plan_id":"cebpf4jnsgd1na2vs0mg"},{"bike_id":"942a15f6-93c9-4a32-8445-d7ec86497fba","system_id":"levelo_inurba_marseille","lat":43.27936,"lon":5.4104,"is_reserved":false,"is_disabled":false,"rental_uris":{"android":"levelo://app?vid=942a15f6-93c9-4a32-8445-d7ec86497fba","ios":"levelo://app?vid=942a15f6-93c9-4a32-8445-d7ec86497fba"},"vehicle_type_id":"4","last_reported":1745000011,"current_range_meters":13600,"station_id":"ce4bhnp2rcd13ifvqh0g","pricing_plan_id":"cebpf4jnsgd1na2vs0mg"},{"bike_id":"6f523da1-5f60-475c-93df-7a5b709bcac9","system_id":"levelo_inurba_marseille","lat":43.23193,"lon":5.35543,"is_reserved":false,"is_disabled":false,"rental_uris":{"android":"levelo://app?vid=6f523da1-5f60-475c-93df-7a5b709bcac9","ios":"levelo://app?vid=6f523da1-5f60-475c-93df-7a5b709bcac9"},"vehicle_type_id":"4","last_reported":1745000011,"current_range_meters":13600,"station_id":"ce4bhu92rcd13ifvqi70","pricing_plan_id":"cebpf4jnsgd1na2vs0mg"},{"bike_id":"47ac1e51-3942-4c9c-aa31-38a3ed63f422","system_id":"levelo_inurba_marseille","lat":43.24801,"lon":5.37452,"is_reserved":false,"is_disabled":false,"rental_uris":{"android":"levelo://app?vid=47ac1e51-3942-4c9c-aa31-38a3ed63f422","ios":"levelo://app?vid=47ac1e51-3942-4c9c-aa31-38a3ed63f422"},"vehicle_type_id":"4","last_reported":1745000011,"current_range_meters":13600,"station_id":"ce4bhgh2rcd13ifvqfb0","pricing_plan_id":"cebpf4jnsgd1na2vs0mg"},{"bike_id":"d062c74e-9246-4d25-b1fa-c2f8120c3819","system_id":"levelo_inurba_marseille","lat":43.301459,"lon":5.387745,"is_reserved":false,"is_disabled":false,"rental_uris":{"android":"levelo://app?vid=d062c74e-9246-4d25-b1fa-c2f8120c3819","ios":"levelo://app?vid=d062c74e-9246-4d25-b1fa-c2f8120c3819"},"vehicle_type_id":"4","last_reported":1745000011,"current_range_meters":12800,"station_id":"ce4bghh2rcd13ifvqb60","pricing_plan_id":"cebpf4jnsgd1na2vs0mg"},{"bike_id":"5bb6499f-e4ba-4b78-b0d7-98311ea690e9","system_id":"levelo_inurba_marseille","lat":43.265,"lon":5.39532,"is_reserved":false,"is_disabled":false,"rental_uris":{"android":"levelo://app?vid=5bb6499f-e4ba-4b78-b0d7-98311ea690e9","ios":"levelo://app?vid=5bb6499f-e4ba-4b78-b0d7-98311ea690e9"},"vehicle_type_id":"4","last_reported":1745000011,"current_range_meters":13600,"station_id":"ce4bhi12rcd13ifvqfq0","pricing_plan_id":"cebpf4jnsgd1na2vs0mg"},{"bike_id":"23839987-3fa1-40bd-a978-b765b96ff39e","system_id":"levelo_inurba_marseille","lat":43.29199,"lon":5.39337,"is_reserved":false,"is_disabled":false,"rental_uris":{"android":"levelo://app?vid=23839987-3fa1-40bd-a978-b765b96ff39e","ios":"levelo://app?vid=23839987-3fa1-40bd-a978-b765b96ff39e"},"vehicle_type_id":"4","last_reported":1745000011,"current_range_meters":13600,"station_id":"ce4bh192rcd13ifvqdd0","pricing_plan_id":"cebpf4jnsgd1na2vs0mg"},{"bike_id":"709594ef-4d5a-43e4-8bb0-c482c9fa12f8","system_id":"levelo_inurba_marseille","lat":43.30896,"lon":5.39651,"is_reserved":false,"is_disabled":true,"rental_uris":{"android":"levelo://app?vid=709594ef-4d5a-43e4-8bb0-c482c9fa12f8","ios":"levelo://app?vid=709594ef-4d5a-43e4-8bb0-c482c9fa12f8"},"vehicle_type_id":"4","last_reported":1745000011,"current_range_meters":14000,"station_id":"ce4bh012rcd13ifvqcv0","pricing_plan_id":"cebpf4jnsgd1na2vs0mg"},{"bike_id":"7eb8853e-3665-40f5-8308-1299f0674652","system_id":"levelo_inurba_marseille","lat":43.303728,"lon":5.424884,"is_reserved":false,"is_disabled":false,"rental_uris":{"android":"levelo://app?vid=7eb8853e-3665-40f5-8308-1299f0674652","ios":"levelo://app?vid=7eb8853e-3665-40f5-8308-1299f0674652"},"vehicle_type_id":"4","last_reported":1745000011,"current_range_meters":14000,"station_id":"ce4bhoh2rcd13ifvqh6g","pricing_plan_id":"cebpf4jnsgd1na2vs0mg"},{"bike_id":"110c4abb-ffb8-4fd0-ba35-0e68e73379e5","system_id":"levelo_inurba_marseille","lat":43.229353,"lon":5.353816,"is_reserved":false,"is_disabled":false,"rental_uris":{"android":"levelo://app?vid=110c4abb-ffb8-4fd0-ba35-0e68e73379e5","ios":"levelo://app?vid=110c4abb-ffb8-4fd0-ba35-0e68e73379e5"},"vehicle_type_id":"4","last_reported":1745000011,"current_range_meters":14000,"station_id":"cpo3532slgdg3j2ikp40","pricing_plan_id":"cebpf4jnsgd1na2vs0mg"},{"bike_id":"ff813cff-5819-42dc-bdca-d0fd88981d6b","system_id":"levelo_inurba_marseille","lat":43.29107,"lon":5.3813,"is_reserved":false,"is_disabled":false,"rental_uris":{"android":"levelo://app?vid=ff813cff-5819-42dc-bdca-d0fd88981d6b","ios":"levelo://app?vid=ff813cff-5819-42dc-bdca-d0fd88981d6b"},"vehicle_type_id":"4","last_reported":1745000011,"current_range_meters":14400,"station_id":"ce4bh512rcd13ifvqe2g","pricing_plan_id":"cebpf4jnsgd1na2vs0mg"},{"bike_id":"1eaca8f5-0017-418a-9bfc-52185bf67513","system_id":"levelo_inurba_marseille","lat":43.33749,"lon":5.392,"is_reserved":false,"is_disabled":false,"rental_uris":{"android":"levelo://app?vid=1eaca8f5-0017-418a-9bfc-52185bf67513","ios":"levelo://app?vid=1eaca8f5-0017-418a-9bfc-52185bf67513"},"vehicle_type_id":"4","last_reported":1745000011,"current_range_meters":14400,"station_id":"ce4bhr92rcd13ifvqhsg","pricing_plan_id":"cebpf4jnsgd1na2vs0mg"},{"bike_id":"e592a2cc-a9ff-4d2a-942e-36908c7b6b82","system_id":"levelo_inurba_marseille","lat":43.28612,"lon":5.35111,"is_reserved":false,"is_disabled":false,"rental_uris":{"android":"levelo://app?vid=e592a2cc-a9ff-4d2a-942e-36908c7b6b82","ios":"levelo://app?vid=e592a2cc-a9ff-4d2a-942e-36908c7b6b82"},"vehicle_type_id":"4","last_reported":1745000011,"current_range_meters":14400,"station_id":"ce4bhch2rcd13ifvqeug","pricing_plan_id":"cebpf4jnsgd1na2vs0mg"},{"bike_id":"ef871c8e-2013-4622-a683-0ab17a74d870","system_id":"levelo_inurba_marseille","lat":43.23189,"lon":5.35555,"is_reserved":false,"is_disabled":true,"rental_uris":{"android":"levelo://app?vid=ef871c8e-2013-4622-a683-0ab17a74d870","ios":"levelo://app?vid=ef871c8e-2013-4622-a683-0ab17a74d870"},"vehicle_type_id":"4","last_reported":1745000011,"current_range_meters":14400,"station_id":"ce4bhu92rcd13ifvqi70","pricing_plan_id":"cebpf4jnsgd1na2vs0mg"},{"bike_id":"e9eab627-d1cc-4251-9aaa-e6071603b415","system_id":"levelo_inurba_marseille","lat":43.28939,"lon":5.36648,"is_reserved":false,"is_disabled":false,"rental_uris":{"android":"levelo://app?vid=e9eab627-d1cc-4251-9aaa-e6071603b415","ios":"levelo://app?vid=e9eab627-d1cc-4251-9aaa-e6071603b415"},"vehicle_type_id":"4","last_reported":1745000011,"current_range_meters":14400,"station_id":"ce4bhap2rcd13ifvqek0","pricing_plan_id":"cebpf4jnsgd1na2vs0mg"},{"bike_id":"a783c6c9-5496-4726-8a1f-1992bf4ab62f","system_id":"levelo_inurba_marseille","lat":43.28413,"lon":5.34994,"is_reserved":false,"is_disabled":false,"rental_uris":{"android":"levelo://app?vid=a783c6c9-5496-4726-8a1f-1992bf4ab62f","ios":"levelo://app?vid=a783c6c9-5496-4726-8a1f-1992bf4ab62f"},"vehicle_type_id":"4","last_reported":1745000011,"current_range_meters":14400,"station_id":"ce4bhbh2rcd13ifvqepg","pricing_plan_id":"cebpf4jnsgd1na2vs0mg"},{"bike_id":"4e34ca03-c904-4fe8-83dd-e23205dd2812","system_id":"levelo_inurba_marseille","lat":43.28854,"lon":5.35858,"is_reserved":false,"is_disabled":false,"rental_uris":{"android":"levelo://app?vid=4e34ca03-c904-4fe8-83dd-e23205dd2812","ios":"levelo://app?vid=4e34ca03-c904-4fe8-83dd-e23205dd2812"},"vehicle_type_id":"4","last_reported":1745000011,"current_range_meters":14400,"station_id":"ce4bhb12rcd13ifvqem0","pricing_plan_id":"cebpf4jnsgd1na2vs0mg"},{"bike_id":"37037d64-976d-460a-9e46-d1e2e924bb63","system_id":"levelo_inurba_marseille","lat":43.27491,"lon":5.42442,"is_reserved":false,"is_disabled":false,"rental_uris":{"android":"levelo://app?vid=37037d64-976d-460a-9e46-d1e2e924bb63","ios":"levelo://app?vid=37037d64-976d-460a-9e46-d1e2e924bb63"},"vehicle_type_id":"4","last_reported":1745000011,"current_range_meters":14400,"station_id":"ce4bhn92rcd13ifvqgrg","pricing_plan_id":"cebpf4jnsgd1na2vs0mg"},{"bike_id":"5c4ead29-1e5e-49af-829a-7868c3cf014f","system_id":"levelo_inurba_marseille","lat":43.252546,"lon":5.402435,"is_reserved":false,"is_disabled":false,"rental_uris":{"android":"levelo://app?vid=5c4ead29-1e5e-49af-829a-7868c3cf014f","ios":"levelo://app?vid=5c4ead29-1e5e-49af-829a-7868c3cf014f"},"vehicle_type_id":"4","last_reported":1745000011,"current_range_meters":14400,"station_id":"ce4bhlh2rcd13ifvqgig","pricing_plan_id":"cebpf4jnsgd1na2vs0mg"},{"bike_id":"d2cfc9f6-8bb7-4bff-81e1-1bc6d0e7a8f0","system_id":"levelo_inurba_marseille","lat":43.31997,"lon":5.38151,"is_reserved":false,"is_disabled":false,"rental_uris":{"android":"levelo://app?vid=d2cfc9f6-8bb7-4bff-81e1-1bc6d0e7a8f0","ios":"levelo://app?vid=d2cfc9f6-8bb7-4bff-81e1-1bc6d0e7a8f0"},"vehicle_type_id":"4","last_reported":1745000011,"current_range_meters":14400,"station_id":"ce4bhr12rcd13ifvqhpg","pricing_plan_id":"cebpf4jnsgd1na2vs0mg"},{"bike_id":"618b1ab2-8e16-456a-b2f4-569f04634ba2","system_id":"levelo_inurba_marseille","lat":43.27814,"lon":5.4076,"is_reserved":false,"is_disabled":false,"rental_uris":{"android":"levelo://app?vid=618b1ab2-8e16-456a-b2f4-569f04634ba2","ios":"levelo://app?vid=618b1ab2-8e16-456a-b2f4-569f04634ba2"},"vehicle_type_id":"4","last_reported":1745000011,"current_range_meters":14400,"station_id":"ce4bhnh2rcd13ifvqgtg","pricing_plan_id":"cebpf4jnsgd1na2vs0mg"},{"bike_id":"20c6acad-9688-406f-a205-2a82b219c3f8","system_id":"levelo_inurba_marseille","lat":43.300802,"lon":5.390629,"is_reserved":false,"is_disabled":false,"rental_uris":{"android":"levelo://app?vid=20c6acad-9688-406f-a205-2a82b219c3f8","ios":"levelo://app?vid=20c6acad-9688-406f-a205-2a82b219c3f8"},"vehicle_type_id":"4","last_reported":1745000011,"current_range_meters":14400,"station_id":"ce4bh192rcd13ifvqdb0","pricing_plan_id":"cebpf4jnsgd1na2vs0mg"},{"bike_id":"e6dd6ae1-3bcb-4010-8c4f-946f95c5cd66","system_id":"levelo_inurba_marseille","lat":43.28859,"lon":5.35846,"is_reserved":false,"is_disabled":true,"rental_uris":{"android":"levelo://app?vid=e6dd6ae1-3bcb-4010-8c4f-946f95c5cd66","ios":"levelo://app?vid=e6dd6ae1-3bcb-4010-8c4f-946f95c5cd66"},"vehicle_type_id":"4","last_reported":1745000011,"current_range_meters":14800,"station_id":"ce4bhb12rcd13ifvqem0","pricing_plan_id":"cebpf4jnsgd1na2vs0mg"},{"bike_id":"e795e71c-278f-4127-91e9-6a1b36877fba","system_id":"levelo_inurba_marseille","lat":43.27993,"lon":5.40029,"is_reserved":false,"is_disabled":false,"rental_uris":{"android":"levelo://app?vid=e795e71c-278f-4127-91e9-6a1b36877fba","ios":"levelo://app?vid=e795e71c-278f-4127-91e9-6a1b36877fba"},"vehicle_type_id":"4","last_reported":1745000011,"current_range_meters":14800,"station_id":"ce4bho92rcd13ifvqh4g","pricing_plan_id":"cebpf4jnsgd1na2vs0mg"},{"bike_id":"26277edd-362a-40e2-be81-122d264bb4c5","system_id":"levelo_inurba_marseille","lat":43.29416,"lon":5.38632,"is_reserved":false,"is_disabled":false,"rental_uris":{"android":"levelo://app?vid=26277edd-362a-40e2-be81-122d264bb4c5","ios":"levelo://app?vid=26277edd-362a-40e2-be81-122d264bb4c5"},"vehicle_type_id":"4","last_reported":1745000011,"current_range_meters":14800,"station_id":"ce4bh2h2rcd13ifvqdh0","pricing_plan_id":"cebpf4jnsgd1na2vs0mg"},{"bike_id":"e5a9034d-16b2-4fc4-817e-9cb31bc472c3","system_id":"levelo_inurba_marseille","lat":43.32368,"lon":5.38893,"is_reserved":false,"is_disabled":false,"rental_uris":{"android":"levelo://app?vid=e5a9034d-16b2-4fc4-817e-9cb31bc472c3","ios":"levelo://app?vid=e5a9034d-16b2-4fc4-817e-9cb31bc472c3"},"vehicle_type_id":"4","last_reported":1745000011,"current_range_meters":15200,"station_id":"ce4bhqp2rcd13ifvqhog","pricing_plan_id":"cebpf4jnsgd1na2vs0mg"},{"bike_id":"186380b9-3dab-457b-b648-71d123fa0368","system_id":"levelo_inurba_marseille","lat":43.25103,"lon":5.40318,"is_reserved":false,"is_disabled":true,"rental_uris":{"android":"levelo://app?vid=186380b9-3dab-457b-b648-71d123fa0368","ios":"levelo://app?vid=186380b9-3dab-457b-b648-71d123fa0368"},"vehicle_type_id":"4","last_reported":1745000011,"current_range_meters":14800,"station_id":"ce4bhlh2rcd13ifvqgig","pricing_plan_id":"cebpf4jnsgd1na2vs0mg"},{"bike_id":"8cc6709d-642a-46a9-8338-45445b256433","system_id":"levelo_inurba_marseille","lat":43.29529,"lon":5.39393,"is_reserved":false,"is_disabled":false,"rental_uris":{"android":"levelo://app?vid=8cc6709d-642a-46a9-8338-45445b256433","ios":"levelo://app?vid=8cc6709d-642a-46a9-8338-45445b256433"},"vehicle_type_id":"4","last_reported":1745000011,"current_range_meters":14800,"station_id":"ce4bh292rcd13ifvqdf0","pricing_plan_id":"cebpf4jnsgd1na2vs0mg"},{"bike_id":"81d07084-66a1-44dc-ae08-3b708e7b5eb3","system_id":"levelo_inurba_marseille","lat":43.25011,"lon":5.38918,"is_reserved":false,"is_disabled":false,"rental_uris":{"android":"levelo://app?vid=81d07084-66a1-44dc-ae08-3b708e7b5eb3","ios":"levelo://app?vid=81d07084-66a1-44dc-ae08-3b708e7b5eb3"},"vehicle_type_id":"4","last_reported":1745000011,"current_range_meters":15200,"station_id":"ce4bhgp2rcd13ifvqfd0","pricing_plan_id":"cebpf4jnsgd1na2vs0mg"},{"bike_id":"91aa591a-3e56-4092-a295-ecb6aebe69eb","system_id":"levelo_inurba_marseille","lat":43.22506,"lon":5.34784,"is_reserved":false,"is_disabled":false,"rental_uris":{"android":"levelo://app?vid=91aa591a-3e56-4092-a295-ecb6aebe69eb","ios":"levelo://app?vid=91aa591a-3e56-4092-a295-ecb6aebe69eb"},"vehicle_type_id":"4","last_reported":1745000011,"current_range_meters":15200,"station_id":"st_cvj5dfep6f1abm77gieg","pricing_plan_id":"cebpf4jnsgd1na2vs0mg"},{"bike_id":"49f5d333-54bf-475d-8c25-f538119ecd21","system_id":"levelo_inurba_marseille","lat":43.29421,"lon":5.38627,"is_reserved":false,"is_disabled":false,"rental_uris":{"android":"levelo://app?vid=49f5d333-54bf-475d-8c25-f538119ecd21","ios":"levelo://app?vid=49f5d333-54bf-475d-8c25-f538119ecd21"},"vehicle_type_id":"4","last_reported":1745000011,"current_range_meters":15200,"station_id":"ce4bh2h2rcd13ifvqdh0","pricing_plan_id":"cebpf4jnsgd1na2vs0mg"},{"bike_id":"80cc7156-144a-4479-a070-d7a019d60108","system_id":"levelo_inurba_marseille","lat":43.28039,"lon":5.36955,"is_reserved":false,"is_disabled":false,"rental_uris":{"android":"levelo://app?vid=80cc7156-144a-4479-a070-d7a019d60108","ios":"levelo://app?vid=80cc7156-144a-4479-a070-d7a019d60108"},"vehicle_type_id":"4","last_reported":1745000011,"current_range_meters":14800,"station_id":"ce4bha12rcd13ifvqef0","pricing_plan_id":"cebpf4jnsgd1na2vs0mg"},{"bike_id":"150226b2-d144-4481-8e3e-c0714eebe811","system_id":"levelo_inurba_marseille","lat":43.284133,"lon":5.349811,"is_reserved":false,"is_disabled":false,"rental_uris":{"android":"levelo://app?vid=150226b2-d144-4481-8e3e-c0714eebe811","ios":"levelo://app?vid=150226b2-d144-4481-8e3e-c0714eebe811"},"vehicle_type_id":"4","last_reported":1745000011,"current_range_meters":15200,"station_id":"ce4bhbp2rcd13ifvqesg","pricing_plan_id":"cebpf4jnsgd1na2vs0mg"},{"bike_id":"21aa99d1-0124-408b-b23c-df7ae17eef67","system_id":"levelo_inurba_marseille","lat":43.28418,"lon":5.34975,"is_reserved":false,"is_disabled":false,"rental_uris":{"android":"levelo://app?vid=21aa99d1-0124-408b-b23c-df7ae17eef67","ios":"levelo://app?vid=21aa99d1-0124-408b-b23c-df7ae17eef67"},"vehicle_type_id":"4","last_reported":1745000011,"current_range_meters":15200,"station_id":"ce4bhbh2rcd13ifvqepg","pricing_plan_id":"cebpf4jnsgd1na2vs0mg"},{"bike_id":"6b688e10-01c2-4eb4-b864-7b72eef9fd7c","system_id":"levelo_inurba_marseille","lat":43.28926,"lon":5.36645,"is_reserved":false,"is_disabled":false,"rental_uris":{"android":"levelo://app?vid=6b688e10-01c2-4eb4-b864-7b72eef9fd7c","ios":"levelo://app?vid=6b688e10-01c2-4eb4-b864-7b72eef9fd7c"},"vehicle_type_id":"4","last_reported":1745000011,"current_range_meters":15200,"station_id":"ce4bhap2rcd13ifvqek0","pricing_plan_id":"cebpf4jnsgd1na2vs0mg"},{"bike_id":"97e50bb0-9a70-481b-b370-e509345e710a","system_id":"levelo_inurba_marseille","lat":43.28036,"lon":5.36941,"is_reserved":false,"is_disabled":true,"rental_uris":{"android":"levelo://app?vid=97e50bb0-9a70-481b-b370-e509345e710a","ios":"levelo://app?vid=97e50bb0-9a70-481b-b370-e509345e710a"},"vehicle_type_id":"4","last_reported":1745000011,"current_range_meters":16000,"station_id":"ce4bha12rcd13ifvqef0","pricing_plan_id":"cebpf4jnsgd1na2vs0mg"},{"bike_id":"10750f8d-2c15-4e4e-bad5-e3acf86b7303","system_id":"levelo_inurba_marseille","lat":43.29419,"lon":5.38625,"is_reserved":false,"is_disabled":false,"rental_uris":{"android":"levelo://app?vid=10750f8d-2c15-4e4e-bad5-e3acf86b7303","ios":"levelo://app?vid=10750f8d-2c15-4e4e-bad5-e3acf86b7303"},"vehicle_type_id":"4","last_reported":1745000011,"current_range_meters":16000,"station_id":"ce4bh2h2rcd13ifvqdh0","pricing_plan_id":"cebpf4jnsgd1na2vs0mg"},{"bike_id":"12655e30-6f66-4912-b125-c063957e2b26","system_id":"levelo_inurba_marseille","lat":43.28464,"lon":5.35886,"is_reserved":false,"is_disabled":false,"rental_uris":{"android":"levelo://app?vid=12655e30-6f66-4912-b125-c063957e2b26","ios":"levelo://app?vid=12655e30-6f66-4912-b125-c063957e2b26"},"vehicle_type_id":"4","last_reported":1745000011,"current_range_meters":16000,"station_id":"ce4bhah2rcd13ifvqei0","pricing_plan_id":"cebpf4jnsgd1na2vs0mg"},{"bike_id":"789c3822-56ca-4769-bcd4-8845bdea2fda","system_id":"levelo_inurba_marseille","lat":43.24162,"lon":5.36426,"is_reserved":false,"is_disabled":false,"rental_uris":{"android":"levelo://app?vid=789c3822-56ca-4769-bcd4-8845bdea2fda","ios":"levelo://app?vid=789c3822-56ca-4769-bcd4-8845bdea2fda"},"vehicle_type_id":"4","last_reported":1745000011,"current_range_meters":16000,"station_id":"cpo36qri1sfpv3e86is0","pricing_plan_id":"cebpf4jnsgd1na2vs0mg"},{"bike_id":"e8725bce-5fb7-461d-9e6e-b13179a8da40","system_id":"levelo_inurba_marseille","lat":43.29254,"lon":5.37616,"is_reserved":false,"is_disabled":false,"rental_uris":{"android":"levelo://app?vid=e8725bce-5fb7-461d-9e6e-b13179a8da40","ios":"levelo://app?vid=e8725bce-5fb7-461d-9e6e-b13179a8da40"},"vehicle_type_id":"4","last_reported":1745000011,"current_range_meters":16000,"station_id":"ce4bgi12rcd13ifvqb80","pricing_plan_id":"cebpf4jnsgd1na2vs0mg"},{"bike_id":"b6821e5f-2b42-4cde-8784-0fb0fe3fb2be","system_id":"levelo_inurba_marseille","lat":43.24703,"lon":5.38167,"is_reserved":false,"is_disabled":false,"rental_uris":{"android":"levelo://app?vid=b6821e5f-2b42-4cde-8784-0fb0fe3fb2be","ios":"levelo://app?vid=b6821e5f-2b42-4cde-8784-0fb0fe3fb2be"},"vehicle_type_id":"4","last_reported":1745000011,"current_range_meters":16000,"station_id":"ce4bhih2rcd13ifvqfr0","pricing_plan_id":"cebpf4jnsgd1na2vs0mg"},{"bike_id":"a1c2c58e-2c9d-40f2-97f8-6f9dcd3df9b6","system_id":"levelo_inurba_marseille","lat":43.29963,"lon":5.38494,"is_reserved":false,"is_disabled":false,"rental_uris":{"android":"levelo://app?vid=a1c2c58e-2c9d-40f2-97f8-6f9dcd3df9b6","ios":"levelo://app?vid=a1c2c58e-2c9d-40f2-97f8-6f9dcd3df9b6"},"vehicle_type_id":"4","last_reported":1745000011,"current_range_meters":16000,"station_id":"ce4bgj92rcd13ifvqbd0","pricing_plan_id":"cebpf4jnsgd1na2vs0mg"},{"bike_id":"6acafc9e-6f2b-4790-a89e-6c581ba60ae0","system_id":"levelo_inurba_marseille","lat":43.29096,"lon":5.3815,"is_reserved":false,"is_disabled":false,"rental_uris":{"android":"levelo://app?vid=6acafc9e-6f2b-4790-a89e-6c581ba60ae0","ios":"levelo://app?vid=6acafc9e-6f2b-4790-a89e-6c581ba60ae0"},"vehicle_type_id":"4","last_reported":1745000011,"current_range_meters":16000,"station_id":"ce4bh512rcd13ifvqe2g","pricing_plan_id":"cebpf4jnsgd1na2vs0mg"},{"bike_id":"42accaf6-6a1f-40cf-8c70-73389f633ade","system_id":"levelo_inurba_marseille","lat":43.259366,"lon":5.409092,"is_reserved":false,"is_disabled":false,"rental_uris":{"android":"levelo://app?vid=42accaf6-6a1f-40cf-8c70-73389f633ade","ios":"levelo://app?vid=42accaf6-6a1f-40cf-8c70-73389f633ade"},"vehicle_type_id":"4","last_reported":1745000011,"current_range_meters":16000,"station_id":"","pricing_plan_id":"cebpf4jnsgd1na2vs0mg"},{"bike_id":"44f0545e-1841-4c5e-9b13-ec89454e45a3","system_id":"levelo_inurba_marseille","lat":43.32659,"lon":5.40995,"is_reserved":false,"is_disabled":false,"rental_uris":{"android":"levelo://app?vid=44f0545e-1841-4c5e-9b13-ec89454e45a3","ios":"levelo://app?vid=44f0545e-1841-4c5e-9b13-ec89454e45a3"},"vehicle_type_id":"4","last_reported":1745000011,"current_range_meters":16000,"station_id":"ce4bhpp2rcd13ifvqhgg","pricing_plan_id":"cebpf4jnsgd1na2vs0mg"},{"bike_id":"32114de9-c526-480f-98c0-6ffe2345af1c","system_id":"levelo_inurba_marseille","lat":43.29007,"lon":5.35624,"is_reserved":false,"is_disabled":false,"rental_uris":{"android":"levelo://app?vid=32114de9-c526-480f-98c0-6ffe2345af1c","ios":"levelo://app?vid=32114de9-c526-480f-98c0-6ffe2345af1c"},"vehicle_type_id":"4","last_reported":1745000011,"current_range_meters":16000,"station_id":"ce4bhb92rcd13ifvqen0","pricing_plan_id":"cebpf4jnsgd1na2vs0mg"},{"bike_id":"1b871466-8e67-456e-a3a1-196a777d957c","system_id":"levelo_inurba_marseille","lat":43.27985,"lon":5.40033,"is_reserved":false,"is_disabled":false,"rental_uris":{"android":"levelo://app?vid=1b871466-8e67-456e-a3a1-196a777d957c","ios":"levelo://app?vid=1b871466-8e67-456e-a3a1-196a777d957c"},"vehicle_type_id":"4","last_reported":1745000011,"current_range_meters":16000,"station_id":"ce4bho92rcd13ifvqh4g","pricing_plan_id":"cebpf4jnsgd1na2vs0mg"},